{"data": {"bikes": [{"fusion_lon": 0.0, "is_reserved": 0, "lat": 38.902654, "is_disabled": 0, "type": "electric_scooter", "lon": -77.03995533333334, "fusion_lat": 0.0, "name": "980f24b97fc47e867b259d275a8625db", "rental_uris": {"android": "https://dc.lft.to/lastmile_qr_scan", "ios": "https://dc.lft.to/lastmile_qr_scan"}, "bike_id": "980f24b97fc47e867b259d275a8625db"}, {"fusion_lon": 0.0, "is_reserved": 0, "lat": 38.90266066666667, "is_disabled": 0, "type": "electric_scooter", "lon": -77.03849883333334, "fusion_lat": 0.0, "name": "6eab4e6c1966257d0c91fd6a14335543", "rental_uris": {"android": "https://dc.lft.to/lastmile_qr_scan", "ios": "https://dc.lft.to/lastmile_qr_scan"}, "bike_id": "6eab4e6c1966257d0c91fd6a14335543"}, {"fusion_lon": 0.0, "is_reserved": 0, "lat": 38.919611333333336, "is_disabled": 0, "type": "electric_scooter", "lon": -77.0424485, "fusion_lat": 0.0, "name": "7c86350025f7648f0043f77ff3d06de8", "rental_uris": {"android": "https://dc.lft.to/lastmile_qr_scan", "ios": "https://dc.lft.to/lastmile_qr_scan"}, "bike_id": "7c86350025f7648f0043f77ff3d06de8"}, {"fusion_lon": 0.0, "is_reserved": 0, "lat": 38.90745616666667, "is_disabled": 0, "type": "electric_scooter", "lon": -77.04143116666667, "fusion_lat": 0.0, "name": "40816bb419a6137fc314bc0d293d92e0", "rental_uris": {"android": "https://dc.lft.to/lastmile_qr_scan", "ios": "https://dc.lft.to/lastmile_qr_scan"}, "bike_id": "40816bb419a6137fc314bc0d293d92e0"}, {"fusion_lon": 0.0, "is_reserved": 0, "lat": 38.92717833333333, "is_disabled": 0, "type": "electric_scooter", "lon": -77.0367945, "fusion_lat": 0.0, "name": "40c0b05463197c462d4d5bf737f21110", "rental_uris": {"android": "https://dc.lft.to/lastmile_qr_scan", "ios": "https://dc.lft.to/lastmile_qr_scan"}, "bike_id": "40c0b05463197c462d4d5bf737f21110"}, {"fusion_lon": 0.0, "is_reserved": 0, "lat": 38.862281833333334, "is_disabled": 0, "type": "electric_scooter", "lon": -76.994832, "fusion_lat": 0.0, "name": "4b4a310d988773968a0a42340de6e851", "rental_uris": {"android": "https://dc.lft.to/lastmile_qr_scan", "ios": "https://dc.lft.to/lastmile_qr_scan"}, "bike_id": "4b4a310d988773968a0a42340de6e851"}, {"fusion_lon": 0.0, "is_reserved": 0, "lat": 38.90254066666667, "is_disabled": 0, "type": "electric_scooter", "lon": -77.03413916666666, "fusion_lat": 0.0, "name": "1d518c125a38ebae8c98bc05dcb140d2", "rental_uris": {"android": "https://dc.lft.to/lastmile_qr_scan", "ios": "https://dc.lft.to/lastmile_qr_scan"}, "bike_id": "1d518c125a38ebae8c98bc05dcb140d2"}, {"fusion_lon": 0.0, "is_reserved": 0, "lat": 38.8966675, "is_disabled": 0, "type": "electric_scooter", "lon": -77.0502075, "fusion_lat": 0.0, "name": "5fb4187d5fe1086c65584793bb7161ca", "rental_uris": {"android": "https://dc.lft.to/lastmile_qr_scan", "ios": "https://dc.lft.to/lastmile_qr_scan"}, "bike_id": "5fb4187d5fe1086c65584793bb7161ca"}, {"fusion_lon": 0.0, "is_reserved": 0, "lat": 38.92546316666667, "is_disabled": 0, "type": "electric_scooter", "lon": -77.03402116666666, "fusion_lat": 0.0, "name": "d330c56bc2197771c3d299bea3ebed8a", "rental_uris": {"android": "https://dc.lft.to/lastmile_qr_scan", "ios": "https://dc.lft.to/lastmile_qr_scan"}, "bike_id": "d330c56bc2197771c3d299bea3ebed8a"}, {"fusion_lon": 0.0, "is_reserved": 0, "lat": 38.85727833333333, "is_disabled": 0, "type": "electric_scooter", "lon": -76.99102583333334, "fusion_lat": 0.0, "name": "fd0e3791040b05c2a318aeb965c8972f", "rental_uris": {"android": "https://dc.lft.to/lastmile_qr_scan", "ios": "https://dc.lft.to/lastmile_qr_scan"}, "bike_id": "fd0e3791040b05c2a318aeb965c8972f"}, {"fusion_lon": 0.0, "is_reserved": 0, "lat": 38.88598233333333, "is_disabled": 0, "type": "electric_scooter", "lon": -77.00323616666667, "fusion_lat": 0.0, "name": "2c178eacbf73fce54c5ce72b73a06221", "rental_uris": {"android": "https://dc.lft.to/lastmile_qr_scan", "ios": "https://dc.lft.to/lastmile_qr_scan"}, "bike_id": "2c178eacbf73fce54c5ce72b73a06221"}, {"fusion_lon": 0.0, "is_reserved": 0, "lat": 38.90565383333333, "is_disabled": 0, "type": "electric_scooter", "lon": -77.00575066666667, "fusion_lat": 0.0, "name": "5d9f97d094d0bd9f237c621a4862fed3", "rental_uris": {"android": "https://dc.lft.to/lastmile_qr_scan", "ios": "https://dc.lft.to/lastmile_qr_scan"}, "bike_id": "5d9f97d094d0bd9f237c621a4862fed3"}, {"fusion_lon": 0.0, "is_reserved": 0, "lat": 38.9222045, "is_disabled": 0, "type": "electric_scooter", "lon": -77.04327416666666, "fusion_lat": 0.0, "name": "56d9d40cd106563232cb246ec4282551", "rental_uris": {"android": "https://dc.lft.to/lastmile_qr_scan", "ios": "https://dc.lft.to/lastmile_qr_scan"}, "bike_id": "56d9d40cd106563232cb246ec4282551"}, {"fusion_lon": 0.0, "is_reserved": 0, "lat": 38.90888533333333, "is_disabled": 0, "type": "electric_scooter", "lon": -77.04132166666666, "fusion_lat": 0.0, "name": "1eeadb64876c4b8090d1167744aa09a3", "rental_uris": {"android": "https://dc.lft.to/lastmile_qr_scan", "ios": "https://dc.lft.to/lastmile_qr_scan"}, "bike_id": "1eeadb64876c4b8090d1167744aa09a3"}, {"fusion_lon": 0.0, "is_reserved": 0, "lat": 38.91841983333333, "is_disabled": 0, "type": "electric_scooter", "lon": -77.0228085, "fusion_lat": 0.0, "name": "5d9877d9c00634cf673fd96b72a8b921", "rental_uris": {"android": "https://dc.lft.to/lastmile_qr_scan", "ios": "https://dc.lft.to/lastmile_qr_scan"}, "bike_id": "5d9877d9c00634cf673fd96b72a8b921"}, {"fusion_lon": 0.0, "is_reserved": 0, "lat": 38.9052765, "is_disabled": 0, "type": "electric_scooter", "lon": -76.996358, "fusion_lat": 0.0, "name": "22b60f5461638b9b28a98a7057ce9488", "rental_uris": {"android": "https://dc.lft.to/lastmile_qr_scan", "ios": "https://dc.lft.to/lastmile_qr_scan"}, "bike_id": "22b60f5461638b9b28a98a7057ce9488"}, {"fusion_lon": 0.0, "is_reserved": 0, "lat": 38.914101333333335, "is_disabled": 0, "type": "electric_scooter", "lon": -77.03288116666667, "fusion_lat": 0.0, "name": "de68044f0fe9b0ec99c2f83ff10c2eb0", "rental_uris": {"android": "https://dc.lft.to/lastmile_qr_scan", "ios": "https://dc.lft.to/lastmile_qr_scan"}, "bike_id": "de68044f0fe9b0ec99c2f83ff10c2eb0"}, {"fusion_lon": 0.0, "is_reserved": 0, "lat": 38.935212666666665, "is_disabled": 0, "type": "electric_scooter", "lon": -77.02545066666667, "fusion_lat": 0.0, "name": "55b442eb1734fe94c35df234da7b0a26", "rental_uris": {"android": "https://dc.lft.to/lastmile_qr_scan", "ios": "https://dc.lft.to/lastmile_qr_scan"}, "bike_id": "55b442eb1734fe94c35df234da7b0a26"}, {"fusion_lon": 0.0, "is_reserved": 0, "lat": 38.92836666666667, "is_disabled": 0, "type": "electric_scooter", "lon": -77.05506016666666, "fusion_lat": 0.0, "name": "7a04913fc23de2ed832de392819c1278", "rental_uris": {"android": "https://dc.lft.to/lastmile_qr_scan", "ios": "https://dc.lft.to/lastmile_qr_scan"}, "bike_id": "7a04913fc23de2ed832de392819c1278"}, {"fusion_lon": 0.0, "is_reserved": 0, "lat": 38.9310125, "is_disabled": 0, "type": "electric_scooter", "lon": -77.03808466666666, "fusion_lat": 0.0, "name": "cbb8ed686aa286b9469bb4f0bdadc000", "rental_uris": {"android": "https://dc.lft.to/lastmile_qr_scan", "ios": "https://dc.lft.to/lastmile_qr_scan"}, "bike_id": "cbb8ed686aa286b9469bb4f0bdadc000"}, {"fusion_lon": 0.0, "is_reserved": 0, "lat": 38.89538833333334, "is_disabled": 0, "type": "electric_scooter", "lon": -77.0309035, "fusion_lat": 0.0, "name": "0f8fd34cda1dfccaa6d3f890ae1c8dac", "rental_uris": {"android": "https://dc.lft.to/lastmile_qr_scan", "ios": "https://dc.lft.to/lastmile_qr_scan"}, "bike_id": "0f8fd34cda1dfccaa6d3f890ae1c8dac"}, {"fusion_lon": 0.0, "is_reserved": 0, "lat": 38.85967483333334, "is_disabled": 0, "type": "electric_scooter", "lon": -76.96711616666667, "fusion_lat": 0.0, "name": "99b49394be3a316eea46609c257e7083", "rental_uris": {"android": "https://dc.lft.to/lastmile_qr_scan", "ios": "https://dc.lft.to/lastmile_qr_scan"}, "bike_id": "99b49394be3a316eea46609c257e7083"}, {"fusion_lon": 0.0, "is_reserved": 0, "lat": 38.9294985, "is_disabled": 0, "type": "electric_scooter", "lon": -77.00426116666667, "fusion_lat": 0.0, "name": "7c1cebba32a88eda601f4665485f023d", "rental_uris": {"android": "https://dc.lft.to/lastmile_qr_scan", "ios": "https://dc.lft.to/lastmile_qr_scan"}, "bike_id": "7c1cebba32a88eda601f4665485f023d"}, {"fusion_lon": 0.0, "is_reserved": 0, "lat": 38.91283033333333, "is_disabled": 0, "type": "electric_scooter", "lon": -76.983786, "fusion_lat": 0.0, "name": "8ba9476b1027087e5be7f230b417d2be", "rental_uris": {"android": "https://dc.lft.to/lastmile_qr_scan", "ios": "https://dc.lft.to/lastmile_qr_scan"}, "bike_id": "8ba9476b1027087e5be7f230b417d2be"}, {"fusion_lon": 0.0, "is_reserved": 0, "lat": 38.99027666666667, "is_disabled": 0, "type": "electric_scooter", "lon": -77.03054766666666, "fusion_lat": 0.0, "name": "9cbf7260889812872c3b43dff69f7039", "rental_uris": {"android": "https://dc.lft.to/lastmile_qr_scan", "ios": "https://dc.lft.to/lastmile_qr_scan"}, "bike_id": "9cbf7260889812872c3b43dff69f7039"}, {"fusion_lon": 0.0, "is_reserved": 0, "lat": 38.941726833333334, "is_disabled": 0, "type": "electric_scooter", "lon": -77.031498, "fusion_lat": 0.0, "name": "3e67afce6af431e916ef8769f436d7a3", "rental_uris": {"android": "https://dc.lft.to/lastmile_qr_scan", "ios": "https://dc.lft.to/lastmile_qr_scan"}, "bike_id": "3e67afce6af431e916ef8769f436d7a3"}, {"fusion_lon": 0.0, "is_reserved": 0, "lat": 38.912603833333336, "is_disabled": 0, "type": "electric_scooter", "lon": -77.02570183333333, "fusion_lat": 0.0, "name": "45b4ab3699cf837d2b8c14e501744e5f", "rental_uris": {"android": "https://dc.lft.to/lastmile_qr_scan", "ios": "https://dc.lft.to/lastmile_qr_scan"}, "bike_id": "45b4ab3699cf837d2b8c14e501744e5f"}, {"fusion_lon": 0.0, "is_reserved": 0, "lat": 38.902548333333336, "is_disabled": 0, "type": "electric_scooter", "lon": -77.02999966666667, "fusion_lat": 0.0, "name": "186e9326687cdfcdbf9fdc2727a7894f", "rental_uris": {"android": "https://dc.lft.to/lastmile_qr_scan", "ios": "https://dc.lft.to/lastmile_qr_scan"}, "bike_id": "186e9326687cdfcdbf9fdc2727a7894f"}, {"fusion_lon": 0.0, "is_reserved": 0, "lat": 38.91098083333333, "is_disabled": 0, "type": "electric_scooter", "lon": -77.012244, "fusion_lat": 0.0, "name": "8a0b012869ea726374a7d06607962fd7", "rental_uris": {"android": "https://dc.lft.to/lastmile_qr_scan", "ios": "https://dc.lft.to/lastmile_qr_scan"}, "bike_id": "8a0b012869ea726374a7d06607962fd7"}, {"fusion_lon": 0.0, "is_reserved": 0, "lat": 38.885387333333334, "is_disabled": 0, "type": "electric_scooter", "lon": -77.011028, "fusion_lat": 0.0, "name": "19dbdcdba10b55e4f24b016f3b4c78c2", "rental_uris": {"android": "https://dc.lft.to/lastmile_qr_scan", "ios": "https://dc.lft.to/lastmile_qr_scan"}, "bike_id": "19dbdcdba10b55e4f24b016f3b4c78c2"}, {"fusion_lon": 0.0, "is_reserved": 0, "lat": 38.905187833333336, "is_disabled": 0, "type": "electric_scooter", "lon": -77.06585933333334, "fusion_lat": 0.0, "name": "3cf213ba45f09049e07b26293ab229df", "rental_uris": {"android": "https://dc.lft.to/lastmile_qr_scan", "ios": "https://dc.lft.to/lastmile_qr_scan"}, "bike_id": "3cf213ba45f09049e07b26293ab229df"}, {"fusion_lon": 0.0, "is_reserved": 0, "lat": 38.952207, "is_disabled": 0, "type": "electric_scooter", "lon": -77.06981466666667, "fusion_lat": 0.0, "name": "5e6ef011f8cba9bf1554183bd0d5764e", "rental_uris": {"android": "https://dc.lft.to/lastmile_qr_scan", "ios": "https://dc.lft.to/lastmile_qr_scan"}, "bike_id": "5e6ef011f8cba9bf1554183bd0d5764e"}, {"fusion_lon": 0.0, "is_reserved": 0, "lat": 38.914896, "is_disabled": 0, "type": "electric_scooter", "lon": -77.01209366666667, "fusion_lat": 0.0, "name": "351b2afd871c9f98067dfb911541c877", "rental_uris": {"android": "https://dc.lft.to/lastmile_qr_scan", "ios": "https://dc.lft.to/lastmile_qr_scan"}, "bike_id": "351b2afd871c9f98067dfb911541c877"}, {"fusion_lon": 0.0, "is_reserved": 0, "lat": 38.9107065, "is_disabled": 0, "type": "electric_scooter", "lon": -77.01614916666666, "fusion_lat": 0.0, "name": "7d15b256e2525897148347d795058f5c", "rental_uris": {"android": "https://dc.lft.to/lastmile_qr_scan", "ios": "https://dc.lft.to/lastmile_qr_scan"}, "bike_id": "7d15b256e2525897148347d795058f5c"}, {"fusion_lon": 0.0, "is_reserved": 0, "lat": 38.89826516666667, "is_disabled": 0, "type": "electric_scooter", "lon": -77.0401665, "fusion_lat": 0.0, "name": "3ed516347089338b02b69f7c2292f5a8", "rental_uris": {"android": "https://dc.lft.to/lastmile_qr_scan", "ios": "https://dc.lft.to/lastmile_qr_scan"}, "bike_id": "3ed516347089338b02b69f7c2292f5a8"}, {"fusion_lon": 0.0, "is_reserved": 0, "lat": 38.905749666666665, "is_disabled": 0, "type": "electric_scooter", "lon": -77.00576283333334, "fusion_lat": 0.0, "name": "895872fe41e42bf0822daf4e221771f6", "rental_uris": {"android": "https://dc.lft.to/lastmile_qr_scan", "ios": "https://dc.lft.to/lastmile_qr_scan"}, "bike_id": "895872fe41e42bf0822daf4e221771f6"}, {"fusion_lon": 0.0, "is_reserved": 0, "lat": 38.934914166666665, "is_disabled": 0, "type": "electric_bike", "lon": -76.9814145, "fusion_lat": 0.0, "name": "e1f9e3ec2c07c6e8d87436222a76f254", "rental_uris": {"android": "https://dc.lft.to/lastmile_qr_scan", "ios": "https://dc.lft.to/lastmile_qr_scan"}, "bike_id": "e1f9e3ec2c07c6e8d87436222a76f254"}, {"fusion_lon": 0.0, "is_reserved": 0, "lat": 38.90569033333333, "is_disabled": 0, "type": "electric_scooter", "lon": -77.03467683333334, "fusion_lat": 0.0, "name": "41d90d59d65d08f2daa69f05ae42264d", "rental_uris": {"android": "https://dc.lft.to/lastmile_qr_scan", "ios": "https://dc.lft.to/lastmile_qr_scan"}, "bike_id": "41d90d59d65d08f2daa69f05ae42264d"}, {"fusion_lon": 0.0, "is_reserved": 0, "lat": 38.90237166666667, "is_disabled": 0, "type": "electric_scooter", "lon": -77.02670016666667, "fusion_lat": 0.0, "name": "2e515e2963bb4b649895054117cbafc4", "rental_uris": {"android": "https://dc.lft.to/lastmile_qr_scan", "ios": "https://dc.lft.to/lastmile_qr_scan"}, "bike_id": "2e515e2963bb4b649895054117cbafc4"}, {"fusion_lon": 0.0, "is_reserved": 0, "lat": 38.916352, "is_disabled": 0, "type": "electric_scooter", "lon": -77.02550766666667, "fusion_lat": 0.0, "name": "74637e65c571979b65888e978df2a86c", "rental_uris": {"android": "https://dc.lft.to/lastmile_qr_scan", "ios": "https://dc.lft.to/lastmile_qr_scan"}, "bike_id": "74637e65c571979b65888e978df2a86c"}, {"fusion_lon": 0.0, "is_reserved": 0, "lat": 38.90907, "is_disabled": 0, "type": "electric_scooter", "lon": -77.04212, "fusion_lat": 0.0, "name": "23afa4768bd40a82759e218e79ac050b", "rental_uris": {"android": "https://dc.lft.to/lastmile_qr_scan", "ios": "https://dc.lft.to/lastmile_qr_scan"}, "bike_id": "23afa4768bd40a82759e218e79ac050b"}, {"fusion_lon": 0.0, "is_reserved": 0, "lat": 38.8924515, "is_disabled": 0, "type": "electric_bike", "lon": -76.98544, "fusion_lat": 0.0, "name": "83d9c099592248971a3b338dc6e8748d", "rental_uris": {"android": "https://dc.lft.to/lastmile_qr_scan", "ios": "https://dc.lft.to/lastmile_qr_scan"}, "bike_id": "83d9c099592248971a3b338dc6e8748d"}, {"fusion_lon": 0.0, "is_reserved": 0, "lat": 38.879417333333336, "is_disabled": 0, "type": "electric_scooter", "lon": -76.983798, "fusion_lat": 0.0, "name": "6e21e632562090c30bff8f73fa90f3e6", "rental_uris": {"android": "https://dc.lft.to/lastmile_qr_scan", "ios": "https://dc.lft.to/lastmile_qr_scan"}, "bike_id": "6e21e632562090c30bff8f73fa90f3e6"}, {"fusion_lon": 0.0, "is_reserved": 0, "lat": 38.8972085, "is_disabled": 0, "type": "electric_scooter", "lon": -77.02662316666667, "fusion_lat": 0.0, "name": "f8571ea6013dd032258b9cd20ea00c83", "rental_uris": {"android": "https://dc.lft.to/lastmile_qr_scan", "ios": "https://dc.lft.to/lastmile_qr_scan"}, "bike_id": "f8571ea6013dd032258b9cd20ea00c83"}, {"fusion_lon": 0.0, "is_reserved": 0, "lat": 38.9170545, "is_disabled": 0, "type": "electric_scooter", "lon": -77.02388366666666, "fusion_lat": 0.0, "name": "c576f164ec6da0a62178df435b8f501f", "rental_uris": {"android": "https://dc.lft.to/lastmile_qr_scan", "ios": "https://dc.lft.to/lastmile_qr_scan"}, "bike_id": "c576f164ec6da0a62178df435b8f501f"}, {"fusion_lon": 0.0, "is_reserved": 0, "lat": 38.9006765, "is_disabled": 0, "type": "electric_scooter", "lon": -77.04537116666667, "fusion_lat": 0.0, "name": "ab945c52dfcb0e05bb921c52c81553f4", "rental_uris": {"android": "https://dc.lft.to/lastmile_qr_scan", "ios": "https://dc.lft.to/lastmile_qr_scan"}, "bike_id": "ab945c52dfcb0e05bb921c52c81553f4"}, {"fusion_lon": 0.0, "is_reserved": 0, "lat": 38.95150133333333, "is_disabled": 0, "type": "electric_scooter", "lon": -77.01868683333333, "fusion_lat": 0.0, "name": "61f01686f25f5f52c31adc1f40749ecb", "rental_uris": {"android": "https://dc.lft.to/lastmile_qr_scan", "ios": "https://dc.lft.to/lastmile_qr_scan"}, "bike_id": "61f01686f25f5f52c31adc1f40749ecb"}, {"fusion_lon": 0.0, "is_reserved": 0, "lat": 38.92376316666667, "is_disabled": 0, "type": "electric_scooter", "lon": -77.03131483333334, "fusion_lat": 0.0, "name": "81c57b77eaaf5d7d3581c8995c7805c8", "rental_uris": {"android": "https://dc.lft.to/lastmile_qr_scan", "ios": "https://dc.lft.to/lastmile_qr_scan"}, "bike_id": "81c57b77eaaf5d7d3581c8995c7805c8"}, {"fusion_lon": 0.0, "is_reserved": 0, "lat": 38.90753633333333, "is_disabled": 0, "type": "electric_scooter", "lon": -77.0075665, "fusion_lat": 0.0, "name": "a3d1f931d387b723cd71cdae4ade497a", "rental_uris": {"android": "https://dc.lft.to/lastmile_qr_scan", "ios": "https://dc.lft.to/lastmile_qr_scan"}, "bike_id": "a3d1f931d387b723cd71cdae4ade497a"}, {"fusion_lon": 0.0, "is_reserved": 0, "lat": 38.939664, "is_disabled": 0, "type": "electric_bike", "lon": -77.03758, "fusion_lat": 0.0, "name": "027c84b02758f9d9ac99493928a9b180", "rental_uris": {"android": "https://dc.lft.to/lastmile_qr_scan", "ios": "https://dc.lft.to/lastmile_qr_scan"}, "bike_id": "027c84b02758f9d9ac99493928a9b180"}, {"fusion_lon": 0.0, "is_reserved": 0, "lat": 38.916202, "is_disabled": 0, "type": "electric_scooter", "lon": -77.02309116666666, "fusion_lat": 0.0, "name": "cb04106564735378de7d968bb76a9dc3", "rental_uris": {"android": "https://dc.lft.to/lastmile_qr_scan", "ios": "https://dc.lft.to/lastmile_qr_scan"}, "bike_id": "cb04106564735378de7d968bb76a9dc3"}, {"fusion_lon": 0.0, "is_reserved": 0, "lat": 38.93097733333333, "is_disabled": 0, "type": "electric_scooter", "lon": -77.026494, "fusion_lat": 0.0, "name": "7c970fd2b56af68df37072f35307fbf0", "rental_uris": {"android": "https://dc.lft.to/lastmile_qr_scan", "ios": "https://dc.lft.to/lastmile_qr_scan"}, "bike_id": "7c970fd2b56af68df37072f35307fbf0"}, {"fusion_lon": 0.0, "is_reserved": 0, "lat": 38.897915833333336, "is_disabled": 0, "type": "electric_scooter", "lon": -77.011928, "fusion_lat": 0.0, "name": "3edef3caa2798b455c551d17ab02cd04", "rental_uris": {"android": "https://dc.lft.to/lastmile_qr_scan", "ios": "https://dc.lft.to/lastmile_qr_scan"}, "bike_id": "3edef3caa2798b455c551d17ab02cd04"}, {"fusion_lon": 0.0, "is_reserved": 0, "lat": 38.901427, "is_disabled": 0, "type": "electric_scooter", "lon": -77.03875883333333, "fusion_lat": 0.0, "name": "b3a7062c9750fd4ef058e43cd4cb3046", "rental_uris": {"android": "https://dc.lft.to/lastmile_qr_scan", "ios": "https://dc.lft.to/lastmile_qr_scan"}, "bike_id": "b3a7062c9750fd4ef058e43cd4cb3046"}, {"fusion_lon": 0.0, "is_reserved": 0, "lat": 38.9252465, "is_disabled": 0, "type": "electric_scooter", "lon": -77.02581316666667, "fusion_lat": 0.0, "name": "4ef476d39278c7f5663c688b0eb716b5", "rental_uris": {"android": "https://dc.lft.to/lastmile_qr_scan", "ios": "https://dc.lft.to/lastmile_qr_scan"}, "bike_id": "4ef476d39278c7f5663c688b0eb716b5"}, {"fusion_lon": 0.0, "is_reserved": 0, "lat": 38.9104285, "is_disabled": 0, "type": "electric_scooter", "lon": -77.02812016666667, "fusion_lat": 0.0, "name": "5e74f327953e02cd682133707ee6292e", "rental_uris": {"android": "https://dc.lft.to/lastmile_qr_scan", "ios": "https://dc.lft.to/lastmile_qr_scan"}, "bike_id": "5e74f327953e02cd682133707ee6292e"}, {"fusion_lon": 0.0, "is_reserved": 0, "lat": 38.92084416666667, "is_disabled": 0, "type": "electric_scooter", "lon": -77.0228545, "fusion_lat": 0.0, "name": "a5a8fc7e0b84b6effefde99e3a1ffbfe", "rental_uris": {"android": "https://dc.lft.to/lastmile_qr_scan", "ios": "https://dc.lft.to/lastmile_qr_scan"}, "bike_id": "a5a8fc7e0b84b6effefde99e3a1ffbfe"}, {"fusion_lon": 0.0, "is_reserved": 0, "lat": 38.876778333333334, "is_disabled": 0, "type": "electric_scooter", "lon": -77.01760483333334, "fusion_lat": 0.0, "name": "2a80d617355ff614866c1816609b6889", "rental_uris": {"android": "https://dc.lft.to/lastmile_qr_scan", "ios": "https://dc.lft.to/lastmile_qr_scan"}, "bike_id": "2a80d617355ff614866c1816609b6889"}, {"fusion_lon": 0.0, "is_reserved": 0, "lat": 38.920789166666665, "is_disabled": 0, "type": "electric_scooter", "lon": -77.02305983333333, "fusion_lat": 0.0, "name": "23233c0205d32e279d3580d20659d286", "rental_uris": {"android": "https://dc.lft.to/lastmile_qr_scan", "ios": "https://dc.lft.to/lastmile_qr_scan"}, "bike_id": "23233c0205d32e279d3580d20659d286"}, {"fusion_lon": 0.0, "is_reserved": 0, "lat": 38.91908633333333, "is_disabled": 0, "type": "electric_scooter", "lon": -77.001478, "fusion_lat": 0.0, "name": "5e91862f4540f683e8eae119fecca06f", "rental_uris": {"android": "https://dc.lft.to/lastmile_qr_scan", "ios": "https://dc.lft.to/lastmile_qr_scan"}, "bike_id": "5e91862f4540f683e8eae119fecca06f"}, {"fusion_lon": 0.0, "is_reserved": 0, "lat": 39.03420883333333, "is_disabled": 0, "type": "electric_bike", "lon": -77.04317266666666, "fusion_lat": 0.0, "name": "e97b8f1d688894d2cc76e3bce74e97c6", "rental_uris": {"android": "https://dc.lft.to/lastmile_qr_scan", "ios": "https://dc.lft.to/lastmile_qr_scan"}, "bike_id": "e97b8f1d688894d2cc76e3bce74e97c6"}, {"fusion_lon": 0.0, "is_reserved": 0, "lat": 38.907325666666665, "is_disabled": 0, "type": "electric_scooter", "lon": -77.0279795, "fusion_lat": 0.0, "name": "c45b03798ae26c25bdeed15952aa1685", "rental_uris": {"android": "https://dc.lft.to/lastmile_qr_scan", "ios": "https://dc.lft.to/lastmile_qr_scan"}, "bike_id": "c45b03798ae26c25bdeed15952aa1685"}, {"fusion_lon": 0.0, "is_reserved": 0, "lat": 38.904493, "is_disabled": 0, "type": "electric_scooter", "lon": -77.053339, "fusion_lat": 0.0, "name": "9ff21b82c9fef1ca9e3dc292c3b0b457", "rental_uris": {"android": "https://dc.lft.to/lastmile_qr_scan", "ios": "https://dc.lft.to/lastmile_qr_scan"}, "bike_id": "9ff21b82c9fef1ca9e3dc292c3b0b457"}, {"fusion_lon": 0.0, "is_reserved": 0, "lat": 38.893191, "is_disabled": 0, "type": "electric_scooter", "lon": -77.02216, "fusion_lat": 0.0, "name": "b92216d5533b61062a9a181c26704029", "rental_uris": {"android": "https://dc.lft.to/lastmile_qr_scan", "ios": "https://dc.lft.to/lastmile_qr_scan"}, "bike_id": "b92216d5533b61062a9a181c26704029"}, {"fusion_lon": 0.0, "is_reserved": 0, "lat": 38.92326216666667, "is_disabled": 0, "type": "electric_scooter", "lon": -77.01955716666667, "fusion_lat": 0.0, "name": "c41537eeb1bb07e726fc6c35d1d65a2f", "rental_uris": {"android": "https://dc.lft.to/lastmile_qr_scan", "ios": "https://dc.lft.to/lastmile_qr_scan"}, "bike_id": "c41537eeb1bb07e726fc6c35d1d65a2f"}, {"fusion_lon": 0.0, "is_reserved": 0, "lat": 38.9036365, "is_disabled": 0, "type": "electric_scooter", "lon": -77.04509933333334, "fusion_lat": 0.0, "name": "559f594f9ea5eea45bee3f6ad029e8de", "rental_uris": {"android": "https://dc.lft.to/lastmile_qr_scan", "ios": "https://dc.lft.to/lastmile_qr_scan"}, "bike_id": "559f594f9ea5eea45bee3f6ad029e8de"}, {"fusion_lon": 0.0, "is_reserved": 0, "lat": 38.937806333333334, "is_disabled": 0, "type": "electric_scooter", "lon": -77.07449866666667, "fusion_lat": 0.0, "name": "1a54fa44c24a845c6fea24f2666d2596", "rental_uris": {"android": "https://dc.lft.to/lastmile_qr_scan", "ios": "https://dc.lft.to/lastmile_qr_scan"}, "bike_id": "1a54fa44c24a845c6fea24f2666d2596"}, {"fusion_lon": 0.0, "is_reserved": 0, "lat": 38.91688166666667, "is_disabled": 0, "type": "electric_scooter", "lon": -77.040138, "fusion_lat": 0.0, "name": "3bda6ddbfda707fb9b27acc707912305", "rental_uris": {"android": "https://dc.lft.to/lastmile_qr_scan", "ios": "https://dc.lft.to/lastmile_qr_scan"}, "bike_id": "3bda6ddbfda707fb9b27acc707912305"}, {"fusion_lon": 0.0, "is_reserved": 0, "lat": 38.908016333333336, "is_disabled": 0, "type": "electric_scooter", "lon": -77.06437683333333, "fusion_lat": 0.0, "name": "3aae4f37552b0276af43cbcfc4bfeee7", "rental_uris": {"android": "https://dc.lft.to/lastmile_qr_scan", "ios": "https://dc.lft.to/lastmile_qr_scan"}, "bike_id": "3aae4f37552b0276af43cbcfc4bfeee7"}, {"fusion_lon": 0.0, "is_reserved": 0, "lat": 38.90031466666667, "is_disabled": 0, "type": "electric_scooter", "lon": -77.01779283333333, "fusion_lat": 0.0, "name": "765e63df0620a544df551504875e823b", "rental_uris": {"android": "https://dc.lft.to/lastmile_qr_scan", "ios": "https://dc.lft.to/lastmile_qr_scan"}, "bike_id": "765e63df0620a544df551504875e823b"}, {"fusion_lon": 0.0, "is_reserved": 0, "lat": 38.90775466666667, "is_disabled": 0, "type": "electric_scooter", "lon": -77.07164566666667, "fusion_lat": 0.0, "name": "df9b510ec5d9e2a260a03202c1d07a3a", "rental_uris": {"android": "https://dc.lft.to/lastmile_qr_scan", "ios": "https://dc.lft.to/lastmile_qr_scan"}, "bike_id": "df9b510ec5d9e2a260a03202c1d07a3a"}, {"fusion_lon": 0.0, "is_reserved": 0, "lat": 38.877166333333335, "is_disabled": 0, "type": "electric_scooter", "lon": -77.0034065, "fusion_lat": 0.0, "name": "869beb4d0e58e5a6e43e4ca0846aef1e", "rental_uris": {"android": "https://dc.lft.to/lastmile_qr_scan", "ios": "https://dc.lft.to/lastmile_qr_scan"}, "bike_id": "869beb4d0e58e5a6e43e4ca0846aef1e"}, {"fusion_lon": 0.0, "is_reserved": 0, "lat": 38.927449833333334, "is_disabled": 0, "type": "electric_scooter", "lon": -77.032931, "fusion_lat": 0.0, "name": "a6207ac7891c6d3264ba65f69fb96cc2", "rental_uris": {"android": "https://dc.lft.to/lastmile_qr_scan", "ios": "https://dc.lft.to/lastmile_qr_scan"}, "bike_id": "a6207ac7891c6d3264ba65f69fb96cc2"}, {"fusion_lon": 0.0, "is_reserved": 0, "lat": 38.903102833333335, "is_disabled": 0, "type": "electric_scooter", "lon": -77.03439966666667, "fusion_lat": 0.0, "name": "3b412b335e5c7d74c78fc29dc29fa2ff", "rental_uris": {"android": "https://dc.lft.to/lastmile_qr_scan", "ios": "https://dc.lft.to/lastmile_qr_scan"}, "bike_id": "3b412b335e5c7d74c78fc29dc29fa2ff"}, {"fusion_lon": 0.0, "is_reserved": 0, "lat": 38.916829166666666, "is_disabled": 0, "type": "electric_scooter", "lon": -77.03170916666667, "fusion_lat": 0.0, "name": "a345c50e38a99ced56c8ac12cb440f84", "rental_uris": {"android": "https://dc.lft.to/lastmile_qr_scan", "ios": "https://dc.lft.to/lastmile_qr_scan"}, "bike_id": "a345c50e38a99ced56c8ac12cb440f84"}, {"fusion_lon": 0.0, "is_reserved": 0, "lat": 38.9148025, "is_disabled": 0, "type": "electric_scooter", "lon": -77.02182616666667, "fusion_lat": 0.0, "name": "736b811520356f2b137d507ec269a795", "rental_uris": {"android": "https://dc.lft.to/lastmile_qr_scan", "ios": "https://dc.lft.to/lastmile_qr_scan"}, "bike_id": "736b811520356f2b137d507ec269a795"}, {"fusion_lon": 0.0, "is_reserved": 0, "lat": 38.8915465, "is_disabled": 0, "type": "electric_scooter", "lon": -77.08215983333334, "fusion_lat": 0.0, "name": "35ba4f66700afba0bf1b7dc381786288", "rental_uris": {"android": "https://dc.lft.to/lastmile_qr_scan", "ios": "https://dc.lft.to/lastmile_qr_scan"}, "bike_id": "35ba4f66700afba0bf1b7dc381786288"}, {"fusion_lon": 0.0, "is_reserved": 0, "lat": 38.897485, "is_disabled": 0, "type": "electric_scooter", "lon": -77.01887533333333, "fusion_lat": 0.0, "name": "e60da5aef0673d0abd992fcfab0dbc5e", "rental_uris": {"android": "https://dc.lft.to/lastmile_qr_scan", "ios": "https://dc.lft.to/lastmile_qr_scan"}, "bike_id": "e60da5aef0673d0abd992fcfab0dbc5e"}, {"fusion_lon": 0.0, "is_reserved": 0, "lat": 38.87772183333333, "is_disabled": 0, "type": "electric_scooter", "lon": -77.01306866666667, "fusion_lat": 0.0, "name": "e0145b7e26ba05b56bfc4fa0bff2f94d", "rental_uris": {"android": "https://dc.lft.to/lastmile_qr_scan", "ios": "https://dc.lft.to/lastmile_qr_scan"}, "bike_id": "e0145b7e26ba05b56bfc4fa0bff2f94d"}, {"fusion_lon": 0.0, "is_reserved": 0, "lat": 38.927052833333335, "is_disabled": 0, "type": "electric_scooter", "lon": -77.02085466666666, "fusion_lat": 0.0, "name": "b6eb382f3cef1bf98406e458b401baf1", "rental_uris": {"android": "https://dc.lft.to/lastmile_qr_scan", "ios": "https://dc.lft.to/lastmile_qr_scan"}, "bike_id": "b6eb382f3cef1bf98406e458b401baf1"}, {"fusion_lon": 0.0, "is_reserved": 0, "lat": 38.84540033333333, "is_disabled": 0, "type": "electric_scooter", "lon": -76.99730083333333, "fusion_lat": 0.0, "name": "76b6ca8a15034ffa63fca52e383df841", "rental_uris": {"android": "https://dc.lft.to/lastmile_qr_scan", "ios": "https://dc.lft.to/lastmile_qr_scan"}, "bike_id": "76b6ca8a15034ffa63fca52e383df841"}, {"fusion_lon": 0.0, "is_reserved": 0, "lat": 38.830637, "is_disabled": 0, "type": "electric_bike", "lon": -77.04076633333334, "fusion_lat": 0.0, "name": "c3c466fc6304b05eb84afa5a7b557114", "rental_uris": {"android": "https://dc.lft.to/lastmile_qr_scan", "ios": "https://dc.lft.to/lastmile_qr_scan"}, "bike_id": "c3c466fc6304b05eb84afa5a7b557114"}, {"fusion_lon": 0.0, "is_reserved": 0, "lat": 38.91832383333333, "is_disabled": 0, "type": "electric_scooter", "lon": -77.02599733333334, "fusion_lat": 0.0, "name": "5fa7e821f0161a707fc3303a53f7d446", "rental_uris": {"android": "https://dc.lft.to/lastmile_qr_scan", "ios": "https://dc.lft.to/lastmile_qr_scan"}, "bike_id": "5fa7e821f0161a707fc3303a53f7d446"}, {"fusion_lon": 0.0, "is_reserved": 0, "lat": 38.90156283333334, "is_disabled": 0, "type": "electric_scooter", "lon": -77.05321516666666, "fusion_lat": 0.0, "name": "d4379be8a19464645183b819289bc073", "rental_uris": {"android": "https://dc.lft.to/lastmile_qr_scan", "ios": "https://dc.lft.to/lastmile_qr_scan"}, "bike_id": "d4379be8a19464645183b819289bc073"}, {"fusion_lon": 0.0, "is_reserved": 0, "lat": 38.902491833333336, "is_disabled": 0, "type": "electric_scooter", "lon": -77.052205, "fusion_lat": 0.0, "name": "9c00e8de328df99563899d7b015cf1bf", "rental_uris": {"android": "https://dc.lft.to/lastmile_qr_scan", "ios": "https://dc.lft.to/lastmile_qr_scan"}, "bike_id": "9c00e8de328df99563899d7b015cf1bf"}, {"fusion_lon": 0.0, "is_reserved": 0, "lat": 38.916561, "is_disabled": 0, "type": "electric_scooter", "lon": -77.0682865, "fusion_lat": 0.0, "name": "228bc5c7d92072bce364cf8a4607023c", "rental_uris": {"android": "https://dc.lft.to/lastmile_qr_scan", "ios": "https://dc.lft.to/lastmile_qr_scan"}, "bike_id": "228bc5c7d92072bce364cf8a4607023c"}, {"fusion_lon": 0.0, "is_reserved": 0, "lat": 38.876029833333334, "is_disabled": 0, "type": "electric_scooter", "lon": -77.01983283333334, "fusion_lat": 0.0, "name": "41dd5f21e8abed9a69155002a7a955d2", "rental_uris": {"android": "https://dc.lft.to/lastmile_qr_scan", "ios": "https://dc.lft.to/lastmile_qr_scan"}, "bike_id": "41dd5f21e8abed9a69155002a7a955d2"}, {"fusion_lon": 0.0, "is_reserved": 0, "lat": 38.892384, "is_disabled": 0, "type": "electric_scooter", "lon": -77.048753, "fusion_lat": 0.0, "name": "415ab07c0c7db3c216f0635d6d73589a", "rental_uris": {"android": "https://dc.lft.to/lastmile_qr_scan", "ios": "https://dc.lft.to/lastmile_qr_scan"}, "bike_id": "415ab07c0c7db3c216f0635d6d73589a"}, {"fusion_lon": 0.0, "is_reserved": 0, "lat": 38.8961805, "is_disabled": 0, "type": "electric_scooter", "lon": -76.99847016666666, "fusion_lat": 0.0, "name": "2ff07a0f94f52b527b545f8b07ba5e87", "rental_uris": {"android": "https://dc.lft.to/lastmile_qr_scan", "ios": "https://dc.lft.to/lastmile_qr_scan"}, "bike_id": "2ff07a0f94f52b527b545f8b07ba5e87"}, {"fusion_lon": 0.0, "is_reserved": 0, "lat": 38.913485, "is_disabled": 0, "type": "electric_scooter", "lon": -77.03187216666667, "fusion_lat": 0.0, "name": "91c7b0b95fe91a7578b703ca2b13c3e4", "rental_uris": {"android": "https://dc.lft.to/lastmile_qr_scan", "ios": "https://dc.lft.to/lastmile_qr_scan"}, "bike_id": "91c7b0b95fe91a7578b703ca2b13c3e4"}, {"fusion_lon": 0.0, "is_reserved": 0, "lat": 38.95637933333333, "is_disabled": 0, "type": "electric_scooter", "lon": -77.02440833333333, "fusion_lat": 0.0, "name": "47d5243dcda3cb99886fbd9db37e76f4", "rental_uris": {"android": "https://dc.lft.to/lastmile_qr_scan", "ios": "https://dc.lft.to/lastmile_qr_scan"}, "bike_id": "47d5243dcda3cb99886fbd9db37e76f4"}, {"fusion_lon": 0.0, "is_reserved": 0, "lat": 38.90273166666667, "is_disabled": 0, "type": "electric_scooter", "lon": -77.03854666666666, "fusion_lat": 0.0, "name": "3751dd6e5420d78dab6962f4cab90c45", "rental_uris": {"android": "https://dc.lft.to/lastmile_qr_scan", "ios": "https://dc.lft.to/lastmile_qr_scan"}, "bike_id": "3751dd6e5420d78dab6962f4cab90c45"}, {"fusion_lon": 0.0, "is_reserved": 0, "lat": 38.90363883333333, "is_disabled": 0, "type": "electric_scooter", "lon": -77.02012466666666, "fusion_lat": 0.0, "name": "775812a6e3420fbe032500e90f48f688", "rental_uris": {"android": "https://dc.lft.to/lastmile_qr_scan", "ios": "https://dc.lft.to/lastmile_qr_scan"}, "bike_id": "775812a6e3420fbe032500e90f48f688"}, {"fusion_lon": 0.0, "is_reserved": 0, "lat": 38.93256366666667, "is_disabled": 0, "type": "electric_bike", "lon": -77.0656225, "fusion_lat": 0.0, "name": "2ac8db100aeb3e7bac276f1762f00a16", "rental_uris": {"android": "https://dc.lft.to/lastmile_qr_scan", "ios": "https://dc.lft.to/lastmile_qr_scan"}, "bike_id": "2ac8db100aeb3e7bac276f1762f00a16"}, {"fusion_lon": 0.0, "is_reserved": 0, "lat": 38.928856, "is_disabled": 0, "type": "electric_scooter", "lon": -77.03480683333333, "fusion_lat": 0.0, "name": "8b14beedf4173b967c5873c194681900", "rental_uris": {"android": "https://dc.lft.to/lastmile_qr_scan", "ios": "https://dc.lft.to/lastmile_qr_scan"}, "bike_id": "8b14beedf4173b967c5873c194681900"}, {"fusion_lon": 0.0, "is_reserved": 0, "lat": 38.909289333333334, "is_disabled": 0, "type": "electric_scooter", "lon": -77.030905, "fusion_lat": 0.0, "name": "d08092df6e8397437a8a8541b45fba05", "rental_uris": {"android": "https://dc.lft.to/lastmile_qr_scan", "ios": "https://dc.lft.to/lastmile_qr_scan"}, "bike_id": "d08092df6e8397437a8a8541b45fba05"}, {"fusion_lon": 0.0, "is_reserved": 0, "lat": 38.988157, "is_disabled": 0, "type": "electric_bike", "lon": -77.0265585, "fusion_lat": 0.0, "name": "95ed86ab432e55b3b7681367fd42dc2e", "rental_uris": {"android": "https://dc.lft.to/lastmile_qr_scan", "ios": "https://dc.lft.to/lastmile_qr_scan"}, "bike_id": "95ed86ab432e55b3b7681367fd42dc2e"}, {"fusion_lon": 0.0, "is_reserved": 0, "lat": 38.90139216666667, "is_disabled": 0, "type": "electric_bike", "lon": -77.03436116666667, "fusion_lat": 0.0, "name": "c1f2aefa09a34d04f9c25f8a0bff0bd1", "rental_uris": {"android": "https://dc.lft.to/lastmile_qr_scan", "ios": "https://dc.lft.to/lastmile_qr_scan"}, "bike_id": "c1f2aefa09a34d04f9c25f8a0bff0bd1"}, {"fusion_lon": 0.0, "is_reserved": 0, "lat": 38.97968633333333, "is_disabled": 0, "type": "electric_bike", "lon": -76.93797866666667, "fusion_lat": 0.0, "name": "ec15339980bfb96ee4fcf2416f9f679b", "rental_uris": {"android": "https://dc.lft.to/lastmile_qr_scan", "ios": "https://dc.lft.to/lastmile_qr_scan"}, "bike_id": "ec15339980bfb96ee4fcf2416f9f679b"}, {"fusion_lon": 0.0, "is_reserved": 0, "lat": 38.89187183333333, "is_disabled": 0, "type": "electric_scooter", "lon": -77.002953, "fusion_lat": 0.0, "name": "c4eb0df99e7058307145b09cf97a7ef7", "rental_uris": {"android": "https://dc.lft.to/lastmile_qr_scan", "ios": "https://dc.lft.to/lastmile_qr_scan"}, "bike_id": "c4eb0df99e7058307145b09cf97a7ef7"}, {"fusion_lon": 0.0, "is_reserved": 0, "lat": 38.920268166666666, "is_disabled": 0, "type": "electric_scooter", "lon": -77.03726333333333, "fusion_lat": 0.0, "name": "01af39c842c7cae39a4348c66f8dae45", "rental_uris": {"android": "https://dc.lft.to/lastmile_qr_scan", "ios": "https://dc.lft.to/lastmile_qr_scan"}, "bike_id": "01af39c842c7cae39a4348c66f8dae45"}, {"fusion_lon": 0.0, "is_reserved": 0, "lat": 38.90986266666667, "is_disabled": 0, "type": "electric_scooter", "lon": -77.03207983333333, "fusion_lat": 0.0, "name": "9ea65bd7754c5f31b059bd79e50d110b", "rental_uris": {"android": "https://dc.lft.to/lastmile_qr_scan", "ios": "https://dc.lft.to/lastmile_qr_scan"}, "bike_id": "9ea65bd7754c5f31b059bd79e50d110b"}, {"fusion_lon": 0.0, "is_reserved": 0, "lat": 38.90841233333333, "is_disabled": 0, "type": "electric_scooter", "lon": -77.0398965, "fusion_lat": 0.0, "name": "f253f04467150d700f20d69d7e0dd7e9", "rental_uris": {"android": "https://dc.lft.to/lastmile_qr_scan", "ios": "https://dc.lft.to/lastmile_qr_scan"}, "bike_id": "f253f04467150d700f20d69d7e0dd7e9"}, {"fusion_lon": 0.0, "is_reserved": 0, "lat": 38.8746105, "is_disabled": 0, "type": "electric_scooter", "lon": -77.00483783333334, "fusion_lat": 0.0, "name": "b0d253f9f7623ee70eca51500bac8a5c", "rental_uris": {"android": "https://dc.lft.to/lastmile_qr_scan", "ios": "https://dc.lft.to/lastmile_qr_scan"}, "bike_id": "b0d253f9f7623ee70eca51500bac8a5c"}, {"fusion_lon": 0.0, "is_reserved": 0, "lat": 38.924412, "is_disabled": 0, "type": "electric_scooter", "lon": -77.033446, "fusion_lat": 0.0, "name": "c35a369694c36482d800362174a3050f", "rental_uris": {"android": "https://dc.lft.to/lastmile_qr_scan", "ios": "https://dc.lft.to/lastmile_qr_scan"}, "bike_id": "c35a369694c36482d800362174a3050f"}, {"fusion_lon": 0.0, "is_reserved": 0, "lat": 38.936037666666664, "is_disabled": 0, "type": "electric_scooter", "lon": -77.028897, "fusion_lat": 0.0, "name": "ca9d1ce90bb4b6a12485e0f75616eab8", "rental_uris": {"android": "https://dc.lft.to/lastmile_qr_scan", "ios": "https://dc.lft.to/lastmile_qr_scan"}, "bike_id": "ca9d1ce90bb4b6a12485e0f75616eab8"}, {"fusion_lon": 0.0, "is_reserved": 0, "lat": 38.89840266666667, "is_disabled": 0, "type": "electric_scooter", "lon": -77.02262483333334, "fusion_lat": 0.0, "name": "d4c170f4ead78c1d5c90a1c1091b1fef", "rental_uris": {"android": "https://dc.lft.to/lastmile_qr_scan", "ios": "https://dc.lft.to/lastmile_qr_scan"}, "bike_id": "d4c170f4ead78c1d5c90a1c1091b1fef"}, {"fusion_lon": 0.0, "is_reserved": 0, "lat": 38.9140325, "is_disabled": 0, "type": "electric_scooter", "lon": -77.01813216666666, "fusion_lat": 0.0, "name": "4b5ea51c29ccc93fd8ded24949d9cd11", "rental_uris": {"android": "https://dc.lft.to/lastmile_qr_scan", "ios": "https://dc.lft.to/lastmile_qr_scan"}, "bike_id": "4b5ea51c29ccc93fd8ded24949d9cd11"}, {"fusion_lon": 0.0, "is_reserved": 0, "lat": 38.897817, "is_disabled": 0, "type": "electric_scooter", "lon": -77.02990166666666, "fusion_lat": 0.0, "name": "38355acd85ec32c1a650760f9eb20ada", "rental_uris": {"android": "https://dc.lft.to/lastmile_qr_scan", "ios": "https://dc.lft.to/lastmile_qr_scan"}, "bike_id": "38355acd85ec32c1a650760f9eb20ada"}, {"fusion_lon": 0.0, "is_reserved": 0, "lat": 38.887475333333335, "is_disabled": 0, "type": "electric_scooter", "lon": -77.01628883333333, "fusion_lat": 0.0, "name": "17edfec30d4902dfb51129c00222692e", "rental_uris": {"android": "https://dc.lft.to/lastmile_qr_scan", "ios": "https://dc.lft.to/lastmile_qr_scan"}, "bike_id": "17edfec30d4902dfb51129c00222692e"}, {"fusion_lon": 0.0, "is_reserved": 0, "lat": 38.913947666666665, "is_disabled": 0, "type": "electric_scooter", "lon": -77.03448333333333, "fusion_lat": 0.0, "name": "8cbf84d604544d6003f53b8f4982d8e2", "rental_uris": {"android": "https://dc.lft.to/lastmile_qr_scan", "ios": "https://dc.lft.to/lastmile_qr_scan"}, "bike_id": "8cbf84d604544d6003f53b8f4982d8e2"}, {"fusion_lon": 0.0, "is_reserved": 0, "lat": 38.89435183333333, "is_disabled": 0, "type": "electric_scooter", "lon": -76.980888, "fusion_lat": 0.0, "name": "621b075b569e26f70f3a518002bd06b0", "rental_uris": {"android": "https://dc.lft.to/lastmile_qr_scan", "ios": "https://dc.lft.to/lastmile_qr_scan"}, "bike_id": "621b075b569e26f70f3a518002bd06b0"}, {"fusion_lon": 0.0, "is_reserved": 0, "lat": 38.900283333333334, "is_disabled": 0, "type": "electric_scooter", "lon": -77.0336785, "fusion_lat": 0.0, "name": "da771051833b89ceeef371d00c988c30", "rental_uris": {"android": "https://dc.lft.to/lastmile_qr_scan", "ios": "https://dc.lft.to/lastmile_qr_scan"}, "bike_id": "da771051833b89ceeef371d00c988c30"}, {"fusion_lon": 0.0, "is_reserved": 0, "lat": 38.90814733333333, "is_disabled": 0, "type": "electric_scooter", "lon": -77.03947466666666, "fusion_lat": 0.0, "name": "251aa97e6aa93cb0f721daba2880bf4b", "rental_uris": {"android": "https://dc.lft.to/lastmile_qr_scan", "ios": "https://dc.lft.to/lastmile_qr_scan"}, "bike_id": "251aa97e6aa93cb0f721daba2880bf4b"}, {"fusion_lon": 0.0, "is_reserved": 0, "lat": 38.91249466666667, "is_disabled": 0, "type": "electric_scooter", "lon": -77.041632, "fusion_lat": 0.0, "name": "33dc648ec4579deff16f1e61bd65d77d", "rental_uris": {"android": "https://dc.lft.to/lastmile_qr_scan", "ios": "https://dc.lft.to/lastmile_qr_scan"}, "bike_id": "33dc648ec4579deff16f1e61bd65d77d"}, {"fusion_lon": 0.0, "is_reserved": 0, "lat": 38.9111385, "is_disabled": 0, "type": "electric_scooter", "lon": -77.04227516666667, "fusion_lat": 0.0, "name": "7f9b19b8537f01a2f59690b862dc02f9", "rental_uris": {"android": "https://dc.lft.to/lastmile_qr_scan", "ios": "https://dc.lft.to/lastmile_qr_scan"}, "bike_id": "7f9b19b8537f01a2f59690b862dc02f9"}, {"fusion_lon": 0.0, "is_reserved": 0, "lat": 38.931807166666665, "is_disabled": 0, "type": "electric_scooter", "lon": -77.03841216666666, "fusion_lat": 0.0, "name": "f71138b62ef7532c3167e39a6128aab5", "rental_uris": {"android": "https://dc.lft.to/lastmile_qr_scan", "ios": "https://dc.lft.to/lastmile_qr_scan"}, "bike_id": "f71138b62ef7532c3167e39a6128aab5"}, {"fusion_lon": 0.0, "is_reserved": 0, "lat": 38.90241316666667, "is_disabled": 0, "type": "electric_scooter", "lon": -76.980033, "fusion_lat": 0.0, "name": "b2e7caed9ec7715e512b5022d90ab8a6", "rental_uris": {"android": "https://dc.lft.to/lastmile_qr_scan", "ios": "https://dc.lft.to/lastmile_qr_scan"}, "bike_id": "b2e7caed9ec7715e512b5022d90ab8a6"}, {"fusion_lon": 0.0, "is_reserved": 0, "lat": 38.90344966666667, "is_disabled": 0, "type": "electric_scooter", "lon": -77.03626966666667, "fusion_lat": 0.0, "name": "d38ea9a448d839cb8d1209ed563cdca4", "rental_uris": {"android": "https://dc.lft.to/lastmile_qr_scan", "ios": "https://dc.lft.to/lastmile_qr_scan"}, "bike_id": "d38ea9a448d839cb8d1209ed563cdca4"}, {"fusion_lon": 0.0, "is_reserved": 0, "lat": 38.90148816666667, "is_disabled": 0, "type": "electric_scooter", "lon": -77.05902433333333, "fusion_lat": 0.0, "name": "8ee8ab29a8cccaa226d99debb735e5fe", "rental_uris": {"android": "https://dc.lft.to/lastmile_qr_scan", "ios": "https://dc.lft.to/lastmile_qr_scan"}, "bike_id": "8ee8ab29a8cccaa226d99debb735e5fe"}, {"fusion_lon": 0.0, "is_reserved": 0, "lat": 38.8954185, "is_disabled": 0, "type": "electric_scooter", "lon": -77.009056, "fusion_lat": 0.0, "name": "b352c3eaee42601ad8689b7c18df5a3e", "rental_uris": {"android": "https://dc.lft.to/lastmile_qr_scan", "ios": "https://dc.lft.to/lastmile_qr_scan"}, "bike_id": "b352c3eaee42601ad8689b7c18df5a3e"}, {"fusion_lon": 0.0, "is_reserved": 0, "lat": 38.91108783333333, "is_disabled": 0, "type": "electric_scooter", "lon": -77.02174233333334, "fusion_lat": 0.0, "name": "8990947597cd6b55aef1ae847a11ca13", "rental_uris": {"android": "https://dc.lft.to/lastmile_qr_scan", "ios": "https://dc.lft.to/lastmile_qr_scan"}, "bike_id": "8990947597cd6b55aef1ae847a11ca13"}, {"fusion_lon": 0.0, "is_reserved": 0, "lat": 38.90325516666667, "is_disabled": 0, "type": "electric_scooter", "lon": -77.0108445, "fusion_lat": 0.0, "name": "7c8f4b8ff972e8fd3d6370be9a08bf19", "rental_uris": {"android": "https://dc.lft.to/lastmile_qr_scan", "ios": "https://dc.lft.to/lastmile_qr_scan"}, "bike_id": "7c8f4b8ff972e8fd3d6370be9a08bf19"}, {"fusion_lon": 0.0, "is_reserved": 0, "lat": 38.91422716666667, "is_disabled": 0, "type": "electric_scooter", "lon": -77.0450115, "fusion_lat": 0.0, "name": "eaf0d2daf6a1d5315c7311614e941ab2", "rental_uris": {"android": "https://dc.lft.to/lastmile_qr_scan", "ios": "https://dc.lft.to/lastmile_qr_scan"}, "bike_id": "eaf0d2daf6a1d5315c7311614e941ab2"}, {"fusion_lon": 0.0, "is_reserved": 0, "lat": 38.908375, "is_disabled": 0, "type": "electric_scooter", "lon": -77.02696516666667, "fusion_lat": 0.0, "name": "cfe74d62b8c67efe7c881ddf10c2f748", "rental_uris": {"android": "https://dc.lft.to/lastmile_qr_scan", "ios": "https://dc.lft.to/lastmile_qr_scan"}, "bike_id": "cfe74d62b8c67efe7c881ddf10c2f748"}, {"fusion_lon": 0.0, "is_reserved": 0, "lat": 38.902187833333336, "is_disabled": 0, "type": "electric_bike", "lon": -77.05927383333334, "fusion_lat": 0.0, "name": "5913d0e1fe57a9435154947344026e98", "rental_uris": {"android": "https://dc.lft.to/lastmile_qr_scan", "ios": "https://dc.lft.to/lastmile_qr_scan"}, "bike_id": "5913d0e1fe57a9435154947344026e98"}, {"fusion_lon": 0.0, "is_reserved": 0, "lat": 38.914011, "is_disabled": 0, "type": "electric_scooter", "lon": -77.03258616666666, "fusion_lat": 0.0, "name": "f42b84b5139e9c578ec9bf854aeaeeb1", "rental_uris": {"android": "https://dc.lft.to/lastmile_qr_scan", "ios": "https://dc.lft.to/lastmile_qr_scan"}, "bike_id": "f42b84b5139e9c578ec9bf854aeaeeb1"}, {"fusion_lon": 0.0, "is_reserved": 0, "lat": 38.88743133333333, "is_disabled": 0, "type": "electric_scooter", "lon": -77.0256685, "fusion_lat": 0.0, "name": "c173df48195b4f0d1e9a83eecf10432f", "rental_uris": {"android": "https://dc.lft.to/lastmile_qr_scan", "ios": "https://dc.lft.to/lastmile_qr_scan"}, "bike_id": "c173df48195b4f0d1e9a83eecf10432f"}, {"fusion_lon": 0.0, "is_reserved": 0, "lat": 38.89754333333333, "is_disabled": 0, "type": "electric_scooter", "lon": -77.03167183333333, "fusion_lat": 0.0, "name": "547f0981972c0a107815e0613c35c448", "rental_uris": {"android": "https://dc.lft.to/lastmile_qr_scan", "ios": "https://dc.lft.to/lastmile_qr_scan"}, "bike_id": "547f0981972c0a107815e0613c35c448"}, {"fusion_lon": 0.0, "is_reserved": 0, "lat": 38.908440666666664, "is_disabled": 0, "type": "electric_scooter", "lon": -77.023843, "fusion_lat": 0.0, "name": "5df61690955fb6483077c4ad4dd9493e", "rental_uris": {"android": "https://dc.lft.to/lastmile_qr_scan", "ios": "https://dc.lft.to/lastmile_qr_scan"}, "bike_id": "5df61690955fb6483077c4ad4dd9493e"}, {"fusion_lon": 0.0, "is_reserved": 0, "lat": 38.898801, "is_disabled": 0, "type": "electric_scooter", "lon": -77.033317, "fusion_lat": 0.0, "name": "32365264266a24ecc67912d85427fcda", "rental_uris": {"android": "https://dc.lft.to/lastmile_qr_scan", "ios": "https://dc.lft.to/lastmile_qr_scan"}, "bike_id": "32365264266a24ecc67912d85427fcda"}, {"fusion_lon": 0.0, "is_reserved": 0, "lat": 38.9247555, "is_disabled": 0, "type": "electric_scooter", "lon": -77.02732216666666, "fusion_lat": 0.0, "name": "d2c964a21370983933fd7d9089a1d5c0", "rental_uris": {"android": "https://dc.lft.to/lastmile_qr_scan", "ios": "https://dc.lft.to/lastmile_qr_scan"}, "bike_id": "d2c964a21370983933fd7d9089a1d5c0"}, {"fusion_lon": 0.0, "is_reserved": 0, "lat": 38.921719333333336, "is_disabled": 0, "type": "electric_scooter", "lon": -77.04226066666666, "fusion_lat": 0.0, "name": "70723aec9f2c770abecb0150a9107110", "rental_uris": {"android": "https://dc.lft.to/lastmile_qr_scan", "ios": "https://dc.lft.to/lastmile_qr_scan"}, "bike_id": "70723aec9f2c770abecb0150a9107110"}, {"fusion_lon": 0.0, "is_reserved": 0, "lat": 38.914154333333336, "is_disabled": 0, "type": "electric_scooter", "lon": -77.01874866666667, "fusion_lat": 0.0, "name": "2d417475f74c8610ac9e6c64b518c105", "rental_uris": {"android": "https://dc.lft.to/lastmile_qr_scan", "ios": "https://dc.lft.to/lastmile_qr_scan"}, "bike_id": "2d417475f74c8610ac9e6c64b518c105"}, {"fusion_lon": 0.0, "is_reserved": 0, "lat": 38.92320683333333, "is_disabled": 0, "type": "electric_scooter", "lon": -77.0269585, "fusion_lat": 0.0, "name": "aa75cc3ce513ff89efb3b64992026911", "rental_uris": {"android": "https://dc.lft.to/lastmile_qr_scan", "ios": "https://dc.lft.to/lastmile_qr_scan"}, "bike_id": "aa75cc3ce513ff89efb3b64992026911"}, {"fusion_lon": 0.0, "is_reserved": 0, "lat": 38.918058, "is_disabled": 0, "type": "electric_scooter", "lon": -77.0403085, "fusion_lat": 0.0, "name": "591b6e3b3e8866a77df221a4356fb1ae", "rental_uris": {"android": "https://dc.lft.to/lastmile_qr_scan", "ios": "https://dc.lft.to/lastmile_qr_scan"}, "bike_id": "591b6e3b3e8866a77df221a4356fb1ae"}, {"fusion_lon": 0.0, "is_reserved": 0, "lat": 38.89357033333334, "is_disabled": 0, "type": "electric_scooter", "lon": -77.003329, "fusion_lat": 0.0, "name": "c7771e3b337d4da81eab5c171759a474", "rental_uris": {"android": "https://dc.lft.to/lastmile_qr_scan", "ios": "https://dc.lft.to/lastmile_qr_scan"}, "bike_id": "c7771e3b337d4da81eab5c171759a474"}, {"fusion_lon": 0.0, "is_reserved": 0, "lat": 38.896399333333335, "is_disabled": 0, "type": "electric_scooter", "lon": -77.0279195, "fusion_lat": 0.0, "name": "01a65fc9c04a54779dd1bc91aa2381ce", "rental_uris": {"android": "https://dc.lft.to/lastmile_qr_scan", "ios": "https://dc.lft.to/lastmile_qr_scan"}, "bike_id": "01a65fc9c04a54779dd1bc91aa2381ce"}, {"fusion_lon": 0.0, "is_reserved": 0, "lat": 38.886396833333336, "is_disabled": 0, "type": "electric_scooter", "lon": -76.98211283333333, "fusion_lat": 0.0, "name": "95b4c8a40f915f4af388406851fd151c", "rental_uris": {"android": "https://dc.lft.to/lastmile_qr_scan", "ios": "https://dc.lft.to/lastmile_qr_scan"}, "bike_id": "95b4c8a40f915f4af388406851fd151c"}, {"fusion_lon": 0.0, "is_reserved": 0, "lat": 38.91251533333333, "is_disabled": 0, "type": "electric_scooter", "lon": -77.0143155, "fusion_lat": 0.0, "name": "25969b2bcde6a1a514a3dc6a1e92d50b", "rental_uris": {"android": "https://dc.lft.to/lastmile_qr_scan", "ios": "https://dc.lft.to/lastmile_qr_scan"}, "bike_id": "25969b2bcde6a1a514a3dc6a1e92d50b"}, {"fusion_lon": 0.0, "is_reserved": 0, "lat": 38.9003915, "is_disabled": 0, "type": "electric_scooter", "lon": -76.98826033333333, "fusion_lat": 0.0, "name": "8cb41dd4c1eba1f32dbb92247ddff699", "rental_uris": {"android": "https://dc.lft.to/lastmile_qr_scan", "ios": "https://dc.lft.to/lastmile_qr_scan"}, "bike_id": "8cb41dd4c1eba1f32dbb92247ddff699"}, {"fusion_lon": 0.0, "is_reserved": 0, "lat": 38.905586, "is_disabled": 0, "type": "electric_scooter", "lon": -77.040775, "fusion_lat": 0.0, "name": "15500ce49d767b2170f3ed3bde6eb925", "rental_uris": {"android": "https://dc.lft.to/lastmile_qr_scan", "ios": "https://dc.lft.to/lastmile_qr_scan"}, "bike_id": "15500ce49d767b2170f3ed3bde6eb925"}, {"fusion_lon": 0.0, "is_reserved": 0, "lat": 38.880577833333334, "is_disabled": 0, "type": "electric_scooter", "lon": -76.93209233333333, "fusion_lat": 0.0, "name": "f8ce40672f06f75fe21366c3744c418e", "rental_uris": {"android": "https://dc.lft.to/lastmile_qr_scan", "ios": "https://dc.lft.to/lastmile_qr_scan"}, "bike_id": "f8ce40672f06f75fe21366c3744c418e"}, {"fusion_lon": 0.0, "is_reserved": 0, "lat": 38.9342765, "is_disabled": 0, "type": "electric_scooter", "lon": -77.040021, "fusion_lat": 0.0, "name": "d6fe3948bab7fe28a8196ef7cb67a295", "rental_uris": {"android": "https://dc.lft.to/lastmile_qr_scan", "ios": "https://dc.lft.to/lastmile_qr_scan"}, "bike_id": "d6fe3948bab7fe28a8196ef7cb67a295"}, {"fusion_lon": 0.0, "is_reserved": 0, "lat": 38.90953666666667, "is_disabled": 0, "type": "electric_scooter", "lon": -77.04838333333333, "fusion_lat": 0.0, "name": "ea1c99b3268ef3f3208c6b622f720f81", "rental_uris": {"android": "https://dc.lft.to/lastmile_qr_scan", "ios": "https://dc.lft.to/lastmile_qr_scan"}, "bike_id": "ea1c99b3268ef3f3208c6b622f720f81"}, {"fusion_lon": 0.0, "is_reserved": 0, "lat": 38.89347433333333, "is_disabled": 0, "type": "electric_scooter", "lon": -77.0413255, "fusion_lat": 0.0, "name": "b3f236f79c211c2988d62dde87bb845d", "rental_uris": {"android": "https://dc.lft.to/lastmile_qr_scan", "ios": "https://dc.lft.to/lastmile_qr_scan"}, "bike_id": "b3f236f79c211c2988d62dde87bb845d"}, {"fusion_lon": 0.0, "is_reserved": 0, "lat": 38.90236133333333, "is_disabled": 0, "type": "electric_scooter", "lon": -77.03454916666666, "fusion_lat": 0.0, "name": "cbdcbb0207f771fdafb951c67286aa1e", "rental_uris": {"android": "https://dc.lft.to/lastmile_qr_scan", "ios": "https://dc.lft.to/lastmile_qr_scan"}, "bike_id": "cbdcbb0207f771fdafb951c67286aa1e"}, {"fusion_lon": 0.0, "is_reserved": 0, "lat": 38.887454166666664, "is_disabled": 0, "type": "electric_scooter", "lon": -77.02147866666667, "fusion_lat": 0.0, "name": "e2c64677a7bdef431c97e3d899520aff", "rental_uris": {"android": "https://dc.lft.to/lastmile_qr_scan", "ios": "https://dc.lft.to/lastmile_qr_scan"}, "bike_id": "e2c64677a7bdef431c97e3d899520aff"}, {"fusion_lon": 0.0, "is_reserved": 0, "lat": 38.898493333333334, "is_disabled": 0, "type": "electric_scooter", "lon": -76.9903415, "fusion_lat": 0.0, "name": "e16d8f68fff1cf49488d5970d86207f9", "rental_uris": {"android": "https://dc.lft.to/lastmile_qr_scan", "ios": "https://dc.lft.to/lastmile_qr_scan"}, "bike_id": "e16d8f68fff1cf49488d5970d86207f9"}, {"fusion_lon": 0.0, "is_reserved": 0, "lat": 38.920148166666664, "is_disabled": 0, "type": "electric_scooter", "lon": -76.99314616666666, "fusion_lat": 0.0, "name": "863204db48d7d436e61a1d745c10a9f8", "rental_uris": {"android": "https://dc.lft.to/lastmile_qr_scan", "ios": "https://dc.lft.to/lastmile_qr_scan"}, "bike_id": "863204db48d7d436e61a1d745c10a9f8"}, {"fusion_lon": 0.0, "is_reserved": 0, "lat": 38.903553, "is_disabled": 0, "type": "electric_scooter", "lon": -77.02162166666666, "fusion_lat": 0.0, "name": "df257ae1835da9c1748254ad798c3faf", "rental_uris": {"android": "https://dc.lft.to/lastmile_qr_scan", "ios": "https://dc.lft.to/lastmile_qr_scan"}, "bike_id": "df257ae1835da9c1748254ad798c3faf"}, {"fusion_lon": 0.0, "is_reserved": 0, "lat": 38.90885566666667, "is_disabled": 0, "type": "electric_scooter", "lon": -77.0753485, "fusion_lat": 0.0, "name": "abfafc76a6a1eeeb2a8e27a0793100bc", "rental_uris": {"android": "https://dc.lft.to/lastmile_qr_scan", "ios": "https://dc.lft.to/lastmile_qr_scan"}, "bike_id": "abfafc76a6a1eeeb2a8e27a0793100bc"}, {"fusion_lon": 0.0, "is_reserved": 0, "lat": 38.9207625, "is_disabled": 0, "type": "electric_scooter", "lon": -77.02517916666666, "fusion_lat": 0.0, "name": "2d450ff9336e94723e7a560ed47c270d", "rental_uris": {"android": "https://dc.lft.to/lastmile_qr_scan", "ios": "https://dc.lft.to/lastmile_qr_scan"}, "bike_id": "2d450ff9336e94723e7a560ed47c270d"}, {"fusion_lon": 0.0, "is_reserved": 0, "lat": 38.9100145, "is_disabled": 0, "type": "electric_scooter", "lon": -77.0400925, "fusion_lat": 0.0, "name": "5a96e7633b77e71d06ec8f9631b8ff6d", "rental_uris": {"android": "https://dc.lft.to/lastmile_qr_scan", "ios": "https://dc.lft.to/lastmile_qr_scan"}, "bike_id": "5a96e7633b77e71d06ec8f9631b8ff6d"}, {"fusion_lon": 0.0, "is_reserved": 0, "lat": 38.913941666666666, "is_disabled": 0, "type": "electric_scooter", "lon": -77.041713, "fusion_lat": 0.0, "name": "6cab4f756fcec13317c3f7b29bb29000", "rental_uris": {"android": "https://dc.lft.to/lastmile_qr_scan", "ios": "https://dc.lft.to/lastmile_qr_scan"}, "bike_id": "6cab4f756fcec13317c3f7b29bb29000"}, {"fusion_lon": 0.0, "is_reserved": 0, "lat": 38.91190866666667, "is_disabled": 0, "type": "electric_scooter", "lon": -77.0298155, "fusion_lat": 0.0, "name": "03b1fad98e6ed0d81200ce0c107d5287", "rental_uris": {"android": "https://dc.lft.to/lastmile_qr_scan", "ios": "https://dc.lft.to/lastmile_qr_scan"}, "bike_id": "03b1fad98e6ed0d81200ce0c107d5287"}, {"fusion_lon": 0.0, "is_reserved": 0, "lat": 38.93248033333333, "is_disabled": 0, "type": "electric_scooter", "lon": -77.032717, "fusion_lat": 0.0, "name": "7e9e24b0ed95964a0096fe26bacfbeed", "rental_uris": {"android": "https://dc.lft.to/lastmile_qr_scan", "ios": "https://dc.lft.to/lastmile_qr_scan"}, "bike_id": "7e9e24b0ed95964a0096fe26bacfbeed"}, {"fusion_lon": 0.0, "is_reserved": 0, "lat": 38.918104666666665, "is_disabled": 0, "type": "electric_scooter", "lon": -77.0250445, "fusion_lat": 0.0, "name": "45c876943956fbde1301b4b472a7df07", "rental_uris": {"android": "https://dc.lft.to/lastmile_qr_scan", "ios": "https://dc.lft.to/lastmile_qr_scan"}, "bike_id": "45c876943956fbde1301b4b472a7df07"}, {"fusion_lon": 0.0, "is_reserved": 0, "lat": 38.893315666666666, "is_disabled": 0, "type": "electric_scooter", "lon": -77.03177333333333, "fusion_lat": 0.0, "name": "b43e9f7053642e4048a2cdb75bf32147", "rental_uris": {"android": "https://dc.lft.to/lastmile_qr_scan", "ios": "https://dc.lft.to/lastmile_qr_scan"}, "bike_id": "b43e9f7053642e4048a2cdb75bf32147"}, {"fusion_lon": 0.0, "is_reserved": 0, "lat": 38.90601233333334, "is_disabled": 0, "type": "electric_scooter", "lon": -77.02109683333333, "fusion_lat": 0.0, "name": "6b0746c60a68a1ad45530603b10b011a", "rental_uris": {"android": "https://dc.lft.to/lastmile_qr_scan", "ios": "https://dc.lft.to/lastmile_qr_scan"}, "bike_id": "6b0746c60a68a1ad45530603b10b011a"}, {"fusion_lon": 0.0, "is_reserved": 0, "lat": 38.8601175, "is_disabled": 0, "type": "electric_scooter", "lon": -76.98513716666666, "fusion_lat": 0.0, "name": "2a578828265f6fce9569a8e0d0328bb2", "rental_uris": {"android": "https://dc.lft.to/lastmile_qr_scan", "ios": "https://dc.lft.to/lastmile_qr_scan"}, "bike_id": "2a578828265f6fce9569a8e0d0328bb2"}, {"fusion_lon": 0.0, "is_reserved": 0, "lat": 38.92570683333334, "is_disabled": 0, "type": "electric_scooter", "lon": -77.028339, "fusion_lat": 0.0, "name": "c3f5ef8cf4ff65a1c846dd156ce05f13", "rental_uris": {"android": "https://dc.lft.to/lastmile_qr_scan", "ios": "https://dc.lft.to/lastmile_qr_scan"}, "bike_id": "c3f5ef8cf4ff65a1c846dd156ce05f13"}, {"fusion_lon": 0.0, "is_reserved": 0, "lat": 38.91181516666666, "is_disabled": 0, "type": "electric_scooter", "lon": -77.04117583333333, "fusion_lat": 0.0, "name": "654440fc17ac536243c40e0a9b86fd09", "rental_uris": {"android": "https://dc.lft.to/lastmile_qr_scan", "ios": "https://dc.lft.to/lastmile_qr_scan"}, "bike_id": "654440fc17ac536243c40e0a9b86fd09"}, {"fusion_lon": 0.0, "is_reserved": 0, "lat": 38.892186, "is_disabled": 0, "type": "electric_scooter", "lon": -77.01390933333333, "fusion_lat": 0.0, "name": "0268f3642221cd2513cb97c274e7b9df", "rental_uris": {"android": "https://dc.lft.to/lastmile_qr_scan", "ios": "https://dc.lft.to/lastmile_qr_scan"}, "bike_id": "0268f3642221cd2513cb97c274e7b9df"}, {"fusion_lon": 0.0, "is_reserved": 0, "lat": 38.98523766666667, "is_disabled": 0, "type": "electric_bike", "lon": -77.00411833333334, "fusion_lat": 0.0, "name": "335c3bc2d99b9168be7fd6dd3103247f", "rental_uris": {"android": "https://dc.lft.to/lastmile_qr_scan", "ios": "https://dc.lft.to/lastmile_qr_scan"}, "bike_id": "335c3bc2d99b9168be7fd6dd3103247f"}, {"fusion_lon": 0.0, "is_reserved": 0, "lat": 38.91156266666667, "is_disabled": 0, "type": "electric_scooter", "lon": -77.06235016666666, "fusion_lat": 0.0, "name": "abfaaf949320a8fa37232adcc53fde08", "rental_uris": {"android": "https://dc.lft.to/lastmile_qr_scan", "ios": "https://dc.lft.to/lastmile_qr_scan"}, "bike_id": "abfaaf949320a8fa37232adcc53fde08"}, {"fusion_lon": 0.0, "is_reserved": 0, "lat": 38.902672, "is_disabled": 0, "type": "electric_scooter", "lon": -76.93633583333333, "fusion_lat": 0.0, "name": "cd0a6ada97a265e010179702ac69e491", "rental_uris": {"android": "https://dc.lft.to/lastmile_qr_scan", "ios": "https://dc.lft.to/lastmile_qr_scan"}, "bike_id": "cd0a6ada97a265e010179702ac69e491"}, {"fusion_lon": 0.0, "is_reserved": 0, "lat": 38.87666466666667, "is_disabled": 0, "type": "electric_scooter", "lon": -76.99823866666667, "fusion_lat": 0.0, "name": "f68ae8d1f1288593e83f0b1948fdd200", "rental_uris": {"android": "https://dc.lft.to/lastmile_qr_scan", "ios": "https://dc.lft.to/lastmile_qr_scan"}, "bike_id": "f68ae8d1f1288593e83f0b1948fdd200"}, {"fusion_lon": 0.0, "is_reserved": 0, "lat": 38.9281095, "is_disabled": 0, "type": "electric_scooter", "lon": -77.05974366666666, "fusion_lat": 0.0, "name": "a6ec566551226be129ec0f460dffba63", "rental_uris": {"android": "https://dc.lft.to/lastmile_qr_scan", "ios": "https://dc.lft.to/lastmile_qr_scan"}, "bike_id": "a6ec566551226be129ec0f460dffba63"}, {"fusion_lon": 0.0, "is_reserved": 0, "lat": 38.86449866666667, "is_disabled": 0, "type": "electric_bike", "lon": -76.99913316666667, "fusion_lat": 0.0, "name": "042a389ffffb715a0af4a84e48668318", "rental_uris": {"android": "https://dc.lft.to/lastmile_qr_scan", "ios": "https://dc.lft.to/lastmile_qr_scan"}, "bike_id": "042a389ffffb715a0af4a84e48668318"}, {"fusion_lon": 0.0, "is_reserved": 0, "lat": 38.90550666666667, "is_disabled": 0, "type": "electric_scooter", "lon": -77.04181833333334, "fusion_lat": 0.0, "name": "8fe74a901a6695b28f612ab01fa62929", "rental_uris": {"android": "https://dc.lft.to/lastmile_qr_scan", "ios": "https://dc.lft.to/lastmile_qr_scan"}, "bike_id": "8fe74a901a6695b28f612ab01fa62929"}, {"fusion_lon": 0.0, "is_reserved": 0, "lat": 38.92868, "is_disabled": 0, "type": "electric_scooter", "lon": -77.0317155, "fusion_lat": 0.0, "name": "c309159366859944175d062f5d58eaeb", "rental_uris": {"android": "https://dc.lft.to/lastmile_qr_scan", "ios": "https://dc.lft.to/lastmile_qr_scan"}, "bike_id": "c309159366859944175d062f5d58eaeb"}, {"fusion_lon": 0.0, "is_reserved": 0, "lat": 38.90024016666667, "is_disabled": 0, "type": "electric_scooter", "lon": -77.00021516666666, "fusion_lat": 0.0, "name": "1401735a6cde94851c187451e4f4c45a", "rental_uris": {"android": "https://dc.lft.to/lastmile_qr_scan", "ios": "https://dc.lft.to/lastmile_qr_scan"}, "bike_id": "1401735a6cde94851c187451e4f4c45a"}, {"fusion_lon": 0.0, "is_reserved": 0, "lat": 38.92339833333333, "is_disabled": 0, "type": "electric_scooter", "lon": -77.0347955, "fusion_lat": 0.0, "name": "62ee9402b1c5724799b5582da53efa3d", "rental_uris": {"android": "https://dc.lft.to/lastmile_qr_scan", "ios": "https://dc.lft.to/lastmile_qr_scan"}, "bike_id": "62ee9402b1c5724799b5582da53efa3d"}, {"fusion_lon": 0.0, "is_reserved": 0, "lat": 38.92331266666667, "is_disabled": 0, "type": "electric_scooter", "lon": -77.019608, "fusion_lat": 0.0, "name": "d3bb9c358be1a7b52d6e2148fec148d5", "rental_uris": {"android": "https://dc.lft.to/lastmile_qr_scan", "ios": "https://dc.lft.to/lastmile_qr_scan"}, "bike_id": "d3bb9c358be1a7b52d6e2148fec148d5"}, {"fusion_lon": 0.0, "is_reserved": 0, "lat": 38.934141333333336, "is_disabled": 0, "type": "electric_scooter", "lon": -77.02025383333333, "fusion_lat": 0.0, "name": "4108408b922d9d907bc0f42e4eca6a56", "rental_uris": {"android": "https://dc.lft.to/lastmile_qr_scan", "ios": "https://dc.lft.to/lastmile_qr_scan"}, "bike_id": "4108408b922d9d907bc0f42e4eca6a56"}, {"fusion_lon": 0.0, "is_reserved": 0, "lat": 38.884667, "is_disabled": 0, "type": "electric_bike", "lon": -76.9524615, "fusion_lat": 0.0, "name": "86d6464b46775167e0cd6155170b4d4b", "rental_uris": {"android": "https://dc.lft.to/lastmile_qr_scan", "ios": "https://dc.lft.to/lastmile_qr_scan"}, "bike_id": "86d6464b46775167e0cd6155170b4d4b"}, {"fusion_lon": 0.0, "is_reserved": 0, "lat": 38.917642666666666, "is_disabled": 0, "type": "electric_scooter", "lon": -77.0966705, "fusion_lat": 0.0, "name": "fd309caeccb6f8fcab63cad4e890e872", "rental_uris": {"android": "https://dc.lft.to/lastmile_qr_scan", "ios": "https://dc.lft.to/lastmile_qr_scan"}, "bike_id": "fd309caeccb6f8fcab63cad4e890e872"}, {"fusion_lon": 0.0, "is_reserved": 0, "lat": 38.9342945, "is_disabled": 0, "type": "electric_scooter", "lon": -77.03996433333333, "fusion_lat": 0.0, "name": "6868c3b06b4b2dc5eeda88291fefe764", "rental_uris": {"android": "https://dc.lft.to/lastmile_qr_scan", "ios": "https://dc.lft.to/lastmile_qr_scan"}, "bike_id": "6868c3b06b4b2dc5eeda88291fefe764"}, {"fusion_lon": 0.0, "is_reserved": 0, "lat": 38.876876, "is_disabled": 0, "type": "electric_scooter", "lon": -77.000644, "fusion_lat": 0.0, "name": "4f255e27d168d783a371a24bf40fdbca", "rental_uris": {"android": "https://dc.lft.to/lastmile_qr_scan", "ios": "https://dc.lft.to/lastmile_qr_scan"}, "bike_id": "4f255e27d168d783a371a24bf40fdbca"}, {"fusion_lon": 0.0, "is_reserved": 0, "lat": 38.87861616666667, "is_disabled": 0, "type": "electric_scooter", "lon": -76.9375475, "fusion_lat": 0.0, "name": "cb33d64f5472d2cdde5c34780fccfdcd", "rental_uris": {"android": "https://dc.lft.to/lastmile_qr_scan", "ios": "https://dc.lft.to/lastmile_qr_scan"}, "bike_id": "cb33d64f5472d2cdde5c34780fccfdcd"}, {"fusion_lon": 0.0, "is_reserved": 0, "lat": 38.92864483333334, "is_disabled": 0, "type": "electric_scooter", "lon": -77.01384266666666, "fusion_lat": 0.0, "name": "4b41e6ecd51c0c3890bb3dcf30e6a6aa", "rental_uris": {"android": "https://dc.lft.to/lastmile_qr_scan", "ios": "https://dc.lft.to/lastmile_qr_scan"}, "bike_id": "4b41e6ecd51c0c3890bb3dcf30e6a6aa"}, {"fusion_lon": 0.0, "is_reserved": 0, "lat": 38.9195575, "is_disabled": 0, "type": "electric_scooter", "lon": -77.02468533333334, "fusion_lat": 0.0, "name": "0bab9d216fdf9e6a19214cffbb6009d0", "rental_uris": {"android": "https://dc.lft.to/lastmile_qr_scan", "ios": "https://dc.lft.to/lastmile_qr_scan"}, "bike_id": "0bab9d216fdf9e6a19214cffbb6009d0"}, {"fusion_lon": 0.0, "is_reserved": 0, "lat": 38.900008166666666, "is_disabled": 0, "type": "electric_scooter", "lon": -77.03039816666667, "fusion_lat": 0.0, "name": "d6bc408295cfe11688ecb6ab48dcf1e8", "rental_uris": {"android": "https://dc.lft.to/lastmile_qr_scan", "ios": "https://dc.lft.to/lastmile_qr_scan"}, "bike_id": "d6bc408295cfe11688ecb6ab48dcf1e8"}, {"fusion_lon": 0.0, "is_reserved": 0, "lat": 38.90036933333333, "is_disabled": 0, "type": "electric_scooter", "lon": -77.009118, "fusion_lat": 0.0, "name": "3fab1ef4b1a71f842d7b49c477f5f380", "rental_uris": {"android": "https://dc.lft.to/lastmile_qr_scan", "ios": "https://dc.lft.to/lastmile_qr_scan"}, "bike_id": "3fab1ef4b1a71f842d7b49c477f5f380"}, {"fusion_lon": 0.0, "is_reserved": 0, "lat": 38.89481816666667, "is_disabled": 0, "type": "electric_scooter", "lon": -77.021583, "fusion_lat": 0.0, "name": "7738ef2599ebf47b10a695c5a86e1188", "rental_uris": {"android": "https://dc.lft.to/lastmile_qr_scan", "ios": "https://dc.lft.to/lastmile_qr_scan"}, "bike_id": "7738ef2599ebf47b10a695c5a86e1188"}, {"fusion_lon": 0.0, "is_reserved": 0, "lat": 38.87708633333333, "is_disabled": 0, "type": "electric_scooter", "lon": -77.0034185, "fusion_lat": 0.0, "name": "801733e8262db15200f656cc47390476", "rental_uris": {"android": "https://dc.lft.to/lastmile_qr_scan", "ios": "https://dc.lft.to/lastmile_qr_scan"}, "bike_id": "801733e8262db15200f656cc47390476"}, {"fusion_lon": 0.0, "is_reserved": 0, "lat": 38.90838266666667, "is_disabled": 0, "type": "electric_scooter", "lon": -77.03472416666666, "fusion_lat": 0.0, "name": "223c6df443545e7254042ac988760e84", "rental_uris": {"android": "https://dc.lft.to/lastmile_qr_scan", "ios": "https://dc.lft.to/lastmile_qr_scan"}, "bike_id": "223c6df443545e7254042ac988760e84"}, {"fusion_lon": 0.0, "is_reserved": 0, "lat": 38.9978235, "is_disabled": 0, "type": "electric_bike", "lon": -77.00757066666667, "fusion_lat": 0.0, "name": "cb280b31f0468b0bbf3027d8e7c18bfe", "rental_uris": {"android": "https://dc.lft.to/lastmile_qr_scan", "ios": "https://dc.lft.to/lastmile_qr_scan"}, "bike_id": "cb280b31f0468b0bbf3027d8e7c18bfe"}, {"fusion_lon": 0.0, "is_reserved": 0, "lat": 38.98300233333333, "is_disabled": 0, "type": "electric_bike", "lon": -76.94545066666667, "fusion_lat": 0.0, "name": "dd9083ca185174541510e8a3010c2e3f", "rental_uris": {"android": "https://dc.lft.to/lastmile_qr_scan", "ios": "https://dc.lft.to/lastmile_qr_scan"}, "bike_id": "dd9083ca185174541510e8a3010c2e3f"}, {"fusion_lon": 0.0, "is_reserved": 0, "lat": 38.91667916666667, "is_disabled": 0, "type": "electric_scooter", "lon": -77.02386516666667, "fusion_lat": 0.0, "name": "7b759fc24c06df33f6f195c30772e235", "rental_uris": {"android": "https://dc.lft.to/lastmile_qr_scan", "ios": "https://dc.lft.to/lastmile_qr_scan"}, "bike_id": "7b759fc24c06df33f6f195c30772e235"}, {"fusion_lon": 0.0, "is_reserved": 0, "lat": 38.907938333333334, "is_disabled": 0, "type": "electric_scooter", "lon": -77.03832816666667, "fusion_lat": 0.0, "name": "a80ed4d60825a0d270c251fcd53e348f", "rental_uris": {"android": "https://dc.lft.to/lastmile_qr_scan", "ios": "https://dc.lft.to/lastmile_qr_scan"}, "bike_id": "a80ed4d60825a0d270c251fcd53e348f"}, {"fusion_lon": 0.0, "is_reserved": 0, "lat": 38.8750025, "is_disabled": 0, "type": "electric_scooter", "lon": -77.000431, "fusion_lat": 0.0, "name": "15d6bbb29fd004db1d0befe9596f65ae", "rental_uris": {"android": "https://dc.lft.to/lastmile_qr_scan", "ios": "https://dc.lft.to/lastmile_qr_scan"}, "bike_id": "15d6bbb29fd004db1d0befe9596f65ae"}, {"fusion_lon": 0.0, "is_reserved": 0, "lat": 38.896589166666665, "is_disabled": 0, "type": "electric_scooter", "lon": -77.027113, "fusion_lat": 0.0, "name": "8bde255471b67d62b5047cb00dfa8a60", "rental_uris": {"android": "https://dc.lft.to/lastmile_qr_scan", "ios": "https://dc.lft.to/lastmile_qr_scan"}, "bike_id": "8bde255471b67d62b5047cb00dfa8a60"}, {"fusion_lon": 0.0, "is_reserved": 0, "lat": 38.8849675, "is_disabled": 0, "type": "electric_scooter", "lon": -77.01550283333333, "fusion_lat": 0.0, "name": "e95d407cdf09978f9b0ae93fca473a1d", "rental_uris": {"android": "https://dc.lft.to/lastmile_qr_scan", "ios": "https://dc.lft.to/lastmile_qr_scan"}, "bike_id": "e95d407cdf09978f9b0ae93fca473a1d"}, {"fusion_lon": 0.0, "is_reserved": 0, "lat": 38.92878283333334, "is_disabled": 0, "type": "electric_scooter", "lon": -77.03339766666667, "fusion_lat": 0.0, "name": "4d9efd302c9ab65ca084a57f60658fbf", "rental_uris": {"android": "https://dc.lft.to/lastmile_qr_scan", "ios": "https://dc.lft.to/lastmile_qr_scan"}, "bike_id": "4d9efd302c9ab65ca084a57f60658fbf"}, {"fusion_lon": 0.0, "is_reserved": 0, "lat": 38.84419483333333, "is_disabled": 0, "type": "electric_scooter", "lon": -76.98858916666667, "fusion_lat": 0.0, "name": "17188bd18486251923836393bd513985", "rental_uris": {"android": "https://dc.lft.to/lastmile_qr_scan", "ios": "https://dc.lft.to/lastmile_qr_scan"}, "bike_id": "17188bd18486251923836393bd513985"}, {"fusion_lon": 0.0, "is_reserved": 0, "lat": 38.9144875, "is_disabled": 0, "type": "electric_scooter", "lon": -77.04588216666667, "fusion_lat": 0.0, "name": "99f42b2b288226ca0a87667e619c8d96", "rental_uris": {"android": "https://dc.lft.to/lastmile_qr_scan", "ios": "https://dc.lft.to/lastmile_qr_scan"}, "bike_id": "99f42b2b288226ca0a87667e619c8d96"}, {"fusion_lon": 0.0, "is_reserved": 0, "lat": 38.9237405, "is_disabled": 0, "type": "electric_scooter", "lon": -77.02657566666667, "fusion_lat": 0.0, "name": "8b0c0089e602ab576630dd2eba90ff27", "rental_uris": {"android": "https://dc.lft.to/lastmile_qr_scan", "ios": "https://dc.lft.to/lastmile_qr_scan"}, "bike_id": "8b0c0089e602ab576630dd2eba90ff27"}, {"fusion_lon": 0.0, "is_reserved": 0, "lat": 38.902288666666664, "is_disabled": 0, "type": "electric_scooter", "lon": -77.06029066666666, "fusion_lat": 0.0, "name": "2d622480355dfd03531f44daca854501", "rental_uris": {"android": "https://dc.lft.to/lastmile_qr_scan", "ios": "https://dc.lft.to/lastmile_qr_scan"}, "bike_id": "2d622480355dfd03531f44daca854501"}, {"fusion_lon": 0.0, "is_reserved": 0, "lat": 38.90404783333334, "is_disabled": 0, "type": "electric_scooter", "lon": -77.06845866666667, "fusion_lat": 0.0, "name": "d0af692a4588ea5bb6f510475ba98a4f", "rental_uris": {"android": "https://dc.lft.to/lastmile_qr_scan", "ios": "https://dc.lft.to/lastmile_qr_scan"}, "bike_id": "d0af692a4588ea5bb6f510475ba98a4f"}, {"fusion_lon": 0.0, "is_reserved": 0, "lat": 38.83816733333333, "is_disabled": 0, "type": "electric_bike", "lon": -76.99680683333334, "fusion_lat": 0.0, "name": "a7a972803ea0e109f47d99b079309e0c", "rental_uris": {"android": "https://dc.lft.to/lastmile_qr_scan", "ios": "https://dc.lft.to/lastmile_qr_scan"}, "bike_id": "a7a972803ea0e109f47d99b079309e0c"}, {"fusion_lon": 0.0, "is_reserved": 0, "lat": 38.89167033333333, "is_disabled": 0, "type": "electric_scooter", "lon": -77.015426, "fusion_lat": 0.0, "name": "aeab643064e11aff1cc0976e60e17768", "rental_uris": {"android": "https://dc.lft.to/lastmile_qr_scan", "ios": "https://dc.lft.to/lastmile_qr_scan"}, "bike_id": "aeab643064e11aff1cc0976e60e17768"}, {"fusion_lon": 0.0, "is_reserved": 0, "lat": 38.899564166666664, "is_disabled": 0, "type": "electric_scooter", "lon": -77.0477985, "fusion_lat": 0.0, "name": "0c06cbf1d15c519a2e6cb5889fadf9d7", "rental_uris": {"android": "https://dc.lft.to/lastmile_qr_scan", "ios": "https://dc.lft.to/lastmile_qr_scan"}, "bike_id": "0c06cbf1d15c519a2e6cb5889fadf9d7"}, {"fusion_lon": 0.0, "is_reserved": 0, "lat": 38.9039135, "is_disabled": 0, "type": "electric_scooter", "lon": -77.04339333333333, "fusion_lat": 0.0, "name": "43619c28771ae93a3673aa28777c6fd3", "rental_uris": {"android": "https://dc.lft.to/lastmile_qr_scan", "ios": "https://dc.lft.to/lastmile_qr_scan"}, "bike_id": "43619c28771ae93a3673aa28777c6fd3"}, {"fusion_lon": 0.0, "is_reserved": 0, "lat": 38.896330166666665, "is_disabled": 0, "type": "electric_scooter", "lon": -77.039949, "fusion_lat": 0.0, "name": "51a9a06c52f16350c2cfcdb98406f1a4", "rental_uris": {"android": "https://dc.lft.to/lastmile_qr_scan", "ios": "https://dc.lft.to/lastmile_qr_scan"}, "bike_id": "51a9a06c52f16350c2cfcdb98406f1a4"}, {"fusion_lon": 0.0, "is_reserved": 0, "lat": 38.95068066666666, "is_disabled": 0, "type": "electric_bike", "lon": -77.01198566666666, "fusion_lat": 0.0, "name": "585319e27194526ec4f0181dd99f36e1", "rental_uris": {"android": "https://dc.lft.to/lastmile_qr_scan", "ios": "https://dc.lft.to/lastmile_qr_scan"}, "bike_id": "585319e27194526ec4f0181dd99f36e1"}, {"fusion_lon": 0.0, "is_reserved": 0, "lat": 38.89219683333334, "is_disabled": 0, "type": "electric_scooter", "lon": -77.02369983333334, "fusion_lat": 0.0, "name": "d5912a60653465928031deb92e85e860", "rental_uris": {"android": "https://dc.lft.to/lastmile_qr_scan", "ios": "https://dc.lft.to/lastmile_qr_scan"}, "bike_id": "d5912a60653465928031deb92e85e860"}, {"fusion_lon": 0.0, "is_reserved": 0, "lat": 38.88721066666667, "is_disabled": 0, "type": "electric_scooter", "lon": -77.01979433333334, "fusion_lat": 0.0, "name": "395ee6e48a35cd6a99cb96e450b703a3", "rental_uris": {"android": "https://dc.lft.to/lastmile_qr_scan", "ios": "https://dc.lft.to/lastmile_qr_scan"}, "bike_id": "395ee6e48a35cd6a99cb96e450b703a3"}, {"fusion_lon": 0.0, "is_reserved": 0, "lat": 38.920793333333336, "is_disabled": 0, "type": "electric_scooter", "lon": -77.02303833333333, "fusion_lat": 0.0, "name": "5b24b42c45749a49fac69893eb9c241e", "rental_uris": {"android": "https://dc.lft.to/lastmile_qr_scan", "ios": "https://dc.lft.to/lastmile_qr_scan"}, "bike_id": "5b24b42c45749a49fac69893eb9c241e"}, {"fusion_lon": 0.0, "is_reserved": 0, "lat": 38.98781533333333, "is_disabled": 0, "type": "electric_bike", "lon": -76.9944065, "fusion_lat": 0.0, "name": "9c401ad8b82952feaf2aab149d9faa40", "rental_uris": {"android": "https://dc.lft.to/lastmile_qr_scan", "ios": "https://dc.lft.to/lastmile_qr_scan"}, "bike_id": "9c401ad8b82952feaf2aab149d9faa40"}, {"fusion_lon": 0.0, "is_reserved": 0, "lat": 38.92470183333333, "is_disabled": 0, "type": "electric_scooter", "lon": -77.04461733333333, "fusion_lat": 0.0, "name": "a0e0bc1ddd262662abecbf048c303efe", "rental_uris": {"android": "https://dc.lft.to/lastmile_qr_scan", "ios": "https://dc.lft.to/lastmile_qr_scan"}, "bike_id": "a0e0bc1ddd262662abecbf048c303efe"}, {"fusion_lon": 0.0, "is_reserved": 0, "lat": 38.902658333333335, "is_disabled": 0, "type": "electric_scooter", "lon": -77.036342, "fusion_lat": 0.0, "name": "12d6c6de1a40db1780cb8ce9a30d79f8", "rental_uris": {"android": "https://dc.lft.to/lastmile_qr_scan", "ios": "https://dc.lft.to/lastmile_qr_scan"}, "bike_id": "12d6c6de1a40db1780cb8ce9a30d79f8"}, {"fusion_lon": 0.0, "is_reserved": 0, "lat": 38.9195775, "is_disabled": 0, "type": "electric_scooter", "lon": -77.024569, "fusion_lat": 0.0, "name": "16eea80d20eccc9d2b7f3d2695ef7c5d", "rental_uris": {"android": "https://dc.lft.to/lastmile_qr_scan", "ios": "https://dc.lft.to/lastmile_qr_scan"}, "bike_id": "16eea80d20eccc9d2b7f3d2695ef7c5d"}, {"fusion_lon": 0.0, "is_reserved": 0, "lat": 38.919133, "is_disabled": 0, "type": "electric_scooter", "lon": -77.0310415, "fusion_lat": 0.0, "name": "ee781a4cb95877a804d3b3d82a9dd335", "rental_uris": {"android": "https://dc.lft.to/lastmile_qr_scan", "ios": "https://dc.lft.to/lastmile_qr_scan"}, "bike_id": "ee781a4cb95877a804d3b3d82a9dd335"}, {"fusion_lon": 0.0, "is_reserved": 0, "lat": 38.89547366666667, "is_disabled": 0, "type": "electric_scooter", "lon": -77.01101383333334, "fusion_lat": 0.0, "name": "4ab08c05d546e762c5dcd67cf7aac51c", "rental_uris": {"android": "https://dc.lft.to/lastmile_qr_scan", "ios": "https://dc.lft.to/lastmile_qr_scan"}, "bike_id": "4ab08c05d546e762c5dcd67cf7aac51c"}, {"fusion_lon": 0.0, "is_reserved": 0, "lat": 38.9187465, "is_disabled": 0, "type": "electric_scooter", "lon": -77.03503233333333, "fusion_lat": 0.0, "name": "ef81669ab276bf76e594fa5b3ba2cb7d", "rental_uris": {"android": "https://dc.lft.to/lastmile_qr_scan", "ios": "https://dc.lft.to/lastmile_qr_scan"}, "bike_id": "ef81669ab276bf76e594fa5b3ba2cb7d"}, {"fusion_lon": 0.0, "is_reserved": 0, "lat": 38.916348666666664, "is_disabled": 0, "type": "electric_scooter", "lon": -77.02554466666666, "fusion_lat": 0.0, "name": "d7082fff8169adb45eeae134d9c0ec06", "rental_uris": {"android": "https://dc.lft.to/lastmile_qr_scan", "ios": "https://dc.lft.to/lastmile_qr_scan"}, "bike_id": "d7082fff8169adb45eeae134d9c0ec06"}, {"fusion_lon": 0.0, "is_reserved": 0, "lat": 38.90512666666667, "is_disabled": 0, "type": "electric_scooter", "lon": -77.03442183333334, "fusion_lat": 0.0, "name": "408f64281fc190ed381c964ff85fd997", "rental_uris": {"android": "https://dc.lft.to/lastmile_qr_scan", "ios": "https://dc.lft.to/lastmile_qr_scan"}, "bike_id": "408f64281fc190ed381c964ff85fd997"}, {"fusion_lon": 0.0, "is_reserved": 0, "lat": 38.85766266666667, "is_disabled": 0, "type": "electric_bike", "lon": -76.987578, "fusion_lat": 0.0, "name": "877f8865dd1827d1bf43a1cfdf3e7ead", "rental_uris": {"android": "https://dc.lft.to/lastmile_qr_scan", "ios": "https://dc.lft.to/lastmile_qr_scan"}, "bike_id": "877f8865dd1827d1bf43a1cfdf3e7ead"}, {"fusion_lon": 0.0, "is_reserved": 0, "lat": 38.903941333333336, "is_disabled": 0, "type": "electric_scooter", "lon": -77.0629785, "fusion_lat": 0.0, "name": "4e4237106b6563408001dfbd0fbf621b", "rental_uris": {"android": "https://dc.lft.to/lastmile_qr_scan", "ios": "https://dc.lft.to/lastmile_qr_scan"}, "bike_id": "4e4237106b6563408001dfbd0fbf621b"}, {"fusion_lon": 0.0, "is_reserved": 0, "lat": 38.877587166666665, "is_disabled": 0, "type": "electric_scooter", "lon": -77.00388366666667, "fusion_lat": 0.0, "name": "0bbd57c50ab596ad9bf410ae0dbbcd5b", "rental_uris": {"android": "https://dc.lft.to/lastmile_qr_scan", "ios": "https://dc.lft.to/lastmile_qr_scan"}, "bike_id": "0bbd57c50ab596ad9bf410ae0dbbcd5b"}, {"fusion_lon": 0.0, "is_reserved": 0, "lat": 38.882423333333335, "is_disabled": 0, "type": "electric_scooter", "lon": -76.99504566666667, "fusion_lat": 0.0, "name": "e8a43a656b83d732ebe01d9c5014b6eb", "rental_uris": {"android": "https://dc.lft.to/lastmile_qr_scan", "ios": "https://dc.lft.to/lastmile_qr_scan"}, "bike_id": "e8a43a656b83d732ebe01d9c5014b6eb"}, {"fusion_lon": 0.0, "is_reserved": 0, "lat": 38.90266616666667, "is_disabled": 0, "type": "electric_scooter", "lon": -77.0387585, "fusion_lat": 0.0, "name": "e92670e1b1c9f445ecc5f8a91efe557b", "rental_uris": {"android": "https://dc.lft.to/lastmile_qr_scan", "ios": "https://dc.lft.to/lastmile_qr_scan"}, "bike_id": "e92670e1b1c9f445ecc5f8a91efe557b"}, {"fusion_lon": 0.0, "is_reserved": 0, "lat": 38.912505833333334, "is_disabled": 0, "type": "electric_scooter", "lon": -77.04159016666667, "fusion_lat": 0.0, "name": "2069d48633cdac1bbb22f23ce5720d42", "rental_uris": {"android": "https://dc.lft.to/lastmile_qr_scan", "ios": "https://dc.lft.to/lastmile_qr_scan"}, "bike_id": "2069d48633cdac1bbb22f23ce5720d42"}, {"fusion_lon": 0.0, "is_reserved": 0, "lat": 38.91056583333334, "is_disabled": 0, "type": "electric_scooter", "lon": -77.04407033333334, "fusion_lat": 0.0, "name": "b7bae39d102d1723c336fe212e73f0fd", "rental_uris": {"android": "https://dc.lft.to/lastmile_qr_scan", "ios": "https://dc.lft.to/lastmile_qr_scan"}, "bike_id": "b7bae39d102d1723c336fe212e73f0fd"}, {"fusion_lon": 0.0, "is_reserved": 0, "lat": 38.929138333333334, "is_disabled": 0, "type": "electric_scooter", "lon": -77.03185716666667, "fusion_lat": 0.0, "name": "c0765097b6977b81c45d035bcd42d3d3", "rental_uris": {"android": "https://dc.lft.to/lastmile_qr_scan", "ios": "https://dc.lft.to/lastmile_qr_scan"}, "bike_id": "c0765097b6977b81c45d035bcd42d3d3"}, {"fusion_lon": 0.0, "is_reserved": 0, "lat": 38.858543, "is_disabled": 0, "type": "electric_scooter", "lon": -76.98536083333333, "fusion_lat": 0.0, "name": "0958c376815866a5d4d9a5cc7fff1f26", "rental_uris": {"android": "https://dc.lft.to/lastmile_qr_scan", "ios": "https://dc.lft.to/lastmile_qr_scan"}, "bike_id": "0958c376815866a5d4d9a5cc7fff1f26"}, {"fusion_lon": 0.0, "is_reserved": 0, "lat": 38.87761233333333, "is_disabled": 0, "type": "electric_bike", "lon": -77.14854633333333, "fusion_lat": 0.0, "name": "fcaf121cbf8864cfbd21ef012d269c2a", "rental_uris": {"android": "https://dc.lft.to/lastmile_qr_scan", "ios": "https://dc.lft.to/lastmile_qr_scan"}, "bike_id": "fcaf121cbf8864cfbd21ef012d269c2a"}, {"fusion_lon": 0.0, "is_reserved": 0, "lat": 38.90244766666667, "is_disabled": 0, "type": "electric_scooter", "lon": -77.02649066666666, "fusion_lat": 0.0, "name": "45c07d02b1e3b82d38c1300ecda9bbd2", "rental_uris": {"android": "https://dc.lft.to/lastmile_qr_scan", "ios": "https://dc.lft.to/lastmile_qr_scan"}, "bike_id": "45c07d02b1e3b82d38c1300ecda9bbd2"}, {"fusion_lon": 0.0, "is_reserved": 0, "lat": 38.900018, "is_disabled": 0, "type": "electric_scooter", "lon": -77.04138816666666, "fusion_lat": 0.0, "name": "b5f9b672adc002cc22b2abea243eabf9", "rental_uris": {"android": "https://dc.lft.to/lastmile_qr_scan", "ios": "https://dc.lft.to/lastmile_qr_scan"}, "bike_id": "b5f9b672adc002cc22b2abea243eabf9"}, {"fusion_lon": 0.0, "is_reserved": 0, "lat": 38.90563366666667, "is_disabled": 0, "type": "electric_scooter", "lon": -77.03459033333333, "fusion_lat": 0.0, "name": "71afcfd6baa57304fa345fd88c88da74", "rental_uris": {"android": "https://dc.lft.to/lastmile_qr_scan", "ios": "https://dc.lft.to/lastmile_qr_scan"}, "bike_id": "71afcfd6baa57304fa345fd88c88da74"}, {"fusion_lon": 0.0, "is_reserved": 0, "lat": 38.85736933333333, "is_disabled": 0, "type": "electric_bike", "lon": -77.10077916666667, "fusion_lat": 0.0, "name": "6ca83f62a487b55cedf3d377f4d5fca3", "rental_uris": {"android": "https://dc.lft.to/lastmile_qr_scan", "ios": "https://dc.lft.to/lastmile_qr_scan"}, "bike_id": "6ca83f62a487b55cedf3d377f4d5fca3"}, {"fusion_lon": 0.0, "is_reserved": 0, "lat": 38.9053115, "is_disabled": 0, "type": "electric_scooter", "lon": -77.050119, "fusion_lat": 0.0, "name": "7d20e2815c6d3ba5e24bba4ce41d2495", "rental_uris": {"android": "https://dc.lft.to/lastmile_qr_scan", "ios": "https://dc.lft.to/lastmile_qr_scan"}, "bike_id": "7d20e2815c6d3ba5e24bba4ce41d2495"}, {"fusion_lon": 0.0, "is_reserved": 0, "lat": 38.838105166666665, "is_disabled": 0, "type": "electric_bike", "lon": -77.09522783333334, "fusion_lat": 0.0, "name": "cf35b4414e3e8ecf0f525f78c05e4953", "rental_uris": {"android": "https://dc.lft.to/lastmile_qr_scan", "ios": "https://dc.lft.to/lastmile_qr_scan"}, "bike_id": "cf35b4414e3e8ecf0f525f78c05e4953"}, {"fusion_lon": 0.0, "is_reserved": 0, "lat": 38.89114033333333, "is_disabled": 0, "type": "electric_scooter", "lon": -76.94382483333334, "fusion_lat": 0.0, "name": "bf8273a386154c06c3476cf46e734b9c", "rental_uris": {"android": "https://dc.lft.to/lastmile_qr_scan", "ios": "https://dc.lft.to/lastmile_qr_scan"}, "bike_id": "bf8273a386154c06c3476cf46e734b9c"}, {"fusion_lon": 0.0, "is_reserved": 0, "lat": 38.893587, "is_disabled": 0, "type": "electric_scooter", "lon": -77.02837133333334, "fusion_lat": 0.0, "name": "9206fddceb8a745c321e1098d464b1c1", "rental_uris": {"android": "https://dc.lft.to/lastmile_qr_scan", "ios": "https://dc.lft.to/lastmile_qr_scan"}, "bike_id": "9206fddceb8a745c321e1098d464b1c1"}, {"fusion_lon": 0.0, "is_reserved": 0, "lat": 38.906642166666664, "is_disabled": 0, "type": "electric_scooter", "lon": -77.04615883333334, "fusion_lat": 0.0, "name": "a4dd36399ee8992659ea37bfb41aeed0", "rental_uris": {"android": "https://dc.lft.to/lastmile_qr_scan", "ios": "https://dc.lft.to/lastmile_qr_scan"}, "bike_id": "a4dd36399ee8992659ea37bfb41aeed0"}, {"fusion_lon": 0.0, "is_reserved": 0, "lat": 38.907159166666666, "is_disabled": 0, "type": "electric_scooter", "lon": -76.93006116666666, "fusion_lat": 0.0, "name": "b62cf77eb7c83a4a95cd368a516e4323", "rental_uris": {"android": "https://dc.lft.to/lastmile_qr_scan", "ios": "https://dc.lft.to/lastmile_qr_scan"}, "bike_id": "b62cf77eb7c83a4a95cd368a516e4323"}, {"fusion_lon": 0.0, "is_reserved": 0, "lat": 38.902609166666664, "is_disabled": 0, "type": "electric_scooter", "lon": -77.02853933333333, "fusion_lat": 0.0, "name": "f4c4066177b11f686d3b304ba4d3f06f", "rental_uris": {"android": "https://dc.lft.to/lastmile_qr_scan", "ios": "https://dc.lft.to/lastmile_qr_scan"}, "bike_id": "f4c4066177b11f686d3b304ba4d3f06f"}, {"fusion_lon": 0.0, "is_reserved": 0, "lat": 38.92344516666667, "is_disabled": 0, "type": "electric_scooter", "lon": -77.03539166666667, "fusion_lat": 0.0, "name": "844b811d5b37df37b6fcc1db443811f3", "rental_uris": {"android": "https://dc.lft.to/lastmile_qr_scan", "ios": "https://dc.lft.to/lastmile_qr_scan"}, "bike_id": "844b811d5b37df37b6fcc1db443811f3"}, {"fusion_lon": 0.0, "is_reserved": 0, "lat": 38.87579233333334, "is_disabled": 0, "type": "electric_scooter", "lon": -76.97549566666666, "fusion_lat": 0.0, "name": "4825b760d5b4826f56a93f086c35efdd", "rental_uris": {"android": "https://dc.lft.to/lastmile_qr_scan", "ios": "https://dc.lft.to/lastmile_qr_scan"}, "bike_id": "4825b760d5b4826f56a93f086c35efdd"}, {"fusion_lon": 0.0, "is_reserved": 0, "lat": 38.911880333333336, "is_disabled": 0, "type": "electric_scooter", "lon": -77.04031133333334, "fusion_lat": 0.0, "name": "a0dbfed0bcbf798b7e02c43344eac92b", "rental_uris": {"android": "https://dc.lft.to/lastmile_qr_scan", "ios": "https://dc.lft.to/lastmile_qr_scan"}, "bike_id": "a0dbfed0bcbf798b7e02c43344eac92b"}, {"fusion_lon": 0.0, "is_reserved": 0, "lat": 38.89689933333333, "is_disabled": 0, "type": "electric_scooter", "lon": -77.04349833333333, "fusion_lat": 0.0, "name": "05f065ddc8bab0a4b6d0e666c155a16c", "rental_uris": {"android": "https://dc.lft.to/lastmile_qr_scan", "ios": "https://dc.lft.to/lastmile_qr_scan"}, "bike_id": "05f065ddc8bab0a4b6d0e666c155a16c"}, {"fusion_lon": 0.0, "is_reserved": 0, "lat": 38.916722166666666, "is_disabled": 0, "type": "electric_scooter", "lon": -77.0321165, "fusion_lat": 0.0, "name": "5ce4fa4e505167ecad85ccc8cb66ffd1", "rental_uris": {"android": "https://dc.lft.to/lastmile_qr_scan", "ios": "https://dc.lft.to/lastmile_qr_scan"}, "bike_id": "5ce4fa4e505167ecad85ccc8cb66ffd1"}, {"fusion_lon": 0.0, "is_reserved": 0, "lat": 38.9045575, "is_disabled": 0, "type": "electric_scooter", "lon": -77.03469033333333, "fusion_lat": 0.0, "name": "71b7b1bc64d3d66ce6ea8a7cddfd7717", "rental_uris": {"android": "https://dc.lft.to/lastmile_qr_scan", "ios": "https://dc.lft.to/lastmile_qr_scan"}, "bike_id": "71b7b1bc64d3d66ce6ea8a7cddfd7717"}, {"fusion_lon": 0.0, "is_reserved": 0, "lat": 38.926672, "is_disabled": 0, "type": "electric_scooter", "lon": -77.015003, "fusion_lat": 0.0, "name": "1b9439aa781017b3a0f0db2141c95e86", "rental_uris": {"android": "https://dc.lft.to/lastmile_qr_scan", "ios": "https://dc.lft.to/lastmile_qr_scan"}, "bike_id": "1b9439aa781017b3a0f0db2141c95e86"}, {"fusion_lon": 0.0, "is_reserved": 0, "lat": 38.9111575, "is_disabled": 0, "type": "electric_scooter", "lon": -76.99771283333334, "fusion_lat": 0.0, "name": "364e8f96c49b66190f741015ffeb36d3", "rental_uris": {"android": "https://dc.lft.to/lastmile_qr_scan", "ios": "https://dc.lft.to/lastmile_qr_scan"}, "bike_id": "364e8f96c49b66190f741015ffeb36d3"}, {"fusion_lon": 0.0, "is_reserved": 0, "lat": 38.892730666666665, "is_disabled": 0, "type": "electric_scooter", "lon": -77.03200766666667, "fusion_lat": 0.0, "name": "e6360a1eb0bcc1135a4cd23e604519ba", "rental_uris": {"android": "https://dc.lft.to/lastmile_qr_scan", "ios": "https://dc.lft.to/lastmile_qr_scan"}, "bike_id": "e6360a1eb0bcc1135a4cd23e604519ba"}, {"fusion_lon": 0.0, "is_reserved": 0, "lat": 38.91107366666667, "is_disabled": 0, "type": "electric_scooter", "lon": -77.04228433333333, "fusion_lat": 0.0, "name": "23ce9a78abf09d139ff0635735fdfd5a", "rental_uris": {"android": "https://dc.lft.to/lastmile_qr_scan", "ios": "https://dc.lft.to/lastmile_qr_scan"}, "bike_id": "23ce9a78abf09d139ff0635735fdfd5a"}, {"fusion_lon": 0.0, "is_reserved": 0, "lat": 38.90022783333333, "is_disabled": 0, "type": "electric_scooter", "lon": -77.03506083333333, "fusion_lat": 0.0, "name": "44956a5937ccf621a173cc12a7c3db09", "rental_uris": {"android": "https://dc.lft.to/lastmile_qr_scan", "ios": "https://dc.lft.to/lastmile_qr_scan"}, "bike_id": "44956a5937ccf621a173cc12a7c3db09"}, {"fusion_lon": 0.0, "is_reserved": 0, "lat": 38.9129445, "is_disabled": 0, "type": "electric_bike", "lon": -76.98542483333334, "fusion_lat": 0.0, "name": "07eefff2c9e0de1a241b5287207c9805", "rental_uris": {"android": "https://dc.lft.to/lastmile_qr_scan", "ios": "https://dc.lft.to/lastmile_qr_scan"}, "bike_id": "07eefff2c9e0de1a241b5287207c9805"}, {"fusion_lon": 0.0, "is_reserved": 0, "lat": 38.89191483333333, "is_disabled": 0, "type": "electric_scooter", "lon": -77.00294766666667, "fusion_lat": 0.0, "name": "abcc7a8557c411126469a65f7779e3a8", "rental_uris": {"android": "https://dc.lft.to/lastmile_qr_scan", "ios": "https://dc.lft.to/lastmile_qr_scan"}, "bike_id": "abcc7a8557c411126469a65f7779e3a8"}, {"fusion_lon": 0.0, "is_reserved": 0, "lat": 38.922318, "is_disabled": 0, "type": "electric_scooter", "lon": -77.02334366666666, "fusion_lat": 0.0, "name": "5dc649f57d7b0f1000e10cd9e30f884e", "rental_uris": {"android": "https://dc.lft.to/lastmile_qr_scan", "ios": "https://dc.lft.to/lastmile_qr_scan"}, "bike_id": "5dc649f57d7b0f1000e10cd9e30f884e"}, {"fusion_lon": 0.0, "is_reserved": 0, "lat": 38.887385333333334, "is_disabled": 0, "type": "electric_scooter", "lon": -77.03151383333334, "fusion_lat": 0.0, "name": "ebb6c67629fdecd96e3364599be2e8a6", "rental_uris": {"android": "https://dc.lft.to/lastmile_qr_scan", "ios": "https://dc.lft.to/lastmile_qr_scan"}, "bike_id": "ebb6c67629fdecd96e3364599be2e8a6"}, {"fusion_lon": 0.0, "is_reserved": 0, "lat": 38.9254785, "is_disabled": 0, "type": "electric_scooter", "lon": -77.032255, "fusion_lat": 0.0, "name": "5cc19c63157f4e327f7e346dd3da4fa4", "rental_uris": {"android": "https://dc.lft.to/lastmile_qr_scan", "ios": "https://dc.lft.to/lastmile_qr_scan"}, "bike_id": "5cc19c63157f4e327f7e346dd3da4fa4"}, {"fusion_lon": 0.0, "is_reserved": 0, "lat": 38.90945766666667, "is_disabled": 0, "type": "electric_scooter", "lon": -76.93595416666666, "fusion_lat": 0.0, "name": "30f8f81bc5c011d59243e6524068f1b4", "rental_uris": {"android": "https://dc.lft.to/lastmile_qr_scan", "ios": "https://dc.lft.to/lastmile_qr_scan"}, "bike_id": "30f8f81bc5c011d59243e6524068f1b4"}, {"fusion_lon": 0.0, "is_reserved": 0, "lat": 38.902723333333334, "is_disabled": 0, "type": "electric_scooter", "lon": -77.03212883333333, "fusion_lat": 0.0, "name": "309d25546d406b04a2e071e6491971c2", "rental_uris": {"android": "https://dc.lft.to/lastmile_qr_scan", "ios": "https://dc.lft.to/lastmile_qr_scan"}, "bike_id": "309d25546d406b04a2e071e6491971c2"}, {"fusion_lon": 0.0, "is_reserved": 0, "lat": 38.89083983333333, "is_disabled": 0, "type": "electric_scooter", "lon": -76.99947483333334, "fusion_lat": 0.0, "name": "c511ac7a466aa07237d67e1de06dce21", "rental_uris": {"android": "https://dc.lft.to/lastmile_qr_scan", "ios": "https://dc.lft.to/lastmile_qr_scan"}, "bike_id": "c511ac7a466aa07237d67e1de06dce21"}, {"fusion_lon": 0.0, "is_reserved": 0, "lat": 38.82133983333333, "is_disabled": 0, "type": "electric_scooter", "lon": -77.00157616666667, "fusion_lat": 0.0, "name": "aa0e4157d5ae4bc8b46889989f456ecd", "rental_uris": {"android": "https://dc.lft.to/lastmile_qr_scan", "ios": "https://dc.lft.to/lastmile_qr_scan"}, "bike_id": "aa0e4157d5ae4bc8b46889989f456ecd"}, {"fusion_lon": 0.0, "is_reserved": 0, "lat": 38.918455, "is_disabled": 0, "type": "electric_scooter", "lon": -77.03214683333333, "fusion_lat": 0.0, "name": "f9e0b19854265e8615ec1dc3f97a776a", "rental_uris": {"android": "https://dc.lft.to/lastmile_qr_scan", "ios": "https://dc.lft.to/lastmile_qr_scan"}, "bike_id": "f9e0b19854265e8615ec1dc3f97a776a"}, {"fusion_lon": 0.0, "is_reserved": 0, "lat": 38.920457999999996, "is_disabled": 0, "type": "electric_scooter", "lon": -77.01668933333333, "fusion_lat": 0.0, "name": "2b72dd729f2759d2ebcc01cb1a6b8aca", "rental_uris": {"android": "https://dc.lft.to/lastmile_qr_scan", "ios": "https://dc.lft.to/lastmile_qr_scan"}, "bike_id": "2b72dd729f2759d2ebcc01cb1a6b8aca"}, {"fusion_lon": 0.0, "is_reserved": 0, "lat": 38.898355333333335, "is_disabled": 0, "type": "electric_scooter", "lon": -77.027813, "fusion_lat": 0.0, "name": "da65cd152670ebb7d640535356a09351", "rental_uris": {"android": "https://dc.lft.to/lastmile_qr_scan", "ios": "https://dc.lft.to/lastmile_qr_scan"}, "bike_id": "da65cd152670ebb7d640535356a09351"}, {"fusion_lon": 0.0, "is_reserved": 0, "lat": 38.8950815, "is_disabled": 0, "type": "electric_scooter", "lon": -77.018984, "fusion_lat": 0.0, "name": "87c584a78da58aed439123cc97ec3f83", "rental_uris": {"android": "https://dc.lft.to/lastmile_qr_scan", "ios": "https://dc.lft.to/lastmile_qr_scan"}, "bike_id": "87c584a78da58aed439123cc97ec3f83"}, {"fusion_lon": 0.0, "is_reserved": 0, "lat": 38.89831783333333, "is_disabled": 0, "type": "electric_scooter", "lon": -77.03046733333333, "fusion_lat": 0.0, "name": "6124f22bffb8296a664e7fce3d41ec5a", "rental_uris": {"android": "https://dc.lft.to/lastmile_qr_scan", "ios": "https://dc.lft.to/lastmile_qr_scan"}, "bike_id": "6124f22bffb8296a664e7fce3d41ec5a"}, {"fusion_lon": 0.0, "is_reserved": 0, "lat": 38.9331625, "is_disabled": 0, "type": "electric_bike", "lon": -77.08556616666667, "fusion_lat": 0.0, "name": "dbf8a856cb093d2b3b1715fe156b3066", "rental_uris": {"android": "https://dc.lft.to/lastmile_qr_scan", "ios": "https://dc.lft.to/lastmile_qr_scan"}, "bike_id": "dbf8a856cb093d2b3b1715fe156b3066"}, {"fusion_lon": 0.0, "is_reserved": 0, "lat": 38.93561783333333, "is_disabled": 0, "type": "electric_scooter", "lon": -77.0642875, "fusion_lat": 0.0, "name": "f21e4144975ef6c8d33346e207f0d662", "rental_uris": {"android": "https://dc.lft.to/lastmile_qr_scan", "ios": "https://dc.lft.to/lastmile_qr_scan"}, "bike_id": "f21e4144975ef6c8d33346e207f0d662"}, {"fusion_lon": 0.0, "is_reserved": 0, "lat": 39.0843735, "is_disabled": 0, "type": "electric_bike", "lon": -76.95157366666666, "fusion_lat": 0.0, "name": "87208ae9db030b319ddc37fbdaf19c62", "rental_uris": {"android": "https://dc.lft.to/lastmile_qr_scan", "ios": "https://dc.lft.to/lastmile_qr_scan"}, "bike_id": "87208ae9db030b319ddc37fbdaf19c62"}, {"fusion_lon": 0.0, "is_reserved": 0, "lat": 38.923759833333335, "is_disabled": 0, "type": "electric_scooter", "lon": -77.02654116666666, "fusion_lat": 0.0, "name": "643ca45a5a2a76fec77efa88c3025454", "rental_uris": {"android": "https://dc.lft.to/lastmile_qr_scan", "ios": "https://dc.lft.to/lastmile_qr_scan"}, "bike_id": "643ca45a5a2a76fec77efa88c3025454"}, {"fusion_lon": 0.0, "is_reserved": 0, "lat": 38.911841, "is_disabled": 0, "type": "electric_scooter", "lon": -77.02000566666666, "fusion_lat": 0.0, "name": "91f12764103e03f39f85d0403f4f22d1", "rental_uris": {"android": "https://dc.lft.to/lastmile_qr_scan", "ios": "https://dc.lft.to/lastmile_qr_scan"}, "bike_id": "91f12764103e03f39f85d0403f4f22d1"}, {"fusion_lon": 0.0, "is_reserved": 0, "lat": 38.89866766666667, "is_disabled": 0, "type": "electric_scooter", "lon": -76.94667183333334, "fusion_lat": 0.0, "name": "6dabb5bff83dfee01c357ae382ddee39", "rental_uris": {"android": "https://dc.lft.to/lastmile_qr_scan", "ios": "https://dc.lft.to/lastmile_qr_scan"}, "bike_id": "6dabb5bff83dfee01c357ae382ddee39"}, {"fusion_lon": 0.0, "is_reserved": 0, "lat": 38.911753833333336, "is_disabled": 0, "type": "electric_scooter", "lon": -77.03860533333334, "fusion_lat": 0.0, "name": "a5c22914bb415e8d2de6ed44283175d4", "rental_uris": {"android": "https://dc.lft.to/lastmile_qr_scan", "ios": "https://dc.lft.to/lastmile_qr_scan"}, "bike_id": "a5c22914bb415e8d2de6ed44283175d4"}, {"fusion_lon": 0.0, "is_reserved": 0, "lat": 38.900426, "is_disabled": 0, "type": "electric_scooter", "lon": -77.04336816666667, "fusion_lat": 0.0, "name": "402f520b6938edda076a2123e4a67246", "rental_uris": {"android": "https://dc.lft.to/lastmile_qr_scan", "ios": "https://dc.lft.to/lastmile_qr_scan"}, "bike_id": "402f520b6938edda076a2123e4a67246"}, {"fusion_lon": 0.0, "is_reserved": 0, "lat": 38.91562733333333, "is_disabled": 0, "type": "electric_scooter", "lon": -77.03322883333334, "fusion_lat": 0.0, "name": "48d126731d9266f0cac24a1920e3eb06", "rental_uris": {"android": "https://dc.lft.to/lastmile_qr_scan", "ios": "https://dc.lft.to/lastmile_qr_scan"}, "bike_id": "48d126731d9266f0cac24a1920e3eb06"}, {"fusion_lon": 0.0, "is_reserved": 0, "lat": 38.905838, "is_disabled": 0, "type": "electric_scooter", "lon": -77.062732, "fusion_lat": 0.0, "name": "ce41a783b85004823916b80d23800676", "rental_uris": {"android": "https://dc.lft.to/lastmile_qr_scan", "ios": "https://dc.lft.to/lastmile_qr_scan"}, "bike_id": "ce41a783b85004823916b80d23800676"}, {"fusion_lon": 0.0, "is_reserved": 0, "lat": 38.89720833333333, "is_disabled": 0, "type": "electric_scooter", "lon": -77.02399316666667, "fusion_lat": 0.0, "name": "acc133764be71b40af658a0d9c1b87fe", "rental_uris": {"android": "https://dc.lft.to/lastmile_qr_scan", "ios": "https://dc.lft.to/lastmile_qr_scan"}, "bike_id": "acc133764be71b40af658a0d9c1b87fe"}, {"fusion_lon": 0.0, "is_reserved": 0, "lat": 38.90253033333333, "is_disabled": 0, "type": "electric_scooter", "lon": -77.05172366666666, "fusion_lat": 0.0, "name": "00bc34780365d12d026ab5ee411c3014", "rental_uris": {"android": "https://dc.lft.to/lastmile_qr_scan", "ios": "https://dc.lft.to/lastmile_qr_scan"}, "bike_id": "00bc34780365d12d026ab5ee411c3014"}, {"fusion_lon": 0.0, "is_reserved": 0, "lat": 38.93067083333333, "is_disabled": 0, "type": "electric_scooter", "lon": -77.02773583333334, "fusion_lat": 0.0, "name": "2bf0e97a949ef65dfa53d1ab78594633", "rental_uris": {"android": "https://dc.lft.to/lastmile_qr_scan", "ios": "https://dc.lft.to/lastmile_qr_scan"}, "bike_id": "2bf0e97a949ef65dfa53d1ab78594633"}, {"fusion_lon": 0.0, "is_reserved": 0, "lat": 38.9141815, "is_disabled": 0, "type": "electric_scooter", "lon": -77.03906066666667, "fusion_lat": 0.0, "name": "4b7adca934ad48888e5dc2a5c2fb0182", "rental_uris": {"android": "https://dc.lft.to/lastmile_qr_scan", "ios": "https://dc.lft.to/lastmile_qr_scan"}, "bike_id": "4b7adca934ad48888e5dc2a5c2fb0182"}, {"fusion_lon": 0.0, "is_reserved": 0, "lat": 38.8947795, "is_disabled": 0, "type": "electric_scooter", "lon": -77.02115333333333, "fusion_lat": 0.0, "name": "019f7606d432faa311d1636e61d9c83d", "rental_uris": {"android": "https://dc.lft.to/lastmile_qr_scan", "ios": "https://dc.lft.to/lastmile_qr_scan"}, "bike_id": "019f7606d432faa311d1636e61d9c83d"}, {"fusion_lon": 0.0, "is_reserved": 0, "lat": 38.920244833333335, "is_disabled": 0, "type": "electric_scooter", "lon": -77.04082633333333, "fusion_lat": 0.0, "name": "cdd3fd0c5fd0da01c209e3722151bc15", "rental_uris": {"android": "https://dc.lft.to/lastmile_qr_scan", "ios": "https://dc.lft.to/lastmile_qr_scan"}, "bike_id": "cdd3fd0c5fd0da01c209e3722151bc15"}, {"fusion_lon": 0.0, "is_reserved": 0, "lat": 38.905604833333335, "is_disabled": 0, "type": "electric_scooter", "lon": -77.04040366666666, "fusion_lat": 0.0, "name": "b73861f22df12aa19f50f032d51f9f6b", "rental_uris": {"android": "https://dc.lft.to/lastmile_qr_scan", "ios": "https://dc.lft.to/lastmile_qr_scan"}, "bike_id": "b73861f22df12aa19f50f032d51f9f6b"},