{"data": {"bikes": [{"lat": 38.87686583333333, "is_disabled": 0, "type": "electric_bike", "lon": -77.01760233333333, "bike_id": "3b2f8ee3b9d0fa64bdcf000c46fec087", "fusion_lat": 0.0, "name": "3b2f8ee3b9d0fa64bdcf000c46fec087", "is_reserved": 0, "rental_uris": {"android": "https://dc.lft.to/lastmile_qr_scan", "ios": "https://dc.lft.to/lastmile_qr_scan"}, "fusion_lon": 0.0}, {"lat": 38.93110716666666, "is_disabled": 0, "type": "electric_scooter", "lon": -77.0383995, "bike_id": "72fd9df37cc82cfd1eb666069174b523", "fusion_lat": 0.0, "name": "72fd9df37cc82cfd1eb666069174b523", "is_reserved": 0, "rental_uris": {"android": "https://dc.lft.to/lastmile_qr_scan", "ios": "https://dc.lft.to/lastmile_qr_scan"}, "fusion_lon": 0.0}, {"lat": 38.9004305, "is_disabled": 0, "type": "electric_scooter", "lon": -76.99507066666666, "bike_id": "d993eaa848f70172e766cc4fcac88f17", "fusion_lat": 0.0, "name": "d993eaa848f70172e766cc4fcac88f17", "is_reserved": 0, "rental_uris": {"android": "https://dc.lft.to/lastmile_qr_scan", "ios": "https://dc.lft.to/lastmile_qr_scan"}, "fusion_lon": 0.0}, {"lat": 38.83981416666666, "is_disabled": 0, "type": "electric_bike", "lon": -77.00576183333334, "bike_id": "68ffb5f31284f7ffdc7c896f6ef83dad", "fusion_lat": 0.0, "name": "68ffb5f31284f7ffdc7c896f6ef83dad", "is_reserved": 0, "rental_uris": {"android": "https://dc.lft.to/lastmile_qr_scan", "ios": "https://dc.lft.to/lastmile_qr_scan"}, "fusion_lon": 0.0}, {"lat": 38.90983966666667, "is_disabled": 0, "type": "electric_scooter", "lon": -76.98469116666666, "bike_id": "90a386c2624846d37835dfc4539ee167", "fusion_lat": 0.0, "name": "90a386c2624846d37835dfc4539ee167", "is_reserved": 0, "rental_uris": {"android": "https://dc.lft.to/lastmile_qr_scan", "ios": "https://dc.lft.to/lastmile_qr_scan"}, "fusion_lon": 0.0}, {"lat": 38.908543, "is_disabled": 0, "type": "electric_scooter", "lon": -76.99966583333334, "bike_id": "4189bcd716f9c6d2ebd12b24aff655d8", "fusion_lat": 0.0, "name": "4189bcd716f9c6d2ebd12b24aff655d8", "is_reserved": 0, "rental_uris": {"android": "https://dc.lft.to/lastmile_qr_scan", "ios": "https://dc.lft.to/lastmile_qr_scan"}, "fusion_lon": 0.0}, {"lat": 38.93343016666667, "is_disabled": 0, "type": "electric_scooter", "lon": -77.02620633333333, "bike_id": "fe81f684be5d945fd98e77a5138a5827", "fusion_lat": 0.0, "name": "fe81f684be5d945fd98e77a5138a5827", "is_reserved": 0, "rental_uris": {"android": "https://dc.lft.to/lastmile_qr_scan", "ios": "https://dc.lft.to/lastmile_qr_scan"}, "fusion_lon": 0.0}, {"lat": 38.924025666666665, "is_disabled": 0, "type": "electric_scooter", "lon": -77.05258383333333, "bike_id": "bcd69255207aa6c671546a7faee33177", "fusion_lat": 0.0, "name": "bcd69255207aa6c671546a7faee33177", "is_reserved": 0, "rental_uris": {"android": "https://dc.lft.to/lastmile_qr_scan", "ios": "https://dc.lft.to/lastmile_qr_scan"}, "fusion_lon": 0.0}, {"lat": 38.86700966666667, "is_disabled": 0, "type": "electric_scooter", "lon": -76.9871595, "bike_id": "7a1d7dd90a73851fc4ca98b857b745c8", "fusion_lat": 0.0, "name": "7a1d7dd90a73851fc4ca98b857b745c8", "is_reserved": 0, "rental_uris": {"android": "https://dc.lft.to/lastmile_qr_scan", "ios": "https://dc.lft.to/lastmile_qr_scan"}, "fusion_lon": 0.0}, {"lat": 38.88443683333333, "is_disabled": 0, "type": "electric_scooter", "lon": -77.0005235, "bike_id": "6fa01dbf04f8ee45f9bd04890c2401eb", "fusion_lat": 0.0, "name": "6fa01dbf04f8ee45f9bd04890c2401eb", "is_reserved": 0, "rental_uris": {"android": "https://dc.lft.to/lastmile_qr_scan", "ios": "https://dc.lft.to/lastmile_qr_scan"}, "fusion_lon": 0.0}, {"lat": 38.90521, "is_disabled": 0, "type": "electric_scooter", "lon": -77.064444, "bike_id": "dbbae4cef302ccaf72a3ed131ce49738", "fusion_lat": 0.0, "name": "dbbae4cef302ccaf72a3ed131ce49738", "is_reserved": 0, "rental_uris": {"android": "https://dc.lft.to/lastmile_qr_scan", "ios": "https://dc.lft.to/lastmile_qr_scan"}, "fusion_lon": 0.0}, {"lat": 38.8997205, "is_disabled": 0, "type": "electric_scooter", "lon": -77.021557, "bike_id": "e7168ef980a92fac9c1889640811b4df", "fusion_lat": 0.0, "name": "e7168ef980a92fac9c1889640811b4df", "is_reserved": 0, "rental_uris": {"android": "https://dc.lft.to/lastmile_qr_scan", "ios": "https://dc.lft.to/lastmile_qr_scan"}, "fusion_lon": 0.0}, {"lat": 38.922194166666664, "is_disabled": 0, "type": "electric_scooter", "lon": -77.03795916666667, "bike_id": "1be518bc174e193ab7a31b0836f950ac", "fusion_lat": 0.0, "name": "1be518bc174e193ab7a31b0836f950ac", "is_reserved": 0, "rental_uris": {"android": "https://dc.lft.to/lastmile_qr_scan", "ios": "https://dc.lft.to/lastmile_qr_scan"}, "fusion_lon": 0.0}, {"lat": 38.92869133333333, "is_disabled": 0, "type": "electric_scooter", "lon": -76.99028, "bike_id": "bcf8c6e485148938452a398392fd28f0", "fusion_lat": 0.0, "name": "bcf8c6e485148938452a398392fd28f0", "is_reserved": 0, "rental_uris": {"android": "https://dc.lft.to/lastmile_qr_scan", "ios": "https://dc.lft.to/lastmile_qr_scan"}, "fusion_lon": 0.0}, {"lat": 38.915543, "is_disabled": 0, "type": "electric_scooter", "lon": -77.04178633333333, "bike_id": "05845d94e6cf9f6092bf28417bfdbcd2", "fusion_lat": 0.0, "name": "05845d94e6cf9f6092bf28417bfdbcd2", "is_reserved": 0, "rental_uris": {"android": "https://dc.lft.to/lastmile_qr_scan", "ios": "https://dc.lft.to/lastmile_qr_scan"}, "fusion_lon": 0.0}, {"lat": 38.9168985, "is_disabled": 0, "type": "electric_scooter", "lon": -77.02951066666667, "bike_id": "4ae3f1502d57c4d180e595b85f24de10", "fusion_lat": 0.0, "name": "4ae3f1502d57c4d180e595b85f24de10", "is_reserved": 0, "rental_uris": {"android": "https://dc.lft.to/lastmile_qr_scan", "ios": "https://dc.lft.to/lastmile_qr_scan"}, "fusion_lon": 0.0}, {"lat": 38.90238033333333, "is_disabled": 0, "type": "electric_scooter", "lon": -77.01768566666667, "bike_id": "ea70cb24f6bb2be7b7622236db43120c", "fusion_lat": 0.0, "name": "ea70cb24f6bb2be7b7622236db43120c", "is_reserved": 0, "rental_uris": {"android": "https://dc.lft.to/lastmile_qr_scan", "ios": "https://dc.lft.to/lastmile_qr_scan"}, "fusion_lon": 0.0}, {"lat": 38.907285333333334, "is_disabled": 0, "type": "electric_scooter", "lon": -77.02974866666666, "bike_id": "ad718f92ee25f250b6cabe5f185bd6d0", "fusion_lat": 0.0, "name": "ad718f92ee25f250b6cabe5f185bd6d0", "is_reserved": 0, "rental_uris": {"android": "https://dc.lft.to/lastmile_qr_scan", "ios": "https://dc.lft.to/lastmile_qr_scan"}, "fusion_lon": 0.0}, {"lat": 38.907316, "is_disabled": 0, "type": "electric_scooter", "lon": -77.01129283333333, "bike_id": "328ce30042fcf4d7e926e4879064974a", "fusion_lat": 0.0, "name": "328ce30042fcf4d7e926e4879064974a", "is_reserved": 0, "rental_uris": {"android": "https://dc.lft.to/lastmile_qr_scan", "ios": "https://dc.lft.to/lastmile_qr_scan"}, "fusion_lon": 0.0}, {"lat": 38.911209166666666, "is_disabled": 0, "type": "electric_scooter", "lon": -77.03811216666666, "bike_id": "753f9a83f8bae800496adfe47b52d8a1", "fusion_lat": 0.0, "name": "753f9a83f8bae800496adfe47b52d8a1", "is_reserved": 0, "rental_uris": {"android": "https://dc.lft.to/lastmile_qr_scan", "ios": "https://dc.lft.to/lastmile_qr_scan"}, "fusion_lon": 0.0}, {"lat": 38.90263316666667, "is_disabled": 0, "type": "electric_scooter", "lon": -77.0032285, "bike_id": "1237048b4dfaa4875dba88d137690bbd", "fusion_lat": 0.0, "name": "1237048b4dfaa4875dba88d137690bbd", "is_reserved": 0, "rental_uris": {"android": "https://dc.lft.to/lastmile_qr_scan", "ios": "https://dc.lft.to/lastmile_qr_scan"}, "fusion_lon": 0.0}, {"lat": 38.896239, "is_disabled": 0, "type": "electric_scooter", "lon": -76.95655966666666, "bike_id": "03d400230022b65ea3a5cd1868f630aa", "fusion_lat": 0.0, "name": "03d400230022b65ea3a5cd1868f630aa", "is_reserved": 0, "rental_uris": {"android": "https://dc.lft.to/lastmile_qr_scan", "ios": "https://dc.lft.to/lastmile_qr_scan"}, "fusion_lon": 0.0}, {"lat": 38.9043515, "is_disabled": 0, "type": "electric_scooter", "lon": -77.00212766666667, "bike_id": "90e90053130ee881d5c77cc050fcb802", "fusion_lat": 0.0, "name": "90e90053130ee881d5c77cc050fcb802", "is_reserved": 0, "rental_uris": {"android": "https://dc.lft.to/lastmile_qr_scan", "ios": "https://dc.lft.to/lastmile_qr_scan"}, "fusion_lon": 0.0}, {"lat": 38.81343116666667, "is_disabled": 0, "type": "electric_bike", "lon": -77.04923016666666, "bike_id": "e02c8f4773fbbabd23e26e47f888c5fc", "fusion_lat": 0.0, "name": "e02c8f4773fbbabd23e26e47f888c5fc", "is_reserved": 0, "rental_uris": {"android": "https://dc.lft.to/lastmile_qr_scan", "ios": "https://dc.lft.to/lastmile_qr_scan"}, "fusion_lon": 0.0}, {"lat": 38.902223666666664, "is_disabled": 0, "type": "electric_scooter", "lon": -77.02294333333333, "bike_id": "c736b6fb86d1ce760bbb6d030d6db34e", "fusion_lat": 0.0, "name": "c736b6fb86d1ce760bbb6d030d6db34e", "is_reserved": 0, "rental_uris": {"android": "https://dc.lft.to/lastmile_qr_scan", "ios": "https://dc.lft.to/lastmile_qr_scan"}, "fusion_lon": 0.0}, {"lat": 38.96203416666667, "is_disabled": 0, "type": "electric_bike", "lon": -77.03511833333333, "bike_id": "f3d3a5d6621f8d0e7a7c4af390ad6c33", "fusion_lat": 0.0, "name": "f3d3a5d6621f8d0e7a7c4af390ad6c33", "is_reserved": 0, "rental_uris": {"android": "https://dc.lft.to/lastmile_qr_scan", "ios": "https://dc.lft.to/lastmile_qr_scan"}, "fusion_lon": 0.0}, {"lat": 38.9411015, "is_disabled": 0, "type": "electric_scooter", "lon": -77.0004275, "bike_id": "cf9c338578af6bad594756831475cf29", "fusion_lat": 0.0, "name": "cf9c338578af6bad594756831475cf29", "is_reserved": 0, "rental_uris": {"android": "https://dc.lft.to/lastmile_qr_scan", "ios": "https://dc.lft.to/lastmile_qr_scan"}, "fusion_lon": 0.0}, {"lat": 38.90176233333333, "is_disabled": 0, "type": "electric_scooter", "lon": -77.03650466666667, "bike_id": "5a2d106ef4af3c065d20ab1066f27263", "fusion_lat": 0.0, "name": "5a2d106ef4af3c065d20ab1066f27263", "is_reserved": 0, "rental_uris": {"android": "https://dc.lft.to/lastmile_qr_scan", "ios": "https://dc.lft.to/lastmile_qr_scan"}, "fusion_lon": 0.0}, {"lat": 38.92622683333333, "is_disabled": 0, "type": "electric_scooter", "lon": -77.0378375, "bike_id": "1dfa4ccd48d4f82a548df776d821b836", "fusion_lat": 0.0, "name": "1dfa4ccd48d4f82a548df776d821b836", "is_reserved": 0, "rental_uris": {"android": "https://dc.lft.to/lastmile_qr_scan", "ios": "https://dc.lft.to/lastmile_qr_scan"}, "fusion_lon": 0.0}, {"lat": 38.9017305, "is_disabled": 0, "type": "electric_scooter", "lon": -77.02000566666666, "bike_id": "4ca65ddae2d453431521f76afd5b025d", "fusion_lat": 0.0, "name": "4ca65ddae2d453431521f76afd5b025d", "is_reserved": 0, "rental_uris": {"android": "https://dc.lft.to/lastmile_qr_scan", "ios": "https://dc.lft.to/lastmile_qr_scan"}, "fusion_lon": 0.0}, {"lat": 38.913552, "is_disabled": 0, "type": "electric_scooter", "lon": -77.0416605, "bike_id": "27704a7f27785d244a7794e24197435e", "fusion_lat": 0.0, "name": "27704a7f27785d244a7794e24197435e", "is_reserved": 0, "rental_uris": {"android": "https://dc.lft.to/lastmile_qr_scan", "ios": "https://dc.lft.to/lastmile_qr_scan"}, "fusion_lon": 0.0}, {"lat": 38.895593833333336, "is_disabled": 0, "type": "electric_scooter", "lon": -77.003682, "bike_id": "46a97a9db2ccae52d92fd34907d7a26e", "fusion_lat": 0.0, "name": "46a97a9db2ccae52d92fd34907d7a26e", "is_reserved": 0, "rental_uris": {"android": "https://dc.lft.to/lastmile_qr_scan", "ios": "https://dc.lft.to/lastmile_qr_scan"}, "fusion_lon": 0.0}, {"lat": 38.91684983333333, "is_disabled": 0, "type": "electric_scooter", "lon": -77.02799783333333, "bike_id": "4ad1fc3c050ba3f0c7f118d500bb9547", "fusion_lat": 0.0, "name": "4ad1fc3c050ba3f0c7f118d500bb9547", "is_reserved": 0, "rental_uris": {"android": "https://dc.lft.to/lastmile_qr_scan", "ios": "https://dc.lft.to/lastmile_qr_scan"}, "fusion_lon": 0.0}, {"lat": 38.919108333333334, "is_disabled": 0, "type": "electric_scooter", "lon": -77.0240165, "bike_id": "cf4e491f91e381940bb90d7a72e65491", "fusion_lat": 0.0, "name": "cf4e491f91e381940bb90d7a72e65491", "is_reserved": 0, "rental_uris": {"android": "https://dc.lft.to/lastmile_qr_scan", "ios": "https://dc.lft.to/lastmile_qr_scan"}, "fusion_lon": 0.0}, {"lat": 38.9005025, "is_disabled": 0, "type": "electric_scooter", "lon": -77.001926, "bike_id": "e98731f6bd49a162fd7698cd916d51ed", "fusion_lat": 0.0, "name": "e98731f6bd49a162fd7698cd916d51ed", "is_reserved": 0, "rental_uris": {"android": "https://dc.lft.to/lastmile_qr_scan", "ios": "https://dc.lft.to/lastmile_qr_scan"}, "fusion_lon": 0.0}, {"lat": 38.91712783333333, "is_disabled": 0, "type": "electric_scooter", "lon": -77.03120566666666, "bike_id": "392d3ce23eef8ac581977caa88ee56d3", "fusion_lat": 0.0, "name": "392d3ce23eef8ac581977caa88ee56d3", "is_reserved": 0, "rental_uris": {"android": "https://dc.lft.to/lastmile_qr_scan", "ios": "https://dc.lft.to/lastmile_qr_scan"}, "fusion_lon": 0.0}, {"lat": 38.89561666666667, "is_disabled": 0, "type": "electric_bike", "lon": -77.12732766666667, "bike_id": "603e307d2d92e447fb605c4eaf631b77", "fusion_lat": 0.0, "name": "603e307d2d92e447fb605c4eaf631b77", "is_reserved": 0, "rental_uris": {"android": "https://dc.lft.to/lastmile_qr_scan", "ios": "https://dc.lft.to/lastmile_qr_scan"}, "fusion_lon": 0.0}, {"lat": 38.902202833333334, "is_disabled": 0, "type": "electric_scooter", "lon": -77.022906, "bike_id": "5273b4fa0d007e8c92f6a9e5b73d44e2", "fusion_lat": 0.0, "name": "5273b4fa0d007e8c92f6a9e5b73d44e2", "is_reserved": 0, "rental_uris": {"android": "https://dc.lft.to/lastmile_qr_scan", "ios": "https://dc.lft.to/lastmile_qr_scan"}, "fusion_lon": 0.0}, {"lat": 38.90113183333333, "is_disabled": 0, "type": "electric_scooter", "lon": -76.99555516666666, "bike_id": "55a71ba5005c2ee5d3d51b33e40f1a24", "fusion_lat": 0.0, "name": "55a71ba5005c2ee5d3d51b33e40f1a24", "is_reserved": 0, "rental_uris": {"android": "https://dc.lft.to/lastmile_qr_scan", "ios": "https://dc.lft.to/lastmile_qr_scan"}, "fusion_lon": 0.0}, {"lat": 38.911413333333336, "is_disabled": 0, "type": "electric_scooter", "lon": -77.02698283333334, "bike_id": "630c65ed724701a436164ebf0fc850d6", "fusion_lat": 0.0, "name": "630c65ed724701a436164ebf0fc850d6", "is_reserved": 0, "rental_uris": {"android": "https://dc.lft.to/lastmile_qr_scan", "ios": "https://dc.lft.to/lastmile_qr_scan"}, "fusion_lon": 0.0}, {"lat": 38.904179166666665, "is_disabled": 0, "type": "electric_scooter", "lon": -77.0689125, "bike_id": "b3d8566aa1a3d9f5e712a25b71bc4d0f", "fusion_lat": 0.0, "name": "b3d8566aa1a3d9f5e712a25b71bc4d0f", "is_reserved": 0, "rental_uris": {"android": "https://dc.lft.to/lastmile_qr_scan", "ios": "https://dc.lft.to/lastmile_qr_scan"}, "fusion_lon": 0.0}, {"lat": 38.88739233333333, "is_disabled": 0, "type": "electric_scooter", "lon": -77.01532316666666, "bike_id": "86d2cf676e318056d7a6d3b093faf01e", "fusion_lat": 0.0, "name": "86d2cf676e318056d7a6d3b093faf01e", "is_reserved": 0, "rental_uris": {"android": "https://dc.lft.to/lastmile_qr_scan", "ios": "https://dc.lft.to/lastmile_qr_scan"}, "fusion_lon": 0.0}, {"lat": 38.919009833333334, "is_disabled": 0, "type": "electric_scooter", "lon": -77.00046466666667, "bike_id": "cc9ab0c67a6bf4a292faa35d3a6e107d", "fusion_lat": 0.0, "name": "cc9ab0c67a6bf4a292faa35d3a6e107d", "is_reserved": 0, "rental_uris": {"android": "https://dc.lft.to/lastmile_qr_scan", "ios": "https://dc.lft.to/lastmile_qr_scan"}, "fusion_lon": 0.0}, {"lat": 38.9207295, "is_disabled": 0, "type": "electric_scooter", "lon": -77.03659433333333, "bike_id": "7f2352f0c6fd6f1e2045706bbb4fe1b7", "fusion_lat": 0.0, "name": "7f2352f0c6fd6f1e2045706bbb4fe1b7", "is_reserved": 0, "rental_uris": {"android": "https://dc.lft.to/lastmile_qr_scan", "ios": "https://dc.lft.to/lastmile_qr_scan"}, "fusion_lon": 0.0}, {"lat": 38.907923333333336, "is_disabled": 0, "type": "electric_scooter", "lon": -77.02696016666667, "bike_id": "1b8fdfca4cfb7992d0b775ba29156d6f", "fusion_lat": 0.0, "name": "1b8fdfca4cfb7992d0b775ba29156d6f", "is_reserved": 0, "rental_uris": {"android": "https://dc.lft.to/lastmile_qr_scan", "ios": "https://dc.lft.to/lastmile_qr_scan"}, "fusion_lon": 0.0}, {"lat": 38.93279866666666, "is_disabled": 0, "type": "electric_scooter", "lon": -77.02832333333333, "bike_id": "8ecb1ec7514faa399f464dbcb22b8db7", "fusion_lat": 0.0, "name": "8ecb1ec7514faa399f464dbcb22b8db7", "is_reserved": 0, "rental_uris": {"android": "https://dc.lft.to/lastmile_qr_scan", "ios": "https://dc.lft.to/lastmile_qr_scan"}, "fusion_lon": 0.0}, {"lat": 38.97225483333333, "is_disabled": 0, "type": "electric_bike", "lon": -76.9934915, "bike_id": "c5dcb7c3ccebea47f15fb2192f318ac5", "fusion_lat": 0.0, "name": "c5dcb7c3ccebea47f15fb2192f318ac5", "is_reserved": 0, "rental_uris": {"android": "https://dc.lft.to/lastmile_qr_scan", "ios": "https://dc.lft.to/lastmile_qr_scan"}, "fusion_lon": 0.0}, {"lat": 38.907262333333335, "is_disabled": 0, "type": "electric_scooter", "lon": -77.02957216666667, "bike_id": "ea78e053c30e9e642d84ec4fd7642602", "fusion_lat": 0.0, "name": "ea78e053c30e9e642d84ec4fd7642602", "is_reserved": 0, "rental_uris": {"android": "https://dc.lft.to/lastmile_qr_scan", "ios": "https://dc.lft.to/lastmile_qr_scan"}, "fusion_lon": 0.0}, {"lat": 38.93317483333333, "is_disabled": 0, "type": "electric_scooter", "lon": -77.04528, "bike_id": "e51aa8edc8847c520a0466080560b547", "fusion_lat": 0.0, "name": "e51aa8edc8847c520a0466080560b547", "is_reserved": 0, "rental_uris": {"android": "https://dc.lft.to/lastmile_qr_scan", "ios": "https://dc.lft.to/lastmile_qr_scan"}, "fusion_lon": 0.0}, {"lat": 38.903431166666664, "is_disabled": 0, "type": "electric_scooter", "lon": -77.03750083333334, "bike_id": "4fd1916398f6ca3ba626c6aa4ec7aaf4", "fusion_lat": 0.0, "name": "4fd1916398f6ca3ba626c6aa4ec7aaf4", "is_reserved": 0, "rental_uris": {"android": "https://dc.lft.to/lastmile_qr_scan", "ios": "https://dc.lft.to/lastmile_qr_scan"}, "fusion_lon": 0.0}, {"lat": 38.923397, "is_disabled": 0, "type": "electric_scooter", "lon": -77.0503275, "bike_id": "b7f103a768a9d12e14d9cb7afe377728", "fusion_lat": 0.0, "name": "b7f103a768a9d12e14d9cb7afe377728", "is_reserved": 0, "rental_uris": {"android": "https://dc.lft.to/lastmile_qr_scan", "ios": "https://dc.lft.to/lastmile_qr_scan"}, "fusion_lon": 0.0}, {"lat": 38.9203555, "is_disabled": 0, "type": "electric_scooter", "lon": -77.0418065, "bike_id": "b36f1fe6a9fa9efaa718f1346dace9ea", "fusion_lat": 0.0, "name": "b36f1fe6a9fa9efaa718f1346dace9ea", "is_reserved": 0, "rental_uris": {"android": "https://dc.lft.to/lastmile_qr_scan", "ios": "https://dc.lft.to/lastmile_qr_scan"}, "fusion_lon": 0.0}, {"lat": 38.9284855, "is_disabled": 0, "type": "electric_scooter", "lon": -77.03324833333333, "bike_id": "9f43db7a4eb12a5f3904803628f68d9e", "fusion_lat": 0.0, "name": "9f43db7a4eb12a5f3904803628f68d9e", "is_reserved": 0, "rental_uris": {"android": "https://dc.lft.to/lastmile_qr_scan", "ios": "https://dc.lft.to/lastmile_qr_scan"}, "fusion_lon": 0.0}, {"lat": 38.9083975, "is_disabled": 0, "type": "electric_scooter", "lon": -76.99700416666667, "bike_id": "9642dc161323803fb9e4bd515a397532", "fusion_lat": 0.0, "name": "9642dc161323803fb9e4bd515a397532", "is_reserved": 0, "rental_uris": {"android": "https://dc.lft.to/lastmile_qr_scan", "ios": "https://dc.lft.to/lastmile_qr_scan"}, "fusion_lon": 0.0}, {"lat": 38.922356, "is_disabled": 0, "type": "electric_scooter", "lon": -77.04572216666666, "bike_id": "b2526a7c99179f640a56877ad52410fb", "fusion_lat": 0.0, "name": "b2526a7c99179f640a56877ad52410fb", "is_reserved": 0, "rental_uris": {"android": "https://dc.lft.to/lastmile_qr_scan", "ios": "https://dc.lft.to/lastmile_qr_scan"}, "fusion_lon": 0.0}, {"lat": 38.92767833333333, "is_disabled": 0, "type": "electric_scooter", "lon": -77.02787866666667, "bike_id": "a1d25f261aa5844be6e1ce17361a23ad", "fusion_lat": 0.0, "name": "a1d25f261aa5844be6e1ce17361a23ad", "is_reserved": 0, "rental_uris": {"android": "https://dc.lft.to/lastmile_qr_scan", "ios": "https://dc.lft.to/lastmile_qr_scan"}, "fusion_lon": 0.0}, {"lat": 38.90129916666667, "is_disabled": 0, "type": "electric_scooter", "lon": -77.0417495, "bike_id": "ed2d68f79a14f485b35400c6b9bf9304", "fusion_lat": 0.0, "name": "ed2d68f79a14f485b35400c6b9bf9304", "is_reserved": 0, "rental_uris": {"android": "https://dc.lft.to/lastmile_qr_scan", "ios": "https://dc.lft.to/lastmile_qr_scan"}, "fusion_lon": 0.0}, {"lat": 38.91733983333334, "is_disabled": 0, "type": "electric_scooter", "lon": -77.0227735, "bike_id": "3e9bb7c999d16371737d6e834749af91", "fusion_lat": 0.0, "name": "3e9bb7c999d16371737d6e834749af91", "is_reserved": 0, "rental_uris": {"android": "https://dc.lft.to/lastmile_qr_scan", "ios": "https://dc.lft.to/lastmile_qr_scan"}, "fusion_lon": 0.0}, {"lat": 38.859267833333334, "is_disabled": 0, "type": "electric_scooter", "lon": -76.9898275, "bike_id": "1d062c168beb92ac4885c852fbe0f0b9", "fusion_lat": 0.0, "name": "1d062c168beb92ac4885c852fbe0f0b9", "is_reserved": 0, "rental_uris": {"android": "https://dc.lft.to/lastmile_qr_scan", "ios": "https://dc.lft.to/lastmile_qr_scan"}, "fusion_lon": 0.0}, {"lat": 38.92040333333333, "is_disabled": 0, "type": "electric_scooter", "lon": -77.03186283333334, "bike_id": "7b08f455a2d276d59b4610caae791dc3", "fusion_lat": 0.0, "name": "7b08f455a2d276d59b4610caae791dc3", "is_reserved": 0, "rental_uris": {"android": "https://dc.lft.to/lastmile_qr_scan", "ios": "https://dc.lft.to/lastmile_qr_scan"}, "fusion_lon": 0.0}, {"lat": 38.93064783333333, "is_disabled": 0, "type": "electric_scooter", "lon": -77.04016983333334, "bike_id": "17bfecfd047bda831f589f12f036f011", "fusion_lat": 0.0, "name": "17bfecfd047bda831f589f12f036f011", "is_reserved": 0, "rental_uris": {"android": "https://dc.lft.to/lastmile_qr_scan", "ios": "https://dc.lft.to/lastmile_qr_scan"}, "fusion_lon": 0.0}, {"lat": 38.923520333333336, "is_disabled": 0, "type": "electric_scooter", "lon": -77.050202, "bike_id": "806a31b5fc3abafce0b2008aec00b312", "fusion_lat": 0.0, "name": "806a31b5fc3abafce0b2008aec00b312", "is_reserved": 0, "rental_uris": {"android": "https://dc.lft.to/lastmile_qr_scan", "ios": "https://dc.lft.to/lastmile_qr_scan"}, "fusion_lon": 0.0}, {"lat": 38.938596833333335, "is_disabled": 0, "type": "electric_scooter", "lon": -77.02733016666667, "bike_id": "e2999f4301f7cf6645b55786f881e8bc", "fusion_lat": 0.0, "name": "e2999f4301f7cf6645b55786f881e8bc", "is_reserved": 0, "rental_uris": {"android": "https://dc.lft.to/lastmile_qr_scan", "ios": "https://dc.lft.to/lastmile_qr_scan"}, "fusion_lon": 0.0}, {"lat": 38.911092833333335, "is_disabled": 0, "type": "electric_scooter", "lon": -77.03724966666667, "bike_id": "c53f09951b199515dc0c88a705c7b497", "fusion_lat": 0.0, "name": "c53f09951b199515dc0c88a705c7b497", "is_reserved": 0, "rental_uris": {"android": "https://dc.lft.to/lastmile_qr_scan", "ios": "https://dc.lft.to/lastmile_qr_scan"}, "fusion_lon": 0.0}, {"lat": 38.99994566666667, "is_disabled": 0, "type": "electric_bike", "lon": -76.9249665, "bike_id": "b4a5d1de09e88d76dfdf8366fcab72d1", "fusion_lat": 0.0, "name": "b4a5d1de09e88d76dfdf8366fcab72d1", "is_reserved": 0, "rental_uris": {"android": "https://dc.lft.to/lastmile_qr_scan", "ios": "https://dc.lft.to/lastmile_qr_scan"}, "fusion_lon": 0.0}, {"lat": 38.90629233333333, "is_disabled": 0, "type": "electric_scooter", "lon": -77.03151516666667, "bike_id": "8a74c530361443753a711cf0954c55c6", "fusion_lat": 0.0, "name": "8a74c530361443753a711cf0954c55c6", "is_reserved": 0, "rental_uris": {"android": "https://dc.lft.to/lastmile_qr_scan", "ios": "https://dc.lft.to/lastmile_qr_scan"}, "fusion_lon": 0.0}, {"lat": 38.9163495, "is_disabled": 0, "type": "electric_scooter", "lon": -77.02249166666667, "bike_id": "e0316bdd0bf9d9a9ecf384f1abb659a0", "fusion_lat": 0.0, "name": "e0316bdd0bf9d9a9ecf384f1abb659a0", "is_reserved": 0, "rental_uris": {"android": "https://dc.lft.to/lastmile_qr_scan", "ios": "https://dc.lft.to/lastmile_qr_scan"}, "fusion_lon": 0.0}, {"lat": 38.95213183333333, "is_disabled": 0, "type": "electric_scooter", "lon": -77.08600133333333, "bike_id": "280fc0119348c9fb34e7eaa675bff036", "fusion_lat": 0.0, "name": "280fc0119348c9fb34e7eaa675bff036", "is_reserved": 0, "rental_uris": {"android": "https://dc.lft.to/lastmile_qr_scan", "ios": "https://dc.lft.to/lastmile_qr_scan"}, "fusion_lon": 0.0}, {"lat": 38.9181495, "is_disabled": 0, "type": "electric_scooter", "lon": -77.041735, "bike_id": "02cbef5cfb428f95f52f295db838f024", "fusion_lat": 0.0, "name": "02cbef5cfb428f95f52f295db838f024", "is_reserved": 0, "rental_uris": {"android": "https://dc.lft.to/lastmile_qr_scan", "ios": "https://dc.lft.to/lastmile_qr_scan"}, "fusion_lon": 0.0}, {"lat": 38.92139483333333, "is_disabled": 0, "type": "electric_scooter", "lon": -77.04484033333334, "bike_id": "9ab7ebe66381553d367469100a682ce7", "fusion_lat": 0.0, "name": "9ab7ebe66381553d367469100a682ce7", "is_reserved": 0, "rental_uris": {"android": "https://dc.lft.to/lastmile_qr_scan", "ios": "https://dc.lft.to/lastmile_qr_scan"}, "fusion_lon": 0.0}, {"lat": 38.89087516666667, "is_disabled": 0, "type": "electric_scooter", "lon": -76.95267683333333, "bike_id": "0166f6eaf779e76846026da1837c1fd9", "fusion_lat": 0.0, "name": "0166f6eaf779e76846026da1837c1fd9", "is_reserved": 0, "rental_uris": {"android": "https://dc.lft.to/lastmile_qr_scan", "ios": "https://dc.lft.to/lastmile_qr_scan"}, "fusion_lon": 0.0}, {"lat": 38.927158, "is_disabled": 0, "type": "electric_scooter", "lon": -77.02290866666667, "bike_id": "0d5baebaf91667c08cc02799db53dbdf", "fusion_lat": 0.0, "name": "0d5baebaf91667c08cc02799db53dbdf", "is_reserved": 0, "rental_uris": {"android": "https://dc.lft.to/lastmile_qr_scan", "ios": "https://dc.lft.to/lastmile_qr_scan"}, "fusion_lon": 0.0}, {"lat": 38.954021833333336, "is_disabled": 0, "type": "electric_bike", "lon": -76.97867366666667, "bike_id": "84f099575349eabfd2b8e120963073ca", "fusion_lat": 0.0, "name": "84f099575349eabfd2b8e120963073ca", "is_reserved": 0, "rental_uris": {"android": "https://dc.lft.to/lastmile_qr_scan", "ios": "https://dc.lft.to/lastmile_qr_scan"}, "fusion_lon": 0.0}, {"lat": 38.919368166666665, "is_disabled": 0, "type": "electric_scooter", "lon": -77.0259365, "bike_id": "c6b98c9cbe947e69f86861ec127c2caf", "fusion_lat": 0.0, "name": "c6b98c9cbe947e69f86861ec127c2caf", "is_reserved": 0, "rental_uris": {"android": "https://dc.lft.to/lastmile_qr_scan", "ios": "https://dc.lft.to/lastmile_qr_scan"}, "fusion_lon": 0.0}, {"lat": 38.919306, "is_disabled": 0, "type": "electric_scooter", "lon": -76.97014083333333, "bike_id": "45af782639a8ef730869df71fa794b8d", "fusion_lat": 0.0, "name": "45af782639a8ef730869df71fa794b8d", "is_reserved": 0, "rental_uris": {"android": "https://dc.lft.to/lastmile_qr_scan", "ios": "https://dc.lft.to/lastmile_qr_scan"}, "fusion_lon": 0.0}, {"lat": 38.802262, "is_disabled": 0, "type": "electric_bike", "lon": -77.07916233333333, "bike_id": "e12bf5cebc6d63e7269c9d718fc30ba7", "fusion_lat": 0.0, "name": "e12bf5cebc6d63e7269c9d718fc30ba7", "is_reserved": 0, "rental_uris": {"android": "https://dc.lft.to/lastmile_qr_scan", "ios": "https://dc.lft.to/lastmile_qr_scan"}, "fusion_lon": 0.0}, {"lat": 38.92825766666667, "is_disabled": 0, "type": "electric_scooter", "lon": -77.01420583333334, "bike_id": "d113d93878700c079f056a6557d05152", "fusion_lat": 0.0, "name": "d113d93878700c079f056a6557d05152", "is_reserved": 0, "rental_uris": {"android": "https://dc.lft.to/lastmile_qr_scan", "ios": "https://dc.lft.to/lastmile_qr_scan"}, "fusion_lon": 0.0}, {"lat": 38.87155816666667, "is_disabled": 0, "type": "electric_scooter", "lon": -77.01194666666666, "bike_id": "b2f10f63e7c58875b6ddbd3f33c5d6fa", "fusion_lat": 0.0, "name": "b2f10f63e7c58875b6ddbd3f33c5d6fa", "is_reserved": 0, "rental_uris": {"android": "https://dc.lft.to/lastmile_qr_scan", "ios": "https://dc.lft.to/lastmile_qr_scan"}, "fusion_lon": 0.0}, {"lat": 38.904670833333334, "is_disabled": 0, "type": "electric_scooter", "lon": -77.03912, "bike_id": "348b711aab532d3c11fbf82553450429", "fusion_lat": 0.0, "name": "348b711aab532d3c11fbf82553450429", "is_reserved": 0, "rental_uris": {"android": "https://dc.lft.to/lastmile_qr_scan", "ios": "https://dc.lft.to/lastmile_qr_scan"}, "fusion_lon": 0.0}, {"lat": 38.941409, "is_disabled": 0, "type": "electric_bike", "lon": -77.03279733333333, "bike_id": "479bca51b03ba1339c22df3ea02c5ca5", "fusion_lat": 0.0, "name": "479bca51b03ba1339c22df3ea02c5ca5", "is_reserved": 0, "rental_uris": {"android": "https://dc.lft.to/lastmile_qr_scan", "ios": "https://dc.lft.to/lastmile_qr_scan"}, "fusion_lon": 0.0}, {"lat": 38.86365166666667, "is_disabled": 0, "type": "electric_scooter", "lon": -76.99034366666666, "bike_id": "9a73d4c3f49f06cbe73a232ce0fee368", "fusion_lat": 0.0, "name": "9a73d4c3f49f06cbe73a232ce0fee368", "is_reserved": 0, "rental_uris": {"android": "https://dc.lft.to/lastmile_qr_scan", "ios": "https://dc.lft.to/lastmile_qr_scan"}, "fusion_lon": 0.0}, {"lat": 38.9029765, "is_disabled": 0, "type": "electric_scooter", "lon": -77.00893233333333, "bike_id": "0ffbc35441796c28d6bc041dd736692f", "fusion_lat": 0.0, "name": "0ffbc35441796c28d6bc041dd736692f", "is_reserved": 0, "rental_uris": {"android": "https://dc.lft.to/lastmile_qr_scan", "ios": "https://dc.lft.to/lastmile_qr_scan"}, "fusion_lon": 0.0}, {"lat": 38.922352333333336, "is_disabled": 0, "type": "electric_scooter", "lon": -77.04352616666667, "bike_id": "034473235504418692e1729ed66c8dfb", "fusion_lat": 0.0, "name": "034473235504418692e1729ed66c8dfb", "is_reserved": 0, "rental_uris": {"android": "https://dc.lft.to/lastmile_qr_scan", "ios": "https://dc.lft.to/lastmile_qr_scan"}, "fusion_lon": 0.0}, {"lat": 38.884867, "is_disabled": 0, "type": "electric_scooter", "lon": -77.0347545, "bike_id": "1669f155b9dbd77ecbf6a6ff12eb9a77", "fusion_lat": 0.0, "name": "1669f155b9dbd77ecbf6a6ff12eb9a77", "is_reserved": 0, "rental_uris": {"android": "https://dc.lft.to/lastmile_qr_scan", "ios": "https://dc.lft.to/lastmile_qr_scan"}, "fusion_lon": 0.0}, {"lat": 38.90398666666667, "is_disabled": 0, "type": "electric_scooter", "lon": -77.02531, "bike_id": "f2660e68078f014033b5b37ecacef1e9", "fusion_lat": 0.0, "name": "f2660e68078f014033b5b37ecacef1e9", "is_reserved": 0, "rental_uris": {"android": "https://dc.lft.to/lastmile_qr_scan", "ios": "https://dc.lft.to/lastmile_qr_scan"}, "fusion_lon": 0.0}, {"lat": 38.9332865, "is_disabled": 0, "type": "electric_bike", "lon": -77.04224033333334, "bike_id": "9a4ebfc72b333b625eb9d7416e24294b", "fusion_lat": 0.0, "name": "9a4ebfc72b333b625eb9d7416e24294b", "is_reserved": 0, "rental_uris": {"android": "https://dc.lft.to/lastmile_qr_scan", "ios": "https://dc.lft.to/lastmile_qr_scan"}, "fusion_lon": 0.0}, {"lat": 38.917070333333335, "is_disabled": 0, "type": "electric_scooter", "lon": -77.03135916666666, "bike_id": "c474c807f9ddc412fc0cd43131fc7ce6", "fusion_lat": 0.0, "name": "c474c807f9ddc412fc0cd43131fc7ce6", "is_reserved": 0, "rental_uris": {"android": "https://dc.lft.to/lastmile_qr_scan", "ios": "https://dc.lft.to/lastmile_qr_scan"}, "fusion_lon": 0.0}, {"lat": 38.905685166666665, "is_disabled": 0, "type": "electric_scooter", "lon": -77.04664566666666, "bike_id": "534ae06638eccb5c34fdaa380f1f4504", "fusion_lat": 0.0, "name": "534ae06638eccb5c34fdaa380f1f4504", "is_reserved": 0, "rental_uris": {"android": "https://dc.lft.to/lastmile_qr_scan", "ios": "https://dc.lft.to/lastmile_qr_scan"}, "fusion_lon": 0.0}, {"lat": 38.89741133333333, "is_disabled": 0, "type": "electric_scooter", "lon": -77.02169866666667, "bike_id": "31f43f905fb1fb6656dc6ef7bd46d5db", "fusion_lat": 0.0, "name": "31f43f905fb1fb6656dc6ef7bd46d5db", "is_reserved": 0, "rental_uris": {"android": "https://dc.lft.to/lastmile_qr_scan", "ios": "https://dc.lft.to/lastmile_qr_scan"}, "fusion_lon": 0.0}, {"lat": 38.920387, "is_disabled": 0, "type": "electric_scooter", "lon": -77.04183, "bike_id": "80f5d8cf3faeb0314146690c37196749", "fusion_lat": 0.0, "name": "80f5d8cf3faeb0314146690c37196749", "is_reserved": 0, "rental_uris": {"android": "https://dc.lft.to/lastmile_qr_scan", "ios": "https://dc.lft.to/lastmile_qr_scan"}, "fusion_lon": 0.0}, {"lat": 38.91372666666667, "is_disabled": 0, "type": "electric_scooter", "lon": -77.01997216666666, "bike_id": "5d73306f22b5f39e4e3ea30ef8635252", "fusion_lat": 0.0, "name": "5d73306f22b5f39e4e3ea30ef8635252", "is_reserved": 0, "rental_uris": {"android": "https://dc.lft.to/lastmile_qr_scan", "ios": "https://dc.lft.to/lastmile_qr_scan"}, "fusion_lon": 0.0}, {"lat": 38.96214883333333, "is_disabled": 0, "type": "electric_bike", "lon": -77.02625183333333, "bike_id": "e6425e409d5bdabefb18dfdd96ce2a24", "fusion_lat": 0.0, "name": "e6425e409d5bdabefb18dfdd96ce2a24", "is_reserved": 0, "rental_uris": {"android": "https://dc.lft.to/lastmile_qr_scan", "ios": "https://dc.lft.to/lastmile_qr_scan"}, "fusion_lon": 0.0}, {"lat": 38.948190333333336, "is_disabled": 0, "type": "electric_scooter", "lon": -76.9990665, "bike_id": "39eb001d8b3d2aa74f5b78a6ac12a3fa", "fusion_lat": 0.0, "name": "39eb001d8b3d2aa74f5b78a6ac12a3fa", "is_reserved": 0, "rental_uris": {"android": "https://dc.lft.to/lastmile_qr_scan", "ios": "https://dc.lft.to/lastmile_qr_scan"}, "fusion_lon": 0.0}, {"lat": 38.917004666666664, "is_disabled": 0, "type": "electric_scooter", "lon": -77.03187383333334, "bike_id": "eb6a1dd5d36299d804b01731c454a2c9", "fusion_lat": 0.0, "name": "eb6a1dd5d36299d804b01731c454a2c9", "is_reserved": 0, "rental_uris": {"android": "https://dc.lft.to/lastmile_qr_scan", "ios": "https://dc.lft.to/lastmile_qr_scan"}, "fusion_lon": 0.0}, {"lat": 38.91417783333333, "is_disabled": 0, "type": "electric_scooter", "lon": -77.02214033333334, "bike_id": "2dd2091ea02e08031d76356d7fe7cd33", "fusion_lat": 0.0, "name": "2dd2091ea02e08031d76356d7fe7cd33", "is_reserved": 0, "rental_uris": {"android": "https://dc.lft.to/lastmile_qr_scan", "ios": "https://dc.lft.to/lastmile_qr_scan"}, "fusion_lon": 0.0}, {"lat": 38.90769866666667, "is_disabled": 0, "type": "electric_scooter", "lon": -76.983052, "bike_id": "37d371ed275a099f937d5e89d3362c30", "fusion_lat": 0.0, "name": "37d371ed275a099f937d5e89d3362c30", "is_reserved": 0, "rental_uris": {"android": "https://dc.lft.to/lastmile_qr_scan", "ios": "https://dc.lft.to/lastmile_qr_scan"}, "fusion_lon": 0.0}, {"lat": 38.955672166666666, "is_disabled": 0, "type": "electric_scooter", "lon": -77.02227716666667, "bike_id": "9f8d471e35e843afb228e99afcfe6e2f", "fusion_lat": 0.0, "name": "9f8d471e35e843afb228e99afcfe6e2f", "is_reserved": 0, "rental_uris": {"android": "https://dc.lft.to/lastmile_qr_scan", "ios": "https://dc.lft.to/lastmile_qr_scan"}, "fusion_lon": 0.0}, {"lat": 38.907258166666665, "is_disabled": 0, "type": "electric_scooter", "lon": -77.03441133333334, "bike_id": "7ae7825e5bbdc855fe1e096b6587ac2b", "fusion_lat": 0.0, "name": "7ae7825e5bbdc855fe1e096b6587ac2b", "is_reserved": 0, "rental_uris": {"android": "https://dc.lft.to/lastmile_qr_scan", "ios": "https://dc.lft.to/lastmile_qr_scan"}, "fusion_lon": 0.0}, {"lat": 38.92156666666666, "is_disabled": 0, "type": "electric_scooter", "lon": -77.03516566666667, "bike_id": "9cedb6c77d1e456329db90ada77e1106", "fusion_lat": 0.0, "name": "9cedb6c77d1e456329db90ada77e1106", "is_reserved": 0, "rental_uris": {"android": "https://dc.lft.to/lastmile_qr_scan", "ios": "https://dc.lft.to/lastmile_qr_scan"}, "fusion_lon": 0.0}, {"lat": 38.89888883333333, "is_disabled": 0, "type": "electric_scooter", "lon": -77.07233666666667, "bike_id": "813d2461438d1c40fbf3527867887bd6", "fusion_lat": 0.0, "name": "813d2461438d1c40fbf3527867887bd6", "is_reserved": 0, "rental_uris": {"android": "https://dc.lft.to/lastmile_qr_scan", "ios": "https://dc.lft.to/lastmile_qr_scan"}, "fusion_lon": 0.0}, {"lat": 38.918570333333335, "is_disabled": 0, "type": "electric_scooter", "lon": -77.03637783333333, "bike_id": "73025cc05af7695c1b64de3df17c8e46", "fusion_lat": 0.0, "name": "73025cc05af7695c1b64de3df17c8e46", "is_reserved": 0, "rental_uris": {"android": "https://dc.lft.to/lastmile_qr_scan", "ios": "https://dc.lft.to/lastmile_qr_scan"}, "fusion_lon": 0.0}, {"lat": 38.93296616666667, "is_disabled": 0, "type": "electric_scooter", "lon": -77.0219465, "bike_id": "7c93bbe465e4095d9c75c399ec0b94ff", "fusion_lat": 0.0, "name": "7c93bbe465e4095d9c75c399ec0b94ff", "is_reserved": 0, "rental_uris": {"android": "https://dc.lft.to/lastmile_qr_scan", "ios": "https://dc.lft.to/lastmile_qr_scan"}, "fusion_lon": 0.0}, {"lat": 38.92302083333333, "is_disabled": 0, "type": "electric_scooter", "lon": -77.02328383333334, "bike_id": "3cd4f912e914e829054d44770d45a88c", "fusion_lat": 0.0, "name": "3cd4f912e914e829054d44770d45a88c", "is_reserved": 0, "rental_uris": {"android": "https://dc.lft.to/lastmile_qr_scan", "ios": "https://dc.lft.to/lastmile_qr_scan"}, "fusion_lon": 0.0}, {"lat": 38.95191783333333, "is_disabled": 0, "type": "electric_bike", "lon": -77.023932, "bike_id": "ed49dec431f6f162ce86560f344c95a1", "fusion_lat": 0.0, "name": "ed49dec431f6f162ce86560f344c95a1", "is_reserved": 0, "rental_uris": {"android": "https://dc.lft.to/lastmile_qr_scan", "ios": "https://dc.lft.to/lastmile_qr_scan"}, "fusion_lon": 0.0}, {"lat": 38.917947, "is_disabled": 0, "type": "electric_scooter", "lon": -77.034484, "bike_id": "4793b5bd0e28c7bf6befafae55fa0a61", "fusion_lat": 0.0, "name": "4793b5bd0e28c7bf6befafae55fa0a61", "is_reserved": 0, "rental_uris": {"android": "https://dc.lft.to/lastmile_qr_scan", "ios": "https://dc.lft.to/lastmile_qr_scan"}, "fusion_lon": 0.0}, {"lat": 38.904112166666664, "is_disabled": 0, "type": "electric_scooter", "lon": -77.04473066666667, "bike_id": "63ddf77565b54c6ba2dee66a4aa5ff32", "fusion_lat": 0.0, "name": "63ddf77565b54c6ba2dee66a4aa5ff32", "is_reserved": 0, "rental_uris": {"android": "https://dc.lft.to/lastmile_qr_scan", "ios": "https://dc.lft.to/lastmile_qr_scan"}, "fusion_lon": 0.0}, {"lat": 38.939787333333335, "is_disabled": 0, "type": "electric_scooter", "lon": -77.02628733333333, "bike_id": "95ffe1b91671a7c7c5c6d1b95ccf5cb1", "fusion_lat": 0.0, "name": "95ffe1b91671a7c7c5c6d1b95ccf5cb1", "is_reserved": 0, "rental_uris": {"android": "https://dc.lft.to/lastmile_qr_scan", "ios": "https://dc.lft.to/lastmile_qr_scan"}, "fusion_lon": 0.0}, {"lat": 38.91629533333333, "is_disabled": 0, "type": "electric_scooter", "lon": -77.02319516666667, "bike_id": "03cb8f432f56202021779a706b2bb95f", "fusion_lat": 0.0, "name": "03cb8f432f56202021779a706b2bb95f", "is_reserved": 0, "rental_uris": {"android": "https://dc.lft.to/lastmile_qr_scan", "ios": "https://dc.lft.to/lastmile_qr_scan"}, "fusion_lon": 0.0}, {"lat": 38.908117, "is_disabled": 0, "type": "electric_scooter", "lon": -77.034574, "bike_id": "1d76d44e09e22e830e665addf3810eed", "fusion_lat": 0.0, "name": "1d76d44e09e22e830e665addf3810eed", "is_reserved": 0, "rental_uris": {"android": "https://dc.lft.to/lastmile_qr_scan", "ios": "https://dc.lft.to/lastmile_qr_scan"}, "fusion_lon": 0.0}, {"lat": 38.923727, "is_disabled": 0, "type": "electric_scooter", "lon": -77.02537216666667, "bike_id": "1667ee5b7ff3027cc21a4a1e336be822", "fusion_lat": 0.0, "name": "1667ee5b7ff3027cc21a4a1e336be822", "is_reserved": 0, "rental_uris": {"android": "https://dc.lft.to/lastmile_qr_scan", "ios": "https://dc.lft.to/lastmile_qr_scan"}, "fusion_lon": 0.0}, {"lat": 38.9119315, "is_disabled": 0, "type": "electric_scooter", "lon": -77.03634866666667, "bike_id": "43be6619cb0dd8134535a6152f265920", "fusion_lat": 0.0, "name": "43be6619cb0dd8134535a6152f265920", "is_reserved": 0, "rental_uris": {"android": "https://dc.lft.to/lastmile_qr_scan", "ios": "https://dc.lft.to/lastmile_qr_scan"}, "fusion_lon": 0.0}, {"lat": 38.916782166666664, "is_disabled": 0, "type": "electric_scooter", "lon": -77.02974733333333, "bike_id": "a3f8ad503f791bcc956f1a8c163c0b15", "fusion_lat": 0.0, "name": "a3f8ad503f791bcc956f1a8c163c0b15", "is_reserved": 0, "rental_uris": {"android": "https://dc.lft.to/lastmile_qr_scan", "ios": "https://dc.lft.to/lastmile_qr_scan"}, "fusion_lon": 0.0}, {"lat": 38.84437333333333, "is_disabled": 0, "type": "electric_bike", "lon": -77.06843366666666, "bike_id": "23860f5a85a6c9b04173fc702798c794", "fusion_lat": 0.0, "name": "23860f5a85a6c9b04173fc702798c794", "is_reserved": 0, "rental_uris": {"android": "https://dc.lft.to/lastmile_qr_scan", "ios": "https://dc.lft.to/lastmile_qr_scan"}, "fusion_lon": 0.0}, {"lat": 38.914609, "is_disabled": 0, "type": "electric_scooter", "lon": -77.01433716666666, "bike_id": "3c2943bff900a482fd76bc5bdb19f0c5", "fusion_lat": 0.0, "name": "3c2943bff900a482fd76bc5bdb19f0c5", "is_reserved": 0, "rental_uris": {"android": "https://dc.lft.to/lastmile_qr_scan", "ios": "https://dc.lft.to/lastmile_qr_scan"}, "fusion_lon": 0.0}, {"lat": 38.8786205, "is_disabled": 0, "type": "electric_scooter", "lon": -77.01761766666667, "bike_id": "895cefd05e966c4fca504cd65026c845", "fusion_lat": 0.0, "name": "895cefd05e966c4fca504cd65026c845", "is_reserved": 0, "rental_uris": {"android": "https://dc.lft.to/lastmile_qr_scan", "ios": "https://dc.lft.to/lastmile_qr_scan"}, "fusion_lon": 0.0}, {"lat": 38.8820325, "is_disabled": 0, "type": "electric_scooter", "lon": -76.989227, "bike_id": "349b9838bc6201d6436a888bfa0d722f", "fusion_lat": 0.0, "name": "349b9838bc6201d6436a888bfa0d722f", "is_reserved": 0, "rental_uris": {"android": "https://dc.lft.to/lastmile_qr_scan", "ios": "https://dc.lft.to/lastmile_qr_scan"}, "fusion_lon": 0.0}, {"lat": 38.902215, "is_disabled": 0, "type": "electric_scooter", "lon": -77.017579, "bike_id": "b27f66e84f621b0a772dd485386e685d", "fusion_lat": 0.0, "name": "b27f66e84f621b0a772dd485386e685d", "is_reserved": 0, "rental_uris": {"android": "https://dc.lft.to/lastmile_qr_scan", "ios": "https://dc.lft.to/lastmile_qr_scan"}, "fusion_lon": 0.0}, {"lat": 38.87071066666667, "is_disabled": 0, "type": "electric_bike", "lon": -76.97829883333333, "bike_id": "f868abd64cc4121f91b15d80ddc2424b", "fusion_lat": 0.0, "name": "f868abd64cc4121f91b15d80ddc2424b", "is_reserved": 0, "rental_uris": {"android": "https://dc.lft.to/lastmile_qr_scan", "ios": "https://dc.lft.to/lastmile_qr_scan"}, "fusion_lon": 0.0}, {"lat": 38.92056433333333, "is_disabled": 0, "type": "electric_scooter", "lon": -77.04194183333334, "bike_id": "d0dd75065010fbf85d18b82fcb6b0464", "fusion_lat": 0.0, "name": "d0dd75065010fbf85d18b82fcb6b0464", "is_reserved": 0, "rental_uris": {"android": "https://dc.lft.to/lastmile_qr_scan", "ios": "https://dc.lft.to/lastmile_qr_scan"}, "fusion_lon": 0.0}, {"lat": 38.8903805, "is_disabled": 0, "type": "electric_scooter", "lon": -76.9375405, "bike_id": "b2b7b226c3ce533bc6ec258394595180", "fusion_lat": 0.0, "name": "b2b7b226c3ce533bc6ec258394595180", "is_reserved": 0, "rental_uris": {"android": "https://dc.lft.to/lastmile_qr_scan", "ios": "https://dc.lft.to/lastmile_qr_scan"}, "fusion_lon": 0.0}, {"lat": 38.914523833333334, "is_disabled": 0, "type": "electric_bike", "lon": -76.97271116666667, "bike_id": "e8b1a0cb5fa8062dcca03149ba3e601e", "fusion_lat": 0.0, "name": "e8b1a0cb5fa8062dcca03149ba3e601e", "is_reserved": 0, "rental_uris": {"android": "https://dc.lft.to/lastmile_qr_scan", "ios": "https://dc.lft.to/lastmile_qr_scan"}, "fusion_lon": 0.0}, {"lat": 38.92872533333333, "is_disabled": 0, "type": "electric_scooter", "lon": -77.03710333333333, "bike_id": "1c031013d6af91bbe5e9f3accdfe524e", "fusion_lat": 0.0, "name": "1c031013d6af91bbe5e9f3accdfe524e", "is_reserved": 0, "rental_uris": {"android": "https://dc.lft.to/lastmile_qr_scan", "ios": "https://dc.lft.to/lastmile_qr_scan"}, "fusion_lon": 0.0}, {"lat": 38.932958666666664, "is_disabled": 0, "type": "electric_scooter", "lon": -77.04532766666667, "bike_id": "28fc3ec21b99db6e061c0046cc183d6e", "fusion_lat": 0.0, "name": "28fc3ec21b99db6e061c0046cc183d6e", "is_reserved": 0, "rental_uris": {"android": "https://dc.lft.to/lastmile_qr_scan", "ios": "https://dc.lft.to/lastmile_qr_scan"}, "fusion_lon": 0.0}, {"lat": 39.034312166666666, "is_disabled": 0, "type": "electric_bike", "lon": -77.04241716666667, "bike_id": "63e24eb92acfc957dc80f4a19855867d", "fusion_lat": 0.0, "name": "63e24eb92acfc957dc80f4a19855867d", "is_reserved": 0, "rental_uris": {"android": "https://dc.lft.to/lastmile_qr_scan", "ios": "https://dc.lft.to/lastmile_qr_scan"}, "fusion_lon": 0.0}, {"lat": 38.89757083333333, "is_disabled": 0, "type": "electric_scooter", "lon": -77.05497, "bike_id": "19abc7b34449d8460a1b09f4fcc485c0", "fusion_lat": 0.0, "name": "19abc7b34449d8460a1b09f4fcc485c0", "is_reserved": 0, "rental_uris": {"android": "https://dc.lft.to/lastmile_qr_scan", "ios": "https://dc.lft.to/lastmile_qr_scan"}, "fusion_lon": 0.0}, {"lat": 38.922445, "is_disabled": 0, "type": "electric_scooter", "lon": -77.021953, "bike_id": "6f011844f049655c04e5bc063a3d575b", "fusion_lat": 0.0, "name": "6f011844f049655c04e5bc063a3d575b", "is_reserved": 0, "rental_uris": {"android": "https://dc.lft.to/lastmile_qr_scan", "ios": "https://dc.lft.to/lastmile_qr_scan"}, "fusion_lon": 0.0}, {"lat": 38.93299866666667, "is_disabled": 0, "type": "electric_scooter", "lon": -77.03592433333333, "bike_id": "c1467b90fd7a888376558fb7a7c038dd", "fusion_lat": 0.0, "name": "c1467b90fd7a888376558fb7a7c038dd", "is_reserved": 0, "rental_uris": {"android": "https://dc.lft.to/lastmile_qr_scan", "ios": "https://dc.lft.to/lastmile_qr_scan"}, "fusion_lon": 0.0}, {"lat": 38.90233383333333, "is_disabled": 0, "type": "electric_scooter", "lon": -77.0019895, "bike_id": "5b231f5eb9da8266a581b93908e105d6", "fusion_lat": 0.0, "name": "5b231f5eb9da8266a581b93908e105d6", "is_reserved": 0, "rental_uris": {"android": "https://dc.lft.to/lastmile_qr_scan", "ios": "https://dc.lft.to/lastmile_qr_scan"}, "fusion_lon": 0.0}, {"lat": 38.92218, "is_disabled": 0, "type": "electric_bike", "lon": -76.98799700000001, "bike_id": "52f976dad4c0b778c59bc677d249cea3", "fusion_lat": 0.0, "name": "52f976dad4c0b778c59bc677d249cea3", "is_reserved": 0, "rental_uris": {"android": "https://dc.lft.to/lastmile_qr_scan", "ios": "https://dc.lft.to/lastmile_qr_scan"}, "fusion_lon": 0.0}, {"lat": 38.9320645, "is_disabled": 0, "type": "electric_scooter", "lon": -77.04429066666667, "bike_id": "90e3cdfbf7bd796cf19ba84c216e8fa9", "fusion_lat": 0.0, "name": "90e3cdfbf7bd796cf19ba84c216e8fa9", "is_reserved": 0, "rental_uris": {"android": "https://dc.lft.to/lastmile_qr_scan", "ios": "https://dc.lft.to/lastmile_qr_scan"}, "fusion_lon": 0.0}, {"lat": 38.9170615, "is_disabled": 0, "type": "electric_scooter", "lon": -77.0294445, "bike_id": "c7b04fe9dc709fe310d6643c3f51f1f2", "fusion_lat": 0.0, "name": "c7b04fe9dc709fe310d6643c3f51f1f2", "is_reserved": 0, "rental_uris": {"android": "https://dc.lft.to/lastmile_qr_scan", "ios": "https://dc.lft.to/lastmile_qr_scan"}, "fusion_lon": 0.0}, {"lat": 38.87626933333333, "is_disabled": 0, "type": "electric_scooter", "lon": -76.96527366666666, "bike_id": "43cb0baa7f1fa6da1922228e44fc248e", "fusion_lat": 0.0, "name": "43cb0baa7f1fa6da1922228e44fc248e", "is_reserved": 0, "rental_uris": {"android": "https://dc.lft.to/lastmile_qr_scan", "ios": "https://dc.lft.to/lastmile_qr_scan"}, "fusion_lon": 0.0}, {"lat": 38.8999895, "is_disabled": 0, "type": "electric_scooter", "lon": -76.9995365, "bike_id": "54609014eef3a5a0b652264a735b070a", "fusion_lat": 0.0, "name": "54609014eef3a5a0b652264a735b070a", "is_reserved": 0, "rental_uris": {"android": "https://dc.lft.to/lastmile_qr_scan", "ios": "https://dc.lft.to/lastmile_qr_scan"}, "fusion_lon": 0.0}, {"lat": 38.910935333333335, "is_disabled": 0, "type": "electric_scooter", "lon": -77.03209966666667, "bike_id": "ac950b54034e87b798bf61bb88ce6edd", "fusion_lat": 0.0, "name": "ac950b54034e87b798bf61bb88ce6edd", "is_reserved": 0, "rental_uris": {"android": "https://dc.lft.to/lastmile_qr_scan", "ios": "https://dc.lft.to/lastmile_qr_scan"}, "fusion_lon": 0.0}, {"lat": 38.917700333333336, "is_disabled": 0, "type": "electric_scooter", "lon": -77.01493133333334, "bike_id": "002f71d545273e0be2404b75de6540a5", "fusion_lat": 0.0, "name": "002f71d545273e0be2404b75de6540a5", "is_reserved": 0, "rental_uris": {"android": "https://dc.lft.to/lastmile_qr_scan", "ios": "https://dc.lft.to/lastmile_qr_scan"}, "fusion_lon": 0.0}, {"lat": 38.91542966666667, "is_disabled": 0, "type": "electric_scooter", "lon": -77.07417033333333, "bike_id": "a6537bffbe738e292f0ff709c0de0b01", "fusion_lat": 0.0, "name": "a6537bffbe738e292f0ff709c0de0b01", "is_reserved": 0, "rental_uris": {"android": "https://dc.lft.to/lastmile_qr_scan", "ios": "https://dc.lft.to/lastmile_qr_scan"}, "fusion_lon": 0.0}, {"lat": 38.909683666666666, "is_disabled": 0, "type": "electric_scooter", "lon": -76.99604883333333, "bike_id": "fb5c8fb37b38bfdaf9708f7adaacbb61", "fusion_lat": 0.0, "name": "fb5c8fb37b38bfdaf9708f7adaacbb61", "is_reserved": 0, "rental_uris": {"android": "https://dc.lft.to/lastmile_qr_scan", "ios": "https://dc.lft.to/lastmile_qr_scan"}, "fusion_lon": 0.0}, {"lat": 38.892834, "is_disabled": 0, "type": "electric_scooter", "lon": -76.958524, "bike_id": "47a3af3e9b47b22b74ba257ca2b74ddd", "fusion_lat": 0.0, "name": "47a3af3e9b47b22b74ba257ca2b74ddd", "is_reserved": 0, "rental_uris": {"android": "https://dc.lft.to/lastmile_qr_scan", "ios": "https://dc.lft.to/lastmile_qr_scan"}, "fusion_lon": 0.0}, {"lat": 38.929545, "is_disabled": 0, "type": "electric_scooter", "lon": -76.99090533333333, "bike_id": "507faffd010e98e595dde300a8ccae90", "fusion_lat": 0.0, "name": "507faffd010e98e595dde300a8ccae90", "is_reserved": 0, "rental_uris": {"android": "https://dc.lft.to/lastmile_qr_scan", "ios": "https://dc.lft.to/lastmile_qr_scan"}, "fusion_lon": 0.0}, {"lat": 38.887186166666666, "is_disabled": 0, "type": "electric_scooter", "lon": -76.9961445, "bike_id": "33da3f80857cbba0abeee598b621f16c", "fusion_lat": 0.0, "name": "33da3f80857cbba0abeee598b621f16c", "is_reserved": 0, "rental_uris": {"android": "https://dc.lft.to/lastmile_qr_scan", "ios": "https://dc.lft.to/lastmile_qr_scan"}, "fusion_lon": 0.0}, {"lat": 38.9068225, "is_disabled": 0, "type": "electric_scooter", "lon": -77.02718283333333, "bike_id": "0d8c0c2c7732f9a78b42c939c37a0a51", "fusion_lat": 0.0, "name": "0d8c0c2c7732f9a78b42c939c37a0a51", "is_reserved": 0, "rental_uris": {"android": "https://dc.lft.to/lastmile_qr_scan", "ios": "https://dc.lft.to/lastmile_qr_scan"}, "fusion_lon": 0.0}, {"lat": 38.9057045, "is_disabled": 0, "type": "electric_scooter", "lon": -77.02176116666666, "bike_id": "e5ad15c3a784c925a2f12b8f54b213c9", "fusion_lat": 0.0, "name": "e5ad15c3a784c925a2f12b8f54b213c9", "is_reserved": 0, "rental_uris": {"android": "https://dc.lft.to/lastmile_qr_scan", "ios": "https://dc.lft.to/lastmile_qr_scan"}, "fusion_lon": 0.0}, {"lat": 38.99645566666667, "is_disabled": 0, "type": "electric_bike", "lon": -77.02980483333333, "bike_id": "4f7327bb4439bbcbd43cb0cf0111b54c", "fusion_lat": 0.0, "name": "4f7327bb4439bbcbd43cb0cf0111b54c", "is_reserved": 0, "rental_uris": {"android": "https://dc.lft.to/lastmile_qr_scan", "ios": "https://dc.lft.to/lastmile_qr_scan"}, "fusion_lon": 0.0}, {"lat": 38.917283166666664, "is_disabled": 0, "type": "electric_scooter", "lon": -77.03660633333334, "bike_id": "d0237ac62c8d49c8db71f631eabe8f06", "fusion_lat": 0.0, "name": "d0237ac62c8d49c8db71f631eabe8f06", "is_reserved": 0, "rental_uris": {"android": "https://dc.lft.to/lastmile_qr_scan", "ios": "https://dc.lft.to/lastmile_qr_scan"}, "fusion_lon": 0.0}, {"lat": 38.920276333333334, "is_disabled": 0, "type": "electric_scooter", "lon": -77.02446783333333, "bike_id": "a66ea53327e039e750b602936137f025", "fusion_lat": 0.0, "name": "a66ea53327e039e750b602936137f025", "is_reserved": 0, "rental_uris": {"android": "https://dc.lft.to/lastmile_qr_scan", "ios": "https://dc.lft.to/lastmile_qr_scan"}, "fusion_lon": 0.0}, {"lat": 38.914228666666666, "is_disabled": 0, "type": "electric_scooter", "lon": -77.022004, "bike_id": "ddb5958a86213e52d430acb4c06d7419", "fusion_lat": 0.0, "name": "ddb5958a86213e52d430acb4c06d7419", "is_reserved": 0, "rental_uris": {"android": "https://dc.lft.to/lastmile_qr_scan", "ios": "https://dc.lft.to/lastmile_qr_scan"}, "fusion_lon": 0.0}, {"lat": 38.907409, "is_disabled": 0, "type": "electric_scooter", "lon": -77.02717116666666, "bike_id": "82f309567990a28201e65d3c8beb5778", "fusion_lat": 0.0, "name": "82f309567990a28201e65d3c8beb5778", "is_reserved": 0, "rental_uris": {"android": "https://dc.lft.to/lastmile_qr_scan", "ios": "https://dc.lft.to/lastmile_qr_scan"}, "fusion_lon": 0.0}, {"lat": 38.903735833333336, "is_disabled": 0, "type": "electric_scooter", "lon": -77.040004, "bike_id": "ed6515687ea3bb31cece31f14455639d", "fusion_lat": 0.0, "name": "ed6515687ea3bb31cece31f14455639d", "is_reserved": 0, "rental_uris": {"android": "https://dc.lft.to/lastmile_qr_scan", "ios": "https://dc.lft.to/lastmile_qr_scan"}, "fusion_lon": 0.0}, {"lat": 38.918195, "is_disabled": 0, "type": "electric_scooter", "lon": -77.0390985, "bike_id": "8d9967e4d3fbaa5e982448d16e6c40f6", "fusion_lat": 0.0, "name": "8d9967e4d3fbaa5e982448d16e6c40f6", "is_reserved": 0, "rental_uris": {"android": "https://dc.lft.to/lastmile_qr_scan", "ios": "https://dc.lft.to/lastmile_qr_scan"}, "fusion_lon": 0.0}, {"lat": 38.91563766666667, "is_disabled": 0, "type": "electric_scooter", "lon": -77.029805, "bike_id": "b31e3ba4758815df83224cf0c6c29d00", "fusion_lat": 0.0, "name": "b31e3ba4758815df83224cf0c6c29d00", "is_reserved": 0, "rental_uris": {"android": "https://dc.lft.to/lastmile_qr_scan", "ios": "https://dc.lft.to/lastmile_qr_scan"}, "fusion_lon": 0.0}, {"lat": 38.912684666666664, "is_disabled": 0, "type": "electric_bike", "lon": -77.02255, "bike_id": "efc088a0620ad64e24fe789ff8f75ae6", "fusion_lat": 0.0, "name": "efc088a0620ad64e24fe789ff8f75ae6", "is_reserved": 0, "rental_uris": {"android": "https://dc.lft.to/lastmile_qr_scan", "ios": "https://dc.lft.to/lastmile_qr_scan"}, "fusion_lon": 0.0}, {"lat": 38.90737716666667, "is_disabled": 0, "type": "electric_scooter", "lon": -77.02804716666667, "bike_id": "289327b1d3b385826c6d328c1258ec45", "fusion_lat": 0.0, "name": "289327b1d3b385826c6d328c1258ec45", "is_reserved": 0, "rental_uris": {"android": "https://dc.lft.to/lastmile_qr_scan", "ios": "https://dc.lft.to/lastmile_qr_scan"}, "fusion_lon": 0.0}, {"lat": 38.867550333333334, "is_disabled": 0, "type": "electric_scooter", "lon": -76.97665966666666, "bike_id": "119eadf3bc2e8737f115d3fe00a6b174", "fusion_lat": 0.0, "name": "119eadf3bc2e8737f115d3fe00a6b174", "is_reserved": 0, "rental_uris": {"android": "https://dc.lft.to/lastmile_qr_scan", "ios": "https://dc.lft.to/lastmile_qr_scan"}, "fusion_lon": 0.0}, {"lat": 38.909187333333335, "is_disabled": 0, "type": "electric_scooter", "lon": -77.080179, "bike_id": "aa95d7e54f2ebdad597c4ae9e856cccf", "fusion_lat": 0.0, "name": "aa95d7e54f2ebdad597c4ae9e856cccf", "is_reserved": 0, "rental_uris": {"android": "https://dc.lft.to/lastmile_qr_scan", "ios": "https://dc.lft.to/lastmile_qr_scan"}, "fusion_lon": 0.0}, {"lat": 38.877320833333336, "is_disabled": 0, "type": "electric_bike", "lon": -77.11850266666667, "bike_id": "04a40f4705845d10186b4619cc51fb9d", "fusion_lat": 0.0, "name": "04a40f4705845d10186b4619cc51fb9d", "is_reserved": 0, "rental_uris": {"android": "https://dc.lft.to/lastmile_qr_scan", "ios": "https://dc.lft.to/lastmile_qr_scan"}, "fusion_lon": 0.0}, {"lat": 38.892129833333335, "is_disabled": 0, "type": "electric_scooter", "lon": -76.99571616666667, "bike_id": "31a02863b76300141607e54569569975", "fusion_lat": 0.0, "name": "31a02863b76300141607e54569569975", "is_reserved": 0, "rental_uris": {"android": "https://dc.lft.to/lastmile_qr_scan", "ios": "https://dc.lft.to/lastmile_qr_scan"}, "fusion_lon": 0.0}, {"lat": 38.914714000000004, "is_disabled": 0, "type": "electric_scooter", "lon": -77.03829633333334, "bike_id": "256556b52baa88418cd3624d850b90c1", "fusion_lat": 0.0, "name": "256556b52baa88418cd3624d850b90c1", "is_reserved": 0, "rental_uris": {"android": "https://dc.lft.to/lastmile_qr_scan", "ios": "https://dc.lft.to/lastmile_qr_scan"}, "fusion_lon": 0.0}, {"lat": 38.90708033333333, "is_disabled": 0, "type": "electric_scooter", "lon": -76.986969, "bike_id": "80c01b24481bbf1ea6e5a5755bb38963", "fusion_lat": 0.0, "name": "80c01b24481bbf1ea6e5a5755bb38963", "is_reserved": 0, "rental_uris": {"android": "https://dc.lft.to/lastmile_qr_scan", "ios": "https://dc.lft.to/lastmile_qr_scan"}, "fusion_lon": 0.0}, {"lat": 38.951865, "is_disabled": 0, "type": "electric_bike", "lon": -76.93545583333334, "bike_id": "f142fbb3bc9712f9d9a20a3a522d3a9b", "fusion_lat": 0.0, "name": "f142fbb3bc9712f9d9a20a3a522d3a9b", "is_reserved": 0, "rental_uris": {"android": "https://dc.lft.to/lastmile_qr_scan", "ios": "https://dc.lft.to/lastmile_qr_scan"}, "fusion_lon": 0.0}, {"lat": 38.9462795, "is_disabled": 0, "type": "electric_scooter", "lon": -77.0184745, "bike_id": "829ec75df3e1b6c8722997b4866a064c", "fusion_lat": 0.0, "name": "829ec75df3e1b6c8722997b4866a064c", "is_reserved": 0, "rental_uris": {"android": "https://dc.lft.to/lastmile_qr_scan", "ios": "https://dc.lft.to/lastmile_qr_scan"}, "fusion_lon": 0.0}, {"lat": 38.90965833333333, "is_disabled": 0, "type": "electric_scooter", "lon": -77.038398, "bike_id": "285fb5cd31cf5f8a3612773740722f09", "fusion_lat": 0.0, "name": "285fb5cd31cf5f8a3612773740722f09", "is_reserved": 0, "rental_uris": {"android": "https://dc.lft.to/lastmile_qr_scan", "ios": "https://dc.lft.to/lastmile_qr_scan"}, "fusion_lon": 0.0}, {"lat": 38.902474833333336, "is_disabled": 0, "type": "electric_scooter", "lon": -77.06265, "bike_id": "82b93c05c6936310b5136dfd031c0b17", "fusion_lat": 0.0, "name": "82b93c05c6936310b5136dfd031c0b17", "is_reserved": 0, "rental_uris": {"android": "https://dc.lft.to/lastmile_qr_scan", "ios": "https://dc.lft.to/lastmile_qr_scan"}, "fusion_lon": 0.0}, {"lat": 38.93582083333333, "is_disabled": 0, "type": "electric_scooter", "lon": -77.03754833333333, "bike_id": "a7cc88e107fef85267ab14af93214bde", "fusion_lat": 0.0, "name": "a7cc88e107fef85267ab14af93214bde", "is_reserved": 0, "rental_uris": {"android": "https://dc.lft.to/lastmile_qr_scan", "ios": "https://dc.lft.to/lastmile_qr_scan"}, "fusion_lon": 0.0}, {"lat": 38.902826, "is_disabled": 0, "type": "electric_scooter", "lon": -77.04039366666667, "bike_id": "d4d494e2da08d0471cf636672e4e71c8", "fusion_lat": 0.0, "name": "d4d494e2da08d0471cf636672e4e71c8", "is_reserved": 0, "rental_uris": {"android": "https://dc.lft.to/lastmile_qr_scan", "ios": "https://dc.lft.to/lastmile_qr_scan"}, "fusion_lon": 0.0}, {"lat": 38.88275766666667, "is_disabled": 0, "type": "electric_bike", "lon": -76.932421, "bike_id": "22e70f9cbd242ba4da75986f5cae87ee", "fusion_lat": 0.0, "name": "22e70f9cbd242ba4da75986f5cae87ee", "is_reserved": 0, "rental_uris": {"android": "https://dc.lft.to/lastmile_qr_scan", "ios": "https://dc.lft.to/lastmile_qr_scan"}, "fusion_lon": 0.0}, {"lat": 38.91116533333334, "is_disabled": 0, "type": "electric_scooter", "lon": -77.03866366666666, "bike_id": "3f1f59e04fdf3b9e90928c3d04b27427", "fusion_lat": 0.0, "name": "3f1f59e04fdf3b9e90928c3d04b27427", "is_reserved": 0, "rental_uris": {"android": "https://dc.lft.to/lastmile_qr_scan", "ios": "https://dc.lft.to/lastmile_qr_scan"}, "fusion_lon": 0.0}, {"lat": 38.89426133333333, "is_disabled": 0, "type": "electric_scooter", "lon": -77.02081466666667, "bike_id": "9d25337d5f5cf9d037a964402a15be93", "fusion_lat": 0.0, "name": "9d25337d5f5cf9d037a964402a15be93", "is_reserved": 0, "rental_uris": {"android": "https://dc.lft.to/lastmile_qr_scan", "ios": "https://dc.lft.to/lastmile_qr_scan"}, "fusion_lon": 0.0}, {"lat": 38.91553866666667, "is_disabled": 0, "type": "electric_scooter", "lon": -77.0417765, "bike_id": "1e14bcfa7361a56dd7a56b89cb2bfd7a", "fusion_lat": 0.0, "name": "1e14bcfa7361a56dd7a56b89cb2bfd7a", "is_reserved": 0, "rental_uris": {"android": "https://dc.lft.to/lastmile_qr_scan", "ios": "https://dc.lft.to/lastmile_qr_scan"}, "fusion_lon": 0.0}, {"lat": 38.906249833333334, "is_disabled": 0, "type": "electric_scooter", "lon": -77.02179383333333, "bike_id": "027620d0d06943c953b6c15fc2523be5", "fusion_lat": 0.0, "name": "027620d0d06943c953b6c15fc2523be5", "is_reserved": 0, "rental_uris": {"android": "https://dc.lft.to/lastmile_qr_scan", "ios": "https://dc.lft.to/lastmile_qr_scan"}, "fusion_lon": 0.0}, {"lat": 38.933338666666664, "is_disabled": 0, "type": "electric_bike", "lon": -77.03986983333333, "bike_id": "8477f3e328eb4ac8a30ca53a660a26b8", "fusion_lat": 0.0, "name": "8477f3e328eb4ac8a30ca53a660a26b8", "is_reserved": 0, "rental_uris": {"android": "https://dc.lft.to/lastmile_qr_scan", "ios": "https://dc.lft.to/lastmile_qr_scan"}, "fusion_lon": 0.0}, {"lat": 38.94654466666667, "is_disabled": 0, "type": "electric_scooter", "lon": -77.03651383333333, "bike_id": "e95e6a0c861f0a91959f2fa174a5a8c6", "fusion_lat": 0.0, "name": "e95e6a0c861f0a91959f2fa174a5a8c6", "is_reserved": 0, "rental_uris": {"android": "https://dc.lft.to/lastmile_qr_scan", "ios": "https://dc.lft.to/lastmile_qr_scan"}, "fusion_lon": 0.0}, {"lat": 38.91716616666667, "is_disabled": 0, "type": "electric_scooter", "lon": -77.02404733333333, "bike_id": "cda632f177b6facbcab3760e4cecef65", "fusion_lat": 0.0, "name": "cda632f177b6facbcab3760e4cecef65", "is_reserved": 0, "rental_uris": {"android": "https://dc.lft.to/lastmile_qr_scan", "ios": "https://dc.lft.to/lastmile_qr_scan"}, "fusion_lon": 0.0}, {"lat": 38.866162, "is_disabled": 0, "type": "electric_scooter", "lon": -76.98661283333334, "bike_id": "67e56dc1591d1153f2684b9eb770ed99", "fusion_lat": 0.0, "name": "67e56dc1591d1153f2684b9eb770ed99", "is_reserved": 0, "rental_uris": {"android": "https://dc.lft.to/lastmile_qr_scan", "ios": "https://dc.lft.to/lastmile_qr_scan"}, "fusion_lon": 0.0}, {"lat": 38.95083316666667, "is_disabled": 0, "type": "electric_bike", "lon": -77.01201833333333, "bike_id": "8dbdb6fede7b9bad5b016b4671e75288", "fusion_lat": 0.0, "name": "8dbdb6fede7b9bad5b016b4671e75288", "is_reserved": 0, "rental_uris": {"android": "https://dc.lft.to/lastmile_qr_scan", "ios": "https://dc.lft.to/lastmile_qr_scan"}, "fusion_lon": 0.0}, {"lat": 38.923544166666666, "is_disabled": 0, "type": "electric_scooter", "lon": -77.05021566666667, "bike_id": "7dc8439dc53d5188555371ff071f26fc", "fusion_lat": 0.0, "name": "7dc8439dc53d5188555371ff071f26fc", "is_reserved": 0, "rental_uris": {"android": "https://dc.lft.to/lastmile_qr_scan", "ios": "https://dc.lft.to/lastmile_qr_scan"}, "fusion_lon": 0.0}, {"lat": 38.9072335, "is_disabled": 0, "type": "electric_scooter", "lon": -77.00340166666666, "bike_id": "af6375677a620dc8e60d4baf0e8ff5ef", "fusion_lat": 0.0, "name": "af6375677a620dc8e60d4baf0e8ff5ef", "is_reserved": 0, "rental_uris": {"android": "https://dc.lft.to/lastmile_qr_scan", "ios": "https://dc.lft.to/lastmile_qr_scan"}, "fusion_lon": 0.0}, {"lat": 38.9181955, "is_disabled": 0, "type": "electric_scooter", "lon": -77.03663466666667, "bike_id": "1cb4f75f487f31b915c7ba6003e10895", "fusion_lat": 0.0, "name": "1cb4f75f487f31b915c7ba6003e10895", "is_reserved": 0, "rental_uris": {"android": "https://dc.lft.to/lastmile_qr_scan", "ios": "https://dc.lft.to/lastmile_qr_scan"}, "fusion_lon": 0.0}, {"lat": 38.93197816666667, "is_disabled": 0, "type": "electric_scooter", "lon": -77.02353633333334, "bike_id": "0bde28a20c7393ea247368171eb7f3e5", "fusion_lat": 0.0, "name": "0bde28a20c7393ea247368171eb7f3e5", "is_reserved": 0, "rental_uris": {"android": "https://dc.lft.to/lastmile_qr_scan", "ios": "https://dc.lft.to/lastmile_qr_scan"}, "fusion_lon": 0.0}, {"lat": 38.949809333333334, "is_disabled": 0, "type": "electric_scooter", "lon": -77.067098, "bike_id": "d7069edd15aca021287233d9c57d0e93", "fusion_lat": 0.0, "name": "d7069edd15aca021287233d9c57d0e93", "is_reserved": 0, "rental_uris": {"android": "https://dc.lft.to/lastmile_qr_scan", "ios": "https://dc.lft.to/lastmile_qr_scan"}, "fusion_lon": 0.0}, {"lat": 38.921087, "is_disabled": 0, "type": "electric_scooter", "lon": -77.03179016666667, "bike_id": "d18daa7af4185b7445e73eaf918bf5d4", "fusion_lat": 0.0, "name": "d18daa7af4185b7445e73eaf918bf5d4", "is_reserved": 0, "rental_uris": {"android": "https://dc.lft.to/lastmile_qr_scan", "ios": "https://dc.lft.to/lastmile_qr_scan"}, "fusion_lon": 0.0}, {"lat": 38.9170345, "is_disabled": 0, "type": "electric_scooter", "lon": -77.03970983333333, "bike_id": "a50c639d29f8a3940e3ac2e8305cc7f9", "fusion_lat": 0.0, "name": "a50c639d29f8a3940e3ac2e8305cc7f9", "is_reserved": 0, "rental_uris": {"android": "https://dc.lft.to/lastmile_qr_scan", "ios": "https://dc.lft.to/lastmile_qr_scan"}, "fusion_lon": 0.0}, {"lat": 38.935355, "is_disabled": 0, "type": "electric_scooter", "lon": -77.03411783333334, "bike_id": "e56469a55f381647c167897bfe0c78a4", "fusion_lat": 0.0, "name": "e56469a55f381647c167897bfe0c78a4", "is_reserved": 0, "rental_uris": {"android": "https://dc.lft.to/lastmile_qr_scan", "ios": "https://dc.lft.to/lastmile_qr_scan"}, "fusion_lon": 0.0}, {"lat": 38.876791, "is_disabled": 0, "type": "electric_scooter", "lon": -77.01790183333334, "bike_id": "01c0637e74b8061c8221dd47a9144de6", "fusion_lat": 0.0, "name": "01c0637e74b8061c8221dd47a9144de6", "is_reserved": 0, "rental_uris": {"android": "https://dc.lft.to/lastmile_qr_scan", "ios": "https://dc.lft.to/lastmile_qr_scan"}, "fusion_lon": 0.0}, {"lat": 38.91467816666667, "is_disabled": 0, "type": "electric_scooter", "lon": -77.03205366666667, "bike_id": "74498e413e666f0cff0076b33a58893d", "fusion_lat": 0.0, "name": "74498e413e666f0cff0076b33a58893d", "is_reserved": 0, "rental_uris": {"android": "https://dc.lft.to/lastmile_qr_scan", "ios": "https://dc.lft.to/lastmile_qr_scan"}, "fusion_lon": 0.0}, {"lat": 38.92657833333333, "is_disabled": 0, "type": "electric_scooter", "lon": -77.05589216666667, "bike_id": "37dec2f25a4afd38d82a1a05062e2ba3", "fusion_lat": 0.0, "name": "37dec2f25a4afd38d82a1a05062e2ba3", "is_reserved": 0, "rental_uris": {"android": "https://dc.lft.to/lastmile_qr_scan", "ios": "https://dc.lft.to/lastmile_qr_scan"}, "fusion_lon": 0.0}, {"lat": 38.8955485, "is_disabled": 0, "type": "electric_scooter", "lon": -76.93358983333333, "bike_id": "a36af0fb703f397a2b2b39821ad3910f", "fusion_lat": 0.0, "name": "a36af0fb703f397a2b2b39821ad3910f", "is_reserved": 0, "rental_uris": {"android": "https://dc.lft.to/lastmile_qr_scan", "ios": "https://dc.lft.to/lastmile_qr_scan"}, "fusion_lon": 0.0}, {"lat": 38.93878266666667, "is_disabled": 0, "type": "electric_scooter", "lon": -77.03260316666666, "bike_id": "43ee7e6e6b4756027fb20907093741e7", "fusion_lat": 0.0, "name": "43ee7e6e6b4756027fb20907093741e7", "is_reserved": 0, "rental_uris": {"android": "https://dc.lft.to/lastmile_qr_scan", "ios": "https://dc.lft.to/lastmile_qr_scan"}, "fusion_lon": 0.0}, {"lat": 38.91553316666667, "is_disabled": 0, "type": "electric_scooter", "lon": -77.03499816666667, "bike_id": "ac702cce3d2532f7ca32c415cdf4c1fc", "fusion_lat": 0.0, "name": "ac702cce3d2532f7ca32c415cdf4c1fc", "is_reserved": 0, "rental_uris": {"android": "https://dc.lft.to/lastmile_qr_scan", "ios": "https://dc.lft.to/lastmile_qr_scan"}, "fusion_lon": 0.0}, {"lat": 38.918167333333336, "is_disabled": 0, "type": "electric_scooter", "lon": -77.041746, "bike_id": "efe1d1638a17b00a26f9db300cdefd65", "fusion_lat": 0.0, "name": "efe1d1638a17b00a26f9db300cdefd65", "is_reserved": 0, "rental_uris": {"android": "https://dc.lft.to/lastmile_qr_scan", "ios": "https://dc.lft.to/lastmile_qr_scan"}, "fusion_lon": 0.0}, {"lat": 38.9171035, "is_disabled": 0, "type": "electric_scooter", "lon": -77.04678416666667, "bike_id": "ddcd67fd17f988d55459c173c11e342d", "fusion_lat": 0.0, "name": "ddcd67fd17f988d55459c173c11e342d", "is_reserved": 0, "rental_uris": {"android": "https://dc.lft.to/lastmile_qr_scan", "ios": "https://dc.lft.to/lastmile_qr_scan"}, "fusion_lon": 0.0}, {"lat": 38.923283166666664, "is_disabled": 0, "type": "electric_scooter", "lon": -77.029736, "bike_id": "589b8abeda8b76fe10a2169cc79fa770", "fusion_lat": 0.0, "name": "589b8abeda8b76fe10a2169cc79fa770", "is_reserved": 0, "rental_uris": {"android": "https://dc.lft.to/lastmile_qr_scan", "ios": "https://dc.lft.to/lastmile_qr_scan"}, "fusion_lon": 0.0}, {"lat": 38.92603233333333, "is_disabled": 0, "type": "electric_bike", "lon": -77.024321, "bike_id": "dd5787a75abe81596e44a972dfd0b252", "fusion_lat": 0.0, "name": "dd5787a75abe81596e44a972dfd0b252", "is_reserved": 0, "rental_uris": {"android": "https://dc.lft.to/lastmile_qr_scan", "ios": "https://dc.lft.to/lastmile_qr_scan"}, "fusion_lon": 0.0}, {"lat": 38.90858866666667, "is_disabled": 0, "type": "electric_scooter", "lon": -77.0037, "bike_id": "fcd52512d16b776afe162cc96b2a54e8", "fusion_lat": 0.0, "name": "fcd52512d16b776afe162cc96b2a54e8", "is_reserved": 0, "rental_uris": {"android": "https://dc.lft.to/lastmile_qr_scan", "ios": "https://dc.lft.to/lastmile_qr_scan"}, "fusion_lon": 0.0}, {"lat": 38.88658983333333, "is_disabled": 0, "type": "electric_scooter", "lon": -77.01338483333333, "bike_id": "02c9bc26e8eff17f3664c225ae03f18b", "fusion_lat": 0.0, "name": "02c9bc26e8eff17f3664c225ae03f18b", "is_reserved": 0, "rental_uris": {"android": "https://dc.lft.to/lastmile_qr_scan", "ios": "https://dc.lft.to/lastmile_qr_scan"}, "fusion_lon": 0.0}, {"lat": 38.89842383333333, "is_disabled": 0, "type": "electric_scooter", "lon": -76.995072, "bike_id": "047f481d77673b820b340e25844405d2", "fusion_lat": 0.0, "name": "047f481d77673b820b340e25844405d2", "is_reserved": 0, "rental_uris": {"android": "https://dc.lft.to/lastmile_qr_scan", "ios": "https://dc.lft.to/lastmile_qr_scan"}, "fusion_lon": 0.0}, {"lat": 38.9621775, "is_disabled": 0, "type": "electric_bike", "lon": -77.02630583333334, "bike_id": "35ff11c2c819629291af23c444e1e345", "fusion_lat": 0.0, "name": "35ff11c2c819629291af23c444e1e345", "is_reserved": 0, "rental_uris": {"android": "https://dc.lft.to/lastmile_qr_scan", "ios": "https://dc.lft.to/lastmile_qr_scan"}, "fusion_lon": 0.0}, {"lat": 38.908830333333334, "is_disabled": 0, "type": "electric_scooter", "lon": -77.02315266666666, "bike_id": "fba940f76d69de50b86d8673d6f4f817", "fusion_lat": 0.0, "name": "fba940f76d69de50b86d8673d6f4f817", "is_reserved": 0, "rental_uris": {"android": "https://dc.lft.to/lastmile_qr_scan", "ios": "https://dc.lft.to/lastmile_qr_scan"}, "fusion_lon": 0.0}, {"lat": 38.89221116666667, "is_disabled": 0, "type": "electric_bike", "lon": -77.10782316666666, "bike_id": "1b291ca8c8d99546b4f9a4b94600cee7", "fusion_lat": 0.0, "name": "1b291ca8c8d99546b4f9a4b94600cee7", "is_reserved": 0, "rental_uris": {"android": "https://dc.lft.to/lastmile_qr_scan", "ios": "https://dc.lft.to/lastmile_qr_scan"}, "fusion_lon": 0.0}, {"lat": 38.92378516666667, "is_disabled": 0, "type": "electric_scooter", "lon": -77.05752433333333, "bike_id": "42ad1ad5214f9c5da4e5c1f574dc4534", "fusion_lat": 0.0, "name": "42ad1ad5214f9c5da4e5c1f574dc4534", "is_reserved": 0, "rental_uris": {"android": "https://dc.lft.to/lastmile_qr_scan", "ios": "https://dc.lft.to/lastmile_qr_scan"}, "fusion_lon": 0.0}, {"lat": 38.902424333333336, "is_disabled": 0, "type": "electric_scooter", "lon": -77.01944333333333, "bike_id": "5e7848b902bda46ff0b16fe194e03250", "fusion_lat": 0.0, "name": "5e7848b902bda46ff0b16fe194e03250", "is_reserved": 0, "rental_uris": {"android": "https://dc.lft.to/lastmile_qr_scan", "ios": "https://dc.lft.to/lastmile_qr_scan"}, "fusion_lon": 0.0}, {"lat": 38.89491616666667, "is_disabled": 0, "type": "electric_bike", "lon": -77.0734765, "bike_id": "0b57cae76e904f83265c6eaf6b44f075", "fusion_lat": 0.0, "name": "0b57cae76e904f83265c6eaf6b44f075", "is_reserved": 0, "rental_uris": {"android": "https://dc.lft.to/lastmile_qr_scan", "ios": "https://dc.lft.to/lastmile_qr_scan"}, "fusion_lon": 0.0}, {"lat": 38.89923866666667, "is_disabled": 0, "type": "electric_bike", "lon": -77.03301183333333, "bike_id": "53e3a58a46872000b3c5f69a3b8155d2", "fusion_lat": 0.0, "name": "53e3a58a46872000b3c5f69a3b8155d2", "is_reserved": 0, "rental_uris": {"android": "https://dc.lft.to/lastmile_qr_scan", "ios": "https://dc.lft.to/lastmile_qr_scan"}, "fusion_lon": 0.0}, {"lat": 38.903628833333336, "is_disabled": 0, "type": "electric_scooter", "lon": -77.00749283333333, "bike_id": "0a4efd57db6da2df7a4427348e19d56b", "fusion_lat": 0.0, "name": "0a4efd57db6da2df7a4427348e19d56b", "is_reserved": 0, "rental_uris": {"android": "https://dc.lft.to/lastmile_qr_scan", "ios": "https://dc.lft.to/lastmile_qr_scan"}, "fusion_lon": 0.0}, {"lat": 38.927014666666665, "is_disabled": 0, "type": "electric_scooter", "lon": -77.02089083333334, "bike_id": "1c14b35ea6d503c59b6d9cbe1d6a15bf", "fusion_lat": 0.0, "name": "1c14b35ea6d503c59b6d9cbe1d6a15bf", "is_reserved": 0, "rental_uris": {"android": "https://dc.lft.to/lastmile_qr_scan", "ios": "https://dc.lft.to/lastmile_qr_scan"}, "fusion_lon": 0.0}, {"lat": 38.87067183333333, "is_disabled": 0, "type": "electric_scooter", "lon": -77.00841366666667, "bike_id": "115f33c66d40567ff9d119cf240a3878", "fusion_lat": 0.0, "name": "115f33c66d40567ff9d119cf240a3878", "is_reserved": 0, "rental_uris": {"android": "https://dc.lft.to/lastmile_qr_scan", "ios": "https://dc.lft.to/lastmile_qr_scan"}, "fusion_lon": 0.0}, {"lat": 38.88194683333333, "is_disabled": 0, "type": "electric_scooter", "lon": -76.99618116666667, "bike_id": "0dfd8d670d14dd377343af8f5b6103e7", "fusion_lat": 0.0, "name": "0dfd8d670d14dd377343af8f5b6103e7", "is_reserved": 0, "rental_uris": {"android": "https://dc.lft.to/lastmile_qr_scan", "ios": "https://dc.lft.to/lastmile_qr_scan"}, "fusion_lon": 0.0}, {"lat": 38.908136666666664, "is_disabled": 0, "type": "electric_scooter", "lon": -77.0345275, "bike_id": "de308b9f28a8565065e8d00a82958c47", "fusion_lat": 0.0, "name": "de308b9f28a8565065e8d00a82958c47", "is_reserved": 0, "rental_uris": {"android": "https://dc.lft.to/lastmile_qr_scan", "ios": "https://dc.lft.to/lastmile_qr_scan"}, "fusion_lon": 0.0}, {"lat": 38.917318333333334, "is_disabled": 0, "type": "electric_scooter", "lon": -77.03662483333333, "bike_id": "7a5758fa8c9b2af90aad51c660299fd3", "fusion_lat": 0.0, "name": "7a5758fa8c9b2af90aad51c660299fd3", "is_reserved": 0, "rental_uris": {"android": "https://dc.lft.to/lastmile_qr_scan", "ios": "https://dc.lft.to/lastmile_qr_scan"}, "fusion_lon": 0.0}, {"lat": 38.919850833333335, "is_disabled": 0, "type": "electric_scooter", "lon": -77.03210833333333, "bike_id": "187817e56f55b159b80aaba7e0b427d1", "fusion_lat": 0.0, "name": "187817e56f55b159b80aaba7e0b427d1", "is_reserved": 0, "rental_uris": {"android": "https://dc.lft.to/lastmile_qr_scan", "ios": "https://dc.lft.to/lastmile_qr_scan"}, "fusion_lon": 0.0}, {"lat": 38.89502266666667, "is_disabled": 0, "type": "electric_scooter", "lon": -77.00323716666666, "bike_id": "f18829d5f63225e7e7162ccf2075c1e9", "fusion_lat": 0.0, "name": "f18829d5f63225e7e7162ccf2075c1e9", "is_reserved": 0, "rental_uris": {"android": "https://dc.lft.to/lastmile_qr_scan", "ios": "https://dc.lft.to/lastmile_qr_scan"}, "fusion_lon": 0.0}, {"lat": 38.93110083333333, "is_disabled": 0, "type": "electric_scooter", "lon": -77.03073416666666, "bike_id": "f9946de603f6ae5923a913e4e3e8a9e3", "fusion_lat": 0.0, "name": "f9946de603f6ae5923a913e4e3e8a9e3", "is_reserved": 0, "rental_uris": {"android": "https://dc.lft.to/lastmile_qr_scan", "ios": "https://dc.lft.to/lastmile_qr_scan"}, "fusion_lon": 0.0}, {"lat": 38.92491, "is_disabled": 0, "type": "electric_scooter", "lon": -77.07335383333333, "bike_id": "03e02e7ec29320d516f8d138a3451733", "fusion_lat": 0.0, "name": "03e02e7ec29320d516f8d138a3451733", "is_reserved": 0, "rental_uris": {"android": "https://dc.lft.to/lastmile_qr_scan", "ios": "https://dc.lft.to/lastmile_qr_scan"}, "fusion_lon": 0.0}, {"lat": 38.955713833333334, "is_disabled": 0, "type": "electric_scooter", "lon": -77.07007816666666, "bike_id": "cad273877da636b2cab6a49e986f2dd0", "fusion_lat": 0.0, "name": "cad273877da636b2cab6a49e986f2dd0", "is_reserved": 0, "rental_uris": {"android": "https://dc.lft.to/lastmile_qr_scan", "ios": "https://dc.lft.to/lastmile_qr_scan"}, "fusion_lon": 0.0}, {"lat": 38.910466666666665, "is_disabled": 0, "type": "electric_scooter", "lon": -77.0150905, "bike_id": "a3bf4a2e24b4ebba6dcca40107fd732b", "fusion_lat": 0.0, "name": "a3bf4a2e24b4ebba6dcca40107fd732b", "is_reserved": 0, "rental_uris": {"android": "https://dc.lft.to/lastmile_qr_scan", "ios": "https://dc.lft.to/lastmile_qr_scan"}, "fusion_lon": 0.0}, {"lat": 38.9078115, "is_disabled": 0, "type": "electric_scooter", "lon": -77.042309, "bike_id": "67277cf5c3c35a0678a45e837bce932b", "fusion_lat": 0.0, "name": "67277cf5c3c35a0678a45e837bce932b", "is_reserved": 0, "rental_uris": {"android": "https://dc.lft.to/lastmile_qr_scan", "ios": "https://dc.lft.to/lastmile_qr_scan"}, "fusion_lon": 0.0}, {"lat": 38.89724983333333, "is_disabled": 0, "type": "electric_scooter", "lon": -77.02153, "bike_id": "42f7e613df5c72ce811cb19c80e85ac6", "fusion_lat": 0.0, "name": "42f7e613df5c72ce811cb19c80e85ac6", "is_reserved": 0, "rental_uris": {"android": "https://dc.lft.to/lastmile_qr_scan", "ios": "https://dc.lft.to/lastmile_qr_scan"}, "fusion_lon": 0.0}, {"lat": 38.92204616666667, "is_disabled": 0, "type": "electric_scooter", "lon": -77.04012516666667, "bike_id": "c4b51729e3595b59d24287c3b887ab95", "fusion_lat": 0.0, "name": "c4b51729e3595b59d24287c3b887ab95", "is_reserved": 0, "rental_uris": {"android": "https://dc.lft.to/lastmile_qr_scan", "ios": "https://dc.lft.to/lastmile_qr_scan"}, "fusion_lon": 0.0}, {"lat": 38.907287833333335, "is_disabled": 0, "type": "electric_scooter", "lon": -77.02958083333333, "bike_id": "bb42064aab2d319746e2433acf865e47", "fusion_lat": 0.0, "name": "bb42064aab2d319746e2433acf865e47", "is_reserved": 0, "rental_uris": {"android": "https://dc.lft.to/lastmile_qr_scan", "ios": "https://dc.lft.to/lastmile_qr_scan"}, "fusion_lon": 0.0}, {"lat": 38.890451666666664, "is_disabled": 0, "type": "electric_scooter", "lon": -76.95140333333333, "bike_id": "2d00618c7108dd15975b8844dc10e626", "fusion_lat": 0.0, "name": "2d00618c7108dd15975b8844dc10e626", "is_reserved": 0, "rental_uris": {"android": "https://dc.lft.to/lastmile_qr_scan", "ios": "https://dc.lft.to/lastmile_qr_scan"}, "fusion_lon": 0.0}, {"lat": 38.905474, "is_disabled": 0, "type": "electric_scooter", "lon": -77.05708883333334, "bike_id": "e5a61bf07fb8efeb0bac3ed5cf613521", "fusion_lat": 0.0, "name": "e5a61bf07fb8efeb0bac3ed5cf613521", "is_reserved": 0, "rental_uris": {"android": "https://dc.lft.to/lastmile_qr_scan", "ios": "https://dc.lft.to/lastmile_qr_scan"}, "fusion_lon": 0.0}, {"lat": 38.869069833333334, "is_disabled": 0, "type": "electric_bike", "lon": -77.13177666666667, "bike_id": "13f667e316182a9ed67dd33fe65f073e", "fusion_lat": 0.0, "name": "13f667e316182a9ed67dd33fe65f073e", "is_reserved": 0, "rental_uris": {"android": "https://dc.lft.to/lastmile_qr_scan", "ios": "https://dc.lft.to/lastmile_qr_scan"}, "fusion_lon": 0.0}, {"lat": 38.80440133333333, "is_disabled": 0, "type": "electric_bike", "lon": -77.06084933333334, "bike_id": "da0ea28584e5fd992a3a4390e750fa31", "fusion_lat": 0.0, "name": "da0ea28584e5fd992a3a4390e750fa31", "is_reserved": 0, "rental_uris": {"android": "https://dc.lft.to/lastmile_qr_scan", "ios": "https://dc.lft.to/lastmile_qr_scan"}, "fusion_lon": 0.0}, {"lat": 38.8993975, "is_disabled": 0, "type": "electric_scooter", "lon": -77.03290516666667, "bike_id": "2c9fadaad63cb99d8808b761c263ddb4", "fusion_lat": 0.0, "name": "2c9fadaad63cb99d8808b761c263ddb4", "is_reserved": 0, "rental_uris": {"android": "https://dc.lft.to/lastmile_qr_scan", "ios": "https://dc.lft.to/lastmile_qr_scan"}, "fusion_lon": 0.0}, {"lat": 39.0157835, "is_disabled": 0, "type": "electric_bike", "lon": -77.042381, "bike_id": "b12e08eb16a18d311ff5b8eca04ac6b6", "fusion_lat": 0.0, "name": "b12e08eb16a18d311ff5b8eca04ac6b6", "is_reserved": 0, "rental_uris": {"android": "https://dc.lft.to/lastmile_qr_scan", "ios": "https://dc.lft.to/lastmile_qr_scan"}, "fusion_lon": 0.0}, {"lat": 38.914108166666665, "is_disabled": 0, "type": "electric_scooter", "lon": -77.02565766666666, "bike_id": "556d19a378b5f51df00ba5acf70a4797", "fusion_lat": 0.0, "name": "556d19a378b5f51df00ba5acf70a4797", "is_reserved": 0, "rental_uris": {"android": "https://dc.lft.to/lastmile_qr_scan", "ios": "https://dc.lft.to/lastmile_qr_scan"}, "fusion_lon": 0.0}, {"lat": 38.915642, "is_disabled": 0, "type": "electric_scooter", "lon": -77.0316695, "bike_id": "a8783d09b499deb67df891fc08395277", "fusion_lat": 0.0, "name": "a8783d09b499deb67df891fc08395277", "is_reserved": 0, "rental_uris": {"android": "https://dc.lft.to/lastmile_qr_scan", "ios": "https://dc.lft.to/lastmile_qr_scan"}, "fusion_lon": 0.0}, {"lat": 38.95404116666667, "is_disabled": 0, "type": "electric_scooter", "lon": -77.03625516666666, "bike_id": "de4fb1a5512345c358ad5dcc4141f902", "fusion_lat": 0.0, "name": "de4fb1a5512345c358ad5dcc4141f902", "is_reserved": 0, "rental_uris": {"android": "https://dc.lft.to/lastmile_qr_scan", "ios": "https://dc.lft.to/lastmile_qr_scan"}, "fusion_lon": 0.0}, {"lat": 38.92055383333334, "is_disabled": 0, "type": "electric_scooter", "lon": -77.03210783333333, "bike_id": "aad285075509199b34148e16332fba0d", "fusion_lat": 0.0, "name": "aad285075509199b34148e16332fba0d", "is_reserved": 0, "rental_uris": {"android": "https://dc.lft.to/lastmile_qr_scan", "ios": "https://dc.lft.to/lastmile_qr_scan"}, "fusion_lon": 0.0}, {"lat": 38.920396, "is_disabled": 0, "type": "electric_scooter", "lon": -77.01812783333334, "bike_id": "d4de770a7ff7a845478cb759568f134d", "fusion_lat": 0.0, "name": "d4de770a7ff7a845478cb759568f134d", "is_reserved": 0, "rental_uris": {"android": "https://dc.lft.to/lastmile_qr_scan", "ios": "https://dc.lft.to/lastmile_qr_scan"}, "fusion_lon": 0.0}, {"lat": 38.91199683333333, "is_disabled": 0, "type": "electric_scooter", "lon": -77.0450405, "bike_id": "ad419f818f67ec9d1f94a5f8bfb01407", "fusion_lat": 0.0, "name": "ad419f818f67ec9d1f94a5f8bfb01407", "is_reserved": 0, "rental_uris": {"android": "https://dc.lft.to/lastmile_qr_scan", "ios": "https://dc.lft.to/lastmile_qr_scan"}, "fusion_lon": 0.0}, {"lat": 38.920891833333336, "is_disabled": 0, "type": "electric_scooter", "lon": -77.04203516666666, "bike_id": "843f626a63007c62e3f382ca3c94f39a", "fusion_lat": 0.0, "name": "843f626a63007c62e3f382ca3c94f39a", "is_reserved": 0, "rental_uris": {"android": "https://dc.lft.to/lastmile_qr_scan", "ios": "https://dc.lft.to/lastmile_qr_scan"}, "fusion_lon": 0.0}, {"lat": 38.95879816666667, "is_disabled": 0, "type": "electric_bike", "lon": -77.01033633333333, "bike_id": "0a61da449b99316b64ca5563ed88bd02", "fusion_lat": 0.0, "name": "0a61da449b99316b64ca5563ed88bd02", "is_reserved": 0, "rental_uris": {"android": "https://dc.lft.to/lastmile_qr_scan", "ios": "https://dc.lft.to/lastmile_qr_scan"}, "fusion_lon": 0.0}, {"lat": 38.905023166666666, "is_disabled": 0, "type": "electric_scooter", "lon": -77.02809, "bike_id": "6799e416ea39ca13d18ed3be36e6c621", "fusion_lat": 0.0, "name": "6799e416ea39ca13d18ed3be36e6c621", "is_reserved": 0, "rental_uris": {"android": "https://dc.lft.to/lastmile_qr_scan", "ios": "https://dc.lft.to/lastmile_qr_scan"}, "fusion_lon": 0.0}, {"lat": 38.91565533333333, "is_disabled": 0, "type": "electric_scooter", "lon": -77.03167683333334, "bike_id": "c9c362f40efe7802c270a06cba269e81", "fusion_lat": 0.0, "name": "c9c362f40efe7802c270a06cba269e81", "is_reserved": 0, "rental_uris": {"android": "https://dc.lft.to/lastmile_qr_scan", "ios": "https://dc.lft.to/lastmile_qr_scan"}, "fusion_lon": 0.0}, {"lat": 38.953570666666664, "is_disabled": 0, "type": "electric_bike", "lon": -76.98096983333333, "bike_id": "ad772ce287a42431c67ccfd087bca45b", "fusion_lat": 0.0, "name": "ad772ce287a42431c67ccfd087bca45b", "is_reserved": 0, "rental_uris": {"android": "https://dc.lft.to/lastmile_qr_scan", "ios": "https://dc.lft.to/lastmile_qr_scan"}, "fusion_lon": 0.0}, {"lat": 38.88752083333333, "is_disabled": 0, "type": "electric_scooter", "lon": -77.03228366666667, "bike_id": "12b81db6c0f30f1552a9708e9f3b9cf8", "fusion_lat": 0.0, "name": "12b81db6c0f30f1552a9708e9f3b9cf8", "is_reserved": 0, "rental_uris": {"android": "https://dc.lft.to/lastmile_qr_scan", "ios": "https://dc.lft.to/lastmile_qr_scan"}, "fusion_lon": 0.0}, {"lat": 39.000113666666664, "is_disabled": 0, "type": "electric_bike", "lon": -76.910837, "bike_id": "3416ada5f88112487d4b51b59a9270a4", "fusion_lat": 0.0, "name": "3416ada5f88112487d4b51b59a9270a4", "is_reserved": 0, "rental_uris": {"android": "https://dc.lft.to/lastmile_qr_scan", "ios": "https://dc.lft.to/lastmile_qr_scan"}, "fusion_lon": 0.0}, {"lat": 38.91101533333333, "is_disabled": 0, "type": "electric_scooter", "lon": -77.03191016666666, "bike_id": "c19b2f8cdd6809353d685b86c1986876", "fusion_lat": 0.0, "name": "c19b2f8cdd6809353d685b86c1986876", "is_reserved": 0, "rental_uris": {"android": "https://dc.lft.to/lastmile_qr_scan", "ios": "https://dc.lft.to/lastmile_qr_scan"}, "fusion_lon": 0.0}, {"lat": 38.865664, "is_disabled": 0, "type": "electric_scooter", "lon": -76.974241, "bike_id": "b36c235aaaf3ada71044086330b7863a", "fusion_lat": 0.0, "name": "b36c235aaaf3ada71044086330b7863a", "is_reserved": 0, "rental_uris": {"android": "https://dc.lft.to/lastmile_qr_scan", "ios": "https://dc.lft.to/lastmile_qr_scan"}, "fusion_lon": 0.0}, {"lat": 38.863874, "is_disabled": 0, "type": "electric_bike", "lon": -76.98992266666667, "bike_id": "c810fe8c2ef6ae27cdafac2908989a99", "fusion_lat": 0.0, "name": "c810fe8c2ef6ae27cdafac2908989a99", "is_reserved": 0, "rental_uris": {"android": "https://dc.lft.to/lastmile_qr_scan", "ios": "https://dc.lft.to/lastmile_qr_scan"}, "fusion_lon": 0.0}, {"lat": 38.941781, "is_disabled": 0, "type": "electric_scooter", "lon": -77.04134616666667, "bike_id": "5eca6a62ecf9740a06b7ec762a22e4a9", "fusion_lat": 0.0, "name": "5eca6a62ecf9740a06b7ec762a22e4a9", "is_reserved": 0, "rental_uris": {"android": "https://dc.lft.to/lastmile_qr_scan", "ios": "https://dc.lft.to/lastmile_qr_scan"}, "fusion_lon": 0.0}, {"lat": 38.93464266666667, "is_disabled": 0, "type": "electric_scooter", "lon": -77.06189566666667, "bike_id": "8662fb10802d608c58d2826bce3b3cdc", "fusion_lat": 0.0, "name": "8662fb10802d608c58d2826bce3b3cdc", "is_reserved": 0, "rental_uris": {"android": "https://dc.lft.to/lastmile_qr_scan", "ios": "https://dc.lft.to/lastmile_qr_scan"}, "fusion_lon": 0.0}, {"lat": 38.901499, "is_disabled": 0, "type": "electric_scooter", "lon": -77.0328695, "bike_id": "121eade3a667b37949ce2633c7adac87", "fusion_lat": 0.0, "name": "121eade3a667b37949ce2633c7adac87", "is_reserved": 0, "rental_uris": {"android": "https://dc.lft.to/lastmile_qr_scan", "ios": "https://dc.lft.to/lastmile_qr_scan"}, "fusion_lon": 0.0}, {"lat": 38.917569666666665, "is_disabled": 0, "type": "electric_scooter", "lon": -77.0116155, "bike_id": "b7d65f5cae0b5ac6c987116887a45fb2", "fusion_lat": 0.0, "name": "b7d65f5cae0b5ac6c987116887a45fb2", "is_reserved": 0, "rental_uris": {"android": "https://dc.lft.to/lastmile_qr_scan", "ios": "https://dc.lft.to/lastmile_qr_scan"}, "fusion_lon": 0.0}, {"lat": 38.861067, "is_disabled": 0, "type": "electric_scooter", "lon": -76.9887985, "bike_id": "e4eb2b9a30cba65e5ceb0141e7b551fa", "fusion_lat": 0.0, "name": "e4eb2b9a30cba65e5ceb0141e7b551fa", "is_reserved": 0, "rental_uris": {"android": "https://dc.lft.to/lastmile_qr_scan", "ios": "https://dc.lft.to/lastmile_qr_scan"}, "fusion_lon": 0.0}, {"lat": 38.90733866666667, "is_disabled": 0, "type": "electric_scooter", "lon": -77.0296465, "bike_id": "34741118b2fe887362f9d8e49fe57533", "fusion_lat": 0.0, "name": "34741118b2fe887362f9d8e49fe57533", "is_reserved": 0, "rental_uris": {"android": "https://dc.lft.to/lastmile_qr_scan", "ios": "https://dc.lft.to/lastmile_qr_scan"}, "fusion_lon": 0.0}, {"lat": 38.896195666666664, "is_disabled": 0, "type": "electric_scooter", "lon": -77.03161516666667, "bike_id": "1021e6b2984c7a98f5190e6fe4274a67", "fusion_lat": 0.0, "name": "1021e6b2984c7a98f5190e6fe4274a67", "is_reserved": 0, "rental_uris": {"android": "https://dc.lft.to/lastmile_qr_scan", "ios": "https://dc.lft.to/lastmile_qr_scan"}, "fusion_lon": 0.0}, {"lat": 38.8962065, "is_disabled": 0, "type": "electric_scooter", "lon": -77.0316205, "bike_id": "f0d0daaad175631d62d80a6ec224b1ba", "fusion_lat": 0.0, "name": "f0d0daaad175631d62d80a6ec224b1ba", "is_reserved": 0, "rental_uris": {"android": "https://dc.lft.to/lastmile_qr_scan", "ios": "https://dc.lft.to/lastmile_qr_scan"}, "fusion_lon": 0.0}, {"lat": 38.966104, "is_disabled": 0, "type": "electric_scooter", "lon": -77.02054783333334, "bike_id": "355ef77029853d2d76fa99ba41df14f0", "fusion_lat": 0.0, "name": "355ef77029853d2d76fa99ba41df14f0", "is_reserved": 0, "rental_uris": {"android": "https://dc.lft.to/lastmile_qr_scan", "ios": "https://dc.lft.to/lastmile_qr_scan"}, "fusion_lon": 0.0}, {"lat": 38.90735033333333, "is_disabled": 0, "type": "electric_bike", "lon": -77.010635, "bike_id": "42193afeb1b19b995635d0283ca011f4", "fusion_lat": 0.0, "name": "42193afeb1b19b995635d0283ca011f4", "is_reserved": 0, "rental_uris": {"android": "https://dc.lft.to/lastmile_qr_scan", "ios": "https://dc.lft.to/lastmile_qr_scan"}, "fusion_lon": 0.0}, {"lat": 38.90060916666667, "is_disabled": 0, "type": "electric_scooter", "lon": -77.00215133333333, "bike_id": "805a385b8d1f12ffabe7d3d86e66192d", "fusion_lat": 0.0, "name": "805a385b8d1f12ffabe7d3d86e66192d", "is_reserved": 0, "rental_uris": {"android": "https://dc.lft.to/lastmile_qr_scan", "ios": "https://dc.lft.to/lastmile_qr_scan"}, "fusion_lon": 0.0}, {"lat": 38.91762933333333, "is_disabled": 0, "type": "electric_scooter", "lon": -77.03211733333333, "bike_id": "79926b3cc8d8953930b64e0edb83c2c8", "fusion_lat": 0.0, "name": "79926b3cc8d8953930b64e0edb83c2c8", "is_reserved": 0, "rental_uris": {"android": "https://dc.lft.to/lastmile_qr_scan", "ios": "https://dc.lft.to/lastmile_qr_scan"}, "fusion_lon": 0.0}, {"lat": 38.85380216666667, "is_disabled": 0, "type": "electric_bike", "lon": -77.124219, "bike_id": "fbfffd286013a7e5cd1c894975351584", "fusion_lat": 0.0, "name": "fbfffd286013a7e5cd1c894975351584", "is_reserved": 0, "rental_uris": {"android": "https://dc.lft.to/lastmile_qr_scan", "ios": "https://dc.lft.to/lastmile_qr_scan"}, "fusion_lon": 0.0}, {"lat": 38.905655, "is_disabled": 0, "type": "electric_scooter", "lon": -77.0466075, "bike_id": "1ac3ea075fbeac8bc1f6e2372be3da84", "fusion_lat": 0.0, "name": "1ac3ea075fbeac8bc1f6e2372be3da84", "is_reserved": 0, "rental_uris": {"android": "https://dc.lft.to/lastmile_qr_scan", "ios": "https://dc.lft.to/lastmile_qr_scan"}, "fusion_lon": 0.0}, {"lat": 38.90406383333333, "is_disabled": 0, "type": "electric_scooter", "lon": -76.985072, "bike_id": "bcba7e9132a6d9d834b468cd11664cdc", "fusion_lat": 0.0, "name": "bcba7e9132a6d9d834b468cd11664cdc", "is_reserved": 0, "rental_uris": {"android": "https://dc.lft.to/lastmile_qr_scan", "ios": "https://dc.lft.to/lastmile_qr_scan"}, "fusion_lon": 0.0}, {"lat": 38.92535683333333, "is_disabled": 0, "type": "electric_scooter", "lon": -77.041368, "bike_id": "f259333c1558b0301bbbf5254e7b76ee", "fusion_lat": 0.0, "name": "f259333c1558b0301bbbf5254e7b76ee", "is_reserved": 0, "rental_uris": {"android": "https://dc.lft.to/lastmile_qr_scan", "ios": "https://dc.lft.to/lastmile_qr_scan"}, "fusion_lon": 0.0}, {"lat": 38.89986716666667, "is_disabled": 0, "type": "electric_scooter", "lon": -77.052537, "bike_id": "d4ceab726dad678e4095fdb952845f3b", "fusion_lat": 0.0, "name": "d4ceab726dad678e4095fdb952845f3b", "is_reserved": 0, "rental_uris": {"android": "https://dc.lft.to/lastmile_qr_scan", "ios": "https://dc.lft.to/lastmile_qr_scan"}, "fusion_lon": 0.0}, {"lat": 38.89465083333333, "is_disabled": 0, "type": "electric_scooter", "lon": -77.02681483333333, "bike_id": "de46bd68a4792583e8f84d912b59abb1", "fusion_lat": 0.0, "name": "de46bd68a4792583e8f84d912b59abb1", "is_reserved": 0, "rental_uris": {"android": "https://dc.lft.to/lastmile_qr_scan", "ios": "https://dc.lft.to/lastmile_qr_scan"}, "fusion_lon": 0.0}, {"lat": 38.895781, "is_disabled": 0, "type": "electric_scooter", "lon": -76.98179683333333, "bike_id": "7a52c1787085e651310c61a833a40477", "fusion_lat": 0.0, "name": "7a52c1787085e651310c61a833a40477", "is_reserved": 0, "rental_uris": {"android": "https://dc.lft.to/lastmile_qr_scan", "ios": "https://dc.lft.to/lastmile_qr_scan"}, "fusion_lon": 0.0}, {"lat": 38.900239, "is_disabled": 0, "type": "electric_scooter", "lon": -77.0331205, "bike_id": "876d6fafa9565cce86ccd465dd882f3a", "fusion_lat": 0.0, "name": "876d6fafa9565cce86ccd465dd882f3a", "is_reserved": 0, "rental_uris": {"android": "https://dc.lft.to/lastmile_qr_scan", "ios": "https://dc.lft.to/lastmile_qr_scan"}, "fusion_lon": 0.0}, {"lat": 38.89992216666667, "is_disabled": 0, "type": "electric_scooter", "lon": -77.02678333333333, "bike_id": "e5f0a6edfb12f12c697487f247b65ba3", "fusion_lat": 0.0, "name": "e5f0a6edfb12f12c697487f247b65ba3", "is_reserved": 0, "rental_uris": {"android": "https://dc.lft.to/lastmile_qr_scan", "ios": "https://dc.lft.to/lastmile_qr_scan"}, "fusion_lon": 0.0}, {"lat": 38.85086233333333, "is_disabled": 0, "type": "electric_bike", "lon": -76.95680466666667, "bike_id": "5965c11ee26fd949d26802bd234961d1", "fusion_lat": 0.0, "name": "5965c11ee26fd949d26802bd234961d1", "is_reserved": 0, "rental_uris": {"android": "https://dc.lft.to/lastmile_qr_scan", "ios": "https://dc.lft.to/lastmile_qr_scan"}, "fusion_lon": 0.0}, {"lat": 38.911044833333335, "is_disabled": 0, "type": "electric_scooter", "lon": -77.0483575, "bike_id": "abde670023d67cc028a01edc10b1357e", "fusion_lat": 0.0, "name": "abde670023d67cc028a01edc10b1357e", "is_reserved": 0, "rental_uris": {"android": "https://dc.lft.to/lastmile_qr_scan", "ios": "https://dc.lft.to/lastmile_qr_scan"}, "fusion_lon": 0.0}, {"lat": 38.90741583333333, "is_disabled": 0, "type": "electric_scooter", "lon": -77.03442183333334, "bike_id": "c375627c84b109a5cd9d50bde058cbe1", "fusion_lat": 0.0, "name": "c375627c84b109a5cd9d50bde058cbe1", "is_reserved": 0, "rental_uris": {"android": "https://dc.lft.to/lastmile_qr_scan", "ios": "https://dc.lft.to/lastmile_qr_scan"}, "fusion_lon": 0.0}, {"lat": 38.910366, "is_disabled": 0, "type": "electric_scooter", "lon": -77.038661, "bike_id": "cf3ed01f4e6dc92e5a6fef6e249571ed", "fusion_lat": 0.0, "name": "cf3ed01f4e6dc92e5a6fef6e249571ed", "is_reserved": 0, "rental_uris": {"android": "https://dc.lft.to/lastmile_qr_scan", "ios": "https://dc.lft.to/lastmile_qr_scan"}, "fusion_lon": 0.0}, {"lat": 38.896074, "is_disabled": 0, "type": "electric_scooter", "lon": -77.05467783333333, "bike_id": "f4d95ea314f39d0af92f1d71680c93e7", "fusion_lat": 0.0, "name": "f4d95ea314f39d0af92f1d71680c93e7", "is_reserved": 0, "rental_uris": {"android": "https://dc.lft.to/lastmile_qr_scan", "ios": "https://dc.lft.to/lastmile_qr_scan"}, "fusion_lon": 0.0}, {"lat": 38.91792133333333, "is_disabled": 0, "type": "electric_scooter", "lon": -77.03439916666666, "bike_id": "1ef8b3a528d318f0ec9e8efada554f22", "fusion_lat": 0.0, "name": "1ef8b3a528d318f0ec9e8efada554f22", "is_reserved": 0, "rental_uris": {"android": "https://dc.lft.to/lastmile_qr_scan", "ios": "https://dc.lft.to/lastmile_qr_scan"}, "fusion_lon": 0.0}, {"lat": 38.90148716666667, "is_disabled": 0, "type": "electric_scooter", "lon": -77.00066316666667, "bike_id": "1dbaa6cbf82391da25726f7dd786cd1c", "fusion_lat": 0.0, "name": "1dbaa6cbf82391da25726f7dd786cd1c", "is_reserved": 0, "rental_uris": {"android": "https://dc.lft.to/lastmile_qr_scan", "ios": "https://dc.lft.to/lastmile_qr_scan"}, "fusion_lon": 0.0}, {"lat": 38.8789035, "is_disabled": 0, "type": "electric_scooter", "lon": -77.02206383333333, "bike_id": "8683824f3d6718c49c0c530415fe5095", "fusion_lat": 0.0, "name": "8683824f3d6718c49c0c530415fe5095", "is_reserved": 0, "rental_uris": {"android": "https://dc.lft.to/lastmile_qr_scan", "ios": "https://dc.lft.to/lastmile_qr_scan"}, "fusion_lon": 0.0}, {"lat": 38.91431683333333, "is_disabled": 0, "type": "electric_scooter", "lon": -77.02345133333333, "bike_id": "ec89b34897c7584dbd9256dc74e55bb5", "fusion_lat": 0.0, "name": "ec89b34897c7584dbd9256dc74e55bb5", "is_reserved": 0, "rental_uris": {"android": "https://dc.lft.to/lastmile_qr_scan", "ios": "https://dc.lft.to/lastmile_qr_scan"}, "fusion_lon": 0.0}, {"lat": 38.90271333333333, "is_disabled": 0, "type": "electric_scooter", "lon": -77.06246016666667, "bike_id": "d79ce83bfd80ad778fb64d1d595acf16", "fusion_lat": 0.0, "name": "d79ce83bfd80ad778fb64d1d595acf16", "is_reserved": 0, "rental_uris": {"android": "https://dc.lft.to/lastmile_qr_scan", "ios": "https://dc.lft.to/lastmile_qr_scan"}, "fusion_lon": 0.0}, {"lat": 38.89938983333333, "is_disabled": 0, "type": "electric_scooter", "lon": -77.02556983333334, "bike_id": "8871f190775a9f4c0e7e73ff0c4fef03", "fusion_lat": 0.0, "name": "8871f190775a9f4c0e7e73ff0c4fef03", "is_reserved": 0, "rental_uris": {"android": "https://dc.lft.to/lastmile_qr_scan", "ios": "https://dc.lft.to/lastmile_qr_scan"}, "fusion_lon": 0.0}, {"lat": 38.917069833333336, "is_disabled": 0, "type": "electric_scooter", "lon": -77.04037016666666, "bike_id": "e3aba35c0d9b64557bf868adda430264", "fusion_lat": 0.0, "name": "e3aba35c0d9b64557bf868adda430264", "is_reserved": 0, "rental_uris": {"android": "https://dc.lft.to/lastmile_qr_scan", "ios": "https://dc.lft.to/lastmile_qr_scan"}, "fusion_lon": 0.0}, {"lat": 38.905675333333335, "is_disabled": 0, "type": "electric_scooter", "lon": -77.0217695, "bike_id": "98a09eda8c8c096a956e0e5dc35c6677", "fusion_lat": 0.0, "name": "98a09eda8c8c096a956e0e5dc35c6677", "is_reserved": 0, "rental_uris": {"android": "https://dc.lft.to/lastmile_qr_scan", "ios": "https://dc.lft.to/lastmile_qr_scan"}, "fusion_lon": 0.0}, {"lat": 38.91744633333333, "is_disabled": 0, "type": "electric_scooter", "lon": -77.04427933333334, "bike_id": "6b1824a2c394e33734820c3e08faa8e1", "fusion_lat": 0.0, "name": "6b1824a2c394e33734820c3e08faa8e1", "is_reserved": 0, "rental_uris": {"android": "https://dc.lft.to/lastmile_qr_scan", "ios": "https://dc.lft.to/lastmile_qr_scan"}, "fusion_lon": 0.0}, {"lat": 38.8971915, "is_disabled": 0, "type": "electric_scooter", "lon": -77.00794566666667, "bike_id": "ca22658945c9a995356c878b29368ffc", "fusion_lat": 0.0, "name": "ca22658945c9a995356c878b29368ffc", "is_reserved": 0, "rental_uris": {"android": "https://dc.lft.to/lastmile_qr_scan", "ios": "https://dc.lft.to/lastmile_qr_scan"}, "fusion_lon": 0.0}, {"lat": 38.850326, "is_disabled": 0, "type": "electric_bike", "lon": -76.972954, "bike_id": "f40a0728ef30410547293f8c59c76e7f", "fusion_lat": 0.0, "name": "f40a0728ef30410547293f8c59c76e7f", "is_reserved": 0, "rental_uris": {"android": "https://dc.lft.to/lastmile_qr_scan", "ios": "https://dc.lft.to/lastmile_qr_scan"}, "fusion_lon": 0.0}, {"lat": 38.90269833333333, "is_disabled": 0, "type": "electric_scooter", "lon": -77.05261733333333, "bike_id": "b44f39a00f34cd3a5c9daaae7647cbcd", "fusion_lat": 0.0, "name": "b44f39a00f34cd3a5c9daaae7647cbcd", "is_reserved": 0, "rental_uris": {"android": "https://dc.lft.to/lastmile_qr_scan", "ios": "https://dc.lft.to/lastmile_qr_scan"}, "fusion_lon": 0.0}, {"lat": 38.908167666666664, "is_disabled": 0, "type": "electric_scooter", "lon": -77.0184435, "bike_id": "a9a1ccd283c35f36e4701ec8c280a4ba", "fusion_lat": 0.0, "name": "a9a1ccd283c35f36e4701ec8c280a4ba", "is_reserved": 0, "rental_uris": {"android": "https://dc.lft.to/lastmile_qr_scan", "ios": "https://dc.lft.to/lastmile_qr_scan"}, "fusion_lon": 0.0}, {"lat": 38.90421933333333, "is_disabled": 0, "type": "electric_scooter", "lon": -77.0346355, "bike_id": "dd5d2ec5fc96babe90946e599cad40de", "fusion_lat": 0.0, "name": "dd5d2ec5fc96babe90946e599cad40de", "is_reserved": 0, "rental_uris": {"android": "https://dc.lft.to/lastmile_qr_scan", "ios": "https://dc.lft.to/lastmile_qr_scan"}, "fusion_lon": 0.0}, {"lat": 38.92238783333333, "is_disabled": 0, "type": "electric_scooter", "lon": -77.0457385, "bike_id": "be404c3c436c8655e3449e45dce76b6b", "fusion_lat": 0.0, "name": "be404c3c436c8655e3449e45dce76b6b", "is_reserved": 0, "rental_uris": {"android": "https://dc.lft.to/lastmile_qr_scan", "ios": "https://dc.lft.to/lastmile_qr_scan"}, "fusion_lon": 0.0}, {"lat": 38.919183833333335, "is_disabled": 0, "type": "electric_scooter", "lon": -77.07050983333333, "bike_id": "3197fdd986064a445cbadf6b9b13d3ac", "fusion_lat": 0.0, "name": "3197fdd986064a445cbadf6b9b13d3ac", "is_reserved": 0, "rental_uris": {"android": "https://dc.lft.to/lastmile_qr_scan", "ios": "https://dc.lft.to/lastmile_qr_scan"}, "fusion_lon": 0.0},