{"data": {"bikes": [{"fusion_lat": 0.0, "type": "electric_scooter", "name": "48c2fb3fa252cb08f71847c5b8c509c5", "fusion_lon": 0.0, "bike_id": "48c2fb3fa252cb08f71847c5b8c509c5", "is_reserved": 0, "rental_uris": {"android": "https://dc.lft.to/lastmile_qr_scan", "ios": "https://dc.lft.to/lastmile_qr_scan"}, "lat": 38.920517, "is_disabled": 0, "lon": -77.016251}, {"fusion_lat": 0.0, "type": "electric_scooter", "name": "10f7534f5f640786951cdc262389a620", "fusion_lon": 0.0, "bike_id": "10f7534f5f640786951cdc262389a620", "is_reserved": 0, "rental_uris": {"android": "https://dc.lft.to/lastmile_qr_scan", "ios": "https://dc.lft.to/lastmile_qr_scan"}, "lat": 38.94902533333333, "is_disabled": 0, "lon": -77.006463}, {"fusion_lat": 0.0, "type": "electric_scooter", "name": "2bafa5bd12aa09ccd267f20e112e5a9b", "fusion_lon": 0.0, "bike_id": "2bafa5bd12aa09ccd267f20e112e5a9b", "is_reserved": 0, "rental_uris": {"android": "https://dc.lft.to/lastmile_qr_scan", "ios": "https://dc.lft.to/lastmile_qr_scan"}, "lat": 38.89220066666667, "is_disabled": 0, "lon": -77.02350533333333}, {"fusion_lat": 0.0, "type": "electric_scooter", "name": "4ec885b2d448387dd7d8cd66eb195b49", "fusion_lon": 0.0, "bike_id": "4ec885b2d448387dd7d8cd66eb195b49", "is_reserved": 0, "rental_uris": {"android": "https://dc.lft.to/lastmile_qr_scan", "ios": "https://dc.lft.to/lastmile_qr_scan"}, "lat": 38.917880333333336, "is_disabled": 0, "lon": -77.023146}, {"fusion_lat": 0.0, "type": "electric_scooter", "name": "26329c5bb3a364d425222f8a0b9e6f2a", "fusion_lon": 0.0, "bike_id": "26329c5bb3a364d425222f8a0b9e6f2a", "is_reserved": 0, "rental_uris": {"android": "https://dc.lft.to/lastmile_qr_scan", "ios": "https://dc.lft.to/lastmile_qr_scan"}, "lat": 38.898537166666664, "is_disabled": 0, "lon": -77.03305983333334}, {"fusion_lat": 0.0, "type": "electric_scooter", "name": "9de243eeb889c0c283b2c0732c85ffde", "fusion_lon": 0.0, "bike_id": "9de243eeb889c0c283b2c0732c85ffde", "is_reserved": 0, "rental_uris": {"android": "https://dc.lft.to/lastmile_qr_scan", "ios": "https://dc.lft.to/lastmile_qr_scan"}, "lat": 38.92012166666667, "is_disabled": 0, "lon": -77.0237375}, {"fusion_lat": 0.0, "type": "electric_scooter", "name": "edc0436b3bd01de3e7623b9dc217451f", "fusion_lon": 0.0, "bike_id": "edc0436b3bd01de3e7623b9dc217451f", "is_reserved": 0, "rental_uris": {"android": "https://dc.lft.to/lastmile_qr_scan", "ios": "https://dc.lft.to/lastmile_qr_scan"}, "lat": 38.911213000000004, "is_disabled": 0, "lon": -77.043704}, {"fusion_lat": 0.0, "type": "electric_scooter", "name": "07e0a212237037bf46cd1802bfaa8247", "fusion_lon": 0.0, "bike_id": "07e0a212237037bf46cd1802bfaa8247", "is_reserved": 0, "rental_uris": {"android": "https://dc.lft.to/lastmile_qr_scan", "ios": "https://dc.lft.to/lastmile_qr_scan"}, "lat": 38.887429, "is_disabled": 0, "lon": -77.02733766666667}, {"fusion_lat": 0.0, "type": "electric_scooter", "name": "7612affad43fb91f0ac473ab7481f3a1", "fusion_lon": 0.0, "bike_id": "7612affad43fb91f0ac473ab7481f3a1", "is_reserved": 0, "rental_uris": {"android": "https://dc.lft.to/lastmile_qr_scan", "ios": "https://dc.lft.to/lastmile_qr_scan"}, "lat": 38.918839166666665, "is_disabled": 0, "lon": -77.03767783333333}, {"fusion_lat": 0.0, "type": "electric_scooter", "name": "1596086f30d23efc99789eaa51b031a8", "fusion_lon": 0.0, "bike_id": "1596086f30d23efc99789eaa51b031a8", "is_reserved": 0, "rental_uris": {"android": "https://dc.lft.to/lastmile_qr_scan", "ios": "https://dc.lft.to/lastmile_qr_scan"}, "lat": 38.85733166666667, "is_disabled": 0, "lon": -76.989358}, {"fusion_lat": 0.0, "type": "electric_scooter", "name": "064603d9788b37f886262b966dbd95a4", "fusion_lon": 0.0, "bike_id": "064603d9788b37f886262b966dbd95a4", "is_reserved": 0, "rental_uris": {"android": "https://dc.lft.to/lastmile_qr_scan", "ios": "https://dc.lft.to/lastmile_qr_scan"}, "lat": 38.877833, "is_disabled": 0, "lon": -76.99357833333333}, {"fusion_lat": 0.0, "type": "electric_scooter", "name": "1fa32e755c17403fafda5367b7d7e766", "fusion_lon": 0.0, "bike_id": "1fa32e755c17403fafda5367b7d7e766", "is_reserved": 0, "rental_uris": {"android": "https://dc.lft.to/lastmile_qr_scan", "ios": "https://dc.lft.to/lastmile_qr_scan"}, "lat": 38.874748833333335, "is_disabled": 0, "lon": -77.01135783333334}, {"fusion_lat": 0.0, "type": "electric_scooter", "name": "5cd39fcd354ef6a4d54ac50dbf4c2ed6", "fusion_lon": 0.0, "bike_id": "5cd39fcd354ef6a4d54ac50dbf4c2ed6", "is_reserved": 0, "rental_uris": {"android": "https://dc.lft.to/lastmile_qr_scan", "ios": "https://dc.lft.to/lastmile_qr_scan"}, "lat": 38.92279816666667, "is_disabled": 0, "lon": -77.03891566666667}, {"fusion_lat": 0.0, "type": "electric_scooter", "name": "9063ce902005d34c43a624b33ac3ebcb", "fusion_lon": 0.0, "bike_id": "9063ce902005d34c43a624b33ac3ebcb", "is_reserved": 0, "rental_uris": {"android": "https://dc.lft.to/lastmile_qr_scan", "ios": "https://dc.lft.to/lastmile_qr_scan"}, "lat": 38.87659166666667, "is_disabled": 0, "lon": -76.9944995}, {"fusion_lat": 0.0, "type": "electric_scooter", "name": "0ff3061ec56943af34b20cef09144128", "fusion_lon": 0.0, "bike_id": "0ff3061ec56943af34b20cef09144128", "is_reserved": 0, "rental_uris": {"android": "https://dc.lft.to/lastmile_qr_scan", "ios": "https://dc.lft.to/lastmile_qr_scan"}, "lat": 38.900231166666664, "is_disabled": 0, "lon": -77.01849566666667}, {"fusion_lat": 0.0, "type": "electric_scooter", "name": "8a513ffbdfc0d391d5be9226d6ee0dce", "fusion_lon": 0.0, "bike_id": "8a513ffbdfc0d391d5be9226d6ee0dce", "is_reserved": 0, "rental_uris": {"android": "https://dc.lft.to/lastmile_qr_scan", "ios": "https://dc.lft.to/lastmile_qr_scan"}, "lat": 38.865011333333335, "is_disabled": 0, "lon": -76.990034}, {"fusion_lat": 0.0, "type": "electric_scooter", "name": "dabdc729ef41d4d0cc71162b107438b8", "fusion_lon": 0.0, "bike_id": "dabdc729ef41d4d0cc71162b107438b8", "is_reserved": 0, "rental_uris": {"android": "https://dc.lft.to/lastmile_qr_scan", "ios": "https://dc.lft.to/lastmile_qr_scan"}, "lat": 38.89876616666667, "is_disabled": 0, "lon": -76.93186833333333}, {"fusion_lat": 0.0, "type": "electric_scooter", "name": "6edc7a9698a2ebe3e65df1f1604c94c5", "fusion_lon": 0.0, "bike_id": "6edc7a9698a2ebe3e65df1f1604c94c5", "is_reserved": 0, "rental_uris": {"android": "https://dc.lft.to/lastmile_qr_scan", "ios": "https://dc.lft.to/lastmile_qr_scan"}, "lat": 38.93609716666667, "is_disabled": 0, "lon": -77.05893783333333}, {"fusion_lat": 0.0, "type": "electric_bike", "name": "0ef0d405ccfbd9344d3851c1d8ea306b", "fusion_lon": 0.0, "bike_id": "0ef0d405ccfbd9344d3851c1d8ea306b", "is_reserved": 0, "rental_uris": {"android": "https://dc.lft.to/lastmile_qr_scan", "ios": "https://dc.lft.to/lastmile_qr_scan"}, "lat": 38.9576185, "is_disabled": 0, "lon": -77.007091}, {"fusion_lat": 0.0, "type": "electric_scooter", "name": "cb2c8eec8c54131b6faca6c6a4e8bd00", "fusion_lon": 0.0, "bike_id": "cb2c8eec8c54131b6faca6c6a4e8bd00", "is_reserved": 0, "rental_uris": {"android": "https://dc.lft.to/lastmile_qr_scan", "ios": "https://dc.lft.to/lastmile_qr_scan"}, "lat": 38.925081, "is_disabled": 0, "lon": -77.00224666666666}, {"fusion_lat": 0.0, "type": "electric_scooter", "name": "ef1f05b4506d9b8b8ed94a4699f91810", "fusion_lon": 0.0, "bike_id": "ef1f05b4506d9b8b8ed94a4699f91810", "is_reserved": 0, "rental_uris": {"android": "https://dc.lft.to/lastmile_qr_scan", "ios": "https://dc.lft.to/lastmile_qr_scan"}, "lat": 38.886188833333335, "is_disabled": 0, "lon": -77.01979733333333}, {"fusion_lat": 0.0, "type": "electric_scooter", "name": "5c07dff314431c8eea3467379a4990a3", "fusion_lon": 0.0, "bike_id": "5c07dff314431c8eea3467379a4990a3", "is_reserved": 0, "rental_uris": {"android": "https://dc.lft.to/lastmile_qr_scan", "ios": "https://dc.lft.to/lastmile_qr_scan"}, "lat": 38.90162333333333, "is_disabled": 0, "lon": -77.051158}, {"fusion_lat": 0.0, "type": "electric_scooter", "name": "f236323b2ebca56b7e384359c7fdb8ca", "fusion_lon": 0.0, "bike_id": "f236323b2ebca56b7e384359c7fdb8ca", "is_reserved": 0, "rental_uris": {"android": "https://dc.lft.to/lastmile_qr_scan", "ios": "https://dc.lft.to/lastmile_qr_scan"}, "lat": 38.949874, "is_disabled": 0, "lon": -77.02705333333333}, {"fusion_lat": 0.0, "type": "electric_scooter", "name": "dc15dd168270be501484ad24f7e77257", "fusion_lon": 0.0, "bike_id": "dc15dd168270be501484ad24f7e77257", "is_reserved": 0, "rental_uris": {"android": "https://dc.lft.to/lastmile_qr_scan", "ios": "https://dc.lft.to/lastmile_qr_scan"}, "lat": 38.871886833333335, "is_disabled": 0, "lon": -77.00586533333333}, {"fusion_lat": 0.0, "type": "electric_scooter", "name": "7d845a67360cd5b2af42ac4b27e46830", "fusion_lon": 0.0, "bike_id": "7d845a67360cd5b2af42ac4b27e46830", "is_reserved": 0, "rental_uris": {"android": "https://dc.lft.to/lastmile_qr_scan", "ios": "https://dc.lft.to/lastmile_qr_scan"}, "lat": 38.919514166666666, "is_disabled": 0, "lon": -77.02316416666666}, {"fusion_lat": 0.0, "type": "electric_scooter", "name": "f9cc884d60627b7b6abc0b5a2ae795cc", "fusion_lon": 0.0, "bike_id": "f9cc884d60627b7b6abc0b5a2ae795cc", "is_reserved": 0, "rental_uris": {"android": "https://dc.lft.to/lastmile_qr_scan", "ios": "https://dc.lft.to/lastmile_qr_scan"}, "lat": 38.89006083333334, "is_disabled": 0, "lon": -76.95943316666667}, {"fusion_lat": 0.0, "type": "electric_scooter", "name": "06a38ee567949f25d821e7c96115cf11", "fusion_lon": 0.0, "bike_id": "06a38ee567949f25d821e7c96115cf11", "is_reserved": 0, "rental_uris": {"android": "https://dc.lft.to/lastmile_qr_scan", "ios": "https://dc.lft.to/lastmile_qr_scan"}, "lat": 38.911306833333335, "is_disabled": 0, "lon": -77.0441365}, {"fusion_lat": 0.0, "type": "electric_scooter", "name": "ca1db107380c43ef5cae4f7927ccf7d2", "fusion_lon": 0.0, "bike_id": "ca1db107380c43ef5cae4f7927ccf7d2", "is_reserved": 0, "rental_uris": {"android": "https://dc.lft.to/lastmile_qr_scan", "ios": "https://dc.lft.to/lastmile_qr_scan"}, "lat": 38.94198983333333, "is_disabled": 0, "lon": -77.02503616666667}, {"fusion_lat": 0.0, "type": "electric_scooter", "name": "3ce6be4f0faef5ad57d4950d0484e391", "fusion_lon": 0.0, "bike_id": "3ce6be4f0faef5ad57d4950d0484e391", "is_reserved": 0, "rental_uris": {"android": "https://dc.lft.to/lastmile_qr_scan", "ios": "https://dc.lft.to/lastmile_qr_scan"}, "lat": 38.916784166666666, "is_disabled": 0, "lon": -77.03667916666667}, {"fusion_lat": 0.0, "type": "electric_scooter", "name": "e4006b5f50542beb8cb191744ef10ae1", "fusion_lon": 0.0, "bike_id": "e4006b5f50542beb8cb191744ef10ae1", "is_reserved": 0, "rental_uris": {"android": "https://dc.lft.to/lastmile_qr_scan", "ios": "https://dc.lft.to/lastmile_qr_scan"}, "lat": 38.90727533333333, "is_disabled": 0, "lon": -77.03472583333334}, {"fusion_lat": 0.0, "type": "electric_scooter", "name": "87287600137f9c5541c5ecf0fcedb972", "fusion_lon": 0.0, "bike_id": "87287600137f9c5541c5ecf0fcedb972", "is_reserved": 0, "rental_uris": {"android": "https://dc.lft.to/lastmile_qr_scan", "ios": "https://dc.lft.to/lastmile_qr_scan"}, "lat": 38.924437166666664, "is_disabled": 0, "lon": -77.04109066666666}, {"fusion_lat": 0.0, "type": "electric_scooter", "name": "554f61a74e898eae337d5821a4461ccc", "fusion_lon": 0.0, "bike_id": "554f61a74e898eae337d5821a4461ccc", "is_reserved": 0, "rental_uris": {"android": "https://dc.lft.to/lastmile_qr_scan", "ios": "https://dc.lft.to/lastmile_qr_scan"}, "lat": 38.90086266666667, "is_disabled": 0, "lon": -77.047474}, {"fusion_lat": 0.0, "type": "electric_scooter", "name": "8af2c3f32d62278606e72abe3bc80c56", "fusion_lon": 0.0, "bike_id": "8af2c3f32d62278606e72abe3bc80c56", "is_reserved": 0, "rental_uris": {"android": "https://dc.lft.to/lastmile_qr_scan", "ios": "https://dc.lft.to/lastmile_qr_scan"}, "lat": 38.897991166666664, "is_disabled": 0, "lon": -77.02705266666666}, {"fusion_lat": 0.0, "type": "electric_scooter", "name": "81e6bab9e9d8e672e980d031346aac6c", "fusion_lon": 0.0, "bike_id": "81e6bab9e9d8e672e980d031346aac6c", "is_reserved": 0, "rental_uris": {"android": "https://dc.lft.to/lastmile_qr_scan", "ios": "https://dc.lft.to/lastmile_qr_scan"}, "lat": 38.88305016666666, "is_disabled": 0, "lon": -76.97868633333333}, {"fusion_lat": 0.0, "type": "electric_scooter", "name": "0077462e69e95969f0e382545d46be4c", "fusion_lon": 0.0, "bike_id": "0077462e69e95969f0e382545d46be4c", "is_reserved": 0, "rental_uris": {"android": "https://dc.lft.to/lastmile_qr_scan", "ios": "https://dc.lft.to/lastmile_qr_scan"}, "lat": 38.91552733333333, "is_disabled": 0, "lon": -77.03130366666667}, {"fusion_lat": 0.0, "type": "electric_scooter", "name": "c5e643284aec788a68da1808bdce4ca0", "fusion_lon": 0.0, "bike_id": "c5e643284aec788a68da1808bdce4ca0", "is_reserved": 0, "rental_uris": {"android": "https://dc.lft.to/lastmile_qr_scan", "ios": "https://dc.lft.to/lastmile_qr_scan"}, "lat": 38.89919066666667, "is_disabled": 0, "lon": -76.93381616666667}, {"fusion_lat": 0.0, "type": "electric_scooter", "name": "b09143590d9e8ef51f7224c7d6ffbf7e", "fusion_lon": 0.0, "bike_id": "b09143590d9e8ef51f7224c7d6ffbf7e", "is_reserved": 0, "rental_uris": {"android": "https://dc.lft.to/lastmile_qr_scan", "ios": "https://dc.lft.to/lastmile_qr_scan"}, "lat": 38.89251, "is_disabled": 0, "lon": -77.0466155}, {"fusion_lat": 0.0, "type": "electric_scooter", "name": "0b9c539c97b8145f6fe2ee90097760d3", "fusion_lon": 0.0, "bike_id": "0b9c539c97b8145f6fe2ee90097760d3", "is_reserved": 0, "rental_uris": {"android": "https://dc.lft.to/lastmile_qr_scan", "ios": "https://dc.lft.to/lastmile_qr_scan"}, "lat": 38.91553733333333, "is_disabled": 0, "lon": -77.0418055}, {"fusion_lat": 0.0, "type": "electric_scooter", "name": "e261ac76e534c897bbfd1a0ef32a2fec", "fusion_lon": 0.0, "bike_id": "e261ac76e534c897bbfd1a0ef32a2fec", "is_reserved": 0, "rental_uris": {"android": "https://dc.lft.to/lastmile_qr_scan", "ios": "https://dc.lft.to/lastmile_qr_scan"}, "lat": 38.892197833333334, "is_disabled": 0, "lon": -77.02346616666667}, {"fusion_lat": 0.0, "type": "electric_bike", "name": "ef8ab5992411f70fc66d48be52196f4a", "fusion_lon": 0.0, "bike_id": "ef8ab5992411f70fc66d48be52196f4a", "is_reserved": 0, "rental_uris": {"android": "https://dc.lft.to/lastmile_qr_scan", "ios": "https://dc.lft.to/lastmile_qr_scan"}, "lat": 39.062958333333334, "is_disabled": 0, "lon": -77.0498195}, {"fusion_lat": 0.0, "type": "electric_scooter", "name": "69dd4612e7640b2fcbef7b2529c0e0dc", "fusion_lon": 0.0, "bike_id": "69dd4612e7640b2fcbef7b2529c0e0dc", "is_reserved": 0, "rental_uris": {"android": "https://dc.lft.to/lastmile_qr_scan", "ios": "https://dc.lft.to/lastmile_qr_scan"}, "lat": 38.92116, "is_disabled": 0, "lon": -77.0366305}, {"fusion_lat": 0.0, "type": "electric_scooter", "name": "764d95b5489096bf6324ac791ba731ad", "fusion_lon": 0.0, "bike_id": "764d95b5489096bf6324ac791ba731ad", "is_reserved": 0, "rental_uris": {"android": "https://dc.lft.to/lastmile_qr_scan", "ios": "https://dc.lft.to/lastmile_qr_scan"}, "lat": 38.92757016666667, "is_disabled": 0, "lon": -77.03275983333333}, {"fusion_lat": 0.0, "type": "electric_scooter", "name": "6753111e2083af6b4ec5dcbcc065f3cf", "fusion_lon": 0.0, "bike_id": "6753111e2083af6b4ec5dcbcc065f3cf", "is_reserved": 0, "rental_uris": {"android": "https://dc.lft.to/lastmile_qr_scan", "ios": "https://dc.lft.to/lastmile_qr_scan"}, "lat": 38.8991945, "is_disabled": 0, "lon": -76.933756}, {"fusion_lat": 0.0, "type": "electric_scooter", "name": "c081d56687d097df1f82ea1f7e2791d8", "fusion_lon": 0.0, "bike_id": "c081d56687d097df1f82ea1f7e2791d8", "is_reserved": 0, "rental_uris": {"android": "https://dc.lft.to/lastmile_qr_scan", "ios": "https://dc.lft.to/lastmile_qr_scan"}, "lat": 38.939823833333335, "is_disabled": 0, "lon": -77.02977916666667}, {"fusion_lat": 0.0, "type": "electric_scooter", "name": "10090fbfd4d6312b39e56b0e5817337a", "fusion_lon": 0.0, "bike_id": "10090fbfd4d6312b39e56b0e5817337a", "is_reserved": 0, "rental_uris": {"android": "https://dc.lft.to/lastmile_qr_scan", "ios": "https://dc.lft.to/lastmile_qr_scan"}, "lat": 38.9132925, "is_disabled": 0, "lon": -77.04530366666667}, {"fusion_lat": 0.0, "type": "electric_scooter", "name": "081e3e8f67d9436837cabf4ebe547780", "fusion_lon": 0.0, "bike_id": "081e3e8f67d9436837cabf4ebe547780", "is_reserved": 0, "rental_uris": {"android": "https://dc.lft.to/lastmile_qr_scan", "ios": "https://dc.lft.to/lastmile_qr_scan"}, "lat": 38.92987183333334, "is_disabled": 0, "lon": -77.03473266666667}, {"fusion_lat": 0.0, "type": "electric_bike", "name": "938b92a4e2e5bcb2747a3cda29fdfcf5", "fusion_lon": 0.0, "bike_id": "938b92a4e2e5bcb2747a3cda29fdfcf5", "is_reserved": 0, "rental_uris": {"android": "https://dc.lft.to/lastmile_qr_scan", "ios": "https://dc.lft.to/lastmile_qr_scan"}, "lat": 38.8981485, "is_disabled": 0, "lon": -77.00605833333333}, {"fusion_lat": 0.0, "type": "electric_scooter", "name": "9ec6648d4929871f27404bca09acd322", "fusion_lon": 0.0, "bike_id": "9ec6648d4929871f27404bca09acd322", "is_reserved": 0, "rental_uris": {"android": "https://dc.lft.to/lastmile_qr_scan", "ios": "https://dc.lft.to/lastmile_qr_scan"}, "lat": 38.928673333333336, "is_disabled": 0, "lon": -77.03309666666667}, {"fusion_lat": 0.0, "type": "electric_scooter", "name": "31e88a6fef3bf0091e2ca02dc94a13de", "fusion_lon": 0.0, "bike_id": "31e88a6fef3bf0091e2ca02dc94a13de", "is_reserved": 0, "rental_uris": {"android": "https://dc.lft.to/lastmile_qr_scan", "ios": "https://dc.lft.to/lastmile_qr_scan"}, "lat": 38.90012566666667, "is_disabled": 0, "lon": -77.04506066666667}, {"fusion_lat": 0.0, "type": "electric_scooter", "name": "6f6c5473325fce93bf7f2a15874615a1", "fusion_lon": 0.0, "bike_id": "6f6c5473325fce93bf7f2a15874615a1", "is_reserved": 0, "rental_uris": {"android": "https://dc.lft.to/lastmile_qr_scan", "ios": "https://dc.lft.to/lastmile_qr_scan"}, "lat": 38.928155833333335, "is_disabled": 0, "lon": -77.05520666666666}, {"fusion_lat": 0.0, "type": "electric_scooter", "name": "0b42eb26707a1bd838e096a6de2181f5", "fusion_lon": 0.0, "bike_id": "0b42eb26707a1bd838e096a6de2181f5", "is_reserved": 0, "rental_uris": {"android": "https://dc.lft.to/lastmile_qr_scan", "ios": "https://dc.lft.to/lastmile_qr_scan"}, "lat": 38.927061333333334, "is_disabled": 0, "lon": -77.04129416666666}, {"fusion_lat": 0.0, "type": "electric_scooter", "name": "15b9d4ae8c6f6cb047409414558a1de1", "fusion_lon": 0.0, "bike_id": "15b9d4ae8c6f6cb047409414558a1de1", "is_reserved": 0, "rental_uris": {"android": "https://dc.lft.to/lastmile_qr_scan", "ios": "https://dc.lft.to/lastmile_qr_scan"}, "lat": 38.952296, "is_disabled": 0, "lon": -77.01430233333333}, {"fusion_lat": 0.0, "type": "electric_scooter", "name": "5249401734ac7039ede72de4d9e3f015", "fusion_lon": 0.0, "bike_id": "5249401734ac7039ede72de4d9e3f015", "is_reserved": 0, "rental_uris": {"android": "https://dc.lft.to/lastmile_qr_scan", "ios": "https://dc.lft.to/lastmile_qr_scan"}, "lat": 38.93085266666667, "is_disabled": 0, "lon": -77.004127}, {"fusion_lat": 0.0, "type": "electric_scooter", "name": "4442099377472395735444b6ab92c3c2", "fusion_lon": 0.0, "bike_id": "4442099377472395735444b6ab92c3c2", "is_reserved": 0, "rental_uris": {"android": "https://dc.lft.to/lastmile_qr_scan", "ios": "https://dc.lft.to/lastmile_qr_scan"}, "lat": 38.905713166666665, "is_disabled": 0, "lon": -77.033889}, {"fusion_lat": 0.0, "type": "electric_scooter", "name": "6219c7e6c31df896430e7bf4efab53ca", "fusion_lon": 0.0, "bike_id": "6219c7e6c31df896430e7bf4efab53ca", "is_reserved": 0, "rental_uris": {"android": "https://dc.lft.to/lastmile_qr_scan", "ios": "https://dc.lft.to/lastmile_qr_scan"}, "lat": 38.903883, "is_disabled": 0, "lon": -77.03853183333334}, {"fusion_lat": 0.0, "type": "electric_scooter", "name": "4a8d47acc6619960639f639938978812", "fusion_lon": 0.0, "bike_id": "4a8d47acc6619960639f639938978812", "is_reserved": 0, "rental_uris": {"android": "https://dc.lft.to/lastmile_qr_scan", "ios": "https://dc.lft.to/lastmile_qr_scan"}, "lat": 38.889875333333336, "is_disabled": 0, "lon": -76.98333233333334}, {"fusion_lat": 0.0, "type": "electric_scooter", "name": "185367b17fdb4714869aa365259c2cb3", "fusion_lon": 0.0, "bike_id": "185367b17fdb4714869aa365259c2cb3", "is_reserved": 0, "rental_uris": {"android": "https://dc.lft.to/lastmile_qr_scan", "ios": "https://dc.lft.to/lastmile_qr_scan"}, "lat": 38.91978066666667, "is_disabled": 0, "lon": -77.02164833333333}, {"fusion_lat": 0.0, "type": "electric_scooter", "name": "68a1fb31c52cd28541ae44988e1014fe", "fusion_lon": 0.0, "bike_id": "68a1fb31c52cd28541ae44988e1014fe", "is_reserved": 0, "rental_uris": {"android": "https://dc.lft.to/lastmile_qr_scan", "ios": "https://dc.lft.to/lastmile_qr_scan"}, "lat": 38.9031635, "is_disabled": 0, "lon": -76.99115583333334}, {"fusion_lat": 0.0, "type": "electric_scooter", "name": "4badb41893760a5b3aa02ea91cc52b01", "fusion_lon": 0.0, "bike_id": "4badb41893760a5b3aa02ea91cc52b01", "is_reserved": 0, "rental_uris": {"android": "https://dc.lft.to/lastmile_qr_scan", "ios": "https://dc.lft.to/lastmile_qr_scan"}, "lat": 38.86008616666667, "is_disabled": 0, "lon": -76.98525383333333}, {"fusion_lat": 0.0, "type": "electric_scooter", "name": "3ada55af70e7a6471715b91b6039f27b", "fusion_lon": 0.0, "bike_id": "3ada55af70e7a6471715b91b6039f27b", "is_reserved": 0, "rental_uris": {"android": "https://dc.lft.to/lastmile_qr_scan", "ios": "https://dc.lft.to/lastmile_qr_scan"}, "lat": 38.922602166666664, "is_disabled": 0, "lon": -77.02038233333333}, {"fusion_lat": 0.0, "type": "electric_scooter", "name": "ef3ec7a518a85089d3a831297812c048", "fusion_lon": 0.0, "bike_id": "ef3ec7a518a85089d3a831297812c048", "is_reserved": 0, "rental_uris": {"android": "https://dc.lft.to/lastmile_qr_scan", "ios": "https://dc.lft.to/lastmile_qr_scan"}, "lat": 38.9240575, "is_disabled": 0, "lon": -77.02981983333333}, {"fusion_lat": 0.0, "type": "electric_scooter", "name": "74c5ac24847553070af9045869270dc2", "fusion_lon": 0.0, "bike_id": "74c5ac24847553070af9045869270dc2", "is_reserved": 0, "rental_uris": {"android": "https://dc.lft.to/lastmile_qr_scan", "ios": "https://dc.lft.to/lastmile_qr_scan"}, "lat": 38.94326933333333, "is_disabled": 0, "lon": -77.0268225}, {"fusion_lat": 0.0, "type": "electric_scooter", "name": "58bcc48ce05c1b1e6cc75478bee85098", "fusion_lon": 0.0, "bike_id": "58bcc48ce05c1b1e6cc75478bee85098", "is_reserved": 0, "rental_uris": {"android": "https://dc.lft.to/lastmile_qr_scan", "ios": "https://dc.lft.to/lastmile_qr_scan"}, "lat": 38.9095235, "is_disabled": 0, "lon": -76.98540633333333}, {"fusion_lat": 0.0, "type": "electric_scooter", "name": "2d31ae225941654b58893953f124500c", "fusion_lon": 0.0, "bike_id": "2d31ae225941654b58893953f124500c", "is_reserved": 0, "rental_uris": {"android": "https://dc.lft.to/lastmile_qr_scan", "ios": "https://dc.lft.to/lastmile_qr_scan"}, "lat": 38.87469083333333, "is_disabled": 0, "lon": -77.01896633333334}, {"fusion_lat": 0.0, "type": "electric_scooter", "name": "e87e7ff93d6aee2361db6cbe5459e88b", "fusion_lon": 0.0, "bike_id": "e87e7ff93d6aee2361db6cbe5459e88b", "is_reserved": 0, "rental_uris": {"android": "https://dc.lft.to/lastmile_qr_scan", "ios": "https://dc.lft.to/lastmile_qr_scan"}, "lat": 38.9527825, "is_disabled": 0, "lon": -77.06981216666667}, {"fusion_lat": 0.0, "type": "electric_scooter", "name": "c022c1ab7b033b0cf0f550a5b51ed006", "fusion_lon": 0.0, "bike_id": "c022c1ab7b033b0cf0f550a5b51ed006", "is_reserved": 0, "rental_uris": {"android": "https://dc.lft.to/lastmile_qr_scan", "ios": "https://dc.lft.to/lastmile_qr_scan"}, "lat": 38.924787333333335, "is_disabled": 0, "lon": -77.04153183333334}, {"fusion_lat": 0.0, "type": "electric_scooter", "name": "cd910ddec330223c0e10fd1dbcdb6534", "fusion_lon": 0.0, "bike_id": "cd910ddec330223c0e10fd1dbcdb6534", "is_reserved": 0, "rental_uris": {"android": "https://dc.lft.to/lastmile_qr_scan", "ios": "https://dc.lft.to/lastmile_qr_scan"}, "lat": 38.91639766666667, "is_disabled": 0, "lon": -77.042674}, {"fusion_lat": 0.0, "type": "electric_scooter", "name": "15ea5de9061ee035aa584c04a2332e4f", "fusion_lon": 0.0, "bike_id": "15ea5de9061ee035aa584c04a2332e4f", "is_reserved": 0, "rental_uris": {"android": "https://dc.lft.to/lastmile_qr_scan", "ios": "https://dc.lft.to/lastmile_qr_scan"}, "lat": 38.876286666666665, "is_disabled": 0, "lon": -77.01261666666667}, {"fusion_lat": 0.0, "type": "electric_scooter", "name": "72bef957fec32cfb54282ad9764697ab", "fusion_lon": 0.0, "bike_id": "72bef957fec32cfb54282ad9764697ab", "is_reserved": 0, "rental_uris": {"android": "https://dc.lft.to/lastmile_qr_scan", "ios": "https://dc.lft.to/lastmile_qr_scan"}, "lat": 38.8989625, "is_disabled": 0, "lon": -77.03939816666667}, {"fusion_lat": 0.0, "type": "electric_scooter", "name": "7962b6c4c1a45b236a33916665b29cfe", "fusion_lon": 0.0, "bike_id": "7962b6c4c1a45b236a33916665b29cfe", "is_reserved": 0, "rental_uris": {"android": "https://dc.lft.to/lastmile_qr_scan", "ios": "https://dc.lft.to/lastmile_qr_scan"}, "lat": 38.88086066666666, "is_disabled": 0, "lon": -76.998436}, {"fusion_lat": 0.0, "type": "electric_scooter", "name": "2441950f229a52368e83be1e566c679e", "fusion_lon": 0.0, "bike_id": "2441950f229a52368e83be1e566c679e", "is_reserved": 0, "rental_uris": {"android": "https://dc.lft.to/lastmile_qr_scan", "ios": "https://dc.lft.to/lastmile_qr_scan"}, "lat": 38.872873166666665, "is_disabled": 0, "lon": -77.00983183333334}, {"fusion_lat": 0.0, "type": "electric_scooter", "name": "1b4074da0b319228742caa3a55d5b937", "fusion_lon": 0.0, "bike_id": "1b4074da0b319228742caa3a55d5b937", "is_reserved": 0, "rental_uris": {"android": "https://dc.lft.to/lastmile_qr_scan", "ios": "https://dc.lft.to/lastmile_qr_scan"}, "lat": 38.93583916666667, "is_disabled": 0, "lon": -77.035137}, {"fusion_lat": 0.0, "type": "electric_scooter", "name": "ee9c1c031acd3ebdc983c71221d2c3db", "fusion_lon": 0.0, "bike_id": "ee9c1c031acd3ebdc983c71221d2c3db", "is_reserved": 0, "rental_uris": {"android": "https://dc.lft.to/lastmile_qr_scan", "ios": "https://dc.lft.to/lastmile_qr_scan"}, "lat": 38.93604766666667, "is_disabled": 0, "lon": -77.02915816666666}, {"fusion_lat": 0.0, "type": "electric_scooter", "name": "134a582942491380b1787d8ccb518515", "fusion_lon": 0.0, "bike_id": "134a582942491380b1787d8ccb518515", "is_reserved": 0, "rental_uris": {"android": "https://dc.lft.to/lastmile_qr_scan", "ios": "https://dc.lft.to/lastmile_qr_scan"}, "lat": 38.892269166666665, "is_disabled": 0, "lon": -77.03183216666666}, {"fusion_lat": 0.0, "type": "electric_scooter", "name": "a3f885968d497203ac3a4128d8753c19", "fusion_lon": 0.0, "bike_id": "a3f885968d497203ac3a4128d8753c19", "is_reserved": 0, "rental_uris": {"android": "https://dc.lft.to/lastmile_qr_scan", "ios": "https://dc.lft.to/lastmile_qr_scan"}, "lat": 38.88750016666667, "is_disabled": 0, "lon": -77.03164933333333}, {"fusion_lat": 0.0, "type": "electric_scooter", "name": "9f934081abf667fb9c9baa9eba1bc83f", "fusion_lon": 0.0, "bike_id": "9f934081abf667fb9c9baa9eba1bc83f", "is_reserved": 0, "rental_uris": {"android": "https://dc.lft.to/lastmile_qr_scan", "ios": "https://dc.lft.to/lastmile_qr_scan"}, "lat": 38.90376033333333, "is_disabled": 0, "lon": -77.041804}, {"fusion_lat": 0.0, "type": "electric_scooter", "name": "1fc9391bf02d531e82b53950eb0eed05", "fusion_lon": 0.0, "bike_id": "1fc9391bf02d531e82b53950eb0eed05", "is_reserved": 0, "rental_uris": {"android": "https://dc.lft.to/lastmile_qr_scan", "ios": "https://dc.lft.to/lastmile_qr_scan"}, "lat": 38.91048466666667, "is_disabled": 0, "lon": -77.03177916666667}, {"fusion_lat": 0.0, "type": "electric_scooter", "name": "346745fff0b41bb7e34154eb0c3cc152", "fusion_lon": 0.0, "bike_id": "346745fff0b41bb7e34154eb0c3cc152", "is_reserved": 0, "rental_uris": {"android": "https://dc.lft.to/lastmile_qr_scan", "ios": "https://dc.lft.to/lastmile_qr_scan"}, "lat": 38.891661166666665, "is_disabled": 0, "lon": -76.95188316666666}, {"fusion_lat": 0.0, "type": "electric_bike", "name": "42aeb52febe0060638adaf40244ec037", "fusion_lon": 0.0, "bike_id": "42aeb52febe0060638adaf40244ec037", "is_reserved": 0, "rental_uris": {"android": "https://dc.lft.to/lastmile_qr_scan", "ios": "https://dc.lft.to/lastmile_qr_scan"}, "lat": 38.823307166666666, "is_disabled": 0, "lon": -77.05627416666667}, {"fusion_lat": 0.0, "type": "electric_scooter", "name": "ca82e2478d22389c0b99ffca36017d77", "fusion_lon": 0.0, "bike_id": "ca82e2478d22389c0b99ffca36017d77", "is_reserved": 0, "rental_uris": {"android": "https://dc.lft.to/lastmile_qr_scan", "ios": "https://dc.lft.to/lastmile_qr_scan"}, "lat": 38.90109133333333, "is_disabled": 0, "lon": -77.04479483333333}, {"fusion_lat": 0.0, "type": "electric_scooter", "name": "be5f2814d47717f94ad0f1231b561c45", "fusion_lon": 0.0, "bike_id": "be5f2814d47717f94ad0f1231b561c45", "is_reserved": 0, "rental_uris": {"android": "https://dc.lft.to/lastmile_qr_scan", "ios": "https://dc.lft.to/lastmile_qr_scan"}, "lat": 38.9420455, "is_disabled": 0, "lon": -77.02516933333334}, {"fusion_lat": 0.0, "type": "electric_scooter", "name": "3c34d8b143e6d55142501ad8b7fb6a4f", "fusion_lon": 0.0, "bike_id": "3c34d8b143e6d55142501ad8b7fb6a4f", "is_reserved": 0, "rental_uris": {"android": "https://dc.lft.to/lastmile_qr_scan", "ios": "https://dc.lft.to/lastmile_qr_scan"}, "lat": 38.90210833333333, "is_disabled": 0, "lon": -77.02362816666667}, {"fusion_lat": 0.0, "type": "electric_scooter", "name": "f654682895df49ead208bc896f779046", "fusion_lon": 0.0, "bike_id": "f654682895df49ead208bc896f779046", "is_reserved": 0, "rental_uris": {"android": "https://dc.lft.to/lastmile_qr_scan", "ios": "https://dc.lft.to/lastmile_qr_scan"}, "lat": 38.92586566666667, "is_disabled": 0, "lon": -77.0374845}, {"fusion_lat": 0.0, "type": "electric_scooter", "name": "dd2636dd04a4ce151450c8bce93d9b1a", "fusion_lon": 0.0, "bike_id": "dd2636dd04a4ce151450c8bce93d9b1a", "is_reserved": 0, "rental_uris": {"android": "https://dc.lft.to/lastmile_qr_scan", "ios": "https://dc.lft.to/lastmile_qr_scan"}, "lat": 38.89222266666667, "is_disabled": 0, "lon": -77.0277965}, {"fusion_lat": 0.0, "type": "electric_scooter", "name": "a95f2a37aa3561df07f3562cb99de315", "fusion_lon": 0.0, "bike_id": "a95f2a37aa3561df07f3562cb99de315", "is_reserved": 0, "rental_uris": {"android": "https://dc.lft.to/lastmile_qr_scan", "ios": "https://dc.lft.to/lastmile_qr_scan"}, "lat": 38.93976516666667, "is_disabled": 0, "lon": -77.0325925}, {"fusion_lat": 0.0, "type": "electric_bike", "name": "4f4b36900256a5d888eede75e956466e", "fusion_lon": 0.0, "bike_id": "4f4b36900256a5d888eede75e956466e", "is_reserved": 0, "rental_uris": {"android": "https://dc.lft.to/lastmile_qr_scan", "ios": "https://dc.lft.to/lastmile_qr_scan"}, "lat": 38.84504883333334, "is_disabled": 0, "lon": -76.99355916666667}, {"fusion_lat": 0.0, "type": "electric_scooter", "name": "c6cc98fda3644b1b3945050412f5b710", "fusion_lon": 0.0, "bike_id": "c6cc98fda3644b1b3945050412f5b710", "is_reserved": 0, "rental_uris": {"android": "https://dc.lft.to/lastmile_qr_scan", "ios": "https://dc.lft.to/lastmile_qr_scan"}, "lat": 38.9189875, "is_disabled": 0, "lon": -77.03209716666667}, {"fusion_lat": 0.0, "type": "electric_scooter", "name": "7689594b97ec61a35b28ba9e3c66e99d", "fusion_lon": 0.0, "bike_id": "7689594b97ec61a35b28ba9e3c66e99d", "is_reserved": 0, "rental_uris": {"android": "https://dc.lft.to/lastmile_qr_scan", "ios": "https://dc.lft.to/lastmile_qr_scan"}, "lat": 38.938598, "is_disabled": 0, "lon": -77.02649916666667}, {"fusion_lat": 0.0, "type": "electric_scooter", "name": "a8c51535ff8ef51090031962c20af99d", "fusion_lon": 0.0, "bike_id": "a8c51535ff8ef51090031962c20af99d", "is_reserved": 0, "rental_uris": {"android": "https://dc.lft.to/lastmile_qr_scan", "ios": "https://dc.lft.to/lastmile_qr_scan"}, "lat": 38.914926666666666, "is_disabled": 0, "lon": -76.9834895}, {"fusion_lat": 0.0, "type": "electric_scooter", "name": "8664034d311982679e2daa453d267f12", "fusion_lon": 0.0, "bike_id": "8664034d311982679e2daa453d267f12", "is_reserved": 0, "rental_uris": {"android": "https://dc.lft.to/lastmile_qr_scan", "ios": "https://dc.lft.to/lastmile_qr_scan"}, "lat": 38.88679, "is_disabled": 0, "lon": -76.990102}, {"fusion_lat": 0.0, "type": "electric_scooter", "name": "f36db2385888aa5f40e5737c9a08a1e5", "fusion_lon": 0.0, "bike_id": "f36db2385888aa5f40e5737c9a08a1e5", "is_reserved": 0, "rental_uris": {"android": "https://dc.lft.to/lastmile_qr_scan", "ios": "https://dc.lft.to/lastmile_qr_scan"}, "lat": 38.92053516666667, "is_disabled": 0, "lon": -77.0235235}, {"fusion_lat": 0.0, "type": "electric_bike", "name": "f226f6adb7a0ff7ce22cbbe3b3f0a697", "fusion_lon": 0.0, "bike_id": "f226f6adb7a0ff7ce22cbbe3b3f0a697", "is_reserved": 0, "rental_uris": {"android": "https://dc.lft.to/lastmile_qr_scan", "ios": "https://dc.lft.to/lastmile_qr_scan"}, "lat": 38.85582333333333, "is_disabled": 0, "lon": -77.11739666666666}, {"fusion_lat": 0.0, "type": "electric_scooter", "name": "8beea47ec07ac9e37e7a418222ff6c70", "fusion_lon": 0.0, "bike_id": "8beea47ec07ac9e37e7a418222ff6c70", "is_reserved": 0, "rental_uris": {"android": "https://dc.lft.to/lastmile_qr_scan", "ios": "https://dc.lft.to/lastmile_qr_scan"}, "lat": 38.91417633333333, "is_disabled": 0, "lon": -77.0416015}, {"fusion_lat": 0.0, "type": "electric_bike", "name": "91d94a5ad28f1bfab1ead9a343e1cfb6", "fusion_lon": 0.0, "bike_id": "91d94a5ad28f1bfab1ead9a343e1cfb6", "is_reserved": 0, "rental_uris": {"android": "https://dc.lft.to/lastmile_qr_scan", "ios": "https://dc.lft.to/lastmile_qr_scan"}, "lat": 38.93690333333333, "is_disabled": 0, "lon": -76.990603}, {"fusion_lat": 0.0, "type": "electric_scooter", "name": "fad485a19e244080c2bb7532a238dc3a", "fusion_lon": 0.0, "bike_id": "fad485a19e244080c2bb7532a238dc3a", "is_reserved": 0, "rental_uris": {"android": "https://dc.lft.to/lastmile_qr_scan", "ios": "https://dc.lft.to/lastmile_qr_scan"}, "lat": 38.936258, "is_disabled": 0, "lon": -77.08156466666667}, {"fusion_lat": 0.0, "type": "electric_bike", "name": "6e9489f8e6aba18eb57f081968b95575", "fusion_lon": 0.0, "bike_id": "6e9489f8e6aba18eb57f081968b95575", "is_reserved": 0, "rental_uris": {"android": "https://dc.lft.to/lastmile_qr_scan", "ios": "https://dc.lft.to/lastmile_qr_scan"}, "lat": 38.94756683333333, "is_disabled": 0, "lon": -77.02367083333333}, {"fusion_lat": 0.0, "type": "electric_scooter", "name": "e235f5e06d935575e665049341b3be78", "fusion_lon": 0.0, "bike_id": "e235f5e06d935575e665049341b3be78", "is_reserved": 0, "rental_uris": {"android": "https://dc.lft.to/lastmile_qr_scan", "ios": "https://dc.lft.to/lastmile_qr_scan"}, "lat": 38.91470616666667, "is_disabled": 0, "lon": -77.03848783333333}, {"fusion_lat": 0.0, "type": "electric_scooter", "name": "31837507db239c39fe1b9c79b260b0ce", "fusion_lon": 0.0, "bike_id": "31837507db239c39fe1b9c79b260b0ce", "is_reserved": 0, "rental_uris": {"android": "https://dc.lft.to/lastmile_qr_scan", "ios": "https://dc.lft.to/lastmile_qr_scan"}, "lat": 38.9219195, "is_disabled": 0, "lon": -76.9887725}, {"fusion_lat": 0.0, "type": "electric_scooter", "name": "5afec2d7bcad899fd4fb99a7fd9e20bc", "fusion_lon": 0.0, "bike_id": "5afec2d7bcad899fd4fb99a7fd9e20bc", "is_reserved": 0, "rental_uris": {"android": "https://dc.lft.to/lastmile_qr_scan", "ios": "https://dc.lft.to/lastmile_qr_scan"}, "lat": 38.92059483333333, "is_disabled": 0, "lon": -77.02355733333333}, {"fusion_lat": 0.0, "type": "electric_scooter", "name": "d121aa578d29ce1c4fb189af91dfa1bd", "fusion_lon": 0.0, "bike_id": "d121aa578d29ce1c4fb189af91dfa1bd", "is_reserved": 0, "rental_uris": {"android": "https://dc.lft.to/lastmile_qr_scan", "ios": "https://dc.lft.to/lastmile_qr_scan"}, "lat": 38.9096555, "is_disabled": 0, "lon": -77.04760983333334}, {"fusion_lat": 0.0, "type": "electric_scooter", "name": "37b1d9b176839634217f16cff854862c", "fusion_lon": 0.0, "bike_id": "37b1d9b176839634217f16cff854862c", "is_reserved": 0, "rental_uris": {"android": "https://dc.lft.to/lastmile_qr_scan", "ios": "https://dc.lft.to/lastmile_qr_scan"}, "lat": 38.9281025, "is_disabled": 0, "lon": -77.0336445}, {"fusion_lat": 0.0, "type": "electric_scooter", "name": "13f6906d16f375edf82b19dd6c6f730b", "fusion_lon": 0.0, "bike_id": "13f6906d16f375edf82b19dd6c6f730b", "is_reserved": 0, "rental_uris": {"android": "https://dc.lft.to/lastmile_qr_scan", "ios": "https://dc.lft.to/lastmile_qr_scan"}, "lat": 38.89736633333333, "is_disabled": 0, "lon": -77.03076333333334}, {"fusion_lat": 0.0, "type": "electric_scooter", "name": "bccc54025eb6393ea444288aae7b505d", "fusion_lon": 0.0, "bike_id": "bccc54025eb6393ea444288aae7b505d", "is_reserved": 0, "rental_uris": {"android": "https://dc.lft.to/lastmile_qr_scan", "ios": "https://dc.lft.to/lastmile_qr_scan"}, "lat": 38.918186666666664, "is_disabled": 0, "lon": -77.03381183333333}, {"fusion_lat": 0.0, "type": "electric_scooter", "name": "7016d858b3a111f47364ce67150ab77d", "fusion_lon": 0.0, "bike_id": "7016d858b3a111f47364ce67150ab77d", "is_reserved": 0, "rental_uris": {"android": "https://dc.lft.to/lastmile_qr_scan", "ios": "https://dc.lft.to/lastmile_qr_scan"}, "lat": 38.900838666666665, "is_disabled": 0, "lon": -76.93860083333334}, {"fusion_lat": 0.0, "type": "electric_bike", "name": "b9bf9f711ff8b30ab51d371a0ea84091", "fusion_lon": 0.0, "bike_id": "b9bf9f711ff8b30ab51d371a0ea84091", "is_reserved": 0, "rental_uris": {"android": "https://dc.lft.to/lastmile_qr_scan", "ios": "https://dc.lft.to/lastmile_qr_scan"}, "lat": 38.996301833333334, "is_disabled": 0, "lon": -77.04019816666667}, {"fusion_lat": 0.0, "type": "electric_scooter", "name": "2f4b30cb1d51585a33421ac1f31dcd8a", "fusion_lon": 0.0, "bike_id": "2f4b30cb1d51585a33421ac1f31dcd8a", "is_reserved": 0, "rental_uris": {"android": "https://dc.lft.to/lastmile_qr_scan", "ios": "https://dc.lft.to/lastmile_qr_scan"}, "lat": 38.9142965, "is_disabled": 0, "lon": -77.03926666666666}, {"fusion_lat": 0.0, "type": "electric_scooter", "name": "92882fdfc6190c23818b4484742270d2", "fusion_lon": 0.0, "bike_id": "92882fdfc6190c23818b4484742270d2", "is_reserved": 0, "rental_uris": {"android": "https://dc.lft.to/lastmile_qr_scan", "ios": "https://dc.lft.to/lastmile_qr_scan"}, "lat": 38.914075, "is_disabled": 0, "lon": -77.0455645}, {"fusion_lat": 0.0, "type": "electric_scooter", "name": "9cdd41be9675f0a38e4faa54ec6c6163", "fusion_lon": 0.0, "bike_id": "9cdd41be9675f0a38e4faa54ec6c6163", "is_reserved": 0, "rental_uris": {"android": "https://dc.lft.to/lastmile_qr_scan", "ios": "https://dc.lft.to/lastmile_qr_scan"}, "lat": 38.916479333333335, "is_disabled": 0, "lon": -77.03664483333333}, {"fusion_lat": 0.0, "type": "electric_scooter", "name": "62631e7770b8b1a8cffeccd154c61ad4", "fusion_lon": 0.0, "bike_id": "62631e7770b8b1a8cffeccd154c61ad4", "is_reserved": 0, "rental_uris": {"android": "https://dc.lft.to/lastmile_qr_scan", "ios": "https://dc.lft.to/lastmile_qr_scan"}, "lat": 38.921459666666664, "is_disabled": 0, "lon": -77.01798266666667}, {"fusion_lat": 0.0, "type": "electric_scooter", "name": "0657147ff3b25417181932fb9ee0c300", "fusion_lon": 0.0, "bike_id": "0657147ff3b25417181932fb9ee0c300", "is_reserved": 0, "rental_uris": {"android": "https://dc.lft.to/lastmile_qr_scan", "ios": "https://dc.lft.to/lastmile_qr_scan"}, "lat": 38.918167333333336, "is_disabled": 0, "lon": -77.03366966666667}, {"fusion_lat": 0.0, "type": "electric_bike", "name": "47d5c957c45224155f1d6b5112230f32", "fusion_lon": 0.0, "bike_id": "47d5c957c45224155f1d6b5112230f32", "is_reserved": 0, "rental_uris": {"android": "https://dc.lft.to/lastmile_qr_scan", "ios": "https://dc.lft.to/lastmile_qr_scan"}, "lat": 38.985471, "is_disabled": 0, "lon": -77.0040515}, {"fusion_lat": 0.0, "type": "electric_scooter", "name": "001bbecd0e4cdfe2c62f70c5d412d3f3", "fusion_lon": 0.0, "bike_id": "001bbecd0e4cdfe2c62f70c5d412d3f3", "is_reserved": 0, "rental_uris": {"android": "https://dc.lft.to/lastmile_qr_scan", "ios": "https://dc.lft.to/lastmile_qr_scan"}, "lat": 38.90717583333333, "is_disabled": 0, "lon": -77.04348783333333}, {"fusion_lat": 0.0, "type": "electric_scooter", "name": "321468ee76ef2ec3a1daae29fa45a93b", "fusion_lon": 0.0, "bike_id": "321468ee76ef2ec3a1daae29fa45a93b", "is_reserved": 0, "rental_uris": {"android": "https://dc.lft.to/lastmile_qr_scan", "ios": "https://dc.lft.to/lastmile_qr_scan"}, "lat": 38.93564, "is_disabled": 0, "lon": -77.08196716666667}, {"fusion_lat": 0.0, "type": "electric_scooter", "name": "88172b66c1ce4c8a0005779ab666bd01", "fusion_lon": 0.0, "bike_id": "88172b66c1ce4c8a0005779ab666bd01", "is_reserved": 0, "rental_uris": {"android": "https://dc.lft.to/lastmile_qr_scan", "ios": "https://dc.lft.to/lastmile_qr_scan"}, "lat": 38.907831, "is_disabled": 0, "lon": -77.03853866666667}, {"fusion_lat": 0.0, "type": "electric_scooter", "name": "ec586baed8fbe2ebb9439a4bd3adfdbb", "fusion_lon": 0.0, "bike_id": "ec586baed8fbe2ebb9439a4bd3adfdbb", "is_reserved": 0, "rental_uris": {"android": "https://dc.lft.to/lastmile_qr_scan", "ios": "https://dc.lft.to/lastmile_qr_scan"}, "lat": 38.87199183333333, "is_disabled": 0, "lon": -77.0057015}, {"fusion_lat": 0.0, "type": "electric_bike", "name": "98699fde47e2c0745ca414fa62313604", "fusion_lon": 0.0, "bike_id": "98699fde47e2c0745ca414fa62313604", "is_reserved": 0, "rental_uris": {"android": "https://dc.lft.to/lastmile_qr_scan", "ios": "https://dc.lft.to/lastmile_qr_scan"}, "lat": 38.9968255, "is_disabled": 0, "lon": -77.03802366666666}, {"fusion_lat": 0.0, "type": "electric_bike", "name": "fe95b225b9cd9c2449ef41c64bbf281d", "fusion_lon": 0.0, "bike_id": "fe95b225b9cd9c2449ef41c64bbf281d", "is_reserved": 0, "rental_uris": {"android": "https://dc.lft.to/lastmile_qr_scan", "ios": "https://dc.lft.to/lastmile_qr_scan"}, "lat": 38.86937833333333, "is_disabled": 0, "lon": -77.094687}, {"fusion_lat": 0.0, "type": "electric_scooter", "name": "d4a3e1a6c63fb6dc9fab1b6bcafc2ca1", "fusion_lon": 0.0, "bike_id": "d4a3e1a6c63fb6dc9fab1b6bcafc2ca1", "is_reserved": 0, "rental_uris": {"android": "https://dc.lft.to/lastmile_qr_scan", "ios": "https://dc.lft.to/lastmile_qr_scan"}, "lat": 38.8921975, "is_disabled": 0, "lon": -77.02347516666667}, {"fusion_lat": 0.0, "type": "electric_scooter", "name": "3735e6cf0b7a8c5c65405537b98101ea", "fusion_lon": 0.0, "bike_id": "3735e6cf0b7a8c5c65405537b98101ea", "is_reserved": 0, "rental_uris": {"android": "https://dc.lft.to/lastmile_qr_scan", "ios": "https://dc.lft.to/lastmile_qr_scan"}, "lat": 38.90005633333333, "is_disabled": 0, "lon": -77.0261645}, {"fusion_lat": 0.0, "type": "electric_scooter", "name": "ea7f13f8a2eaf77a7215cccac8798ec3", "fusion_lon": 0.0, "bike_id": "ea7f13f8a2eaf77a7215cccac8798ec3", "is_reserved": 0, "rental_uris": {"android": "https://dc.lft.to/lastmile_qr_scan", "ios": "https://dc.lft.to/lastmile_qr_scan"}, "lat": 38.9077345, "is_disabled": 0, "lon": -77.001955}, {"fusion_lat": 0.0, "type": "electric_scooter", "name": "f8e320a659b0b25133a5710dabe5c77c", "fusion_lon": 0.0, "bike_id": "f8e320a659b0b25133a5710dabe5c77c", "is_reserved": 0, "rental_uris": {"android": "https://dc.lft.to/lastmile_qr_scan", "ios": "https://dc.lft.to/lastmile_qr_scan"}, "lat": 38.931, "is_disabled": 0, "lon": -77.03269883333333}, {"fusion_lat": 0.0, "type": "electric_scooter", "name": "f670613f7e4372be5c58c33f5f0d740a", "fusion_lon": 0.0, "bike_id": "f670613f7e4372be5c58c33f5f0d740a", "is_reserved": 0, "rental_uris": {"android": "https://dc.lft.to/lastmile_qr_scan", "ios": "https://dc.lft.to/lastmile_qr_scan"}, "lat": 38.885900166666666, "is_disabled": 0, "lon": -77.01232066666667}, {"fusion_lat": 0.0, "type": "electric_scooter", "name": "6850a448b61477b2c2221bdf95f3e15b", "fusion_lon": 0.0, "bike_id": "6850a448b61477b2c2221bdf95f3e15b", "is_reserved": 0, "rental_uris": {"android": "https://dc.lft.to/lastmile_qr_scan", "ios": "https://dc.lft.to/lastmile_qr_scan"}, "lat": 38.892785833333335, "is_disabled": 0, "lon": -77.03177083333334}, {"fusion_lat": 0.0, "type": "electric_scooter", "name": "0490af00d632cc73e492a4e314727539", "fusion_lon": 0.0, "bike_id": "0490af00d632cc73e492a4e314727539", "is_reserved": 0, "rental_uris": {"android": "https://dc.lft.to/lastmile_qr_scan", "ios": "https://dc.lft.to/lastmile_qr_scan"}, "lat": 38.9051075, "is_disabled": 0, "lon": -77.068644}, {"fusion_lat": 0.0, "type": "electric_scooter", "name": "0f6cf8cbc252b909837cdf92762f338e", "fusion_lon": 0.0, "bike_id": "0f6cf8cbc252b909837cdf92762f338e", "is_reserved": 0, "rental_uris": {"android": "https://dc.lft.to/lastmile_qr_scan", "ios": "https://dc.lft.to/lastmile_qr_scan"}, "lat": 38.91966033333333, "is_disabled": 0, "lon": -77.04511316666667}, {"fusion_lat": 0.0, "type": "electric_scooter", "name": "ff55ac390e6e35e83ea2a552ed1a6db4", "fusion_lon": 0.0, "bike_id": "ff55ac390e6e35e83ea2a552ed1a6db4", "is_reserved": 0, "rental_uris": {"android": "https://dc.lft.to/lastmile_qr_scan", "ios": "https://dc.lft.to/lastmile_qr_scan"}, "lat": 38.88846233333334, "is_disabled": 0, "lon": -76.92681683333333}, {"fusion_lat": 0.0, "type": "electric_scooter", "name": "c9084b379227cc1eac344e25bf585a00", "fusion_lon": 0.0, "bike_id": "c9084b379227cc1eac344e25bf585a00", "is_reserved": 0, "rental_uris": {"android": "https://dc.lft.to/lastmile_qr_scan", "ios": "https://dc.lft.to/lastmile_qr_scan"}, "lat": 38.9051555, "is_disabled": 0, "lon": -77.04825216666667}, {"fusion_lat": 0.0, "type": "electric_scooter", "name": "9e6c969956b83d5626cfec92bf28a079", "fusion_lon": 0.0, "bike_id": "9e6c969956b83d5626cfec92bf28a079", "is_reserved": 0, "rental_uris": {"android": "https://dc.lft.to/lastmile_qr_scan", "ios": "https://dc.lft.to/lastmile_qr_scan"}, "lat": 38.92127, "is_disabled": 0, "lon": -76.995649}, {"fusion_lat": 0.0, "type": "electric_scooter", "name": "a83c29b2d497f337cf45ce73a3dc1233", "fusion_lon": 0.0, "bike_id": "a83c29b2d497f337cf45ce73a3dc1233", "is_reserved": 0, "rental_uris": {"android": "https://dc.lft.to/lastmile_qr_scan", "ios": "https://dc.lft.to/lastmile_qr_scan"}, "lat": 38.920593833333335, "is_disabled": 0, "lon": -77.02348316666667}, {"fusion_lat": 0.0, "type": "electric_scooter", "name": "2fc8f7ccb98cee716a51df56bec18dc6", "fusion_lon": 0.0, "bike_id": "2fc8f7ccb98cee716a51df56bec18dc6", "is_reserved": 0, "rental_uris": {"android": "https://dc.lft.to/lastmile_qr_scan", "ios": "https://dc.lft.to/lastmile_qr_scan"}, "lat": 38.9084275, "is_disabled": 0, "lon": -77.002158}, {"fusion_lat": 0.0, "type": "electric_scooter", "name": "4b7be4a543fdf2d7ca38febd6609b451", "fusion_lon": 0.0, "bike_id": "4b7be4a543fdf2d7ca38febd6609b451", "is_reserved": 0, "rental_uris": {"android": "https://dc.lft.to/lastmile_qr_scan", "ios": "https://dc.lft.to/lastmile_qr_scan"}, "lat": 38.941801166666664, "is_disabled": 0, "lon": -77.02747516666666}, {"fusion_lat": 0.0, "type": "electric_scooter", "name": "9d272f5f3a99aadac746e57be36477c9", "fusion_lon": 0.0, "bike_id": "9d272f5f3a99aadac746e57be36477c9", "is_reserved": 0, "rental_uris": {"android": "https://dc.lft.to/lastmile_qr_scan", "ios": "https://dc.lft.to/lastmile_qr_scan"}, "lat": 38.89359266666666, "is_disabled": 0, "lon": -77.00335483333333}, {"fusion_lat": 0.0, "type": "electric_scooter", "name": "63b320288c890f1848a75c09aca31785", "fusion_lon": 0.0, "bike_id": "63b320288c890f1848a75c09aca31785", "is_reserved": 0, "rental_uris": {"android": "https://dc.lft.to/lastmile_qr_scan", "ios": "https://dc.lft.to/lastmile_qr_scan"}, "lat": 38.9407765, "is_disabled": 0, "lon": -77.02735283333334}, {"fusion_lat": 0.0, "type": "electric_scooter", "name": "21253cc9df99f8cb90cf0b14c6633691", "fusion_lon": 0.0, "bike_id": "21253cc9df99f8cb90cf0b14c6633691", "is_reserved": 0, "rental_uris": {"android": "https://dc.lft.to/lastmile_qr_scan", "ios": "https://dc.lft.to/lastmile_qr_scan"}, "lat": 38.920077666666664, "is_disabled": 0, "lon": -77.03208616666667}, {"fusion_lat": 0.0, "type": "electric_scooter", "name": "a98356b66a03b5ca4c82cb1b32fd88e9", "fusion_lon": 0.0, "bike_id": "a98356b66a03b5ca4c82cb1b32fd88e9", "is_reserved": 0, "rental_uris": {"android": "https://dc.lft.to/lastmile_qr_scan", "ios": "https://dc.lft.to/lastmile_qr_scan"}, "lat": 38.916821666666664, "is_disabled": 0, "lon": -77.0369225}, {"fusion_lat": 0.0, "type": "electric_scooter", "name": "05166ae08ee997a70c5ef228344ac0b9", "fusion_lon": 0.0, "bike_id": "05166ae08ee997a70c5ef228344ac0b9", "is_reserved": 0, "rental_uris": {"android": "https://dc.lft.to/lastmile_qr_scan", "ios": "https://dc.lft.to/lastmile_qr_scan"}, "lat": 38.8917095, "is_disabled": 0, "lon": -77.0155215}, {"fusion_lat": 0.0, "type": "electric_scooter", "name": "c340107d1a6bcd1f0741eff740e604bf", "fusion_lon": 0.0, "bike_id": "c340107d1a6bcd1f0741eff740e604bf", "is_reserved": 0, "rental_uris": {"android": "https://dc.lft.to/lastmile_qr_scan", "ios": "https://dc.lft.to/lastmile_qr_scan"}, "lat": 38.90659683333333, "is_disabled": 0, "lon": -77.04807633333333}, {"fusion_lat": 0.0, "type": "electric_scooter", "name": "dd2d609192d94cf7c1a3bb26f29dde58", "fusion_lon": 0.0, "bike_id": "dd2d609192d94cf7c1a3bb26f29dde58", "is_reserved": 0, "rental_uris": {"android": "https://dc.lft.to/lastmile_qr_scan", "ios": "https://dc.lft.to/lastmile_qr_scan"}, "lat": 38.9371215, "is_disabled": 0, "lon": -77.036375}, {"fusion_lat": 0.0, "type": "electric_scooter", "name": "67d8eb3c99d0b230fc7d801dc55743a7", "fusion_lon": 0.0, "bike_id": "67d8eb3c99d0b230fc7d801dc55743a7", "is_reserved": 0, "rental_uris": {"android": "https://dc.lft.to/lastmile_qr_scan", "ios": "https://dc.lft.to/lastmile_qr_scan"}, "lat": 38.91177733333333, "is_disabled": 0, "lon": -77.034982}, {"fusion_lat": 0.0, "type": "electric_scooter", "name": "56dd1533892acdaa8221a6257cd87805", "fusion_lon": 0.0, "bike_id": "56dd1533892acdaa8221a6257cd87805", "is_reserved": 0, "rental_uris": {"android": "https://dc.lft.to/lastmile_qr_scan", "ios": "https://dc.lft.to/lastmile_qr_scan"}, "lat": 38.896093, "is_disabled": 0, "lon": -76.99971416666666}, {"fusion_lat": 0.0, "type": "electric_scooter", "name": "99fa5467ea48872e5554ea53128c78f2", "fusion_lon": 0.0, "bike_id": "99fa5467ea48872e5554ea53128c78f2", "is_reserved": 0, "rental_uris": {"android": "https://dc.lft.to/lastmile_qr_scan", "ios": "https://dc.lft.to/lastmile_qr_scan"}, "lat": 38.87341766666667, "is_disabled": 0, "lon": -76.99164316666666}, {"fusion_lat": 0.0, "type": "electric_scooter", "name": "c8dffd8a6f17ad74175e51415062a4ed", "fusion_lon": 0.0, "bike_id": "c8dffd8a6f17ad74175e51415062a4ed", "is_reserved": 0, "rental_uris": {"android": "https://dc.lft.to/lastmile_qr_scan", "ios": "https://dc.lft.to/lastmile_qr_scan"}, "lat": 38.9117535, "is_disabled": 0, "lon": -77.00447466666667}, {"fusion_lat": 0.0, "type": "electric_scooter", "name": "e51185eaf6cbbff40d1e990ebbae45b0", "fusion_lon": 0.0, "bike_id": "e51185eaf6cbbff40d1e990ebbae45b0", "is_reserved": 0, "rental_uris": {"android": "https://dc.lft.to/lastmile_qr_scan", "ios": "https://dc.lft.to/lastmile_qr_scan"}, "lat": 38.920352333333334, "is_disabled": 0, "lon": -77.0121975}, {"fusion_lat": 0.0, "type": "electric_scooter", "name": "69df07b32d0c55f076a45e9e0b4fbb74", "fusion_lon": 0.0, "bike_id": "69df07b32d0c55f076a45e9e0b4fbb74", "is_reserved": 0, "rental_uris": {"android": "https://dc.lft.to/lastmile_qr_scan", "ios": "https://dc.lft.to/lastmile_qr_scan"}, "lat": 38.900375333333336, "is_disabled": 0, "lon": -77.03195383333333}, {"fusion_lat": 0.0, "type": "electric_scooter", "name": "0542e31950d7b5b50f3fae33b5e5897a", "fusion_lon": 0.0, "bike_id": "0542e31950d7b5b50f3fae33b5e5897a", "is_reserved": 0, "rental_uris": {"android": "https://dc.lft.to/lastmile_qr_scan", "ios": "https://dc.lft.to/lastmile_qr_scan"}, "lat": 38.902188, "is_disabled": 0, "lon": -77.023624}, {"fusion_lat": 0.0, "type": "electric_scooter", "name": "c8ff0f01822be93df2022d5e3b5abad8", "fusion_lon": 0.0, "bike_id": "c8ff0f01822be93df2022d5e3b5abad8", "is_reserved": 0, "rental_uris": {"android": "https://dc.lft.to/lastmile_qr_scan", "ios": "https://dc.lft.to/lastmile_qr_scan"}, "lat": 38.89194283333333, "is_disabled": 0, "lon": -76.93303883333333}, {"fusion_lat": 0.0, "type": "electric_scooter", "name": "e7b97aab9b66a2a0c50134fad7d771bc", "fusion_lon": 0.0, "bike_id": "e7b97aab9b66a2a0c50134fad7d771bc", "is_reserved": 0, "rental_uris": {"android": "https://dc.lft.to/lastmile_qr_scan", "ios": "https://dc.lft.to/lastmile_qr_scan"}, "lat": 38.90542416666667, "is_disabled": 0, "lon": -77.04535316666667}, {"fusion_lat": 0.0, "type": "electric_bike", "name": "3b9e71bafe40b4162f0d7f68d794d5f3", "fusion_lon": 0.0, "bike_id": "3b9e71bafe40b4162f0d7f68d794d5f3", "is_reserved": 0, "rental_uris": {"android": "https://dc.lft.to/lastmile_qr_scan", "ios": "https://dc.lft.to/lastmile_qr_scan"}, "lat": 39.04307516666667, "is_disabled": 0, "lon": -77.05160066666667}, {"fusion_lat": 0.0, "type": "electric_bike", "name": "cfbf8ad983e315b9a1a55667d8f599a9", "fusion_lon": 0.0, "bike_id": "cfbf8ad983e315b9a1a55667d8f599a9", "is_reserved": 0, "rental_uris": {"android": "https://dc.lft.to/lastmile_qr_scan", "ios": "https://dc.lft.to/lastmile_qr_scan"}, "lat": 38.90624316666667, "is_disabled": 0, "lon": -76.9860055}, {"fusion_lat": 0.0, "type": "electric_scooter", "name": "95818eeb4d059d4e17f95048e05a2e99", "fusion_lon": 0.0, "bike_id": "95818eeb4d059d4e17f95048e05a2e99", "is_reserved": 0, "rental_uris": {"android": "https://dc.lft.to/lastmile_qr_scan", "ios": "https://dc.lft.to/lastmile_qr_scan"}, "lat": 38.90731866666667, "is_disabled": 0, "lon": -76.98695133333334}, {"fusion_lat": 0.0, "type": "electric_scooter", "name": "393e6e0e9cbe19616cea96026068afba", "fusion_lon": 0.0, "bike_id": "393e6e0e9cbe19616cea96026068afba", "is_reserved": 0, "rental_uris": {"android": "https://dc.lft.to/lastmile_qr_scan", "ios": "https://dc.lft.to/lastmile_qr_scan"}, "lat": 38.908380666666666, "is_disabled": 0, "lon": -77.03554066666666}, {"fusion_lat": 0.0, "type": "electric_scooter", "name": "7a1be9cdbc1e6e0b5735f9956b697474", "fusion_lon": 0.0, "bike_id": "7a1be9cdbc1e6e0b5735f9956b697474", "is_reserved": 0, "rental_uris": {"android": "https://dc.lft.to/lastmile_qr_scan", "ios": "https://dc.lft.to/lastmile_qr_scan"}, "lat": 38.89243183333333, "is_disabled": 0, "lon": -77.02209066666667}, {"fusion_lat": 0.0, "type": "electric_scooter", "name": "a20407c508d5e7e2a360450925dda834", "fusion_lon": 0.0, "bike_id": "a20407c508d5e7e2a360450925dda834", "is_reserved": 0, "rental_uris": {"android": "https://dc.lft.to/lastmile_qr_scan", "ios": "https://dc.lft.to/lastmile_qr_scan"}, "lat": 38.923777666666666, "is_disabled": 0, "lon": -77.01915616666666}, {"fusion_lat": 0.0, "type": "electric_scooter", "name": "aa66c49ed69e533e405014428f665292", "fusion_lon": 0.0, "bike_id": "aa66c49ed69e533e405014428f665292", "is_reserved": 0, "rental_uris": {"android": "https://dc.lft.to/lastmile_qr_scan", "ios": "https://dc.lft.to/lastmile_qr_scan"}, "lat": 38.9073665, "is_disabled": 0, "lon": -77.0269255}, {"fusion_lat": 0.0, "type": "electric_scooter", "name": "535a03a5e61fca7df01efda97600fee3", "fusion_lon": 0.0, "bike_id": "535a03a5e61fca7df01efda97600fee3", "is_reserved": 0, "rental_uris": {"android": "https://dc.lft.to/lastmile_qr_scan", "ios": "https://dc.lft.to/lastmile_qr_scan"}, "lat": 38.93088766666666, "is_disabled": 0, "lon": -77.02539916666667}, {"fusion_lat": 0.0, "type": "electric_scooter", "name": "4b5bb5ba25ecf83657854df068962c96", "fusion_lon": 0.0, "bike_id": "4b5bb5ba25ecf83657854df068962c96", "is_reserved": 0, "rental_uris": {"android": "https://dc.lft.to/lastmile_qr_scan", "ios": "https://dc.lft.to/lastmile_qr_scan"}, "lat": 38.89881716666667, "is_disabled": 0, "lon": -77.03951966666666}, {"fusion_lat": 0.0, "type": "electric_scooter", "name": "34b270519a75e3eddbc6458026a4e7fb", "fusion_lon": 0.0, "bike_id": "34b270519a75e3eddbc6458026a4e7fb", "is_reserved": 0, "rental_uris": {"android": "https://dc.lft.to/lastmile_qr_scan", "ios": "https://dc.lft.to/lastmile_qr_scan"}, "lat": 38.905041833333335, "is_disabled": 0, "lon": -76.99608633333334}, {"fusion_lat": 0.0, "type": "electric_scooter", "name": "6cf14ef88c9c803fface34b5718b8d00", "fusion_lon": 0.0, "bike_id": "6cf14ef88c9c803fface34b5718b8d00", "is_reserved": 0, "rental_uris": {"android": "https://dc.lft.to/lastmile_qr_scan", "ios": "https://dc.lft.to/lastmile_qr_scan"}, "lat": 38.89788866666667, "is_disabled": 0, "lon": -77.05001733333333}, {"fusion_lat": 0.0, "type": "electric_scooter", "name": "40bc591abb3b3c1dff6f25d75fb15ee4", "fusion_lon": 0.0, "bike_id": "40bc591abb3b3c1dff6f25d75fb15ee4", "is_reserved": 0, "rental_uris": {"android": "https://dc.lft.to/lastmile_qr_scan", "ios": "https://dc.lft.to/lastmile_qr_scan"}, "lat": 38.922563833333335, "is_disabled": 0, "lon": -77.0297855}, {"fusion_lat": 0.0, "type": "electric_scooter", "name": "771e84555aabadcb592676124784d6de", "fusion_lon": 0.0, "bike_id": "771e84555aabadcb592676124784d6de", "is_reserved": 0, "rental_uris": {"android": "https://dc.lft.to/lastmile_qr_scan", "ios": "https://dc.lft.to/lastmile_qr_scan"}, "lat": 38.9285335, "is_disabled": 0, "lon": -77.03093216666667}, {"fusion_lat": 0.0, "type": "electric_scooter", "name": "26075f5e6d5ad56b85f2663ba9ccc5f0", "fusion_lon": 0.0, "bike_id": "26075f5e6d5ad56b85f2663ba9ccc5f0", "is_reserved": 0, "rental_uris": {"android": "https://dc.lft.to/lastmile_qr_scan", "ios": "https://dc.lft.to/lastmile_qr_scan"}, "lat": 38.91489516666667, "is_disabled": 0, "lon": -77.02585483333333}, {"fusion_lat": 0.0, "type": "electric_scooter", "name": "2ca8ff1c6e92280f6df3d29bb62e677b", "fusion_lon": 0.0, "bike_id": "2ca8ff1c6e92280f6df3d29bb62e677b", "is_reserved": 0, "rental_uris": {"android": "https://dc.lft.to/lastmile_qr_scan", "ios": "https://dc.lft.to/lastmile_qr_scan"}, "lat": 38.907303, "is_disabled": 0, "lon": -77.0016695}, {"fusion_lat": 0.0, "type": "electric_scooter", "name": "88398b5bb1cf3ac4cfe3487bdc48f511", "fusion_lon": 0.0, "bike_id": "88398b5bb1cf3ac4cfe3487bdc48f511", "is_reserved": 0, "rental_uris": {"android": "https://dc.lft.to/lastmile_qr_scan", "ios": "https://dc.lft.to/lastmile_qr_scan"}, "lat": 38.92799633333333, "is_disabled": 0, "lon": -77.02478233333333}, {"fusion_lat": 0.0, "type": "electric_scooter", "name": "c901052f898e104491196ab73c1d346b", "fusion_lon": 0.0, "bike_id": "c901052f898e104491196ab73c1d346b", "is_reserved": 0, "rental_uris": {"android": "https://dc.lft.to/lastmile_qr_scan", "ios": "https://dc.lft.to/lastmile_qr_scan"}, "lat": 38.973697666666666, "is_disabled": 0, "lon": -77.0187215}, {"fusion_lat": 0.0, "type": "electric_scooter", "name": "02e01ce672e2984074ec137df1a448e3", "fusion_lon": 0.0, "bike_id": "02e01ce672e2984074ec137df1a448e3", "is_reserved": 0, "rental_uris": {"android": "https://dc.lft.to/lastmile_qr_scan", "ios": "https://dc.lft.to/lastmile_qr_scan"}, "lat": 38.935863, "is_disabled": 0, "lon": -77.05856783333333}, {"fusion_lat": 0.0, "type": "electric_scooter", "name": "d0bf0d555a055c0c5d25f74036d97ae3", "fusion_lon": 0.0, "bike_id": "d0bf0d555a055c0c5d25f74036d97ae3", "is_reserved": 0, "rental_uris": {"android": "https://dc.lft.to/lastmile_qr_scan", "ios": "https://dc.lft.to/lastmile_qr_scan"}, "lat": 38.8708405, "is_disabled": 0, "lon": -76.98918333333333}, {"fusion_lat": 0.0, "type": "electric_scooter", "name": "a040883f3c7723df791a9337c340fba4", "fusion_lon": 0.0, "bike_id": "a040883f3c7723df791a9337c340fba4", "is_reserved": 0, "rental_uris": {"android": "https://dc.lft.to/lastmile_qr_scan", "ios": "https://dc.lft.to/lastmile_qr_scan"}, "lat": 38.90109016666667, "is_disabled": 0, "lon": -77.04310433333333}, {"fusion_lat": 0.0, "type": "electric_scooter", "name": "f71e9ec06cf77e56c1f47f5f67f2cfe6", "fusion_lon": 0.0, "bike_id": "f71e9ec06cf77e56c1f47f5f67f2cfe6", "is_reserved": 0, "rental_uris": {"android": "https://dc.lft.to/lastmile_qr_scan", "ios": "https://dc.lft.to/lastmile_qr_scan"}, "lat": 38.91652, "is_disabled": 0, "lon": -77.03211766666666}, {"fusion_lat": 0.0, "type": "electric_scooter", "name": "1e4bb547af3e880be0aaeebe3a70579b", "fusion_lon": 0.0, "bike_id": "1e4bb547af3e880be0aaeebe3a70579b", "is_reserved": 0, "rental_uris": {"android": "https://dc.lft.to/lastmile_qr_scan", "ios": "https://dc.lft.to/lastmile_qr_scan"}, "lat": 38.885809, "is_disabled": 0, "lon": -77.01748316666666}, {"fusion_lat": 0.0, "type": "electric_scooter", "name": "4a1ce0a9f10b82d1d367d0bd5e74a88f", "fusion_lon": 0.0, "bike_id": "4a1ce0a9f10b82d1d367d0bd5e74a88f", "is_reserved": 0, "rental_uris": {"android": "https://dc.lft.to/lastmile_qr_scan", "ios": "https://dc.lft.to/lastmile_qr_scan"}, "lat": 38.958378333333336, "is_disabled": 0, "lon": -77.068555}, {"fusion_lat": 0.0, "type": "electric_scooter", "name": "d543312a3da3e01b5c10ea646f69d08b", "fusion_lon": 0.0, "bike_id": "d543312a3da3e01b5c10ea646f69d08b", "is_reserved": 0, "rental_uris": {"android": "https://dc.lft.to/lastmile_qr_scan", "ios": "https://dc.lft.to/lastmile_qr_scan"}, "lat": 38.916848, "is_disabled": 0, "lon": -77.0321305}, {"fusion_lat": 0.0, "type": "electric_scooter", "name": "c45879737408a14d9286f01d1d2d7d14", "fusion_lon": 0.0, "bike_id": "c45879737408a14d9286f01d1d2d7d14", "is_reserved": 0, "rental_uris": {"android": "https://dc.lft.to/lastmile_qr_scan", "ios": "https://dc.lft.to/lastmile_qr_scan"}, "lat": 38.920255, "is_disabled": 0, "lon": -77.011121}, {"fusion_lat": 0.0, "type": "electric_scooter", "name": "a5699451222a318f96debd01c813553a", "fusion_lon": 0.0, "bike_id": "a5699451222a318f96debd01c813553a", "is_reserved": 0, "rental_uris": {"android": "https://dc.lft.to/lastmile_qr_scan", "ios": "https://dc.lft.to/lastmile_qr_scan"}, "lat": 38.906816166666665, "is_disabled": 0, "lon": -77.00549216666667}, {"fusion_lat": 0.0, "type": "electric_bike", "name": "037abe4d66e01c4ecc68736a452988e5", "fusion_lon": 0.0, "bike_id": "037abe4d66e01c4ecc68736a452988e5", "is_reserved": 0, "rental_uris": {"android": "https://dc.lft.to/lastmile_qr_scan", "ios": "https://dc.lft.to/lastmile_qr_scan"}, "lat": 38.87835416666667, "is_disabled": 0, "lon": -76.98377866666667}, {"fusion_lat": 0.0, "type": "electric_bike", "name": "bffe57aa26760ae7da2d93e1facfbf5c", "fusion_lon": 0.0, "bike_id": "bffe57aa26760ae7da2d93e1facfbf5c", "is_reserved": 0, "rental_uris": {"android": "https://dc.lft.to/lastmile_qr_scan", "ios": "https://dc.lft.to/lastmile_qr_scan"}, "lat": 38.9365595, "is_disabled": 0, "lon": -77.03689333333334}, {"fusion_lat": 0.0, "type": "electric_bike", "name": "4a6682e63eac24859801bb641cfa0baf", "fusion_lon": 0.0, "bike_id": "4a6682e63eac24859801bb641cfa0baf", "is_reserved": 0, "rental_uris": {"android": "https://dc.lft.to/lastmile_qr_scan", "ios": "https://dc.lft.to/lastmile_qr_scan"}, "lat": 38.91705983333333, "is_disabled": 0, "lon": -77.03762883333333}, {"fusion_lat": 0.0, "type": "electric_scooter", "name": "e7ad96f4370ad2d0518bf21d86ab5c07", "fusion_lon": 0.0, "bike_id": "e7ad96f4370ad2d0518bf21d86ab5c07", "is_reserved": 0, "rental_uris": {"android": "https://dc.lft.to/lastmile_qr_scan", "ios": "https://dc.lft.to/lastmile_qr_scan"}, "lat": 38.9286465, "is_disabled": 0, "lon": -77.03305316666666}, {"fusion_lat": 0.0, "type": "electric_scooter", "name": "2d8b420c1777cc37e3bb2d4f577356af", "fusion_lon": 0.0, "bike_id": "2d8b420c1777cc37e3bb2d4f577356af", "is_reserved": 0, "rental_uris": {"android": "https://dc.lft.to/lastmile_qr_scan", "ios": "https://dc.lft.to/lastmile_qr_scan"}, "lat": 38.909674, "is_disabled": 0, "lon": -77.024167}, {"fusion_lat": 0.0, "type": "electric_scooter", "name": "45e1de3593d8729495df359c6638076e", "fusion_lon": 0.0, "bike_id": "45e1de3593d8729495df359c6638076e", "is_reserved": 0, "rental_uris": {"android": "https://dc.lft.to/lastmile_qr_scan", "ios": "https://dc.lft.to/lastmile_qr_scan"}, "lat": 38.93387033333333, "is_disabled": 0, "lon": -77.02357283333333}, {"fusion_lat": 0.0, "type": "electric_scooter", "name": "d4dca7e132dc927918cb3681c91e1e60", "fusion_lon": 0.0, "bike_id": "d4dca7e132dc927918cb3681c91e1e60", "is_reserved": 0, "rental_uris": {"android": "https://dc.lft.to/lastmile_qr_scan", "ios": "https://dc.lft.to/lastmile_qr_scan"}, "lat": 38.86644366666667, "is_disabled": 0, "lon": -76.98535683333333}, {"fusion_lat": 0.0, "type": "electric_scooter", "name": "ef4edba9c953a2cb9ade45827b17da55", "fusion_lon": 0.0, "bike_id": "ef4edba9c953a2cb9ade45827b17da55", "is_reserved": 0, "rental_uris": {"android": "https://dc.lft.to/lastmile_qr_scan", "ios": "https://dc.lft.to/lastmile_qr_scan"}, "lat": 38.91034533333333, "is_disabled": 0, "lon": -77.042739}, {"fusion_lat": 0.0, "type": "electric_scooter", "name": "32e9ee5d0551380cebd8f8b958a221bb", "fusion_lon": 0.0, "bike_id": "32e9ee5d0551380cebd8f8b958a221bb", "is_reserved": 0, "rental_uris": {"android": "https://dc.lft.to/lastmile_qr_scan", "ios": "https://dc.lft.to/lastmile_qr_scan"}, "lat": 38.92792, "is_disabled": 0, "lon": -77.02603433333333}, {"fusion_lat": 0.0, "type": "electric_scooter", "name": "738ea0ac9f49bfa918549ba67624ea8c", "fusion_lon": 0.0, "bike_id": "738ea0ac9f49bfa918549ba67624ea8c", "is_reserved": 0, "rental_uris": {"android": "https://dc.lft.to/lastmile_qr_scan", "ios": "https://dc.lft.to/lastmile_qr_scan"}, "lat": 38.917049166666665, "is_disabled": 0, "lon": -77.03513983333333}, {"fusion_lat": 0.0, "type": "electric_scooter", "name": "2703d25e08fb3ba33dc78ce4d2f367bb", "fusion_lon": 0.0, "bike_id": "2703d25e08fb3ba33dc78ce4d2f367bb", "is_reserved": 0, "rental_uris": {"android": "https://dc.lft.to/lastmile_qr_scan", "ios": "https://dc.lft.to/lastmile_qr_scan"}, "lat": 38.893317, "is_disabled": 0, "lon": -77.0120425}, {"fusion_lat": 0.0, "type": "electric_scooter", "name": "5c571c150c3a2e9055c36625728c698d", "fusion_lon": 0.0, "bike_id": "5c571c150c3a2e9055c36625728c698d", "is_reserved": 0, "rental_uris": {"android": "https://dc.lft.to/lastmile_qr_scan", "ios": "https://dc.lft.to/lastmile_qr_scan"}, "lat": 38.8731515, "is_disabled": 0, "lon": -77.00575016666667}, {"fusion_lat": 0.0, "type": "electric_scooter", "name": "b5a530b977e40b430cafc474ac19d0d3", "fusion_lon": 0.0, "bike_id": "b5a530b977e40b430cafc474ac19d0d3", "is_reserved": 0, "rental_uris": {"android": "https://dc.lft.to/lastmile_qr_scan", "ios": "https://dc.lft.to/lastmile_qr_scan"}, "lat": 38.88814716666667, "is_disabled": 0, "lon": -76.93346133333333}, {"fusion_lat": 0.0, "type": "electric_scooter", "name": "405c344a89e12165a4147245dddc8ee1", "fusion_lon": 0.0, "bike_id": "405c344a89e12165a4147245dddc8ee1", "is_reserved": 0, "rental_uris": {"android": "https://dc.lft.to/lastmile_qr_scan", "ios": "https://dc.lft.to/lastmile_qr_scan"}, "lat": 38.892334, "is_disabled": 0, "lon": -77.03192216666666}, {"fusion_lat": 0.0, "type": "electric_scooter", "name": "523171b6cbe03365335cabc2e2bccee3", "fusion_lon": 0.0, "bike_id": "523171b6cbe03365335cabc2e2bccee3", "is_reserved": 0, "rental_uris": {"android": "https://dc.lft.to/lastmile_qr_scan", "ios": "https://dc.lft.to/lastmile_qr_scan"}, "lat": 38.89716116666666, "is_disabled": 0, "lon": -77.02706566666667}, {"fusion_lat": 0.0, "type": "electric_scooter", "name": "490db0265721260d199165ddcf072ad3", "fusion_lon": 0.0, "bike_id": "490db0265721260d199165ddcf072ad3", "is_reserved": 0, "rental_uris": {"android": "https://dc.lft.to/lastmile_qr_scan", "ios": "https://dc.lft.to/lastmile_qr_scan"}, "lat": 38.92106783333333, "is_disabled": 0, "lon": -77.04207783333334}, {"fusion_lat": 0.0, "type": "electric_scooter", "name": "cd5a7b22e84a39dd9386b7c62068f774", "fusion_lon": 0.0, "bike_id": "cd5a7b22e84a39dd9386b7c62068f774", "is_reserved": 0, "rental_uris": {"android": "https://dc.lft.to/lastmile_qr_scan", "ios": "https://dc.lft.to/lastmile_qr_scan"}, "lat": 38.896871, "is_disabled": 0, "lon": -77.004919}, {"fusion_lat": 0.0, "type": "electric_scooter", "name": "0caba4e59362e43c6ba0dd87a18e5a35", "fusion_lon": 0.0, "bike_id": "0caba4e59362e43c6ba0dd87a18e5a35", "is_reserved": 0, "rental_uris": {"android": "https://dc.lft.to/lastmile_qr_scan", "ios": "https://dc.lft.to/lastmile_qr_scan"}, "lat": 38.91718816666667, "is_disabled": 0, "lon": -77.02537266666667}, {"fusion_lat": 0.0, "type": "electric_scooter", "name": "5b0a3dc8de4d89849aac8e15a02fd993", "fusion_lon": 0.0, "bike_id": "5b0a3dc8de4d89849aac8e15a02fd993", "is_reserved": 0, "rental_uris": {"android": "https://dc.lft.to/lastmile_qr_scan", "ios": "https://dc.lft.to/lastmile_qr_scan"}, "lat": 38.923998833333336, "is_disabled": 0, "lon": -77.03551916666666}, {"fusion_lat": 0.0, "type": "electric_scooter", "name": "5845272967fa59906e9f0b8cb4120b1c", "fusion_lon": 0.0, "bike_id": "5845272967fa59906e9f0b8cb4120b1c", "is_reserved": 0, "rental_uris": {"android": "https://dc.lft.to/lastmile_qr_scan", "ios": "https://dc.lft.to/lastmile_qr_scan"}, "lat": 38.9170175, "is_disabled": 0, "lon": -77.04172483333333}, {"fusion_lat": 0.0, "type": "electric_scooter", "name": "f560f47ad3aecddfd59f63604d65cdd4", "fusion_lon": 0.0, "bike_id": "f560f47ad3aecddfd59f63604d65cdd4", "is_reserved": 0, "rental_uris": {"android": "https://dc.lft.to/lastmile_qr_scan", "ios": "https://dc.lft.to/lastmile_qr_scan"}, "lat": 38.926129, "is_disabled": 0, "lon": -77.02163883333333}, {"fusion_lat": 0.0, "type": "electric_scooter", "name": "e20b2562503a5c793400d610ccc2e7ee", "fusion_lon": 0.0, "bike_id": "e20b2562503a5c793400d610ccc2e7ee", "is_reserved": 0, "rental_uris": {"android": "https://dc.lft.to/lastmile_qr_scan", "ios": "https://dc.lft.to/lastmile_qr_scan"}, "lat": 38.909561333333336, "is_disabled": 0, "lon": -77.03210633333333}, {"fusion_lat": 0.0, "type": "electric_scooter", "name": "a94e3011fc8388c526f656a9afefa98f", "fusion_lon": 0.0, "bike_id": "a94e3011fc8388c526f656a9afefa98f", "is_reserved": 0, "rental_uris": {"android": "https://dc.lft.to/lastmile_qr_scan", "ios": "https://dc.lft.to/lastmile_qr_scan"}, "lat": 38.86886766666667, "is_disabled": 0, "lon": -76.98232416666667}, {"fusion_lat": 0.0, "type": "electric_scooter", "name": "7f50cab99370b9645a76c5968b87075f", "fusion_lon": 0.0, "bike_id": "7f50cab99370b9645a76c5968b87075f", "is_reserved": 0, "rental_uris": {"android": "https://dc.lft.to/lastmile_qr_scan", "ios": "https://dc.lft.to/lastmile_qr_scan"}, "lat": 38.892188833333336, "is_disabled": 0, "lon": -77.01372216666667}, {"fusion_lat": 0.0, "type": "electric_bike", "name": "3e9dc64b441ff2ec95857d296266283d", "fusion_lon": 0.0, "bike_id": "3e9dc64b441ff2ec95857d296266283d", "is_reserved": 0, "rental_uris": {"android": "https://dc.lft.to/lastmile_qr_scan", "ios": "https://dc.lft.to/lastmile_qr_scan"}, "lat": 38.945604333333335, "is_disabled": 0, "lon": -76.966892}, {"fusion_lat": 0.0, "type": "electric_scooter", "name": "c4b5337d5271f8f7dbb02217424d6f86", "fusion_lon": 0.0, "bike_id": "c4b5337d5271f8f7dbb02217424d6f86", "is_reserved": 0, "rental_uris": {"android": "https://dc.lft.to/lastmile_qr_scan", "ios": "https://dc.lft.to/lastmile_qr_scan"}, "lat": 38.84312216666667, "is_disabled": 0, "lon": -76.99934766666667}, {"fusion_lat": 0.0, "type": "electric_scooter", "name": "a126ab9eb7b78ec099f2948b0b75cf00", "fusion_lon": 0.0, "bike_id": "a126ab9eb7b78ec099f2948b0b75cf00", "is_reserved": 0, "rental_uris": {"android": "https://dc.lft.to/lastmile_qr_scan", "ios": "https://dc.lft.to/lastmile_qr_scan"}, "lat": 38.86698766666667, "is_disabled": 0, "lon": -76.98711983333334}, {"fusion_lat": 0.0, "type": "electric_scooter", "name": "603a4030a6a7fba96767e49f36d91de7", "fusion_lon": 0.0, "bike_id": "603a4030a6a7fba96767e49f36d91de7", "is_reserved": 0, "rental_uris": {"android": "https://dc.lft.to/lastmile_qr_scan", "ios": "https://dc.lft.to/lastmile_qr_scan"}, "lat": 38.887775, "is_disabled": 0, "lon": -76.95535583333333}, {"fusion_lat": 0.0, "type": "electric_scooter", "name": "23a76ff2eba2b2ea0cc63fe10a15765d", "fusion_lon": 0.0, "bike_id": "23a76ff2eba2b2ea0cc63fe10a15765d", "is_reserved": 0, "rental_uris": {"android": "https://dc.lft.to/lastmile_qr_scan", "ios": "https://dc.lft.to/lastmile_qr_scan"}, "lat": 38.892237, "is_disabled": 0, "lon": -77.04336183333334}, {"fusion_lat": 0.0, "type": "electric_scooter", "name": "6c2c0c6960ed66c8b2dc018292fa9cad", "fusion_lon": 0.0, "bike_id": "6c2c0c6960ed66c8b2dc018292fa9cad", "is_reserved": 0, "rental_uris": {"android": "https://dc.lft.to/lastmile_qr_scan", "ios": "https://dc.lft.to/lastmile_qr_scan"}, "lat": 38.89977116666667, "is_disabled": 0, "lon": -77.0184725}, {"fusion_lat": 0.0, "type": "electric_scooter", "name": "d10e454f804075066477bc86d47ebc84", "fusion_lon": 0.0, "bike_id": "d10e454f804075066477bc86d47ebc84", "is_reserved": 0, "rental_uris": {"android": "https://dc.lft.to/lastmile_qr_scan", "ios": "https://dc.lft.to/lastmile_qr_scan"}, "lat": 38.93464516666667, "is_disabled": 0, "lon": -77.02769933333333}, {"fusion_lat": 0.0, "type": "electric_scooter", "name": "b0faa1fb71a685272b6290f03ed4812b", "fusion_lon": 0.0, "bike_id": "b0faa1fb71a685272b6290f03ed4812b", "is_reserved": 0, "rental_uris": {"android": "https://dc.lft.to/lastmile_qr_scan", "ios": "https://dc.lft.to/lastmile_qr_scan"}, "lat": 38.910089666666664, "is_disabled": 0, "lon": -77.00541733333333}, {"fusion_lat": 0.0, "type": "electric_bike", "name": "8e8cc009554ebf7e35fe18a76b2d12d2", "fusion_lon": 0.0, "bike_id": "8e8cc009554ebf7e35fe18a76b2d12d2", "is_reserved": 0, "rental_uris": {"android": "https://dc.lft.to/lastmile_qr_scan", "ios": "https://dc.lft.to/lastmile_qr_scan"}, "lat": 38.888716333333335, "is_disabled": 0, "lon": -77.08171983333334}, {"fusion_lat": 0.0, "type": "electric_scooter", "name": "2bf30cd68012d99d38afabe0fd054050", "fusion_lon": 0.0, "bike_id": "2bf30cd68012d99d38afabe0fd054050", "is_reserved": 0, "rental_uris": {"android": "https://dc.lft.to/lastmile_qr_scan", "ios": "https://dc.lft.to/lastmile_qr_scan"}, "lat": 38.92662983333334, "is_disabled": 0, "lon": -77.02329466666667}, {"fusion_lat": 0.0, "type": "electric_scooter", "name": "32096c84c42015b55c5bc75269bdeecf", "fusion_lon": 0.0, "bike_id": "32096c84c42015b55c5bc75269bdeecf", "is_reserved": 0, "rental_uris": {"android": "https://dc.lft.to/lastmile_qr_scan", "ios": "https://dc.lft.to/lastmile_qr_scan"}, "lat": 38.89800066666667, "is_disabled": 0, "lon": -77.0186065}, {"fusion_lat": 0.0, "type": "electric_scooter", "name": "51b4d7f3f273bf3e25a6dbb774f1300f", "fusion_lon": 0.0, "bike_id": "51b4d7f3f273bf3e25a6dbb774f1300f", "is_reserved": 0, "rental_uris": {"android": "https://dc.lft.to/lastmile_qr_scan", "ios": "https://dc.lft.to/lastmile_qr_scan"}, "lat": 38.87039933333333, "is_disabled": 0, "lon": -77.00969016666667}, {"fusion_lat": 0.0, "type": "electric_scooter", "name": "e2c31b470c91088603349c500e0be664", "fusion_lon": 0.0, "bike_id": "e2c31b470c91088603349c500e0be664", "is_reserved": 0, "rental_uris": {"android": "https://dc.lft.to/lastmile_qr_scan", "ios": "https://dc.lft.to/lastmile_qr_scan"}, "lat": 38.93075183333333, "is_disabled": 0, "lon": -77.03480133333333}, {"fusion_lat": 0.0, "type": "electric_scooter", "name": "a570c5902f257ae71fffd287581bdeac", "fusion_lon": 0.0, "bike_id": "a570c5902f257ae71fffd287581bdeac", "is_reserved": 0, "rental_uris": {"android": "https://dc.lft.to/lastmile_qr_scan", "ios": "https://dc.lft.to/lastmile_qr_scan"}, "lat": 38.864168166666666, "is_disabled": 0, "lon": -76.991386}, {"fusion_lat": 0.0, "type": "electric_scooter", "name": "eef313f74fcbc377be0b2728b90f142f", "fusion_lon": 0.0, "bike_id": "eef313f74fcbc377be0b2728b90f142f", "is_reserved": 0, "rental_uris": {"android": "https://dc.lft.to/lastmile_qr_scan", "ios": "https://dc.lft.to/lastmile_qr_scan"}, "lat": 38.90474233333333, "is_disabled": 0, "lon": -77.04863283333333}, {"fusion_lat": 0.0, "type": "electric_scooter", "name": "e08e004cefc9ae397074d4e60cdbbb77", "fusion_lon": 0.0, "bike_id": "e08e004cefc9ae397074d4e60cdbbb77", "is_reserved": 0, "rental_uris": {"android": "https://dc.lft.to/lastmile_qr_scan", "ios": "https://dc.lft.to/lastmile_qr_scan"}, "lat": 38.92852583333333, "is_disabled": 0, "lon": -77.03293816666667}, {"fusion_lat": 0.0, "type": "electric_scooter", "name": "b6db39e773f8fd0b282937e9455f9cea", "fusion_lon": 0.0, "bike_id": "b6db39e773f8fd0b282937e9455f9cea", "is_reserved": 0, "rental_uris": {"android": "https://dc.lft.to/lastmile_qr_scan", "ios": "https://dc.lft.to/lastmile_qr_scan"}, "lat": 38.921513833333336, "is_disabled": 0, "lon": -77.03506933333334}, {"fusion_lat": 0.0, "type": "electric_scooter", "name": "f923b696178a0fc80e5afd96cd3ac12b", "fusion_lon": 0.0, "bike_id": "f923b696178a0fc80e5afd96cd3ac12b", "is_reserved": 0, "rental_uris": {"android": "https://dc.lft.to/lastmile_qr_scan", "ios": "https://dc.lft.to/lastmile_qr_scan"}, "lat": 38.952031, "is_disabled": 0, "lon": -77.02732916666666}, {"fusion_lat": 0.0, "type": "electric_bike", "name": "803b9b9944187c9f53dff5cdfd32520e", "fusion_lon": 0.0, "bike_id": "803b9b9944187c9f53dff5cdfd32520e", "is_reserved": 0, "rental_uris": {"android": "https://dc.lft.to/lastmile_qr_scan", "ios": "https://dc.lft.to/lastmile_qr_scan"}, "lat": 38.96505716666667, "is_disabled": 0, "lon": -77.0282115}, {"fusion_lat": 0.0, "type": "electric_scooter", "name": "a9e0b0d2d4a97b1086d0abce7c13c1ca", "fusion_lon": 0.0, "bike_id": "a9e0b0d2d4a97b1086d0abce7c13c1ca", "is_reserved": 0, "rental_uris": {"android": "https://dc.lft.to/lastmile_qr_scan", "ios": "https://dc.lft.to/lastmile_qr_scan"}, "lat": 38.892169, "is_disabled": 0, "lon": -77.031627}, {"fusion_lat": 0.0, "type": "electric_scooter", "name": "84a7d5f1404267331682b4bdacf2feed", "fusion_lon": 0.0, "bike_id": "84a7d5f1404267331682b4bdacf2feed", "is_reserved": 0, "rental_uris": {"android": "https://dc.lft.to/lastmile_qr_scan", "ios": "https://dc.lft.to/lastmile_qr_scan"}, "lat": 38.916835, "is_disabled": 0, "lon": -77.02951616666667}, {"fusion_lat": 0.0, "type": "electric_scooter", "name": "57594f257c3f711d70a757b1f79c9d02", "fusion_lon": 0.0, "bike_id": "57594f257c3f711d70a757b1f79c9d02", "is_reserved": 0, "rental_uris": {"android": "https://dc.lft.to/lastmile_qr_scan", "ios": "https://dc.lft.to/lastmile_qr_scan"}, "lat": 38.937728166666666, "is_disabled": 0, "lon": -77.03265133333333}, {"fusion_lat": 0.0, "type": "electric_scooter", "name": "689a30393643a3213f39f758b53052cd", "fusion_lon": 0.0, "bike_id": "689a30393643a3213f39f758b53052cd", "is_reserved": 0, "rental_uris": {"android": "https://dc.lft.to/lastmile_qr_scan", "ios": "https://dc.lft.to/lastmile_qr_scan"}, "lat": 38.88739616666667, "is_disabled": 0, "lon": -77.02582516666666}, {"fusion_lat": 0.0, "type": "electric_scooter", "name": "2c764b6146a239d43c0384288a83608b", "fusion_lon": 0.0, "bike_id": "2c764b6146a239d43c0384288a83608b", "is_reserved": 0, "rental_uris": {"android": "https://dc.lft.to/lastmile_qr_scan", "ios": "https://dc.lft.to/lastmile_qr_scan"}, "lat": 38.92417733333333, "is_disabled": 0, "lon": -77.0230205}, {"fusion_lat": 0.0, "type": "electric_scooter", "name": "609ec31dc7bd83d5c0317cc72426c339", "fusion_lon": 0.0, "bike_id": "609ec31dc7bd83d5c0317cc72426c339", "is_reserved": 0, "rental_uris": {"android": "https://dc.lft.to/lastmile_qr_scan", "ios": "https://dc.lft.to/lastmile_qr_scan"}, "lat": 38.900141166666664, "is_disabled": 0, "lon": -76.9930625}, {"fusion_lat": 0.0, "type": "electric_scooter", "name": "9f6c7871b4b6b22d8d154813c29d9d99", "fusion_lon": 0.0, "bike_id": "9f6c7871b4b6b22d8d154813c29d9d99", "is_reserved": 0, "rental_uris": {"android": "https://dc.lft.to/lastmile_qr_scan", "ios": "https://dc.lft.to/lastmile_qr_scan"}, "lat": 38.9236875, "is_disabled": 0, "lon": -77.02798266666667}, {"fusion_lat": 0.0, "type": "electric_scooter", "name": "dc734381cbfc2c9bd1637157aaee9acd", "fusion_lon": 0.0, "bike_id": "dc734381cbfc2c9bd1637157aaee9acd", "is_reserved": 0, "rental_uris": {"android": "https://dc.lft.to/lastmile_qr_scan", "ios": "https://dc.lft.to/lastmile_qr_scan"}, "lat": 38.937063333333334, "is_disabled": 0, "lon": -77.06104133333334}, {"fusion_lat": 0.0, "type": "electric_bike", "name": "68f4dab232da9c870ccae9a43e4a5b04", "fusion_lon": 0.0, "bike_id": "68f4dab232da9c870ccae9a43e4a5b04", "is_reserved": 0, "rental_uris": {"android": "https://dc.lft.to/lastmile_qr_scan", "ios": "https://dc.lft.to/lastmile_qr_scan"}, "lat": 38.9623335, "is_disabled": 0, "lon": -77.02631033333333}, {"fusion_lat": 0.0, "type": "electric_scooter", "name": "e3101fe990c71d40e564b527a4df6bbb", "fusion_lon": 0.0, "bike_id": "e3101fe990c71d40e564b527a4df6bbb", "is_reserved": 0, "rental_uris": {"android": "https://dc.lft.to/lastmile_qr_scan", "ios": "https://dc.lft.to/lastmile_qr_scan"}, "lat": 38.89737983333333, "is_disabled": 0, "lon": -77.01313583333334}, {"fusion_lat": 0.0, "type": "electric_scooter", "name": "42e641805e71dc50fc0f92d31491ba1a", "fusion_lon": 0.0, "bike_id": "42e641805e71dc50fc0f92d31491ba1a", "is_reserved": 0, "rental_uris": {"android": "https://dc.lft.to/lastmile_qr_scan", "ios": "https://dc.lft.to/lastmile_qr_scan"}, "lat": 38.888290833333336, "is_disabled": 0, "lon": -76.99369083333333}, {"fusion_lat": 0.0, "type": "electric_scooter", "name": "98498a19d36860cbaedf421b449c14f9", "fusion_lon": 0.0, "bike_id": "98498a19d36860cbaedf421b449c14f9", "is_reserved": 0, "rental_uris": {"android": "https://dc.lft.to/lastmile_qr_scan", "ios": "https://dc.lft.to/lastmile_qr_scan"}, "lat": 38.86685533333333, "is_disabled": 0, "lon": -76.98596416666666}, {"fusion_lat": 0.0, "type": "electric_scooter", "name": "6c036b47f71d85ba9f9e072a04ca0384", "fusion_lon": 0.0, "bike_id": "6c036b47f71d85ba9f9e072a04ca0384", "is_reserved": 0, "rental_uris": {"android": "https://dc.lft.to/lastmile_qr_scan", "ios": "https://dc.lft.to/lastmile_qr_scan"}, "lat": 38.9086475, "is_disabled": 0, "lon": -77.04278633333334}, {"fusion_lat": 0.0, "type": "electric_scooter", "name": "22e40753df404c3327265b53f8497b27", "fusion_lon": 0.0, "bike_id": "22e40753df404c3327265b53f8497b27", "is_reserved": 0, "rental_uris": {"android": "https://dc.lft.to/lastmile_qr_scan", "ios": "https://dc.lft.to/lastmile_qr_scan"}, "lat": 38.92746983333333, "is_disabled": 0, "lon": -77.02536233333333}, {"fusion_lat": 0.0, "type": "electric_scooter", "name": "7458cb891f8ec2cb8e3c56bff20f77e2", "fusion_lon": 0.0, "bike_id": "7458cb891f8ec2cb8e3c56bff20f77e2", "is_reserved": 0, "rental_uris": {"android": "https://dc.lft.to/lastmile_qr_scan", "ios": "https://dc.lft.to/lastmile_qr_scan"}, "lat": 38.90573766666667, "is_disabled": 0, "lon": -77.022004}, {"fusion_lat": 0.0, "type": "electric_scooter", "name": "915646b30f45c2c2e9236af15f701321", "fusion_lon": 0.0, "bike_id": "915646b30f45c2c2e9236af15f701321", "is_reserved": 0, "rental_uris": {"android": "https://dc.lft.to/lastmile_qr_scan", "ios": "https://dc.lft.to/lastmile_qr_scan"}, "lat": 38.87457766666667, "is_disabled": 0, "lon": -77.005459}, {"fusion_lat": 0.0, "type": "electric_scooter", "name": "4d0768d0e69c395a7acca255432a9599", "fusion_lon": 0.0, "bike_id": "4d0768d0e69c395a7acca255432a9599", "is_reserved": 0, "rental_uris": {"android": "https://dc.lft.to/lastmile_qr_scan", "ios": "https://dc.lft.to/lastmile_qr_scan"}, "lat": 38.933983833333336, "is_disabled": 0, "lon": -77.02210766666667}, {"fusion_lat": 0.0, "type": "electric_scooter", "name": "4739fa7ee2d90a47bd7c4f617845ed7a", "fusion_lon": 0.0, "bike_id": "4739fa7ee2d90a47bd7c4f617845ed7a", "is_reserved": 0, "rental_uris": {"android": "https://dc.lft.to/lastmile_qr_scan", "ios": "https://dc.lft.to/lastmile_qr_scan"}, "lat": 38.863741833333336, "is_disabled": 0, "lon": -76.99061333333333}, {"fusion_lat": 0.0, "type": "electric_scooter", "name": "472bf133254b1d65f7a092d28e79a9e6", "fusion_lon": 0.0, "bike_id": "472bf133254b1d65f7a092d28e79a9e6", "is_reserved": 0, "rental_uris": {"android": "https://dc.lft.to/lastmile_qr_scan", "ios": "https://dc.lft.to/lastmile_qr_scan"}, "lat": 38.89295116666667, "is_disabled": 0, "lon": -77.01230383333333}, {"fusion_lat": 0.0, "type": "electric_scooter", "name": "118064ad106236c6533eb91f3827acfd", "fusion_lon": 0.0, "bike_id": "118064ad106236c6533eb91f3827acfd", "is_reserved": 0, "rental_uris": {"android": "https://dc.lft.to/lastmile_qr_scan", "ios": "https://dc.lft.to/lastmile_qr_scan"}, "lat": 38.924825166666665, "is_disabled": 0, "lon": -77.0575995}, {"fusion_lat": 0.0, "type": "electric_scooter", "name": "32fb901cf5d7251aad8ffc1f5026713b", "fusion_lon": 0.0, "bike_id": "32fb901cf5d7251aad8ffc1f5026713b", "is_reserved": 0, "rental_uris": {"android": "https://dc.lft.to/lastmile_qr_scan", "ios": "https://dc.lft.to/lastmile_qr_scan"}, "lat": 38.92108833333333, "is_disabled": 0, "lon": -77.03334166666667}, {"fusion_lat": 0.0, "type": "electric_scooter", "name": "d2ac71bf947e3cde65382b0593c67372", "fusion_lon": 0.0, "bike_id": "d2ac71bf947e3cde65382b0593c67372", "is_reserved": 0, "rental_uris": {"android": "https://dc.lft.to/lastmile_qr_scan", "ios": "https://dc.lft.to/lastmile_qr_scan"}, "lat": 38.919048333333336, "is_disabled": 0, "lon": -77.03445666666667}, {"fusion_lat": 0.0, "type": "electric_scooter", "name": "27940c41d39f9ba7743d281902791049", "fusion_lon": 0.0, "bike_id": "27940c41d39f9ba7743d281902791049", "is_reserved": 0, "rental_uris": {"android": "https://dc.lft.to/lastmile_qr_scan", "ios": "https://dc.lft.to/lastmile_qr_scan"}, "lat": 38.866525333333335, "is_disabled": 0, "lon": -76.985314}, {"fusion_lat": 0.0, "type": "electric_scooter", "name": "d697f4fdfd2ba03912629eac6e830bde", "fusion_lon": 0.0, "bike_id": "d697f4fdfd2ba03912629eac6e830bde", "is_reserved": 0, "rental_uris": {"android": "https://dc.lft.to/lastmile_qr_scan", "ios": "https://dc.lft.to/lastmile_qr_scan"}, "lat": 38.95686716666667, "is_disabled": 0, "lon": -77.03260766666666}, {"fusion_lat": 0.0, "type": "electric_scooter", "name": "9f00c67ea68223ab82ee69cfc908f5c3", "fusion_lon": 0.0, "bike_id": "9f00c67ea68223ab82ee69cfc908f5c3", "is_reserved": 0, "rental_uris": {"android": "https://dc.lft.to/lastmile_qr_scan", "ios": "https://dc.lft.to/lastmile_qr_scan"}, "lat": 38.91552866666667, "is_disabled": 0, "lon": -77.0070295}, {"fusion_lat": 0.0, "type": "electric_scooter", "name": "9d55afe21ed049270ba687fb6954a9c5", "fusion_lon": 0.0, "bike_id": "9d55afe21ed049270ba687fb6954a9c5", "is_reserved": 0, "rental_uris": {"android": "https://dc.lft.to/lastmile_qr_scan", "ios": "https://dc.lft.to/lastmile_qr_scan"}, "lat": 38.924451166666664, "is_disabled": 0, "lon": -77.057721}, {"fusion_lat": 0.0, "type": "electric_scooter", "name": "5850ddcf7240a0bc51e2b993cf058675", "fusion_lon": 0.0, "bike_id": "5850ddcf7240a0bc51e2b993cf058675", "is_reserved": 0, "rental_uris": {"android": "https://dc.lft.to/lastmile_qr_scan", "ios": "https://dc.lft.to/lastmile_qr_scan"}, "lat": 38.914435833333336, "is_disabled": 0, "lon": -77.06710233333334}, {"fusion_lat": 0.0, "type": "electric_scooter", "name": "07827deed00537af721c46e5876768eb", "fusion_lon": 0.0, "bike_id": "07827deed00537af721c46e5876768eb", "is_reserved": 0, "rental_uris": {"android": "https://dc.lft.to/lastmile_qr_scan", "ios": "https://dc.lft.to/lastmile_qr_scan"}, "lat": 38.92549366666667, "is_disabled": 0, "lon": -77.02965483333334}, {"fusion_lat": 0.0, "type": "electric_scooter", "name": "08624be124e124bd84e43e2db4a83ae6", "fusion_lon": 0.0, "bike_id": "08624be124e124bd84e43e2db4a83ae6", "is_reserved": 0, "rental_uris": {"android": "https://dc.lft.to/lastmile_qr_scan", "ios": "https://dc.lft.to/lastmile_qr_scan"}, "lat": 38.91127383333333, "is_disabled": 0, "lon": -77.04367966666666}, {"fusion_lat": 0.0, "type": "electric_scooter", "name": "2d351109be614cf6bb1b7210bef6c796", "fusion_lon": 0.0, "bike_id": "2d351109be614cf6bb1b7210bef6c796", "is_reserved": 0, "rental_uris": {"android": "https://dc.lft.to/lastmile_qr_scan", "ios": "https://dc.lft.to/lastmile_qr_scan"}, "lat": 38.912715666666664, "is_disabled": 0, "lon": -77.0474685}, {"fusion_lat": 0.0, "type": "electric_bike", "name": "80be1aaf58dd38c4e804f096ceabd4c9", "fusion_lon": 0.0, "bike_id": "80be1aaf58dd38c4e804f096ceabd4c9", "is_reserved": 0, "rental_uris": {"android": "https://dc.lft.to/lastmile_qr_scan", "ios": "https://dc.lft.to/lastmile_qr_scan"}, "lat": 39.05792666666667, "is_disabled": 0, "lon": -77.15027583333334}, {"fusion_lat": 0.0, "type": "electric_scooter", "name": "3a52ccde77d8bf54b872efd94da2bea8", "fusion_lon": 0.0, "bike_id": "3a52ccde77d8bf54b872efd94da2bea8", "is_reserved": 0, "rental_uris": {"android": "https://dc.lft.to/lastmile_qr_scan", "ios": "https://dc.lft.to/lastmile_qr_scan"}, "lat": 38.91274033333333, "is_disabled": 0, "lon": -77.04415616666667}, {"fusion_lat": 0.0, "type": "electric_scooter", "name": "4d9d27a93e190f0446945de90a036006", "fusion_lon": 0.0, "bike_id": "4d9d27a93e190f0446945de90a036006", "is_reserved": 0, "rental_uris": {"android": "https://dc.lft.to/lastmile_qr_scan", "ios": "https://dc.lft.to/lastmile_qr_scan"}, "lat": 38.8991555, "is_disabled": 0, "lon": -76.9337005}, {"fusion_lat": 0.0, "type": "electric_scooter", "name": "45796f6b1007a14544b91ee388e4d8b4", "fusion_lon": 0.0, "bike_id": "45796f6b1007a14544b91ee388e4d8b4", "is_reserved": 0, "rental_uris": {"android": "https://dc.lft.to/lastmile_qr_scan", "ios": "https://dc.lft.to/lastmile_qr_scan"}, "lat": 38.919186333333336, "is_disabled": 0, "lon": -77.02412566666666}, {"fusion_lat": 0.0, "type": "electric_scooter", "name": "3fe19c92bc417172594607fbdad0c954", "fusion_lon": 0.0, "bike_id": "3fe19c92bc417172594607fbdad0c954", "is_reserved": 0, "rental_uris": {"android": "https://dc.lft.to/lastmile_qr_scan", "ios": "https://dc.lft.to/lastmile_qr_scan"}, "lat": 38.9104865, "is_disabled": 0, "lon": -77.0410405}, {"fusion_lat": 0.0, "type": "electric_scooter", "name": "5aa67bb928fb246323589d8f616fec2c", "fusion_lon": 0.0, "bike_id": "5aa67bb928fb246323589d8f616fec2c", "is_reserved": 0, "rental_uris": {"android": "https://dc.lft.to/lastmile_qr_scan", "ios": "https://dc.lft.to/lastmile_qr_scan"}, "lat": 38.89221633333333, "is_disabled": 0, "lon": -77.04867016666667}, {"fusion_lat": 0.0, "type": "electric_bike", "name": "991a6c0472b3ba38b03e826fd67abeb8", "fusion_lon": 0.0, "bike_id": "991a6c0472b3ba38b03e826fd67abeb8", "is_reserved": 0, "rental_uris": {"android": "https://dc.lft.to/lastmile_qr_scan", "ios": "https://dc.lft.to/lastmile_qr_scan"}, "lat": 38.936341, "is_disabled": 0, "lon": -77.03332066666667}, {"fusion_lat": 0.0, "type": "electric_scooter", "name": "2a09554640621e9d57733460eac64fbf", "fusion_lon": 0.0, "bike_id": "2a09554640621e9d57733460eac64fbf", "is_reserved": 0, "rental_uris": {"android": "https://dc.lft.to/lastmile_qr_scan", "ios": "https://dc.lft.to/lastmile_qr_scan"}, "lat": 38.90859233333333, "is_disabled": 0, "lon": -77.04323066666667}, {"fusion_lat": 0.0, "type": "electric_scooter", "name": "8c1d38d916977106909779fd0621e860", "fusion_lon": 0.0, "bike_id": "8c1d38d916977106909779fd0621e860", "is_reserved": 0, "rental_uris": {"android": "https://dc.lft.to/lastmile_qr_scan", "ios": "https://dc.lft.to/lastmile_qr_scan"}, "lat": 38.921548666666666, "is_disabled": 0, "lon": -77.033867}, {"fusion_lat": 0.0, "type": "electric_scooter", "name": "84e366ee0f72cbfb61af74f69a614c39", "fusion_lon": 0.0, "bike_id": "84e366ee0f72cbfb61af74f69a614c39", "is_reserved": 0, "rental_uris": {"android": "https://dc.lft.to/lastmile_qr_scan", "ios": "https://dc.lft.to/lastmile_qr_scan"}, "lat": 38.916375333333335, "is_disabled": 0, "lon": -77.0481245}, {"fusion_lat": 0.0, "type": "electric_scooter", "name": "21f0e35360d66da245124cfa834594cc", "fusion_lon": 0.0, "bike_id": "21f0e35360d66da245124cfa834594cc", "is_reserved": 0, "rental_uris": {"android": "https://dc.lft.to/lastmile_qr_scan", "ios": "https://dc.lft.to/lastmile_qr_scan"}, "lat": 38.90240883333333, "is_disabled": 0, "lon": -76.99884316666666}, {"fusion_lat": 0.0, "type": "electric_scooter", "name": "3f457c7bd291995aad43e6ff92bb9a3c", "fusion_lon": 0.0, "bike_id": "3f457c7bd291995aad43e6ff92bb9a3c", "is_reserved": 0, "rental_uris": {"android": "https://dc.lft.to/lastmile_qr_scan", "ios": "https://dc.lft.to/lastmile_qr_scan"}, "lat": 38.9139115, "is_disabled": 0, "lon": -77.041722}, {"fusion_lat": 0.0, "type": "electric_scooter", "name": "6fd096e21a79ebbbd6fa6da0c22a4d7a", "fusion_lon": 0.0, "bike_id": "6fd096e21a79ebbbd6fa6da0c22a4d7a", "is_reserved": 0, "rental_uris": {"android": "https://dc.lft.to/lastmile_qr_scan", "ios": "https://dc.lft.to/lastmile_qr_scan"}, "lat": 38.93475933333333, "is_disabled": 0, "lon": -77.02838733333333}, {"fusion_lat": 0.0, "type": "electric_scooter", "name": "36d61d7b5c888caf530e674d736fdbd3", "fusion_lon": 0.0, "bike_id": "36d61d7b5c888caf530e674d736fdbd3", "is_reserved": 0, "rental_uris": {"android": "https://dc.lft.to/lastmile_qr_scan", "ios": "https://dc.lft.to/lastmile_qr_scan"}, "lat": 38.89221766666667, "is_disabled": 0, "lon": -77.02628133333333}, {"fusion_lat": 0.0, "type": "electric_scooter", "name": "9e7f524d8f31799065b88873b927d935", "fusion_lon": 0.0, "bike_id": "9e7f524d8f31799065b88873b927d935", "is_reserved": 0, "rental_uris": {"android": "https://dc.lft.to/lastmile_qr_scan", "ios": "https://dc.lft.to/lastmile_qr_scan"}, "lat": 38.90787916666667, "is_disabled": 0, "lon": -77.02298516666667}, {"fusion_lat": 0.0, "type": "electric_scooter", "name": "b69c31d86bf9e9683ed5a16518911397", "fusion_lon": 0.0, "bike_id": "b69c31d86bf9e9683ed5a16518911397", "is_reserved": 0, "rental_uris": {"android": "https://dc.lft.to/lastmile_qr_scan", "ios": "https://dc.lft.to/lastmile_qr_scan"}, "lat": 38.915654333333336, "is_disabled": 0, "lon": -77.0317925}, {"fusion_lat": 0.0, "type": "electric_scooter", "name": "c3866d004b5ab83683ebded2c2095695", "fusion_lon": 0.0, "bike_id": "c3866d004b5ab83683ebded2c2095695", "is_reserved": 0, "rental_uris": {"android": "https://dc.lft.to/lastmile_qr_scan", "ios": "https://dc.lft.to/lastmile_qr_scan"}, "lat": 38.92454566666667, "is_disabled": 0, "lon": -77.0328555}, {"fusion_lat": 0.0, "type": "electric_bike", "name": "8450c4d089c9d2dc6c1f5c8935879846", "fusion_lon": 0.0, "bike_id": "8450c4d089c9d2dc6c1f5c8935879846", "is_reserved": 0, "rental_uris": {"android": "https://dc.lft.to/lastmile_qr_scan", "ios": "https://dc.lft.to/lastmile_qr_scan"}, "lat": 38.96744433333333, "is_disabled": 0, "lon": -76.98188233333333}, {"fusion_lat": 0.0, "type": "electric_bike", "name": "39966dffe47beec5958c3bccda1ee668", "fusion_lon": 0.0, "bike_id": "39966dffe47beec5958c3bccda1ee668", "is_reserved": 0, "rental_uris": {"android": "https://dc.lft.to/lastmile_qr_scan", "ios": "https://dc.lft.to/lastmile_qr_scan"}, "lat": 39.0147595, "is_disabled": 0, "lon": -77.05490966666666}, {"fusion_lat": 0.0, "type": "electric_scooter", "name": "0f457127d9ab2952cc37ad42e450c1b2", "fusion_lon": 0.0, "bike_id": "0f457127d9ab2952cc37ad42e450c1b2", "is_reserved": 0, "rental_uris": {"android": "https://dc.lft.to/lastmile_qr_scan", "ios": "https://dc.lft.to/lastmile_qr_scan"}, "lat": 38.891999166666665, "is_disabled": 0, "lon": -77.02773816666667}, {"fusion_lat": 0.0, "type": "electric_scooter", "name": "0ad16097c0eb237d9655fdc4609a6039", "fusion_lon": 0.0, "bike_id": "0ad16097c0eb237d9655fdc4609a6039", "is_reserved": 0, "rental_uris": {"android": "https://dc.lft.to/lastmile_qr_scan", "ios": "https://dc.lft.to/lastmile_qr_scan"}, "lat": 38.943106666666665, "is_disabled": 0, "lon": -77.01727133333333}, {"fusion_lat": 0.0, "type": "electric_scooter", "name": "d3f2574917713f11fdf2f5ea8b30c862", "fusion_lon": 0.0, "bike_id": "d3f2574917713f11fdf2f5ea8b30c862", "is_reserved": 0, "rental_uris": {"android": "https://dc.lft.to/lastmile_qr_scan", "ios": "https://dc.lft.to/lastmile_qr_scan"}, "lat": 38.89850533333333, "is_disabled": 0, "lon": -76.9903035}, {"fusion_lat": 0.0, "type": "electric_scooter", "name": "db0287970fbd7a40b5f8016c02690d31", "fusion_lon": 0.0, "bike_id": "db0287970fbd7a40b5f8016c02690d31", "is_reserved": 0, "rental_uris": {"android": "https://dc.lft.to/lastmile_qr_scan", "ios": "https://dc.lft.to/lastmile_qr_scan"}, "lat": 38.93420716666667, "is_disabled": 0, "lon": -77.04402916666666}, {"fusion_lat": 0.0, "type": "electric_scooter", "name": "f14e501b228c24cb548163760bf79561", "fusion_lon": 0.0, "bike_id": "f14e501b228c24cb548163760bf79561", "is_reserved": 0, "rental_uris": {"android": "https://dc.lft.to/lastmile_qr_scan", "ios": "https://dc.lft.to/lastmile_qr_scan"}, "lat": 38.9073, "is_disabled": 0, "lon": -77.03194333333333}, {"fusion_lat": 0.0, "type": "electric_scooter", "name": "115609dbf76fd3a0602647e0e51ce087", "fusion_lon": 0.0, "bike_id": "115609dbf76fd3a0602647e0e51ce087", "is_reserved": 0, "rental_uris": {"android": "https://dc.lft.to/lastmile_qr_scan", "ios": "https://dc.lft.to/lastmile_qr_scan"}, "lat": 38.90624283333333, "is_disabled": 0, "lon": -77.05131883333334}, {"fusion_lat": 0.0, "type": "electric_scooter", "name": "7d082bd28d29acb2feb2d223b6395002", "fusion_lon": 0.0, "bike_id": "7d082bd28d29acb2feb2d223b6395002", "is_reserved": 0, "rental_uris": {"android": "https://dc.lft.to/lastmile_qr_scan", "ios": "https://dc.lft.to/lastmile_qr_scan"}, "lat": 38.9074335, "is_disabled": 0, "lon": -77.04212533333333}, {"fusion_lat": 0.0, "type": "electric_scooter", "name": "359d5e2ac69a5ead3e37158ea2a1fd68", "fusion_lon": 0.0, "bike_id": "359d5e2ac69a5ead3e37158ea2a1fd68", "is_reserved": 0, "rental_uris": {"android": "https://dc.lft.to/lastmile_qr_scan", "ios": "https://dc.lft.to/lastmile_qr_scan"}, "lat": 38.91592716666667, "is_disabled": 0, "lon": -77.03518}, {"fusion_lat": 0.0, "type": "electric_scooter", "name": "fb261acf388e0a60373d9d4b179b67b9", "fusion_lon": 0.0, "bike_id": "fb261acf388e0a60373d9d4b179b67b9", "is_reserved": 0, "rental_uris": {"android": "https://dc.lft.to/lastmile_qr_scan", "ios": "https://dc.lft.to/lastmile_qr_scan"}, "lat": 38.911087, "is_disabled": 0, "lon": -77.0190495}, {"fusion_lat": 0.0, "type": "electric_bike", "name": "98d04531b6c828c0a770183c01653567", "fusion_lon": 0.0, "bike_id": "98d04531b6c828c0a770183c01653567", "is_reserved": 0, "rental_uris": {"android": "https://dc.lft.to/lastmile_qr_scan", "ios": "https://dc.lft.to/lastmile_qr_scan"}, "lat": 38.94803233333333, "is_disabled": 0, "lon": -76.95969733333334}, {"fusion_lat": 0.0, "type": "electric_scooter", "name": "f2e0fe3ab31c87c774a8e0bc2f8ed690", "fusion_lon": 0.0, "bike_id": "f2e0fe3ab31c87c774a8e0bc2f8ed690", "is_reserved": 0, "rental_uris": {"android": "https://dc.lft.to/lastmile_qr_scan", "ios": "https://dc.lft.to/lastmile_qr_scan"}, "lat": 38.900635333333334, "is_disabled": 0, "lon": -77.04536666666667}, {"fusion_lat": 0.0, "type": "electric_scooter", "name": "b5e33901246d8cb391bd8c9746fd21bf", "fusion_lon": 0.0, "bike_id": "b5e33901246d8cb391bd8c9746fd21bf", "is_reserved": 0, "rental_uris": {"android": "https://dc.lft.to/lastmile_qr_scan", "ios": "https://dc.lft.to/lastmile_qr_scan"}, "lat": 38.920410833333335, "is_disabled": 0, "lon": -77.03638583333333}, {"fusion_lat": 0.0, "type": "electric_scooter", "name": "8c7ad542493b9da7edb116c29e0287a9", "fusion_lon": 0.0, "bike_id": "8c7ad542493b9da7edb116c29e0287a9", "is_reserved": 0, "rental_uris": {"android": "https://dc.lft.to/lastmile_qr_scan", "ios": "https://dc.lft.to/lastmile_qr_scan"}, "lat": 38.90266233333333, "is_disabled": 0, "lon": -77.03975333333334}, {"fusion_lat": 0.0, "type": "electric_scooter", "name": "3eb44fe58170e5714c221848851594e3", "fusion_lon": 0.0, "bike_id": "3eb44fe58170e5714c221848851594e3", "is_reserved": 0, "rental_uris": {"android": "https://dc.lft.to/lastmile_qr_scan", "ios": "https://dc.lft.to/lastmile_qr_scan"}, "lat": 38.93881116666667, "is_disabled": 0, "lon": -77.02480133333333}, {"fusion_lat": 0.0, "type": "electric_scooter", "name": "de0a1b69fe384664568a17d14d5d09f4", "fusion_lon": 0.0, "bike_id": "de0a1b69fe384664568a17d14d5d09f4", "is_reserved": 0, "rental_uris": {"android": "https://dc.lft.to/lastmile_qr_scan", "ios": "https://dc.lft.to/lastmile_qr_scan"}, "lat": 38.92738883333333, "is_disabled": 0, "lon": -77.02269516666667}, {"fusion_lat": 0.0, "type": "electric_bike", "name": "6738251d54c00198919174dfd22a2310", "fusion_lon": 0.0, "bike_id": "6738251d54c00198919174dfd22a2310", "is_reserved": 0, "rental_uris": {"android": "https://dc.lft.to/lastmile_qr_scan", "ios": "https://dc.lft.to/lastmile_qr_scan"}, "lat": 38.867457, "is_disabled": 0, "lon": -77.117082}, {"fusion_lat": 0.0, "type": "electric_scooter", "name": "ee7db05840123db439f1590fe5cee940", "fusion_lon": 0.0, "bike_id": "ee7db05840123db439f1590fe5cee940", "is_reserved": 0, "rental_uris": {"android": "https://dc.lft.to/lastmile_qr_scan", "ios": "https://dc.lft.to/lastmile_qr_scan"}, "lat": 38.9171345, "is_disabled": 0, "lon": -77.03352616666666},