{"data": {"bikes": [{"rental_uris": {"ios": "https://dc.lft.to/lastmile_qr_scan", "android": "https://dc.lft.to/lastmile_qr_scan"}, "fusion_lat": 0.0, "name": "a15e4aa3e2cddee8381aabac0debe64f", "bike_id": "a15e4aa3e2cddee8381aabac0debe64f", "is_disabled": 0, "type": "electric_scooter", "lat": 38.904274, "lon": -77.0217025, "is_reserved": 0, "fusion_lon": 0.0}, {"rental_uris": {"ios": "https://dc.lft.to/lastmile_qr_scan", "android": "https://dc.lft.to/lastmile_qr_scan"}, "fusion_lat": 0.0, "name": "b0a199723afc436b694c7123d1612bac", "bike_id": "b0a199723afc436b694c7123d1612bac", "is_disabled": 0, "type": "electric_scooter", "lat": 38.883647, "lon": -76.94153266666666, "is_reserved": 0, "fusion_lon": 0.0}, {"rental_uris": {"ios": "https://dc.lft.to/lastmile_qr_scan", "android": "https://dc.lft.to/lastmile_qr_scan"}, "fusion_lat": 0.0, "name": "0f17821237a78336127fbe3741c6df37", "bike_id": "0f17821237a78336127fbe3741c6df37", "is_disabled": 0, "type": "electric_scooter", "lat": 38.9134515, "lon": -77.00923283333333, "is_reserved": 0, "fusion_lon": 0.0}, {"rental_uris": {"ios": "https://dc.lft.to/lastmile_qr_scan", "android": "https://dc.lft.to/lastmile_qr_scan"}, "fusion_lat": 0.0, "name": "9281e3afcfbae807389a5ac72eecde94", "bike_id": "9281e3afcfbae807389a5ac72eecde94", "is_disabled": 0, "type": "electric_scooter", "lat": 38.9360785, "lon": -77.05857133333333, "is_reserved": 0, "fusion_lon": 0.0}, {"rental_uris": {"ios": "https://dc.lft.to/lastmile_qr_scan", "android": "https://dc.lft.to/lastmile_qr_scan"}, "fusion_lat": 0.0, "name": "e0258f6753149e248cd8a6c820de0499", "bike_id": "e0258f6753149e248cd8a6c820de0499", "is_disabled": 0, "type": "electric_bike", "lat": 38.95888466666667, "lon": -76.92491016666666, "is_reserved": 0, "fusion_lon": 0.0}, {"rental_uris": {"ios": "https://dc.lft.to/lastmile_qr_scan", "android": "https://dc.lft.to/lastmile_qr_scan"}, "fusion_lat": 0.0, "name": "91dd5cdb265b5a5d524eb2433d7d5974", "bike_id": "91dd5cdb265b5a5d524eb2433d7d5974", "is_disabled": 0, "type": "electric_scooter", "lat": 38.90260816666667, "lon": -77.0390455, "is_reserved": 0, "fusion_lon": 0.0}, {"rental_uris": {"ios": "https://dc.lft.to/lastmile_qr_scan", "android": "https://dc.lft.to/lastmile_qr_scan"}, "fusion_lat": 0.0, "name": "86e76ab09cc1582cc3689840981684cf", "bike_id": "86e76ab09cc1582cc3689840981684cf", "is_disabled": 0, "type": "electric_scooter", "lat": 38.876286, "lon": -76.96528933333333, "is_reserved": 0, "fusion_lon": 0.0}, {"rental_uris": {"ios": "https://dc.lft.to/lastmile_qr_scan", "android": "https://dc.lft.to/lastmile_qr_scan"}, "fusion_lat": 0.0, "name": "e2a1c20f503c1888d45f6a1d2929cbcf", "bike_id": "e2a1c20f503c1888d45f6a1d2929cbcf", "is_disabled": 0, "type": "electric_scooter", "lat": 38.8988375, "lon": -77.039666, "is_reserved": 0, "fusion_lon": 0.0}, {"rental_uris": {"ios": "https://dc.lft.to/lastmile_qr_scan", "android": "https://dc.lft.to/lastmile_qr_scan"}, "fusion_lat": 0.0, "name": "9d0a9343e9bad1e3d6deab31055e3082", "bike_id": "9d0a9343e9bad1e3d6deab31055e3082", "is_disabled": 0, "type": "electric_scooter", "lat": 38.92536966666667, "lon": -77.02638183333333, "is_reserved": 0, "fusion_lon": 0.0}, {"rental_uris": {"ios": "https://dc.lft.to/lastmile_qr_scan", "android": "https://dc.lft.to/lastmile_qr_scan"}, "fusion_lat": 0.0, "name": "e0dd6368ef387e929c4c631e6fbc4b59", "bike_id": "e0dd6368ef387e929c4c631e6fbc4b59", "is_disabled": 0, "type": "electric_scooter", "lat": 38.91498983333334, "lon": -76.98372783333333, "is_reserved": 0, "fusion_lon": 0.0}, {"rental_uris": {"ios": "https://dc.lft.to/lastmile_qr_scan", "android": "https://dc.lft.to/lastmile_qr_scan"}, "fusion_lat": 0.0, "name": "5bbb66b2693b498f0a38ae32891b80c7", "bike_id": "5bbb66b2693b498f0a38ae32891b80c7", "is_disabled": 0, "type": "electric_bike", "lat": 38.96689466666667, "lon": -77.08841216666667, "is_reserved": 0, "fusion_lon": 0.0}, {"rental_uris": {"ios": "https://dc.lft.to/lastmile_qr_scan", "android": "https://dc.lft.to/lastmile_qr_scan"}, "fusion_lat": 0.0, "name": "3ab610b5e46676c9c2d6c9f0704dc18f", "bike_id": "3ab610b5e46676c9c2d6c9f0704dc18f", "is_disabled": 0, "type": "electric_scooter", "lat": 38.90581816666667, "lon": -77.04098133333333, "is_reserved": 0, "fusion_lon": 0.0}, {"rental_uris": {"ios": "https://dc.lft.to/lastmile_qr_scan", "android": "https://dc.lft.to/lastmile_qr_scan"}, "fusion_lat": 0.0, "name": "ef64b9099dc851b8ebbe11ebadad6ac7", "bike_id": "ef64b9099dc851b8ebbe11ebadad6ac7", "is_disabled": 0, "type": "electric_scooter", "lat": 38.907367, "lon": -77.04668583333333, "is_reserved": 0, "fusion_lon": 0.0}, {"rental_uris": {"ios": "https://dc.lft.to/lastmile_qr_scan", "android": "https://dc.lft.to/lastmile_qr_scan"}, "fusion_lat": 0.0, "name": "7accd4879909349a46f3bc091094b729", "bike_id": "7accd4879909349a46f3bc091094b729", "is_disabled": 0, "type": "electric_bike", "lat": 38.889968333333336, "lon": -76.9540925, "is_reserved": 0, "fusion_lon": 0.0}, {"rental_uris": {"ios": "https://dc.lft.to/lastmile_qr_scan", "android": "https://dc.lft.to/lastmile_qr_scan"}, "fusion_lat": 0.0, "name": "fded27cf8805d9c5e03645c2a1af020d", "bike_id": "fded27cf8805d9c5e03645c2a1af020d", "is_disabled": 0, "type": "electric_bike", "lat": 38.8560755, "lon": -77.11242883333334, "is_reserved": 0, "fusion_lon": 0.0}, {"rental_uris": {"ios": "https://dc.lft.to/lastmile_qr_scan", "android": "https://dc.lft.to/lastmile_qr_scan"}, "fusion_lat": 0.0, "name": "353f4e513665894064d4648a5151f758", "bike_id": "353f4e513665894064d4648a5151f758", "is_disabled": 0, "type": "electric_scooter", "lat": 38.91917816666667, "lon": -77.02140383333334, "is_reserved": 0, "fusion_lon": 0.0}, {"rental_uris": {"ios": "https://dc.lft.to/lastmile_qr_scan", "android": "https://dc.lft.to/lastmile_qr_scan"}, "fusion_lat": 0.0, "name": "7e4fc5b8cccff4286cf555519008e57b", "bike_id": "7e4fc5b8cccff4286cf555519008e57b", "is_disabled": 0, "type": "electric_scooter", "lat": 38.899868166666664, "lon": -77.00685016666667, "is_reserved": 0, "fusion_lon": 0.0}, {"rental_uris": {"ios": "https://dc.lft.to/lastmile_qr_scan", "android": "https://dc.lft.to/lastmile_qr_scan"}, "fusion_lat": 0.0, "name": "17ea7025fc9013a04e9f56ef3d6b56c4", "bike_id": "17ea7025fc9013a04e9f56ef3d6b56c4", "is_disabled": 0, "type": "electric_scooter", "lat": 38.919538333333335, "lon": -77.02486616666667, "is_reserved": 0, "fusion_lon": 0.0}, {"rental_uris": {"ios": "https://dc.lft.to/lastmile_qr_scan", "android": "https://dc.lft.to/lastmile_qr_scan"}, "fusion_lat": 0.0, "name": "58abe9a156d224503d69b511f6bc47cf", "bike_id": "58abe9a156d224503d69b511f6bc47cf", "is_disabled": 0, "type": "electric_scooter", "lat": 38.934164, "lon": -77.04158916666667, "is_reserved": 0, "fusion_lon": 0.0}, {"rental_uris": {"ios": "https://dc.lft.to/lastmile_qr_scan", "android": "https://dc.lft.to/lastmile_qr_scan"}, "fusion_lat": 0.0, "name": "899162483709e92a9ad64bbe20292616", "bike_id": "899162483709e92a9ad64bbe20292616", "is_disabled": 0, "type": "electric_scooter", "lat": 38.90575483333333, "lon": -77.03443283333333, "is_reserved": 0, "fusion_lon": 0.0}, {"rental_uris": {"ios": "https://dc.lft.to/lastmile_qr_scan", "android": "https://dc.lft.to/lastmile_qr_scan"}, "fusion_lat": 0.0, "name": "81ba52eebbbdb7b55a651ac63800cc4a", "bike_id": "81ba52eebbbdb7b55a651ac63800cc4a", "is_disabled": 0, "type": "electric_scooter", "lat": 38.91996533333333, "lon": -77.03292866666666, "is_reserved": 0, "fusion_lon": 0.0}, {"rental_uris": {"ios": "https://dc.lft.to/lastmile_qr_scan", "android": "https://dc.lft.to/lastmile_qr_scan"}, "fusion_lat": 0.0, "name": "115a4274fec0008c2816906455f3e9a2", "bike_id": "115a4274fec0008c2816906455f3e9a2", "is_disabled": 0, "type": "electric_bike", "lat": 38.84848366666667, "lon": -77.09843583333334, "is_reserved": 0, "fusion_lon": 0.0}, {"rental_uris": {"ios": "https://dc.lft.to/lastmile_qr_scan", "android": "https://dc.lft.to/lastmile_qr_scan"}, "fusion_lat": 0.0, "name": "3a1082cd1add6325504b2c58d75fef98", "bike_id": "3a1082cd1add6325504b2c58d75fef98", "is_disabled": 0, "type": "electric_scooter", "lat": 38.93888883333333, "lon": -77.02481116666667, "is_reserved": 0, "fusion_lon": 0.0}, {"rental_uris": {"ios": "https://dc.lft.to/lastmile_qr_scan", "android": "https://dc.lft.to/lastmile_qr_scan"}, "fusion_lat": 0.0, "name": "28be17e88c0eca9b01bbf08826a02eee", "bike_id": "28be17e88c0eca9b01bbf08826a02eee", "is_disabled": 0, "type": "electric_scooter", "lat": 38.89223616666666, "lon": -77.03217433333333, "is_reserved": 0, "fusion_lon": 0.0}, {"rental_uris": {"ios": "https://dc.lft.to/lastmile_qr_scan", "android": "https://dc.lft.to/lastmile_qr_scan"}, "fusion_lat": 0.0, "name": "fa4a657f696f4bed8acb06337b7d80cf", "bike_id": "fa4a657f696f4bed8acb06337b7d80cf", "is_disabled": 0, "type": "electric_scooter", "lat": 38.89935766666667, "lon": -77.0279725, "is_reserved": 0, "fusion_lon": 0.0}, {"rental_uris": {"ios": "https://dc.lft.to/lastmile_qr_scan", "android": "https://dc.lft.to/lastmile_qr_scan"}, "fusion_lat": 0.0, "name": "54ea813f172385ea767f88f59aecc572", "bike_id": "54ea813f172385ea767f88f59aecc572", "is_disabled": 0, "type": "electric_scooter", "lat": 38.903746166666664, "lon": -77.03211, "is_reserved": 0, "fusion_lon": 0.0}, {"rental_uris": {"ios": "https://dc.lft.to/lastmile_qr_scan", "android": "https://dc.lft.to/lastmile_qr_scan"}, "fusion_lat": 0.0, "name": "406c5969547cf530a7f3c66a954f2409", "bike_id": "406c5969547cf530a7f3c66a954f2409", "is_disabled": 0, "type": "electric_scooter", "lat": 38.90530583333334, "lon": -77.04183766666667, "is_reserved": 0, "fusion_lon": 0.0}, {"rental_uris": {"ios": "https://dc.lft.to/lastmile_qr_scan", "android": "https://dc.lft.to/lastmile_qr_scan"}, "fusion_lat": 0.0, "name": "62650febfd502a4ecf378d27a688bcd7", "bike_id": "62650febfd502a4ecf378d27a688bcd7", "is_disabled": 0, "type": "electric_scooter", "lat": 38.919056833333336, "lon": -77.02082816666666, "is_reserved": 0, "fusion_lon": 0.0}, {"rental_uris": {"ios": "https://dc.lft.to/lastmile_qr_scan", "android": "https://dc.lft.to/lastmile_qr_scan"}, "fusion_lat": 0.0, "name": "6432365aa9ad1546d508ee55446a5de2", "bike_id": "6432365aa9ad1546d508ee55446a5de2", "is_disabled": 0, "type": "electric_scooter", "lat": 38.9097985, "lon": -76.99510283333333, "is_reserved": 0, "fusion_lon": 0.0}, {"rental_uris": {"ios": "https://dc.lft.to/lastmile_qr_scan", "android": "https://dc.lft.to/lastmile_qr_scan"}, "fusion_lat": 0.0, "name": "c5d851bf819523ca7d555ffb0dc63cb1", "bike_id": "c5d851bf819523ca7d555ffb0dc63cb1", "is_disabled": 0, "type": "electric_scooter", "lat": 38.909621, "lon": -77.04650916666667, "is_reserved": 0, "fusion_lon": 0.0}, {"rental_uris": {"ios": "https://dc.lft.to/lastmile_qr_scan", "android": "https://dc.lft.to/lastmile_qr_scan"}, "fusion_lat": 0.0, "name": "a886f7eee437495d11b4a3f99f440da7", "bike_id": "a886f7eee437495d11b4a3f99f440da7", "is_disabled": 0, "type": "electric_scooter", "lat": 38.93970433333333, "lon": -77.03202283333333, "is_reserved": 0, "fusion_lon": 0.0}, {"rental_uris": {"ios": "https://dc.lft.to/lastmile_qr_scan", "android": "https://dc.lft.to/lastmile_qr_scan"}, "fusion_lat": 0.0, "name": "39589b3795201ea2c57d80632cb91041", "bike_id": "39589b3795201ea2c57d80632cb91041", "is_disabled": 0, "type": "electric_scooter", "lat": 38.901293833333334, "lon": -77.04893183333333, "is_reserved": 0, "fusion_lon": 0.0}, {"rental_uris": {"ios": "https://dc.lft.to/lastmile_qr_scan", "android": "https://dc.lft.to/lastmile_qr_scan"}, "fusion_lat": 0.0, "name": "1f4f2e40c413170165bc7f141b3bb4f7", "bike_id": "1f4f2e40c413170165bc7f141b3bb4f7", "is_disabled": 0, "type": "electric_scooter", "lat": 38.917128, "lon": -77.03674583333333, "is_reserved": 0, "fusion_lon": 0.0}, {"rental_uris": {"ios": "https://dc.lft.to/lastmile_qr_scan", "android": "https://dc.lft.to/lastmile_qr_scan"}, "fusion_lat": 0.0, "name": "dd4422ad4c1f211ddbb123e2840c507d", "bike_id": "dd4422ad4c1f211ddbb123e2840c507d", "is_disabled": 0, "type": "electric_scooter", "lat": 38.8900115, "lon": -76.95413416666666, "is_reserved": 0, "fusion_lon": 0.0}, {"rental_uris": {"ios": "https://dc.lft.to/lastmile_qr_scan", "android": "https://dc.lft.to/lastmile_qr_scan"}, "fusion_lat": 0.0, "name": "83a8b4567f18df608f54c10e71b5ae34", "bike_id": "83a8b4567f18df608f54c10e71b5ae34", "is_disabled": 0, "type": "electric_scooter", "lat": 38.930670166666665, "lon": -77.0298195, "is_reserved": 0, "fusion_lon": 0.0}, {"rental_uris": {"ios": "https://dc.lft.to/lastmile_qr_scan", "android": "https://dc.lft.to/lastmile_qr_scan"}, "fusion_lat": 0.0, "name": "d4e24b139bc3b46c2aa0197b0f240803", "bike_id": "d4e24b139bc3b46c2aa0197b0f240803", "is_disabled": 0, "type": "electric_scooter", "lat": 38.899733166666664, "lon": -77.05265616666667, "is_reserved": 0, "fusion_lon": 0.0}, {"rental_uris": {"ios": "https://dc.lft.to/lastmile_qr_scan", "android": "https://dc.lft.to/lastmile_qr_scan"}, "fusion_lat": 0.0, "name": "b7fdfa6f6b96a586e2ef4f120845ac0c", "bike_id": "b7fdfa6f6b96a586e2ef4f120845ac0c", "is_disabled": 0, "type": "electric_scooter", "lat": 38.903878666666664, "lon": -77.03472616666667, "is_reserved": 0, "fusion_lon": 0.0}, {"rental_uris": {"ios": "https://dc.lft.to/lastmile_qr_scan", "android": "https://dc.lft.to/lastmile_qr_scan"}, "fusion_lat": 0.0, "name": "a8a06c35aec352cddc80208b8eb30c24", "bike_id": "a8a06c35aec352cddc80208b8eb30c24", "is_disabled": 0, "type": "electric_scooter", "lat": 38.946478166666665, "lon": -77.03108283333333, "is_reserved": 0, "fusion_lon": 0.0}, {"rental_uris": {"ios": "https://dc.lft.to/lastmile_qr_scan", "android": "https://dc.lft.to/lastmile_qr_scan"}, "fusion_lat": 0.0, "name": "4eb2de1a887967e4763002560666be48", "bike_id": "4eb2de1a887967e4763002560666be48", "is_disabled": 0, "type": "electric_scooter", "lat": 38.88265116666667, "lon": -77.00367383333334, "is_reserved": 0, "fusion_lon": 0.0}, {"rental_uris": {"ios": "https://dc.lft.to/lastmile_qr_scan", "android": "https://dc.lft.to/lastmile_qr_scan"}, "fusion_lat": 0.0, "name": "8e7252105b7e605758f9967fa990ad39", "bike_id": "8e7252105b7e605758f9967fa990ad39", "is_disabled": 0, "type": "electric_scooter", "lat": 38.888122833333334, "lon": -76.93341866666667, "is_reserved": 0, "fusion_lon": 0.0}, {"rental_uris": {"ios": "https://dc.lft.to/lastmile_qr_scan", "android": "https://dc.lft.to/lastmile_qr_scan"}, "fusion_lat": 0.0, "name": "46d90efc12481d9756bf9e39933666b6", "bike_id": "46d90efc12481d9756bf9e39933666b6", "is_disabled": 0, "type": "electric_scooter", "lat": 38.918075333333334, "lon": -77.0249605, "is_reserved": 0, "fusion_lon": 0.0}, {"rental_uris": {"ios": "https://dc.lft.to/lastmile_qr_scan", "android": "https://dc.lft.to/lastmile_qr_scan"}, "fusion_lat": 0.0, "name": "c99d4d5595fcd965e369eb45da8c4335", "bike_id": "c99d4d5595fcd965e369eb45da8c4335", "is_disabled": 0, "type": "electric_scooter", "lat": 38.920551, "lon": -77.034051, "is_reserved": 0, "fusion_lon": 0.0}, {"rental_uris": {"ios": "https://dc.lft.to/lastmile_qr_scan", "android": "https://dc.lft.to/lastmile_qr_scan"}, "fusion_lat": 0.0, "name": "a91c91f373038a97e8a8f96e8c46292b", "bike_id": "a91c91f373038a97e8a8f96e8c46292b", "is_disabled": 0, "type": "electric_bike", "lat": 38.83987966666667, "lon": -77.0056405, "is_reserved": 0, "fusion_lon": 0.0}, {"rental_uris": {"ios": "https://dc.lft.to/lastmile_qr_scan", "android": "https://dc.lft.to/lastmile_qr_scan"}, "fusion_lat": 0.0, "name": "6457ff725db90e64ff9ec2bce0539541", "bike_id": "6457ff725db90e64ff9ec2bce0539541", "is_disabled": 0, "type": "electric_scooter", "lat": 38.931786, "lon": -77.0706135, "is_reserved": 0, "fusion_lon": 0.0}, {"rental_uris": {"ios": "https://dc.lft.to/lastmile_qr_scan", "android": "https://dc.lft.to/lastmile_qr_scan"}, "fusion_lat": 0.0, "name": "2e8e601b99d86b2b72c7aa86732edf9d", "bike_id": "2e8e601b99d86b2b72c7aa86732edf9d", "is_disabled": 0, "type": "electric_scooter", "lat": 38.90891633333333, "lon": -77.03207383333333, "is_reserved": 0, "fusion_lon": 0.0}, {"rental_uris": {"ios": "https://dc.lft.to/lastmile_qr_scan", "android": "https://dc.lft.to/lastmile_qr_scan"}, "fusion_lat": 0.0, "name": "9c6117abf286cc6ffe291fde54ac3897", "bike_id": "9c6117abf286cc6ffe291fde54ac3897", "is_disabled": 0, "type": "electric_scooter", "lat": 38.91628566666667, "lon": -77.02700216666666, "is_reserved": 0, "fusion_lon": 0.0}, {"rental_uris": {"ios": "https://dc.lft.to/lastmile_qr_scan", "android": "https://dc.lft.to/lastmile_qr_scan"}, "fusion_lat": 0.0, "name": "ab3d02676305367125ee33ad074042ac", "bike_id": "ab3d02676305367125ee33ad074042ac", "is_disabled": 0, "type": "electric_scooter", "lat": 38.91406333333333, "lon": -77.03920766666667, "is_reserved": 0, "fusion_lon": 0.0}, {"rental_uris": {"ios": "https://dc.lft.to/lastmile_qr_scan", "android": "https://dc.lft.to/lastmile_qr_scan"}, "fusion_lat": 0.0, "name": "419d6a9bee19b162617d83d06909d7ed", "bike_id": "419d6a9bee19b162617d83d06909d7ed", "is_disabled": 0, "type": "electric_bike", "lat": 38.867177166666664, "lon": -76.98929833333334, "is_reserved": 0, "fusion_lon": 0.0}, {"rental_uris": {"ios": "https://dc.lft.to/lastmile_qr_scan", "android": "https://dc.lft.to/lastmile_qr_scan"}, "fusion_lat": 0.0, "name": "d43d5ae713d46d69df31738eb1b23377", "bike_id": "d43d5ae713d46d69df31738eb1b23377", "is_disabled": 0, "type": "electric_scooter", "lat": 38.86674516666667, "lon": -76.98448266666666, "is_reserved": 0, "fusion_lon": 0.0}, {"rental_uris": {"ios": "https://dc.lft.to/lastmile_qr_scan", "android": "https://dc.lft.to/lastmile_qr_scan"}, "fusion_lat": 0.0, "name": "22cdf163a53b989633581994b7221673", "bike_id": "22cdf163a53b989633581994b7221673", "is_disabled": 0, "type": "electric_scooter", "lat": 38.9008205, "lon": -77.0271165, "is_reserved": 0, "fusion_lon": 0.0}, {"rental_uris": {"ios": "https://dc.lft.to/lastmile_qr_scan", "android": "https://dc.lft.to/lastmile_qr_scan"}, "fusion_lat": 0.0, "name": "bac1f023e90bf6af00e0a043ac16321d", "bike_id": "bac1f023e90bf6af00e0a043ac16321d", "is_disabled": 0, "type": "electric_scooter", "lat": 38.908023666666665, "lon": -77.03830083333334, "is_reserved": 0, "fusion_lon": 0.0}, {"rental_uris": {"ios": "https://dc.lft.to/lastmile_qr_scan", "android": "https://dc.lft.to/lastmile_qr_scan"}, "fusion_lat": 0.0, "name": "de98a3c90476878d350615ee94da828b", "bike_id": "de98a3c90476878d350615ee94da828b", "is_disabled": 0, "type": "electric_scooter", "lat": 38.89219, "lon": -77.03159533333333, "is_reserved": 0, "fusion_lon": 0.0}, {"rental_uris": {"ios": "https://dc.lft.to/lastmile_qr_scan", "android": "https://dc.lft.to/lastmile_qr_scan"}, "fusion_lat": 0.0, "name": "16e0411ab0f5009a8200717708722acf", "bike_id": "16e0411ab0f5009a8200717708722acf", "is_disabled": 0, "type": "electric_scooter", "lat": 38.917052166666664, "lon": -77.026744, "is_reserved": 0, "fusion_lon": 0.0}, {"rental_uris": {"ios": "https://dc.lft.to/lastmile_qr_scan", "android": "https://dc.lft.to/lastmile_qr_scan"}, "fusion_lat": 0.0, "name": "842630427e6864327ab0248711902094", "bike_id": "842630427e6864327ab0248711902094", "is_disabled": 0, "type": "electric_scooter", "lat": 38.9495835, "lon": -77.02721266666667, "is_reserved": 0, "fusion_lon": 0.0}, {"rental_uris": {"ios": "https://dc.lft.to/lastmile_qr_scan", "android": "https://dc.lft.to/lastmile_qr_scan"}, "fusion_lat": 0.0, "name": "4ee99ed4f5b623403b8fe3e36627c0e2", "bike_id": "4ee99ed4f5b623403b8fe3e36627c0e2", "is_disabled": 0, "type": "electric_scooter", "lat": 38.906707, "lon": -77.02712166666667, "is_reserved": 0, "fusion_lon": 0.0}, {"rental_uris": {"ios": "https://dc.lft.to/lastmile_qr_scan", "android": "https://dc.lft.to/lastmile_qr_scan"}, "fusion_lat": 0.0, "name": "facf9de8bb8960576b70865e4bff0488", "bike_id": "facf9de8bb8960576b70865e4bff0488", "is_disabled": 0, "type": "electric_scooter", "lat": 38.904095166666664, "lon": -77.04046466666667, "is_reserved": 0, "fusion_lon": 0.0}, {"rental_uris": {"ios": "https://dc.lft.to/lastmile_qr_scan", "android": "https://dc.lft.to/lastmile_qr_scan"}, "fusion_lat": 0.0, "name": "f4df5ca394be87dc796463253116e0e0", "bike_id": "f4df5ca394be87dc796463253116e0e0", "is_disabled": 0, "type": "electric_scooter", "lat": 38.90853383333334, "lon": -76.99798833333334, "is_reserved": 0, "fusion_lon": 0.0}, {"rental_uris": {"ios": "https://dc.lft.to/lastmile_qr_scan", "android": "https://dc.lft.to/lastmile_qr_scan"}, "fusion_lat": 0.0, "name": "88884bd577fa1eede6323d23ed89feb9", "bike_id": "88884bd577fa1eede6323d23ed89feb9", "is_disabled": 0, "type": "electric_scooter", "lat": 38.91679383333334, "lon": -77.02981366666667, "is_reserved": 0, "fusion_lon": 0.0}, {"rental_uris": {"ios": "https://dc.lft.to/lastmile_qr_scan", "android": "https://dc.lft.to/lastmile_qr_scan"}, "fusion_lat": 0.0, "name": "fdc2216c68c005ad8eefd1d25a28854a", "bike_id": "fdc2216c68c005ad8eefd1d25a28854a", "is_disabled": 0, "type": "electric_scooter", "lat": 38.89224083333333, "lon": -77.03342583333334, "is_reserved": 0, "fusion_lon": 0.0}, {"rental_uris": {"ios": "https://dc.lft.to/lastmile_qr_scan", "android": "https://dc.lft.to/lastmile_qr_scan"}, "fusion_lat": 0.0, "name": "fa4940a41551b74f70c6fd5c16b847f0", "bike_id": "fa4940a41551b74f70c6fd5c16b847f0", "is_disabled": 0, "type": "electric_scooter", "lat": 38.88578666666667, "lon": -76.91911, "is_reserved": 0, "fusion_lon": 0.0}, {"rental_uris": {"ios": "https://dc.lft.to/lastmile_qr_scan", "android": "https://dc.lft.to/lastmile_qr_scan"}, "fusion_lat": 0.0, "name": "c71f27ebbc18078f46d603ac0175bd26", "bike_id": "c71f27ebbc18078f46d603ac0175bd26", "is_disabled": 0, "type": "electric_scooter", "lat": 38.9127215, "lon": -77.03643316666667, "is_reserved": 0, "fusion_lon": 0.0}, {"rental_uris": {"ios": "https://dc.lft.to/lastmile_qr_scan", "android": "https://dc.lft.to/lastmile_qr_scan"}, "fusion_lat": 0.0, "name": "48eac87abdf45177f3f3458745f7527b", "bike_id": "48eac87abdf45177f3f3458745f7527b", "is_disabled": 0, "type": "electric_scooter", "lat": 38.93828333333333, "lon": -76.98617016666667, "is_reserved": 0, "fusion_lon": 0.0}, {"rental_uris": {"ios": "https://dc.lft.to/lastmile_qr_scan", "android": "https://dc.lft.to/lastmile_qr_scan"}, "fusion_lat": 0.0, "name": "6d7333900375454ec5265b4f755a8ef6", "bike_id": "6d7333900375454ec5265b4f755a8ef6", "is_disabled": 0, "type": "electric_scooter", "lat": 38.906743166666665, "lon": -77.03804016666666, "is_reserved": 0, "fusion_lon": 0.0}, {"rental_uris": {"ios": "https://dc.lft.to/lastmile_qr_scan", "android": "https://dc.lft.to/lastmile_qr_scan"}, "fusion_lat": 0.0, "name": "3602c37cdcd1543cce463dc05a734784", "bike_id": "3602c37cdcd1543cce463dc05a734784", "is_disabled": 0, "type": "electric_scooter", "lat": 38.915690166666664, "lon": -77.01198783333334, "is_reserved": 0, "fusion_lon": 0.0}, {"rental_uris": {"ios": "https://dc.lft.to/lastmile_qr_scan", "android": "https://dc.lft.to/lastmile_qr_scan"}, "fusion_lat": 0.0, "name": "6a533756d1d9c4ce44c0d287799739e0", "bike_id": "6a533756d1d9c4ce44c0d287799739e0", "is_disabled": 0, "type": "electric_scooter", "lat": 38.915642, "lon": -77.025086, "is_reserved": 0, "fusion_lon": 0.0}, {"rental_uris": {"ios": "https://dc.lft.to/lastmile_qr_scan", "android": "https://dc.lft.to/lastmile_qr_scan"}, "fusion_lat": 0.0, "name": "b2768e50f50ed70fe4d57480d9c56438", "bike_id": "b2768e50f50ed70fe4d57480d9c56438", "is_disabled": 0, "type": "electric_scooter", "lat": 38.91117766666667, "lon": -77.044661, "is_reserved": 0, "fusion_lon": 0.0}, {"rental_uris": {"ios": "https://dc.lft.to/lastmile_qr_scan", "android": "https://dc.lft.to/lastmile_qr_scan"}, "fusion_lat": 0.0, "name": "a12d7d9076185105265003d376fcf25c", "bike_id": "a12d7d9076185105265003d376fcf25c", "is_disabled": 0, "type": "electric_scooter", "lat": 38.902684, "lon": -77.03379, "is_reserved": 0, "fusion_lon": 0.0}, {"rental_uris": {"ios": "https://dc.lft.to/lastmile_qr_scan", "android": "https://dc.lft.to/lastmile_qr_scan"}, "fusion_lat": 0.0, "name": "d18964ebfc235960702730689119f9a6", "bike_id": "d18964ebfc235960702730689119f9a6", "is_disabled": 0, "type": "electric_scooter", "lat": 38.9126595, "lon": -77.04551466666666, "is_reserved": 0, "fusion_lon": 0.0}, {"rental_uris": {"ios": "https://dc.lft.to/lastmile_qr_scan", "android": "https://dc.lft.to/lastmile_qr_scan"}, "fusion_lat": 0.0, "name": "bba14e600ba15a3d0a0f4f6a2ab00288", "bike_id": "bba14e600ba15a3d0a0f4f6a2ab00288", "is_disabled": 0, "type": "electric_scooter", "lat": 38.896087333333334, "lon": -77.04538183333334, "is_reserved": 0, "fusion_lon": 0.0}, {"rental_uris": {"ios": "https://dc.lft.to/lastmile_qr_scan", "android": "https://dc.lft.to/lastmile_qr_scan"}, "fusion_lat": 0.0, "name": "463645156f02fa82ac99939a8d103f54", "bike_id": "463645156f02fa82ac99939a8d103f54", "is_disabled": 0, "type": "electric_scooter", "lat": 38.90372166666667, "lon": -77.03204266666667, "is_reserved": 0, "fusion_lon": 0.0}, {"rental_uris": {"ios": "https://dc.lft.to/lastmile_qr_scan", "android": "https://dc.lft.to/lastmile_qr_scan"}, "fusion_lat": 0.0, "name": "82425a69e52cced610d6f4ebfd602dfa", "bike_id": "82425a69e52cced610d6f4ebfd602dfa", "is_disabled": 0, "type": "electric_scooter", "lat": 38.899647, "lon": -77.047132, "is_reserved": 0, "fusion_lon": 0.0}, {"rental_uris": {"ios": "https://dc.lft.to/lastmile_qr_scan", "android": "https://dc.lft.to/lastmile_qr_scan"}, "fusion_lat": 0.0, "name": "2ede5eae386e009694f2029a5f681448", "bike_id": "2ede5eae386e009694f2029a5f681448", "is_disabled": 0, "type": "electric_scooter", "lat": 38.8873005, "lon": -77.02830083333333, "is_reserved": 0, "fusion_lon": 0.0}, {"rental_uris": {"ios": "https://dc.lft.to/lastmile_qr_scan", "android": "https://dc.lft.to/lastmile_qr_scan"}, "fusion_lat": 0.0, "name": "0b7020133d3262854f0dd5e8178772d0", "bike_id": "0b7020133d3262854f0dd5e8178772d0", "is_disabled": 0, "type": "electric_scooter", "lat": 38.909627666666665, "lon": -77.0378945, "is_reserved": 0, "fusion_lon": 0.0}, {"rental_uris": {"ios": "https://dc.lft.to/lastmile_qr_scan", "android": "https://dc.lft.to/lastmile_qr_scan"}, "fusion_lat": 0.0, "name": "df710e62b1e35dac0a0da888b0cc2026", "bike_id": "df710e62b1e35dac0a0da888b0cc2026", "is_disabled": 0, "type": "electric_scooter", "lat": 38.86508033333333, "lon": -76.989789, "is_reserved": 0, "fusion_lon": 0.0}, {"rental_uris": {"ios": "https://dc.lft.to/lastmile_qr_scan", "android": "https://dc.lft.to/lastmile_qr_scan"}, "fusion_lat": 0.0, "name": "11b10df676edb4ccb0da06b666130fab", "bike_id": "11b10df676edb4ccb0da06b666130fab", "is_disabled": 0, "type": "electric_scooter", "lat": 38.9206385, "lon": -77.0436085, "is_reserved": 0, "fusion_lon": 0.0}, {"rental_uris": {"ios": "https://dc.lft.to/lastmile_qr_scan", "android": "https://dc.lft.to/lastmile_qr_scan"}, "fusion_lat": 0.0, "name": "8ba159258770d3271262af39c7b0d1d1", "bike_id": "8ba159258770d3271262af39c7b0d1d1", "is_disabled": 0, "type": "electric_bike", "lat": 38.93414166666667, "lon": -77.02508383333333, "is_reserved": 0, "fusion_lon": 0.0}, {"rental_uris": {"ios": "https://dc.lft.to/lastmile_qr_scan", "android": "https://dc.lft.to/lastmile_qr_scan"}, "fusion_lat": 0.0, "name": "059f45b587cfbb09782dd79512b989d0", "bike_id": "059f45b587cfbb09782dd79512b989d0", "is_disabled": 0, "type": "electric_scooter", "lat": 38.90686616666667, "lon": -77.03451216666667, "is_reserved": 0, "fusion_lon": 0.0}, {"rental_uris": {"ios": "https://dc.lft.to/lastmile_qr_scan", "android": "https://dc.lft.to/lastmile_qr_scan"}, "fusion_lat": 0.0, "name": "ae2de985f4a02a306b2a2ad21be4e157", "bike_id": "ae2de985f4a02a306b2a2ad21be4e157", "is_disabled": 0, "type": "electric_scooter", "lat": 38.89398583333333, "lon": -77.02180233333333, "is_reserved": 0, "fusion_lon": 0.0}, {"rental_uris": {"ios": "https://dc.lft.to/lastmile_qr_scan", "android": "https://dc.lft.to/lastmile_qr_scan"}, "fusion_lat": 0.0, "name": "2c4e837c026f223e237e9a7c9b67d04e", "bike_id": "2c4e837c026f223e237e9a7c9b67d04e", "is_disabled": 0, "type": "electric_scooter", "lat": 38.9033355, "lon": -77.026153, "is_reserved": 0, "fusion_lon": 0.0}, {"rental_uris": {"ios": "https://dc.lft.to/lastmile_qr_scan", "android": "https://dc.lft.to/lastmile_qr_scan"}, "fusion_lat": 0.0, "name": "c2b2089f80dec52a2c09ace3b63ad2be", "bike_id": "c2b2089f80dec52a2c09ace3b63ad2be", "is_disabled": 0, "type": "electric_scooter", "lat": 38.88610283333333, "lon": -77.03063366666666, "is_reserved": 0, "fusion_lon": 0.0}, {"rental_uris": {"ios": "https://dc.lft.to/lastmile_qr_scan", "android": "https://dc.lft.to/lastmile_qr_scan"}, "fusion_lat": 0.0, "name": "bc6953b67d1337ce6d1eabc9d5d97e3c", "bike_id": "bc6953b67d1337ce6d1eabc9d5d97e3c", "is_disabled": 0, "type": "electric_scooter", "lat": 38.8934845, "lon": -77.04142516666667, "is_reserved": 0, "fusion_lon": 0.0}, {"rental_uris": {"ios": "https://dc.lft.to/lastmile_qr_scan", "android": "https://dc.lft.to/lastmile_qr_scan"}, "fusion_lat": 0.0, "name": "831d258b7a1a945b084882768b1e6eef", "bike_id": "831d258b7a1a945b084882768b1e6eef", "is_disabled": 0, "type": "electric_scooter", "lat": 38.9002965, "lon": -77.01187816666666, "is_reserved": 0, "fusion_lon": 0.0}, {"rental_uris": {"ios": "https://dc.lft.to/lastmile_qr_scan", "android": "https://dc.lft.to/lastmile_qr_scan"}, "fusion_lat": 0.0, "name": "9b1862a05ffda9efed5a3dad83117aed", "bike_id": "9b1862a05ffda9efed5a3dad83117aed", "is_disabled": 0, "type": "electric_scooter", "lat": 38.913457, "lon": -77.03164333333334, "is_reserved": 0, "fusion_lon": 0.0}, {"rental_uris": {"ios": "https://dc.lft.to/lastmile_qr_scan", "android": "https://dc.lft.to/lastmile_qr_scan"}, "fusion_lat": 0.0, "name": "43bcd2de334f22e8de4ece444da268a7", "bike_id": "43bcd2de334f22e8de4ece444da268a7", "is_disabled": 0, "type": "electric_bike", "lat": 38.945584333333336, "lon": -76.8953765, "is_reserved": 0, "fusion_lon": 0.0}, {"rental_uris": {"ios": "https://dc.lft.to/lastmile_qr_scan", "android": "https://dc.lft.to/lastmile_qr_scan"}, "fusion_lat": 0.0, "name": "84fdeae161f1d82e03dab055f823e890", "bike_id": "84fdeae161f1d82e03dab055f823e890", "is_disabled": 0, "type": "electric_scooter", "lat": 38.93252583333334, "lon": -77.0296525, "is_reserved": 0, "fusion_lon": 0.0}, {"rental_uris": {"ios": "https://dc.lft.to/lastmile_qr_scan", "android": "https://dc.lft.to/lastmile_qr_scan"}, "fusion_lat": 0.0, "name": "8b3a39eea2061bc8471aaaef39134a60", "bike_id": "8b3a39eea2061bc8471aaaef39134a60", "is_disabled": 0, "type": "electric_scooter", "lat": 38.9056445, "lon": -77.00283966666667, "is_reserved": 0, "fusion_lon": 0.0}, {"rental_uris": {"ios": "https://dc.lft.to/lastmile_qr_scan", "android": "https://dc.lft.to/lastmile_qr_scan"}, "fusion_lat": 0.0, "name": "ea3494532231abd73fd80247369490c9", "bike_id": "ea3494532231abd73fd80247369490c9", "is_disabled": 0, "type": "electric_scooter", "lat": 38.9148905, "lon": -77.02203433333334, "is_reserved": 0, "fusion_lon": 0.0}, {"rental_uris": {"ios": "https://dc.lft.to/lastmile_qr_scan", "android": "https://dc.lft.to/lastmile_qr_scan"}, "fusion_lat": 0.0, "name": "34777fd8215308427555774035370dfc", "bike_id": "34777fd8215308427555774035370dfc", "is_disabled": 0, "type": "electric_bike", "lat": 38.886594, "lon": -77.16232716666667, "is_reserved": 0, "fusion_lon": 0.0}, {"rental_uris": {"ios": "https://dc.lft.to/lastmile_qr_scan", "android": "https://dc.lft.to/lastmile_qr_scan"}, "fusion_lat": 0.0, "name": "ba0675d0067416d765a0fa3a450f2591", "bike_id": "ba0675d0067416d765a0fa3a450f2591", "is_disabled": 0, "type": "electric_scooter", "lat": 38.9324925, "lon": -76.99523166666667, "is_reserved": 0, "fusion_lon": 0.0}, {"rental_uris": {"ios": "https://dc.lft.to/lastmile_qr_scan", "android": "https://dc.lft.to/lastmile_qr_scan"}, "fusion_lat": 0.0, "name": "c1a2a0b5ca19333baa2fdd55bebfa8b7", "bike_id": "c1a2a0b5ca19333baa2fdd55bebfa8b7", "is_disabled": 0, "type": "electric_scooter", "lat": 38.86656633333333, "lon": -76.9888685, "is_reserved": 0, "fusion_lon": 0.0}, {"rental_uris": {"ios": "https://dc.lft.to/lastmile_qr_scan", "android": "https://dc.lft.to/lastmile_qr_scan"}, "fusion_lat": 0.0, "name": "3e2388d9d422e62d8b8ff84c9a33e61a", "bike_id": "3e2388d9d422e62d8b8ff84c9a33e61a", "is_disabled": 0, "type": "electric_scooter", "lat": 38.91977816666667, "lon": -77.02392266666666, "is_reserved": 0, "fusion_lon": 0.0}, {"rental_uris": {"ios": "https://dc.lft.to/lastmile_qr_scan", "android": "https://dc.lft.to/lastmile_qr_scan"}, "fusion_lat": 0.0, "name": "8a0e51eda5c35a9b371d593eaccc73a8", "bike_id": "8a0e51eda5c35a9b371d593eaccc73a8", "is_disabled": 0, "type": "electric_scooter", "lat": 38.90231716666667, "lon": -77.05985016666666, "is_reserved": 0, "fusion_lon": 0.0}, {"rental_uris": {"ios": "https://dc.lft.to/lastmile_qr_scan", "android": "https://dc.lft.to/lastmile_qr_scan"}, "fusion_lat": 0.0, "name": "c267e5ce013866fc018b680438365e2d", "bike_id": "c267e5ce013866fc018b680438365e2d", "is_disabled": 0, "type": "electric_scooter", "lat": 38.903748666666665, "lon": -77.03207116666667, "is_reserved": 0, "fusion_lon": 0.0}, {"rental_uris": {"ios": "https://dc.lft.to/lastmile_qr_scan", "android": "https://dc.lft.to/lastmile_qr_scan"}, "fusion_lat": 0.0, "name": "4559cfc2d5dbac970d5bba7cc1d1887f", "bike_id": "4559cfc2d5dbac970d5bba7cc1d1887f", "is_disabled": 0, "type": "electric_scooter", "lat": 38.925407666666665, "lon": -77.052719, "is_reserved": 0, "fusion_lon": 0.0}, {"rental_uris": {"ios": "https://dc.lft.to/lastmile_qr_scan", "android": "https://dc.lft.to/lastmile_qr_scan"}, "fusion_lat": 0.0, "name": "ec0cb2ca6265125f3299cf75937dd9c4", "bike_id": "ec0cb2ca6265125f3299cf75937dd9c4", "is_disabled": 0, "type": "electric_scooter", "lat": 38.9112245, "lon": -77.026944, "is_reserved": 0, "fusion_lon": 0.0}, {"rental_uris": {"ios": "https://dc.lft.to/lastmile_qr_scan", "android": "https://dc.lft.to/lastmile_qr_scan"}, "fusion_lat": 0.0, "name": "f59b97299eec285fbea5ef0fa861fa9e", "bike_id": "f59b97299eec285fbea5ef0fa861fa9e", "is_disabled": 0, "type": "electric_scooter", "lat": 38.956431333333335, "lon": -77.03293916666667, "is_reserved": 0, "fusion_lon": 0.0}, {"rental_uris": {"ios": "https://dc.lft.to/lastmile_qr_scan", "android": "https://dc.lft.to/lastmile_qr_scan"}, "fusion_lat": 0.0, "name": "aa38c04ba16d31955d53751c6075dab2", "bike_id": "aa38c04ba16d31955d53751c6075dab2", "is_disabled": 0, "type": "electric_scooter", "lat": 38.893008333333334, "lon": -77.04183583333334, "is_reserved": 0, "fusion_lon": 0.0}, {"rental_uris": {"ios": "https://dc.lft.to/lastmile_qr_scan", "android": "https://dc.lft.to/lastmile_qr_scan"}, "fusion_lat": 0.0, "name": "d21ee5749c03ccc57752c42a0ac913a9", "bike_id": "d21ee5749c03ccc57752c42a0ac913a9", "is_disabled": 0, "type": "electric_scooter", "lat": 38.9169395, "lon": -77.02685983333333, "is_reserved": 0, "fusion_lon": 0.0}, {"rental_uris": {"ios": "https://dc.lft.to/lastmile_qr_scan", "android": "https://dc.lft.to/lastmile_qr_scan"}, "fusion_lat": 0.0, "name": "82129c89654c6859398f49a991305197", "bike_id": "82129c89654c6859398f49a991305197", "is_disabled": 0, "type": "electric_scooter", "lat": 38.9192705, "lon": -77.031732, "is_reserved": 0, "fusion_lon": 0.0}, {"rental_uris": {"ios": "https://dc.lft.to/lastmile_qr_scan", "android": "https://dc.lft.to/lastmile_qr_scan"}, "fusion_lat": 0.0, "name": "dcf084968d31211863dd07191e4c47ab", "bike_id": "dcf084968d31211863dd07191e4c47ab", "is_disabled": 0, "type": "electric_bike", "lat": 38.89354066666667, "lon": -77.1874185, "is_reserved": 0, "fusion_lon": 0.0}, {"rental_uris": {"ios": "https://dc.lft.to/lastmile_qr_scan", "android": "https://dc.lft.to/lastmile_qr_scan"}, "fusion_lat": 0.0, "name": "71568c26f25e70a96c83775710786006", "bike_id": "71568c26f25e70a96c83775710786006", "is_disabled": 0, "type": "electric_bike", "lat": 38.9128265, "lon": -77.0782385, "is_reserved": 0, "fusion_lon": 0.0}, {"rental_uris": {"ios": "https://dc.lft.to/lastmile_qr_scan", "android": "https://dc.lft.to/lastmile_qr_scan"}, "fusion_lat": 0.0, "name": "47e9457feb72438af1d6a34d0f1ec4eb", "bike_id": "47e9457feb72438af1d6a34d0f1ec4eb", "is_disabled": 0, "type": "electric_scooter", "lat": 38.915276, "lon": -77.04467183333334, "is_reserved": 0, "fusion_lon": 0.0}, {"rental_uris": {"ios": "https://dc.lft.to/lastmile_qr_scan", "android": "https://dc.lft.to/lastmile_qr_scan"}, "fusion_lat": 0.0, "name": "e059db037c05af545a1887c4fd6a1e98", "bike_id": "e059db037c05af545a1887c4fd6a1e98", "is_disabled": 0, "type": "electric_bike", "lat": 39.01571783333333, "lon": -77.04412733333334, "is_reserved": 0, "fusion_lon": 0.0}, {"rental_uris": {"ios": "https://dc.lft.to/lastmile_qr_scan", "android": "https://dc.lft.to/lastmile_qr_scan"}, "fusion_lat": 0.0, "name": "2f3f0964df5a24ec4c834c4b248d114c", "bike_id": "2f3f0964df5a24ec4c834c4b248d114c", "is_disabled": 0, "type": "electric_scooter", "lat": 38.918171666666666, "lon": -77.02716866666667, "is_reserved": 0, "fusion_lon": 0.0}, {"rental_uris": {"ios": "https://dc.lft.to/lastmile_qr_scan", "android": "https://dc.lft.to/lastmile_qr_scan"}, "fusion_lat": 0.0, "name": "6f8d98193c8c9b3a68934a8af952a499", "bike_id": "6f8d98193c8c9b3a68934a8af952a499", "is_disabled": 0, "type": "electric_scooter", "lat": 38.90783016666666, "lon": -77.0422935, "is_reserved": 0, "fusion_lon": 0.0}, {"rental_uris": {"ios": "https://dc.lft.to/lastmile_qr_scan", "android": "https://dc.lft.to/lastmile_qr_scan"}, "fusion_lat": 0.0, "name": "66e2e5fd2477bc1d3742fbfcfacd9a81", "bike_id": "66e2e5fd2477bc1d3742fbfcfacd9a81", "is_disabled": 0, "type": "electric_scooter", "lat": 38.89223033333333, "lon": -77.043634, "is_reserved": 0, "fusion_lon": 0.0}, {"rental_uris": {"ios": "https://dc.lft.to/lastmile_qr_scan", "android": "https://dc.lft.to/lastmile_qr_scan"}, "fusion_lat": 0.0, "name": "ca44a58ece1d84edb4c3ed6c3908809a", "bike_id": "ca44a58ece1d84edb4c3ed6c3908809a", "is_disabled": 0, "type": "electric_scooter", "lat": 38.91626733333333, "lon": -77.031645, "is_reserved": 0, "fusion_lon": 0.0}, {"rental_uris": {"ios": "https://dc.lft.to/lastmile_qr_scan", "android": "https://dc.lft.to/lastmile_qr_scan"}, "fusion_lat": 0.0, "name": "36fa7cf51d321194884f3dc40ca2429c", "bike_id": "36fa7cf51d321194884f3dc40ca2429c", "is_disabled": 0, "type": "electric_scooter", "lat": 38.90961466666667, "lon": -77.0448325, "is_reserved": 0, "fusion_lon": 0.0}, {"rental_uris": {"ios": "https://dc.lft.to/lastmile_qr_scan", "android": "https://dc.lft.to/lastmile_qr_scan"}, "fusion_lat": 0.0, "name": "f5af3dcbbe86303244746bf7e99acab0", "bike_id": "f5af3dcbbe86303244746bf7e99acab0", "is_disabled": 0, "type": "electric_scooter", "lat": 38.89843316666666, "lon": -76.94634266666667, "is_reserved": 0, "fusion_lon": 0.0}, {"rental_uris": {"ios": "https://dc.lft.to/lastmile_qr_scan", "android": "https://dc.lft.to/lastmile_qr_scan"}, "fusion_lat": 0.0, "name": "6d9c4c58d2094bd6177ce21b810672c6", "bike_id": "6d9c4c58d2094bd6177ce21b810672c6", "is_disabled": 0, "type": "electric_scooter", "lat": 38.91723266666666, "lon": -77.03662533333333, "is_reserved": 0, "fusion_lon": 0.0}, {"rental_uris": {"ios": "https://dc.lft.to/lastmile_qr_scan", "android": "https://dc.lft.to/lastmile_qr_scan"}, "fusion_lat": 0.0, "name": "4d7b47f24e2fb55c7aaf85a15b289dd4", "bike_id": "4d7b47f24e2fb55c7aaf85a15b289dd4", "is_disabled": 0, "type": "electric_scooter", "lat": 38.9323945, "lon": -77.0385815, "is_reserved": 0, "fusion_lon": 0.0}, {"rental_uris": {"ios": "https://dc.lft.to/lastmile_qr_scan", "android": "https://dc.lft.to/lastmile_qr_scan"}, "fusion_lat": 0.0, "name": "907bc740b7ca387f9f1f454e4b5b3b19", "bike_id": "907bc740b7ca387f9f1f454e4b5b3b19", "is_disabled": 0, "type": "electric_scooter", "lat": 38.88159533333334, "lon": -77.01282583333334, "is_reserved": 0, "fusion_lon": 0.0}, {"rental_uris": {"ios": "https://dc.lft.to/lastmile_qr_scan", "android": "https://dc.lft.to/lastmile_qr_scan"}, "fusion_lat": 0.0, "name": "c78ca72ffb03f3700226e9aa64638228", "bike_id": "c78ca72ffb03f3700226e9aa64638228", "is_disabled": 0, "type": "electric_scooter", "lat": 38.91767266666667, "lon": -77.02335983333333, "is_reserved": 0, "fusion_lon": 0.0}, {"rental_uris": {"ios": "https://dc.lft.to/lastmile_qr_scan", "android": "https://dc.lft.to/lastmile_qr_scan"}, "fusion_lat": 0.0, "name": "1818fcdbc97ff44a11ce90210e80a791", "bike_id": "1818fcdbc97ff44a11ce90210e80a791", "is_disabled": 0, "type": "electric_scooter", "lat": 38.915629333333335, "lon": -77.038609, "is_reserved": 0, "fusion_lon": 0.0}, {"rental_uris": {"ios": "https://dc.lft.to/lastmile_qr_scan", "android": "https://dc.lft.to/lastmile_qr_scan"}, "fusion_lat": 0.0, "name": "ab5c396f03cd315df4e43bf45066a064", "bike_id": "ab5c396f03cd315df4e43bf45066a064", "is_disabled": 0, "type": "electric_scooter", "lat": 38.899386166666666, "lon": -77.03272516666667, "is_reserved": 0, "fusion_lon": 0.0}, {"rental_uris": {"ios": "https://dc.lft.to/lastmile_qr_scan", "android": "https://dc.lft.to/lastmile_qr_scan"}, "fusion_lat": 0.0, "name": "a0a70fbdb8e4576ee810925f95b7e690", "bike_id": "a0a70fbdb8e4576ee810925f95b7e690", "is_disabled": 0, "type": "electric_scooter", "lat": 38.90025166666667, "lon": -77.0321055, "is_reserved": 0, "fusion_lon": 0.0}, {"rental_uris": {"ios": "https://dc.lft.to/lastmile_qr_scan", "android": "https://dc.lft.to/lastmile_qr_scan"}, "fusion_lat": 0.0, "name": "6fb09a17dda42235a157b811e7d568db", "bike_id": "6fb09a17dda42235a157b811e7d568db", "is_disabled": 0, "type": "electric_bike", "lat": 38.840319666666666, "lon": -76.97584966666666, "is_reserved": 0, "fusion_lon": 0.0}, {"rental_uris": {"ios": "https://dc.lft.to/lastmile_qr_scan", "android": "https://dc.lft.to/lastmile_qr_scan"}, "fusion_lat": 0.0, "name": "6de02567522b164a6e389debd0d454e0", "bike_id": "6de02567522b164a6e389debd0d454e0", "is_disabled": 0, "type": "electric_scooter", "lat": 38.907350666666666, "lon": -77.03449633333334, "is_reserved": 0, "fusion_lon": 0.0}, {"rental_uris": {"ios": "https://dc.lft.to/lastmile_qr_scan", "android": "https://dc.lft.to/lastmile_qr_scan"}, "fusion_lat": 0.0, "name": "03b811c73e948ea831442a607bad8d07", "bike_id": "03b811c73e948ea831442a607bad8d07", "is_disabled": 0, "type": "electric_scooter", "lat": 38.9352615, "lon": -77.07295933333333, "is_reserved": 0, "fusion_lon": 0.0}, {"rental_uris": {"ios": "https://dc.lft.to/lastmile_qr_scan", "android": "https://dc.lft.to/lastmile_qr_scan"}, "fusion_lat": 0.0, "name": "7064815b053ff65df1e53b1ef3a55d03", "bike_id": "7064815b053ff65df1e53b1ef3a55d03", "is_disabled": 0, "type": "electric_scooter", "lat": 38.9027705, "lon": -77.057993, "is_reserved": 0, "fusion_lon": 0.0}, {"rental_uris": {"ios": "https://dc.lft.to/lastmile_qr_scan", "android": "https://dc.lft.to/lastmile_qr_scan"}, "fusion_lat": 0.0, "name": "b983ac065aecb9b610c1b5f2736ad389", "bike_id": "b983ac065aecb9b610c1b5f2736ad389", "is_disabled": 0, "type": "electric_scooter", "lat": 38.900764, "lon": -77.02712816666667, "is_reserved": 0, "fusion_lon": 0.0}, {"rental_uris": {"ios": "https://dc.lft.to/lastmile_qr_scan", "android": "https://dc.lft.to/lastmile_qr_scan"}, "fusion_lat": 0.0, "name": "7635ec8ed135b68fdf3f7cb3bdc96948", "bike_id": "7635ec8ed135b68fdf3f7cb3bdc96948", "is_disabled": 0, "type": "electric_scooter", "lat": 38.92378033333333, "lon": -77.0256095, "is_reserved": 0, "fusion_lon": 0.0}, {"rental_uris": {"ios": "https://dc.lft.to/lastmile_qr_scan", "android": "https://dc.lft.to/lastmile_qr_scan"}, "fusion_lat": 0.0, "name": "cce7b94db51370003ff3e23bfa5990b5", "bike_id": "cce7b94db51370003ff3e23bfa5990b5", "is_disabled": 0, "type": "electric_scooter", "lat": 38.903526166666666, "lon": -77.01113433333333, "is_reserved": 0, "fusion_lon": 0.0}, {"rental_uris": {"ios": "https://dc.lft.to/lastmile_qr_scan", "android": "https://dc.lft.to/lastmile_qr_scan"}, "fusion_lat": 0.0, "name": "1238ca6298c86c2d32291544ee21f32e", "bike_id": "1238ca6298c86c2d32291544ee21f32e", "is_disabled": 0, "type": "electric_scooter", "lat": 38.9243815, "lon": -77.04026766666667, "is_reserved": 0, "fusion_lon": 0.0}, {"rental_uris": {"ios": "https://dc.lft.to/lastmile_qr_scan", "android": "https://dc.lft.to/lastmile_qr_scan"}, "fusion_lat": 0.0, "name": "2dd2396615af114091abf4ded223d309", "bike_id": "2dd2396615af114091abf4ded223d309", "is_disabled": 0, "type": "electric_scooter", "lat": 38.904625333333335, "lon": -77.03273116666666, "is_reserved": 0, "fusion_lon": 0.0}, {"rental_uris": {"ios": "https://dc.lft.to/lastmile_qr_scan", "android": "https://dc.lft.to/lastmile_qr_scan"}, "fusion_lat": 0.0, "name": "f89674aeab7ce554ed44e14458b6e370", "bike_id": "f89674aeab7ce554ed44e14458b6e370", "is_disabled": 0, "type": "electric_scooter", "lat": 38.892004166666666, "lon": -77.003045, "is_reserved": 0, "fusion_lon": 0.0}, {"rental_uris": {"ios": "https://dc.lft.to/lastmile_qr_scan", "android": "https://dc.lft.to/lastmile_qr_scan"}, "fusion_lat": 0.0, "name": "340a2b876907fb55c3e4e7c1b590e557", "bike_id": "340a2b876907fb55c3e4e7c1b590e557", "is_disabled": 0, "type": "electric_scooter", "lat": 38.918773333333334, "lon": -76.9654645, "is_reserved": 0, "fusion_lon": 0.0}, {"rental_uris": {"ios": "https://dc.lft.to/lastmile_qr_scan", "android": "https://dc.lft.to/lastmile_qr_scan"}, "fusion_lat": 0.0, "name": "d964c86fe55e6a2ecbf602f1be2073c6", "bike_id": "d964c86fe55e6a2ecbf602f1be2073c6", "is_disabled": 0, "type": "electric_scooter", "lat": 38.863623833333335, "lon": -76.990377, "is_reserved": 0, "fusion_lon": 0.0}, {"rental_uris": {"ios": "https://dc.lft.to/lastmile_qr_scan", "android": "https://dc.lft.to/lastmile_qr_scan"}, "fusion_lat": 0.0, "name": "1a7f767b1a221eb461beded79215b830", "bike_id": "1a7f767b1a221eb461beded79215b830", "is_disabled": 0, "type": "electric_scooter", "lat": 38.91850766666667, "lon": -77.00916216666667, "is_reserved": 0, "fusion_lon": 0.0}, {"rental_uris": {"ios": "https://dc.lft.to/lastmile_qr_scan", "android": "https://dc.lft.to/lastmile_qr_scan"}, "fusion_lat": 0.0, "name": "5bba6f097431984a044f8f6ff3371792", "bike_id": "5bba6f097431984a044f8f6ff3371792", "is_disabled": 0, "type": "electric_bike", "lat": 38.85901833333333, "lon": -76.96696733333333, "is_reserved": 0, "fusion_lon": 0.0}, {"rental_uris": {"ios": "https://dc.lft.to/lastmile_qr_scan", "android": "https://dc.lft.to/lastmile_qr_scan"}, "fusion_lat": 0.0, "name": "2db022e29cb45f862677cfb5b5765e95", "bike_id": "2db022e29cb45f862677cfb5b5765e95", "is_disabled": 0, "type": "electric_scooter", "lat": 38.90258816666667, "lon": -77.04493966666666, "is_reserved": 0, "fusion_lon": 0.0}, {"rental_uris": {"ios": "https://dc.lft.to/lastmile_qr_scan", "android": "https://dc.lft.to/lastmile_qr_scan"}, "fusion_lat": 0.0, "name": "06563892ced0eb3cc3cd55c7233f5b26", "bike_id": "06563892ced0eb3cc3cd55c7233f5b26", "is_disabled": 0, "type": "electric_scooter", "lat": 38.9027245, "lon": -77.03450466666666, "is_reserved": 0, "fusion_lon": 0.0}, {"rental_uris": {"ios": "https://dc.lft.to/lastmile_qr_scan", "android": "https://dc.lft.to/lastmile_qr_scan"}, "fusion_lat": 0.0, "name": "2d0f59a3f52066ea9dc48a3442548331", "bike_id": "2d0f59a3f52066ea9dc48a3442548331", "is_disabled": 0, "type": "electric_scooter", "lat": 38.930593333333334, "lon": -77.02322483333333, "is_reserved": 0, "fusion_lon": 0.0}, {"rental_uris": {"ios": "https://dc.lft.to/lastmile_qr_scan", "android": "https://dc.lft.to/lastmile_qr_scan"}, "fusion_lat": 0.0, "name": "3b24f1feb8296b55983e31b4c726886c", "bike_id": "3b24f1feb8296b55983e31b4c726886c", "is_disabled": 0, "type": "electric_scooter", "lat": 38.922423, "lon": -77.04353783333333, "is_reserved": 0, "fusion_lon": 0.0}, {"rental_uris": {"ios": "https://dc.lft.to/lastmile_qr_scan", "android": "https://dc.lft.to/lastmile_qr_scan"}, "fusion_lat": 0.0, "name": "a9940b7b6bdcfe2231204691891d6591", "bike_id": "a9940b7b6bdcfe2231204691891d6591", "is_disabled": 0, "type": "electric_scooter", "lat": 38.884026666666664, "lon": -77.017723, "is_reserved": 0, "fusion_lon": 0.0}, {"rental_uris": {"ios": "https://dc.lft.to/lastmile_qr_scan", "android": "https://dc.lft.to/lastmile_qr_scan"}, "fusion_lat": 0.0, "name": "b16e33e0f174ae7efeec4949014d600a", "bike_id": "b16e33e0f174ae7efeec4949014d600a", "is_disabled": 0, "type": "electric_bike", "lat": 38.80228133333333, "lon": -77.0791355, "is_reserved": 0, "fusion_lon": 0.0}, {"rental_uris": {"ios": "https://dc.lft.to/lastmile_qr_scan", "android": "https://dc.lft.to/lastmile_qr_scan"}, "fusion_lat": 0.0, "name": "487a71788efc8071af68be56c4c195c7", "bike_id": "487a71788efc8071af68be56c4c195c7", "is_disabled": 0, "type": "electric_scooter", "lat": 38.920584, "lon": -77.0401035, "is_reserved": 0, "fusion_lon": 0.0}, {"rental_uris": {"ios": "https://dc.lft.to/lastmile_qr_scan", "android": "https://dc.lft.to/lastmile_qr_scan"}, "fusion_lat": 0.0, "name": "ad5ab87061d53230106213b33065b254", "bike_id": "ad5ab87061d53230106213b33065b254", "is_disabled": 0, "type": "electric_scooter", "lat": 38.90240466666667, "lon": -77.0435255, "is_reserved": 0, "fusion_lon": 0.0}, {"rental_uris": {"ios": "https://dc.lft.to/lastmile_qr_scan", "android": "https://dc.lft.to/lastmile_qr_scan"}, "fusion_lat": 0.0, "name": "554ad86defe5406bece2f04dcc2a669b", "bike_id": "554ad86defe5406bece2f04dcc2a669b", "is_disabled": 0, "type": "electric_bike", "lat": 38.96702583333333, "lon": -76.97521633333334, "is_reserved": 0, "fusion_lon": 0.0}, {"rental_uris": {"ios": "https://dc.lft.to/lastmile_qr_scan", "android": "https://dc.lft.to/lastmile_qr_scan"}, "fusion_lat": 0.0, "name": "e1be96fe131f85d9a37118efeebe10d1", "bike_id": "e1be96fe131f85d9a37118efeebe10d1", "is_disabled": 0, "type": "electric_scooter", "lat": 38.90972383333333, "lon": -77.034694, "is_reserved": 0, "fusion_lon": 0.0}, {"rental_uris": {"ios": "https://dc.lft.to/lastmile_qr_scan", "android": "https://dc.lft.to/lastmile_qr_scan"}, "fusion_lat": 0.0, "name": "b86e11318b1e0af269566c294af9b4b9", "bike_id": "b86e11318b1e0af269566c294af9b4b9", "is_disabled": 0, "type": "electric_scooter", "lat": 38.892432666666664, "lon": -77.04660566666666, "is_reserved": 0, "fusion_lon": 0.0}, {"rental_uris": {"ios": "https://dc.lft.to/lastmile_qr_scan", "android": "https://dc.lft.to/lastmile_qr_scan"}, "fusion_lat": 0.0, "name": "81bb7bf628933e3863e07ea979ddf28f", "bike_id": "81bb7bf628933e3863e07ea979ddf28f", "is_disabled": 0, "type": "electric_scooter", "lat": 38.89221583333333, "lon": -77.031649, "is_reserved": 0, "fusion_lon": 0.0}, {"rental_uris": {"ios": "https://dc.lft.to/lastmile_qr_scan", "android": "https://dc.lft.to/lastmile_qr_scan"}, "fusion_lat": 0.0, "name": "bcf16722beb45c2e024ee0d66e61a185", "bike_id": "bcf16722beb45c2e024ee0d66e61a185", "is_disabled": 0, "type": "electric_scooter", "lat": 38.91706633333333, "lon": -77.0350385, "is_reserved": 0, "fusion_lon": 0.0}, {"rental_uris": {"ios": "https://dc.lft.to/lastmile_qr_scan", "android": "https://dc.lft.to/lastmile_qr_scan"}, "fusion_lat": 0.0, "name": "7543026228823d1f76e9260212d2b768", "bike_id": "7543026228823d1f76e9260212d2b768", "is_disabled": 0, "type": "electric_scooter", "lat": 38.915211166666666, "lon": -77.041638, "is_reserved": 0, "fusion_lon": 0.0}, {"rental_uris": {"ios": "https://dc.lft.to/lastmile_qr_scan", "android": "https://dc.lft.to/lastmile_qr_scan"}, "fusion_lat": 0.0, "name": "de42eee8a594bb0c1e69835a70de3063", "bike_id": "de42eee8a594bb0c1e69835a70de3063", "is_disabled": 0, "type": "electric_scooter", "lat": 38.935977666666666, "lon": -77.0232665, "is_reserved": 0, "fusion_lon": 0.0}, {"rental_uris": {"ios": "https://dc.lft.to/lastmile_qr_scan", "android": "https://dc.lft.to/lastmile_qr_scan"}, "fusion_lat": 0.0, "name": "a8f0127b122d03d76f7cd19b8c19bfea", "bike_id": "a8f0127b122d03d76f7cd19b8c19bfea", "is_disabled": 0, "type": "electric_scooter", "lat": 38.90585216666667, "lon": -77.00616066666667, "is_reserved": 0, "fusion_lon": 0.0}, {"rental_uris": {"ios": "https://dc.lft.to/lastmile_qr_scan", "android": "https://dc.lft.to/lastmile_qr_scan"}, "fusion_lat": 0.0, "name": "f537cf4b8fd4dd31037a95d80fb2244d", "bike_id": "f537cf4b8fd4dd31037a95d80fb2244d", "is_disabled": 0, "type": "electric_scooter", "lat": 38.914175666666665, "lon": -77.02113383333334, "is_reserved": 0, "fusion_lon": 0.0}, {"rental_uris": {"ios": "https://dc.lft.to/lastmile_qr_scan", "android": "https://dc.lft.to/lastmile_qr_scan"}, "fusion_lat": 0.0, "name": "9c5bdb77e522c31348498cc8db81d4d2", "bike_id": "9c5bdb77e522c31348498cc8db81d4d2", "is_disabled": 0, "type": "electric_bike", "lat": 38.87730483333333, "lon": -76.98105166666667, "is_reserved": 0, "fusion_lon": 0.0}, {"rental_uris": {"ios": "https://dc.lft.to/lastmile_qr_scan", "android": "https://dc.lft.to/lastmile_qr_scan"}, "fusion_lat": 0.0, "name": "9ca2d489ca639f5d64b05dfdb1ec1264", "bike_id": "9ca2d489ca639f5d64b05dfdb1ec1264", "is_disabled": 0, "type": "electric_scooter", "lat": 38.9420045, "lon": -77.02590233333333, "is_reserved": 0, "fusion_lon": 0.0}, {"rental_uris": {"ios": "https://dc.lft.to/lastmile_qr_scan", "android": "https://dc.lft.to/lastmile_qr_scan"}, "fusion_lat": 0.0, "name": "dad40381227358c3056a86e091996ba4", "bike_id": "dad40381227358c3056a86e091996ba4", "is_disabled": 0, "type": "electric_scooter", "lat": 38.91682633333333, "lon": -77.02297283333333, "is_reserved": 0, "fusion_lon": 0.0}, {"rental_uris": {"ios": "https://dc.lft.to/lastmile_qr_scan", "android": "https://dc.lft.to/lastmile_qr_scan"}, "fusion_lat": 0.0, "name": "36fed58bd8cec0ff4c19375c900ca774", "bike_id": "36fed58bd8cec0ff4c19375c900ca774", "is_disabled": 0, "type": "electric_scooter", "lat": 38.902319166666665, "lon": -77.0438495, "is_reserved": 0, "fusion_lon": 0.0}, {"rental_uris": {"ios": "https://dc.lft.to/lastmile_qr_scan", "android": "https://dc.lft.to/lastmile_qr_scan"}, "fusion_lat": 0.0, "name": "f10b8075471939e42353b9fcd13aa57a", "bike_id": "f10b8075471939e42353b9fcd13aa57a", "is_disabled": 0, "type": "electric_scooter", "lat": 38.915567, "lon": -77.0241645, "is_reserved": 0, "fusion_lon": 0.0}, {"rental_uris": {"ios": "https://dc.lft.to/lastmile_qr_scan", "android": "https://dc.lft.to/lastmile_qr_scan"}, "fusion_lat": 0.0, "name": "86c7fd9f1a471f3f66e2166d0ee1f9c2", "bike_id": "86c7fd9f1a471f3f66e2166d0ee1f9c2", "is_disabled": 0, "type": "electric_scooter", "lat": 38.949582, "lon": -77.02723366666666, "is_reserved": 0, "fusion_lon": 0.0}, {"rental_uris": {"ios": "https://dc.lft.to/lastmile_qr_scan", "android": "https://dc.lft.to/lastmile_qr_scan"}, "fusion_lat": 0.0, "name": "67fa296036dc37eb5c11943b73846e85", "bike_id": "67fa296036dc37eb5c11943b73846e85", "is_disabled": 0, "type": "electric_scooter", "lat": 38.923077666666664, "lon": -77.04272133333333, "is_reserved": 0, "fusion_lon": 0.0}, {"rental_uris": {"ios": "https://dc.lft.to/lastmile_qr_scan", "android": "https://dc.lft.to/lastmile_qr_scan"}, "fusion_lat": 0.0, "name": "45b0b91bcb071c4abf2fd85746f66b67", "bike_id": "45b0b91bcb071c4abf2fd85746f66b67", "is_disabled": 0, "type": "electric_scooter", "lat": 38.9495745, "lon": -77.02722216666666, "is_reserved": 0, "fusion_lon": 0.0}, {"rental_uris": {"ios": "https://dc.lft.to/lastmile_qr_scan", "android": "https://dc.lft.to/lastmile_qr_scan"}, "fusion_lat": 0.0, "name": "f62bcb3cd9839e643492a58d1651f90c", "bike_id": "f62bcb3cd9839e643492a58d1651f90c", "is_disabled": 0, "type": "electric_scooter", "lat": 38.86887383333333, "lon": -76.983106, "is_reserved": 0, "fusion_lon": 0.0}, {"rental_uris": {"ios": "https://dc.lft.to/lastmile_qr_scan", "android": "https://dc.lft.to/lastmile_qr_scan"}, "fusion_lat": 0.0, "name": "b3ce11923482dda04db60834940ec5a3", "bike_id": "b3ce11923482dda04db60834940ec5a3", "is_disabled": 0, "type": "electric_scooter", "lat": 38.89348733333333, "lon": -77.01101483333333, "is_reserved": 0, "fusion_lon": 0.0}, {"rental_uris": {"ios": "https://dc.lft.to/lastmile_qr_scan", "android": "https://dc.lft.to/lastmile_qr_scan"}, "fusion_lat": 0.0, "name": "9e7aed5ce787dc63c5b269468ed341fe", "bike_id": "9e7aed5ce787dc63c5b269468ed341fe", "is_disabled": 0, "type": "electric_scooter", "lat": 38.9247275, "lon": -77.03157283333333, "is_reserved": 0, "fusion_lon": 0.0}, {"rental_uris": {"ios": "https://dc.lft.to/lastmile_qr_scan", "android": "https://dc.lft.to/lastmile_qr_scan"}, "fusion_lat": 0.0, "name": "131bdc3e6dc25e83f833a6a438d600a7", "bike_id": "131bdc3e6dc25e83f833a6a438d600a7", "is_disabled": 0, "type": "electric_scooter", "lat": 38.88731683333334, "lon": -77.02826866666666, "is_reserved": 0, "fusion_lon": 0.0}, {"rental_uris": {"ios": "https://dc.lft.to/lastmile_qr_scan", "android": "https://dc.lft.to/lastmile_qr_scan"}, "fusion_lat": 0.0, "name": "bbea5c13743ba97cee34e04974c96eea", "bike_id": "bbea5c13743ba97cee34e04974c96eea", "is_disabled": 0, "type": "electric_scooter", "lat": 38.8988535, "lon": -76.93171483333333, "is_reserved": 0, "fusion_lon": 0.0}, {"rental_uris": {"ios": "https://dc.lft.to/lastmile_qr_scan", "android": "https://dc.lft.to/lastmile_qr_scan"}, "fusion_lat": 0.0, "name": "40941897da61bac7560b2c8d81066a53", "bike_id": "40941897da61bac7560b2c8d81066a53", "is_disabled": 0, "type": "electric_scooter", "lat": 38.8443275, "lon": -76.9977855, "is_reserved": 0, "fusion_lon": 0.0}, {"rental_uris": {"ios": "https://dc.lft.to/lastmile_qr_scan", "android": "https://dc.lft.to/lastmile_qr_scan"}, "fusion_lat": 0.0, "name": "29d2e4fcb93e87f776c17f7eb6f8cf1d", "bike_id": "29d2e4fcb93e87f776c17f7eb6f8cf1d", "is_disabled": 0, "type": "electric_bike", "lat": 38.827871333333334, "lon": -77.00916183333334, "is_reserved": 0, "fusion_lon": 0.0}, {"rental_uris": {"ios": "https://dc.lft.to/lastmile_qr_scan", "android": "https://dc.lft.to/lastmile_qr_scan"}, "fusion_lat": 0.0, "name": "f4412674f67668bbdac746e93e1e93e9", "bike_id": "f4412674f67668bbdac746e93e1e93e9", "is_disabled": 0, "type": "electric_scooter", "lat": 38.920431, "lon": -77.02991333333334, "is_reserved": 0, "fusion_lon": 0.0}, {"rental_uris": {"ios": "https://dc.lft.to/lastmile_qr_scan", "android": "https://dc.lft.to/lastmile_qr_scan"}, "fusion_lat": 0.0, "name": "e02b243d2409613e24b33977e4cda099", "bike_id": "e02b243d2409613e24b33977e4cda099", "is_disabled": 0, "type": "electric_scooter", "lat": 38.906865, "lon": -77.03815916666667, "is_reserved": 0, "fusion_lon": 0.0}, {"rental_uris": {"ios": "https://dc.lft.to/lastmile_qr_scan", "android": "https://dc.lft.to/lastmile_qr_scan"}, "fusion_lat": 0.0, "name": "aee7a46d954fbd7211b2529cf209b18b", "bike_id": "aee7a46d954fbd7211b2529cf209b18b", "is_disabled": 0, "type": "electric_scooter", "lat": 38.903948, "lon": -76.98100766666667, "is_reserved": 0, "fusion_lon": 0.0}, {"rental_uris": {"ios": "https://dc.lft.to/lastmile_qr_scan", "android": "https://dc.lft.to/lastmile_qr_scan"}, "fusion_lat": 0.0, "name": "9edc1dc1a7b0dc0eabba35bad4cb6a41", "bike_id": "9edc1dc1a7b0dc0eabba35bad4cb6a41", "is_disabled": 0, "type": "electric_scooter", "lat": 38.91377216666667, "lon": -77.01995, "is_reserved": 0, "fusion_lon": 0.0}, {"rental_uris": {"ios": "https://dc.lft.to/lastmile_qr_scan", "android": "https://dc.lft.to/lastmile_qr_scan"}, "fusion_lat": 0.0, "name": "85d3219240dcc91bf10604eacbcd8690", "bike_id": "85d3219240dcc91bf10604eacbcd8690", "is_disabled": 0, "type": "electric_scooter", "lat": 38.89517566666667, "lon": -76.99212583333333, "is_reserved": 0, "fusion_lon": 0.0}, {"rental_uris": {"ios": "https://dc.lft.to/lastmile_qr_scan", "android": "https://dc.lft.to/lastmile_qr_scan"}, "fusion_lat": 0.0, "name": "92cbd0d8360892572286b0c7e7d268c7", "bike_id": "92cbd0d8360892572286b0c7e7d268c7", "is_disabled": 0, "type": "electric_scooter", "lat": 38.873973, "lon": -77.00027766666666, "is_reserved": 0, "fusion_lon": 0.0}, {"rental_uris": {"ios": "https://dc.lft.to/lastmile_qr_scan", "android": "https://dc.lft.to/lastmile_qr_scan"}, "fusion_lat": 0.0, "name": "5176e711d6a2f089ad325081b8adc8a7", "bike_id": "5176e711d6a2f089ad325081b8adc8a7", "is_disabled": 0, "type": "electric_scooter", "lat": 38.95618666666667, "lon": -77.02762683333333, "is_reserved": 0, "fusion_lon": 0.0}, {"rental_uris": {"ios": "https://dc.lft.to/lastmile_qr_scan", "android": "https://dc.lft.to/lastmile_qr_scan"}, "fusion_lat": 0.0, "name": "58f45ba7233909a5902ab61fcc8a86b8", "bike_id": "58f45ba7233909a5902ab61fcc8a86b8", "is_disabled": 0, "type": "electric_scooter", "lat": 38.9236655, "lon": -77.05129316666667, "is_reserved": 0, "fusion_lon": 0.0}, {"rental_uris": {"ios": "https://dc.lft.to/lastmile_qr_scan", "android": "https://dc.lft.to/lastmile_qr_scan"}, "fusion_lat": 0.0, "name": "6dee73cfe0b50ce95e5cefcf2e795c17", "bike_id": "6dee73cfe0b50ce95e5cefcf2e795c17", "is_disabled": 0, "type": "electric_scooter", "lat": 38.931933, "lon": -77.03309833333333, "is_reserved": 0, "fusion_lon": 0.0}, {"rental_uris": {"ios": "https://dc.lft.to/lastmile_qr_scan", "android": "https://dc.lft.to/lastmile_qr_scan"}, "fusion_lat": 0.0, "name": "02474909da9510da64a024c6ce404398", "bike_id": "02474909da9510da64a024c6ce404398", "is_disabled": 0, "type": "electric_scooter", "lat": 38.954312, "lon": -77.02761633333333, "is_reserved": 0, "fusion_lon": 0.0}, {"rental_uris": {"ios": "https://dc.lft.to/lastmile_qr_scan", "android": "https://dc.lft.to/lastmile_qr_scan"}, "fusion_lat": 0.0, "name": "745c9bcfd042c7c3091474bee5d767d5", "bike_id": "745c9bcfd042c7c3091474bee5d767d5", "is_disabled": 0, "type": "electric_scooter", "lat": 38.887325833333335, "lon": -77.02823233333334, "is_reserved": 0, "fusion_lon": 0.0}, {"rental_uris": {"ios": "https://dc.lft.to/lastmile_qr_scan", "android": "https://dc.lft.to/lastmile_qr_scan"}, "fusion_lat": 0.0, "name": "ad0ddd6ac312c3ae034e3ec4848b63fb", "bike_id": "ad0ddd6ac312c3ae034e3ec4848b63fb", "is_disabled": 0, "type": "electric_scooter", "lat": 38.90687616666666, "lon": -77.026937, "is_reserved": 0, "fusion_lon": 0.0}, {"rental_uris": {"ios": "https://dc.lft.to/lastmile_qr_scan", "android": "https://dc.lft.to/lastmile_qr_scan"}, "fusion_lat": 0.0, "name": "a23cf669cc338100d559a424396068dc", "bike_id": "a23cf669cc338100d559a424396068dc", "is_disabled": 0, "type": "electric_scooter", "lat": 38.935549333333334, "lon": -77.02224083333333, "is_reserved": 0, "fusion_lon": 0.0}, {"rental_uris": {"ios": "https://dc.lft.to/lastmile_qr_scan", "android": "https://dc.lft.to/lastmile_qr_scan"}, "fusion_lat": 0.0, "name": "8a62a69ba6d38755c26179e7e3dd9b46", "bike_id": "8a62a69ba6d38755c26179e7e3dd9b46", "is_disabled": 0, "type": "electric_bike", "lat": 38.962833333333336, "lon": -76.98300783333333, "is_reserved": 0, "fusion_lon": 0.0}, {"rental_uris": {"ios": "https://dc.lft.to/lastmile_qr_scan", "android": "https://dc.lft.to/lastmile_qr_scan"}, "fusion_lat": 0.0, "name": "1b6db317d8119004a6cac244464bf0ee", "bike_id": "1b6db317d8119004a6cac244464bf0ee", "is_disabled": 0, "type": "electric_scooter", "lat": 38.8695825, "lon": -76.96679683333333, "is_reserved": 0, "fusion_lon": 0.0}, {"rental_uris": {"ios": "https://dc.lft.to/lastmile_qr_scan", "android": "https://dc.lft.to/lastmile_qr_scan"}, "fusion_lat": 0.0, "name": "4dabbaea7d96e5413e3d3bdcbab5b4e5", "bike_id": "4dabbaea7d96e5413e3d3bdcbab5b4e5", "is_disabled": 0, "type": "electric_bike", "lat": 38.863884666666664, "lon": -76.989869, "is_reserved": 0, "fusion_lon": 0.0}, {"rental_uris": {"ios": "https://dc.lft.to/lastmile_qr_scan", "android": "https://dc.lft.to/lastmile_qr_scan"}, "fusion_lat": 0.0, "name": "0682202a68cde106991853bfea440ae9", "bike_id": "0682202a68cde106991853bfea440ae9", "is_disabled": 0, "type": "electric_scooter", "lat": 38.918154666666666, "lon": -77.02715833333333, "is_reserved": 0, "fusion_lon": 0.0}, {"rental_uris": {"ios": "https://dc.lft.to/lastmile_qr_scan", "android": "https://dc.lft.to/lastmile_qr_scan"}, "fusion_lat": 0.0, "name": "080e6542d3b4625bb2fa278abd6c94c7", "bike_id": "080e6542d3b4625bb2fa278abd6c94c7", "is_disabled": 0, "type": "electric_scooter", "lat": 38.94199666666667, "lon": -77.0259255, "is_reserved": 0, "fusion_lon": 0.0}, {"rental_uris": {"ios": "https://dc.lft.to/lastmile_qr_scan", "android": "https://dc.lft.to/lastmile_qr_scan"}, "fusion_lat": 0.0, "name": "ba178c632b0173baf5ec9cf00c570e88", "bike_id": "ba178c632b0173baf5ec9cf00c570e88", "is_disabled": 0, "type": "electric_scooter", "lat": 38.8922295, "lon": -77.03220333333333, "is_reserved": 0, "fusion_lon": 0.0}, {"rental_uris": {"ios": "https://dc.lft.to/lastmile_qr_scan", "android": "https://dc.lft.to/lastmile_qr_scan"}, "fusion_lat": 0.0, "name": "ddf259bd8c901270adfa650bb161dff3", "bike_id": "ddf259bd8c901270adfa650bb161dff3", "is_disabled": 0, "type": "electric_bike", "lat": 38.859426666666664, "lon": -77.0860605, "is_reserved": 0, "fusion_lon": 0.0}, {"rental_uris": {"ios": "https://dc.lft.to/lastmile_qr_scan", "android": "https://dc.lft.to/lastmile_qr_scan"}, "fusion_lat": 0.0, "name": "ac503cc4ba419f49bd8623b3b5a696c0", "bike_id": "ac503cc4ba419f49bd8623b3b5a696c0", "is_disabled": 0, "type": "electric_scooter", "lat": 38.909752, "lon": -77.03435933333333, "is_reserved": 0, "fusion_lon": 0.0}, {"rental_uris": {"ios": "https://dc.lft.to/lastmile_qr_scan", "android": "https://dc.lft.to/lastmile_qr_scan"}, "fusion_lat": 0.0, "name": "bd37f48a624696481656820f7d5f0c00", "bike_id": "bd37f48a624696481656820f7d5f0c00", "is_disabled": 0, "type": "electric_scooter", "lat": 38.91566683333333, "lon": -77.03147483333333, "is_reserved": 0, "fusion_lon": 0.0}, {"rental_uris": {"ios": "https://dc.lft.to/lastmile_qr_scan", "android": "https://dc.lft.to/lastmile_qr_scan"}, "fusion_lat": 0.0, "name": "576d4e6732a567e89230799dd2949cfe", "bike_id": "576d4e6732a567e89230799dd2949cfe", "is_disabled": 0, "type": "electric_scooter", "lat": 38.877957, "lon": -76.99407233333334, "is_reserved": 0, "fusion_lon": 0.0}, {"rental_uris": {"ios": "https://dc.lft.to/lastmile_qr_scan", "android": "https://dc.lft.to/lastmile_qr_scan"}, "fusion_lat": 0.0, "name": "30fc234e3c1bc23e11c30365d8cb9500", "bike_id": "30fc234e3c1bc23e11c30365d8cb9500", "is_disabled": 0, "type": "electric_scooter", "lat": 38.8845385, "lon": -77.02153166666666, "is_reserved": 0, "fusion_lon": 0.0}, {"rental_uris": {"ios": "https://dc.lft.to/lastmile_qr_scan", "android": "https://dc.lft.to/lastmile_qr_scan"}, "fusion_lat": 0.0, "name": "e11837bd8d9f239156f69f6599fbcd0f", "bike_id": "e11837bd8d9f239156f69f6599fbcd0f", "is_disabled": 0, "type": "electric_scooter", "lat": 38.90819416666667, "lon": -77.0185, "is_reserved": 0, "fusion_lon": 0.0}, {"rental_uris": {"ios": "https://dc.lft.to/lastmile_qr_scan", "android": "https://dc.lft.to/lastmile_qr_scan"}, "fusion_lat": 0.0, "name": "e61677f700672cbe8d448a64dac9fa9f", "bike_id": "e61677f700672cbe8d448a64dac9fa9f", "is_disabled": 0, "type": "electric_scooter", "lat": 38.91696233333333, "lon": -77.029792, "is_reserved": 0, "fusion_lon": 0.0}, {"rental_uris": {"ios": "https://dc.lft.to/lastmile_qr_scan", "android": "https://dc.lft.to/lastmile_qr_scan"}, "fusion_lat": 0.0, "name": "335e80ad6625b62dc63d29c60403bdf8", "bike_id": "335e80ad6625b62dc63d29c60403bdf8", "is_disabled": 0, "type": "electric_scooter", "lat": 38.890202333333335, "lon": -76.9373925, "is_reserved": 0, "fusion_lon": 0.0}, {"rental_uris": {"ios": "https://dc.lft.to/lastmile_qr_scan", "android": "https://dc.lft.to/lastmile_qr_scan"}, "fusion_lat": 0.0, "name": "411408ca86f84e808e02d045dcb67a83", "bike_id": "411408ca86f84e808e02d045dcb67a83", "is_disabled": 0, "type": "electric_scooter", "lat": 38.908045, "lon": -77.0383995, "is_reserved": 0, "fusion_lon": 0.0}, {"rental_uris": {"ios": "https://dc.lft.to/lastmile_qr_scan", "android": "https://dc.lft.to/lastmile_qr_scan"}, "fusion_lat": 0.0, "name": "944db09d6ffb829b8b3b5cc767855bc0", "bike_id": "944db09d6ffb829b8b3b5cc767855bc0", "is_disabled": 0, "type": "electric_scooter", "lat": 38.95167333333333, "lon": -77.02748066666666, "is_reserved": 0, "fusion_lon": 0.0}, {"rental_uris": {"ios": "https://dc.lft.to/lastmile_qr_scan", "android": "https://dc.lft.to/lastmile_qr_scan"}, "fusion_lat": 0.0, "name": "44de62689fb0e650837da1f1072053d5", "bike_id": "44de62689fb0e650837da1f1072053d5", "is_disabled": 0, "type": "electric_bike", "lat": 38.92211733333333, "lon": -76.9879525, "is_reserved": 0, "fusion_lon": 0.0}, {"rental_uris": {"ios": "https://dc.lft.to/lastmile_qr_scan", "android": "https://dc.lft.to/lastmile_qr_scan"}, "fusion_lat": 0.0, "name": "70e68a38da9e6aec10ada4935a6d1ea7", "bike_id": "70e68a38da9e6aec10ada4935a6d1ea7", "is_disabled": 0, "type": "electric_scooter", "lat": 38.8922375, "lon": -77.013717, "is_reserved": 0, "fusion_lon": 0.0}, {"rental_uris": {"ios": "https://dc.lft.to/lastmile_qr_scan", "android": "https://dc.lft.to/lastmile_qr_scan"}, "fusion_lat": 0.0, "name": "6306cba6e4a7a2b9433f6f0eb9f6ee6d", "bike_id": "6306cba6e4a7a2b9433f6f0eb9f6ee6d", "is_disabled": 0, "type": "electric_bike", "lat": 39.039106833333335, "lon": -77.05039733333334, "is_reserved": 0, "fusion_lon": 0.0}, {"rental_uris": {"ios": "https://dc.lft.to/lastmile_qr_scan", "android": "https://dc.lft.to/lastmile_qr_scan"}, "fusion_lat": 0.0, "name": "14239a02b974a88abcc6a62f3ef63b83", "bike_id": "14239a02b974a88abcc6a62f3ef63b83", "is_disabled": 0, "type": "electric_scooter", "lat": 38.943859, "lon": -77.077091, "is_reserved": 0, "fusion_lon": 0.0}, {"rental_uris": {"ios": "https://dc.lft.to/lastmile_qr_scan", "android": "https://dc.lft.to/lastmile_qr_scan"}, "fusion_lat": 0.0, "name": "09c4063a08fb6d0276cf858cbe315579", "bike_id": "09c4063a08fb6d0276cf858cbe315579", "is_disabled": 0, "type": "electric_scooter", "lat": 38.90373, "lon": -77.03846183333333, "is_reserved": 0, "fusion_lon": 0.0}, {"rental_uris": {"ios": "https://dc.lft.to/lastmile_qr_scan", "android": "https://dc.lft.to/lastmile_qr_scan"}, "fusion_lat": 0.0, "name": "9ae077a5c5a3ecd92963efa854d28647", "bike_id": "9ae077a5c5a3ecd92963efa854d28647", "is_disabled": 0, "type": "electric_scooter", "lat": 38.902465666666664, "lon": -77.039562, "is_reserved": 0, "fusion_lon": 0.0}, {"rental_uris": {"ios": "https://dc.lft.to/lastmile_qr_scan", "android": "https://dc.lft.to/lastmile_qr_scan"}, "fusion_lat": 0.0, "name": "4e0dffb715ed7b00c129f9d353a77c40", "bike_id": "4e0dffb715ed7b00c129f9d353a77c40", "is_disabled": 0, "type": "electric_bike", "lat": 38.92264816666667, "lon": -76.98155466666667, "is_reserved": 0, "fusion_lon": 0.0}, {"rental_uris": {"ios": "https://dc.lft.to/lastmile_qr_scan", "android": "https://dc.lft.to/lastmile_qr_scan"}, "fusion_lat": 0.0, "name": "ec1604dabc792f14c0fdfd8fbd4398a3", "bike_id": "ec1604dabc792f14c0fdfd8fbd4398a3", "is_disabled": 0, "type": "electric_scooter", "lat": 38.913430166666664, "lon": -77.031617, "is_reserved": 0, "fusion_lon": 0.0}, {"rental_uris": {"ios": "https://dc.lft.to/lastmile_qr_scan", "android": "https://dc.lft.to/lastmile_qr_scan"}, "fusion_lat": 0.0, "name": "ee0e622dbab304d8fc20e7f44856e081", "bike_id": "ee0e622dbab304d8fc20e7f44856e081", "is_disabled": 0, "type": "electric_scooter", "lat": 38.902802, "lon": -77.027922, "is_reserved": 0, "fusion_lon": 0.0}, {"rental_uris": {"ios": "https://dc.lft.to/lastmile_qr_scan", "android": "https://dc.lft.to/lastmile_qr_scan"}, "fusion_lat": 0.0, "name": "bfdc2a7c8a09cc4e4ebd361abbafbea8", "bike_id": "bfdc2a7c8a09cc4e4ebd361abbafbea8", "is_disabled": 0, "type": "electric_bike", "lat": 39.02930083333333, "lon": -77.04928433333333, "is_reserved": 0, "fusion_lon": 0.0}, {"rental_uris": {"ios": "https://dc.lft.to/lastmile_qr_scan", "android": "https://dc.lft.to/lastmile_qr_scan"}, "fusion_lat": 0.0, "name": "678c09e884d8ffbd655d5fb21545836c", "bike_id": "678c09e884d8ffbd655d5fb21545836c", "is_disabled": 0, "type": "electric_scooter", "lat": 38.9049785, "lon": -76.9792195, "is_reserved": 0, "fusion_lon": 0.0}, {"rental_uris": {"ios": "https://dc.lft.to/lastmile_qr_scan", "android": "https://dc.lft.to/lastmile_qr_scan"}, "fusion_lat": 0.0, "name": "8daa42470569b9db6701eb7adbf98bcf", "bike_id": "8daa42470569b9db6701eb7adbf98bcf", "is_disabled": 0, "type": "electric_scooter", "lat": 38.921249333333336, "lon": -77.044228, "is_reserved": 0, "fusion_lon": 0.0}, {"rental_uris": {"ios": "https://dc.lft.to/lastmile_qr_scan", "android": "https://dc.lft.to/lastmile_qr_scan"}, "fusion_lat": 0.0, "name": "21163a3ff2443e1db2d76b7a9858db4d", "bike_id": "21163a3ff2443e1db2d76b7a9858db4d", "is_disabled": 0, "type": "electric_scooter", "lat": 38.9026475, "lon": -77.0388495, "is_reserved": 0, "fusion_lon": 0.0}, {"rental_uris": {"ios": "https://dc.lft.to/lastmile_qr_scan", "android": "https://dc.lft.to/lastmile_qr_scan"}, "fusion_lat": 0.0, "name": "b7637ed4841a38897725b2b90e4fe54e", "bike_id": "b7637ed4841a38897725b2b90e4fe54e", "is_disabled": 0, "type": "electric_scooter", "lat": 38.921484666666665, "lon": -77.03503516666666, "is_reserved": 0, "fusion_lon": 0.0}, {"rental_uris": {"ios": "https://dc.lft.to/lastmile_qr_scan", "android": "https://dc.lft.to/lastmile_qr_scan"}, "fusion_lat": 0.0, "name": "830c31841a0fb08a1c994f700bdc15e7", "bike_id": "830c31841a0fb08a1c994f700bdc15e7", "is_disabled": 0, "type": "electric_scooter", "lat": 38.941863, "lon": -77.024896, "is_reserved": 0, "fusion_lon": 0.0}, {"rental_uris": {"ios": "https://dc.lft.to/lastmile_qr_scan", "android": "https://dc.lft.to/lastmile_qr_scan"}, "fusion_lat": 0.0, "name": "092e9bb1fffc1f3c337684146783115b", "bike_id": "092e9bb1fffc1f3c337684146783115b", "is_disabled": 0, "type": "electric_scooter", "lat": 38.91563766666667, "lon": -77.03256566666667, "is_reserved": 0, "fusion_lon": 0.0}, {"rental_uris": {"ios": "https://dc.lft.to/lastmile_qr_scan", "android": "https://dc.lft.to/lastmile_qr_scan"}, "fusion_lat": 0.0, "name": "934009ba67ac382cd2edb179ccf1a9dd", "bike_id": "934009ba67ac382cd2edb179ccf1a9dd", "is_disabled": 0, "type": "electric_scooter", "lat": 38.930244, "lon": -77.08281183333334, "is_reserved": 0, "fusion_lon": 0.0}, {"rental_uris": {"ios": "https://dc.lft.to/lastmile_qr_scan", "android": "https://dc.lft.to/lastmile_qr_scan"}, "fusion_lat": 0.0, "name": "6da5aa2c903bfbb51642e3c80fa6cf13", "bike_id": "6da5aa2c903bfbb51642e3c80fa6cf13", "is_disabled": 0, "type": "electric_scooter", "lat": 38.90230316666667, "lon": -77.02686866666667, "is_reserved": 0, "fusion_lon": 0.0}, {"rental_uris": {"ios": "https://dc.lft.to/lastmile_qr_scan", "android": "https://dc.lft.to/lastmile_qr_scan"}, "fusion_lat": 0.0, "name": "c32f3ffabf45728bfaf550272410ddba", "bike_id": "c32f3ffabf45728bfaf550272410ddba", "is_disabled": 0, "type": "electric_scooter", "lat": 38.91562316666667, "lon": -77.031465, "is_reserved": 0, "fusion_lon": 0.0}, {"rental_uris": {"ios": "https://dc.lft.to/lastmile_qr_scan", "android": "https://dc.lft.to/lastmile_qr_scan"}, "fusion_lat": 0.0, "name": "0cb02205c9d3dfe87d5a7cfccdc14bb1", "bike_id": "0cb02205c9d3dfe87d5a7cfccdc14bb1", "is_disabled": 0, "type": "electric_scooter", "lat": 38.90274683333333, "lon": -77.0385525, "is_reserved": 0, "fusion_lon": 0.0}, {"rental_uris": {"ios": "https://dc.lft.to/lastmile_qr_scan", "android": "https://dc.lft.to/lastmile_qr_scan"}, "fusion_lat": 0.0, "name": "99b98076d665ed03e85c6af6ba28d1e3", "bike_id": "99b98076d665ed03e85c6af6ba28d1e3", "is_disabled": 0, "type": "electric_scooter", "lat": 38.9048305, "lon": -77.048684, "is_reserved": 0, "fusion_lon": 0.0}, {"rental_uris": {"ios": "https://dc.lft.to/lastmile_qr_scan", "android": "https://dc.lft.to/lastmile_qr_scan"}, "fusion_lat": 0.0, "name": "d2cd11129be5efeb45cd8e5c4f84414b", "bike_id": "d2cd11129be5efeb45cd8e5c4f84414b", "is_disabled": 0, "type": "electric_scooter", "lat": 38.88487383333333, "lon": -77.007116, "is_reserved": 0, "fusion_lon": 0.0}, {"rental_uris": {"ios": "https://dc.lft.to/lastmile_qr_scan", "android": "https://dc.lft.to/lastmile_qr_scan"}, "fusion_lat": 0.0, "name": "99d13d659302daeede3ce86766ab9e94", "bike_id": "99d13d659302daeede3ce86766ab9e94", "is_disabled": 0, "type": "electric_scooter", "lat": 38.904539, "lon": -77.03480033333334, "is_reserved": 0, "fusion_lon": 0.0}, {"rental_uris": {"ios": "https://dc.lft.to/lastmile_qr_scan", "android": "https://dc.lft.to/lastmile_qr_scan"}, "fusion_lat": 0.0, "name": "7911eb8bd5257f81ca3a5cd2082c7c17", "bike_id": "7911eb8bd5257f81ca3a5cd2082c7c17", "is_disabled": 0, "type": "electric_scooter", "lat": 38.892224666666664, "lon": -77.0277675, "is_reserved": 0, "fusion_lon": 0.0}, {"rental_uris": {"ios": "https://dc.lft.to/lastmile_qr_scan", "android": "https://dc.lft.to/lastmile_qr_scan"}, "fusion_lat": 0.0, "name": "9b3ba59bb90952c48ab869c7aa4c1d8d", "bike_id": "9b3ba59bb90952c48ab869c7aa4c1d8d", "is_disabled": 0, "type": "electric_scooter", "lat": 38.90486933333333, "lon": -77.03487283333334, "is_reserved": 0, "fusion_lon": 0.0}, {"rental_uris": {"ios": "https://dc.lft.to/lastmile_qr_scan", "android": "https://dc.lft.to/lastmile_qr_scan"}, "fusion_lat": 0.0, "name": "38ea4c07053913001054abc8d10f5fe6", "bike_id": "38ea4c07053913001054abc8d10f5fe6", "is_disabled": 0, "type": "electric_scooter", "lat": 38.904428333333335, "lon": -77.0344315, "is_reserved": 0, "fusion_lon": 0.0}, {"rental_uris": {"ios": "https://dc.lft.to/lastmile_qr_scan", "android": "https://dc.lft.to/lastmile_qr_scan"}, "fusion_lat": 0.0, "name": "5fc517ca5226888ef0011b53d1d801f0", "bike_id": "5fc517ca5226888ef0011b53d1d801f0", "is_disabled": 0, "type": "electric_scooter", "lat": 38.89214283333333, "lon": -77.02654816666667, "is_reserved": 0, "fusion_lon": 0.0}, {"rental_uris": {"ios": "https://dc.lft.to/lastmile_qr_scan", "android": "https://dc.lft.to/lastmile_qr_scan"}, "fusion_lat": 0.0, "name": "030076c36f925e078da040c52598e02d", "bike_id": "030076c36f925e078da040c52598e02d", "is_disabled": 0, "type": "electric_scooter", "lat": 38.925090833333336, "lon": -77.00223416666667, "is_reserved": 0, "fusion_lon": 0.0}, {"rental_uris": {"ios": "https://dc.lft.to/lastmile_qr_scan", "android": "https://dc.lft.to/lastmile_qr_scan"}, "fusion_lat": 0.0, "name": "ad9bc3b16b4a65bfc23e740665204bda", "bike_id": "ad9bc3b16b4a65bfc23e740665204bda", "is_disabled": 0, "type": "electric_scooter", "lat": 38.87094616666667, "lon": -76.9686545, "is_reserved": 0, "fusion_lon": 0.0}, {"rental_uris": {"ios": "https://dc.lft.to/lastmile_qr_scan", "android": "https://dc.lft.to/lastmile_qr_scan"}, "fusion_lat": 0.0, "name": "d95d4b2c70c47365fa458661ee96d0ae", "bike_id": "d95d4b2c70c47365fa458661ee96d0ae", "is_disabled": 0, "type": "electric_scooter", "lat": 38.926361166666666, "lon": -77.0379915, "is_reserved": 0, "fusion_lon": 0.0}, {"rental_uris": {"ios": "https://dc.lft.to/lastmile_qr_scan", "android": "https://dc.lft.to/lastmile_qr_scan"}, "fusion_lat": 0.0, "name": "81f52f9ab2237c54debf3d98c58405df", "bike_id": "81f52f9ab2237c54debf3d98c58405df", "is_disabled": 0, "type": "electric_scooter", "lat": 38.920619, "lon": -77.041943, "is_reserved": 0, "fusion_lon": 0.0}, {"rental_uris": {"ios": "https://dc.lft.to/lastmile_qr_scan", "android": "https://dc.lft.to/lastmile_qr_scan"}, "fusion_lat": 0.0, "name": "b628bbf2d1a631d47b0d94c817ccae9d", "bike_id": "b628bbf2d1a631d47b0d94c817ccae9d", "is_disabled": 0, "type": "electric_scooter", "lat": 38.91817733333333, "lon": -77.04501183333333, "is_reserved": 0, "fusion_lon": 0.0}, {"rental_uris": {"ios": "https://dc.lft.to/lastmile_qr_scan", "android": "https://dc.lft.to/lastmile_qr_scan"}, "fusion_lat": 0.0, "name": "80ba94c8e25324c8dac6b2e67bf394b9", "bike_id": "80ba94c8e25324c8dac6b2e67bf394b9", "is_disabled": 0, "type": "electric_scooter", "lat": 38.9066775, "lon": -77.02715016666667, "is_reserved": 0, "fusion_lon": 0.0}, {"rental_uris": {"ios": "https://dc.lft.to/lastmile_qr_scan", "android": "https://dc.lft.to/lastmile_qr_scan"}, "fusion_lat": 0.0, "name": "6b1450d754a0e332ccde78f3bce5599a", "bike_id": "6b1450d754a0e332ccde78f3bce5599a", "is_disabled": 0, "type": "electric_scooter", "lat": 38.89036633333333, "lon": -76.93750383333334, "is_reserved": 0, "fusion_lon": 0.0}, {"rental_uris": {"ios": "https://dc.lft.to/lastmile_qr_scan", "android": "https://dc.lft.to/lastmile_qr_scan"}, "fusion_lat": 0.0, "name": "efacd9b5f8a406ce7f1a28ac53e01c56", "bike_id": "efacd9b5f8a406ce7f1a28ac53e01c56", "is_disabled": 0, "type": "electric_scooter", "lat": 38.916741, "lon": -77.02320916666666, "is_reserved": 0, "fusion_lon": 0.0}, {"rental_uris": {"ios": "https://dc.lft.to/lastmile_qr_scan", "android": "https://dc.lft.to/lastmile_qr_scan"}, "fusion_lat": 0.0, "name": "e00402b5c43da48d182be1056a55ef00", "bike_id": "e00402b5c43da48d182be1056a55ef00", "is_disabled": 0, "type": "electric_scooter", "lat": 38.88645616666667, "lon": -77.00092433333333, "is_reserved": 0, "fusion_lon": 0.0}, {"rental_uris": {"ios": "https://dc.lft.to/lastmile_qr_scan", "android": "https://dc.lft.to/lastmile_qr_scan"}, "fusion_lat": 0.0, "name": "cea1b2c1bfac1b27a500ff01df14d67b", "bike_id": "cea1b2c1bfac1b27a500ff01df14d67b", "is_disabled": 0, "type": "electric_bike", "lat": 38.871516166666666, "lon": -76.93647116666666, "is_reserved": 0, "fusion_lon": 0.0}, {"rental_uris": {"ios": "https://dc.lft.to/lastmile_qr_scan", "android": "https://dc.lft.to/lastmile_qr_scan"}, "fusion_lat": 0.0, "name": "5d2b851a36113a277b75357400a69e7a", "bike_id": "5d2b851a36113a277b75357400a69e7a", "is_disabled": 0, "type": "electric_scooter", "lat": 38.89243616666667, "lon": -77.04656366666667, "is_reserved": 0, "fusion_lon": 0.0}, {"rental_uris": {"ios": "https://dc.lft.to/lastmile_qr_scan", "android": "https://dc.lft.to/lastmile_qr_scan"}, "fusion_lat": 0.0, "name": "68037d95575a4c55ff88ef03c731680a", "bike_id": "68037d95575a4c55ff88ef03c731680a", "is_disabled": 0, "type": "electric_scooter", "lat": 38.9211425, "lon": -77.0436635, "is_reserved": 0, "fusion_lon": 0.0}, {"rental_uris": {"ios": "https://dc.lft.to/lastmile_qr_scan", "android": "https://dc.lft.to/lastmile_qr_scan"}, "fusion_lat": 0.0, "name": "4de8ff19918d3bb73da33ea4b7d7635c", "bike_id": "4de8ff19918d3bb73da33ea4b7d7635c", "is_disabled": 0, "type": "electric_scooter", "lat": 38.887609, "lon": -77.03357916666667, "is_reserved": 0, "fusion_lon": 0.0}, {"rental_uris": {"ios": "https://dc.lft.to/lastmile_qr_scan", "android": "https://dc.lft.to/lastmile_qr_scan"}, "fusion_lat": 0.0, "name": "97d82280b0138b14ed1d74f2c3d85c9a", "bike_id": "97d82280b0138b14ed1d74f2c3d85c9a", "is_disabled": 0, "type": "electric_scooter", "lat": 38.873894, "lon": -76.9660205, "is_reserved": 0, "fusion_lon": 0.0}, {"rental_uris": {"ios": "https://dc.lft.to/lastmile_qr_scan", "android": "https://dc.lft.to/lastmile_qr_scan"}, "fusion_lat": 0.0, "name": "6352007a7348321addbbe41abf624598", "bike_id": "6352007a7348321addbbe41abf624598", "is_disabled": 0, "type": "electric_scooter", "lat": 38.932487333333334, "lon": -77.038594, "is_reserved": 0, "fusion_lon": 0.0}, {"rental_uris": {"ios": "https://dc.lft.to/lastmile_qr_scan", "android": "https://dc.lft.to/lastmile_qr_scan"}, "fusion_lat": 0.0, "name": "9bcd16c0743e83df395444d1cd06c750", "bike_id": "9bcd16c0743e83df395444d1cd06c750", "is_disabled": 0, "type": "electric_scooter", "lat": 38.916828, "lon": -77.02984483333333, "is_reserved": 0, "fusion_lon": 0.0}, {"rental_uris": {"ios": "https://dc.lft.to/lastmile_qr_scan", "android": "https://dc.lft.to/lastmile_qr_scan"}, "fusion_lat": 0.0, "name": "2d727bf27aab3d8cd8419c3241a54ed1", "bike_id": "2d727bf27aab3d8cd8419c3241a54ed1", "is_disabled": 0, "type": "electric_scooter", "lat": 38.90791183333333, "lon": -77.03180516666667, "is_reserved": 0, "fusion_lon": 0.0}, {"rental_uris": {"ios": "https://dc.lft.to/lastmile_qr_scan", "android": "https://dc.lft.to/lastmile_qr_scan"}, "fusion_lat": 0.0, "name": "78fcd9af009064dfcbeb3928bc5b1ff5", "bike_id": "78fcd9af009064dfcbeb3928bc5b1ff5", "is_disabled": 0, "type": "electric_scooter", "lat": 38.862170166666665, "lon": -76.99480199999999, "is_reserved": 0, "fusion_lon": 0.0}, {"rental_uris": {"ios": "https://dc.lft.to/lastmile_qr_scan", "android": "https://dc.lft.to/lastmile_qr_scan"}, "fusion_lat": 0.0, "name": "9632f9de6c7f16cc4df9964ee83151ee", "bike_id": "9632f9de6c7f16cc4df9964ee83151ee", "is_disabled": 0, "type": "electric_scooter", "lat": 38.89524616666667, "lon": -77.04334583333333, "is_reserved": 0, "fusion_lon": 0.0}, {"rental_uris": {"ios": "https://dc.lft.to/lastmile_qr_scan", "android": "https://dc.lft.to/lastmile_qr_scan"}, "fusion_lat": 0.0, "name": "e35496b2d79b910f2da4f13a0ae74fd1", "bike_id": "e35496b2d79b910f2da4f13a0ae74fd1", "is_disabled": 0, "type": "electric_scooter", "lat": 38.901075166666665, "lon": -77.05130783333334, "is_reserved": 0, "fusion_lon": 0.0}, {"rental_uris": {"ios": "https://dc.lft.to/lastmile_qr_scan", "android": "https://dc.lft.to/lastmile_qr_scan"}, "fusion_lat": 0.0, "name": "bafbb7123eec8287e35471ca08402abe", "bike_id": "bafbb7123eec8287e35471ca08402abe", "is_disabled": 0, "type": "electric_scooter", "lat": 38.91188983333333, "lon": -77.0445015, "is_reserved": 0, "fusion_lon": 0.0}, {"rental_uris": {"ios": "https://dc.lft.to/lastmile_qr_scan", "android": "https://dc.lft.to/lastmile_qr_scan"}, "fusion_lat": 0.0, "name": "0f601533965d611d2c64cbae852182d8", "bike_id": "0f601533965d611d2c64cbae852182d8", "is_disabled": 0, "type": "electric_scooter", "lat": 38.905390833333335, "lon": -77.02203266666666, "is_reserved": 0, "fusion_lon": 0.0}, {"rental_uris": {"ios": "https://dc.lft.to/lastmile_qr_scan", "android": "https://dc.lft.to/lastmile_qr_scan"}, "fusion_lat": 0.0, "name": "4de977758999f3e920cf3244e4b56524", "bike_id": "4de977758999f3e920cf3244e4b56524", "is_disabled": 0, "type": "electric_scooter", "lat": 38.899048, "lon": -76.93349683333334, "is_reserved": 0, "fusion_lon": 0.0}, {"rental_uris": {"ios": "https://dc.lft.to/lastmile_qr_scan", "android": "https://dc.lft.to/lastmile_qr_scan"}, "fusion_lat": 0.0, "name": "0bd514414bb26f8483dacbed6879c592", "bike_id": "0bd514414bb26f8483dacbed6879c592", "is_disabled": 0, "type": "electric_scooter", "lat": 38.90398066666667, "lon": -77.0331335, "is_reserved": 0, "fusion_lon": 0.0}, {"rental_uris": {"ios": "https://dc.lft.to/lastmile_qr_scan", "android": "https://dc.lft.to/lastmile_qr_scan"}, "fusion_lat": 0.0, "name": "7d543dc958d6e384de0c98916dffdc2e", "bike_id": "7d543dc958d6e384de0c98916dffdc2e", "is_disabled": 0, "type": "electric_scooter", "lat": 38.842941333333336, "lon": -76.999466, "is_reserved": 0, "fusion_lon": 0.0}, {"rental_uris": {"ios": "https://dc.lft.to/lastmile_qr_scan", "android": "https://dc.lft.to/lastmile_qr_scan"}, "fusion_lat": 0.0, "name": "0608e85db8812feaba704495aae17f92", "bike_id": "0608e85db8812feaba704495aae17f92", "is_disabled": 0, "type": "electric_scooter", "lat": 38.9168415, "lon": -77.02805766666667, "is_reserved": 0, "fusion_lon": 0.0}, {"rental_uris": {"ios": "https://dc.lft.to/lastmile_qr_scan", "android": "https://dc.lft.to/lastmile_qr_scan"}, "fusion_lat": 0.0, "name": "09f0975bd7e8c01d9b34a942b899047e", "bike_id": "09f0975bd7e8c01d9b34a942b899047e", "is_disabled": 0, "type": "electric_scooter", "lat": 38.92881966666667, "lon": -77.07300416666666, "is_reserved": 0, "fusion_lon": 0.0}, {"rental_uris": {"ios": "https://dc.lft.to/lastmile_qr_scan", "android": "https://dc.lft.to/lastmile_qr_scan"}, "fusion_lat": 0.0, "name": "51cb58c31bbb854b9af99a2c90da9788", "bike_id": "51cb58c31bbb854b9af99a2c90da9788", "is_disabled": 0, "type": "electric_scooter", "lat": 38.917450333333335, "lon": -77.03189366666666, "is_reserved": 0, "fusion_lon": 0.0}, {"rental_uris": {"ios": "https://dc.lft.to/lastmile_qr_scan", "android": "https://dc.lft.to/lastmile_qr_scan"}, "fusion_lat": 0.0, "name": "8d0bca0d3c21648a7e64a0d857830972", "bike_id": "8d0bca0d3c21648a7e64a0d857830972", "is_disabled": 0, "type": "electric_scooter", "lat": 38.915661666666665, "lon": -77.02206816666667, "is_reserved": 0, "fusion_lon": 0.0}, {"rental_uris": {"ios": "https://dc.lft.to/lastmile_qr_scan", "android": "https://dc.lft.to/lastmile_qr_scan"}, "fusion_lat": 0.0, "name": "ca3c3312ee2c347b42b1d695e1d66140", "bike_id": "ca3c3312ee2c347b42b1d695e1d66140", "is_disabled": 0, "type": "electric_scooter", "lat": 38.8665245, "lon": -76.98885133333333, "is_reserved": 0, "fusion_lon": 0.0}, {"rental_uris": {"ios": "https://dc.lft.to/lastmile_qr_scan", "android": "https://dc.lft.to/lastmile_qr_scan"}, "fusion_lat": 0.0, "name": "522a6b1963ce840a7822db95a1fd7986", "bike_id": "522a6b1963ce840a7822db95a1fd7986", "is_disabled": 0, "type": "electric_scooter", "lat": 38.918034666666664, "lon": -77.02287316666667, "is_reserved": 0, "fusion_lon": 0.0}, {"rental_uris": {"ios": "https://dc.lft.to/lastmile_qr_scan", "android": "https://dc.lft.to/lastmile_qr_scan"}, "fusion_lat": 0.0, "name": "067b8fe36c19d01e83b887aeca5f85cd", "bike_id": "067b8fe36c19d01e83b887aeca5f85cd", "is_disabled": 0, "type": "electric_scooter", "lat": 38.93887483333334, "lon": -77.024812, "is_reserved": 0, "fusion_lon": 0.0}, {"rental_uris": {"ios": "https://dc.lft.to/lastmile_qr_scan", "android": "https://dc.lft.to/lastmile_qr_scan"}, "fusion_lat": 0.0, "name": "eae8669417dca6b379d7717dba048910", "bike_id": "eae8669417dca6b379d7717dba048910", "is_disabled": 0, "type": "electric_scooter", "lat": 38.8995375, "lon": -77.031473, "is_reserved": 0, "fusion_lon": 0.0}, {"rental_uris": {"ios": "https://dc.lft.to/lastmile_qr_scan", "android": "https://dc.lft.to/lastmile_qr_scan"}, "fusion_lat": 0.0, "name": "0eb369477f7a8143d30819061a53bfb6", "bike_id": "0eb369477f7a8143d30819061a53bfb6", "is_disabled": 0, "type": "electric_scooter", "lat": 38.9130235, "lon": -77.0435215, "is_reserved": 0, "fusion_lon": 0.0}, {"rental_uris": {"ios": "https://dc.lft.to/lastmile_qr_scan", "android": "https://dc.lft.to/lastmile_qr_scan"}, "fusion_lat": 0.0, "name": "c153ead92b8c908a543a22543ca44ba8", "bike_id": "c153ead92b8c908a543a22543ca44ba8", "is_disabled": 0, "type": "electric_scooter", "lat": 38.9058295, "lon": -77.0061885, "is_reserved": 0, "fusion_lon": 0.0}, {"rental_uris": {"ios": "https://dc.lft.to/lastmile_qr_scan", "android": "https://dc.lft.to/lastmile_qr_scan"}, "fusion_lat": 0.0, "name": "d65671768e6b6c81ad158449e6c491a9", "bike_id": "d65671768e6b6c81ad158449e6c491a9", "is_disabled": 0, "type": "electric_scooter", "lat": 38.918149, "lon": -77.03206583333333, "is_reserved": 0, "fusion_lon": 0.0}, {"rental_uris": {"ios": "https://dc.lft.to/lastmile_qr_scan", "android": "https://dc.lft.to/lastmile_qr_scan"}, "fusion_lat": 0.0, "name": "9d55ffcc8b945e411d47d3ac1152f50b", "bike_id": "9d55ffcc8b945e411d47d3ac1152f50b", "is_disabled": 0, "type": "electric_scooter", "lat": 38.906789333333336, "lon": -77.026935, "is_reserved": 0, "fusion_lon": 0.0}, {"rental_uris": {"ios": "https://dc.lft.to/lastmile_qr_scan", "android": "https://dc.lft.to/lastmile_qr_scan"}, "fusion_lat": 0.0, "name": "99691c0e172b0385148761e5f4b30512", "bike_id": "99691c0e172b0385148761e5f4b30512", "is_disabled": 0, "type": "electric_scooter", "lat": 38.899795833333336, "lon": -76.93988916666666, "is_reserved": 0, "fusion_lon": 0.0}, {"rental_uris": {"ios": "https://dc.lft.to/lastmile_qr_scan", "android": "https://dc.lft.to/lastmile_qr_scan"}, "fusion_lat": 0.0, "name": "e05acec35d96c7b7fa63c15a9d9b9aa9", "bike_id": "e05acec35d96c7b7fa63c15a9d9b9aa9", "is_disabled": 0, "type": "electric_bike", "lat": 38.928569333333336, "lon": -77.222201, "is_reserved": 0, "fusion_lon": 0.0}, {"rental_uris": {"ios": "https://dc.lft.to/lastmile_qr_scan", "android": "https://dc.lft.to/lastmile_qr_scan"}, "fusion_lat": 0.0, "name": "d8417c52130ab1f338a0e6933e470ad5", "bike_id": "d8417c52130ab1f338a0e6933e470ad5", "is_disabled": 0, "type": "electric_scooter", "lat": 38.922517, "lon": -77.0193195, "is_reserved": 0, "fusion_lon": 0.0}, {"rental_uris": {"ios": "https://dc.lft.to/lastmile_qr_scan", "android": "https://dc.lft.to/lastmile_qr_scan"}, "fusion_lat": 0.0, "name": "1b46cace0d08fb02709daf486da79740", "bike_id": "1b46cace0d08fb02709daf486da79740", "is_disabled": 0, "type": "electric_bike", "lat": 39.08859283333334, "lon": -77.17837533333334, "is_reserved": 0, "fusion_lon": 0.0}, {"rental_uris": {"ios": "https://dc.lft.to/lastmile_qr_scan", "android": "https://dc.lft.to/lastmile_qr_scan"}, "fusion_lat": 0.0, "name": "0e1b6b2f247e8da0a2c5f8a8617a99c0", "bike_id": "0e1b6b2f247e8da0a2c5f8a8617a99c0", "is_disabled": 0, "type": "electric_bike", "lat": 38.874821, "lon": -76.96529833333334, "is_reserved": 0, "fusion_lon": 0.0}, {"rental_uris": {"ios": "https://dc.lft.to/lastmile_qr_scan", "android": "https://dc.lft.to/lastmile_qr_scan"}, "fusion_lat": 0.0, "name": "5a5e2c63b779683c1accf9ce3f998b8c", "bike_id": "5a5e2c63b779683c1accf9ce3f998b8c", "is_disabled": 0, "type": "electric_scooter", "lat": 38.92327183333333, "lon": -77.03681733333333, "is_reserved": 0, "fusion_lon": 0.0}, {"rental_uris": {"ios": "https://dc.lft.to/lastmile_qr_scan", "android": "https://dc.lft.to/lastmile_qr_scan"}, "fusion_lat": 0.0, "name": "d433372cee114d845d057923b85795b6", "bike_id": "d433372cee114d845d057923b85795b6", "is_disabled": 0, "type": "electric_bike", "lat": 38.872111, "lon": -77.01174616666667, "is_reserved": 0, "fusion_lon": 0.0}, {"rental_uris": {"ios": "https://dc.lft.to/lastmile_qr_scan", "android": "https://dc.lft.to/lastmile_qr_scan"}, "fusion_lat": 0.0, "name": "8eead3bee7a447868aa1b91090a598b9", "bike_id": "8eead3bee7a447868aa1b91090a598b9", "is_disabled": 0, "type": "electric_scooter", "lat": 38.929823666666664, "lon": -77.02522716666667, "is_reserved": 0, "fusion_lon": 0.0}, {"rental_uris": {"ios": "https://dc.lft.to/lastmile_qr_scan", "android": "https://dc.lft.to/lastmile_qr_scan"}, "fusion_lat": 0.0, "name": "39b0245a9c4e2bb94147edaf7f823d3f", "bike_id": "39b0245a9c4e2bb94147edaf7f823d3f", "is_disabled": 0, "type": "electric_bike", "lat": 38.915875166666666, "lon": -76.97888566666667, "is_reserved": 0, "fusion_lon": 0.0}, {"rental_uris": {"ios": "https://dc.lft.to/lastmile_qr_scan", "android": "https://dc.lft.to/lastmile_qr_scan"}, "fusion_lat": 0.0, "name": "e1b632130de446912869a8ffbf50b297", "bike_id": "e1b632130de446912869a8ffbf50b297", "is_disabled": 0, "type": "electric_scooter", "lat": 38.911663, "lon": -77.0447705, "is_reserved": 0, "fusion_lon": 0.0}, {"rental_uris": {"ios": "https://dc.lft.to/lastmile_qr_scan", "android": "https://dc.lft.to/lastmile_qr_scan"}, "fusion_lat": 0.0, "name": "86a19c7e028472dffe69d582c65621f7", "bike_id": "86a19c7e028472dffe69d582c65621f7", "is_disabled": 0, "type": "electric_scooter", "lat": 38.8873865, "lon": -77.021278, "is_reserved": 0, "fusion_lon": 0.0}, {"rental_uris": {"ios": "https://dc.lft.to/lastmile_qr_scan", "android": "https://dc.lft.to/lastmile_qr_scan"}, "fusion_lat": 0.0, "name": "0673dc753df16c7c328f4c053328d38c", "bike_id": "0673dc753df16c7c328f4c053328d38c", "is_disabled": 0, "type": "electric_bike", "lat": 38.928986, "lon": -77.10597283333334, "is_reserved": 0, "fusion_lon": 0.0}, {"rental_uris": {"ios": "https://dc.lft.to/lastmile_qr_scan", "android": "https://dc.lft.to/lastmile_qr_scan"}, "fusion_lat": 0.0, "name": "7387406ce5398c78c60da7843157d7d5", "bike_id": "7387406ce5398c78c60da7843157d7d5", "is_disabled": 0, "type": "electric_scooter", "lat": 38.9261425, "lon": -77.021587, "is_reserved": 0, "fusion_lon": 0.0}, {"rental_uris": {"ios": "https://dc.lft.to/lastmile_qr_scan", "android": "https://dc.lft.to/lastmile_qr_scan"}, "fusion_lat": 0.0, "name": "86bf6ca314528a80d31f8d198b987a12", "bike_id": "86bf6ca314528a80d31f8d198b987a12", "is_disabled": 0, "type": "electric_scooter", "lat": 38.887802, "lon": -76.95536733333333, "is_reserved": 0, "fusion_lon": 0.0}, {"rental_uris": {"ios": "https://dc.lft.to/lastmile_qr_scan", "android": "https://dc.lft.to/lastmile_qr_scan"}, "fusion_lat": 0.0, "name": "14650747c440f6d9e08603c0e685e349", "bike_id": "14650747c440f6d9e08603c0e685e349", "is_disabled": 0, "type": "electric_scooter", "lat": 38.9060885, "lon": -77.033992, "is_reserved": 0, "fusion_lon": 0.0}, {"rental_uris": {"ios": "https://dc.lft.to/lastmile_qr_scan", "android": "https://dc.lft.to/lastmile_qr_scan"}, "fusion_lat": 0.0, "name": "af0f52aee0b520e13e59b2d5bf3fdc83", "bike_id": "af0f52aee0b520e13e59b2d5bf3fdc83", "is_disabled": 0, "type": "electric_scooter", "lat": 38.90670516666667, "lon": -77.02713833333334, "is_reserved": 0, "fusion_lon": 0.0}, {"rental_uris": {"ios": "https://dc.lft.to/lastmile_qr_scan", "android": "https://dc.lft.to/lastmile_qr_scan"}, "fusion_lat": 0.0, "name": "8de48e028caba7730402f0f330cb077d", "bike_id": "8de48e028caba7730402f0f330cb077d", "is_disabled": 0, "type": "electric_scooter", "lat": 38.91705483333333, "lon": -77.0113885, "is_reserved": 0, "fusion_lon": 0.0}, {"rental_uris": {"ios": "https://dc.lft.to/lastmile_qr_scan", "android": "https://dc.lft.to/lastmile_qr_scan"}, "fusion_lat": 0.0, "name": "fab8dd6123ef9edf49a3581b180cb239", "bike_id": "fab8dd6123ef9edf49a3581b180cb239", "is_disabled": 0, "type": "electric_scooter", "lat": 38.9033465, "lon": -77.011819, "is_reserved": 0, "fusion_lon": 0.0}, {"rental_uris": {"ios": "https://dc.lft.to/lastmile_qr_scan", "android": "https://dc.lft.to/lastmile_qr_scan"}, "fusion_lat": 0.0, "name": "8802849ab1b6bcf45c079f57de3e5171", "bike_id": "8802849ab1b6bcf45c079f57de3e5171", "is_disabled": 0, "type": "electric_scooter", "lat": 38.909502833333335, "lon": -77.03210616666667, "is_reserved": 0, "fusion_lon": 0.0}, {"rental_uris": {"ios": "https://dc.lft.to/lastmile_qr_scan", "android": "https://dc.lft.to/lastmile_qr_scan"}, "fusion_lat": 0.0, "name": "feb8e7ee19eba6164a479bf6c58fdd51", "bike_id": "feb8e7ee19eba6164a479bf6c58fdd51", "is_disabled": 0, "type": "electric_scooter", "lat": 38.8442875, "lon": -76.9977545, "is_reserved": 0, "fusion_lon": 0.0}, {"rental_uris": {"ios": "https://dc.lft.to/lastmile_qr_scan", "android": "https://dc.lft.to/lastmile_qr_scan"}, "fusion_lat": 0.0, "name": "17a0adc79f26993b6d51a07018e94142", "bike_id": "17a0adc79f26993b6d51a07018e94142", "is_disabled": 0, "type": "electric_scooter", "lat": 38.92443516666667, "lon": -77.04030483333334, "is_reserved": 0, "fusion_lon": 0.0}, {"rental_uris": {"ios": "https://dc.lft.to/lastmile_qr_scan", "android": "https://dc.lft.to/lastmile_qr_scan"}, "fusion_lat": 0.0, "name": "bbb0809050e7c9669da5c8d10a3b722a", "bike_id": "bbb0809050e7c9669da5c8d10a3b722a", "is_disabled": 0, "type": "electric_scooter", "lat": 38.88431666666666, "lon": -76.95756383333334, "is_reserved": 0, "fusion_lon": 0.0}, {"rental_uris": {"ios": "https://dc.lft.to/lastmile_qr_scan", "android": "https://dc.lft.to/lastmile_qr_scan"}, "fusion_lat": 0.0, "name": "08512fedef1e3c8bb69d06b26c4006f8", "bike_id": "08512fedef1e3c8bb69d06b26c4006f8", "is_disabled": 0, "type": "electric_scooter", "lat": 38.89745083333333, "lon": -77.0260225, "is_reserved": 0, "fusion_lon": 0.0}, {"rental_uris": {"ios": "https://dc.lft.to/lastmile_qr_scan", "android": "https://dc.lft.to/lastmile_qr_scan"}, "fusion_lat": 0.0, "name": "9181813bfa614635ca8701914bc3f4b6", "bike_id": "9181813bfa614635ca8701914bc3f4b6", "is_disabled": 0, "type": "electric_scooter", "lat": 38.914166333333334, "lon": -77.040459, "is_reserved": 0, "fusion_lon": 0.0}, {"rental_uris": {"ios": "https://dc.lft.to/lastmile_qr_scan", "android": "https://dc.lft.to/lastmile_qr_scan"}, "fusion_lat": 0.0, "name": "db72fa6bf17a459cb16cdaaaa0795560", "bike_id": "db72fa6bf17a459cb16cdaaaa0795560", "is_disabled": 0, "type": "electric_scooter", "lat": 38.923174, "lon": -77.04202116666667, "is_reserved": 0, "fusion_lon": 0.0}, {"rental_uris": {"ios": "https://dc.lft.to/lastmile_qr_scan", "android": "https://dc.lft.to/lastmile_qr_scan"}, "fusion_lat": 0.0, "name": "539fca3ecbefeaa28621315cf8fb2b5d", "bike_id": "539fca3ecbefeaa28621315cf8fb2b5d", "is_disabled": 0, "type": "electric_bike", "lat": 38.8846925, "lon": -76.995616, "is_reserved": 0, "fusion_lon": 0.0}, {"rental_uris": {"ios": "https://dc.lft.to/lastmile_qr_scan", "android": "https://dc.lft.to/lastmile_qr_scan"}, "fusion_lat": 0.0, "name": "d21b2c26cef04003d2421fc3ad99904d", "bike_id": "d21b2c26cef04003d2421fc3ad99904d", "is_disabled": 0, "type": "electric_scooter", "lat": 38.8954835, "lon": -77.009205, "is_reserved": 0, "fusion_lon": 0.0}, {"rental_uris": {"ios": "https://dc.lft.to/lastmile_qr_scan", "android": "https://dc.lft.to/lastmile_qr_scan"}, "fusion_lat": 0.0, "name": "5a5c91c9e1909a6b74463919018deb49", "bike_id": "5a5c91c9e1909a6b74463919018deb49", "is_disabled": 0, "type": "electric_scooter", "lat": 38.91920533333333, "lon": -77.023907, "is_reserved": 0, "fusion_lon": 0.0},