{"data": {"bikes": [{"name": "082edd35ad40eee64a9c9dee9605fbe9", "fusion_lat": 0.0, "type": "electric_scooter", "lat": 38.895852, "is_reserved": 0, "is_disabled": 0, "fusion_lon": 0.0, "bike_id": "082edd35ad40eee64a9c9dee9605fbe9", "lon": -76.93714966666667, "rental_uris": {"ios": "https://dc.lft.to/lastmile_qr_scan", "android": "https://dc.lft.to/lastmile_qr_scan"}}, {"name": "140f232224133e0f6d03620f263c5a48", "fusion_lat": 0.0, "type": "electric_scooter", "lat": 38.90450533333333, "is_reserved": 0, "is_disabled": 0, "fusion_lon": 0.0, "bike_id": "140f232224133e0f6d03620f263c5a48", "lon": -76.996223, "rental_uris": {"ios": "https://dc.lft.to/lastmile_qr_scan", "android": "https://dc.lft.to/lastmile_qr_scan"}}, {"name": "42e64cae1bb69a5fa1ff7e889123e112", "fusion_lat": 0.0, "type": "electric_scooter", "lat": 38.91822833333333, "is_reserved": 0, "is_disabled": 0, "fusion_lon": 0.0, "bike_id": "42e64cae1bb69a5fa1ff7e889123e112", "lon": -77.012077, "rental_uris": {"ios": "https://dc.lft.to/lastmile_qr_scan", "android": "https://dc.lft.to/lastmile_qr_scan"}}, {"name": "f98bf7573ddf34ae404d404d22ec45c5", "fusion_lat": 0.0, "type": "electric_scooter", "lat": 38.903205666666665, "is_reserved": 0, "is_disabled": 0, "fusion_lon": 0.0, "bike_id": "f98bf7573ddf34ae404d404d22ec45c5", "lon": -77.03483783333333, "rental_uris": {"ios": "https://dc.lft.to/lastmile_qr_scan", "android": "https://dc.lft.to/lastmile_qr_scan"}}, {"name": "70a83d8989b42a931ec27a7ad2662cfc", "fusion_lat": 0.0, "type": "electric_scooter", "lat": 38.90979466666667, "is_reserved": 0, "is_disabled": 0, "fusion_lon": 0.0, "bike_id": "70a83d8989b42a931ec27a7ad2662cfc", "lon": -77.045489, "rental_uris": {"ios": "https://dc.lft.to/lastmile_qr_scan", "android": "https://dc.lft.to/lastmile_qr_scan"}}, {"name": "a335961a886c9ba94e5f245e49839830", "fusion_lat": 0.0, "type": "electric_scooter", "lat": 38.87842216666667, "is_reserved": 0, "is_disabled": 0, "fusion_lon": 0.0, "bike_id": "a335961a886c9ba94e5f245e49839830", "lon": -76.9903625, "rental_uris": {"ios": "https://dc.lft.to/lastmile_qr_scan", "android": "https://dc.lft.to/lastmile_qr_scan"}}, {"name": "27dcb30d4729e3db0054cdf78bc07730", "fusion_lat": 0.0, "type": "electric_scooter", "lat": 38.84298833333333, "is_reserved": 0, "is_disabled": 0, "fusion_lon": 0.0, "bike_id": "27dcb30d4729e3db0054cdf78bc07730", "lon": -76.99945, "rental_uris": {"ios": "https://dc.lft.to/lastmile_qr_scan", "android": "https://dc.lft.to/lastmile_qr_scan"}}, {"name": "e3736636ac5876aad8a141d7368e3cde", "fusion_lat": 0.0, "type": "electric_scooter", "lat": 38.910091333333334, "is_reserved": 0, "is_disabled": 0, "fusion_lon": 0.0, "bike_id": "e3736636ac5876aad8a141d7368e3cde", "lon": -76.99407666666667, "rental_uris": {"ios": "https://dc.lft.to/lastmile_qr_scan", "android": "https://dc.lft.to/lastmile_qr_scan"}}, {"name": "63355e17e746b7ed71dcecf33e1329c6", "fusion_lat": 0.0, "type": "electric_scooter", "lat": 38.906559666666666, "is_reserved": 0, "is_disabled": 0, "fusion_lon": 0.0, "bike_id": "63355e17e746b7ed71dcecf33e1329c6", "lon": -77.00599833333334, "rental_uris": {"ios": "https://dc.lft.to/lastmile_qr_scan", "android": "https://dc.lft.to/lastmile_qr_scan"}}, {"name": "9f8896b0c6b23df60e4d5aca124f7d42", "fusion_lat": 0.0, "type": "electric_scooter", "lat": 38.91213283333333, "is_reserved": 0, "is_disabled": 0, "fusion_lon": 0.0, "bike_id": "9f8896b0c6b23df60e4d5aca124f7d42", "lon": -77.075976, "rental_uris": {"ios": "https://dc.lft.to/lastmile_qr_scan", "android": "https://dc.lft.to/lastmile_qr_scan"}}, {"name": "d5cd8db217801a1cf3fc1d347eb4739c", "fusion_lat": 0.0, "type": "electric_scooter", "lat": 38.93490833333333, "is_reserved": 0, "is_disabled": 0, "fusion_lon": 0.0, "bike_id": "d5cd8db217801a1cf3fc1d347eb4739c", "lon": -77.03284016666667, "rental_uris": {"ios": "https://dc.lft.to/lastmile_qr_scan", "android": "https://dc.lft.to/lastmile_qr_scan"}}, {"name": "affc300a80e2a9e0d3e94f5d3f1520a0", "fusion_lat": 0.0, "type": "electric_scooter", "lat": 38.89866883333333, "is_reserved": 0, "is_disabled": 0, "fusion_lon": 0.0, "bike_id": "affc300a80e2a9e0d3e94f5d3f1520a0", "lon": -77.03176116666667, "rental_uris": {"ios": "https://dc.lft.to/lastmile_qr_scan", "android": "https://dc.lft.to/lastmile_qr_scan"}}, {"name": "050498e43117dbd4eeca55d6982a4a88", "fusion_lat": 0.0, "type": "electric_scooter", "lat": 38.85617966666667, "is_reserved": 0, "is_disabled": 0, "fusion_lon": 0.0, "bike_id": "050498e43117dbd4eeca55d6982a4a88", "lon": -76.98015083333334, "rental_uris": {"ios": "https://dc.lft.to/lastmile_qr_scan", "android": "https://dc.lft.to/lastmile_qr_scan"}}, {"name": "9d35553e78362d919cd419ef9456fdd8", "fusion_lat": 0.0, "type": "electric_scooter", "lat": 38.912728666666666, "is_reserved": 0, "is_disabled": 0, "fusion_lon": 0.0, "bike_id": "9d35553e78362d919cd419ef9456fdd8", "lon": -77.06090383333333, "rental_uris": {"ios": "https://dc.lft.to/lastmile_qr_scan", "android": "https://dc.lft.to/lastmile_qr_scan"}}, {"name": "ca3439876b4106879bbd5f6aa0937051", "fusion_lat": 0.0, "type": "electric_bike", "lat": 38.90693433333333, "is_reserved": 0, "is_disabled": 0, "fusion_lon": 0.0, "bike_id": "ca3439876b4106879bbd5f6aa0937051", "lon": -77.056171, "rental_uris": {"ios": "https://dc.lft.to/lastmile_qr_scan", "android": "https://dc.lft.to/lastmile_qr_scan"}}, {"name": "21e6742f3539f731ecb0cadd08d301f4", "fusion_lat": 0.0, "type": "electric_bike", "lat": 38.94590133333333, "is_reserved": 0, "is_disabled": 0, "fusion_lon": 0.0, "bike_id": "21e6742f3539f731ecb0cadd08d301f4", "lon": -77.00271633333334, "rental_uris": {"ios": "https://dc.lft.to/lastmile_qr_scan", "android": "https://dc.lft.to/lastmile_qr_scan"}}, {"name": "9f5a0eb5f7cbb4d5f3e411bad74130ae", "fusion_lat": 0.0, "type": "electric_scooter", "lat": 38.8745305, "is_reserved": 0, "is_disabled": 0, "fusion_lon": 0.0, "bike_id": "9f5a0eb5f7cbb4d5f3e411bad74130ae", "lon": -77.00754916666666, "rental_uris": {"ios": "https://dc.lft.to/lastmile_qr_scan", "android": "https://dc.lft.to/lastmile_qr_scan"}}, {"name": "251b6fef2b7dbc83469e8350f8af6062", "fusion_lat": 0.0, "type": "electric_scooter", "lat": 38.90032583333333, "is_reserved": 0, "is_disabled": 0, "fusion_lon": 0.0, "bike_id": "251b6fef2b7dbc83469e8350f8af6062", "lon": -76.9987095, "rental_uris": {"ios": "https://dc.lft.to/lastmile_qr_scan", "android": "https://dc.lft.to/lastmile_qr_scan"}}, {"name": "a9331b9bb2fa2150f2004d96c182bcff", "fusion_lat": 0.0, "type": "electric_scooter", "lat": 38.893607, "is_reserved": 0, "is_disabled": 0, "fusion_lon": 0.0, "bike_id": "a9331b9bb2fa2150f2004d96c182bcff", "lon": -77.00330733333334, "rental_uris": {"ios": "https://dc.lft.to/lastmile_qr_scan", "android": "https://dc.lft.to/lastmile_qr_scan"}}, {"name": "3bfdd2a50eafb8f9888f21ee319056c5", "fusion_lat": 0.0, "type": "electric_scooter", "lat": 38.926727, "is_reserved": 0, "is_disabled": 0, "fusion_lon": 0.0, "bike_id": "3bfdd2a50eafb8f9888f21ee319056c5", "lon": -77.03630733333334, "rental_uris": {"ios": "https://dc.lft.to/lastmile_qr_scan", "android": "https://dc.lft.to/lastmile_qr_scan"}}, {"name": "60fdec8f4c43c72e8eb26aac31b3f86f", "fusion_lat": 0.0, "type": "electric_scooter", "lat": 38.90874933333333, "is_reserved": 0, "is_disabled": 0, "fusion_lon": 0.0, "bike_id": "60fdec8f4c43c72e8eb26aac31b3f86f", "lon": -77.0858975, "rental_uris": {"ios": "https://dc.lft.to/lastmile_qr_scan", "android": "https://dc.lft.to/lastmile_qr_scan"}}, {"name": "67367c98fd7694c179d300a41914cab1", "fusion_lat": 0.0, "type": "electric_scooter", "lat": 38.93615366666667, "is_reserved": 0, "is_disabled": 0, "fusion_lon": 0.0, "bike_id": "67367c98fd7694c179d300a41914cab1", "lon": -77.0558195, "rental_uris": {"ios": "https://dc.lft.to/lastmile_qr_scan", "android": "https://dc.lft.to/lastmile_qr_scan"}}, {"name": "788a24f6fa559b2c5031b38dca254a51", "fusion_lat": 0.0, "type": "electric_scooter", "lat": 38.9388945, "is_reserved": 0, "is_disabled": 0, "fusion_lon": 0.0, "bike_id": "788a24f6fa559b2c5031b38dca254a51", "lon": -77.02466666666666, "rental_uris": {"ios": "https://dc.lft.to/lastmile_qr_scan", "android": "https://dc.lft.to/lastmile_qr_scan"}}, {"name": "3abda2b301f6f7b0d94fc57839270a1e", "fusion_lat": 0.0, "type": "electric_scooter", "lat": 38.91752366666667, "is_reserved": 0, "is_disabled": 0, "fusion_lon": 0.0, "bike_id": "3abda2b301f6f7b0d94fc57839270a1e", "lon": -77.03636533333334, "rental_uris": {"ios": "https://dc.lft.to/lastmile_qr_scan", "android": "https://dc.lft.to/lastmile_qr_scan"}}, {"name": "f683ec1134a5830dcf49da6e2d217a3a", "fusion_lat": 0.0, "type": "electric_scooter", "lat": 38.902713, "is_reserved": 0, "is_disabled": 0, "fusion_lon": 0.0, "bike_id": "f683ec1134a5830dcf49da6e2d217a3a", "lon": -77.0174775, "rental_uris": {"ios": "https://dc.lft.to/lastmile_qr_scan", "android": "https://dc.lft.to/lastmile_qr_scan"}}, {"name": "ebb50241e5d1e969d1807ac9fdca65bd", "fusion_lat": 0.0, "type": "electric_scooter", "lat": 38.89639, "is_reserved": 0, "is_disabled": 0, "fusion_lon": 0.0, "bike_id": "ebb50241e5d1e969d1807ac9fdca65bd", "lon": -77.0398995, "rental_uris": {"ios": "https://dc.lft.to/lastmile_qr_scan", "android": "https://dc.lft.to/lastmile_qr_scan"}}, {"name": "d58701f03777b2679475520860d310ea", "fusion_lat": 0.0, "type": "electric_bike", "lat": 39.0305415, "is_reserved": 0, "is_disabled": 0, "fusion_lon": 0.0, "bike_id": "d58701f03777b2679475520860d310ea", "lon": -77.09480216666667, "rental_uris": {"ios": "https://dc.lft.to/lastmile_qr_scan", "android": "https://dc.lft.to/lastmile_qr_scan"}}, {"name": "e9c7cae27ecac104803bda88d60cbedf", "fusion_lat": 0.0, "type": "electric_scooter", "lat": 38.90374633333333, "is_reserved": 0, "is_disabled": 0, "fusion_lon": 0.0, "bike_id": "e9c7cae27ecac104803bda88d60cbedf", "lon": -77.0384975, "rental_uris": {"ios": "https://dc.lft.to/lastmile_qr_scan", "android": "https://dc.lft.to/lastmile_qr_scan"}}, {"name": "f9099afd6ebf0e0f52e9d48188464085", "fusion_lat": 0.0, "type": "electric_scooter", "lat": 38.89216483333333, "is_reserved": 0, "is_disabled": 0, "fusion_lon": 0.0, "bike_id": "f9099afd6ebf0e0f52e9d48188464085", "lon": -77.0214465, "rental_uris": {"ios": "https://dc.lft.to/lastmile_qr_scan", "android": "https://dc.lft.to/lastmile_qr_scan"}}, {"name": "8eaae5c27bf6199aed6a8815978555ce", "fusion_lat": 0.0, "type": "electric_scooter", "lat": 38.909918, "is_reserved": 0, "is_disabled": 0, "fusion_lon": 0.0, "bike_id": "8eaae5c27bf6199aed6a8815978555ce", "lon": -77.02415933333333, "rental_uris": {"ios": "https://dc.lft.to/lastmile_qr_scan", "android": "https://dc.lft.to/lastmile_qr_scan"}}, {"name": "e2d3b15d93d0606a4acfba09da4dd23f", "fusion_lat": 0.0, "type": "electric_scooter", "lat": 38.887483, "is_reserved": 0, "is_disabled": 0, "fusion_lon": 0.0, "bike_id": "e2d3b15d93d0606a4acfba09da4dd23f", "lon": -77.00248316666666, "rental_uris": {"ios": "https://dc.lft.to/lastmile_qr_scan", "android": "https://dc.lft.to/lastmile_qr_scan"}}, {"name": "53df6146ce34652f7e2643a9d286cc11", "fusion_lat": 0.0, "type": "electric_scooter", "lat": 38.892210666666664, "is_reserved": 0, "is_disabled": 0, "fusion_lon": 0.0, "bike_id": "53df6146ce34652f7e2643a9d286cc11", "lon": -77.02651783333333, "rental_uris": {"ios": "https://dc.lft.to/lastmile_qr_scan", "android": "https://dc.lft.to/lastmile_qr_scan"}}, {"name": "7798aeab544c99a570f5287101e9b127", "fusion_lat": 0.0, "type": "electric_scooter", "lat": 38.905733166666664, "is_reserved": 0, "is_disabled": 0, "fusion_lon": 0.0, "bike_id": "7798aeab544c99a570f5287101e9b127", "lon": -77.04480966666667, "rental_uris": {"ios": "https://dc.lft.to/lastmile_qr_scan", "android": "https://dc.lft.to/lastmile_qr_scan"}}, {"name": "0855de7a66ff5058582b74be7f94532c", "fusion_lat": 0.0, "type": "electric_scooter", "lat": 38.8843905, "is_reserved": 0, "is_disabled": 0, "fusion_lon": 0.0, "bike_id": "0855de7a66ff5058582b74be7f94532c", "lon": -76.99589433333334, "rental_uris": {"ios": "https://dc.lft.to/lastmile_qr_scan", "android": "https://dc.lft.to/lastmile_qr_scan"}}, {"name": "58d24def8fde4481bf02a4d5542e2146", "fusion_lat": 0.0, "type": "electric_scooter", "lat": 38.908447833333334, "is_reserved": 0, "is_disabled": 0, "fusion_lon": 0.0, "bike_id": "58d24def8fde4481bf02a4d5542e2146", "lon": -77.000662, "rental_uris": {"ios": "https://dc.lft.to/lastmile_qr_scan", "android": "https://dc.lft.to/lastmile_qr_scan"}}, {"name": "6c5451f6aac61032d7e8ad2b71b8ec72", "fusion_lat": 0.0, "type": "electric_scooter", "lat": 38.920169, "is_reserved": 0, "is_disabled": 0, "fusion_lon": 0.0, "bike_id": "6c5451f6aac61032d7e8ad2b71b8ec72", "lon": -77.03963933333333, "rental_uris": {"ios": "https://dc.lft.to/lastmile_qr_scan", "android": "https://dc.lft.to/lastmile_qr_scan"}}, {"name": "997b4b4e4d3bf95ff67ee5c66eb7214e", "fusion_lat": 0.0, "type": "electric_scooter", "lat": 38.87680916666667, "is_reserved": 0, "is_disabled": 0, "fusion_lon": 0.0, "bike_id": "997b4b4e4d3bf95ff67ee5c66eb7214e", "lon": -77.00072316666666, "rental_uris": {"ios": "https://dc.lft.to/lastmile_qr_scan", "android": "https://dc.lft.to/lastmile_qr_scan"}}, {"name": "6b54036e0e24dee08eec282fba22b59f", "fusion_lat": 0.0, "type": "electric_scooter", "lat": 38.872383166666665, "is_reserved": 0, "is_disabled": 0, "fusion_lon": 0.0, "bike_id": "6b54036e0e24dee08eec282fba22b59f", "lon": -77.01154983333333, "rental_uris": {"ios": "https://dc.lft.to/lastmile_qr_scan", "android": "https://dc.lft.to/lastmile_qr_scan"}}, {"name": "9ae10277e11c81c35426985ab848c1ae", "fusion_lat": 0.0, "type": "electric_scooter", "lat": 38.900666333333334, "is_reserved": 0, "is_disabled": 0, "fusion_lon": 0.0, "bike_id": "9ae10277e11c81c35426985ab848c1ae", "lon": -77.04506566666667, "rental_uris": {"ios": "https://dc.lft.to/lastmile_qr_scan", "android": "https://dc.lft.to/lastmile_qr_scan"}}, {"name": "4f94b436f1fe4da51f3d293d3adcb622", "fusion_lat": 0.0, "type": "electric_scooter", "lat": 38.915785, "is_reserved": 0, "is_disabled": 0, "fusion_lon": 0.0, "bike_id": "4f94b436f1fe4da51f3d293d3adcb622", "lon": -77.04491466666667, "rental_uris": {"ios": "https://dc.lft.to/lastmile_qr_scan", "android": "https://dc.lft.to/lastmile_qr_scan"}}, {"name": "3026779daba953ba85deaf661b5873f3", "fusion_lat": 0.0, "type": "electric_scooter", "lat": 38.904842333333335, "is_reserved": 0, "is_disabled": 0, "fusion_lon": 0.0, "bike_id": "3026779daba953ba85deaf661b5873f3", "lon": -77.038318, "rental_uris": {"ios": "https://dc.lft.to/lastmile_qr_scan", "android": "https://dc.lft.to/lastmile_qr_scan"}}, {"name": "5841486999369684cc7848c2d9f04fae", "fusion_lat": 0.0, "type": "electric_scooter", "lat": 38.88325366666667, "is_reserved": 0, "is_disabled": 0, "fusion_lon": 0.0, "bike_id": "5841486999369684cc7848c2d9f04fae", "lon": -77.017609, "rental_uris": {"ios": "https://dc.lft.to/lastmile_qr_scan", "android": "https://dc.lft.to/lastmile_qr_scan"}}, {"name": "b2fcbf4e5907bc76142783cc3472479e", "fusion_lat": 0.0, "type": "electric_scooter", "lat": 38.8850865, "is_reserved": 0, "is_disabled": 0, "fusion_lon": 0.0, "bike_id": "b2fcbf4e5907bc76142783cc3472479e", "lon": -77.0306675, "rental_uris": {"ios": "https://dc.lft.to/lastmile_qr_scan", "android": "https://dc.lft.to/lastmile_qr_scan"}}, {"name": "cb62983a0125c4346d7db9a6d3ab5b2f", "fusion_lat": 0.0, "type": "electric_scooter", "lat": 38.905237166666666, "is_reserved": 0, "is_disabled": 0, "fusion_lon": 0.0, "bike_id": "cb62983a0125c4346d7db9a6d3ab5b2f", "lon": -77.052226, "rental_uris": {"ios": "https://dc.lft.to/lastmile_qr_scan", "android": "https://dc.lft.to/lastmile_qr_scan"}}, {"name": "b6753c5ad3b93973be5323c7b9fb8801", "fusion_lat": 0.0, "type": "electric_scooter", "lat": 38.9430985, "is_reserved": 0, "is_disabled": 0, "fusion_lon": 0.0, "bike_id": "b6753c5ad3b93973be5323c7b9fb8801", "lon": -77.05927416666667, "rental_uris": {"ios": "https://dc.lft.to/lastmile_qr_scan", "android": "https://dc.lft.to/lastmile_qr_scan"}}, {"name": "7c3a4f2eb62dba759475b865d4b9354e", "fusion_lat": 0.0, "type": "electric_scooter", "lat": 38.908442666666666, "is_reserved": 0, "is_disabled": 0, "fusion_lon": 0.0, "bike_id": "7c3a4f2eb62dba759475b865d4b9354e", "lon": -77.03938466666666, "rental_uris": {"ios": "https://dc.lft.to/lastmile_qr_scan", "android": "https://dc.lft.to/lastmile_qr_scan"}}, {"name": "98e13e91f2259a87d6cbc11c2ece31e6", "fusion_lat": 0.0, "type": "electric_bike", "lat": 39.03884716666666, "is_reserved": 0, "is_disabled": 0, "fusion_lon": 0.0, "bike_id": "98e13e91f2259a87d6cbc11c2ece31e6", "lon": -76.99044883333333, "rental_uris": {"ios": "https://dc.lft.to/lastmile_qr_scan", "android": "https://dc.lft.to/lastmile_qr_scan"}}, {"name": "8027f69a0f5130511897d8891f1a5618", "fusion_lat": 0.0, "type": "electric_scooter", "lat": 38.90129233333333, "is_reserved": 0, "is_disabled": 0, "fusion_lon": 0.0, "bike_id": "8027f69a0f5130511897d8891f1a5618", "lon": -77.04166466666666, "rental_uris": {"ios": "https://dc.lft.to/lastmile_qr_scan", "android": "https://dc.lft.to/lastmile_qr_scan"}}, {"name": "8ba53a56ee1db0cbf019e9539f53576f", "fusion_lat": 0.0, "type": "electric_scooter", "lat": 38.90581366666667, "is_reserved": 0, "is_disabled": 0, "fusion_lon": 0.0, "bike_id": "8ba53a56ee1db0cbf019e9539f53576f", "lon": -77.0314175, "rental_uris": {"ios": "https://dc.lft.to/lastmile_qr_scan", "android": "https://dc.lft.to/lastmile_qr_scan"}}, {"name": "9f9c3392467fc37126560974949b4380", "fusion_lat": 0.0, "type": "electric_scooter", "lat": 38.9100875, "is_reserved": 0, "is_disabled": 0, "fusion_lon": 0.0, "bike_id": "9f9c3392467fc37126560974949b4380", "lon": -77.04424783333333, "rental_uris": {"ios": "https://dc.lft.to/lastmile_qr_scan", "android": "https://dc.lft.to/lastmile_qr_scan"}}, {"name": "b164911aeaeea6e46af4975910638a14", "fusion_lat": 0.0, "type": "electric_scooter", "lat": 38.92374266666667, "is_reserved": 0, "is_disabled": 0, "fusion_lon": 0.0, "bike_id": "b164911aeaeea6e46af4975910638a14", "lon": -77.01908766666666, "rental_uris": {"ios": "https://dc.lft.to/lastmile_qr_scan", "android": "https://dc.lft.to/lastmile_qr_scan"}}, {"name": "b2bb485fd40aacaa657f1e853e0730f6", "fusion_lat": 0.0, "type": "electric_bike", "lat": 39.033477, "is_reserved": 0, "is_disabled": 0, "fusion_lon": 0.0, "bike_id": "b2bb485fd40aacaa657f1e853e0730f6", "lon": -77.04905816666667, "rental_uris": {"ios": "https://dc.lft.to/lastmile_qr_scan", "android": "https://dc.lft.to/lastmile_qr_scan"}}, {"name": "f4191a5ac9363edcd9dd717a2e47cbac", "fusion_lat": 0.0, "type": "electric_scooter", "lat": 38.93308066666667, "is_reserved": 0, "is_disabled": 0, "fusion_lon": 0.0, "bike_id": "f4191a5ac9363edcd9dd717a2e47cbac", "lon": -77.03771116666667, "rental_uris": {"ios": "https://dc.lft.to/lastmile_qr_scan", "android": "https://dc.lft.to/lastmile_qr_scan"}}, {"name": "6482e38dbf5c19e10512afb7bdf1f841", "fusion_lat": 0.0, "type": "electric_scooter", "lat": 38.90629916666666, "is_reserved": 0, "is_disabled": 0, "fusion_lon": 0.0, "bike_id": "6482e38dbf5c19e10512afb7bdf1f841", "lon": -77.05140116666666, "rental_uris": {"ios": "https://dc.lft.to/lastmile_qr_scan", "android": "https://dc.lft.to/lastmile_qr_scan"}}, {"name": "ff481d7eb1ad1cfdd0f71681c1e4973b", "fusion_lat": 0.0, "type": "electric_scooter", "lat": 38.9395665, "is_reserved": 0, "is_disabled": 0, "fusion_lon": 0.0, "bike_id": "ff481d7eb1ad1cfdd0f71681c1e4973b", "lon": -77.07243466666667, "rental_uris": {"ios": "https://dc.lft.to/lastmile_qr_scan", "android": "https://dc.lft.to/lastmile_qr_scan"}}, {"name": "72ccc079797f0c454bb0b5675c1da4ba", "fusion_lat": 0.0, "type": "electric_scooter", "lat": 38.89509016666667, "is_reserved": 0, "is_disabled": 0, "fusion_lon": 0.0, "bike_id": "72ccc079797f0c454bb0b5675c1da4ba", "lon": -77.01099866666667, "rental_uris": {"ios": "https://dc.lft.to/lastmile_qr_scan", "android": "https://dc.lft.to/lastmile_qr_scan"}}, {"name": "6356e454f50d7b6008a53b262abbed51", "fusion_lat": 0.0, "type": "electric_scooter", "lat": 38.936108833333336, "is_reserved": 0, "is_disabled": 0, "fusion_lon": 0.0, "bike_id": "6356e454f50d7b6008a53b262abbed51", "lon": -77.05862583333334, "rental_uris": {"ios": "https://dc.lft.to/lastmile_qr_scan", "android": "https://dc.lft.to/lastmile_qr_scan"}}, {"name": "628dc07b29442b1d1454d739458542ef", "fusion_lat": 0.0, "type": "electric_scooter", "lat": 38.89845016666666, "is_reserved": 0, "is_disabled": 0, "fusion_lon": 0.0, "bike_id": "628dc07b29442b1d1454d739458542ef", "lon": -77.04256, "rental_uris": {"ios": "https://dc.lft.to/lastmile_qr_scan", "android": "https://dc.lft.to/lastmile_qr_scan"}}, {"name": "a1ecc89648f5fad3122a6ddf5ba73def", "fusion_lat": 0.0, "type": "electric_scooter", "lat": 38.96828333333333, "is_reserved": 0, "is_disabled": 0, "fusion_lon": 0.0, "bike_id": "a1ecc89648f5fad3122a6ddf5ba73def", "lon": -77.01785333333333, "rental_uris": {"ios": "https://dc.lft.to/lastmile_qr_scan", "android": "https://dc.lft.to/lastmile_qr_scan"}}, {"name": "b2fa9c3c704e828a47fe53154191aaa9", "fusion_lat": 0.0, "type": "electric_scooter", "lat": 38.89613533333333, "is_reserved": 0, "is_disabled": 0, "fusion_lon": 0.0, "bike_id": "b2fa9c3c704e828a47fe53154191aaa9", "lon": -77.04463216666667, "rental_uris": {"ios": "https://dc.lft.to/lastmile_qr_scan", "android": "https://dc.lft.to/lastmile_qr_scan"}}, {"name": "a26f09aec568162c8162460dd5e865f1", "fusion_lat": 0.0, "type": "electric_scooter", "lat": 38.91410716666667, "is_reserved": 0, "is_disabled": 0, "fusion_lon": 0.0, "bike_id": "a26f09aec568162c8162460dd5e865f1", "lon": -77.00803416666666, "rental_uris": {"ios": "https://dc.lft.to/lastmile_qr_scan", "android": "https://dc.lft.to/lastmile_qr_scan"}}, {"name": "73861d078409c5af50b45f5100286405", "fusion_lat": 0.0, "type": "electric_scooter", "lat": 38.923446, "is_reserved": 0, "is_disabled": 0, "fusion_lon": 0.0, "bike_id": "73861d078409c5af50b45f5100286405", "lon": -77.05093183333334, "rental_uris": {"ios": "https://dc.lft.to/lastmile_qr_scan", "android": "https://dc.lft.to/lastmile_qr_scan"}}, {"name": "4dd28f5385c42419398a8b6a55633969", "fusion_lat": 0.0, "type": "electric_scooter", "lat": 38.93490083333333, "is_reserved": 0, "is_disabled": 0, "fusion_lon": 0.0, "bike_id": "4dd28f5385c42419398a8b6a55633969", "lon": -77.032855, "rental_uris": {"ios": "https://dc.lft.to/lastmile_qr_scan", "android": "https://dc.lft.to/lastmile_qr_scan"}}, {"name": "67cbc59534d480e6eaf3a9e3a105c93d", "fusion_lat": 0.0, "type": "electric_bike", "lat": 38.8616415, "is_reserved": 0, "is_disabled": 0, "fusion_lon": 0.0, "bike_id": "67cbc59534d480e6eaf3a9e3a105c93d", "lon": -77.13093666666667, "rental_uris": {"ios": "https://dc.lft.to/lastmile_qr_scan", "android": "https://dc.lft.to/lastmile_qr_scan"}}, {"name": "b18a60e0406cfa612198bb9d3cae0b9b", "fusion_lat": 0.0, "type": "electric_scooter", "lat": 38.9163765, "is_reserved": 0, "is_disabled": 0, "fusion_lon": 0.0, "bike_id": "b18a60e0406cfa612198bb9d3cae0b9b", "lon": -77.02695183333333, "rental_uris": {"ios": "https://dc.lft.to/lastmile_qr_scan", "android": "https://dc.lft.to/lastmile_qr_scan"}}, {"name": "81810eb095fc1df4b5e1548cc100f49b", "fusion_lat": 0.0, "type": "electric_bike", "lat": 38.96761766666667, "is_reserved": 0, "is_disabled": 0, "fusion_lon": 0.0, "bike_id": "81810eb095fc1df4b5e1548cc100f49b", "lon": -77.09158916666667, "rental_uris": {"ios": "https://dc.lft.to/lastmile_qr_scan", "android": "https://dc.lft.to/lastmile_qr_scan"}}, {"name": "4d434515164253190dc17e1456a5e45d", "fusion_lat": 0.0, "type": "electric_scooter", "lat": 38.89245783333333, "is_reserved": 0, "is_disabled": 0, "fusion_lon": 0.0, "bike_id": "4d434515164253190dc17e1456a5e45d", "lon": -77.017887, "rental_uris": {"ios": "https://dc.lft.to/lastmile_qr_scan", "android": "https://dc.lft.to/lastmile_qr_scan"}}, {"name": "b7382d64b03ddc42e6e7dae638d14627", "fusion_lat": 0.0, "type": "electric_scooter", "lat": 38.902385, "is_reserved": 0, "is_disabled": 0, "fusion_lon": 0.0, "bike_id": "b7382d64b03ddc42e6e7dae638d14627", "lon": -76.97412616666666, "rental_uris": {"ios": "https://dc.lft.to/lastmile_qr_scan", "android": "https://dc.lft.to/lastmile_qr_scan"}}, {"name": "2be989760408afd8bfe07c9f23d72f18", "fusion_lat": 0.0, "type": "electric_scooter", "lat": 38.9258345, "is_reserved": 0, "is_disabled": 0, "fusion_lon": 0.0, "bike_id": "2be989760408afd8bfe07c9f23d72f18", "lon": -77.02844733333333, "rental_uris": {"ios": "https://dc.lft.to/lastmile_qr_scan", "android": "https://dc.lft.to/lastmile_qr_scan"}}, {"name": "f75c6440c698e0b2c171a085ae843394", "fusion_lat": 0.0, "type": "electric_scooter", "lat": 38.880224166666665, "is_reserved": 0, "is_disabled": 0, "fusion_lon": 0.0, "bike_id": "f75c6440c698e0b2c171a085ae843394", "lon": -77.02486633333334, "rental_uris": {"ios": "https://dc.lft.to/lastmile_qr_scan", "android": "https://dc.lft.to/lastmile_qr_scan"}}, {"name": "de8eeff92c81ef9c4f2c7c357b76c8b9", "fusion_lat": 0.0, "type": "electric_scooter", "lat": 38.90669783333333, "is_reserved": 0, "is_disabled": 0, "fusion_lon": 0.0, "bike_id": "de8eeff92c81ef9c4f2c7c357b76c8b9", "lon": -77.03861083333334, "rental_uris": {"ios": "https://dc.lft.to/lastmile_qr_scan", "android": "https://dc.lft.to/lastmile_qr_scan"}}, {"name": "3fa9f852eb4c3f8585c45deebde757e4", "fusion_lat": 0.0, "type": "electric_scooter", "lat": 38.892224, "is_reserved": 0, "is_disabled": 0, "fusion_lon": 0.0, "bike_id": "3fa9f852eb4c3f8585c45deebde757e4", "lon": -77.02621333333333, "rental_uris": {"ios": "https://dc.lft.to/lastmile_qr_scan", "android": "https://dc.lft.to/lastmile_qr_scan"}}, {"name": "ae91f9071e859f54ae6baecc5ab08d0e", "fusion_lat": 0.0, "type": "electric_scooter", "lat": 38.8922015, "is_reserved": 0, "is_disabled": 0, "fusion_lon": 0.0, "bike_id": "ae91f9071e859f54ae6baecc5ab08d0e", "lon": -77.02619183333333, "rental_uris": {"ios": "https://dc.lft.to/lastmile_qr_scan", "android": "https://dc.lft.to/lastmile_qr_scan"}}, {"name": "224f373e3c9203eea4e9720f15eb5c6f", "fusion_lat": 0.0, "type": "electric_scooter", "lat": 38.9242025, "is_reserved": 0, "is_disabled": 0, "fusion_lon": 0.0, "bike_id": "224f373e3c9203eea4e9720f15eb5c6f", "lon": -77.01941833333333, "rental_uris": {"ios": "https://dc.lft.to/lastmile_qr_scan", "android": "https://dc.lft.to/lastmile_qr_scan"}}, {"name": "5b1cbace722df8f9084c8ff8dbce8021", "fusion_lat": 0.0, "type": "electric_scooter", "lat": 38.93617, "is_reserved": 0, "is_disabled": 0, "fusion_lon": 0.0, "bike_id": "5b1cbace722df8f9084c8ff8dbce8021", "lon": -77.03211083333333, "rental_uris": {"ios": "https://dc.lft.to/lastmile_qr_scan", "android": "https://dc.lft.to/lastmile_qr_scan"}}, {"name": "181b56d69d8af2cd305f7e5658c78fe3", "fusion_lat": 0.0, "type": "electric_scooter", "lat": 38.918088166666664, "is_reserved": 0, "is_disabled": 0, "fusion_lon": 0.0, "bike_id": "181b56d69d8af2cd305f7e5658c78fe3", "lon": -77.024305, "rental_uris": {"ios": "https://dc.lft.to/lastmile_qr_scan", "android": "https://dc.lft.to/lastmile_qr_scan"}}, {"name": "4782d6ea87bb88f6fd01216436773d43", "fusion_lat": 0.0, "type": "electric_scooter", "lat": 38.8922825, "is_reserved": 0, "is_disabled": 0, "fusion_lon": 0.0, "bike_id": "4782d6ea87bb88f6fd01216436773d43", "lon": -77.05005833333334, "rental_uris": {"ios": "https://dc.lft.to/lastmile_qr_scan", "android": "https://dc.lft.to/lastmile_qr_scan"}}, {"name": "e5f01d64c9ce010f2a23b5b0b2957814", "fusion_lat": 0.0, "type": "electric_scooter", "lat": 38.92947983333333, "is_reserved": 0, "is_disabled": 0, "fusion_lon": 0.0, "bike_id": "e5f01d64c9ce010f2a23b5b0b2957814", "lon": -76.99744233333334, "rental_uris": {"ios": "https://dc.lft.to/lastmile_qr_scan", "android": "https://dc.lft.to/lastmile_qr_scan"}}, {"name": "841641c18c87b4d6b7ea2c81e764e3a4", "fusion_lat": 0.0, "type": "electric_scooter", "lat": 38.928998166666666, "is_reserved": 0, "is_disabled": 0, "fusion_lon": 0.0, "bike_id": "841641c18c87b4d6b7ea2c81e764e3a4", "lon": -77.0165055, "rental_uris": {"ios": "https://dc.lft.to/lastmile_qr_scan", "android": "https://dc.lft.to/lastmile_qr_scan"}}, {"name": "2615387578ea621a4ef0c2e2e11cb3dc", "fusion_lat": 0.0, "type": "electric_scooter", "lat": 38.8953335, "is_reserved": 0, "is_disabled": 0, "fusion_lon": 0.0, "bike_id": "2615387578ea621a4ef0c2e2e11cb3dc", "lon": -77.024175, "rental_uris": {"ios": "https://dc.lft.to/lastmile_qr_scan", "android": "https://dc.lft.to/lastmile_qr_scan"}}, {"name": "14c3ad9e01f6065625a61484bbb0da40", "fusion_lat": 0.0, "type": "electric_scooter", "lat": 38.883409, "is_reserved": 0, "is_disabled": 0, "fusion_lon": 0.0, "bike_id": "14c3ad9e01f6065625a61484bbb0da40", "lon": -77.01540233333333, "rental_uris": {"ios": "https://dc.lft.to/lastmile_qr_scan", "android": "https://dc.lft.to/lastmile_qr_scan"}}, {"name": "04f32459c453e0dab0c9beb26424c551", "fusion_lat": 0.0, "type": "electric_scooter", "lat": 38.927424333333335, "is_reserved": 0, "is_disabled": 0, "fusion_lon": 0.0, "bike_id": "04f32459c453e0dab0c9beb26424c551", "lon": -77.02490933333333, "rental_uris": {"ios": "https://dc.lft.to/lastmile_qr_scan", "android": "https://dc.lft.to/lastmile_qr_scan"}}, {"name": "1a119c67bd9b39a5bbe3000c7453c4ad", "fusion_lat": 0.0, "type": "electric_scooter", "lat": 38.92879833333333, "is_reserved": 0, "is_disabled": 0, "fusion_lon": 0.0, "bike_id": "1a119c67bd9b39a5bbe3000c7453c4ad", "lon": -77.02707716666667, "rental_uris": {"ios": "https://dc.lft.to/lastmile_qr_scan", "android": "https://dc.lft.to/lastmile_qr_scan"}}, {"name": "436bac89556882ee37ee4fc08248e9ee", "fusion_lat": 0.0, "type": "electric_scooter", "lat": 38.910121, "is_reserved": 0, "is_disabled": 0, "fusion_lon": 0.0, "bike_id": "436bac89556882ee37ee4fc08248e9ee", "lon": -76.99673016666667, "rental_uris": {"ios": "https://dc.lft.to/lastmile_qr_scan", "android": "https://dc.lft.to/lastmile_qr_scan"}}, {"name": "1b9dcad60d1b2119d3cc97da705b6baa", "fusion_lat": 0.0, "type": "electric_scooter", "lat": 38.9064575, "is_reserved": 0, "is_disabled": 0, "fusion_lon": 0.0, "bike_id": "1b9dcad60d1b2119d3cc97da705b6baa", "lon": -77.0434355, "rental_uris": {"ios": "https://dc.lft.to/lastmile_qr_scan", "android": "https://dc.lft.to/lastmile_qr_scan"}}, {"name": "716732e92057ae1d8f73dcce5099895b", "fusion_lat": 0.0, "type": "electric_scooter", "lat": 38.89237516666667, "is_reserved": 0, "is_disabled": 0, "fusion_lon": 0.0, "bike_id": "716732e92057ae1d8f73dcce5099895b", "lon": -77.01273566666667, "rental_uris": {"ios": "https://dc.lft.to/lastmile_qr_scan", "android": "https://dc.lft.to/lastmile_qr_scan"}}, {"name": "a1028806822fcca5633a49d4fc6b2f09", "fusion_lat": 0.0, "type": "electric_scooter", "lat": 38.9000845, "is_reserved": 0, "is_disabled": 0, "fusion_lon": 0.0, "bike_id": "a1028806822fcca5633a49d4fc6b2f09", "lon": -77.04014416666666, "rental_uris": {"ios": "https://dc.lft.to/lastmile_qr_scan", "android": "https://dc.lft.to/lastmile_qr_scan"}}, {"name": "7cbbac6fbe12b9ae52dbef8ef34eaf2f", "fusion_lat": 0.0, "type": "electric_scooter", "lat": 38.920911333333336, "is_reserved": 0, "is_disabled": 0, "fusion_lon": 0.0, "bike_id": "7cbbac6fbe12b9ae52dbef8ef34eaf2f", "lon": -77.039761, "rental_uris": {"ios": "https://dc.lft.to/lastmile_qr_scan", "android": "https://dc.lft.to/lastmile_qr_scan"}}, {"name": "2af15904c9d2c8bfde6c37ddda55fe50", "fusion_lat": 0.0, "type": "electric_scooter", "lat": 38.90128166666667, "is_reserved": 0, "is_disabled": 0, "fusion_lon": 0.0, "bike_id": "2af15904c9d2c8bfde6c37ddda55fe50", "lon": -77.04715966666667, "rental_uris": {"ios": "https://dc.lft.to/lastmile_qr_scan", "android": "https://dc.lft.to/lastmile_qr_scan"}}, {"name": "65810dc34833000bd2c35fa8529b4998", "fusion_lat": 0.0, "type": "electric_scooter", "lat": 38.927434166666664, "is_reserved": 0, "is_disabled": 0, "fusion_lon": 0.0, "bike_id": "65810dc34833000bd2c35fa8529b4998", "lon": -77.02253583333334, "rental_uris": {"ios": "https://dc.lft.to/lastmile_qr_scan", "android": "https://dc.lft.to/lastmile_qr_scan"}}, {"name": "9f92e2909cce4023e1ed89e79f6c6a59", "fusion_lat": 0.0, "type": "electric_scooter", "lat": 38.93913933333333, "is_reserved": 0, "is_disabled": 0, "fusion_lon": 0.0, "bike_id": "9f92e2909cce4023e1ed89e79f6c6a59", "lon": -77.06042366666667, "rental_uris": {"ios": "https://dc.lft.to/lastmile_qr_scan", "android": "https://dc.lft.to/lastmile_qr_scan"}}, {"name": "a8c0870736b0306a24a7e65b7bd65714", "fusion_lat": 0.0, "type": "electric_scooter", "lat": 38.88027016666667, "is_reserved": 0, "is_disabled": 0, "fusion_lon": 0.0, "bike_id": "a8c0870736b0306a24a7e65b7bd65714", "lon": -76.9882945, "rental_uris": {"ios": "https://dc.lft.to/lastmile_qr_scan", "android": "https://dc.lft.to/lastmile_qr_scan"}}, {"name": "eb16b9600d76356bb384111866d27b01", "fusion_lat": 0.0, "type": "electric_scooter", "lat": 38.8997245, "is_reserved": 0, "is_disabled": 0, "fusion_lon": 0.0, "bike_id": "eb16b9600d76356bb384111866d27b01", "lon": -77.0530185, "rental_uris": {"ios": "https://dc.lft.to/lastmile_qr_scan", "android": "https://dc.lft.to/lastmile_qr_scan"}}, {"name": "1e239412f7d19f13ff8713edb9739624", "fusion_lat": 0.0, "type": "electric_bike", "lat": 38.8789305, "is_reserved": 0, "is_disabled": 0, "fusion_lon": 0.0, "bike_id": "1e239412f7d19f13ff8713edb9739624", "lon": -77.02307016666667, "rental_uris": {"ios": "https://dc.lft.to/lastmile_qr_scan", "android": "https://dc.lft.to/lastmile_qr_scan"}}, {"name": "48c38f6794ff64194707c35f909b79bd", "fusion_lat": 0.0, "type": "electric_scooter", "lat": 38.9234625, "is_reserved": 0, "is_disabled": 0, "fusion_lon": 0.0, "bike_id": "48c38f6794ff64194707c35f909b79bd", "lon": -77.019045, "rental_uris": {"ios": "https://dc.lft.to/lastmile_qr_scan", "android": "https://dc.lft.to/lastmile_qr_scan"}}, {"name": "bb07197b900039403e2eca6ec768e146", "fusion_lat": 0.0, "type": "electric_scooter", "lat": 38.896621333333336, "is_reserved": 0, "is_disabled": 0, "fusion_lon": 0.0, "bike_id": "bb07197b900039403e2eca6ec768e146", "lon": -77.0552145, "rental_uris": {"ios": "https://dc.lft.to/lastmile_qr_scan", "android": "https://dc.lft.to/lastmile_qr_scan"}}, {"name": "6007852e25d919f4b305231325db970c", "fusion_lat": 0.0, "type": "electric_scooter", "lat": 38.911819666666666, "is_reserved": 0, "is_disabled": 0, "fusion_lon": 0.0, "bike_id": "6007852e25d919f4b305231325db970c", "lon": -77.069255, "rental_uris": {"ios": "https://dc.lft.to/lastmile_qr_scan", "android": "https://dc.lft.to/lastmile_qr_scan"}}, {"name": "23dfe27db6a922ecbd7ca4240c063a27", "fusion_lat": 0.0, "type": "electric_scooter", "lat": 38.926365833333335, "is_reserved": 0, "is_disabled": 0, "fusion_lon": 0.0, "bike_id": "23dfe27db6a922ecbd7ca4240c063a27", "lon": -77.03504583333333, "rental_uris": {"ios": "https://dc.lft.to/lastmile_qr_scan", "android": "https://dc.lft.to/lastmile_qr_scan"}}, {"name": "05993606a5e0873dedd7d72003d31f28", "fusion_lat": 0.0, "type": "electric_scooter", "lat": 38.9027495, "is_reserved": 0, "is_disabled": 0, "fusion_lon": 0.0, "bike_id": "05993606a5e0873dedd7d72003d31f28", "lon": -77.045798, "rental_uris": {"ios": "https://dc.lft.to/lastmile_qr_scan", "android": "https://dc.lft.to/lastmile_qr_scan"}}, {"name": "15706ed4036cf365d87dbc78232db3da", "fusion_lat": 0.0, "type": "electric_scooter", "lat": 38.91535916666667, "is_reserved": 0, "is_disabled": 0, "fusion_lon": 0.0, "bike_id": "15706ed4036cf365d87dbc78232db3da", "lon": -77.012195, "rental_uris": {"ios": "https://dc.lft.to/lastmile_qr_scan", "android": "https://dc.lft.to/lastmile_qr_scan"}}, {"name": "00bcff28891cc0f5a169b6d6f06de936", "fusion_lat": 0.0, "type": "electric_scooter", "lat": 38.9097165, "is_reserved": 0, "is_disabled": 0, "fusion_lon": 0.0, "bike_id": "00bcff28891cc0f5a169b6d6f06de936", "lon": -77.01119666666666, "rental_uris": {"ios": "https://dc.lft.to/lastmile_qr_scan", "android": "https://dc.lft.to/lastmile_qr_scan"}}, {"name": "2ba4e693db02f2696c1ccf9ba0bbe8fe", "fusion_lat": 0.0, "type": "electric_scooter", "lat": 38.899029, "is_reserved": 0, "is_disabled": 0, "fusion_lon": 0.0, "bike_id": "2ba4e693db02f2696c1ccf9ba0bbe8fe", "lon": -77.03340733333333, "rental_uris": {"ios": "https://dc.lft.to/lastmile_qr_scan", "android": "https://dc.lft.to/lastmile_qr_scan"}}, {"name": "8a6578871c104d6e880bd980117c321a", "fusion_lat": 0.0, "type": "electric_scooter", "lat": 38.920623666666664, "is_reserved": 0, "is_disabled": 0, "fusion_lon": 0.0, "bike_id": "8a6578871c104d6e880bd980117c321a", "lon": -76.97804883333333, "rental_uris": {"ios": "https://dc.lft.to/lastmile_qr_scan", "android": "https://dc.lft.to/lastmile_qr_scan"}}, {"name": "0598579f7d2a23a3411c3ea1e9e4621f", "fusion_lat": 0.0, "type": "electric_scooter", "lat": 38.917185833333335, "is_reserved": 0, "is_disabled": 0, "fusion_lon": 0.0, "bike_id": "0598579f7d2a23a3411c3ea1e9e4621f", "lon": -77.00815733333333, "rental_uris": {"ios": "https://dc.lft.to/lastmile_qr_scan", "android": "https://dc.lft.to/lastmile_qr_scan"}}, {"name": "2bb59346b05b16107b33a07933866690", "fusion_lat": 0.0, "type": "electric_scooter", "lat": 38.9001615, "is_reserved": 0, "is_disabled": 0, "fusion_lon": 0.0, "bike_id": "2bb59346b05b16107b33a07933866690", "lon": -77.0318465, "rental_uris": {"ios": "https://dc.lft.to/lastmile_qr_scan", "android": "https://dc.lft.to/lastmile_qr_scan"}}, {"name": "6e981755f8bdcc70f7c63007923d1181", "fusion_lat": 0.0, "type": "electric_scooter", "lat": 38.865406666666665, "is_reserved": 0, "is_disabled": 0, "fusion_lon": 0.0, "bike_id": "6e981755f8bdcc70f7c63007923d1181", "lon": -76.98702983333334, "rental_uris": {"ios": "https://dc.lft.to/lastmile_qr_scan", "android": "https://dc.lft.to/lastmile_qr_scan"}}, {"name": "7b5bc58565cb4406daeba2a942e49f8a", "fusion_lat": 0.0, "type": "electric_scooter", "lat": 38.8834205, "is_reserved": 0, "is_disabled": 0, "fusion_lon": 0.0, "bike_id": "7b5bc58565cb4406daeba2a942e49f8a", "lon": -77.01537133333333, "rental_uris": {"ios": "https://dc.lft.to/lastmile_qr_scan", "android": "https://dc.lft.to/lastmile_qr_scan"}}, {"name": "e9b334e22b8e12d3210934b3676635a8", "fusion_lat": 0.0, "type": "electric_scooter", "lat": 38.902396833333334, "is_reserved": 0, "is_disabled": 0, "fusion_lon": 0.0, "bike_id": "e9b334e22b8e12d3210934b3676635a8", "lon": -77.04357916666666, "rental_uris": {"ios": "https://dc.lft.to/lastmile_qr_scan", "android": "https://dc.lft.to/lastmile_qr_scan"}}, {"name": "5fbed581bd0e7d532089b8815affe7c8", "fusion_lat": 0.0, "type": "electric_scooter", "lat": 38.92748683333333, "is_reserved": 0, "is_disabled": 0, "fusion_lon": 0.0, "bike_id": "5fbed581bd0e7d532089b8815affe7c8", "lon": -77.02482466666666, "rental_uris": {"ios": "https://dc.lft.to/lastmile_qr_scan", "android": "https://dc.lft.to/lastmile_qr_scan"}}, {"name": "2cdeb71e2cd9ec16a93533e58941bda7", "fusion_lat": 0.0, "type": "electric_scooter", "lat": 38.90268066666667, "is_reserved": 0, "is_disabled": 0, "fusion_lon": 0.0, "bike_id": "2cdeb71e2cd9ec16a93533e58941bda7", "lon": -77.0531315, "rental_uris": {"ios": "https://dc.lft.to/lastmile_qr_scan", "android": "https://dc.lft.to/lastmile_qr_scan"}}, {"name": "544897036ff4a4f0392dd43075ed81b4", "fusion_lat": 0.0, "type": "electric_scooter", "lat": 38.92093166666667, "is_reserved": 0, "is_disabled": 0, "fusion_lon": 0.0, "bike_id": "544897036ff4a4f0392dd43075ed81b4", "lon": -77.025015, "rental_uris": {"ios": "https://dc.lft.to/lastmile_qr_scan", "android": "https://dc.lft.to/lastmile_qr_scan"}}, {"name": "05f1f5dda369ce55bc4bdea259d11eb9", "fusion_lat": 0.0, "type": "electric_scooter", "lat": 38.9450475, "is_reserved": 0, "is_disabled": 0, "fusion_lon": 0.0, "bike_id": "05f1f5dda369ce55bc4bdea259d11eb9", "lon": -77.03149916666666, "rental_uris": {"ios": "https://dc.lft.to/lastmile_qr_scan", "android": "https://dc.lft.to/lastmile_qr_scan"}}, {"name": "4174770fe2d2e46e233fe7a61ef5f02e", "fusion_lat": 0.0, "type": "electric_scooter", "lat": 38.9007955, "is_reserved": 0, "is_disabled": 0, "fusion_lon": 0.0, "bike_id": "4174770fe2d2e46e233fe7a61ef5f02e", "lon": -77.04882066666667, "rental_uris": {"ios": "https://dc.lft.to/lastmile_qr_scan", "android": "https://dc.lft.to/lastmile_qr_scan"}}, {"name": "b156682e84e5b0da6507e7ac4fd0abb7", "fusion_lat": 0.0, "type": "electric_scooter", "lat": 38.90570966666667, "is_reserved": 0, "is_disabled": 0, "fusion_lon": 0.0, "bike_id": "b156682e84e5b0da6507e7ac4fd0abb7", "lon": -77.02763, "rental_uris": {"ios": "https://dc.lft.to/lastmile_qr_scan", "android": "https://dc.lft.to/lastmile_qr_scan"}}, {"name": "714ca22292475de221f30284afadb55a", "fusion_lat": 0.0, "type": "electric_bike", "lat": 39.1056585, "is_reserved": 0, "is_disabled": 0, "fusion_lon": 0.0, "bike_id": "714ca22292475de221f30284afadb55a", "lon": -77.15269383333333, "rental_uris": {"ios": "https://dc.lft.to/lastmile_qr_scan", "android": "https://dc.lft.to/lastmile_qr_scan"}}, {"name": "727c397c3b206d3dc1b2af9cb6f06616", "fusion_lat": 0.0, "type": "electric_scooter", "lat": 38.87649866666667, "is_reserved": 0, "is_disabled": 0, "fusion_lon": 0.0, "bike_id": "727c397c3b206d3dc1b2af9cb6f06616", "lon": -76.965066, "rental_uris": {"ios": "https://dc.lft.to/lastmile_qr_scan", "android": "https://dc.lft.to/lastmile_qr_scan"}}, {"name": "5306cbd40218177dbde4666882a45175", "fusion_lat": 0.0, "type": "electric_scooter", "lat": 38.92368066666667, "is_reserved": 0, "is_disabled": 0, "fusion_lon": 0.0, "bike_id": "5306cbd40218177dbde4666882a45175", "lon": -77.05026083333334, "rental_uris": {"ios": "https://dc.lft.to/lastmile_qr_scan", "android": "https://dc.lft.to/lastmile_qr_scan"}}, {"name": "3e3dc4b7ff10e15dc30afb72506e8732", "fusion_lat": 0.0, "type": "electric_scooter", "lat": 38.895631333333334, "is_reserved": 0, "is_disabled": 0, "fusion_lon": 0.0, "bike_id": "3e3dc4b7ff10e15dc30afb72506e8732", "lon": -77.04660216666667, "rental_uris": {"ios": "https://dc.lft.to/lastmile_qr_scan", "android": "https://dc.lft.to/lastmile_qr_scan"}}, {"name": "c0a78d0f416baf4bb3482ff9521be59f", "fusion_lat": 0.0, "type": "electric_bike", "lat": 38.88684966666667, "is_reserved": 0, "is_disabled": 0, "fusion_lon": 0.0, "bike_id": "c0a78d0f416baf4bb3482ff9521be59f", "lon": -77.16241866666667, "rental_uris": {"ios": "https://dc.lft.to/lastmile_qr_scan", "android": "https://dc.lft.to/lastmile_qr_scan"}}, {"name": "12c1e248208d2568d3550655861b57ca", "fusion_lat": 0.0, "type": "electric_scooter", "lat": 38.911966, "is_reserved": 0, "is_disabled": 0, "fusion_lon": 0.0, "bike_id": "12c1e248208d2568d3550655861b57ca", "lon": -77.04499866666667, "rental_uris": {"ios": "https://dc.lft.to/lastmile_qr_scan", "android": "https://dc.lft.to/lastmile_qr_scan"}}, {"name": "c8455a44f9a1df28f6545788e0f865f2", "fusion_lat": 0.0, "type": "electric_scooter", "lat": 38.90967416666667, "is_reserved": 0, "is_disabled": 0, "fusion_lon": 0.0, "bike_id": "c8455a44f9a1df28f6545788e0f865f2", "lon": -77.03660216666667, "rental_uris": {"ios": "https://dc.lft.to/lastmile_qr_scan", "android": "https://dc.lft.to/lastmile_qr_scan"}}, {"name": "946a378131352afd09003ab83bc4f7ef", "fusion_lat": 0.0, "type": "electric_scooter", "lat": 38.900924333333336, "is_reserved": 0, "is_disabled": 0, "fusion_lon": 0.0, "bike_id": "946a378131352afd09003ab83bc4f7ef", "lon": -77.03225933333333, "rental_uris": {"ios": "https://dc.lft.to/lastmile_qr_scan", "android": "https://dc.lft.to/lastmile_qr_scan"}}, {"name": "19708672b1fe59fc6ed2c2e51a1c4285", "fusion_lat": 0.0, "type": "electric_scooter", "lat": 38.900556, "is_reserved": 0, "is_disabled": 0, "fusion_lon": 0.0, "bike_id": "19708672b1fe59fc6ed2c2e51a1c4285", "lon": -77.04492316666666, "rental_uris": {"ios": "https://dc.lft.to/lastmile_qr_scan", "android": "https://dc.lft.to/lastmile_qr_scan"}}, {"name": "5be100dcd9af79344c9672fac0b700bb", "fusion_lat": 0.0, "type": "electric_scooter", "lat": 38.89204483333333, "is_reserved": 0, "is_disabled": 0, "fusion_lon": 0.0, "bike_id": "5be100dcd9af79344c9672fac0b700bb", "lon": -77.00290933333333, "rental_uris": {"ios": "https://dc.lft.to/lastmile_qr_scan", "android": "https://dc.lft.to/lastmile_qr_scan"}}, {"name": "ecb83965c363c4b8e330a20aa1d7e9c8", "fusion_lat": 0.0, "type": "electric_scooter", "lat": 38.898712333333336, "is_reserved": 0, "is_disabled": 0, "fusion_lon": 0.0, "bike_id": "ecb83965c363c4b8e330a20aa1d7e9c8", "lon": -77.031897, "rental_uris": {"ios": "https://dc.lft.to/lastmile_qr_scan", "android": "https://dc.lft.to/lastmile_qr_scan"}}, {"name": "8a7777f6f27b95575957bca80ca369eb", "fusion_lat": 0.0, "type": "electric_scooter", "lat": 38.9036885, "is_reserved": 0, "is_disabled": 0, "fusion_lon": 0.0, "bike_id": "8a7777f6f27b95575957bca80ca369eb", "lon": -77.03369383333333, "rental_uris": {"ios": "https://dc.lft.to/lastmile_qr_scan", "android": "https://dc.lft.to/lastmile_qr_scan"}}, {"name": "da81626ece8d38a342ef712fa1846811", "fusion_lat": 0.0, "type": "electric_scooter", "lat": 38.87434183333333, "is_reserved": 0, "is_disabled": 0, "fusion_lon": 0.0, "bike_id": "da81626ece8d38a342ef712fa1846811", "lon": -77.020662, "rental_uris": {"ios": "https://dc.lft.to/lastmile_qr_scan", "android": "https://dc.lft.to/lastmile_qr_scan"}}, {"name": "2277d6134138d16ccbc42f7a5f1a9c3c", "fusion_lat": 0.0, "type": "electric_bike", "lat": 38.969036833333334, "is_reserved": 0, "is_disabled": 0, "fusion_lon": 0.0, "bike_id": "2277d6134138d16ccbc42f7a5f1a9c3c", "lon": -76.95789216666667, "rental_uris": {"ios": "https://dc.lft.to/lastmile_qr_scan", "android": "https://dc.lft.to/lastmile_qr_scan"}}, {"name": "c9fcc7e99bfaf2455a45c5f4732b80ce", "fusion_lat": 0.0, "type": "electric_scooter", "lat": 38.891028166666665, "is_reserved": 0, "is_disabled": 0, "fusion_lon": 0.0, "bike_id": "c9fcc7e99bfaf2455a45c5f4732b80ce", "lon": -76.98201866666666, "rental_uris": {"ios": "https://dc.lft.to/lastmile_qr_scan", "android": "https://dc.lft.to/lastmile_qr_scan"}}, {"name": "2ffda12345ba661bf8c92752c82c8e54", "fusion_lat": 0.0, "type": "electric_scooter", "lat": 38.8845265, "is_reserved": 0, "is_disabled": 0, "fusion_lon": 0.0, "bike_id": "2ffda12345ba661bf8c92752c82c8e54", "lon": -77.02615066666667, "rental_uris": {"ios": "https://dc.lft.to/lastmile_qr_scan", "android": "https://dc.lft.to/lastmile_qr_scan"}}, {"name": "834458f92330aefd381fd9182da5638b", "fusion_lat": 0.0, "type": "electric_scooter", "lat": 38.91266316666667, "is_reserved": 0, "is_disabled": 0, "fusion_lon": 0.0, "bike_id": "834458f92330aefd381fd9182da5638b", "lon": -77.03140816666667, "rental_uris": {"ios": "https://dc.lft.to/lastmile_qr_scan", "android": "https://dc.lft.to/lastmile_qr_scan"}}, {"name": "b6a427c3e12aa3db2a0cae8b61cbcbfd", "fusion_lat": 0.0, "type": "electric_scooter", "lat": 38.898512, "is_reserved": 0, "is_disabled": 0, "fusion_lon": 0.0, "bike_id": "b6a427c3e12aa3db2a0cae8b61cbcbfd", "lon": -77.0395645, "rental_uris": {"ios": "https://dc.lft.to/lastmile_qr_scan", "android": "https://dc.lft.to/lastmile_qr_scan"}}, {"name": "109484023f652851d5eb49ed4bd7f6d5", "fusion_lat": 0.0, "type": "electric_scooter", "lat": 38.900018333333335, "is_reserved": 0, "is_disabled": 0, "fusion_lon": 0.0, "bike_id": "109484023f652851d5eb49ed4bd7f6d5", "lon": -76.98556816666667, "rental_uris": {"ios": "https://dc.lft.to/lastmile_qr_scan", "android": "https://dc.lft.to/lastmile_qr_scan"}}, {"name": "e74509a04983c45802a9332f477e734b", "fusion_lat": 0.0, "type": "electric_scooter", "lat": 38.9119405, "is_reserved": 0, "is_disabled": 0, "fusion_lon": 0.0, "bike_id": "e74509a04983c45802a9332f477e734b", "lon": -77.03863166666666, "rental_uris": {"ios": "https://dc.lft.to/lastmile_qr_scan", "android": "https://dc.lft.to/lastmile_qr_scan"}}, {"name": "ade424ebf118502090c29d4ef147e2d9", "fusion_lat": 0.0, "type": "electric_bike", "lat": 38.89683866666667, "is_reserved": 0, "is_disabled": 0, "fusion_lon": 0.0, "bike_id": "ade424ebf118502090c29d4ef147e2d9", "lon": -77.0502625, "rental_uris": {"ios": "https://dc.lft.to/lastmile_qr_scan", "android": "https://dc.lft.to/lastmile_qr_scan"}}, {"name": "cb8b2d79fd9ddf88c8c43f5dcd64452d", "fusion_lat": 0.0, "type": "electric_scooter", "lat": 38.91421583333333, "is_reserved": 0, "is_disabled": 0, "fusion_lon": 0.0, "bike_id": "cb8b2d79fd9ddf88c8c43f5dcd64452d", "lon": -77.0390245, "rental_uris": {"ios": "https://dc.lft.to/lastmile_qr_scan", "android": "https://dc.lft.to/lastmile_qr_scan"}}, {"name": "0b4e0c752e23d1bd05c6e1831199f373", "fusion_lat": 0.0, "type": "electric_bike", "lat": 38.888297333333334, "is_reserved": 0, "is_disabled": 0, "fusion_lon": 0.0, "bike_id": "0b4e0c752e23d1bd05c6e1831199f373", "lon": -77.049383, "rental_uris": {"ios": "https://dc.lft.to/lastmile_qr_scan", "android": "https://dc.lft.to/lastmile_qr_scan"}}, {"name": "0fe05fd8f295fe3d7f3c2a3ed9244d89", "fusion_lat": 0.0, "type": "electric_scooter", "lat": 38.91770283333334, "is_reserved": 0, "is_disabled": 0, "fusion_lon": 0.0, "bike_id": "0fe05fd8f295fe3d7f3c2a3ed9244d89", "lon": -77.02711766666667, "rental_uris": {"ios": "https://dc.lft.to/lastmile_qr_scan", "android": "https://dc.lft.to/lastmile_qr_scan"}}, {"name": "780e8618b7071cc9c8237c611af694c6", "fusion_lat": 0.0, "type": "electric_scooter", "lat": 38.9067535, "is_reserved": 0, "is_disabled": 0, "fusion_lon": 0.0, "bike_id": "780e8618b7071cc9c8237c611af694c6", "lon": -77.038601, "rental_uris": {"ios": "https://dc.lft.to/lastmile_qr_scan", "android": "https://dc.lft.to/lastmile_qr_scan"}}, {"name": "f6158d1d06b7df877ddd5f8bb27412a1", "fusion_lat": 0.0, "type": "electric_scooter", "lat": 38.8960595, "is_reserved": 0, "is_disabled": 0, "fusion_lon": 0.0, "bike_id": "f6158d1d06b7df877ddd5f8bb27412a1", "lon": -77.01113683333334, "rental_uris": {"ios": "https://dc.lft.to/lastmile_qr_scan", "android": "https://dc.lft.to/lastmile_qr_scan"}}, {"name": "3c74199dc1d75ae149a225ae93fc5f6b", "fusion_lat": 0.0, "type": "electric_scooter", "lat": 38.90279683333333, "is_reserved": 0, "is_disabled": 0, "fusion_lon": 0.0, "bike_id": "3c74199dc1d75ae149a225ae93fc5f6b", "lon": -77.018816, "rental_uris": {"ios": "https://dc.lft.to/lastmile_qr_scan", "android": "https://dc.lft.to/lastmile_qr_scan"}}, {"name": "20bf2f5d7e0e48c0cd777b49aab95991", "fusion_lat": 0.0, "type": "electric_scooter", "lat": 38.92650416666667, "is_reserved": 0, "is_disabled": 0, "fusion_lon": 0.0, "bike_id": "20bf2f5d7e0e48c0cd777b49aab95991", "lon": -77.03465283333334, "rental_uris": {"ios": "https://dc.lft.to/lastmile_qr_scan", "android": "https://dc.lft.to/lastmile_qr_scan"}}, {"name": "5ceb4f49d6a06875da1282aaa8d8e9a0", "fusion_lat": 0.0, "type": "electric_scooter", "lat": 38.92257733333334, "is_reserved": 0, "is_disabled": 0, "fusion_lon": 0.0, "bike_id": "5ceb4f49d6a06875da1282aaa8d8e9a0", "lon": -77.034786, "rental_uris": {"ios": "https://dc.lft.to/lastmile_qr_scan", "android": "https://dc.lft.to/lastmile_qr_scan"}}, {"name": "c7239c80758dc534bda6c0b14da1b412", "fusion_lat": 0.0, "type": "electric_scooter", "lat": 38.902151333333336, "is_reserved": 0, "is_disabled": 0, "fusion_lon": 0.0, "bike_id": "c7239c80758dc534bda6c0b14da1b412", "lon": -77.02244316666666, "rental_uris": {"ios": "https://dc.lft.to/lastmile_qr_scan", "android": "https://dc.lft.to/lastmile_qr_scan"}}, {"name": "e10d9254b4b4bf4808cdefa3dcf39697", "fusion_lat": 0.0, "type": "electric_scooter", "lat": 38.92976783333334, "is_reserved": 0, "is_disabled": 0, "fusion_lon": 0.0, "bike_id": "e10d9254b4b4bf4808cdefa3dcf39697", "lon": -77.00530866666666, "rental_uris": {"ios": "https://dc.lft.to/lastmile_qr_scan", "android": "https://dc.lft.to/lastmile_qr_scan"}}, {"name": "35bf1060a9c7b6ff5a00bb19bacc80c2", "fusion_lat": 0.0, "type": "electric_scooter", "lat": 38.898975166666666, "is_reserved": 0, "is_disabled": 0, "fusion_lon": 0.0, "bike_id": "35bf1060a9c7b6ff5a00bb19bacc80c2", "lon": -76.93293283333334, "rental_uris": {"ios": "https://dc.lft.to/lastmile_qr_scan", "android": "https://dc.lft.to/lastmile_qr_scan"}}, {"name": "9edfd14554c897983fc24ee7e28ddff2", "fusion_lat": 0.0, "type": "electric_scooter", "lat": 38.90124, "is_reserved": 0, "is_disabled": 0, "fusion_lon": 0.0, "bike_id": "9edfd14554c897983fc24ee7e28ddff2", "lon": -77.04990733333334, "rental_uris": {"ios": "https://dc.lft.to/lastmile_qr_scan", "android": "https://dc.lft.to/lastmile_qr_scan"}}, {"name": "d8d190defdb4ca8e26c997a29e727296", "fusion_lat": 0.0, "type": "electric_scooter", "lat": 38.89020633333333, "is_reserved": 0, "is_disabled": 0, "fusion_lon": 0.0, "bike_id": "d8d190defdb4ca8e26c997a29e727296", "lon": -76.93717216666667, "rental_uris": {"ios": "https://dc.lft.to/lastmile_qr_scan", "android": "https://dc.lft.to/lastmile_qr_scan"}}, {"name": "a9458d7bc1ccd73266e42f5af1bdaaa5", "fusion_lat": 0.0, "type": "electric_scooter", "lat": 38.91421416666667, "is_reserved": 0, "is_disabled": 0, "fusion_lon": 0.0, "bike_id": "a9458d7bc1ccd73266e42f5af1bdaaa5", "lon": -77.0415625, "rental_uris": {"ios": "https://dc.lft.to/lastmile_qr_scan", "android": "https://dc.lft.to/lastmile_qr_scan"}}, {"name": "5037de79b2ada712b5d5f7806c76bdd8", "fusion_lat": 0.0, "type": "electric_scooter", "lat": 38.91082333333333, "is_reserved": 0, "is_disabled": 0, "fusion_lon": 0.0, "bike_id": "5037de79b2ada712b5d5f7806c76bdd8", "lon": -77.0447615, "rental_uris": {"ios": "https://dc.lft.to/lastmile_qr_scan", "android": "https://dc.lft.to/lastmile_qr_scan"}}, {"name": "4866b848e739de9c465e030a64688f71", "fusion_lat": 0.0, "type": "electric_scooter", "lat": 38.9038575, "is_reserved": 0, "is_disabled": 0, "fusion_lon": 0.0, "bike_id": "4866b848e739de9c465e030a64688f71", "lon": -77.0448655, "rental_uris": {"ios": "https://dc.lft.to/lastmile_qr_scan", "android": "https://dc.lft.to/lastmile_qr_scan"}}, {"name": "aaff88c815816ab2c86372f0c2c4fab8", "fusion_lat": 0.0, "type": "electric_scooter", "lat": 38.9176745, "is_reserved": 0, "is_disabled": 0, "fusion_lon": 0.0, "bike_id": "aaff88c815816ab2c86372f0c2c4fab8", "lon": -77.02711683333334, "rental_uris": {"ios": "https://dc.lft.to/lastmile_qr_scan", "android": "https://dc.lft.to/lastmile_qr_scan"}}, {"name": "686fc86d292ee5c40a09506d18478cc0", "fusion_lat": 0.0, "type": "electric_scooter", "lat": 38.90683883333333, "is_reserved": 0, "is_disabled": 0, "fusion_lon": 0.0, "bike_id": "686fc86d292ee5c40a09506d18478cc0", "lon": -77.02693966666666, "rental_uris": {"ios": "https://dc.lft.to/lastmile_qr_scan", "android": "https://dc.lft.to/lastmile_qr_scan"}}, {"name": "41c52f5cb93c07ba533b9fb0ac450c32", "fusion_lat": 0.0, "type": "electric_scooter", "lat": 38.9096545, "is_reserved": 0, "is_disabled": 0, "fusion_lon": 0.0, "bike_id": "41c52f5cb93c07ba533b9fb0ac450c32", "lon": -77.03861616666667, "rental_uris": {"ios": "https://dc.lft.to/lastmile_qr_scan", "android": "https://dc.lft.to/lastmile_qr_scan"}}, {"name": "7c8ec9ba4d302c65a322ad02e91f399d", "fusion_lat": 0.0, "type": "electric_bike", "lat": 38.886417, "is_reserved": 0, "is_disabled": 0, "fusion_lon": 0.0, "bike_id": "7c8ec9ba4d302c65a322ad02e91f399d", "lon": -76.95467183333334, "rental_uris": {"ios": "https://dc.lft.to/lastmile_qr_scan", "android": "https://dc.lft.to/lastmile_qr_scan"}}, {"name": "d97305328a4823fd48e992dd45a6eb39", "fusion_lat": 0.0, "type": "electric_scooter", "lat": 38.92382883333333, "is_reserved": 0, "is_disabled": 0, "fusion_lon": 0.0, "bike_id": "d97305328a4823fd48e992dd45a6eb39", "lon": -77.0295375, "rental_uris": {"ios": "https://dc.lft.to/lastmile_qr_scan", "android": "https://dc.lft.to/lastmile_qr_scan"}}, {"name": "bcff46e612ba25122936c170cc8c902d", "fusion_lat": 0.0, "type": "electric_bike", "lat": 38.8983775, "is_reserved": 0, "is_disabled": 0, "fusion_lon": 0.0, "bike_id": "bcff46e612ba25122936c170cc8c902d", "lon": -77.118005, "rental_uris": {"ios": "https://dc.lft.to/lastmile_qr_scan", "android": "https://dc.lft.to/lastmile_qr_scan"}}, {"name": "6a9135643f0f4c39f2702137c4d99179", "fusion_lat": 0.0, "type": "electric_bike", "lat": 38.896831, "is_reserved": 0, "is_disabled": 0, "fusion_lon": 0.0, "bike_id": "6a9135643f0f4c39f2702137c4d99179", "lon": -76.9406365, "rental_uris": {"ios": "https://dc.lft.to/lastmile_qr_scan", "android": "https://dc.lft.to/lastmile_qr_scan"}}, {"name": "21d1abdeee5dc212b538fbf57305529e", "fusion_lat": 0.0, "type": "electric_scooter", "lat": 38.86704266666667, "is_reserved": 0, "is_disabled": 0, "fusion_lon": 0.0, "bike_id": "21d1abdeee5dc212b538fbf57305529e", "lon": -76.987113, "rental_uris": {"ios": "https://dc.lft.to/lastmile_qr_scan", "android": "https://dc.lft.to/lastmile_qr_scan"}}, {"name": "d5be4ad71f424c2bf48309eb77c44834", "fusion_lat": 0.0, "type": "electric_scooter", "lat": 38.912794, "is_reserved": 0, "is_disabled": 0, "fusion_lon": 0.0, "bike_id": "d5be4ad71f424c2bf48309eb77c44834", "lon": -77.045041, "rental_uris": {"ios": "https://dc.lft.to/lastmile_qr_scan", "android": "https://dc.lft.to/lastmile_qr_scan"}}, {"name": "e6103520d5bce789de6b4633c12ad2f2", "fusion_lat": 0.0, "type": "electric_scooter", "lat": 38.933623833333336, "is_reserved": 0, "is_disabled": 0, "fusion_lon": 0.0, "bike_id": "e6103520d5bce789de6b4633c12ad2f2", "lon": -77.05728966666666, "rental_uris": {"ios": "https://dc.lft.to/lastmile_qr_scan", "android": "https://dc.lft.to/lastmile_qr_scan"}}, {"name": "90a796de7e6f6fcd1567bb91e54381d0", "fusion_lat": 0.0, "type": "electric_scooter", "lat": 38.90025283333333, "is_reserved": 0, "is_disabled": 0, "fusion_lon": 0.0, "bike_id": "90a796de7e6f6fcd1567bb91e54381d0", "lon": -76.99868716666667, "rental_uris": {"ios": "https://dc.lft.to/lastmile_qr_scan", "android": "https://dc.lft.to/lastmile_qr_scan"}}, {"name": "929e380879276fe0962a12cf23d666ea", "fusion_lat": 0.0, "type": "electric_scooter", "lat": 38.91120016666667, "is_reserved": 0, "is_disabled": 0, "fusion_lon": 0.0, "bike_id": "929e380879276fe0962a12cf23d666ea", "lon": -77.0347315, "rental_uris": {"ios": "https://dc.lft.to/lastmile_qr_scan", "android": "https://dc.lft.to/lastmile_qr_scan"}}, {"name": "8e168c6c1edad7cb15e413391c60d965", "fusion_lat": 0.0, "type": "electric_scooter", "lat": 38.92424916666667, "is_reserved": 0, "is_disabled": 0, "fusion_lon": 0.0, "bike_id": "8e168c6c1edad7cb15e413391c60d965", "lon": -77.01943533333333, "rental_uris": {"ios": "https://dc.lft.to/lastmile_qr_scan", "android": "https://dc.lft.to/lastmile_qr_scan"}}, {"name": "4cbb70e689fec59c858f03d9f096a32b", "fusion_lat": 0.0, "type": "electric_scooter", "lat": 38.9287875, "is_reserved": 0, "is_disabled": 0, "fusion_lon": 0.0, "bike_id": "4cbb70e689fec59c858f03d9f096a32b", "lon": -77.04126133333334, "rental_uris": {"ios": "https://dc.lft.to/lastmile_qr_scan", "android": "https://dc.lft.to/lastmile_qr_scan"}}, {"name": "72817017e2f4351d00ed72014e7203a0", "fusion_lat": 0.0, "type": "electric_scooter", "lat": 38.91488916666667, "is_reserved": 0, "is_disabled": 0, "fusion_lon": 0.0, "bike_id": "72817017e2f4351d00ed72014e7203a0", "lon": -77.009758, "rental_uris": {"ios": "https://dc.lft.to/lastmile_qr_scan", "android": "https://dc.lft.to/lastmile_qr_scan"}}, {"name": "a8ccfa975562d5b491496f13edfde357", "fusion_lat": 0.0, "type": "electric_scooter", "lat": 38.93369166666667, "is_reserved": 0, "is_disabled": 0, "fusion_lon": 0.0, "bike_id": "a8ccfa975562d5b491496f13edfde357", "lon": -77.0572315, "rental_uris": {"ios": "https://dc.lft.to/lastmile_qr_scan", "android": "https://dc.lft.to/lastmile_qr_scan"}}, {"name": "bc31d4e3d90412a03ee95991761599a2", "fusion_lat": 0.0, "type": "electric_scooter", "lat": 38.9049035, "is_reserved": 0, "is_disabled": 0, "fusion_lon": 0.0, "bike_id": "bc31d4e3d90412a03ee95991761599a2", "lon": -77.04152116666667, "rental_uris": {"ios": "https://dc.lft.to/lastmile_qr_scan", "android": "https://dc.lft.to/lastmile_qr_scan"}}, {"name": "52b9fec0ed3afdd2ded246ca176f09ec", "fusion_lat": 0.0, "type": "electric_bike", "lat": 38.954837166666664, "is_reserved": 0, "is_disabled": 0, "fusion_lon": 0.0, "bike_id": "52b9fec0ed3afdd2ded246ca176f09ec", "lon": -77.082408, "rental_uris": {"ios": "https://dc.lft.to/lastmile_qr_scan", "android": "https://dc.lft.to/lastmile_qr_scan"}}, {"name": "799722c63140268151decb6e55551349", "fusion_lat": 0.0, "type": "electric_scooter", "lat": 38.8955385, "is_reserved": 0, "is_disabled": 0, "fusion_lon": 0.0, "bike_id": "799722c63140268151decb6e55551349", "lon": -77.04687933333334, "rental_uris": {"ios": "https://dc.lft.to/lastmile_qr_scan", "android": "https://dc.lft.to/lastmile_qr_scan"}}, {"name": "23878486fbcd776d6249048236819908", "fusion_lat": 0.0, "type": "electric_scooter", "lat": 38.896562, "is_reserved": 0, "is_disabled": 0, "fusion_lon": 0.0, "bike_id": "23878486fbcd776d6249048236819908", "lon": -77.04896416666666, "rental_uris": {"ios": "https://dc.lft.to/lastmile_qr_scan", "android": "https://dc.lft.to/lastmile_qr_scan"}}, {"name": "22afe487ce87851b5326434c5bce3fa2", "fusion_lat": 0.0, "type": "electric_bike", "lat": 38.8386165, "is_reserved": 0, "is_disabled": 0, "fusion_lon": 0.0, "bike_id": "22afe487ce87851b5326434c5bce3fa2", "lon": -77.08865483333334, "rental_uris": {"ios": "https://dc.lft.to/lastmile_qr_scan", "android": "https://dc.lft.to/lastmile_qr_scan"}}, {"name": "84f4454d69b788dd3bad61eba10eae3a", "fusion_lat": 0.0, "type": "electric_scooter", "lat": 38.93966666666667, "is_reserved": 0, "is_disabled": 0, "fusion_lon": 0.0, "bike_id": "84f4454d69b788dd3bad61eba10eae3a", "lon": -77.03281483333333, "rental_uris": {"ios": "https://dc.lft.to/lastmile_qr_scan", "android": "https://dc.lft.to/lastmile_qr_scan"}}, {"name": "bbde0245e2acbda54bb01e1223337e76", "fusion_lat": 0.0, "type": "electric_scooter", "lat": 38.90146766666667, "is_reserved": 0, "is_disabled": 0, "fusion_lon": 0.0, "bike_id": "bbde0245e2acbda54bb01e1223337e76", "lon": -77.00038516666666, "rental_uris": {"ios": "https://dc.lft.to/lastmile_qr_scan", "android": "https://dc.lft.to/lastmile_qr_scan"}}, {"name": "bf592f2879d4476bb316a459cb94efa9", "fusion_lat": 0.0, "type": "electric_scooter", "lat": 38.90342233333333, "is_reserved": 0, "is_disabled": 0, "fusion_lon": 0.0, "bike_id": "bf592f2879d4476bb316a459cb94efa9", "lon": -77.03833866666666, "rental_uris": {"ios": "https://dc.lft.to/lastmile_qr_scan", "android": "https://dc.lft.to/lastmile_qr_scan"}}, {"name": "8bd075fa239583066c0173a672f45710", "fusion_lat": 0.0, "type": "electric_bike", "lat": 38.9732335, "is_reserved": 0, "is_disabled": 0, "fusion_lon": 0.0, "bike_id": "8bd075fa239583066c0173a672f45710", "lon": -77.0214785, "rental_uris": {"ios": "https://dc.lft.to/lastmile_qr_scan", "android": "https://dc.lft.to/lastmile_qr_scan"}}, {"name": "182d968ea7b8dd0de8dbbc09cc7ddf86", "fusion_lat": 0.0, "type": "electric_scooter", "lat": 38.93110466666667, "is_reserved": 0, "is_disabled": 0, "fusion_lon": 0.0, "bike_id": "182d968ea7b8dd0de8dbbc09cc7ddf86", "lon": -77.02401316666666, "rental_uris": {"ios": "https://dc.lft.to/lastmile_qr_scan", "android": "https://dc.lft.to/lastmile_qr_scan"}}, {"name": "da48677a86a56d5140fa1219959bc6fe", "fusion_lat": 0.0, "type": "electric_scooter", "lat": 38.90386616666667, "is_reserved": 0, "is_disabled": 0, "fusion_lon": 0.0, "bike_id": "da48677a86a56d5140fa1219959bc6fe", "lon": -77.04492133333333, "rental_uris": {"ios": "https://dc.lft.to/lastmile_qr_scan", "android": "https://dc.lft.to/lastmile_qr_scan"}}, {"name": "e7ee445c195dc5a2032ed65d85e49bd0", "fusion_lat": 0.0, "type": "electric_scooter", "lat": 38.9221065, "is_reserved": 0, "is_disabled": 0, "fusion_lon": 0.0, "bike_id": "e7ee445c195dc5a2032ed65d85e49bd0", "lon": -77.04237833333333, "rental_uris": {"ios": "https://dc.lft.to/lastmile_qr_scan", "android": "https://dc.lft.to/lastmile_qr_scan"}}, {"name": "b2ee7ba86f28a3c7c08489224384df3f", "fusion_lat": 0.0, "type": "electric_bike", "lat": 38.903689166666666, "is_reserved": 0, "is_disabled": 0, "fusion_lon": 0.0, "bike_id": "b2ee7ba86f28a3c7c08489224384df3f", "lon": -76.98096383333333, "rental_uris": {"ios": "https://dc.lft.to/lastmile_qr_scan", "android": "https://dc.lft.to/lastmile_qr_scan"}}, {"name": "44588f841aa4711c0a68fae9a9c395e1", "fusion_lat": 0.0, "type": "electric_scooter", "lat": 38.884907, "is_reserved": 0, "is_disabled": 0, "fusion_lon": 0.0, "bike_id": "44588f841aa4711c0a68fae9a9c395e1", "lon": -77.00708616666667, "rental_uris": {"ios": "https://dc.lft.to/lastmile_qr_scan", "android": "https://dc.lft.to/lastmile_qr_scan"}}, {"name": "161ae4df08277bdefaace863522241e1", "fusion_lat": 0.0, "type": "electric_scooter", "lat": 38.88940633333333, "is_reserved": 0, "is_disabled": 0, "fusion_lon": 0.0, "bike_id": "161ae4df08277bdefaace863522241e1", "lon": -76.947837, "rental_uris": {"ios": "https://dc.lft.to/lastmile_qr_scan", "android": "https://dc.lft.to/lastmile_qr_scan"}}, {"name": "289d114f3102a378fd5d0887682d32c8", "fusion_lat": 0.0, "type": "electric_scooter", "lat": 38.9112155, "is_reserved": 0, "is_disabled": 0, "fusion_lon": 0.0, "bike_id": "289d114f3102a378fd5d0887682d32c8", "lon": -77.0452185, "rental_uris": {"ios": "https://dc.lft.to/lastmile_qr_scan", "android": "https://dc.lft.to/lastmile_qr_scan"}}, {"name": "5747f313a261fc45a3b938525aebe30c", "fusion_lat": 0.0, "type": "electric_scooter", "lat": 38.89887733333333, "is_reserved": 0, "is_disabled": 0, "fusion_lon": 0.0, "bike_id": "5747f313a261fc45a3b938525aebe30c", "lon": -77.03332316666666, "rental_uris": {"ios": "https://dc.lft.to/lastmile_qr_scan", "android": "https://dc.lft.to/lastmile_qr_scan"}}, {"name": "47eadddf6ac4f0702c4464e455735fd8", "fusion_lat": 0.0, "type": "electric_scooter", "lat": 38.902640166666664, "is_reserved": 0, "is_disabled": 0, "fusion_lon": 0.0, "bike_id": "47eadddf6ac4f0702c4464e455735fd8", "lon": -77.0340445, "rental_uris": {"ios": "https://dc.lft.to/lastmile_qr_scan", "android": "https://dc.lft.to/lastmile_qr_scan"}}, {"name": "f33b1e5650187901a1b7816d7a45aad3", "fusion_lat": 0.0, "type": "electric_scooter", "lat": 38.89871183333333, "is_reserved": 0, "is_disabled": 0, "fusion_lon": 0.0, "bike_id": "f33b1e5650187901a1b7816d7a45aad3", "lon": -77.03179533333333, "rental_uris": {"ios": "https://dc.lft.to/lastmile_qr_scan", "android": "https://dc.lft.to/lastmile_qr_scan"}}, {"name": "3605b9953572e84bc5716f72a1606353", "fusion_lat": 0.0, "type": "electric_scooter", "lat": 38.901679333333334, "is_reserved": 0, "is_disabled": 0, "fusion_lon": 0.0, "bike_id": "3605b9953572e84bc5716f72a1606353", "lon": -77.03214383333334, "rental_uris": {"ios": "https://dc.lft.to/lastmile_qr_scan", "android": "https://dc.lft.to/lastmile_qr_scan"}}, {"name": "0d5105e2b33f4e30039cf2c6794c183d", "fusion_lat": 0.0, "type": "electric_scooter", "lat": 38.924444666666666, "is_reserved": 0, "is_disabled": 0, "fusion_lon": 0.0, "bike_id": "0d5105e2b33f4e30039cf2c6794c183d", "lon": -77.02978383333334, "rental_uris": {"ios": "https://dc.lft.to/lastmile_qr_scan", "android": "https://dc.lft.to/lastmile_qr_scan"}}, {"name": "02574662f08a49fba51ad92548921e56", "fusion_lat": 0.0, "type": "electric_scooter", "lat": 38.949611833333336, "is_reserved": 0, "is_disabled": 0, "fusion_lon": 0.0, "bike_id": "02574662f08a49fba51ad92548921e56", "lon": -77.027219, "rental_uris": {"ios": "https://dc.lft.to/lastmile_qr_scan", "android": "https://dc.lft.to/lastmile_qr_scan"}}, {"name": "79b4eefab8f8017a6d55a454e87a3306", "fusion_lat": 0.0, "type": "electric_bike", "lat": 38.880467333333335, "is_reserved": 0, "is_disabled": 0, "fusion_lon": 0.0, "bike_id": "79b4eefab8f8017a6d55a454e87a3306", "lon": -77.0132345, "rental_uris": {"ios": "https://dc.lft.to/lastmile_qr_scan", "android": "https://dc.lft.to/lastmile_qr_scan"}}, {"name": "be08a5eff1836cd52755989883b2242f", "fusion_lat": 0.0, "type": "electric_scooter", "lat": 38.911282166666666, "is_reserved": 0, "is_disabled": 0, "fusion_lon": 0.0, "bike_id": "be08a5eff1836cd52755989883b2242f", "lon": -77.043575, "rental_uris": {"ios": "https://dc.lft.to/lastmile_qr_scan", "android": "https://dc.lft.to/lastmile_qr_scan"}}, {"name": "55566a1ea2c4db26c789105df573fb06", "fusion_lat": 0.0, "type": "electric_scooter", "lat": 38.89850766666667, "is_reserved": 0, "is_disabled": 0, "fusion_lon": 0.0, "bike_id": "55566a1ea2c4db26c789105df573fb06", "lon": -77.02418016666667, "rental_uris": {"ios": "https://dc.lft.to/lastmile_qr_scan", "android": "https://dc.lft.to/lastmile_qr_scan"}}, {"name": "85bfdce570d5a4019a45c9e0caa28c55", "fusion_lat": 0.0, "type": "electric_scooter", "lat": 38.8624785, "is_reserved": 0, "is_disabled": 0, "fusion_lon": 0.0, "bike_id": "85bfdce570d5a4019a45c9e0caa28c55", "lon": -76.99496833333333, "rental_uris": {"ios": "https://dc.lft.to/lastmile_qr_scan", "android": "https://dc.lft.to/lastmile_qr_scan"}}, {"name": "b25d9a3c2fe380270dc99b5dd26732d5", "fusion_lat": 0.0, "type": "electric_scooter", "lat": 38.90983, "is_reserved": 0, "is_disabled": 0, "fusion_lon": 0.0, "bike_id": "b25d9a3c2fe380270dc99b5dd26732d5", "lon": -77.04619483333333, "rental_uris": {"ios": "https://dc.lft.to/lastmile_qr_scan", "android": "https://dc.lft.to/lastmile_qr_scan"}}, {"name": "afba07bdf1ebcabeb40b01c2f51eee84", "fusion_lat": 0.0, "type": "electric_scooter", "lat": 38.892191, "is_reserved": 0, "is_disabled": 0, "fusion_lon": 0.0, "bike_id": "afba07bdf1ebcabeb40b01c2f51eee84", "lon": -77.02228916666667, "rental_uris": {"ios": "https://dc.lft.to/lastmile_qr_scan", "android": "https://dc.lft.to/lastmile_qr_scan"}}, {"name": "07a7d7e479f7f77dfe098917b07798c3", "fusion_lat": 0.0, "type": "electric_bike", "lat": 39.09457416666667, "is_reserved": 0, "is_disabled": 0, "fusion_lon": 0.0, "bike_id": "07a7d7e479f7f77dfe098917b07798c3", "lon": -77.1500175, "rental_uris": {"ios": "https://dc.lft.to/lastmile_qr_scan", "android": "https://dc.lft.to/lastmile_qr_scan"}}, {"name": "346d7c52603ed8380018594b5cade4c4", "fusion_lat": 0.0, "type": "electric_bike", "lat": 38.875326333333334, "is_reserved": 0, "is_disabled": 0, "fusion_lon": 0.0, "bike_id": "346d7c52603ed8380018594b5cade4c4", "lon": -77.199052, "rental_uris": {"ios": "https://dc.lft.to/lastmile_qr_scan", "android": "https://dc.lft.to/lastmile_qr_scan"}}, {"name": "8d83d3c5a2c4a7c9db416bca77bb019f", "fusion_lat": 0.0, "type": "electric_scooter", "lat": 38.89499883333333, "is_reserved": 0, "is_disabled": 0, "fusion_lon": 0.0, "bike_id": "8d83d3c5a2c4a7c9db416bca77bb019f", "lon": -77.0020535, "rental_uris": {"ios": "https://dc.lft.to/lastmile_qr_scan", "android": "https://dc.lft.to/lastmile_qr_scan"}}, {"name": "9c7e54fd54c4095e9f9db6295fe25a7b", "fusion_lat": 0.0, "type": "electric_scooter", "lat": 38.8991275, "is_reserved": 0, "is_disabled": 0, "fusion_lon": 0.0, "bike_id": "9c7e54fd54c4095e9f9db6295fe25a7b", "lon": -76.93348483333334, "rental_uris": {"ios": "https://dc.lft.to/lastmile_qr_scan", "android": "https://dc.lft.to/lastmile_qr_scan"}}, {"name": "14160d3e70dd8249f85f907ec31e4408", "fusion_lat": 0.0, "type": "electric_scooter", "lat": 38.9272775, "is_reserved": 0, "is_disabled": 0, "fusion_lon": 0.0, "bike_id": "14160d3e70dd8249f85f907ec31e4408", "lon": -77.005682, "rental_uris": {"ios": "https://dc.lft.to/lastmile_qr_scan", "android": "https://dc.lft.to/lastmile_qr_scan"}}, {"name": "65a163c14b5065680c63def2ad959fe8", "fusion_lat": 0.0, "type": "electric_scooter", "lat": 38.918143666666666, "is_reserved": 0, "is_disabled": 0, "fusion_lon": 0.0, "bike_id": "65a163c14b5065680c63def2ad959fe8", "lon": -77.030225, "rental_uris": {"ios": "https://dc.lft.to/lastmile_qr_scan", "android": "https://dc.lft.to/lastmile_qr_scan"}}, {"name": "9167b8280b9f52b5f5f793222543f840", "fusion_lat": 0.0, "type": "electric_scooter", "lat": 38.904670333333335, "is_reserved": 0, "is_disabled": 0, "fusion_lon": 0.0, "bike_id": "9167b8280b9f52b5f5f793222543f840", "lon": -77.04473016666667, "rental_uris": {"ios": "https://dc.lft.to/lastmile_qr_scan", "android": "https://dc.lft.to/lastmile_qr_scan"}}, {"name": "b9d3a5a46d7badc7a786ecabb2f9ddd2", "fusion_lat": 0.0, "type": "electric_bike", "lat": 38.85795866666667, "is_reserved": 0, "is_disabled": 0, "fusion_lon": 0.0, "bike_id": "b9d3a5a46d7badc7a786ecabb2f9ddd2", "lon": -77.099574, "rental_uris": {"ios": "https://dc.lft.to/lastmile_qr_scan", "android": "https://dc.lft.to/lastmile_qr_scan"}}, {"name": "58a9d4dec679d76c41f2c877532e0469", "fusion_lat": 0.0, "type": "electric_scooter", "lat": 38.89742833333333, "is_reserved": 0, "is_disabled": 0, "fusion_lon": 0.0, "bike_id": "58a9d4dec679d76c41f2c877532e0469", "lon": -76.942522, "rental_uris": {"ios": "https://dc.lft.to/lastmile_qr_scan", "android": "https://dc.lft.to/lastmile_qr_scan"}}, {"name": "5a2a1bc2efd731e89ac2d14d6ff781c7", "fusion_lat": 0.0, "type": "electric_scooter", "lat": 38.90109783333333, "is_reserved": 0, "is_disabled": 0, "fusion_lon": 0.0, "bike_id": "5a2a1bc2efd731e89ac2d14d6ff781c7", "lon": -77.03214066666666, "rental_uris": {"ios": "https://dc.lft.to/lastmile_qr_scan", "android": "https://dc.lft.to/lastmile_qr_scan"}}, {"name": "6a045115cd6b210cfda9db942324fe57", "fusion_lat": 0.0, "type": "electric_scooter", "lat": 38.933825, "is_reserved": 0, "is_disabled": 0, "fusion_lon": 0.0, "bike_id": "6a045115cd6b210cfda9db942324fe57", "lon": -77.057663, "rental_uris": {"ios": "https://dc.lft.to/lastmile_qr_scan", "android": "https://dc.lft.to/lastmile_qr_scan"}}, {"name": "34da03cd51183974f69ad9446d16a519", "fusion_lat": 0.0, "type": "electric_scooter", "lat": 38.90368866666667, "is_reserved": 0, "is_disabled": 0, "fusion_lon": 0.0, "bike_id": "34da03cd51183974f69ad9446d16a519", "lon": -77.043246, "rental_uris": {"ios": "https://dc.lft.to/lastmile_qr_scan", "android": "https://dc.lft.to/lastmile_qr_scan"}}, {"name": "00d4c715f8b9e99e7966e73edf886423", "fusion_lat": 0.0, "type": "electric_scooter", "lat": 38.90133216666667, "is_reserved": 0, "is_disabled": 0, "fusion_lon": 0.0, "bike_id": "00d4c715f8b9e99e7966e73edf886423", "lon": -77.02188616666666, "rental_uris": {"ios": "https://dc.lft.to/lastmile_qr_scan", "android": "https://dc.lft.to/lastmile_qr_scan"}}, {"name": "5268477c1f24dace1796946bd2882ab5", "fusion_lat": 0.0, "type": "electric_scooter", "lat": 38.904239, "is_reserved": 0, "is_disabled": 0, "fusion_lon": 0.0, "bike_id": "5268477c1f24dace1796946bd2882ab5", "lon": -77.04658466666666, "rental_uris": {"ios": "https://dc.lft.to/lastmile_qr_scan", "android": "https://dc.lft.to/lastmile_qr_scan"}}, {"name": "fff0a6a6a4c31b5dd6572826331937f6", "fusion_lat": 0.0, "type": "electric_scooter", "lat": 38.901542166666665, "is_reserved": 0, "is_disabled": 0, "fusion_lon": 0.0, "bike_id": "fff0a6a6a4c31b5dd6572826331937f6", "lon": -77.02563933333333, "rental_uris": {"ios": "https://dc.lft.to/lastmile_qr_scan", "android": "https://dc.lft.to/lastmile_qr_scan"}}, {"name": "808fd186eea5d54b815746e6a1ff8dda", "fusion_lat": 0.0, "type": "electric_bike", "lat": 38.96506133333333, "is_reserved": 0, "is_disabled": 0, "fusion_lon": 0.0, "bike_id": "808fd186eea5d54b815746e6a1ff8dda", "lon": -77.1033015, "rental_uris": {"ios": "https://dc.lft.to/lastmile_qr_scan", "android": "https://dc.lft.to/lastmile_qr_scan"}}, {"name": "d0017ca1cfe0d7448b0201bb28915c6f", "fusion_lat": 0.0, "type": "electric_scooter", "lat": 38.90017366666667, "is_reserved": 0, "is_disabled": 0, "fusion_lon": 0.0, "bike_id": "d0017ca1cfe0d7448b0201bb28915c6f", "lon": -77.0328585, "rental_uris": {"ios": "https://dc.lft.to/lastmile_qr_scan", "android": "https://dc.lft.to/lastmile_qr_scan"}}, {"name": "c2e1db811d13a838accad621d1f91d4c", "fusion_lat": 0.0, "type": "electric_scooter", "lat": 38.90800933333333, "is_reserved": 0, "is_disabled": 0, "fusion_lon": 0.0, "bike_id": "c2e1db811d13a838accad621d1f91d4c", "lon": -77.04822633333333, "rental_uris": {"ios": "https://dc.lft.to/lastmile_qr_scan", "android": "https://dc.lft.to/lastmile_qr_scan"}}, {"name": "10f7aac1e4d869226c5a7b73fb9846cf", "fusion_lat": 0.0, "type": "electric_scooter", "lat": 38.8843585, "is_reserved": 0, "is_disabled": 0, "fusion_lon": 0.0, "bike_id": "10f7aac1e4d869226c5a7b73fb9846cf", "lon": -76.95754083333334, "rental_uris": {"ios": "https://dc.lft.to/lastmile_qr_scan", "android": "https://dc.lft.to/lastmile_qr_scan"}}, {"name": "d2f313e24c3ace5eb115106d32370440", "fusion_lat": 0.0, "type": "electric_scooter", "lat": 38.89723883333333, "is_reserved": 0, "is_disabled": 0, "fusion_lon": 0.0, "bike_id": "d2f313e24c3ace5eb115106d32370440", "lon": -77.02648433333333, "rental_uris": {"ios": "https://dc.lft.to/lastmile_qr_scan", "android": "https://dc.lft.to/lastmile_qr_scan"}}, {"name": "c3bab85aa27c23591245ba2c90ebb9a5", "fusion_lat": 0.0, "type": "electric_scooter", "lat": 38.9151835, "is_reserved": 0, "is_disabled": 0, "fusion_lon": 0.0, "bike_id": "c3bab85aa27c23591245ba2c90ebb9a5", "lon": -77.044945, "rental_uris": {"ios": "https://dc.lft.to/lastmile_qr_scan", "android": "https://dc.lft.to/lastmile_qr_scan"}}, {"name": "236992c296c2a8833e4859e2a2d0b242", "fusion_lat": 0.0, "type": "electric_scooter", "lat": 38.90478733333333, "is_reserved": 0, "is_disabled": 0, "fusion_lon": 0.0, "bike_id": "236992c296c2a8833e4859e2a2d0b242", "lon": -77.04189583333333, "rental_uris": {"ios": "https://dc.lft.to/lastmile_qr_scan", "android": "https://dc.lft.to/lastmile_qr_scan"}}, {"name": "9cf09c01be28233186723f0b865ee76c", "fusion_lat": 0.0, "type": "electric_scooter", "lat": 38.914103833333336, "is_reserved": 0, "is_disabled": 0, "fusion_lon": 0.0, "bike_id": "9cf09c01be28233186723f0b865ee76c", "lon": -77.0456315, "rental_uris": {"ios": "https://dc.lft.to/lastmile_qr_scan", "android": "https://dc.lft.to/lastmile_qr_scan"}}, {"name": "22e4e8d078a9f49e42c5ff6270e8da97", "fusion_lat": 0.0, "type": "electric_scooter", "lat": 38.933325333333336, "is_reserved": 0, "is_disabled": 0, "fusion_lon": 0.0, "bike_id": "22e4e8d078a9f49e42c5ff6270e8da97", "lon": -77.03263483333333, "rental_uris": {"ios": "https://dc.lft.to/lastmile_qr_scan", "android": "https://dc.lft.to/lastmile_qr_scan"}}, {"name": "0af088415f1cb4a5a845536231637f6d", "fusion_lat": 0.0, "type": "electric_scooter", "lat": 38.90245983333333, "is_reserved": 0, "is_disabled": 0, "fusion_lon": 0.0, "bike_id": "0af088415f1cb4a5a845536231637f6d", "lon": -77.00255066666666, "rental_uris": {"ios": "https://dc.lft.to/lastmile_qr_scan", "android": "https://dc.lft.to/lastmile_qr_scan"}}, {"name": "9f90966e4bd4db8f2b6fbdea277955e0", "fusion_lat": 0.0, "type": "electric_scooter", "lat": 38.935811666666666, "is_reserved": 0, "is_disabled": 0, "fusion_lon": 0.0, "bike_id": "9f90966e4bd4db8f2b6fbdea277955e0", "lon": -76.99099183333334, "rental_uris": {"ios": "https://dc.lft.to/lastmile_qr_scan", "android": "https://dc.lft.to/lastmile_qr_scan"}}, {"name": "d82e788f749bdb90501243349bdadfb1", "fusion_lat": 0.0, "type": "electric_scooter", "lat": 38.899655833333334, "is_reserved": 0, "is_disabled": 0, "fusion_lon": 0.0, "bike_id": "d82e788f749bdb90501243349bdadfb1", "lon": -77.03401233333334, "rental_uris": {"ios": "https://dc.lft.to/lastmile_qr_scan", "android": "https://dc.lft.to/lastmile_qr_scan"}}, {"name": "c383cbe3a0c62dab5c0fbc58a8ac15f8", "fusion_lat": 0.0, "type": "electric_scooter", "lat": 38.922398333333334, "is_reserved": 0, "is_disabled": 0, "fusion_lon": 0.0, "bike_id": "c383cbe3a0c62dab5c0fbc58a8ac15f8", "lon": -77.033469, "rental_uris": {"ios": "https://dc.lft.to/lastmile_qr_scan", "android": "https://dc.lft.to/lastmile_qr_scan"}}, {"name": "e333ff71c27e2556d7f98b7c4dcafe89", "fusion_lat": 0.0, "type": "electric_bike", "lat": 38.83815383333334, "is_reserved": 0, "is_disabled": 0, "fusion_lon": 0.0, "bike_id": "e333ff71c27e2556d7f98b7c4dcafe89", "lon": -77.09523133333333, "rental_uris": {"ios": "https://dc.lft.to/lastmile_qr_scan", "android": "https://dc.lft.to/lastmile_qr_scan"}}, {"name": "3142788dcd92be4aa60021853923b797", "fusion_lat": 0.0, "type": "electric_scooter", "lat": 38.895392, "is_reserved": 0, "is_disabled": 0, "fusion_lon": 0.0, "bike_id": "3142788dcd92be4aa60021853923b797", "lon": -77.046424, "rental_uris": {"ios": "https://dc.lft.to/lastmile_qr_scan", "android": "https://dc.lft.to/lastmile_qr_scan"}}, {"name": "be7fc7be3ed4a4ad910314804740d861", "fusion_lat": 0.0, "type": "electric_scooter", "lat": 38.925258666666664, "is_reserved": 0, "is_disabled": 0, "fusion_lon": 0.0, "bike_id": "be7fc7be3ed4a4ad910314804740d861", "lon": -77.0553805, "rental_uris": {"ios": "https://dc.lft.to/lastmile_qr_scan", "android": "https://dc.lft.to/lastmile_qr_scan"}}, {"name": "e907718553e743be96e6fdfb98a2722a", "fusion_lat": 0.0, "type": "electric_scooter", "lat": 38.90151683333333, "is_reserved": 0, "is_disabled": 0, "fusion_lon": 0.0, "bike_id": "e907718553e743be96e6fdfb98a2722a", "lon": -76.930619, "rental_uris": {"ios": "https://dc.lft.to/lastmile_qr_scan", "android": "https://dc.lft.to/lastmile_qr_scan"}}, {"name": "af248d1abd11c4c29b43ddea2a5757b0", "fusion_lat": 0.0, "type": "electric_scooter", "lat": 38.9236235, "is_reserved": 0, "is_disabled": 0, "fusion_lon": 0.0, "bike_id": "af248d1abd11c4c29b43ddea2a5757b0", "lon": -77.050839, "rental_uris": {"ios": "https://dc.lft.to/lastmile_qr_scan", "android": "https://dc.lft.to/lastmile_qr_scan"}}, {"name": "04115c9c551fe95bd9c786ece7c349d9", "fusion_lat": 0.0, "type": "electric_scooter", "lat": 38.894086, "is_reserved": 0, "is_disabled": 0, "fusion_lon": 0.0, "bike_id": "04115c9c551fe95bd9c786ece7c349d9", "lon": -76.9479875, "rental_uris": {"ios": "https://dc.lft.to/lastmile_qr_scan", "android": "https://dc.lft.to/lastmile_qr_scan"}}, {"name": "f2393e19d3fc61eb416776970e920a5a", "fusion_lat": 0.0, "type": "electric_scooter", "lat": 38.857169166666665, "is_reserved": 0, "is_disabled": 0, "fusion_lon": 0.0, "bike_id": "f2393e19d3fc61eb416776970e920a5a", "lon": -76.98127733333334, "rental_uris": {"ios": "https://dc.lft.to/lastmile_qr_scan", "android": "https://dc.lft.to/lastmile_qr_scan"}}, {"name": "ebc99bd510bc6045e5a7cea5179a2217", "fusion_lat": 0.0, "type": "electric_scooter", "lat": 38.88749933333333, "is_reserved": 0, "is_disabled": 0, "fusion_lon": 0.0, "bike_id": "ebc99bd510bc6045e5a7cea5179a2217", "lon": -77.02127166666666, "rental_uris": {"ios": "https://dc.lft.to/lastmile_qr_scan", "android": "https://dc.lft.to/lastmile_qr_scan"}}, {"name": "a686dad1ba13b6dd8d1c509e5bd67f48", "fusion_lat": 0.0, "type": "electric_scooter", "lat": 38.92242266666667, "is_reserved": 0, "is_disabled": 0, "fusion_lon": 0.0, "bike_id": "a686dad1ba13b6dd8d1c509e5bd67f48", "lon": -77.0424335, "rental_uris": {"ios": "https://dc.lft.to/lastmile_qr_scan", "android": "https://dc.lft.to/lastmile_qr_scan"}}, {"name": "1aab8d20196c561d83aae974664e3e7f", "fusion_lat": 0.0, "type": "electric_scooter", "lat": 38.92283716666667, "is_reserved": 0, "is_disabled": 0, "fusion_lon": 0.0, "bike_id": "1aab8d20196c561d83aae974664e3e7f", "lon": -77.04239783333334, "rental_uris": {"ios": "https://dc.lft.to/lastmile_qr_scan", "android": "https://dc.lft.to/lastmile_qr_scan"}}, {"name": "abc06e310dfe818e432b6d8e43c4a338", "fusion_lat": 0.0, "type": "electric_scooter", "lat": 38.895154, "is_reserved": 0, "is_disabled": 0, "fusion_lon": 0.0, "bike_id": "abc06e310dfe818e432b6d8e43c4a338", "lon": -76.94889316666666, "rental_uris": {"ios": "https://dc.lft.to/lastmile_qr_scan", "android": "https://dc.lft.to/lastmile_qr_scan"}}, {"name": "66f487e71f0ae679c58ae1cb613e65a7", "fusion_lat": 0.0, "type": "electric_scooter", "lat": 38.923659, "is_reserved": 0, "is_disabled": 0, "fusion_lon": 0.0, "bike_id": "66f487e71f0ae679c58ae1cb613e65a7", "lon": -77.05027716666666, "rental_uris": {"ios": "https://dc.lft.to/lastmile_qr_scan", "android": "https://dc.lft.to/lastmile_qr_scan"}}, {"name": "fa928879c915a62fc99b1aa5f0ce9081", "fusion_lat": 0.0, "type": "electric_scooter", "lat": 38.880231333333334, "is_reserved": 0, "is_disabled": 0, "fusion_lon": 0.0, "bike_id": "fa928879c915a62fc99b1aa5f0ce9081", "lon": -76.9313505, "rental_uris": {"ios": "https://dc.lft.to/lastmile_qr_scan", "android": "https://dc.lft.to/lastmile_qr_scan"}}, {"name": "3f38cb6f02b6c745b40aa592a4fff485", "fusion_lat": 0.0, "type": "electric_scooter", "lat": 38.89228516666667, "is_reserved": 0, "is_disabled": 0, "fusion_lon": 0.0, "bike_id": "3f38cb6f02b6c745b40aa592a4fff485", "lon": -77.00305766666666, "rental_uris": {"ios": "https://dc.lft.to/lastmile_qr_scan", "android": "https://dc.lft.to/lastmile_qr_scan"}}, {"name": "5960cdcd01efe6a111a4d328984b9c37", "fusion_lat": 0.0, "type": "electric_scooter", "lat": 38.91695166666667, "is_reserved": 0, "is_disabled": 0, "fusion_lon": 0.0, "bike_id": "5960cdcd01efe6a111a4d328984b9c37", "lon": -77.02595983333333, "rental_uris": {"ios": "https://dc.lft.to/lastmile_qr_scan", "android": "https://dc.lft.to/lastmile_qr_scan"}}, {"name": "0f277281af84a03825e4c2e9766e27e7", "fusion_lat": 0.0, "type": "electric_scooter", "lat": 38.9106295, "is_reserved": 0, "is_disabled": 0, "fusion_lon": 0.0, "bike_id": "0f277281af84a03825e4c2e9766e27e7", "lon": -77.04569883333333, "rental_uris": {"ios": "https://dc.lft.to/lastmile_qr_scan", "android": "https://dc.lft.to/lastmile_qr_scan"}}, {"name": "9542d1102609225f3b684be3e69e8b85", "fusion_lat": 0.0, "type": "electric_scooter", "lat": 38.898396166666664, "is_reserved": 0, "is_disabled": 0, "fusion_lon": 0.0, "bike_id": "9542d1102609225f3b684be3e69e8b85", "lon": -76.94638316666666, "rental_uris": {"ios": "https://dc.lft.to/lastmile_qr_scan", "android": "https://dc.lft.to/lastmile_qr_scan"}}, {"name": "1e10b32bda5a7d086ff83fea045fad34", "fusion_lat": 0.0, "type": "electric_scooter", "lat": 38.92985783333334, "is_reserved": 0, "is_disabled": 0, "fusion_lon": 0.0, "bike_id": "1e10b32bda5a7d086ff83fea045fad34", "lon": -77.02616433333333, "rental_uris": {"ios": "https://dc.lft.to/lastmile_qr_scan", "android": "https://dc.lft.to/lastmile_qr_scan"}}, {"name": "cfbe2b82b8465281f5e66b834a06f756", "fusion_lat": 0.0, "type": "electric_scooter", "lat": 38.942035, "is_reserved": 0, "is_disabled": 0, "fusion_lon": 0.0, "bike_id": "cfbe2b82b8465281f5e66b834a06f756", "lon": -77.02513883333333, "rental_uris": {"ios": "https://dc.lft.to/lastmile_qr_scan", "android": "https://dc.lft.to/lastmile_qr_scan"}}, {"name": "a4f39c0eb9b8f18e9d65dcd8492ad6c6", "fusion_lat": 0.0, "type": "electric_scooter", "lat": 38.920601166666664, "is_reserved": 0, "is_disabled": 0, "fusion_lon": 0.0, "bike_id": "a4f39c0eb9b8f18e9d65dcd8492ad6c6", "lon": -77.02445816666666, "rental_uris": {"ios": "https://dc.lft.to/lastmile_qr_scan", "android": "https://dc.lft.to/lastmile_qr_scan"}}, {"name": "d58ba734a93a5082f6a237b123bea617", "fusion_lat": 0.0, "type": "electric_scooter", "lat": 38.901186833333334, "is_reserved": 0, "is_disabled": 0, "fusion_lon": 0.0, "bike_id": "d58ba734a93a5082f6a237b123bea617", "lon": -77.03169583333333, "rental_uris": {"ios": "https://dc.lft.to/lastmile_qr_scan", "android": "https://dc.lft.to/lastmile_qr_scan"}}, {"name": "be464e626a2d63ad183ab0d618541f80", "fusion_lat": 0.0, "type": "electric_scooter", "lat": 38.89902083333333, "is_reserved": 0, "is_disabled": 0, "fusion_lon": 0.0, "bike_id": "be464e626a2d63ad183ab0d618541f80", "lon": -77.0328805, "rental_uris": {"ios": "https://dc.lft.to/lastmile_qr_scan", "android": "https://dc.lft.to/lastmile_qr_scan"}}, {"name": "701cf40913653fbcab5c9d6d0f8049a7", "fusion_lat": 0.0, "type": "electric_scooter", "lat": 38.9083615, "is_reserved": 0, "is_disabled": 0, "fusion_lon": 0.0, "bike_id": "701cf40913653fbcab5c9d6d0f8049a7", "lon": -77.03657, "rental_uris": {"ios": "https://dc.lft.to/lastmile_qr_scan", "android": "https://dc.lft.to/lastmile_qr_scan"}}, {"name": "29285aeebc1bf91e5ebf38a1ad00d1ad", "fusion_lat": 0.0, "type": "electric_scooter", "lat": 38.9283815, "is_reserved": 0, "is_disabled": 0, "fusion_lon": 0.0, "bike_id": "29285aeebc1bf91e5ebf38a1ad00d1ad", "lon": -77.05420766666667, "rental_uris": {"ios": "https://dc.lft.to/lastmile_qr_scan", "android": "https://dc.lft.to/lastmile_qr_scan"}}, {"name": "0e42fd13b0e1a948d173f9ec5243e8f1", "fusion_lat": 0.0, "type": "electric_scooter", "lat": 38.89504866666667, "is_reserved": 0, "is_disabled": 0, "fusion_lon": 0.0, "bike_id": "0e42fd13b0e1a948d173f9ec5243e8f1", "lon": -77.02417733333333, "rental_uris": {"ios": "https://dc.lft.to/lastmile_qr_scan", "android": "https://dc.lft.to/lastmile_qr_scan"}}, {"name": "961404d30ef131799f4a2805e36f9cd6", "fusion_lat": 0.0, "type": "electric_scooter", "lat": 38.91897216666667, "is_reserved": 0, "is_disabled": 0, "fusion_lon": 0.0, "bike_id": "961404d30ef131799f4a2805e36f9cd6", "lon": -77.05292566666667, "rental_uris": {"ios": "https://dc.lft.to/lastmile_qr_scan", "android": "https://dc.lft.to/lastmile_qr_scan"}}, {"name": "de9db2bc524e2df2b4b5d1674554ccbf", "fusion_lat": 0.0, "type": "electric_bike", "lat": 38.82734766666667, "is_reserved": 0, "is_disabled": 0, "fusion_lon": 0.0, "bike_id": "de9db2bc524e2df2b4b5d1674554ccbf", "lon": -77.00857483333333, "rental_uris": {"ios": "https://dc.lft.to/lastmile_qr_scan", "android": "https://dc.lft.to/lastmile_qr_scan"}}, {"name": "60aafdee6a041b06b90e163941ab425d", "fusion_lat": 0.0, "type": "electric_scooter", "lat": 38.896913166666664, "is_reserved": 0, "is_disabled": 0, "fusion_lon": 0.0, "bike_id": "60aafdee6a041b06b90e163941ab425d", "lon": -77.01218116666666, "rental_uris": {"ios": "https://dc.lft.to/lastmile_qr_scan", "android": "https://dc.lft.to/lastmile_qr_scan"}}, {"name": "f52fef1891b5699ec7ae6b71aedcc3cb", "fusion_lat": 0.0, "type": "electric_scooter", "lat": 38.86214183333333, "is_reserved": 0, "is_disabled": 0, "fusion_lon": 0.0, "bike_id": "f52fef1891b5699ec7ae6b71aedcc3cb", "lon": -76.9946615, "rental_uris": {"ios": "https://dc.lft.to/lastmile_qr_scan", "android": "https://dc.lft.to/lastmile_qr_scan"}}, {"name": "fac6cfc56a166cd3230249e782e8e608", "fusion_lat": 0.0, "type": "electric_scooter", "lat": 38.895589666666666, "is_reserved": 0, "is_disabled": 0, "fusion_lon": 0.0, "bike_id": "fac6cfc56a166cd3230249e782e8e608", "lon": -76.948797, "rental_uris": {"ios": "https://dc.lft.to/lastmile_qr_scan", "android": "https://dc.lft.to/lastmile_qr_scan"}}, {"name": "0f524ebf902cfd08ff11eddf1ebae0fa", "fusion_lat": 0.0, "type": "electric_scooter", "lat": 38.917144666666665, "is_reserved": 0, "is_disabled": 0, "fusion_lon": 0.0, "bike_id": "0f524ebf902cfd08ff11eddf1ebae0fa", "lon": -77.02887616666666, "rental_uris": {"ios": "https://dc.lft.to/lastmile_qr_scan", "android": "https://dc.lft.to/lastmile_qr_scan"}}, {"name": "4c426c4c7ef2a2dec82f0e5f5ef5866d", "fusion_lat": 0.0, "type": "electric_scooter", "lat": 38.912011166666666, "is_reserved": 0, "is_disabled": 0, "fusion_lon": 0.0, "bike_id": "4c426c4c7ef2a2dec82f0e5f5ef5866d", "lon": -77.03254666666666, "rental_uris": {"ios": "https://dc.lft.to/lastmile_qr_scan", "android": "https://dc.lft.to/lastmile_qr_scan"}}, {"name": "650a3b22d323334ea1471b990553c454", "fusion_lat": 0.0, "type": "electric_scooter", "lat": 38.92364633333333, "is_reserved": 0, "is_disabled": 0, "fusion_lon": 0.0, "bike_id": "650a3b22d323334ea1471b990553c454", "lon": -77.05087183333333, "rental_uris": {"ios": "https://dc.lft.to/lastmile_qr_scan", "android": "https://dc.lft.to/lastmile_qr_scan"}}, {"name": "a7532a5d2c8144b727d7e05419f8ca76", "fusion_lat": 0.0, "type": "electric_scooter", "lat": 38.92032666666667, "is_reserved": 0, "is_disabled": 0, "fusion_lon": 0.0, "bike_id": "a7532a5d2c8144b727d7e05419f8ca76", "lon": -77.03194733333333, "rental_uris": {"ios": "https://dc.lft.to/lastmile_qr_scan", "android": "https://dc.lft.to/lastmile_qr_scan"}}, {"name": "1969548eadcc62401d8a6b05418bf56b", "fusion_lat": 0.0, "type": "electric_scooter", "lat": 38.892471666666665, "is_reserved": 0, "is_disabled": 0, "fusion_lon": 0.0, "bike_id": "1969548eadcc62401d8a6b05418bf56b", "lon": -77.0194945, "rental_uris": {"ios": "https://dc.lft.to/lastmile_qr_scan", "android": "https://dc.lft.to/lastmile_qr_scan"}}, {"name": "e8f8c08dedd56b513f2dc8627f4f11f9", "fusion_lat": 0.0, "type": "electric_scooter", "lat": 38.89901416666667, "is_reserved": 0, "is_disabled": 0, "fusion_lon": 0.0, "bike_id": "e8f8c08dedd56b513f2dc8627f4f11f9", "lon": -77.01517216666667, "rental_uris": {"ios": "https://dc.lft.to/lastmile_qr_scan", "android": "https://dc.lft.to/lastmile_qr_scan"}}, {"name": "bb9c6611f7a8f3731858cb0e74cd559a", "fusion_lat": 0.0, "type": "electric_scooter", "lat": 38.961157166666666, "is_reserved": 0, "is_disabled": 0, "fusion_lon": 0.0, "bike_id": "bb9c6611f7a8f3731858cb0e74cd559a", "lon": -77.02813666666667, "rental_uris": {"ios": "https://dc.lft.to/lastmile_qr_scan", "android": "https://dc.lft.to/lastmile_qr_scan"}}, {"name": "aafcdd291dc9f67ceb7a79c26c6016fa", "fusion_lat": 0.0, "type": "electric_scooter", "lat": 38.87457416666667, "is_reserved": 0, "is_disabled": 0, "fusion_lon": 0.0, "bike_id": "aafcdd291dc9f67ceb7a79c26c6016fa", "lon": -77.00769233333334, "rental_uris": {"ios": "https://dc.lft.to/lastmile_qr_scan", "android": "https://dc.lft.to/lastmile_qr_scan"}}, {"name": "a85e4d84477c3c35701991b40272c3a0", "fusion_lat": 0.0, "type": "electric_scooter", "lat": 38.90744883333333, "is_reserved": 0, "is_disabled": 0, "fusion_lon": 0.0, "bike_id": "a85e4d84477c3c35701991b40272c3a0", "lon": -77.04145566666666, "rental_uris": {"ios": "https://dc.lft.to/lastmile_qr_scan", "android": "https://dc.lft.to/lastmile_qr_scan"}}, {"name": "628db9623aa804d3fffd6cbdf719ed23", "fusion_lat": 0.0, "type": "electric_scooter", "lat": 38.91112283333333, "is_reserved": 0, "is_disabled": 0, "fusion_lon": 0.0, "bike_id": "628db9623aa804d3fffd6cbdf719ed23", "lon": -77.04226033333333, "rental_uris": {"ios": "https://dc.lft.to/lastmile_qr_scan", "android": "https://dc.lft.to/lastmile_qr_scan"}}, {"name": "e4e142b7e8df9e0a92e3442586721eb5", "fusion_lat": 0.0, "type": "electric_bike", "lat": 38.84573966666667, "is_reserved": 0, "is_disabled": 0, "fusion_lon": 0.0, "bike_id": "e4e142b7e8df9e0a92e3442586721eb5", "lon": -77.096218, "rental_uris": {"ios": "https://dc.lft.to/lastmile_qr_scan", "android": "https://dc.lft.to/lastmile_qr_scan"}}, {"name": "99d86ca8178951b6194f11bea45bae55", "fusion_lat": 0.0, "type": "electric_scooter", "lat": 38.873935833333334, "is_reserved": 0, "is_disabled": 0, "fusion_lon": 0.0, "bike_id": "99d86ca8178951b6194f11bea45bae55", "lon": -77.00025416666666, "rental_uris": {"ios": "https://dc.lft.to/lastmile_qr_scan", "android": "https://dc.lft.to/lastmile_qr_scan"}}, {"name": "fbb5d91330474f4a4313de3d14be5ad7", "fusion_lat": 0.0, "type": "electric_scooter", "lat": 38.892945166666664, "is_reserved": 0, "is_disabled": 0, "fusion_lon": 0.0, "bike_id": "fbb5d91330474f4a4313de3d14be5ad7", "lon": -77.020113, "rental_uris": {"ios": "https://dc.lft.to/lastmile_qr_scan", "android": "https://dc.lft.to/lastmile_qr_scan"}}, {"name": "3c4445aef16fadf43a115393cb0a5b97", "fusion_lat": 0.0, "type": "electric_scooter", "lat": 38.93707, "is_reserved": 0, "is_disabled": 0, "fusion_lon": 0.0, "bike_id": "3c4445aef16fadf43a115393cb0a5b97", "lon": -77.0610055, "rental_uris": {"ios": "https://dc.lft.to/lastmile_qr_scan", "android": "https://dc.lft.to/lastmile_qr_scan"}}, {"name": "faeea2fcd6dd8553c4ea5df3ad1ff0db", "fusion_lat": 0.0, "type": "electric_scooter", "lat": 38.90555916666667, "is_reserved": 0, "is_disabled": 0, "fusion_lon": 0.0, "bike_id": "faeea2fcd6dd8553c4ea5df3ad1ff0db", "lon": -77.00543633333334, "rental_uris": {"ios": "https://dc.lft.to/lastmile_qr_scan", "android": "https://dc.lft.to/lastmile_qr_scan"}}, {"name": "9403f90e00ef00f06d640a224a5424e2", "fusion_lat": 0.0, "type": "electric_scooter", "lat": 38.93016316666667, "is_reserved": 0, "is_disabled": 0, "fusion_lon": 0.0, "bike_id": "9403f90e00ef00f06d640a224a5424e2", "lon": -77.02339833333333, "rental_uris": {"ios": "https://dc.lft.to/lastmile_qr_scan", "android": "https://dc.lft.to/lastmile_qr_scan"}}, {"name": "fc3509d42d6cf85332ec77fe1c122842", "fusion_lat": 0.0, "type": "electric_scooter", "lat": 38.924408, "is_reserved": 0, "is_disabled": 0, "fusion_lon": 0.0, "bike_id": "fc3509d42d6cf85332ec77fe1c122842", "lon": -77.05211933333334, "rental_uris": {"ios": "https://dc.lft.to/lastmile_qr_scan", "android": "https://dc.lft.to/lastmile_qr_scan"}}, {"name": "d8dd6763c7fb840c5c5c84b959f172df", "fusion_lat": 0.0, "type": "electric_scooter", "lat": 38.9168645, "is_reserved": 0, "is_disabled": 0, "fusion_lon": 0.0, "bike_id": "d8dd6763c7fb840c5c5c84b959f172df", "lon": -77.03190083333334, "rental_uris": {"ios": "https://dc.lft.to/lastmile_qr_scan", "android": "https://dc.lft.to/lastmile_qr_scan"}}, {"name": "ada003d8d604b021133deaf2cd139d54", "fusion_lat": 0.0, "type": "electric_bike", "lat": 38.99912666666667, "is_reserved": 0, "is_disabled": 0, "fusion_lon": 0.0, "bike_id": "ada003d8d604b021133deaf2cd139d54", "lon": -77.046184, "rental_uris": {"ios": "https://dc.lft.to/lastmile_qr_scan", "android": "https://dc.lft.to/lastmile_qr_scan"}}, {"name": "2518bb405b985593502d78ab787343cf", "fusion_lat": 0.0, "type": "electric_scooter", "lat": 38.8948645, "is_reserved": 0, "is_disabled": 0, "fusion_lon": 0.0, "bike_id": "2518bb405b985593502d78ab787343cf", "lon": -76.94870916666666, "rental_uris": {"ios": "https://dc.lft.to/lastmile_qr_scan", "android": "https://dc.lft.to/lastmile_qr_scan"}}, {"name": "f9a6993b97987ee9cf17f52e0ba56a5d", "fusion_lat": 0.0, "type": "electric_scooter", "lat": 38.898573, "is_reserved": 0, "is_disabled": 0, "fusion_lon": 0.0, "bike_id": "f9a6993b97987ee9cf17f52e0ba56a5d", "lon": -76.99030383333333, "rental_uris": {"ios": "https://dc.lft.to/lastmile_qr_scan", "android": "https://dc.lft.to/lastmile_qr_scan"}}, {"name": "78584c2b4611906880f69bdfbd488db5", "fusion_lat": 0.0, "type": "electric_scooter", "lat": 38.92055466666667, "is_reserved": 0, "is_disabled": 0, "fusion_lon": 0.0, "bike_id": "78584c2b4611906880f69bdfbd488db5", "lon": -77.03343533333333, "rental_uris": {"ios": "https://dc.lft.to/lastmile_qr_scan", "android": "https://dc.lft.to/lastmile_qr_scan"}}, {"name": "ad3e5edad3fee5094c315ff20f76e190", "fusion_lat": 0.0, "type": "electric_scooter", "lat": 38.914180333333334, "is_reserved": 0, "is_disabled": 0, "fusion_lon": 0.0, "bike_id": "ad3e5edad3fee5094c315ff20f76e190", "lon": -77.03912966666667, "rental_uris": {"ios": "https://dc.lft.to/lastmile_qr_scan", "android": "https://dc.lft.to/lastmile_qr_scan"}}, {"name": "0d87d0c8507c010b10df898a03e9cce8", "fusion_lat": 0.0, "type": "electric_scooter", "lat": 38.931255, "is_reserved": 0, "is_disabled": 0, "fusion_lon": 0.0, "bike_id": "0d87d0c8507c010b10df898a03e9cce8", "lon": -77.03603466666667, "rental_uris": {"ios": "https://dc.lft.to/lastmile_qr_scan", "android": "https://dc.lft.to/lastmile_qr_scan"}}, {"name": "e2754db732931731a42a66ea1eae63ab", "fusion_lat": 0.0, "type": "electric_scooter", "lat": 38.93253683333333, "is_reserved": 0, "is_disabled": 0, "fusion_lon": 0.0, "bike_id": "e2754db732931731a42a66ea1eae63ab", "lon": -77.04003133333333, "rental_uris": {"ios": "https://dc.lft.to/lastmile_qr_scan", "android": "https://dc.lft.to/lastmile_qr_scan"}}, {"name": "f8cdd0f57e49f4ac01461c2631b90029", "fusion_lat": 0.0, "type": "electric_bike", "lat": 38.945579333333335, "is_reserved": 0, "is_disabled": 0, "fusion_lon": 0.0, "bike_id": "f8cdd0f57e49f4ac01461c2631b90029", "lon": -76.895381, "rental_uris": {"ios": "https://dc.lft.to/lastmile_qr_scan", "android": "https://dc.lft.to/lastmile_qr_scan"}}, {"name": "b8bfc6c7f47c934d34ca20cf2de41fbe", "fusion_lat": 0.0, "type": "electric_scooter", "lat": 38.931593, "is_reserved": 0, "is_disabled": 0, "fusion_lon": 0.0, "bike_id": "b8bfc6c7f47c934d34ca20cf2de41fbe", "lon": -77.03890983333334, "rental_uris": {"ios": "https://dc.lft.to/lastmile_qr_scan", "android": "https://dc.lft.to/lastmile_qr_scan"}}, {"name": "c6bf319c6efd8e5554d31d0b6d166d46", "fusion_lat": 0.0, "type": "electric_scooter", "lat": 38.8838815, "is_reserved": 0, "is_disabled": 0, "fusion_lon": 0.0, "bike_id": "c6bf319c6efd8e5554d31d0b6d166d46", "lon": -76.9304035, "rental_uris": {"ios": "https://dc.lft.to/lastmile_qr_scan", "android": "https://dc.lft.to/lastmile_qr_scan"}}, {"name": "b625712462d3f7838d9fb048cfd8756d", "fusion_lat": 0.0, "type": "electric_scooter", "lat": 38.90842083333333, "is_reserved": 0, "is_disabled": 0, "fusion_lon": 0.0, "bike_id": "b625712462d3f7838d9fb048cfd8756d", "lon": -76.9998715, "rental_uris": {"ios": "https://dc.lft.to/lastmile_qr_scan", "android": "https://dc.lft.to/lastmile_qr_scan"}},