{"data": {"bikes": [{"bike_id": "b4171c7aea2496fc84e115c15dc3dd8f", "fusion_lon": 0.0, "lon": -77.04451283333333, "name": "b4171c7aea2496fc84e115c15dc3dd8f", "is_disabled": 0, "rental_uris": {"android": "https://dc.lft.to/lastmile_qr_scan", "ios": "https://dc.lft.to/lastmile_qr_scan"}, "type": "electric_scooter", "lat": 38.93021866666667, "is_reserved": 0, "fusion_lat": 0.0}, {"bike_id": "a172fcf2b993a8e904f42570d4033360", "fusion_lon": 0.0, "lon": -77.02941416666667, "name": "a172fcf2b993a8e904f42570d4033360", "is_disabled": 0, "rental_uris": {"android": "https://dc.lft.to/lastmile_qr_scan", "ios": "https://dc.lft.to/lastmile_qr_scan"}, "type": "electric_scooter", "lat": 38.90492966666667, "is_reserved": 0, "fusion_lat": 0.0}, {"bike_id": "18850d97802d5bd0660b75a4eb55a17e", "fusion_lon": 0.0, "lon": -76.99157566666666, "name": "18850d97802d5bd0660b75a4eb55a17e", "is_disabled": 0, "rental_uris": {"android": "https://dc.lft.to/lastmile_qr_scan", "ios": "https://dc.lft.to/lastmile_qr_scan"}, "type": "electric_scooter", "lat": 38.86300166666667, "is_reserved": 0, "fusion_lat": 0.0}, {"bike_id": "4448d73362be04825201a634356a9d19", "fusion_lon": 0.0, "lon": -77.0161395, "name": "4448d73362be04825201a634356a9d19", "is_disabled": 0, "rental_uris": {"android": "https://dc.lft.to/lastmile_qr_scan", "ios": "https://dc.lft.to/lastmile_qr_scan"}, "type": "electric_scooter", "lat": 38.89539, "is_reserved": 0, "fusion_lat": 0.0}, {"bike_id": "940cc2f2e7cff241923da0aaad2bb9cc", "fusion_lon": 0.0, "lon": -77.0681995, "name": "940cc2f2e7cff241923da0aaad2bb9cc", "is_disabled": 0, "rental_uris": {"android": "https://dc.lft.to/lastmile_qr_scan", "ios": "https://dc.lft.to/lastmile_qr_scan"}, "type": "electric_scooter", "lat": 38.952907, "is_reserved": 0, "fusion_lat": 0.0}, {"bike_id": "20fb90137f1bac4b73fcab78b51f236e", "fusion_lon": 0.0, "lon": -76.97734133333333, "name": "20fb90137f1bac4b73fcab78b51f236e", "is_disabled": 0, "rental_uris": {"android": "https://dc.lft.to/lastmile_qr_scan", "ios": "https://dc.lft.to/lastmile_qr_scan"}, "type": "electric_scooter", "lat": 38.895188833333336, "is_reserved": 0, "fusion_lat": 0.0}, {"bike_id": "1e29577800f3255f4538fda64398d719", "fusion_lon": 0.0, "lon": -76.93990483333333, "name": "1e29577800f3255f4538fda64398d719", "is_disabled": 0, "rental_uris": {"android": "https://dc.lft.to/lastmile_qr_scan", "ios": "https://dc.lft.to/lastmile_qr_scan"}, "type": "electric_scooter", "lat": 38.8998195, "is_reserved": 0, "fusion_lat": 0.0}, {"bike_id": "9174945f6e5464aeab8661c45b48a52f", "fusion_lon": 0.0, "lon": -77.02376466666666, "name": "9174945f6e5464aeab8661c45b48a52f", "is_disabled": 0, "rental_uris": {"android": "https://dc.lft.to/lastmile_qr_scan", "ios": "https://dc.lft.to/lastmile_qr_scan"}, "type": "electric_scooter", "lat": 38.902061, "is_reserved": 0, "fusion_lat": 0.0}, {"bike_id": "37ff5a211573949cc35f898afb7946b7", "fusion_lon": 0.0, "lon": -77.0275535, "name": "37ff5a211573949cc35f898afb7946b7", "is_disabled": 0, "rental_uris": {"android": "https://dc.lft.to/lastmile_qr_scan", "ios": "https://dc.lft.to/lastmile_qr_scan"}, "type": "electric_scooter", "lat": 38.954307166666666, "is_reserved": 0, "fusion_lat": 0.0}, {"bike_id": "1244867ab2b7b0bb614bc3d98f55b7a3", "fusion_lon": 0.0, "lon": -77.027091, "name": "1244867ab2b7b0bb614bc3d98f55b7a3", "is_disabled": 0, "rental_uris": {"android": "https://dc.lft.to/lastmile_qr_scan", "ios": "https://dc.lft.to/lastmile_qr_scan"}, "type": "electric_scooter", "lat": 38.928824, "is_reserved": 0, "fusion_lat": 0.0}, {"bike_id": "3e3150974c8885c42230e4fa9c296b13", "fusion_lon": 0.0, "lon": -77.03455383333333, "name": "3e3150974c8885c42230e4fa9c296b13", "is_disabled": 0, "rental_uris": {"android": "https://dc.lft.to/lastmile_qr_scan", "ios": "https://dc.lft.to/lastmile_qr_scan"}, "type": "electric_scooter", "lat": 38.90762766666667, "is_reserved": 0, "fusion_lat": 0.0}, {"bike_id": "cb08885539cf34c0c3ee07014722a5ce", "fusion_lon": 0.0, "lon": -76.99778483333333, "name": "cb08885539cf34c0c3ee07014722a5ce", "is_disabled": 0, "rental_uris": {"android": "https://dc.lft.to/lastmile_qr_scan", "ios": "https://dc.lft.to/lastmile_qr_scan"}, "type": "electric_scooter", "lat": 38.8442715, "is_reserved": 0, "fusion_lat": 0.0}, {"bike_id": "ba286881580b695f8363048dfeb0dbe8", "fusion_lon": 0.0, "lon": -76.9463785, "name": "ba286881580b695f8363048dfeb0dbe8", "is_disabled": 0, "rental_uris": {"android": "https://dc.lft.to/lastmile_qr_scan", "ios": "https://dc.lft.to/lastmile_qr_scan"}, "type": "electric_scooter", "lat": 38.898438666666664, "is_reserved": 0, "fusion_lat": 0.0}, {"bike_id": "c312dca5e4526cf0f1dfa39bb3111468", "fusion_lon": 0.0, "lon": -76.95755966666667, "name": "c312dca5e4526cf0f1dfa39bb3111468", "is_disabled": 0, "rental_uris": {"android": "https://dc.lft.to/lastmile_qr_scan", "ios": "https://dc.lft.to/lastmile_qr_scan"}, "type": "electric_scooter", "lat": 38.884296, "is_reserved": 0, "fusion_lat": 0.0}, {"bike_id": "3712f008410831118e72c0b8a9fca215", "fusion_lon": 0.0, "lon": -77.00336866666666, "name": "3712f008410831118e72c0b8a9fca215", "is_disabled": 0, "rental_uris": {"android": "https://dc.lft.to/lastmile_qr_scan", "ios": "https://dc.lft.to/lastmile_qr_scan"}, "type": "electric_scooter", "lat": 38.895223666666666, "is_reserved": 0, "fusion_lat": 0.0}, {"bike_id": "8bbdfc40e3c276804a65b20fd97dd9d6", "fusion_lon": 0.0, "lon": -76.9977255, "name": "8bbdfc40e3c276804a65b20fd97dd9d6", "is_disabled": 0, "rental_uris": {"android": "https://dc.lft.to/lastmile_qr_scan", "ios": "https://dc.lft.to/lastmile_qr_scan"}, "type": "electric_scooter", "lat": 38.84432016666667, "is_reserved": 0, "fusion_lat": 0.0}, {"bike_id": "17256ccf193348be9439db4d7a4cd7b7", "fusion_lon": 0.0, "lon": -77.0202935, "name": "17256ccf193348be9439db4d7a4cd7b7", "is_disabled": 0, "rental_uris": {"android": "https://dc.lft.to/lastmile_qr_scan", "ios": "https://dc.lft.to/lastmile_qr_scan"}, "type": "electric_scooter", "lat": 38.924128833333334, "is_reserved": 0, "fusion_lat": 0.0}, {"bike_id": "c61474ca1f8b4c242b9d234e304caee3", "fusion_lon": 0.0, "lon": -76.97089866666667, "name": "c61474ca1f8b4c242b9d234e304caee3", "is_disabled": 0, "rental_uris": {"android": "https://dc.lft.to/lastmile_qr_scan", "ios": "https://dc.lft.to/lastmile_qr_scan"}, "type": "electric_bike", "lat": 38.857211, "is_reserved": 0, "fusion_lat": 0.0}, {"bike_id": "0e3b8537127b5b10aba2d179aa1b18a8", "fusion_lon": 0.0, "lon": -76.9375375, "name": "0e3b8537127b5b10aba2d179aa1b18a8", "is_disabled": 0, "rental_uris": {"android": "https://dc.lft.to/lastmile_qr_scan", "ios": "https://dc.lft.to/lastmile_qr_scan"}, "type": "electric_scooter", "lat": 38.89046316666666, "is_reserved": 0, "fusion_lat": 0.0}, {"bike_id": "5682b31a657a1fc1f85ee30bef44255d", "fusion_lon": 0.0, "lon": -77.05028666666666, "name": "5682b31a657a1fc1f85ee30bef44255d", "is_disabled": 0, "rental_uris": {"android": "https://dc.lft.to/lastmile_qr_scan", "ios": "https://dc.lft.to/lastmile_qr_scan"}, "type": "electric_scooter", "lat": 38.9008925, "is_reserved": 0, "fusion_lat": 0.0}, {"bike_id": "eaec7bd3e1b57fc2583caeb3f135d033", "fusion_lon": 0.0, "lon": -77.01193633333334, "name": "eaec7bd3e1b57fc2583caeb3f135d033", "is_disabled": 0, "rental_uris": {"android": "https://dc.lft.to/lastmile_qr_scan", "ios": "https://dc.lft.to/lastmile_qr_scan"}, "type": "electric_scooter", "lat": 38.90317233333333, "is_reserved": 0, "fusion_lat": 0.0}, {"bike_id": "2c37450c830f9ebe0af8bf269edc32ea", "fusion_lon": 0.0, "lon": -77.03255583333333, "name": "2c37450c830f9ebe0af8bf269edc32ea", "is_disabled": 0, "rental_uris": {"android": "https://dc.lft.to/lastmile_qr_scan", "ios": "https://dc.lft.to/lastmile_qr_scan"}, "type": "electric_scooter", "lat": 38.93739466666667, "is_reserved": 0, "fusion_lat": 0.0}, {"bike_id": "595706a45c4e743c5712f4bc0356abde", "fusion_lon": 0.0, "lon": -76.9574155, "name": "595706a45c4e743c5712f4bc0356abde", "is_disabled": 0, "rental_uris": {"android": "https://dc.lft.to/lastmile_qr_scan", "ios": "https://dc.lft.to/lastmile_qr_scan"}, "type": "electric_scooter", "lat": 38.896312333333334, "is_reserved": 0, "fusion_lat": 0.0}, {"bike_id": "3a4f7a10fe25230aeba768a07f837718", "fusion_lon": 0.0, "lon": -76.95500383333334, "name": "3a4f7a10fe25230aeba768a07f837718", "is_disabled": 0, "rental_uris": {"android": "https://dc.lft.to/lastmile_qr_scan", "ios": "https://dc.lft.to/lastmile_qr_scan"}, "type": "electric_scooter", "lat": 38.88731083333333, "is_reserved": 0, "fusion_lat": 0.0}, {"bike_id": "d3ef736ce77263d9573a68835463b1a2", "fusion_lon": 0.0, "lon": -77.02689983333333, "name": "d3ef736ce77263d9573a68835463b1a2", "is_disabled": 0, "rental_uris": {"android": "https://dc.lft.to/lastmile_qr_scan", "ios": "https://dc.lft.to/lastmile_qr_scan"}, "type": "electric_scooter", "lat": 38.924005333333334, "is_reserved": 0, "fusion_lat": 0.0}, {"bike_id": "2eeeb926e4e57a9804f8f875d89dba6a", "fusion_lon": 0.0, "lon": -76.990088, "name": "2eeeb926e4e57a9804f8f875d89dba6a", "is_disabled": 0, "rental_uris": {"android": "https://dc.lft.to/lastmile_qr_scan", "ios": "https://dc.lft.to/lastmile_qr_scan"}, "type": "electric_scooter", "lat": 38.858841166666664, "is_reserved": 0, "fusion_lat": 0.0}, {"bike_id": "cfe40ce48b05b82fdf987e07dcc8ac6a", "fusion_lon": 0.0, "lon": -76.98646683333334, "name": "cfe40ce48b05b82fdf987e07dcc8ac6a", "is_disabled": 0, "rental_uris": {"android": "https://dc.lft.to/lastmile_qr_scan", "ios": "https://dc.lft.to/lastmile_qr_scan"}, "type": "electric_scooter", "lat": 38.8673825, "is_reserved": 0, "fusion_lat": 0.0}, {"bike_id": "f90df214a6565537c5ba48fea245b777", "fusion_lon": 0.0, "lon": -77.0383835, "name": "f90df214a6565537c5ba48fea245b777", "is_disabled": 0, "rental_uris": {"android": "https://dc.lft.to/lastmile_qr_scan", "ios": "https://dc.lft.to/lastmile_qr_scan"}, "type": "electric_scooter", "lat": 38.911059333333334, "is_reserved": 0, "fusion_lat": 0.0}, {"bike_id": "41145270dcd63be97edd76bb1bc43728", "fusion_lon": 0.0, "lon": -76.99599916666666, "name": "41145270dcd63be97edd76bb1bc43728", "is_disabled": 0, "rental_uris": {"android": "https://dc.lft.to/lastmile_qr_scan", "ios": "https://dc.lft.to/lastmile_qr_scan"}, "type": "electric_scooter", "lat": 38.8569335, "is_reserved": 0, "fusion_lat": 0.0}, {"bike_id": "22afd914149617c8a9ea55498490a5cc", "fusion_lon": 0.0, "lon": -77.02387966666667, "name": "22afd914149617c8a9ea55498490a5cc", "is_disabled": 0, "rental_uris": {"android": "https://dc.lft.to/lastmile_qr_scan", "ios": "https://dc.lft.to/lastmile_qr_scan"}, "type": "electric_scooter", "lat": 38.9570935, "is_reserved": 0, "fusion_lat": 0.0}, {"bike_id": "0cb0b241dc835cecc0ad3cd65eeae994", "fusion_lon": 0.0, "lon": -77.03314666666667, "name": "0cb0b241dc835cecc0ad3cd65eeae994", "is_disabled": 0, "rental_uris": {"android": "https://dc.lft.to/lastmile_qr_scan", "ios": "https://dc.lft.to/lastmile_qr_scan"}, "type": "electric_scooter", "lat": 38.91556833333333, "is_reserved": 0, "fusion_lat": 0.0}, {"bike_id": "5c960047fa1070dbbb43d9c90b4e3081", "fusion_lon": 0.0, "lon": -77.043469, "name": "5c960047fa1070dbbb43d9c90b4e3081", "is_disabled": 0, "rental_uris": {"android": "https://dc.lft.to/lastmile_qr_scan", "ios": "https://dc.lft.to/lastmile_qr_scan"}, "type": "electric_scooter", "lat": 38.91256216666667, "is_reserved": 0, "fusion_lat": 0.0}, {"bike_id": "b450687b1f02f77b5043308fa66397cb", "fusion_lon": 0.0, "lon": -77.04457016666667, "name": "b450687b1f02f77b5043308fa66397cb", "is_disabled": 0, "rental_uris": {"android": "https://dc.lft.to/lastmile_qr_scan", "ios": "https://dc.lft.to/lastmile_qr_scan"}, "type": "electric_scooter", "lat": 38.9189865, "is_reserved": 0, "fusion_lat": 0.0}, {"bike_id": "4c66af9b0c4e1accd74daccf26d6ff22", "fusion_lon": 0.0, "lon": -77.05388283333333, "name": "4c66af9b0c4e1accd74daccf26d6ff22", "is_disabled": 0, "rental_uris": {"android": "https://dc.lft.to/lastmile_qr_scan", "ios": "https://dc.lft.to/lastmile_qr_scan"}, "type": "electric_scooter", "lat": 38.92814883333333, "is_reserved": 0, "fusion_lat": 0.0}, {"bike_id": "1d82bca0b24adf761173d7f4c00e87cd", "fusion_lon": 0.0, "lon": -77.03095816666666, "name": "1d82bca0b24adf761173d7f4c00e87cd", "is_disabled": 0, "rental_uris": {"android": "https://dc.lft.to/lastmile_qr_scan", "ios": "https://dc.lft.to/lastmile_qr_scan"}, "type": "electric_scooter", "lat": 38.898406, "is_reserved": 0, "fusion_lat": 0.0}, {"bike_id": "18ff596643e6aea872f15d7aead6afc5", "fusion_lon": 0.0, "lon": -77.01741666666666, "name": "18ff596643e6aea872f15d7aead6afc5", "is_disabled": 0, "rental_uris": {"android": "https://dc.lft.to/lastmile_qr_scan", "ios": "https://dc.lft.to/lastmile_qr_scan"}, "type": "electric_scooter", "lat": 38.91118633333333, "is_reserved": 0, "fusion_lat": 0.0}, {"bike_id": "4d9409d945cc8b82859bb2fe52067448", "fusion_lon": 0.0, "lon": -77.0122205, "name": "4d9409d945cc8b82859bb2fe52067448", "is_disabled": 0, "rental_uris": {"android": "https://dc.lft.to/lastmile_qr_scan", "ios": "https://dc.lft.to/lastmile_qr_scan"}, "type": "electric_scooter", "lat": 38.91534883333333, "is_reserved": 0, "fusion_lat": 0.0}, {"bike_id": "f7c948d7784d04acfb2da8245d6ae035", "fusion_lon": 0.0, "lon": -77.02987016666667, "name": "f7c948d7784d04acfb2da8245d6ae035", "is_disabled": 0, "rental_uris": {"android": "https://dc.lft.to/lastmile_qr_scan", "ios": "https://dc.lft.to/lastmile_qr_scan"}, "type": "electric_scooter", "lat": 38.9237115, "is_reserved": 0, "fusion_lat": 0.0}, {"bike_id": "216d2f6c89c9a50833ad76ab844929c9", "fusion_lon": 0.0, "lon": -77.0072595, "name": "216d2f6c89c9a50833ad76ab844929c9", "is_disabled": 0, "rental_uris": {"android": "https://dc.lft.to/lastmile_qr_scan", "ios": "https://dc.lft.to/lastmile_qr_scan"}, "type": "electric_scooter", "lat": 38.88491533333333, "is_reserved": 0, "fusion_lat": 0.0}, {"bike_id": "d0e09508dc0c870ab2ad04ce6e1a02b0", "fusion_lon": 0.0, "lon": -77.02304783333334, "name": "d0e09508dc0c870ab2ad04ce6e1a02b0", "is_disabled": 0, "rental_uris": {"android": "https://dc.lft.to/lastmile_qr_scan", "ios": "https://dc.lft.to/lastmile_qr_scan"}, "type": "electric_scooter", "lat": 38.93597483333333, "is_reserved": 0, "fusion_lat": 0.0}, {"bike_id": "d91b98526758c52b3dc222a341c99b32", "fusion_lon": 0.0, "lon": -77.03288016666667, "name": "d91b98526758c52b3dc222a341c99b32", "is_disabled": 0, "rental_uris": {"android": "https://dc.lft.to/lastmile_qr_scan", "ios": "https://dc.lft.to/lastmile_qr_scan"}, "type": "electric_scooter", "lat": 38.91997216666667, "is_reserved": 0, "fusion_lat": 0.0}, {"bike_id": "16e048cfaec3ae18caef2b232dc6200b", "fusion_lon": 0.0, "lon": -77.03339666666666, "name": "16e048cfaec3ae18caef2b232dc6200b", "is_disabled": 0, "rental_uris": {"android": "https://dc.lft.to/lastmile_qr_scan", "ios": "https://dc.lft.to/lastmile_qr_scan"}, "type": "electric_scooter", "lat": 38.898389333333334, "is_reserved": 0, "fusion_lat": 0.0}, {"bike_id": "13e7a7a40d1a7576c14506499a9de628", "fusion_lon": 0.0, "lon": -77.0160855, "name": "13e7a7a40d1a7576c14506499a9de628", "is_disabled": 0, "rental_uris": {"android": "https://dc.lft.to/lastmile_qr_scan", "ios": "https://dc.lft.to/lastmile_qr_scan"}, "type": "electric_scooter", "lat": 38.89964033333333, "is_reserved": 0, "fusion_lat": 0.0}, {"bike_id": "dcdc26fbb7ae97c3b4321ea6d0155d39", "fusion_lon": 0.0, "lon": -77.00360933333333, "name": "dcdc26fbb7ae97c3b4321ea6d0155d39", "is_disabled": 0, "rental_uris": {"android": "https://dc.lft.to/lastmile_qr_scan", "ios": "https://dc.lft.to/lastmile_qr_scan"}, "type": "electric_scooter", "lat": 38.901237333333334, "is_reserved": 0, "fusion_lat": 0.0}, {"bike_id": "3b0c9916ae1df974348bb94757c4ec42", "fusion_lon": 0.0, "lon": -77.12074583333333, "name": "3b0c9916ae1df974348bb94757c4ec42", "is_disabled": 0, "rental_uris": {"android": "https://dc.lft.to/lastmile_qr_scan", "ios": "https://dc.lft.to/lastmile_qr_scan"}, "type": "electric_bike", "lat": 38.854161833333336, "is_reserved": 0, "fusion_lat": 0.0}, {"bike_id": "ae4bb6c7f467309ebbcc2f10844b5c8b", "fusion_lon": 0.0, "lon": -76.95409516666666, "name": "ae4bb6c7f467309ebbcc2f10844b5c8b", "is_disabled": 0, "rental_uris": {"android": "https://dc.lft.to/lastmile_qr_scan", "ios": "https://dc.lft.to/lastmile_qr_scan"}, "type": "electric_bike", "lat": 38.889981, "is_reserved": 0, "fusion_lat": 0.0}, {"bike_id": "bcb81f8374a32ad7ce0b13e20549f999", "fusion_lon": 0.0, "lon": -77.112466, "name": "bcb81f8374a32ad7ce0b13e20549f999", "is_disabled": 0, "rental_uris": {"android": "https://dc.lft.to/lastmile_qr_scan", "ios": "https://dc.lft.to/lastmile_qr_scan"}, "type": "electric_bike", "lat": 38.85608366666666, "is_reserved": 0, "fusion_lat": 0.0}, {"bike_id": "1384c87fd1377effaf7f4b5e9ff4f358", "fusion_lon": 0.0, "lon": -77.12955116666667, "name": "1384c87fd1377effaf7f4b5e9ff4f358", "is_disabled": 0, "rental_uris": {"android": "https://dc.lft.to/lastmile_qr_scan", "ios": "https://dc.lft.to/lastmile_qr_scan"}, "type": "electric_bike", "lat": 38.852220333333335, "is_reserved": 0, "fusion_lat": 0.0}, {"bike_id": "f2a370afed68cd7860401f379e6fff04", "fusion_lon": 0.0, "lon": -77.01483433333334, "name": "f2a370afed68cd7860401f379e6fff04", "is_disabled": 0, "rental_uris": {"android": "https://dc.lft.to/lastmile_qr_scan", "ios": "https://dc.lft.to/lastmile_qr_scan"}, "type": "electric_scooter", "lat": 38.876309, "is_reserved": 0, "fusion_lat": 0.0}, {"bike_id": "8d7d4e57f492867811c6d9751a55b331", "fusion_lon": 0.0, "lon": -77.05519166666667, "name": "8d7d4e57f492867811c6d9751a55b331", "is_disabled": 0, "rental_uris": {"android": "https://dc.lft.to/lastmile_qr_scan", "ios": "https://dc.lft.to/lastmile_qr_scan"}, "type": "electric_scooter", "lat": 38.897312166666666, "is_reserved": 0, "fusion_lat": 0.0}, {"bike_id": "57875d80f55c807255163eac18d4c72c", "fusion_lon": 0.0, "lon": -77.03108616666667, "name": "57875d80f55c807255163eac18d4c72c", "is_disabled": 0, "rental_uris": {"android": "https://dc.lft.to/lastmile_qr_scan", "ios": "https://dc.lft.to/lastmile_qr_scan"}, "type": "electric_scooter", "lat": 38.919195, "is_reserved": 0, "fusion_lat": 0.0}, {"bike_id": "e94b7fc4c284925d12ee11a745c4c502", "fusion_lon": 0.0, "lon": -77.03873516666667, "name": "e94b7fc4c284925d12ee11a745c4c502", "is_disabled": 0, "rental_uris": {"android": "https://dc.lft.to/lastmile_qr_scan", "ios": "https://dc.lft.to/lastmile_qr_scan"}, "type": "electric_scooter", "lat": 38.917084333333335, "is_reserved": 0, "fusion_lat": 0.0}, {"bike_id": "b834ad987aa3741f66a459b0fc4654ea", "fusion_lon": 0.0, "lon": -77.03388516666666, "name": "b834ad987aa3741f66a459b0fc4654ea", "is_disabled": 0, "rental_uris": {"android": "https://dc.lft.to/lastmile_qr_scan", "ios": "https://dc.lft.to/lastmile_qr_scan"}, "type": "electric_scooter", "lat": 38.919701, "is_reserved": 0, "fusion_lat": 0.0}, {"bike_id": "4954febc3c7f78cf58f99daf90b4d77e", "fusion_lon": 0.0, "lon": -77.03669716666667, "name": "4954febc3c7f78cf58f99daf90b4d77e", "is_disabled": 0, "rental_uris": {"android": "https://dc.lft.to/lastmile_qr_scan", "ios": "https://dc.lft.to/lastmile_qr_scan"}, "type": "electric_scooter", "lat": 38.91706933333333, "is_reserved": 0, "fusion_lat": 0.0}, {"bike_id": "37aff3752fa303095fe3bb6477b73589", "fusion_lon": 0.0, "lon": -76.93226783333333, "name": "37aff3752fa303095fe3bb6477b73589", "is_disabled": 0, "rental_uris": {"android": "https://dc.lft.to/lastmile_qr_scan", "ios": "https://dc.lft.to/lastmile_qr_scan"}, "type": "electric_bike", "lat": 38.865962, "is_reserved": 0, "fusion_lat": 0.0}, {"bike_id": "9663042ddcdcde7b48710f3f18bdf608", "fusion_lon": 0.0, "lon": -77.03466083333333, "name": "9663042ddcdcde7b48710f3f18bdf608", "is_disabled": 0, "rental_uris": {"android": "https://dc.lft.to/lastmile_qr_scan", "ios": "https://dc.lft.to/lastmile_qr_scan"}, "type": "electric_bike", "lat": 38.935302, "is_reserved": 0, "fusion_lat": 0.0}, {"bike_id": "6333cf88803c8ae5ce6a21d369847ab7", "fusion_lon": 0.0, "lon": -77.01741433333333, "name": "6333cf88803c8ae5ce6a21d369847ab7", "is_disabled": 0, "rental_uris": {"android": "https://dc.lft.to/lastmile_qr_scan", "ios": "https://dc.lft.to/lastmile_qr_scan"}, "type": "electric_scooter", "lat": 38.883363, "is_reserved": 0, "fusion_lat": 0.0}, {"bike_id": "db266ca20255727eefa1b677632322ba", "fusion_lon": 0.0, "lon": -77.02868766666667, "name": "db266ca20255727eefa1b677632322ba", "is_disabled": 0, "rental_uris": {"android": "https://dc.lft.to/lastmile_qr_scan", "ios": "https://dc.lft.to/lastmile_qr_scan"}, "type": "electric_scooter", "lat": 38.90443633333334, "is_reserved": 0, "fusion_lat": 0.0}, {"bike_id": "2e140fc25e0be25a665fac869dca8b6f", "fusion_lon": 0.0, "lon": -77.03418483333333, "name": "2e140fc25e0be25a665fac869dca8b6f", "is_disabled": 0, "rental_uris": {"android": "https://dc.lft.to/lastmile_qr_scan", "ios": "https://dc.lft.to/lastmile_qr_scan"}, "type": "electric_scooter", "lat": 38.919225, "is_reserved": 0, "fusion_lat": 0.0}, {"bike_id": "5dc943936ec2e51f0f36bff77c310510", "fusion_lon": 0.0, "lon": -77.03001183333333, "name": "5dc943936ec2e51f0f36bff77c310510", "is_disabled": 0, "rental_uris": {"android": "https://dc.lft.to/lastmile_qr_scan", "ios": "https://dc.lft.to/lastmile_qr_scan"}, "type": "electric_scooter", "lat": 38.917150666666664, "is_reserved": 0, "fusion_lat": 0.0}, {"bike_id": "6a229b49092aa0d00df160150068df62", "fusion_lon": 0.0, "lon": -77.02182983333333, "name": "6a229b49092aa0d00df160150068df62", "is_disabled": 0, "rental_uris": {"android": "https://dc.lft.to/lastmile_qr_scan", "ios": "https://dc.lft.to/lastmile_qr_scan"}, "type": "electric_scooter", "lat": 38.91415666666666, "is_reserved": 0, "fusion_lat": 0.0}, {"bike_id": "023e9813bc619708e9ecd8c5c4273b11", "fusion_lon": 0.0, "lon": -77.02348933333333, "name": "023e9813bc619708e9ecd8c5c4273b11", "is_disabled": 0, "rental_uris": {"android": "https://dc.lft.to/lastmile_qr_scan", "ios": "https://dc.lft.to/lastmile_qr_scan"}, "type": "electric_scooter", "lat": 38.9072805, "is_reserved": 0, "fusion_lat": 0.0}, {"bike_id": "9c1956985cac240e73245da987009361", "fusion_lon": 0.0, "lon": -76.99029083333333, "name": "9c1956985cac240e73245da987009361", "is_disabled": 0, "rental_uris": {"android": "https://dc.lft.to/lastmile_qr_scan", "ios": "https://dc.lft.to/lastmile_qr_scan"}, "type": "electric_scooter", "lat": 38.865243166666666, "is_reserved": 0, "fusion_lat": 0.0}, {"bike_id": "9f72d031a77742d898491fbe6b2c978f", "fusion_lon": 0.0, "lon": -77.03117966666667, "name": "9f72d031a77742d898491fbe6b2c978f", "is_disabled": 0, "rental_uris": {"android": "https://dc.lft.to/lastmile_qr_scan", "ios": "https://dc.lft.to/lastmile_qr_scan"}, "type": "electric_bike", "lat": 38.95926683333333, "is_reserved": 0, "fusion_lat": 0.0}, {"bike_id": "159b3a79c4143ef46de382b2e0046adb", "fusion_lon": 0.0, "lon": -77.028094, "name": "159b3a79c4143ef46de382b2e0046adb", "is_disabled": 0, "rental_uris": {"android": "https://dc.lft.to/lastmile_qr_scan", "ios": "https://dc.lft.to/lastmile_qr_scan"}, "type": "electric_scooter", "lat": 38.91426966666667, "is_reserved": 0, "fusion_lat": 0.0}, {"bike_id": "d991b3f29b559e27ac48e6d1d18b6636", "fusion_lon": 0.0, "lon": -77.0175755, "name": "d991b3f29b559e27ac48e6d1d18b6636", "is_disabled": 0, "rental_uris": {"android": "https://dc.lft.to/lastmile_qr_scan", "ios": "https://dc.lft.to/lastmile_qr_scan"}, "type": "electric_scooter", "lat": 38.90364683333333, "is_reserved": 0, "fusion_lat": 0.0}, {"bike_id": "9529d56b5c2a0a2385a8b9dd2339957a", "fusion_lon": 0.0, "lon": -76.99813516666667, "name": "9529d56b5c2a0a2385a8b9dd2339957a", "is_disabled": 0, "rental_uris": {"android": "https://dc.lft.to/lastmile_qr_scan", "ios": "https://dc.lft.to/lastmile_qr_scan"}, "type": "electric_scooter", "lat": 38.844292, "is_reserved": 0, "fusion_lat": 0.0}, {"bike_id": "5b06bba4898de88cf661cddc502e6a2b", "fusion_lon": 0.0, "lon": -77.05232233333334, "name": "5b06bba4898de88cf661cddc502e6a2b", "is_disabled": 0, "rental_uris": {"android": "https://dc.lft.to/lastmile_qr_scan", "ios": "https://dc.lft.to/lastmile_qr_scan"}, "type": "electric_scooter", "lat": 38.927007, "is_reserved": 0, "fusion_lat": 0.0}, {"bike_id": "e41e16c3e825e2f3d0c17a9c13f5c2be", "fusion_lon": 0.0, "lon": -76.986505, "name": "e41e16c3e825e2f3d0c17a9c13f5c2be", "is_disabled": 0, "rental_uris": {"android": "https://dc.lft.to/lastmile_qr_scan", "ios": "https://dc.lft.to/lastmile_qr_scan"}, "type": "electric_scooter", "lat": 38.858092, "is_reserved": 0, "fusion_lat": 0.0}, {"bike_id": "f2fa8c9430dc6561379478188ce01537", "fusion_lon": 0.0, "lon": -77.03470066666667, "name": "f2fa8c9430dc6561379478188ce01537", "is_disabled": 0, "rental_uris": {"android": "https://dc.lft.to/lastmile_qr_scan", "ios": "https://dc.lft.to/lastmile_qr_scan"}, "type": "electric_scooter", "lat": 38.908055, "is_reserved": 0, "fusion_lat": 0.0}, {"bike_id": "5fe8fb4f04c129979c96f3a6a76ee5d4", "fusion_lon": 0.0, "lon": -77.02599333333333, "name": "5fe8fb4f04c129979c96f3a6a76ee5d4", "is_disabled": 0, "rental_uris": {"android": "https://dc.lft.to/lastmile_qr_scan", "ios": "https://dc.lft.to/lastmile_qr_scan"}, "type": "electric_scooter", "lat": 38.91692183333333, "is_reserved": 0, "fusion_lat": 0.0}, {"bike_id": "163e14846dddf4c398292090c077a600", "fusion_lon": 0.0, "lon": -77.00966016666666, "name": "163e14846dddf4c398292090c077a600", "is_disabled": 0, "rental_uris": {"android": "https://dc.lft.to/lastmile_qr_scan", "ios": "https://dc.lft.to/lastmile_qr_scan"}, "type": "electric_scooter", "lat": 38.90788516666667, "is_reserved": 0, "fusion_lat": 0.0}, {"bike_id": "1b2f04206450eeb254068acfd8d13a8c", "fusion_lon": 0.0, "lon": -77.024031, "name": "1b2f04206450eeb254068acfd8d13a8c", "is_disabled": 0, "rental_uris": {"android": "https://dc.lft.to/lastmile_qr_scan", "ios": "https://dc.lft.to/lastmile_qr_scan"}, "type": "electric_bike", "lat": 38.934669666666665, "is_reserved": 0, "fusion_lat": 0.0}, {"bike_id": "08a0f86b39518236736411faed50656f", "fusion_lon": 0.0, "lon": -76.98924083333333, "name": "08a0f86b39518236736411faed50656f", "is_disabled": 0, "rental_uris": {"android": "https://dc.lft.to/lastmile_qr_scan", "ios": "https://dc.lft.to/lastmile_qr_scan"}, "type": "electric_scooter", "lat": 38.85809183333333, "is_reserved": 0, "fusion_lat": 0.0}, {"bike_id": "8a5d5d6ca4773fc770b26ba3b4ca05f9", "fusion_lon": 0.0, "lon": -77.01987716666666, "name": "8a5d5d6ca4773fc770b26ba3b4ca05f9", "is_disabled": 0, "rental_uris": {"android": "https://dc.lft.to/lastmile_qr_scan", "ios": "https://dc.lft.to/lastmile_qr_scan"}, "type": "electric_bike", "lat": 38.922789333333334, "is_reserved": 0, "fusion_lat": 0.0}, {"bike_id": "1b5b6101f31d4fe129812c53e8ea081a", "fusion_lon": 0.0, "lon": -77.01656333333334, "name": "1b5b6101f31d4fe129812c53e8ea081a", "is_disabled": 0, "rental_uris": {"android": "https://dc.lft.to/lastmile_qr_scan", "ios": "https://dc.lft.to/lastmile_qr_scan"}, "type": "electric_scooter", "lat": 38.88118266666667, "is_reserved": 0, "fusion_lat": 0.0}, {"bike_id": "527f195eca81da0420ada18da32fff11", "fusion_lon": 0.0, "lon": -77.03842583333333, "name": "527f195eca81da0420ada18da32fff11", "is_disabled": 0, "rental_uris": {"android": "https://dc.lft.to/lastmile_qr_scan", "ios": "https://dc.lft.to/lastmile_qr_scan"}, "type": "electric_scooter", "lat": 38.909562333333334, "is_reserved": 0, "fusion_lat": 0.0}, {"bike_id": "74b5772fb113a983270b7e4a07c1f3ca", "fusion_lon": 0.0, "lon": -77.05135166666666, "name": "74b5772fb113a983270b7e4a07c1f3ca", "is_disabled": 0, "rental_uris": {"android": "https://dc.lft.to/lastmile_qr_scan", "ios": "https://dc.lft.to/lastmile_qr_scan"}, "type": "electric_scooter", "lat": 38.90552666666667, "is_reserved": 0, "fusion_lat": 0.0}, {"bike_id": "bc61970e06fb186044757e6cc857746f", "fusion_lon": 0.0, "lon": -77.03229883333333, "name": "bc61970e06fb186044757e6cc857746f", "is_disabled": 0, "rental_uris": {"android": "https://dc.lft.to/lastmile_qr_scan", "ios": "https://dc.lft.to/lastmile_qr_scan"}, "type": "electric_scooter", "lat": 38.91405683333333, "is_reserved": 0, "fusion_lat": 0.0}, {"bike_id": "476b37cb162e130ba0d28944c9c61d86", "fusion_lon": 0.0, "lon": -77.02391716666666, "name": "476b37cb162e130ba0d28944c9c61d86", "is_disabled": 0, "rental_uris": {"android": "https://dc.lft.to/lastmile_qr_scan", "ios": "https://dc.lft.to/lastmile_qr_scan"}, "type": "electric_scooter", "lat": 38.89722233333333, "is_reserved": 0, "fusion_lat": 0.0}, {"bike_id": "5f09908e207fa190bfca56fca0d1f931", "fusion_lon": 0.0, "lon": -77.03114933333333, "name": "5f09908e207fa190bfca56fca0d1f931", "is_disabled": 0, "rental_uris": {"android": "https://dc.lft.to/lastmile_qr_scan", "ios": "https://dc.lft.to/lastmile_qr_scan"}, "type": "electric_scooter", "lat": 38.91716483333333, "is_reserved": 0, "fusion_lat": 0.0}, {"bike_id": "62eec6b9a1615cc2d3c29aab2819fa64", "fusion_lon": 0.0, "lon": -77.03327133333333, "name": "62eec6b9a1615cc2d3c29aab2819fa64", "is_disabled": 0, "rental_uris": {"android": "https://dc.lft.to/lastmile_qr_scan", "ios": "https://dc.lft.to/lastmile_qr_scan"}, "type": "electric_scooter", "lat": 38.898492, "is_reserved": 0, "fusion_lat": 0.0}, {"bike_id": "1613aefd996659622f63db4b410c5c02", "fusion_lon": 0.0, "lon": -77.032321, "name": "1613aefd996659622f63db4b410c5c02", "is_disabled": 0, "rental_uris": {"android": "https://dc.lft.to/lastmile_qr_scan", "ios": "https://dc.lft.to/lastmile_qr_scan"}, "type": "electric_scooter", "lat": 38.927623, "is_reserved": 0, "fusion_lat": 0.0}, {"bike_id": "cd6fba01542f1a27db84b90da5936c56", "fusion_lon": 0.0, "lon": -76.99948566666667, "name": "cd6fba01542f1a27db84b90da5936c56", "is_disabled": 0, "rental_uris": {"android": "https://dc.lft.to/lastmile_qr_scan", "ios": "https://dc.lft.to/lastmile_qr_scan"}, "type": "electric_scooter", "lat": 38.842976166666666, "is_reserved": 0, "fusion_lat": 0.0}, {"bike_id": "959b6b5b9f389a833c6a4c95fb45cd25", "fusion_lon": 0.0, "lon": -77.0342315, "name": "959b6b5b9f389a833c6a4c95fb45cd25", "is_disabled": 0, "rental_uris": {"android": "https://dc.lft.to/lastmile_qr_scan", "ios": "https://dc.lft.to/lastmile_qr_scan"}, "type": "electric_scooter", "lat": 38.904281, "is_reserved": 0, "fusion_lat": 0.0}, {"bike_id": "653aaa3b3da3d16c7801f312bd81f339", "fusion_lon": 0.0, "lon": -77.0419325, "name": "653aaa3b3da3d16c7801f312bd81f339", "is_disabled": 0, "rental_uris": {"android": "https://dc.lft.to/lastmile_qr_scan", "ios": "https://dc.lft.to/lastmile_qr_scan"}, "type": "electric_scooter", "lat": 38.926337833333335, "is_reserved": 0, "fusion_lat": 0.0}, {"bike_id": "10d322dc1e63cb7d94802614041cb9d4", "fusion_lon": 0.0, "lon": -77.03257416666666, "name": "10d322dc1e63cb7d94802614041cb9d4", "is_disabled": 0, "rental_uris": {"android": "https://dc.lft.to/lastmile_qr_scan", "ios": "https://dc.lft.to/lastmile_qr_scan"}, "type": "electric_scooter", "lat": 38.914044, "is_reserved": 0, "fusion_lat": 0.0}, {"bike_id": "265c986b8ee37ec84c43e4a74102e22f", "fusion_lon": 0.0, "lon": -77.003251, "name": "265c986b8ee37ec84c43e4a74102e22f", "is_disabled": 0, "rental_uris": {"android": "https://dc.lft.to/lastmile_qr_scan", "ios": "https://dc.lft.to/lastmile_qr_scan"}, "type": "electric_scooter", "lat": 38.90264533333333, "is_reserved": 0, "fusion_lat": 0.0}, {"bike_id": "5686b680e737ab6dba990ac1c0908448", "fusion_lon": 0.0, "lon": -76.98113783333334, "name": "5686b680e737ab6dba990ac1c0908448", "is_disabled": 0, "rental_uris": {"android": "https://dc.lft.to/lastmile_qr_scan", "ios": "https://dc.lft.to/lastmile_qr_scan"}, "type": "electric_bike", "lat": 38.91474083333333, "is_reserved": 0, "fusion_lat": 0.0}, {"bike_id": "db0140500106626874188e7239898720", "fusion_lon": 0.0, "lon": -76.91158116666666, "name": "db0140500106626874188e7239898720", "is_disabled": 0, "rental_uris": {"android": "https://dc.lft.to/lastmile_qr_scan", "ios": "https://dc.lft.to/lastmile_qr_scan"}, "type": "electric_scooter", "lat": 38.8940475, "is_reserved": 0, "fusion_lat": 0.0}, {"bike_id": "e4ffdf2c0831c639805ca91069c19507", "fusion_lon": 0.0, "lon": -77.0200525, "name": "e4ffdf2c0831c639805ca91069c19507", "is_disabled": 0, "rental_uris": {"android": "https://dc.lft.to/lastmile_qr_scan", "ios": "https://dc.lft.to/lastmile_qr_scan"}, "type": "electric_scooter", "lat": 38.91312933333333, "is_reserved": 0, "fusion_lat": 0.0}, {"bike_id": "c4e4e313ba75f9bd27265ff22a8472b0", "fusion_lon": 0.0, "lon": -76.99412133333334, "name": "c4e4e313ba75f9bd27265ff22a8472b0", "is_disabled": 0, "rental_uris": {"android": "https://dc.lft.to/lastmile_qr_scan", "ios": "https://dc.lft.to/lastmile_qr_scan"}, "type": "electric_scooter", "lat": 38.87783066666667, "is_reserved": 0, "fusion_lat": 0.0}, {"bike_id": "c26ac609bf3ef614f56545d35e008ef1", "fusion_lon": 0.0, "lon": -77.021882, "name": "c26ac609bf3ef614f56545d35e008ef1", "is_disabled": 0, "rental_uris": {"android": "https://dc.lft.to/lastmile_qr_scan", "ios": "https://dc.lft.to/lastmile_qr_scan"}, "type": "electric_scooter", "lat": 38.91146966666667, "is_reserved": 0, "fusion_lat": 0.0}, {"bike_id": "d59589f89363e91351bc641840385da3", "fusion_lon": 0.0, "lon": -77.04079666666667, "name": "d59589f89363e91351bc641840385da3", "is_disabled": 0, "rental_uris": {"android": "https://dc.lft.to/lastmile_qr_scan", "ios": "https://dc.lft.to/lastmile_qr_scan"}, "type": "electric_scooter", "lat": 38.917003666666666, "is_reserved": 0, "fusion_lat": 0.0}, {"bike_id": "904b63bbba42c4823bed04b2a9a3612d", "fusion_lon": 0.0, "lon": -77.05416533333333, "name": "904b63bbba42c4823bed04b2a9a3612d", "is_disabled": 0, "rental_uris": {"android": "https://dc.lft.to/lastmile_qr_scan", "ios": "https://dc.lft.to/lastmile_qr_scan"}, "type": "electric_scooter", "lat": 38.9024585, "is_reserved": 0, "fusion_lat": 0.0}, {"bike_id": "baaafb35ab8cf4bee13135f9daccfc18", "fusion_lon": 0.0, "lon": -77.07725016666667, "name": "baaafb35ab8cf4bee13135f9daccfc18", "is_disabled": 0, "rental_uris": {"android": "https://dc.lft.to/lastmile_qr_scan", "ios": "https://dc.lft.to/lastmile_qr_scan"}, "type": "electric_scooter", "lat": 38.957716, "is_reserved": 0, "fusion_lat": 0.0}, {"bike_id": "ea10e1ae415c76afa87b112ec8ff37f1", "fusion_lon": 0.0, "lon": -77.02349483333333, "name": "ea10e1ae415c76afa87b112ec8ff37f1", "is_disabled": 0, "rental_uris": {"android": "https://dc.lft.to/lastmile_qr_scan", "ios": "https://dc.lft.to/lastmile_qr_scan"}, "type": "electric_scooter", "lat": 38.9461365, "is_reserved": 0, "fusion_lat": 0.0}, {"bike_id": "349843a68069b4b5315083ef10d721a3", "fusion_lon": 0.0, "lon": -76.98836316666667, "name": "349843a68069b4b5315083ef10d721a3", "is_disabled": 0, "rental_uris": {"android": "https://dc.lft.to/lastmile_qr_scan", "ios": "https://dc.lft.to/lastmile_qr_scan"}, "type": "electric_scooter", "lat": 38.892525666666664, "is_reserved": 0, "fusion_lat": 0.0}, {"bike_id": "5a0062145fd77b56b266526651565fd4", "fusion_lon": 0.0, "lon": -77.03258666666666, "name": "5a0062145fd77b56b266526651565fd4", "is_disabled": 0, "rental_uris": {"android": "https://dc.lft.to/lastmile_qr_scan", "ios": "https://dc.lft.to/lastmile_qr_scan"}, "type": "electric_scooter", "lat": 38.914085, "is_reserved": 0, "fusion_lat": 0.0}, {"bike_id": "ea5cb34c0b8b86e1ff9b00fae0a4557b", "fusion_lon": 0.0, "lon": -77.025053, "name": "ea5cb34c0b8b86e1ff9b00fae0a4557b", "is_disabled": 0, "rental_uris": {"android": "https://dc.lft.to/lastmile_qr_scan", "ios": "https://dc.lft.to/lastmile_qr_scan"}, "type": "electric_scooter", "lat": 38.904088333333334, "is_reserved": 0, "fusion_lat": 0.0}, {"bike_id": "7717f2e754ffced5aefdeebcb3960327", "fusion_lon": 0.0, "lon": -76.9871275, "name": "7717f2e754ffced5aefdeebcb3960327", "is_disabled": 0, "rental_uris": {"android": "https://dc.lft.to/lastmile_qr_scan", "ios": "https://dc.lft.to/lastmile_qr_scan"}, "type": "electric_scooter", "lat": 38.8670015, "is_reserved": 0, "fusion_lat": 0.0}, {"bike_id": "468b958fe7923b6b29c4aeef9a130a2a", "fusion_lon": 0.0, "lon": -77.014544, "name": "468b958fe7923b6b29c4aeef9a130a2a", "is_disabled": 0, "rental_uris": {"android": "https://dc.lft.to/lastmile_qr_scan", "ios": "https://dc.lft.to/lastmile_qr_scan"}, "type": "electric_scooter", "lat": 38.918197166666666, "is_reserved": 0, "fusion_lat": 0.0}, {"bike_id": "f20632a23c00b64b8dbaac55a4e01e81", "fusion_lon": 0.0, "lon": -77.03915116666667, "name": "f20632a23c00b64b8dbaac55a4e01e81", "is_disabled": 0, "rental_uris": {"android": "https://dc.lft.to/lastmile_qr_scan", "ios": "https://dc.lft.to/lastmile_qr_scan"}, "type": "electric_scooter", "lat": 38.924728333333334, "is_reserved": 0, "fusion_lat": 0.0}, {"bike_id": "ae90baf36a31372b54c676270beda46f", "fusion_lon": 0.0, "lon": -77.0209605, "name": "ae90baf36a31372b54c676270beda46f", "is_disabled": 0, "rental_uris": {"android": "https://dc.lft.to/lastmile_qr_scan", "ios": "https://dc.lft.to/lastmile_qr_scan"}, "type": "electric_scooter", "lat": 38.931172, "is_reserved": 0, "fusion_lat": 0.0}, {"bike_id": "d19d95b48cac1ff925a3515508588af6", "fusion_lon": 0.0, "lon": -76.99905366666667, "name": "d19d95b48cac1ff925a3515508588af6", "is_disabled": 0, "rental_uris": {"android": "https://dc.lft.to/lastmile_qr_scan", "ios": "https://dc.lft.to/lastmile_qr_scan"}, "type": "electric_scooter", "lat": 38.946905666666666, "is_reserved": 0, "fusion_lat": 0.0}, {"bike_id": "6e9ce4c0ee2f05ee9dcd1bc8074cb3c6", "fusion_lon": 0.0, "lon": -77.0298005, "name": "6e9ce4c0ee2f05ee9dcd1bc8074cb3c6", "is_disabled": 0, "rental_uris": {"android": "https://dc.lft.to/lastmile_qr_scan", "ios": "https://dc.lft.to/lastmile_qr_scan"}, "type": "electric_scooter", "lat": 38.934491, "is_reserved": 0, "fusion_lat": 0.0}, {"bike_id": "c29ff6a8e46c4b26048307c5c8ccd75c", "fusion_lon": 0.0, "lon": -77.02713483333333, "name": "c29ff6a8e46c4b26048307c5c8ccd75c", "is_disabled": 0, "rental_uris": {"android": "https://dc.lft.to/lastmile_qr_scan", "ios": "https://dc.lft.to/lastmile_qr_scan"}, "type": "electric_scooter", "lat": 38.90668433333333, "is_reserved": 0, "fusion_lat": 0.0}, {"bike_id": "ac1596dbb8c55767695ae4e94cca21be", "fusion_lon": 0.0, "lon": -77.03840166666667, "name": "ac1596dbb8c55767695ae4e94cca21be", "is_disabled": 0, "rental_uris": {"android": "https://dc.lft.to/lastmile_qr_scan", "ios": "https://dc.lft.to/lastmile_qr_scan"}, "type": "electric_scooter", "lat": 38.909621, "is_reserved": 0, "fusion_lat": 0.0}, {"bike_id": "d9b63323d3a9935ea84493b89a495193", "fusion_lon": 0.0, "lon": -77.03475316666666, "name": "d9b63323d3a9935ea84493b89a495193", "is_disabled": 0, "rental_uris": {"android": "https://dc.lft.to/lastmile_qr_scan", "ios": "https://dc.lft.to/lastmile_qr_scan"}, "type": "electric_scooter", "lat": 38.93275633333333, "is_reserved": 0, "fusion_lat": 0.0}, {"bike_id": "ade16da06d2c130ed59904fdfcb86a38", "fusion_lon": 0.0, "lon": -77.03652916666667, "name": "ade16da06d2c130ed59904fdfcb86a38", "is_disabled": 0, "rental_uris": {"android": "https://dc.lft.to/lastmile_qr_scan", "ios": "https://dc.lft.to/lastmile_qr_scan"}, "type": "electric_scooter", "lat": 38.920914833333335, "is_reserved": 0, "fusion_lat": 0.0}, {"bike_id": "3b5e778ee3f25d5764ff1661ca988f2e", "fusion_lon": 0.0, "lon": -77.03270983333333, "name": "3b5e778ee3f25d5764ff1661ca988f2e", "is_disabled": 0, "rental_uris": {"android": "https://dc.lft.to/lastmile_qr_scan", "ios": "https://dc.lft.to/lastmile_qr_scan"}, "type": "electric_scooter", "lat": 38.933017166666666, "is_reserved": 0, "fusion_lat": 0.0}, {"bike_id": "afa837dd47716fe05cbd955fde3c6278", "fusion_lon": 0.0, "lon": -77.05295916666667, "name": "afa837dd47716fe05cbd955fde3c6278", "is_disabled": 0, "rental_uris": {"android": "https://dc.lft.to/lastmile_qr_scan", "ios": "https://dc.lft.to/lastmile_qr_scan"}, "type": "electric_scooter", "lat": 38.92713283333333, "is_reserved": 0, "fusion_lat": 0.0}, {"bike_id": "e0420af3583a0304094c896c7ed80748", "fusion_lon": 0.0, "lon": -77.00570483333334, "name": "e0420af3583a0304094c896c7ed80748", "is_disabled": 0, "rental_uris": {"android": "https://dc.lft.to/lastmile_qr_scan", "ios": "https://dc.lft.to/lastmile_qr_scan"}, "type": "electric_scooter", "lat": 38.9057645, "is_reserved": 0, "fusion_lat": 0.0}, {"bike_id": "c4122b060326fc39205e944f7c709bd8", "fusion_lon": 0.0, "lon": -77.0027205, "name": "c4122b060326fc39205e944f7c709bd8", "is_disabled": 0, "rental_uris": {"android": "https://dc.lft.to/lastmile_qr_scan", "ios": "https://dc.lft.to/lastmile_qr_scan"}, "type": "electric_scooter", "lat": 38.90907633333333, "is_reserved": 0, "fusion_lat": 0.0}, {"bike_id": "eb4aca260d9ecb90ce052a493d9257bf", "fusion_lon": 0.0, "lon": -77.02288733333333, "name": "eb4aca260d9ecb90ce052a493d9257bf", "is_disabled": 0, "rental_uris": {"android": "https://dc.lft.to/lastmile_qr_scan", "ios": "https://dc.lft.to/lastmile_qr_scan"}, "type": "electric_scooter", "lat": 38.915721166666664, "is_reserved": 0, "fusion_lat": 0.0}, {"bike_id": "6a8ad07dbc1121997d7f9c6240ee0464", "fusion_lon": 0.0, "lon": -77.0542305, "name": "6a8ad07dbc1121997d7f9c6240ee0464", "is_disabled": 0, "rental_uris": {"android": "https://dc.lft.to/lastmile_qr_scan", "ios": "https://dc.lft.to/lastmile_qr_scan"}, "type": "electric_scooter", "lat": 38.9235755, "is_reserved": 0, "fusion_lat": 0.0}, {"bike_id": "56b55e7fd46ebc8ffa333d4611ff8655", "fusion_lon": 0.0, "lon": -77.038021, "name": "56b55e7fd46ebc8ffa333d4611ff8655", "is_disabled": 0, "rental_uris": {"android": "https://dc.lft.to/lastmile_qr_scan", "ios": "https://dc.lft.to/lastmile_qr_scan"}, "type": "electric_scooter", "lat": 38.921855666666666, "is_reserved": 0, "fusion_lat": 0.0}, {"bike_id": "451cf232884182d947c81ce4c9882733", "fusion_lon": 0.0, "lon": -77.05326683333334, "name": "451cf232884182d947c81ce4c9882733", "is_disabled": 0, "rental_uris": {"android": "https://dc.lft.to/lastmile_qr_scan", "ios": "https://dc.lft.to/lastmile_qr_scan"}, "type": "electric_scooter", "lat": 38.90408566666667, "is_reserved": 0, "fusion_lat": 0.0}, {"bike_id": "574e0ce39212fdf0fb73c813220dca78", "fusion_lon": 0.0, "lon": -77.05269783333334, "name": "574e0ce39212fdf0fb73c813220dca78", "is_disabled": 0, "rental_uris": {"android": "https://dc.lft.to/lastmile_qr_scan", "ios": "https://dc.lft.to/lastmile_qr_scan"}, "type": "electric_scooter", "lat": 38.899714833333334, "is_reserved": 0, "fusion_lat": 0.0}, {"bike_id": "3fc771173ac54d10f67070ce3b4ea06c", "fusion_lon": 0.0, "lon": -77.0097645, "name": "3fc771173ac54d10f67070ce3b4ea06c", "is_disabled": 0, "rental_uris": {"android": "https://dc.lft.to/lastmile_qr_scan", "ios": "https://dc.lft.to/lastmile_qr_scan"}, "type": "electric_scooter", "lat": 38.91563, "is_reserved": 0, "fusion_lat": 0.0}, {"bike_id": "261ebbf7e9769b093f12a694d5345450", "fusion_lon": 0.0, "lon": -77.028437, "name": "261ebbf7e9769b093f12a694d5345450", "is_disabled": 0, "rental_uris": {"android": "https://dc.lft.to/lastmile_qr_scan", "ios": "https://dc.lft.to/lastmile_qr_scan"}, "type": "electric_bike", "lat": 38.93415683333333, "is_reserved": 0, "fusion_lat": 0.0}, {"bike_id": "b3432233a10378b808488b264e09794c", "fusion_lon": 0.0, "lon": -77.010927, "name": "b3432233a10378b808488b264e09794c", "is_disabled": 0, "rental_uris": {"android": "https://dc.lft.to/lastmile_qr_scan", "ios": "https://dc.lft.to/lastmile_qr_scan"}, "type": "electric_scooter", "lat": 38.89525733333333, "is_reserved": 0, "fusion_lat": 0.0}, {"bike_id": "373897c8090bb9a9a67adf111b64094e", "fusion_lon": 0.0, "lon": -77.02521033333333, "name": "373897c8090bb9a9a67adf111b64094e", "is_disabled": 0, "rental_uris": {"android": "https://dc.lft.to/lastmile_qr_scan", "ios": "https://dc.lft.to/lastmile_qr_scan"}, "type": "electric_scooter", "lat": 38.914862, "is_reserved": 0, "fusion_lat": 0.0}, {"bike_id": "5fd977ad13d5911533f4c3616bd45cce", "fusion_lon": 0.0, "lon": -77.02692683333333, "name": "5fd977ad13d5911533f4c3616bd45cce", "is_disabled": 0, "rental_uris": {"android": "https://dc.lft.to/lastmile_qr_scan", "ios": "https://dc.lft.to/lastmile_qr_scan"}, "type": "electric_scooter", "lat": 38.906788666666664, "is_reserved": 0, "fusion_lat": 0.0}, {"bike_id": "ef7188cd5bb0a2775bc0654897ac8a56", "fusion_lon": 0.0, "lon": -76.96526666666666, "name": "ef7188cd5bb0a2775bc0654897ac8a56", "is_disabled": 0, "rental_uris": {"android": "https://dc.lft.to/lastmile_qr_scan", "ios": "https://dc.lft.to/lastmile_qr_scan"}, "type": "electric_bike", "lat": 38.874789166666666, "is_reserved": 0, "fusion_lat": 0.0}, {"bike_id": "3dd490d1f865ecca991d019f4006e13e", "fusion_lon": 0.0, "lon": -77.02284283333333, "name": "3dd490d1f865ecca991d019f4006e13e", "is_disabled": 0, "rental_uris": {"android": "https://dc.lft.to/lastmile_qr_scan", "ios": "https://dc.lft.to/lastmile_qr_scan"}, "type": "electric_scooter", "lat": 38.89678883333333, "is_reserved": 0, "fusion_lat": 0.0}, {"bike_id": "f9088885a7beb0a6b7e87ec10e8c81b8", "fusion_lon": 0.0, "lon": -77.22223516666666, "name": "f9088885a7beb0a6b7e87ec10e8c81b8", "is_disabled": 0, "rental_uris": {"android": "https://dc.lft.to/lastmile_qr_scan", "ios": "https://dc.lft.to/lastmile_qr_scan"}, "type": "electric_bike", "lat": 38.9285175, "is_reserved": 0, "fusion_lat": 0.0}, {"bike_id": "c87c9b2bd40f1026f7c6cec13bc211a1", "fusion_lon": 0.0, "lon": -76.97895616666666, "name": "c87c9b2bd40f1026f7c6cec13bc211a1", "is_disabled": 0, "rental_uris": {"android": "https://dc.lft.to/lastmile_qr_scan", "ios": "https://dc.lft.to/lastmile_qr_scan"}, "type": "electric_bike", "lat": 38.91584666666667, "is_reserved": 0, "fusion_lat": 0.0}, {"bike_id": "6711bed70df8ead4a469a6c0b3c1f6a8", "fusion_lon": 0.0, "lon": -77.03148666666667, "name": "6711bed70df8ead4a469a6c0b3c1f6a8", "is_disabled": 0, "rental_uris": {"android": "https://dc.lft.to/lastmile_qr_scan", "ios": "https://dc.lft.to/lastmile_qr_scan"}, "type": "electric_scooter", "lat": 38.92794683333334, "is_reserved": 0, "fusion_lat": 0.0}, {"bike_id": "3baff7e86100967e43d8139649370248", "fusion_lon": 0.0, "lon": -76.93988766666666, "name": "3baff7e86100967e43d8139649370248", "is_disabled": 0, "rental_uris": {"android": "https://dc.lft.to/lastmile_qr_scan", "ios": "https://dc.lft.to/lastmile_qr_scan"}, "type": "electric_scooter", "lat": 38.8998215, "is_reserved": 0, "fusion_lat": 0.0}, {"bike_id": "8ef6ca60c6169f27d735f313eb75365b", "fusion_lon": 0.0, "lon": -77.03172883333333, "name": "8ef6ca60c6169f27d735f313eb75365b", "is_disabled": 0, "rental_uris": {"android": "https://dc.lft.to/lastmile_qr_scan", "ios": "https://dc.lft.to/lastmile_qr_scan"}, "type": "electric_scooter", "lat": 38.918301166666666, "is_reserved": 0, "fusion_lat": 0.0}, {"bike_id": "eb662645393687142c1a803f4e2c76ca", "fusion_lon": 0.0, "lon": -77.17838983333333, "name": "eb662645393687142c1a803f4e2c76ca", "is_disabled": 0, "rental_uris": {"android": "https://dc.lft.to/lastmile_qr_scan", "ios": "https://dc.lft.to/lastmile_qr_scan"}, "type": "electric_bike", "lat": 39.0885855, "is_reserved": 0, "fusion_lat": 0.0}, {"bike_id": "1353eecf6a9bce150481ed9c2442587d", "fusion_lon": 0.0, "lon": -77.021721, "name": "1353eecf6a9bce150481ed9c2442587d", "is_disabled": 0, "rental_uris": {"android": "https://dc.lft.to/lastmile_qr_scan", "ios": "https://dc.lft.to/lastmile_qr_scan"}, "type": "electric_scooter", "lat": 38.94598933333333, "is_reserved": 0, "fusion_lat": 0.0}, {"bike_id": "81674d12ef867139c48da78f41443e0e", "fusion_lon": 0.0, "lon": -76.93157383333333, "name": "81674d12ef867139c48da78f41443e0e", "is_disabled": 0, "rental_uris": {"android": "https://dc.lft.to/lastmile_qr_scan", "ios": "https://dc.lft.to/lastmile_qr_scan"}, "type": "electric_scooter", "lat": 38.89878566666667, "is_reserved": 0, "fusion_lat": 0.0}, {"bike_id": "5691403db598bb9d67ab07ad9a41191f", "fusion_lon": 0.0, "lon": -77.03101416666667, "name": "5691403db598bb9d67ab07ad9a41191f", "is_disabled": 0, "rental_uris": {"android": "https://dc.lft.to/lastmile_qr_scan", "ios": "https://dc.lft.to/lastmile_qr_scan"}, "type": "electric_scooter", "lat": 38.92385483333333, "is_reserved": 0, "fusion_lat": 0.0}, {"bike_id": "cff71001a23ed7bce4ff7ebfaa0e61be", "fusion_lon": 0.0, "lon": -77.02322016666666, "name": "cff71001a23ed7bce4ff7ebfaa0e61be", "is_disabled": 0, "rental_uris": {"android": "https://dc.lft.to/lastmile_qr_scan", "ios": "https://dc.lft.to/lastmile_qr_scan"}, "type": "electric_scooter", "lat": 38.9073665, "is_reserved": 0, "fusion_lat": 0.0}, {"bike_id": "5820012c6ac0a729d55368756039c38d", "fusion_lon": 0.0, "lon": -77.00109366666666, "name": "5820012c6ac0a729d55368756039c38d", "is_disabled": 0, "rental_uris": {"android": "https://dc.lft.to/lastmile_qr_scan", "ios": "https://dc.lft.to/lastmile_qr_scan"}, "type": "electric_scooter", "lat": 38.917046166666665, "is_reserved": 0, "fusion_lat": 0.0}, {"bike_id": "ff8fa073d8d2f27957e0cfdacb9a298e", "fusion_lon": 0.0, "lon": -77.02165866666667, "name": "ff8fa073d8d2f27957e0cfdacb9a298e", "is_disabled": 0, "rental_uris": {"android": "https://dc.lft.to/lastmile_qr_scan", "ios": "https://dc.lft.to/lastmile_qr_scan"}, "type": "electric_scooter", "lat": 38.88498966666667, "is_reserved": 0, "fusion_lat": 0.0}, {"bike_id": "c843f8b524a8dfcf8a81645cec4e4a63", "fusion_lon": 0.0, "lon": -77.033467, "name": "c843f8b524a8dfcf8a81645cec4e4a63", "is_disabled": 0, "rental_uris": {"android": "https://dc.lft.to/lastmile_qr_scan", "ios": "https://dc.lft.to/lastmile_qr_scan"}, "type": "electric_scooter", "lat": 38.941901333333334, "is_reserved": 0, "fusion_lat": 0.0}, {"bike_id": "76ed7fe3ee44d8e088ae4c3a60758167", "fusion_lon": 0.0, "lon": -77.03491733333334, "name": "76ed7fe3ee44d8e088ae4c3a60758167", "is_disabled": 0, "rental_uris": {"android": "https://dc.lft.to/lastmile_qr_scan", "ios": "https://dc.lft.to/lastmile_qr_scan"}, "type": "electric_scooter", "lat": 38.923311, "is_reserved": 0, "fusion_lat": 0.0}, {"bike_id": "a44e1582381f60ae0b1d4ef4c7925bc3", "fusion_lon": 0.0, "lon": -76.98525666666667, "name": "a44e1582381f60ae0b1d4ef4c7925bc3", "is_disabled": 0, "rental_uris": {"android": "https://dc.lft.to/lastmile_qr_scan", "ios": "https://dc.lft.to/lastmile_qr_scan"}, "type": "electric_scooter", "lat": 38.866681166666666, "is_reserved": 0, "fusion_lat": 0.0}, {"bike_id": "6f3b3cd21f946f899ac8a4e288bc7c51", "fusion_lon": 0.0, "lon": -76.98795283333334, "name": "6f3b3cd21f946f899ac8a4e288bc7c51", "is_disabled": 0, "rental_uris": {"android": "https://dc.lft.to/lastmile_qr_scan", "ios": "https://dc.lft.to/lastmile_qr_scan"}, "type": "electric_bike", "lat": 38.92211833333333, "is_reserved": 0, "fusion_lat": 0.0}, {"bike_id": "64e74615d3c59710455dc32084c2ddb6", "fusion_lon": 0.0, "lon": -77.02575366666666, "name": "64e74615d3c59710455dc32084c2ddb6", "is_disabled": 0, "rental_uris": {"android": "https://dc.lft.to/lastmile_qr_scan", "ios": "https://dc.lft.to/lastmile_qr_scan"}, "type": "electric_scooter", "lat": 38.8922985, "is_reserved": 0, "fusion_lat": 0.0}, {"bike_id": "146aa1265c43c5b72f0b5d255c4364be", "fusion_lon": 0.0, "lon": -77.01200433333334, "name": "146aa1265c43c5b72f0b5d255c4364be", "is_disabled": 0, "rental_uris": {"android": "https://dc.lft.to/lastmile_qr_scan", "ios": "https://dc.lft.to/lastmile_qr_scan"}, "type": "electric_scooter", "lat": 38.900139333333335, "is_reserved": 0, "fusion_lat": 0.0}, {"bike_id": "d9692747dbd28ae0ab3d8b42b2d7badd", "fusion_lon": 0.0, "lon": -77.02695083333333, "name": "d9692747dbd28ae0ab3d8b42b2d7badd", "is_disabled": 0, "rental_uris": {"android": "https://dc.lft.to/lastmile_qr_scan", "ios": "https://dc.lft.to/lastmile_qr_scan"}, "type": "electric_scooter", "lat": 38.8813, "is_reserved": 0, "fusion_lat": 0.0}, {"bike_id": "f0c2845c1cafb6fbd42f2dbac5501cb9", "fusion_lon": 0.0, "lon": -76.92737983333333, "name": "f0c2845c1cafb6fbd42f2dbac5501cb9", "is_disabled": 0, "rental_uris": {"android": "https://dc.lft.to/lastmile_qr_scan", "ios": "https://dc.lft.to/lastmile_qr_scan"}, "type": "electric_scooter", "lat": 38.8896455, "is_reserved": 0, "fusion_lat": 0.0}, {"bike_id": "a35ae7974d0d7ba86cd36528c5f57012", "fusion_lon": 0.0, "lon": -77.040096, "name": "a35ae7974d0d7ba86cd36528c5f57012", "is_disabled": 0, "rental_uris": {"android": "https://dc.lft.to/lastmile_qr_scan", "ios": "https://dc.lft.to/lastmile_qr_scan"}, "type": "electric_scooter", "lat": 38.9217105, "is_reserved": 0, "fusion_lat": 0.0}, {"bike_id": "3189e921c298a73afb80397cbab678d0", "fusion_lon": 0.0, "lon": -76.99515116666667, "name": "3189e921c298a73afb80397cbab678d0", "is_disabled": 0, "rental_uris": {"android": "https://dc.lft.to/lastmile_qr_scan", "ios": "https://dc.lft.to/lastmile_qr_scan"}, "type": "electric_scooter", "lat": 38.862552, "is_reserved": 0, "fusion_lat": 0.0}, {"bike_id": "779aa30adab8cf662635ac4307818967", "fusion_lon": 0.0, "lon": -77.00206516666667, "name": "779aa30adab8cf662635ac4307818967", "is_disabled": 0, "rental_uris": {"android": "https://dc.lft.to/lastmile_qr_scan", "ios": "https://dc.lft.to/lastmile_qr_scan"}, "type": "electric_scooter", "lat": 38.9204755, "is_reserved": 0, "fusion_lat": 0.0}, {"bike_id": "a19c85413f563605b5df33d0422d7147", "fusion_lon": 0.0, "lon": -77.03310983333333, "name": "a19c85413f563605b5df33d0422d7147", "is_disabled": 0, "rental_uris": {"android": "https://dc.lft.to/lastmile_qr_scan", "ios": "https://dc.lft.to/lastmile_qr_scan"}, "type": "electric_scooter", "lat": 38.928875833333336, "is_reserved": 0, "fusion_lat": 0.0}, {"bike_id": "7f5c74cd0a502d6c695b36f5ad236bee", "fusion_lon": 0.0, "lon": -77.00126633333333, "name": "7f5c74cd0a502d6c695b36f5ad236bee", "is_disabled": 0, "rental_uris": {"android": "https://dc.lft.to/lastmile_qr_scan", "ios": "https://dc.lft.to/lastmile_qr_scan"}, "type": "electric_scooter", "lat": 38.8780305, "is_reserved": 0, "fusion_lat": 0.0}, {"bike_id": "df00c7582d9049c18c3288c9dac12bab", "fusion_lon": 0.0, "lon": -77.03852883333333, "name": "df00c7582d9049c18c3288c9dac12bab", "is_disabled": 0, "rental_uris": {"android": "https://dc.lft.to/lastmile_qr_scan", "ios": "https://dc.lft.to/lastmile_qr_scan"}, "type": "electric_scooter", "lat": 38.91545933333333, "is_reserved": 0, "fusion_lat": 0.0}, {"bike_id": "4eda9775b149b4844fc59b4073c7a59c", "fusion_lon": 0.0, "lon": -77.03578133333333, "name": "4eda9775b149b4844fc59b4073c7a59c", "is_disabled": 0, "rental_uris": {"android": "https://dc.lft.to/lastmile_qr_scan", "ios": "https://dc.lft.to/lastmile_qr_scan"}, "type": "electric_scooter", "lat": 38.93475566666667, "is_reserved": 0, "fusion_lat": 0.0}, {"bike_id": "5565aa31dab17b876d6fed3385017052", "fusion_lon": 0.0, "lon": -77.012242, "name": "5565aa31dab17b876d6fed3385017052", "is_disabled": 0, "rental_uris": {"android": "https://dc.lft.to/lastmile_qr_scan", "ios": "https://dc.lft.to/lastmile_qr_scan"}, "type": "electric_scooter", "lat": 38.91531033333333, "is_reserved": 0, "fusion_lat": 0.0}, {"bike_id": "6e949def3b7f91bd5619829c07778ee5", "fusion_lon": 0.0, "lon": -77.049801, "name": "6e949def3b7f91bd5619829c07778ee5", "is_disabled": 0, "rental_uris": {"android": "https://dc.lft.to/lastmile_qr_scan", "ios": "https://dc.lft.to/lastmile_qr_scan"}, "type": "electric_bike", "lat": 38.83218166666666, "is_reserved": 0, "fusion_lat": 0.0}, {"bike_id": "714978fc496c1a07f7309ff71defa656", "fusion_lon": 0.0, "lon": -77.02160483333333, "name": "714978fc496c1a07f7309ff71defa656", "is_disabled": 0, "rental_uris": {"android": "https://dc.lft.to/lastmile_qr_scan", "ios": "https://dc.lft.to/lastmile_qr_scan"}, "type": "electric_scooter", "lat": 38.89901066666667, "is_reserved": 0, "fusion_lat": 0.0}, {"bike_id": "63ec6b2b2c2f6acd2679f13f4ee24817", "fusion_lon": 0.0, "lon": -77.0268525, "name": "63ec6b2b2c2f6acd2679f13f4ee24817", "is_disabled": 0, "rental_uris": {"android": "https://dc.lft.to/lastmile_qr_scan", "ios": "https://dc.lft.to/lastmile_qr_scan"}, "type": "electric_scooter", "lat": 38.91267116666667, "is_reserved": 0, "fusion_lat": 0.0}, {"bike_id": "0c25f9b4a009711f1e1702a355784251", "fusion_lon": 0.0, "lon": -77.0220585, "name": "0c25f9b4a009711f1e1702a355784251", "is_disabled": 0, "rental_uris": {"android": "https://dc.lft.to/lastmile_qr_scan", "ios": "https://dc.lft.to/lastmile_qr_scan"}, "type": "electric_scooter", "lat": 38.902165333333336, "is_reserved": 0, "fusion_lat": 0.0}, {"bike_id": "e7a877bdab0512bdc03980dd5266484c", "fusion_lon": 0.0, "lon": -76.98989, "name": "e7a877bdab0512bdc03980dd5266484c", "is_disabled": 0, "rental_uris": {"android": "https://dc.lft.to/lastmile_qr_scan", "ios": "https://dc.lft.to/lastmile_qr_scan"}, "type": "electric_scooter", "lat": 38.865044166666664, "is_reserved": 0, "fusion_lat": 0.0}, {"bike_id": "232e92b103958bfcb998cc23b01afc79", "fusion_lon": 0.0, "lon": -77.03861666666667, "name": "232e92b103958bfcb998cc23b01afc79", "is_disabled": 0, "rental_uris": {"android": "https://dc.lft.to/lastmile_qr_scan", "ios": "https://dc.lft.to/lastmile_qr_scan"}, "type": "electric_scooter", "lat": 38.93251766666667, "is_reserved": 0, "fusion_lat": 0.0}, {"bike_id": "66204bd4b84693f58dc48c61313afa96", "fusion_lon": 0.0, "lon": -77.04143683333334, "name": "66204bd4b84693f58dc48c61313afa96", "is_disabled": 0, "rental_uris": {"android": "https://dc.lft.to/lastmile_qr_scan", "ios": "https://dc.lft.to/lastmile_qr_scan"}, "type": "electric_scooter", "lat": 38.92300483333333, "is_reserved": 0, "fusion_lat": 0.0}, {"bike_id": "0a46b872bdcdbb61a6a6c58b70e3d0fb", "fusion_lon": 0.0, "lon": -76.9934855, "name": "0a46b872bdcdbb61a6a6c58b70e3d0fb", "is_disabled": 0, "rental_uris": {"android": "https://dc.lft.to/lastmile_qr_scan", "ios": "https://dc.lft.to/lastmile_qr_scan"}, "type": "electric_scooter", "lat": 38.91484033333333, "is_reserved": 0, "fusion_lat": 0.0}, {"bike_id": "c2550461492c20e4aa37f9c5c285b434", "fusion_lon": 0.0, "lon": -77.05523566666666, "name": "c2550461492c20e4aa37f9c5c285b434", "is_disabled": 0, "rental_uris": {"android": "https://dc.lft.to/lastmile_qr_scan", "ios": "https://dc.lft.to/lastmile_qr_scan"}, "type": "electric_scooter", "lat": 38.93015666666667, "is_reserved": 0, "fusion_lat": 0.0}, {"bike_id": "c67bbc747a6eb94ab307a9a57c754e43", "fusion_lon": 0.0, "lon": -76.98105, "name": "c67bbc747a6eb94ab307a9a57c754e43", "is_disabled": 0, "rental_uris": {"android": "https://dc.lft.to/lastmile_qr_scan", "ios": "https://dc.lft.to/lastmile_qr_scan"}, "type": "electric_bike", "lat": 38.877313, "is_reserved": 0, "fusion_lat": 0.0}, {"bike_id": "f76e2903a31610603a7bc3a518f9a904", "fusion_lon": 0.0, "lon": -77.038265, "name": "f76e2903a31610603a7bc3a518f9a904", "is_disabled": 0, "rental_uris": {"android": "https://dc.lft.to/lastmile_qr_scan", "ios": "https://dc.lft.to/lastmile_qr_scan"}, "type": "electric_scooter", "lat": 38.906838, "is_reserved": 0, "fusion_lat": 0.0}, {"bike_id": "e8ff1d5629c81cbc16b1937f7e29464d", "fusion_lon": 0.0, "lon": -77.01591116666667, "name": "e8ff1d5629c81cbc16b1937f7e29464d", "is_disabled": 0, "rental_uris": {"android": "https://dc.lft.to/lastmile_qr_scan", "ios": "https://dc.lft.to/lastmile_qr_scan"}, "type": "electric_scooter", "lat": 38.949381833333334, "is_reserved": 0, "fusion_lat": 0.0}, {"bike_id": "beaa853670cb3b5a6e2f564beff448e4", "fusion_lon": 0.0, "lon": -77.02412833333334, "name": "beaa853670cb3b5a6e2f564beff448e4", "is_disabled": 0, "rental_uris": {"android": "https://dc.lft.to/lastmile_qr_scan", "ios": "https://dc.lft.to/lastmile_qr_scan"}, "type": "electric_scooter", "lat": 38.9372065, "is_reserved": 0, "fusion_lat": 0.0}, {"bike_id": "ebf677d87c7ccfa6035fe524ee71c792", "fusion_lon": 0.0, "lon": -77.03849683333334, "name": "ebf677d87c7ccfa6035fe524ee71c792", "is_disabled": 0, "rental_uris": {"android": "https://dc.lft.to/lastmile_qr_scan", "ios": "https://dc.lft.to/lastmile_qr_scan"}, "type": "electric_scooter", "lat": 38.91551483333333, "is_reserved": 0, "fusion_lat": 0.0}, {"bike_id": "ebc79c687aa63c4b07f0f1f68899e70c", "fusion_lon": 0.0, "lon": -77.02722116666666, "name": "ebc79c687aa63c4b07f0f1f68899e70c", "is_disabled": 0, "rental_uris": {"android": "https://dc.lft.to/lastmile_qr_scan", "ios": "https://dc.lft.to/lastmile_qr_scan"}, "type": "electric_scooter", "lat": 38.949566833333336, "is_reserved": 0, "fusion_lat": 0.0}, {"bike_id": "50bf8488e55d4088882e78534b6aef1d", "fusion_lon": 0.0, "lon": -77.01862883333334, "name": "50bf8488e55d4088882e78534b6aef1d", "is_disabled": 0, "rental_uris": {"android": "https://dc.lft.to/lastmile_qr_scan", "ios": "https://dc.lft.to/lastmile_qr_scan"}, "type": "electric_scooter", "lat": 38.97368633333333, "is_reserved": 0, "fusion_lat": 0.0}, {"bike_id": "9213112559f5f7f56325599e5025c0ef", "fusion_lon": 0.0, "lon": -77.02962283333333, "name": "9213112559f5f7f56325599e5025c0ef", "is_disabled": 0, "rental_uris": {"android": "https://dc.lft.to/lastmile_qr_scan", "ios": "https://dc.lft.to/lastmile_qr_scan"}, "type": "electric_scooter", "lat": 38.905220666666665, "is_reserved": 0, "fusion_lat": 0.0}, {"bike_id": "6af62b7e968d0461d7cb51edb4e614c2", "fusion_lon": 0.0, "lon": -77.05860683333333, "name": "6af62b7e968d0461d7cb51edb4e614c2", "is_disabled": 0, "rental_uris": {"android": "https://dc.lft.to/lastmile_qr_scan", "ios": "https://dc.lft.to/lastmile_qr_scan"}, "type": "electric_scooter", "lat": 38.93609216666667, "is_reserved": 0, "fusion_lat": 0.0}, {"bike_id": "56bd5f3020908a70579772f41ee21a02", "fusion_lon": 0.0, "lon": -77.04608033333334, "name": "56bd5f3020908a70579772f41ee21a02", "is_disabled": 0, "rental_uris": {"android": "https://dc.lft.to/lastmile_qr_scan", "ios": "https://dc.lft.to/lastmile_qr_scan"}, "type": "electric_scooter", "lat": 38.91934533333333, "is_reserved": 0, "fusion_lat": 0.0}, {"bike_id": "1b9bef594ca78a6d33ffdb427dc1d51c", "fusion_lon": 0.0, "lon": -77.01472416666667, "name": "1b9bef594ca78a6d33ffdb427dc1d51c", "is_disabled": 0, "rental_uris": {"android": "https://dc.lft.to/lastmile_qr_scan", "ios": "https://dc.lft.to/lastmile_qr_scan"}, "type": "electric_scooter", "lat": 38.91771216666667, "is_reserved": 0, "fusion_lat": 0.0}, {"bike_id": "bbe6b182eaa5473c0657e40231bd1cc2", "fusion_lon": 0.0, "lon": -77.04492433333333, "name": "bbe6b182eaa5473c0657e40231bd1cc2", "is_disabled": 0, "rental_uris": {"android": "https://dc.lft.to/lastmile_qr_scan", "ios": "https://dc.lft.to/lastmile_qr_scan"}, "type": "electric_scooter", "lat": 38.903582666666665, "is_reserved": 0, "fusion_lat": 0.0}, {"bike_id": "fc89325956c29d80e21ed11213ef2944", "fusion_lon": 0.0, "lon": -77.02713983333334, "name": "fc89325956c29d80e21ed11213ef2944", "is_disabled": 0, "rental_uris": {"android": "https://dc.lft.to/lastmile_qr_scan", "ios": "https://dc.lft.to/lastmile_qr_scan"}, "type": "electric_scooter", "lat": 38.9156335, "is_reserved": 0, "fusion_lat": 0.0}, {"bike_id": "9f1c3fbfad6eed70ae2e693349423e24", "fusion_lon": 0.0, "lon": -77.01782016666667, "name": "9f1c3fbfad6eed70ae2e693349423e24", "is_disabled": 0, "rental_uris": {"android": "https://dc.lft.to/lastmile_qr_scan", "ios": "https://dc.lft.to/lastmile_qr_scan"}, "type": "electric_scooter", "lat": 38.90077933333333, "is_reserved": 0, "fusion_lat": 0.0}, {"bike_id": "bf20f2715f8c1f2d3fdd6854af0bf786", "fusion_lon": 0.0, "lon": -77.02505266666667, "name": "bf20f2715f8c1f2d3fdd6854af0bf786", "is_disabled": 0, "rental_uris": {"android": "https://dc.lft.to/lastmile_qr_scan", "ios": "https://dc.lft.to/lastmile_qr_scan"}, "type": "electric_scooter", "lat": 38.91564266666666, "is_reserved": 0, "fusion_lat": 0.0}, {"bike_id": "434ff8ebb9b3d005aead276e7cff42c9", "fusion_lon": 0.0, "lon": -77.01218016666667, "name": "434ff8ebb9b3d005aead276e7cff42c9", "is_disabled": 0, "rental_uris": {"android": "https://dc.lft.to/lastmile_qr_scan", "ios": "https://dc.lft.to/lastmile_qr_scan"}, "type": "electric_scooter", "lat": 38.915325833333334, "is_reserved": 0, "fusion_lat": 0.0}, {"bike_id": "2e9559f4c6b102e4d6087b2d16364783", "fusion_lon": 0.0, "lon": -77.03637133333334, "name": "2e9559f4c6b102e4d6087b2d16364783", "is_disabled": 0, "rental_uris": {"android": "https://dc.lft.to/lastmile_qr_scan", "ios": "https://dc.lft.to/lastmile_qr_scan"}, "type": "electric_scooter", "lat": 38.931782, "is_reserved": 0, "fusion_lat": 0.0}, {"bike_id": "459a275573bab37dd00a95e0e6403355", "fusion_lon": 0.0, "lon": -77.02704483333333, "name": "459a275573bab37dd00a95e0e6403355", "is_disabled": 0, "rental_uris": {"android": "https://dc.lft.to/lastmile_qr_scan", "ios": "https://dc.lft.to/lastmile_qr_scan"}, "type": "electric_scooter", "lat": 38.9066435, "is_reserved": 0, "fusion_lat": 0.0}, {"bike_id": "59c002b422d1d35f586a1026200418f0", "fusion_lon": 0.0, "lon": -76.99606183333333, "name": "59c002b422d1d35f586a1026200418f0", "is_disabled": 0, "rental_uris": {"android": "https://dc.lft.to/lastmile_qr_scan", "ios": "https://dc.lft.to/lastmile_qr_scan"}, "type": "electric_scooter", "lat": 38.903658666666665, "is_reserved": 0, "fusion_lat": 0.0}, {"bike_id": "1511627f16ec71c6ae3443438bde8aed", "fusion_lon": 0.0, "lon": -77.048012, "name": "1511627f16ec71c6ae3443438bde8aed", "is_disabled": 0, "rental_uris": {"android": "https://dc.lft.to/lastmile_qr_scan", "ios": "https://dc.lft.to/lastmile_qr_scan"}, "type": "electric_scooter", "lat": 38.89222816666667, "is_reserved": 0, "fusion_lat": 0.0}, {"bike_id": "671bf4d33954016d14c4675d212c6271", "fusion_lon": 0.0, "lon": -77.03254683333333, "name": "671bf4d33954016d14c4675d212c6271", "is_disabled": 0, "rental_uris": {"android": "https://dc.lft.to/lastmile_qr_scan", "ios": "https://dc.lft.to/lastmile_qr_scan"}, "type": "electric_scooter", "lat": 38.9285925, "is_reserved": 0, "fusion_lat": 0.0}, {"bike_id": "c80e5291d887d40015e3578f635a194b", "fusion_lon": 0.0, "lon": -77.02592983333334, "name": "c80e5291d887d40015e3578f635a194b", "is_disabled": 0, "rental_uris": {"android": "https://dc.lft.to/lastmile_qr_scan", "ios": "https://dc.lft.to/lastmile_qr_scan"}, "type": "electric_scooter", "lat": 38.905249, "is_reserved": 0, "fusion_lat": 0.0}, {"bike_id": "4d2100888ad22c8d8e539c3364f99a73", "fusion_lon": 0.0, "lon": -77.02560633333333, "name": "4d2100888ad22c8d8e539c3364f99a73", "is_disabled": 0, "rental_uris": {"android": "https://dc.lft.to/lastmile_qr_scan", "ios": "https://dc.lft.to/lastmile_qr_scan"}, "type": "electric_scooter", "lat": 38.925334666666664, "is_reserved": 0, "fusion_lat": 0.0}, {"bike_id": "4b1db5bf7f9979d55853d4722b5f1783", "fusion_lon": 0.0, "lon": -77.02686133333333, "name": "4b1db5bf7f9979d55853d4722b5f1783", "is_disabled": 0, "rental_uris": {"android": "https://dc.lft.to/lastmile_qr_scan", "ios": "https://dc.lft.to/lastmile_qr_scan"}, "type": "electric_scooter", "lat": 38.924029, "is_reserved": 0, "fusion_lat": 0.0}, {"bike_id": "a6af72e188aaa73a07276ef1cb2b8b73", "fusion_lon": 0.0, "lon": -77.01847033333334, "name": "a6af72e188aaa73a07276ef1cb2b8b73", "is_disabled": 0, "rental_uris": {"android": "https://dc.lft.to/lastmile_qr_scan", "ios": "https://dc.lft.to/lastmile_qr_scan"}, "type": "electric_scooter", "lat": 38.91523883333333, "is_reserved": 0, "fusion_lat": 0.0}, {"bike_id": "410b13911c87a4ff5275c588215398fa", "fusion_lon": 0.0, "lon": -76.98617683333333, "name": "410b13911c87a4ff5275c588215398fa", "is_disabled": 0, "rental_uris": {"android": "https://dc.lft.to/lastmile_qr_scan", "ios": "https://dc.lft.to/lastmile_qr_scan"}, "type": "electric_scooter", "lat": 38.938303, "is_reserved": 0, "fusion_lat": 0.0}, {"bike_id": "7cf7a3fc5a9a7628dc0a166872b5a4eb", "fusion_lon": 0.0, "lon": -77.02722183333333, "name": "7cf7a3fc5a9a7628dc0a166872b5a4eb", "is_disabled": 0, "rental_uris": {"android": "https://dc.lft.to/lastmile_qr_scan", "ios": "https://dc.lft.to/lastmile_qr_scan"}, "type": "electric_scooter", "lat": 38.94959033333333, "is_reserved": 0, "fusion_lat": 0.0}, {"bike_id": "9820c0a10fe0e866aae5b3ab62ab49bb", "fusion_lon": 0.0, "lon": -76.9361355, "name": "9820c0a10fe0e866aae5b3ab62ab49bb", "is_disabled": 0, "rental_uris": {"android": "https://dc.lft.to/lastmile_qr_scan", "ios": "https://dc.lft.to/lastmile_qr_scan"}, "type": "electric_scooter", "lat": 38.886711, "is_reserved": 0, "fusion_lat": 0.0}, {"bike_id": "b2d32a985b5248aa535031fde5281325", "fusion_lon": 0.0, "lon": -77.01223483333334, "name": "b2d32a985b5248aa535031fde5281325", "is_disabled": 0, "rental_uris": {"android": "https://dc.lft.to/lastmile_qr_scan", "ios": "https://dc.lft.to/lastmile_qr_scan"}, "type": "electric_scooter", "lat": 38.915460333333336, "is_reserved": 0, "fusion_lat": 0.0}, {"bike_id": "6c0d0c27b6d4900a43f08775502e0059", "fusion_lon": 0.0, "lon": -76.99777166666667, "name": "6c0d0c27b6d4900a43f08775502e0059", "is_disabled": 0, "rental_uris": {"android": "https://dc.lft.to/lastmile_qr_scan", "ios": "https://dc.lft.to/lastmile_qr_scan"}, "type": "electric_scooter", "lat": 38.909149666666664, "is_reserved": 0, "fusion_lat": 0.0}, {"bike_id": "a47d86c8da9fa0c390c07e4d92aed6df", "fusion_lon": 0.0, "lon": -77.017434, "name": "a47d86c8da9fa0c390c07e4d92aed6df", "is_disabled": 0, "rental_uris": {"android": "https://dc.lft.to/lastmile_qr_scan", "ios": "https://dc.lft.to/lastmile_qr_scan"}, "type": "electric_scooter", "lat": 38.902609166666664, "is_reserved": 0, "fusion_lat": 0.0}, {"bike_id": "a325939dde32f5c5c3b353b6f2482334", "fusion_lon": 0.0, "lon": -76.94935566666666, "name": "a325939dde32f5c5c3b353b6f2482334", "is_disabled": 0, "rental_uris": {"android": "https://dc.lft.to/lastmile_qr_scan", "ios": "https://dc.lft.to/lastmile_qr_scan"}, "type": "electric_scooter", "lat": 38.8934965, "is_reserved": 0, "fusion_lat": 0.0}, {"bike_id": "8af816b7a5850b96ad78a813c31405e2", "fusion_lon": 0.0, "lon": -77.06845716666666, "name": "8af816b7a5850b96ad78a813c31405e2", "is_disabled": 0, "rental_uris": {"android": "https://dc.lft.to/lastmile_qr_scan", "ios": "https://dc.lft.to/lastmile_qr_scan"}, "type": "electric_scooter", "lat": 38.917294166666665, "is_reserved": 0, "fusion_lat": 0.0}, {"bike_id": "509875f634b188ad519f71e2699eef52", "fusion_lon": 0.0, "lon": -77.02307133333333, "name": "509875f634b188ad519f71e2699eef52", "is_disabled": 0, "rental_uris": {"android": "https://dc.lft.to/lastmile_qr_scan", "ios": "https://dc.lft.to/lastmile_qr_scan"}, "type": "electric_scooter", "lat": 38.91839083333333, "is_reserved": 0, "fusion_lat": 0.0}, {"bike_id": "738f8811ccaf03064ce31030f11d7de1", "fusion_lon": 0.0, "lon": -77.03860333333333, "name": "738f8811ccaf03064ce31030f11d7de1", "is_disabled": 0, "rental_uris": {"android": "https://dc.lft.to/lastmile_qr_scan", "ios": "https://dc.lft.to/lastmile_qr_scan"}, "type": "electric_scooter", "lat": 38.91545283333333, "is_reserved": 0, "fusion_lat": 0.0}, {"bike_id": "ce826c82f155817c8eb09e41884e249e", "fusion_lon": 0.0, "lon": -77.02178283333333, "name": "ce826c82f155817c8eb09e41884e249e", "is_disabled": 0, "rental_uris": {"android": "https://dc.lft.to/lastmile_qr_scan", "ios": "https://dc.lft.to/lastmile_qr_scan"}, "type": "electric_scooter", "lat": 38.924921, "is_reserved": 0, "fusion_lat": 0.0}, {"bike_id": "bde6c23ce799637b432989e348d264e2", "fusion_lon": 0.0, "lon": -77.0468735, "name": "bde6c23ce799637b432989e348d264e2", "is_disabled": 0, "rental_uris": {"android": "https://dc.lft.to/lastmile_qr_scan", "ios": "https://dc.lft.to/lastmile_qr_scan"}, "type": "electric_scooter", "lat": 38.89222, "is_reserved": 0, "fusion_lat": 0.0}, {"bike_id": "876e915fad3c288486f988c6774e5da2", "fusion_lon": 0.0, "lon": -77.06501033333333, "name": "876e915fad3c288486f988c6774e5da2", "is_disabled": 0, "rental_uris": {"android": "https://dc.lft.to/lastmile_qr_scan", "ios": "https://dc.lft.to/lastmile_qr_scan"}, "type": "electric_bike", "lat": 38.96872333333334, "is_reserved": 0, "fusion_lat": 0.0}, {"bike_id": "260bba846391de57b99f88b347dca03a", "fusion_lon": 0.0, "lon": -77.04260083333334, "name": "260bba846391de57b99f88b347dca03a", "is_disabled": 0, "rental_uris": {"android": "https://dc.lft.to/lastmile_qr_scan", "ios": "https://dc.lft.to/lastmile_qr_scan"}, "type": "electric_scooter", "lat": 38.908711, "is_reserved": 0, "fusion_lat": 0.0}, {"bike_id": "482c6efd112a2174c61614116766c321", "fusion_lon": 0.0, "lon": -77.04161866666666, "name": "482c6efd112a2174c61614116766c321", "is_disabled": 0, "rental_uris": {"android": "https://dc.lft.to/lastmile_qr_scan", "ios": "https://dc.lft.to/lastmile_qr_scan"}, "type": "electric_scooter", "lat": 38.916511, "is_reserved": 0, "fusion_lat": 0.0}, {"bike_id": "1f1fd163259c086a269366dfab21a0ad", "fusion_lon": 0.0, "lon": -77.04531433333334, "name": "1f1fd163259c086a269366dfab21a0ad", "is_disabled": 0, "rental_uris": {"android": "https://dc.lft.to/lastmile_qr_scan", "ios": "https://dc.lft.to/lastmile_qr_scan"}, "type": "electric_bike", "lat": 38.84285033333333, "is_reserved": 0, "fusion_lat": 0.0}, {"bike_id": "ae828176bff07e90310cf58f5d01df86", "fusion_lon": 0.0, "lon": -77.03943066666666, "name": "ae828176bff07e90310cf58f5d01df86", "is_disabled": 0, "rental_uris": {"android": "https://dc.lft.to/lastmile_qr_scan", "ios": "https://dc.lft.to/lastmile_qr_scan"}, "type": "electric_scooter", "lat": 38.92618816666667, "is_reserved": 0, "fusion_lat": 0.0}, {"bike_id": "f2a2ceca37a085ee9cdc113df315964c", "fusion_lon": 0.0, "lon": -77.0056835, "name": "f2a2ceca37a085ee9cdc113df315964c", "is_disabled": 0, "rental_uris": {"android": "https://dc.lft.to/lastmile_qr_scan", "ios": "https://dc.lft.to/lastmile_qr_scan"}, "type": "electric_scooter", "lat": 38.918184833333335, "is_reserved": 0, "fusion_lat": 0.0}, {"bike_id": "a552e956da784731d8e80d6d5975971f", "fusion_lon": 0.0, "lon": -77.02565616666666, "name": "a552e956da784731d8e80d6d5975971f", "is_disabled": 0, "rental_uris": {"android": "https://dc.lft.to/lastmile_qr_scan", "ios": "https://dc.lft.to/lastmile_qr_scan"}, "type": "electric_scooter", "lat": 38.90357316666667, "is_reserved": 0, "fusion_lat": 0.0}, {"bike_id": "271772943f064f8da51039b178b72ee9", "fusion_lon": 0.0, "lon": -77.03104333333333, "name": "271772943f064f8da51039b178b72ee9", "is_disabled": 0, "rental_uris": {"android": "https://dc.lft.to/lastmile_qr_scan", "ios": "https://dc.lft.to/lastmile_qr_scan"}, "type": "electric_scooter", "lat": 38.95073816666667, "is_reserved": 0, "fusion_lat": 0.0}, {"bike_id": "c4a7eb104a1f34fab909dd55c7becf04", "fusion_lon": 0.0, "lon": -76.96906483333333, "name": "c4a7eb104a1f34fab909dd55c7becf04", "is_disabled": 0, "rental_uris": {"android": "https://dc.lft.to/lastmile_qr_scan", "ios": "https://dc.lft.to/lastmile_qr_scan"}, "type": "electric_bike", "lat": 38.846208833333336, "is_reserved": 0, "fusion_lat": 0.0}, {"bike_id": "cd48977d01c19786a74f6301922aa01e", "fusion_lon": 0.0, "lon": -77.04162766666667, "name": "cd48977d01c19786a74f6301922aa01e", "is_disabled": 0, "rental_uris": {"android": "https://dc.lft.to/lastmile_qr_scan", "ios": "https://dc.lft.to/lastmile_qr_scan"}, "type": "electric_scooter", "lat": 38.912993, "is_reserved": 0, "fusion_lat": 0.0}, {"bike_id": "ada31f0f17348a3e1b375a6d8ef38e5d", "fusion_lon": 0.0, "lon": -77.02899033333334, "name": "ada31f0f17348a3e1b375a6d8ef38e5d", "is_disabled": 0, "rental_uris": {"android": "https://dc.lft.to/lastmile_qr_scan", "ios": "https://dc.lft.to/lastmile_qr_scan"}, "type": "electric_scooter", "lat": 38.91555816666666, "is_reserved": 0, "fusion_lat": 0.0}, {"bike_id": "e36cca9cb7dcf482a08e736d82bcb5d6", "fusion_lon": 0.0, "lon": -76.9949045, "name": "e36cca9cb7dcf482a08e736d82bcb5d6", "is_disabled": 0, "rental_uris": {"android": "https://dc.lft.to/lastmile_qr_scan", "ios": "https://dc.lft.to/lastmile_qr_scan"}, "type": "electric_scooter", "lat": 38.90417683333333, "is_reserved": 0, "fusion_lat": 0.0}, {"bike_id": "33719ce5812355d9e45ff397d360b576", "fusion_lon": 0.0, "lon": -77.077048, "name": "33719ce5812355d9e45ff397d360b576", "is_disabled": 0, "rental_uris": {"android": "https://dc.lft.to/lastmile_qr_scan", "ios": "https://dc.lft.to/lastmile_qr_scan"}, "type": "electric_scooter", "lat": 38.94385916666667, "is_reserved": 0, "fusion_lat": 0.0}, {"bike_id": "f6d0b60c5ddac2a56e189744c4fedfc8", "fusion_lon": 0.0, "lon": -77.049284, "name": "f6d0b60c5ddac2a56e189744c4fedfc8", "is_disabled": 0, "rental_uris": {"android": "https://dc.lft.to/lastmile_qr_scan", "ios": "https://dc.lft.to/lastmile_qr_scan"}, "type": "electric_bike", "lat": 39.029361, "is_reserved": 0, "fusion_lat": 0.0}, {"bike_id": "f73ea0e1c95860fb496108dd328ce754", "fusion_lon": 0.0, "lon": -77.04432333333334, "name": "f73ea0e1c95860fb496108dd328ce754", "is_disabled": 0, "rental_uris": {"android": "https://dc.lft.to/lastmile_qr_scan", "ios": "https://dc.lft.to/lastmile_qr_scan"}, "type": "electric_scooter", "lat": 38.921301, "is_reserved": 0, "fusion_lat": 0.0}, {"bike_id": "c4ecae1d5535db962894722b4b805b2b", "fusion_lon": 0.0, "lon": -77.02979016666667, "name": "c4ecae1d5535db962894722b4b805b2b", "is_disabled": 0, "rental_uris": {"android": "https://dc.lft.to/lastmile_qr_scan", "ios": "https://dc.lft.to/lastmile_qr_scan"}, "type": "electric_scooter", "lat": 38.931202666666664, "is_reserved": 0, "fusion_lat": 0.0}, {"bike_id": "ec31d0f0ea5613111120dbe52451159d", "fusion_lon": 0.0, "lon": -77.00343983333333, "name": "ec31d0f0ea5613111120dbe52451159d", "is_disabled": 0, "rental_uris": {"android": "https://dc.lft.to/lastmile_qr_scan", "ios": "https://dc.lft.to/lastmile_qr_scan"}, "type": "electric_scooter", "lat": 38.90733866666667, "is_reserved": 0, "fusion_lat": 0.0}, {"bike_id": "f57a11ab02512ff3d5c9649bd1e0d7b0", "fusion_lon": 0.0, "lon": -76.98152016666667, "name": "f57a11ab02512ff3d5c9649bd1e0d7b0", "is_disabled": 0, "rental_uris": {"android": "https://dc.lft.to/lastmile_qr_scan", "ios": "https://dc.lft.to/lastmile_qr_scan"}, "type": "electric_bike", "lat": 38.92264316666667, "is_reserved": 0, "fusion_lat": 0.0}, {"bike_id": "97fa9187cea1701e186ac423bb8a2b6f", "fusion_lon": 0.0, "lon": -77.02939283333333, "name": "97fa9187cea1701e186ac423bb8a2b6f", "is_disabled": 0, "rental_uris": {"android": "https://dc.lft.to/lastmile_qr_scan", "ios": "https://dc.lft.to/lastmile_qr_scan"}, "type": "electric_scooter", "lat": 38.91698066666667, "is_reserved": 0, "fusion_lat": 0.0}, {"bike_id": "265afa7059b9c17b646048e69ff5b151", "fusion_lon": 0.0, "lon": -77.02975166666667, "name": "265afa7059b9c17b646048e69ff5b151", "is_disabled": 0, "rental_uris": {"android": "https://dc.lft.to/lastmile_qr_scan", "ios": "https://dc.lft.to/lastmile_qr_scan"}, "type": "electric_scooter", "lat": 38.9071815, "is_reserved": 0, "fusion_lat": 0.0}, {"bike_id": "8699dd1236834dbeb4d9d0b412d9ee4a", "fusion_lon": 0.0, "lon": -77.03905516666667, "name": "8699dd1236834dbeb4d9d0b412d9ee4a", "is_disabled": 0, "rental_uris": {"android": "https://dc.lft.to/lastmile_qr_scan", "ios": "https://dc.lft.to/lastmile_qr_scan"}, "type": "electric_scooter", "lat": 38.91422383333333, "is_reserved": 0, "fusion_lat": 0.0}, {"bike_id": "3c07327125e730cc83b70431e58708f2", "fusion_lon": 0.0, "lon": -76.99336483333333, "name": "3c07327125e730cc83b70431e58708f2", "is_disabled": 0, "rental_uris": {"android": "https://dc.lft.to/lastmile_qr_scan", "ios": "https://dc.lft.to/lastmile_qr_scan"}, "type": "electric_bike", "lat": 38.97230483333333, "is_reserved": 0, "fusion_lat": 0.0}, {"bike_id": "54715287e9d8c5607b2f223bbf0a43cb", "fusion_lon": 0.0, "lon": -76.99613966666666, "name": "54715287e9d8c5607b2f223bbf0a43cb", "is_disabled": 0, "rental_uris": {"android": "https://dc.lft.to/lastmile_qr_scan", "ios": "https://dc.lft.to/lastmile_qr_scan"}, "type": "electric_scooter", "lat": 38.89920083333333, "is_reserved": 0, "fusion_lat": 0.0}, {"bike_id": "a98676a11bd6890a6417a2b770ca6751", "fusion_lon": 0.0, "lon": -77.074182, "name": "a98676a11bd6890a6417a2b770ca6751", "is_disabled": 0, "rental_uris": {"android": "https://dc.lft.to/lastmile_qr_scan", "ios": "https://dc.lft.to/lastmile_qr_scan"}, "type": "electric_scooter", "lat": 38.913014833333335, "is_reserved": 0, "fusion_lat": 0.0}, {"bike_id": "ea0e2be013476bf50a4a7e428d7f9cc5", "fusion_lon": 0.0, "lon": -76.97167916666666, "name": "ea0e2be013476bf50a4a7e428d7f9cc5", "is_disabled": 0, "rental_uris": {"android": "https://dc.lft.to/lastmile_qr_scan", "ios": "https://dc.lft.to/lastmile_qr_scan"}, "type": "electric_scooter", "lat": 38.854342833333334, "is_reserved": 0, "fusion_lat": 0.0}, {"bike_id": "dc3147c362d4ff806ba589d9ae034742", "fusion_lon": 0.0, "lon": -76.9327625, "name": "dc3147c362d4ff806ba589d9ae034742", "is_disabled": 0, "rental_uris": {"android": "https://dc.lft.to/lastmile_qr_scan", "ios": "https://dc.lft.to/lastmile_qr_scan"}, "type": "electric_scooter", "lat": 38.881458333333335, "is_reserved": 0, "fusion_lat": 0.0}, {"bike_id": "f591904ea5d3030994c1c737c1761ebd", "fusion_lon": 0.0, "lon": -76.99696683333333, "name": "f591904ea5d3030994c1c737c1761ebd", "is_disabled": 0, "rental_uris": {"android": "https://dc.lft.to/lastmile_qr_scan", "ios": "https://dc.lft.to/lastmile_qr_scan"}, "type": "electric_scooter", "lat": 38.908399333333335, "is_reserved": 0, "fusion_lat": 0.0}, {"bike_id": "a52d37e149da7cbfb2129da5c601df05", "fusion_lon": 0.0, "lon": -77.02204416666666, "name": "a52d37e149da7cbfb2129da5c601df05", "is_disabled": 0, "rental_uris": {"android": "https://dc.lft.to/lastmile_qr_scan", "ios": "https://dc.lft.to/lastmile_qr_scan"}, "type": "electric_scooter", "lat": 38.902092, "is_reserved": 0, "fusion_lat": 0.0}, {"bike_id": "94d84e16d8e19580531e898ed6b56be8", "fusion_lon": 0.0, "lon": -77.0282265, "name": "94d84e16d8e19580531e898ed6b56be8", "is_disabled": 0, "rental_uris": {"android": "https://dc.lft.to/lastmile_qr_scan", "ios": "https://dc.lft.to/lastmile_qr_scan"}, "type": "electric_scooter", "lat": 38.93208633333333, "is_reserved": 0, "fusion_lat": 0.0}, {"bike_id": "e87171b72c785d934ccf0f9c398e997a", "fusion_lon": 0.0, "lon": -77.01784816666667, "name": "e87171b72c785d934ccf0f9c398e997a", "is_disabled": 0, "rental_uris": {"android": "https://dc.lft.to/lastmile_qr_scan", "ios": "https://dc.lft.to/lastmile_qr_scan"}, "type": "electric_scooter", "lat": 38.90401766666667, "is_reserved": 0, "fusion_lat": 0.0}, {"bike_id": "bd9d66cfdeb5178deb23f75955b8b21b", "fusion_lon": 0.0, "lon": -77.03259283333334, "name": "bd9d66cfdeb5178deb23f75955b8b21b", "is_disabled": 0, "rental_uris": {"android": "https://dc.lft.to/lastmile_qr_scan", "ios": "https://dc.lft.to/lastmile_qr_scan"}, "type": "electric_scooter", "lat": 38.939743666666665, "is_reserved": 0, "fusion_lat": 0.0}, {"bike_id": "430bbc11ae6bae0aa41621c37a5ea407", "fusion_lon": 0.0, "lon": -77.02192033333333, "name": "430bbc11ae6bae0aa41621c37a5ea407", "is_disabled": 0, "rental_uris": {"android": "https://dc.lft.to/lastmile_qr_scan", "ios": "https://dc.lft.to/lastmile_qr_scan"}, "type": "electric_scooter", "lat": 38.9184605, "is_reserved": 0, "fusion_lat": 0.0}, {"bike_id": "3746db75acda58a67a8ce51fba5f843f", "fusion_lon": 0.0, "lon": -76.98074883333334, "name": "3746db75acda58a67a8ce51fba5f843f", "is_disabled": 0, "rental_uris": {"android": "https://dc.lft.to/lastmile_qr_scan", "ios": "https://dc.lft.to/lastmile_qr_scan"}, "type": "electric_scooter", "lat": 38.90169483333333, "is_reserved": 0, "fusion_lat": 0.0}, {"bike_id": "6e01693c098ced6705e11154aa09884c", "fusion_lon": 0.0, "lon": -77.02788183333334, "name": "6e01693c098ced6705e11154aa09884c", "is_disabled": 0, "rental_uris": {"android": "https://dc.lft.to/lastmile_qr_scan", "ios": "https://dc.lft.to/lastmile_qr_scan"}, "type": "electric_scooter", "lat": 38.92771166666667, "is_reserved": 0, "fusion_lat": 0.0}, {"bike_id": "a799c8f97861ea58886b362d22008f0f", "fusion_lon": 0.0, "lon": -77.043874, "name": "a799c8f97861ea58886b362d22008f0f", "is_disabled": 0, "rental_uris": {"android": "https://dc.lft.to/lastmile_qr_scan", "ios": "https://dc.lft.to/lastmile_qr_scan"}, "type": "electric_scooter", "lat": 38.920544166666666, "is_reserved": 0, "fusion_lat": 0.0}, {"bike_id": "38c488b4d1718cd0b07e8f1e76e2070f", "fusion_lon": 0.0, "lon": -76.9487635, "name": "38c488b4d1718cd0b07e8f1e76e2070f", "is_disabled": 0, "rental_uris": {"android": "https://dc.lft.to/lastmile_qr_scan", "ios": "https://dc.lft.to/lastmile_qr_scan"}, "type": "electric_scooter", "lat": 38.895009, "is_reserved": 0, "fusion_lat": 0.0}, {"bike_id": "2ba4dc7fecde4f8710331ee179a32a35", "fusion_lon": 0.0, "lon": -77.04597333333334, "name": "2ba4dc7fecde4f8710331ee179a32a35", "is_disabled": 0, "rental_uris": {"android": "https://dc.lft.to/lastmile_qr_scan", "ios": "https://dc.lft.to/lastmile_qr_scan"}, "type": "electric_scooter", "lat": 38.91694833333333, "is_reserved": 0, "fusion_lat": 0.0}, {"bike_id": "6c9195a147db7cabb6ffd75be879a389", "fusion_lon": 0.0, "lon": -77.021528, "name": "6c9195a147db7cabb6ffd75be879a389", "is_disabled": 0, "rental_uris": {"android": "https://dc.lft.to/lastmile_qr_scan", "ios": "https://dc.lft.to/lastmile_qr_scan"}, "type": "electric_scooter", "lat": 38.909562333333334, "is_reserved": 0, "fusion_lat": 0.0}, {"bike_id": "95a2d8ce555bc4cebdf48cbb96bb59ca", "fusion_lon": 0.0, "lon": -77.016079, "name": "95a2d8ce555bc4cebdf48cbb96bb59ca", "is_disabled": 0, "rental_uris": {"android": "https://dc.lft.to/lastmile_qr_scan", "ios": "https://dc.lft.to/lastmile_qr_scan"}, "type": "electric_scooter", "lat": 38.91279216666667, "is_reserved": 0, "fusion_lat": 0.0}, {"bike_id": "8062dcd7818f4172dc5a9f3043c907c5", "fusion_lon": 0.0, "lon": -77.0763775, "name": "8062dcd7818f4172dc5a9f3043c907c5", "is_disabled": 0, "rental_uris": {"android": "https://dc.lft.to/lastmile_qr_scan", "ios": "https://dc.lft.to/lastmile_qr_scan"}, "type": "electric_scooter", "lat": 38.9320425, "is_reserved": 0, "fusion_lat": 0.0}, {"bike_id": "fe675654c3425ccc2e1d7b87a0bf75bb", "fusion_lon": 0.0, "lon": -77.04813916666667, "name": "fe675654c3425ccc2e1d7b87a0bf75bb", "is_disabled": 0, "rental_uris": {"android": "https://dc.lft.to/lastmile_qr_scan", "ios": "https://dc.lft.to/lastmile_qr_scan"}, "type": "electric_scooter", "lat": 38.911124, "is_reserved": 0, "fusion_lat": 0.0}, {"bike_id": "ff79d31fd05e30974dc2126973b43420", "fusion_lon": 0.0, "lon": -77.04883333333333, "name": "ff79d31fd05e30974dc2126973b43420", "is_disabled": 0, "rental_uris": {"android": "https://dc.lft.to/lastmile_qr_scan", "ios": "https://dc.lft.to/lastmile_qr_scan"}, "type": "electric_scooter", "lat": 38.9007115, "is_reserved": 0, "fusion_lat": 0.0}, {"bike_id": "cdb81e45caf1d64ac1e5977cb7d84f86", "fusion_lon": 0.0, "lon": -77.0390215, "name": "cdb81e45caf1d64ac1e5977cb7d84f86", "is_disabled": 0, "rental_uris": {"android": "https://dc.lft.to/lastmile_qr_scan", "ios": "https://dc.lft.to/lastmile_qr_scan"}, "type": "electric_scooter", "lat": 38.92191316666667, "is_reserved": 0, "fusion_lat": 0.0}, {"bike_id": "ab24c107326d6c018060477c2724d38a", "fusion_lon": 0.0, "lon": -77.03664216666667, "name": "ab24c107326d6c018060477c2724d38a", "is_disabled": 0, "rental_uris": {"android": "https://dc.lft.to/lastmile_qr_scan", "ios": "https://dc.lft.to/lastmile_qr_scan"}, "type": "electric_scooter", "lat": 38.92330616666667, "is_reserved": 0, "fusion_lat": 0.0}, {"bike_id": "9979bd674218072316d91a53729387be", "fusion_lon": 0.0, "lon": -77.02388733333333, "name": "9979bd674218072316d91a53729387be", "is_disabled": 0, "rental_uris": {"android": "https://dc.lft.to/lastmile_qr_scan", "ios": "https://dc.lft.to/lastmile_qr_scan"}, "type": "electric_scooter", "lat": 38.9112335, "is_reserved": 0, "fusion_lat": 0.0}, {"bike_id": "ebbb58b51686d9f5c4d5a7d8e87006c6", "fusion_lon": 0.0, "lon": -77.02713233333333, "name": "ebbb58b51686d9f5c4d5a7d8e87006c6", "is_disabled": 0, "rental_uris": {"android": "https://dc.lft.to/lastmile_qr_scan", "ios": "https://dc.lft.to/lastmile_qr_scan"}, "type": "electric_scooter", "lat": 38.90691233333333, "is_reserved": 0, "fusion_lat": 0.0}, {"bike_id": "365d5c42ee906bb04e64556867dc5b85", "fusion_lon": 0.0, "lon": -76.98166016666667, "name": "365d5c42ee906bb04e64556867dc5b85", "is_disabled": 0, "rental_uris": {"android": "https://dc.lft.to/lastmile_qr_scan", "ios": "https://dc.lft.to/lastmile_qr_scan"}, "type": "electric_scooter", "lat": 38.856777666666666, "is_reserved": 0, "fusion_lat": 0.0}, {"bike_id": "043f45cd87a9db636a8ba0ab518e448d", "fusion_lon": 0.0, "lon": -77.0400525, "name": "043f45cd87a9db636a8ba0ab518e448d", "is_disabled": 0, "rental_uris": {"android": "https://dc.lft.to/lastmile_qr_scan", "ios": "https://dc.lft.to/lastmile_qr_scan"}, "type": "electric_scooter", "lat": 38.934305, "is_reserved": 0, "fusion_lat": 0.0}, {"bike_id": "3cb94b94c49447281b2956d0e154646c", "fusion_lon": 0.0, "lon": -76.996927, "name": "3cb94b94c49447281b2956d0e154646c", "is_disabled": 0, "rental_uris": {"android": "https://dc.lft.to/lastmile_qr_scan", "ios": "https://dc.lft.to/lastmile_qr_scan"}, "type": "electric_bike", "lat": 38.838631166666666, "is_reserved": 0, "fusion_lat": 0.0}, {"bike_id": "3638b69f4d26ca11365ba179f3380e8b", "fusion_lon": 0.0, "lon": -77.03287583333334, "name": "3638b69f4d26ca11365ba179f3380e8b", "is_disabled": 0, "rental_uris": {"android": "https://dc.lft.to/lastmile_qr_scan", "ios": "https://dc.lft.to/lastmile_qr_scan"}, "type": "electric_scooter", "lat": 38.919916666666666, "is_reserved": 0, "fusion_lat": 0.0}, {"bike_id": "2aa7a94b9738f77424333250effd3f53", "fusion_lon": 0.0, "lon": -77.01753283333333, "name": "2aa7a94b9738f77424333250effd3f53", "is_disabled": 0, "rental_uris": {"android": "https://dc.lft.to/lastmile_qr_scan", "ios": "https://dc.lft.to/lastmile_qr_scan"}, "type": "electric_scooter", "lat": 38.877206666666666, "is_reserved": 0, "fusion_lat": 0.0}, {"bike_id": "ad65f7342b80718f845ba84d6ea293b2", "fusion_lon": 0.0, "lon": -77.0420315, "name": "ad65f7342b80718f845ba84d6ea293b2", "is_disabled": 0, "rental_uris": {"android": "https://dc.lft.to/lastmile_qr_scan", "ios": "https://dc.lft.to/lastmile_qr_scan"}, "type": "electric_scooter", "lat": 38.920435499999996, "is_reserved": 0, "fusion_lat": 0.0}, {"bike_id": "079e1dbe58804c14e8c162f72b302891", "fusion_lon": 0.0, "lon": -77.01945316666666, "name": "079e1dbe58804c14e8c162f72b302891", "is_disabled": 0, "rental_uris": {"android": "https://dc.lft.to/lastmile_qr_scan", "ios": "https://dc.lft.to/lastmile_qr_scan"}, "type": "electric_scooter", "lat": 38.924173833333334, "is_reserved": 0, "fusion_lat": 0.0}, {"bike_id": "8e668242785a34e62757d2c578bd46bb", "fusion_lon": 0.0, "lon": -77.00673383333333, "name": "8e668242785a34e62757d2c578bd46bb", "is_disabled": 0, "rental_uris": {"android": "https://dc.lft.to/lastmile_qr_scan", "ios": "https://dc.lft.to/lastmile_qr_scan"}, "type": "electric_bike", "lat": 38.945138166666666, "is_reserved": 0, "fusion_lat": 0.0}, {"bike_id": "9016f4d2234a84f48d3a35c3600a9f73", "fusion_lon": 0.0, "lon": -76.9871295, "name": "9016f4d2234a84f48d3a35c3600a9f73", "is_disabled": 0, "rental_uris": {"android": "https://dc.lft.to/lastmile_qr_scan", "ios": "https://dc.lft.to/lastmile_qr_scan"}, "type": "electric_scooter", "lat": 38.866989833333335, "is_reserved": 0, "fusion_lat": 0.0}, {"bike_id": "7e1725e413542c8b0f9f6c6ded01605f", "fusion_lon": 0.0, "lon": -76.949424, "name": "7e1725e413542c8b0f9f6c6ded01605f", "is_disabled": 0, "rental_uris": {"android": "https://dc.lft.to/lastmile_qr_scan", "ios": "https://dc.lft.to/lastmile_qr_scan"}, "type": "electric_scooter", "lat": 38.893511833333335, "is_reserved": 0, "fusion_lat": 0.0}, {"bike_id": "882660a52d4b3affe15f184c5ee46e2f", "fusion_lon": 0.0, "lon": -77.02513133333333, "name": "882660a52d4b3affe15f184c5ee46e2f", "is_disabled": 0, "rental_uris": {"android": "https://dc.lft.to/lastmile_qr_scan", "ios": "https://dc.lft.to/lastmile_qr_scan"}, "type": "electric_scooter", "lat": 38.946206833333335, "is_reserved": 0, "fusion_lat": 0.0}, {"bike_id": "0832b39aa21a7668bb2dd1dea473fd5f", "fusion_lon": 0.0, "lon": -77.05392983333333, "name": "0832b39aa21a7668bb2dd1dea473fd5f", "is_disabled": 0, "rental_uris": {"android": "https://dc.lft.to/lastmile_qr_scan", "ios": "https://dc.lft.to/lastmile_qr_scan"}, "type": "electric_scooter", "lat": 38.9281115, "is_reserved": 0, "fusion_lat": 0.0}, {"bike_id": "20735812ec7b6f4bd907ea8fef223224", "fusion_lon": 0.0, "lon": -77.00563283333334, "name": "20735812ec7b6f4bd907ea8fef223224", "is_disabled": 0, "rental_uris": {"android": "https://dc.lft.to/lastmile_qr_scan", "ios": "https://dc.lft.to/lastmile_qr_scan"}, "type": "electric_scooter", "lat": 38.90572, "is_reserved": 0, "fusion_lat": 0.0}, {"bike_id": "6cdf106aa3255319711babc0a78760c1", "fusion_lon": 0.0, "lon": -77.03518116666666, "name": "6cdf106aa3255319711babc0a78760c1", "is_disabled": 0, "rental_uris": {"android": "https://dc.lft.to/lastmile_qr_scan", "ios": "https://dc.lft.to/lastmile_qr_scan"}, "type": "electric_scooter", "lat": 38.92318733333333, "is_reserved": 0, "fusion_lat": 0.0}, {"bike_id": "bff86092d8aa9684715285d41992689e", "fusion_lon": 0.0, "lon": -77.01191166666666, "name": "bff86092d8aa9684715285d41992689e", "is_disabled": 0, "rental_uris": {"android": "https://dc.lft.to/lastmile_qr_scan", "ios": "https://dc.lft.to/lastmile_qr_scan"}, "type": "electric_scooter", "lat": 38.91551316666666, "is_reserved": 0, "fusion_lat": 0.0}, {"bike_id": "bf32046830f646db576198f7af4c091c", "fusion_lon": 0.0, "lon": -77.03659666666667, "name": "bf32046830f646db576198f7af4c091c", "is_disabled": 0, "rental_uris": {"android": "https://dc.lft.to/lastmile_qr_scan", "ios": "https://dc.lft.to/lastmile_qr_scan"}, "type": "electric_scooter", "lat": 38.92982, "is_reserved": 0, "fusion_lat": 0.0}, {"bike_id": "f6164f824932e9c59a986a027b9c6b98", "fusion_lon": 0.0, "lon": -77.02958416666667, "name": "f6164f824932e9c59a986a027b9c6b98", "is_disabled": 0, "rental_uris": {"android": "https://dc.lft.to/lastmile_qr_scan", "ios": "https://dc.lft.to/lastmile_qr_scan"}, "type": "electric_scooter", "lat": 38.88408416666667, "is_reserved": 0, "fusion_lat": 0.0}, {"bike_id": "ea4be3d847ddfb28dcc839a888c3842d", "fusion_lon": 0.0, "lon": -77.0378185, "name": "ea4be3d847ddfb28dcc839a888c3842d", "is_disabled": 0, "rental_uris": {"android": "https://dc.lft.to/lastmile_qr_scan", "ios": "https://dc.lft.to/lastmile_qr_scan"}, "type": "electric_scooter", "lat": 38.925148166666666, "is_reserved": 0, "fusion_lat": 0.0}, {"bike_id": "3fe0cf459a7b2ed1607b3c56e5c6e658", "fusion_lon": 0.0, "lon": -77.03191616666666, "name": "3fe0cf459a7b2ed1607b3c56e5c6e658", "is_disabled": 0, "rental_uris": {"android": "https://dc.lft.to/lastmile_qr_scan", "ios": "https://dc.lft.to/lastmile_qr_scan"}, "type": "electric_scooter", "lat": 38.914649, "is_reserved": 0, "fusion_lat": 0.0}, {"bike_id": "bd9e73b70a4a77b3ae85eaa4ce7215f2", "fusion_lon": 0.0, "lon": -76.98823, "name": "bd9e73b70a4a77b3ae85eaa4ce7215f2", "is_disabled": 0, "rental_uris": {"android": "https://dc.lft.to/lastmile_qr_scan", "ios": "https://dc.lft.to/lastmile_qr_scan"}, "type": "electric_scooter", "lat": 38.90030383333333, "is_reserved": 0, "fusion_lat": 0.0}, {"bike_id": "a7ac693576643bbf87c7914dde2ef6e0", "fusion_lon": 0.0, "lon": -77.01662883333333, "name": "a7ac693576643bbf87c7914dde2ef6e0", "is_disabled": 0, "rental_uris": {"android": "https://dc.lft.to/lastmile_qr_scan", "ios": "https://dc.lft.to/lastmile_qr_scan"}, "type": "electric_scooter", "lat": 38.88119066666667, "is_reserved": 0, "fusion_lat": 0.0}, {"bike_id": "d42e7ef9cb36e98b71066c5a3b29df8b", "fusion_lon": 0.0, "lon": -77.10091516666667, "name": "d42e7ef9cb36e98b71066c5a3b29df8b", "is_disabled": 0, "rental_uris": {"android": "https://dc.lft.to/lastmile_qr_scan", "ios": "https://dc.lft.to/lastmile_qr_scan"}, "type": "electric_bike", "lat": 38.9596, "is_reserved": 0, "fusion_lat": 0.0}, {"bike_id": "2e7f245abb82cc43bd567ccc98acbd6b", "fusion_lon": 0.0, "lon": -77.02719983333333, "name": "2e7f245abb82cc43bd567ccc98acbd6b", "is_disabled": 0, "rental_uris": {"android": "https://dc.lft.to/lastmile_qr_scan", "ios": "https://dc.lft.to/lastmile_qr_scan"}, "type": "electric_scooter", "lat": 38.94089733333333, "is_reserved": 0, "fusion_lat": 0.0}, {"bike_id": "431e49531f9e8f4750b0ef007a91934b", "fusion_lon": 0.0, "lon": -77.0231715, "name": "431e49531f9e8f4750b0ef007a91934b", "is_disabled": 0, "rental_uris": {"android": "https://dc.lft.to/lastmile_qr_scan", "ios": "https://dc.lft.to/lastmile_qr_scan"}, "type": "electric_scooter", "lat": 38.92770866666667, "is_reserved": 0, "fusion_lat": 0.0}, {"bike_id": "15f84251daed9f862dfeef670f5d33ae", "fusion_lon": 0.0, "lon": -77.03568216666666, "name": "15f84251daed9f862dfeef670f5d33ae", "is_disabled": 0, "rental_uris": {"android": "https://dc.lft.to/lastmile_qr_scan", "ios": "https://dc.lft.to/lastmile_qr_scan"}, "type": "electric_scooter", "lat": 38.92797633333333, "is_reserved": 0, "fusion_lat": 0.0}, {"bike_id": "63cfb4d5c51786d7464ecdc112ad0f9a", "fusion_lon": 0.0, "lon": -77.04890833333333, "name": "63cfb4d5c51786d7464ecdc112ad0f9a", "is_disabled": 0, "rental_uris": {"android": "https://dc.lft.to/lastmile_qr_scan", "ios": "https://dc.lft.to/lastmile_qr_scan"}, "type": "electric_scooter", "lat": 38.900763833333336, "is_reserved": 0, "fusion_lat": 0.0}, {"bike_id": "d6a471e78df23955080c4f24b83ca210", "fusion_lon": 0.0, "lon": -77.00208916666666, "name": "d6a471e78df23955080c4f24b83ca210", "is_disabled": 0, "rental_uris": {"android": "https://dc.lft.to/lastmile_qr_scan", "ios": "https://dc.lft.to/lastmile_qr_scan"}, "type": "electric_scooter", "lat": 38.90786683333333, "is_reserved": 0, "fusion_lat": 0.0}, {"bike_id": "c3f44f6ea5740a6ed5f2542c846fe388", "fusion_lon": 0.0, "lon": -77.03543666666667, "name": "c3f44f6ea5740a6ed5f2542c846fe388", "is_disabled": 0, "rental_uris": {"android": "https://dc.lft.to/lastmile_qr_scan", "ios": "https://dc.lft.to/lastmile_qr_scan"}, "type": "electric_scooter", "lat": 38.924757, "is_reserved": 0, "fusion_lat": 0.0}, {"bike_id": "cc5e959873352d17d9d0bc328458293d", "fusion_lon": 0.0, "lon": -77.0243325, "name": "cc5e959873352d17d9d0bc328458293d", "is_disabled": 0, "rental_uris": {"android": "https://dc.lft.to/lastmile_qr_scan", "ios": "https://dc.lft.to/lastmile_qr_scan"}, "type": "electric_bike", "lat": 38.94833066666666, "is_reserved": 0, "fusion_lat": 0.0}, {"bike_id": "f418f3323399d709a20238904bf51372", "fusion_lon": 0.0, "lon": -77.032656, "name": "f418f3323399d709a20238904bf51372", "is_disabled": 0, "rental_uris": {"android": "https://dc.lft.to/lastmile_qr_scan", "ios": "https://dc.lft.to/lastmile_qr_scan"}, "type": "electric_scooter", "lat": 38.916243, "is_reserved": 0, "fusion_lat": 0.0}, {"bike_id": "6cec263a260b4f06a0539955a022f9f8", "fusion_lon": 0.0, "lon": -77.027014, "name": "6cec263a260b4f06a0539955a022f9f8", "is_disabled": 0, "rental_uris": {"android": "https://dc.lft.to/lastmile_qr_scan", "ios": "https://dc.lft.to/lastmile_qr_scan"}, "type": "electric_scooter", "lat": 38.918000166666666, "is_reserved": 0, "fusion_lat": 0.0}, {"bike_id": "20f161fb9951772cd1ffa15fcfc337d9", "fusion_lon": 0.0, "lon": -77.03768666666667, "name": "20f161fb9951772cd1ffa15fcfc337d9", "is_disabled": 0, "rental_uris": {"android": "https://dc.lft.to/lastmile_qr_scan", "ios": "https://dc.lft.to/lastmile_qr_scan"}, "type": "electric_scooter", "lat": 38.92503216666667, "is_reserved": 0, "fusion_lat": 0.0}, {"bike_id": "99a9a6bc4946360da5b5111f2ed25fd8", "fusion_lon": 0.0, "lon": -77.034792, "name": "99a9a6bc4946360da5b5111f2ed25fd8", "is_disabled": 0, "rental_uris": {"android": "https://dc.lft.to/lastmile_qr_scan", "ios": "https://dc.lft.to/lastmile_qr_scan"}, "type": "electric_bike", "lat": 38.93530166666667, "is_reserved": 0, "fusion_lat": 0.0}, {"bike_id": "641eb616a75714587052cd833150cf49", "fusion_lon": 0.0, "lon": -76.99429466666666, "name": "641eb616a75714587052cd833150cf49", "is_disabled": 0, "rental_uris": {"android": "https://dc.lft.to/lastmile_qr_scan", "ios": "https://dc.lft.to/lastmile_qr_scan"}, "type": "electric_scooter", "lat": 38.903176, "is_reserved": 0, "fusion_lat": 0.0}, {"bike_id": "fc8bfdf7b00338685ea0b50de97a03e5", "fusion_lon": 0.0, "lon": -77.04356716666666, "name": "fc8bfdf7b00338685ea0b50de97a03e5", "is_disabled": 0, "rental_uris": {"android": "https://dc.lft.to/lastmile_qr_scan", "ios": "https://dc.lft.to/lastmile_qr_scan"}, "type": "electric_scooter", "lat": 38.912938, "is_reserved": 0, "fusion_lat": 0.0}, {"bike_id": "699fb777dcda487f5632222f06d5cc8e", "fusion_lon": 0.0, "lon": -77.00346383333333, "name": "699fb777dcda487f5632222f06d5cc8e", "is_disabled": 0, "rental_uris": {"android": "https://dc.lft.to/lastmile_qr_scan", "ios": "https://dc.lft.to/lastmile_qr_scan"}, "type": "electric_scooter", "lat": 38.889960333333335, "is_reserved": 0, "fusion_lat": 0.0},