{"data": {"bikes": [{"is_reserved": 0, "type": "electric_scooter", "bike_id": "b5ec6af685d0d141c4fa3f4c20f932b3", "lat": 38.9055585, "lon": -77.02729283333333, "rental_uris": {"android": "https://dc.lft.to/lastmile_qr_scan", "ios": "https://dc.lft.to/lastmile_qr_scan"}, "is_disabled": 0, "fusion_lat": 0.0, "name": "b5ec6af685d0d141c4fa3f4c20f932b3", "fusion_lon": 0.0}, {"is_reserved": 0, "type": "electric_scooter", "bike_id": "c815f6dea44bfed430e297524c077238", "lat": 38.87294166666667, "lon": -77.002334, "rental_uris": {"android": "https://dc.lft.to/lastmile_qr_scan", "ios": "https://dc.lft.to/lastmile_qr_scan"}, "is_disabled": 0, "fusion_lat": 0.0, "name": "c815f6dea44bfed430e297524c077238", "fusion_lon": 0.0}, {"is_reserved": 0, "type": "electric_scooter", "bike_id": "923f197f9ac359bdd4139ac7e3616f8c", "lat": 38.927957166666666, "lon": -77.02535616666667, "rental_uris": {"android": "https://dc.lft.to/lastmile_qr_scan", "ios": "https://dc.lft.to/lastmile_qr_scan"}, "is_disabled": 0, "fusion_lat": 0.0, "name": "923f197f9ac359bdd4139ac7e3616f8c", "fusion_lon": 0.0}, {"is_reserved": 0, "type": "electric_scooter", "bike_id": "ceca1d5345d8837a948c211656861fcf", "lat": 38.92639966666667, "lon": -77.03480216666667, "rental_uris": {"android": "https://dc.lft.to/lastmile_qr_scan", "ios": "https://dc.lft.to/lastmile_qr_scan"}, "is_disabled": 0, "fusion_lat": 0.0, "name": "ceca1d5345d8837a948c211656861fcf", "fusion_lon": 0.0}, {"is_reserved": 0, "type": "electric_scooter", "bike_id": "5e6b8e01a11af413bbc4f3d4eb524db4", "lat": 38.89144433333333, "lon": -76.99952066666667, "rental_uris": {"android": "https://dc.lft.to/lastmile_qr_scan", "ios": "https://dc.lft.to/lastmile_qr_scan"}, "is_disabled": 0, "fusion_lat": 0.0, "name": "5e6b8e01a11af413bbc4f3d4eb524db4", "fusion_lon": 0.0}, {"is_reserved": 0, "type": "electric_scooter", "bike_id": "9b3307f0c428fbba77996fe97d806cb5", "lat": 38.9076795, "lon": -77.00250833333334, "rental_uris": {"android": "https://dc.lft.to/lastmile_qr_scan", "ios": "https://dc.lft.to/lastmile_qr_scan"}, "is_disabled": 0, "fusion_lat": 0.0, "name": "9b3307f0c428fbba77996fe97d806cb5", "fusion_lon": 0.0}, {"is_reserved": 0, "type": "electric_scooter", "bike_id": "672f48e45ae27912c0e047fd1a2e7b90", "lat": 38.92441483333333, "lon": -76.99669433333334, "rental_uris": {"android": "https://dc.lft.to/lastmile_qr_scan", "ios": "https://dc.lft.to/lastmile_qr_scan"}, "is_disabled": 0, "fusion_lat": 0.0, "name": "672f48e45ae27912c0e047fd1a2e7b90", "fusion_lon": 0.0}, {"is_reserved": 0, "type": "electric_bike", "bike_id": "627ee76aa68a5d2828c909f4e94d57e5", "lat": 38.86288483333333, "lon": -76.98011666666666, "rental_uris": {"android": "https://dc.lft.to/lastmile_qr_scan", "ios": "https://dc.lft.to/lastmile_qr_scan"}, "is_disabled": 0, "fusion_lat": 0.0, "name": "627ee76aa68a5d2828c909f4e94d57e5", "fusion_lon": 0.0}, {"is_reserved": 0, "type": "electric_bike", "bike_id": "eb61a8afe1beaff6b378a84e9042e942", "lat": 38.92115733333333, "lon": -76.98879316666667, "rental_uris": {"android": "https://dc.lft.to/lastmile_qr_scan", "ios": "https://dc.lft.to/lastmile_qr_scan"}, "is_disabled": 0, "fusion_lat": 0.0, "name": "eb61a8afe1beaff6b378a84e9042e942", "fusion_lon": 0.0}, {"is_reserved": 0, "type": "electric_bike", "bike_id": "f9631c686afc7a862cab786296664e7e", "lat": 39.01092883333333, "lon": -77.049589, "rental_uris": {"android": "https://dc.lft.to/lastmile_qr_scan", "ios": "https://dc.lft.to/lastmile_qr_scan"}, "is_disabled": 0, "fusion_lat": 0.0, "name": "f9631c686afc7a862cab786296664e7e", "fusion_lon": 0.0}, {"is_reserved": 0, "type": "electric_scooter", "bike_id": "cf08c69744e70a4fc707010884b813fe", "lat": 38.91822716666667, "lon": -77.01212, "rental_uris": {"android": "https://dc.lft.to/lastmile_qr_scan", "ios": "https://dc.lft.to/lastmile_qr_scan"}, "is_disabled": 0, "fusion_lat": 0.0, "name": "cf08c69744e70a4fc707010884b813fe", "fusion_lon": 0.0}, {"is_reserved": 0, "type": "electric_bike", "bike_id": "790e20b6827cbb7e2a0d0a6a9788344d", "lat": 39.00003233333333, "lon": -76.91805366666667, "rental_uris": {"android": "https://dc.lft.to/lastmile_qr_scan", "ios": "https://dc.lft.to/lastmile_qr_scan"}, "is_disabled": 0, "fusion_lat": 0.0, "name": "790e20b6827cbb7e2a0d0a6a9788344d", "fusion_lon": 0.0}, {"is_reserved": 0, "type": "electric_scooter", "bike_id": "d7c36c1b0a2954f643979055aafca85d", "lat": 38.925363, "lon": -77.0382325, "rental_uris": {"android": "https://dc.lft.to/lastmile_qr_scan", "ios": "https://dc.lft.to/lastmile_qr_scan"}, "is_disabled": 0, "fusion_lat": 0.0, "name": "d7c36c1b0a2954f643979055aafca85d", "fusion_lon": 0.0}, {"is_reserved": 0, "type": "electric_scooter", "bike_id": "c7e761733683536c5150f8f79b7f0b02", "lat": 38.901786333333334, "lon": -77.00121966666667, "rental_uris": {"android": "https://dc.lft.to/lastmile_qr_scan", "ios": "https://dc.lft.to/lastmile_qr_scan"}, "is_disabled": 0, "fusion_lat": 0.0, "name": "c7e761733683536c5150f8f79b7f0b02", "fusion_lon": 0.0}, {"is_reserved": 0, "type": "electric_scooter", "bike_id": "80f85ae291929d68219d648c66c5d690", "lat": 38.917100833333336, "lon": -77.03726116666667, "rental_uris": {"android": "https://dc.lft.to/lastmile_qr_scan", "ios": "https://dc.lft.to/lastmile_qr_scan"}, "is_disabled": 0, "fusion_lat": 0.0, "name": "80f85ae291929d68219d648c66c5d690", "fusion_lon": 0.0}, {"is_reserved": 0, "type": "electric_bike", "bike_id": "73855a05ba344a4f7e611964741a9409", "lat": 38.838148333333336, "lon": -77.095257, "rental_uris": {"android": "https://dc.lft.to/lastmile_qr_scan", "ios": "https://dc.lft.to/lastmile_qr_scan"}, "is_disabled": 0, "fusion_lat": 0.0, "name": "73855a05ba344a4f7e611964741a9409", "fusion_lon": 0.0}, {"is_reserved": 0, "type": "electric_scooter", "bike_id": "f8cd55484206d37f9c03c05dc8c8975a", "lat": 38.89220133333333, "lon": -77.02628166666666, "rental_uris": {"android": "https://dc.lft.to/lastmile_qr_scan", "ios": "https://dc.lft.to/lastmile_qr_scan"}, "is_disabled": 0, "fusion_lat": 0.0, "name": "f8cd55484206d37f9c03c05dc8c8975a", "fusion_lon": 0.0}, {"is_reserved": 0, "type": "electric_scooter", "bike_id": "43db9e1699a1dae38cbb6a39f70fb8c9", "lat": 38.93659066666667, "lon": -77.0550045, "rental_uris": {"android": "https://dc.lft.to/lastmile_qr_scan", "ios": "https://dc.lft.to/lastmile_qr_scan"}, "is_disabled": 0, "fusion_lat": 0.0, "name": "43db9e1699a1dae38cbb6a39f70fb8c9", "fusion_lon": 0.0}, {"is_reserved": 0, "type": "electric_scooter", "bike_id": "5538c6a426c053efbf44b0f6436780c0", "lat": 38.919253499999996, "lon": -77.0342735, "rental_uris": {"android": "https://dc.lft.to/lastmile_qr_scan", "ios": "https://dc.lft.to/lastmile_qr_scan"}, "is_disabled": 0, "fusion_lat": 0.0, "name": "5538c6a426c053efbf44b0f6436780c0", "fusion_lon": 0.0}, {"is_reserved": 0, "type": "electric_scooter", "bike_id": "4c72f69c31b20216751519751e11f9f0", "lat": 38.9350535, "lon": -77.020082, "rental_uris": {"android": "https://dc.lft.to/lastmile_qr_scan", "ios": "https://dc.lft.to/lastmile_qr_scan"}, "is_disabled": 0, "fusion_lat": 0.0, "name": "4c72f69c31b20216751519751e11f9f0", "fusion_lon": 0.0}, {"is_reserved": 0, "type": "electric_scooter", "bike_id": "8ca1380e2b45b0312f2f0d9680c4b5b9", "lat": 38.93194783333333, "lon": -77.0281835, "rental_uris": {"android": "https://dc.lft.to/lastmile_qr_scan", "ios": "https://dc.lft.to/lastmile_qr_scan"}, "is_disabled": 0, "fusion_lat": 0.0, "name": "8ca1380e2b45b0312f2f0d9680c4b5b9", "fusion_lon": 0.0}, {"is_reserved": 0, "type": "electric_scooter", "bike_id": "b0886f2a181a7366071c595d4bea169c", "lat": 38.920753500000004, "lon": -77.02389366666667, "rental_uris": {"android": "https://dc.lft.to/lastmile_qr_scan", "ios": "https://dc.lft.to/lastmile_qr_scan"}, "is_disabled": 0, "fusion_lat": 0.0, "name": "b0886f2a181a7366071c595d4bea169c", "fusion_lon": 0.0}, {"is_reserved": 0, "type": "electric_scooter", "bike_id": "c8d4c202e4dd32b8a9417fcaf7b30463", "lat": 38.90263266666667, "lon": -77.02886883333333, "rental_uris": {"android": "https://dc.lft.to/lastmile_qr_scan", "ios": "https://dc.lft.to/lastmile_qr_scan"}, "is_disabled": 0, "fusion_lat": 0.0, "name": "c8d4c202e4dd32b8a9417fcaf7b30463", "fusion_lon": 0.0}, {"is_reserved": 0, "type": "electric_scooter", "bike_id": "1bfdae5ab622b30011b9a6e609e11e2a", "lat": 38.90547933333333, "lon": -77.02225916666667, "rental_uris": {"android": "https://dc.lft.to/lastmile_qr_scan", "ios": "https://dc.lft.to/lastmile_qr_scan"}, "is_disabled": 0, "fusion_lat": 0.0, "name": "1bfdae5ab622b30011b9a6e609e11e2a", "fusion_lon": 0.0}, {"is_reserved": 0, "type": "electric_scooter", "bike_id": "2bf94cca16e5cb137f05ff5ed398e579", "lat": 38.91246233333333, "lon": -77.04336083333334, "rental_uris": {"android": "https://dc.lft.to/lastmile_qr_scan", "ios": "https://dc.lft.to/lastmile_qr_scan"}, "is_disabled": 0, "fusion_lat": 0.0, "name": "2bf94cca16e5cb137f05ff5ed398e579", "fusion_lon": 0.0}, {"is_reserved": 0, "type": "electric_bike", "bike_id": "d581955ae96a4e93e785289b99b02d27", "lat": 38.83014433333334, "lon": -76.99421466666666, "rental_uris": {"android": "https://dc.lft.to/lastmile_qr_scan", "ios": "https://dc.lft.to/lastmile_qr_scan"}, "is_disabled": 0, "fusion_lat": 0.0, "name": "d581955ae96a4e93e785289b99b02d27", "fusion_lon": 0.0}, {"is_reserved": 0, "type": "electric_scooter", "bike_id": "1692f7f5f4c2fd2308d3ae2afd81f630", "lat": 38.877937333333335, "lon": -77.0174275, "rental_uris": {"android": "https://dc.lft.to/lastmile_qr_scan", "ios": "https://dc.lft.to/lastmile_qr_scan"}, "is_disabled": 0, "fusion_lat": 0.0, "name": "1692f7f5f4c2fd2308d3ae2afd81f630", "fusion_lon": 0.0}, {"is_reserved": 0, "type": "electric_scooter", "bike_id": "ff66bd44b411c7ec43f61f04b81dd4e4", "lat": 38.9319085, "lon": -77.02379733333333, "rental_uris": {"android": "https://dc.lft.to/lastmile_qr_scan", "ios": "https://dc.lft.to/lastmile_qr_scan"}, "is_disabled": 0, "fusion_lat": 0.0, "name": "ff66bd44b411c7ec43f61f04b81dd4e4", "fusion_lon": 0.0}, {"is_reserved": 0, "type": "electric_scooter", "bike_id": "4eb2439d81236a05c888c900801c8f1e", "lat": 38.892445333333335, "lon": -77.0134145, "rental_uris": {"android": "https://dc.lft.to/lastmile_qr_scan", "ios": "https://dc.lft.to/lastmile_qr_scan"}, "is_disabled": 0, "fusion_lat": 0.0, "name": "4eb2439d81236a05c888c900801c8f1e", "fusion_lon": 0.0}, {"is_reserved": 0, "type": "electric_scooter", "bike_id": "8131f42b5e6f1217509e7a89584589d7", "lat": 38.911294, "lon": -77.04313216666667, "rental_uris": {"android": "https://dc.lft.to/lastmile_qr_scan", "ios": "https://dc.lft.to/lastmile_qr_scan"}, "is_disabled": 0, "fusion_lat": 0.0, "name": "8131f42b5e6f1217509e7a89584589d7", "fusion_lon": 0.0}, {"is_reserved": 0, "type": "electric_scooter", "bike_id": "7b4fa7dcb37533a25d77bbe259a8d816", "lat": 38.91918283333333, "lon": -77.04814733333333, "rental_uris": {"android": "https://dc.lft.to/lastmile_qr_scan", "ios": "https://dc.lft.to/lastmile_qr_scan"}, "is_disabled": 0, "fusion_lat": 0.0, "name": "7b4fa7dcb37533a25d77bbe259a8d816", "fusion_lon": 0.0}, {"is_reserved": 0, "type": "electric_scooter", "bike_id": "1c3699420cc00ff3cce49c671e07ca39", "lat": 38.89221466666667, "lon": -77.04867183333333, "rental_uris": {"android": "https://dc.lft.to/lastmile_qr_scan", "ios": "https://dc.lft.to/lastmile_qr_scan"}, "is_disabled": 0, "fusion_lat": 0.0, "name": "1c3699420cc00ff3cce49c671e07ca39", "fusion_lon": 0.0}, {"is_reserved": 0, "type": "electric_scooter", "bike_id": "913c1f99b893c29d4488ca3d131f3bf3", "lat": 38.92434466666667, "lon": -77.00067283333334, "rental_uris": {"android": "https://dc.lft.to/lastmile_qr_scan", "ios": "https://dc.lft.to/lastmile_qr_scan"}, "is_disabled": 0, "fusion_lat": 0.0, "name": "913c1f99b893c29d4488ca3d131f3bf3", "fusion_lon": 0.0}, {"is_reserved": 0, "type": "electric_scooter", "bike_id": "6b84c685b11e2567c94d58bec2d57e0a", "lat": 38.95046833333333, "lon": -77.0541095, "rental_uris": {"android": "https://dc.lft.to/lastmile_qr_scan", "ios": "https://dc.lft.to/lastmile_qr_scan"}, "is_disabled": 0, "fusion_lat": 0.0, "name": "6b84c685b11e2567c94d58bec2d57e0a", "fusion_lon": 0.0}, {"is_reserved": 0, "type": "electric_scooter", "bike_id": "9f866da988fcfc664d01a95903e7bb99", "lat": 38.900256, "lon": -76.998732, "rental_uris": {"android": "https://dc.lft.to/lastmile_qr_scan", "ios": "https://dc.lft.to/lastmile_qr_scan"}, "is_disabled": 0, "fusion_lat": 0.0, "name": "9f866da988fcfc664d01a95903e7bb99", "fusion_lon": 0.0}, {"is_reserved": 0, "type": "electric_bike", "bike_id": "8b0b145ee8f432fc93f15a5b331187ea", "lat": 38.944744, "lon": -76.98692366666667, "rental_uris": {"android": "https://dc.lft.to/lastmile_qr_scan", "ios": "https://dc.lft.to/lastmile_qr_scan"}, "is_disabled": 0, "fusion_lat": 0.0, "name": "8b0b145ee8f432fc93f15a5b331187ea", "fusion_lon": 0.0}, {"is_reserved": 0, "type": "electric_scooter", "bike_id": "379552b30f48743877fc5786e9be4b73", "lat": 38.91605916666666, "lon": -77.03728866666667, "rental_uris": {"android": "https://dc.lft.to/lastmile_qr_scan", "ios": "https://dc.lft.to/lastmile_qr_scan"}, "is_disabled": 0, "fusion_lat": 0.0, "name": "379552b30f48743877fc5786e9be4b73", "fusion_lon": 0.0}, {"is_reserved": 0, "type": "electric_scooter", "bike_id": "5f5d837b99386e324c03fe381735ff82", "lat": 38.925650166666664, "lon": -76.97012733333334, "rental_uris": {"android": "https://dc.lft.to/lastmile_qr_scan", "ios": "https://dc.lft.to/lastmile_qr_scan"}, "is_disabled": 0, "fusion_lat": 0.0, "name": "5f5d837b99386e324c03fe381735ff82", "fusion_lon": 0.0}, {"is_reserved": 0, "type": "electric_scooter", "bike_id": "f1a322bd17d305bcf6d791692f6324d4", "lat": 38.89849183333333, "lon": -76.927549, "rental_uris": {"android": "https://dc.lft.to/lastmile_qr_scan", "ios": "https://dc.lft.to/lastmile_qr_scan"}, "is_disabled": 0, "fusion_lat": 0.0, "name": "f1a322bd17d305bcf6d791692f6324d4", "fusion_lon": 0.0}, {"is_reserved": 0, "type": "electric_scooter", "bike_id": "d8dc6a365c80f2171811da3ae4545167", "lat": 38.912163166666666, "lon": -77.0270955, "rental_uris": {"android": "https://dc.lft.to/lastmile_qr_scan", "ios": "https://dc.lft.to/lastmile_qr_scan"}, "is_disabled": 0, "fusion_lat": 0.0, "name": "d8dc6a365c80f2171811da3ae4545167", "fusion_lon": 0.0}, {"is_reserved": 0, "type": "electric_scooter", "bike_id": "171ce7a64376cdf4d78c07a54814a5fd", "lat": 38.944402833333335, "lon": -77.02915183333333, "rental_uris": {"android": "https://dc.lft.to/lastmile_qr_scan", "ios": "https://dc.lft.to/lastmile_qr_scan"}, "is_disabled": 0, "fusion_lat": 0.0, "name": "171ce7a64376cdf4d78c07a54814a5fd", "fusion_lon": 0.0}, {"is_reserved": 0, "type": "electric_scooter", "bike_id": "e3c52d6f62f6be98f81e1171b3a24c95", "lat": 38.906676166666664, "lon": -76.98024466666666, "rental_uris": {"android": "https://dc.lft.to/lastmile_qr_scan", "ios": "https://dc.lft.to/lastmile_qr_scan"}, "is_disabled": 0, "fusion_lat": 0.0, "name": "e3c52d6f62f6be98f81e1171b3a24c95", "fusion_lon": 0.0}, {"is_reserved": 0, "type": "electric_scooter", "bike_id": "62dbeaa8642835b211a8d5090a1e9f19", "lat": 38.907232666666665, "lon": -77.0255675, "rental_uris": {"android": "https://dc.lft.to/lastmile_qr_scan", "ios": "https://dc.lft.to/lastmile_qr_scan"}, "is_disabled": 0, "fusion_lat": 0.0, "name": "62dbeaa8642835b211a8d5090a1e9f19", "fusion_lon": 0.0}, {"is_reserved": 0, "type": "electric_scooter", "bike_id": "99ef5e29b517ac2234a1396a1acc6b69", "lat": 38.871616, "lon": -77.01352333333334, "rental_uris": {"android": "https://dc.lft.to/lastmile_qr_scan", "ios": "https://dc.lft.to/lastmile_qr_scan"}, "is_disabled": 0, "fusion_lat": 0.0, "name": "99ef5e29b517ac2234a1396a1acc6b69", "fusion_lon": 0.0}, {"is_reserved": 0, "type": "electric_scooter", "bike_id": "bb72aa1cc5972f81a6ec75c3421c49a4", "lat": 38.9186885, "lon": -77.0448515, "rental_uris": {"android": "https://dc.lft.to/lastmile_qr_scan", "ios": "https://dc.lft.to/lastmile_qr_scan"}, "is_disabled": 0, "fusion_lat": 0.0, "name": "bb72aa1cc5972f81a6ec75c3421c49a4", "fusion_lon": 0.0}, {"is_reserved": 0, "type": "electric_scooter", "bike_id": "d571081e3bd781972dfd412510e6cff1", "lat": 38.920709333333335, "lon": -77.023902, "rental_uris": {"android": "https://dc.lft.to/lastmile_qr_scan", "ios": "https://dc.lft.to/lastmile_qr_scan"}, "is_disabled": 0, "fusion_lat": 0.0, "name": "d571081e3bd781972dfd412510e6cff1", "fusion_lon": 0.0}, {"is_reserved": 0, "type": "electric_scooter", "bike_id": "fe96416c18d9e662b52c6bb7409de9f7", "lat": 38.91662216666667, "lon": -76.9806955, "rental_uris": {"android": "https://dc.lft.to/lastmile_qr_scan", "ios": "https://dc.lft.to/lastmile_qr_scan"}, "is_disabled": 0, "fusion_lat": 0.0, "name": "fe96416c18d9e662b52c6bb7409de9f7", "fusion_lon": 0.0}, {"is_reserved": 0, "type": "electric_bike", "bike_id": "77c010712d7feb9fddd908d9c61f9f19", "lat": 38.92866716666666, "lon": -77.03369883333333, "rental_uris": {"android": "https://dc.lft.to/lastmile_qr_scan", "ios": "https://dc.lft.to/lastmile_qr_scan"}, "is_disabled": 0, "fusion_lat": 0.0, "name": "77c010712d7feb9fddd908d9c61f9f19", "fusion_lon": 0.0}, {"is_reserved": 0, "type": "electric_scooter", "bike_id": "0ff5fa40a010226fad50c2549108d8c7", "lat": 38.9369465, "lon": -77.02713816666666, "rental_uris": {"android": "https://dc.lft.to/lastmile_qr_scan", "ios": "https://dc.lft.to/lastmile_qr_scan"}, "is_disabled": 0, "fusion_lat": 0.0, "name": "0ff5fa40a010226fad50c2549108d8c7", "fusion_lon": 0.0}, {"is_reserved": 0, "type": "electric_scooter", "bike_id": "15fe8d988a5133172d0fe3c5c36d4e80", "lat": 38.89967516666667, "lon": -77.016151, "rental_uris": {"android": "https://dc.lft.to/lastmile_qr_scan", "ios": "https://dc.lft.to/lastmile_qr_scan"}, "is_disabled": 0, "fusion_lat": 0.0, "name": "15fe8d988a5133172d0fe3c5c36d4e80", "fusion_lon": 0.0}, {"is_reserved": 0, "type": "electric_bike", "bike_id": "47113a6a08bab28998b5425b99934584", "lat": 38.9554965, "lon": -76.96905833333334, "rental_uris": {"android": "https://dc.lft.to/lastmile_qr_scan", "ios": "https://dc.lft.to/lastmile_qr_scan"}, "is_disabled": 0, "fusion_lat": 0.0, "name": "47113a6a08bab28998b5425b99934584", "fusion_lon": 0.0}, {"is_reserved": 0, "type": "electric_bike", "bike_id": "c6439bd6a1dccea1c6228f49a586b6cd", "lat": 39.00028833333333, "lon": -77.04742933333333, "rental_uris": {"android": "https://dc.lft.to/lastmile_qr_scan", "ios": "https://dc.lft.to/lastmile_qr_scan"}, "is_disabled": 0, "fusion_lat": 0.0, "name": "c6439bd6a1dccea1c6228f49a586b6cd", "fusion_lon": 0.0}, {"is_reserved": 0, "type": "electric_scooter", "bike_id": "3e0f4aa9c41c5bba82cb2dfa95ef155f", "lat": 38.928290833333335, "lon": -77.0544125, "rental_uris": {"android": "https://dc.lft.to/lastmile_qr_scan", "ios": "https://dc.lft.to/lastmile_qr_scan"}, "is_disabled": 0, "fusion_lat": 0.0, "name": "3e0f4aa9c41c5bba82cb2dfa95ef155f", "fusion_lon": 0.0}, {"is_reserved": 0, "type": "electric_scooter", "bike_id": "c362a83a80d17b821a2759a24a10a23c", "lat": 38.927432, "lon": -77.033096, "rental_uris": {"android": "https://dc.lft.to/lastmile_qr_scan", "ios": "https://dc.lft.to/lastmile_qr_scan"}, "is_disabled": 0, "fusion_lat": 0.0, "name": "c362a83a80d17b821a2759a24a10a23c", "fusion_lon": 0.0}, {"is_reserved": 0, "type": "electric_scooter", "bike_id": "98775a5db0a81c74315b0f9764deeb3d", "lat": 38.928286166666666, "lon": -77.0544265, "rental_uris": {"android": "https://dc.lft.to/lastmile_qr_scan", "ios": "https://dc.lft.to/lastmile_qr_scan"}, "is_disabled": 0, "fusion_lat": 0.0, "name": "98775a5db0a81c74315b0f9764deeb3d", "fusion_lon": 0.0}, {"is_reserved": 0, "type": "electric_scooter", "bike_id": "25d3cfb0d00c43a71e7f4f9351d6748b", "lat": 38.918346, "lon": -77.014744, "rental_uris": {"android": "https://dc.lft.to/lastmile_qr_scan", "ios": "https://dc.lft.to/lastmile_qr_scan"}, "is_disabled": 0, "fusion_lat": 0.0, "name": "25d3cfb0d00c43a71e7f4f9351d6748b", "fusion_lon": 0.0}, {"is_reserved": 0, "type": "electric_scooter", "bike_id": "8f1a80fed8bba95ca4fe5babb71dfb78", "lat": 38.89942416666667, "lon": -76.97711433333333, "rental_uris": {"android": "https://dc.lft.to/lastmile_qr_scan", "ios": "https://dc.lft.to/lastmile_qr_scan"}, "is_disabled": 0, "fusion_lat": 0.0, "name": "8f1a80fed8bba95ca4fe5babb71dfb78", "fusion_lon": 0.0}, {"is_reserved": 0, "type": "electric_scooter", "bike_id": "0941f7e146b7bfaa10d95b19f78a1f55", "lat": 38.924541833333336, "lon": -77.05223466666666, "rental_uris": {"android": "https://dc.lft.to/lastmile_qr_scan", "ios": "https://dc.lft.to/lastmile_qr_scan"}, "is_disabled": 0, "fusion_lat": 0.0, "name": "0941f7e146b7bfaa10d95b19f78a1f55", "fusion_lon": 0.0}, {"is_reserved": 0, "type": "electric_scooter", "bike_id": "997591fbf6606290216a1a92954f49ad", "lat": 38.89225583333333, "lon": -77.04353916666666, "rental_uris": {"android": "https://dc.lft.to/lastmile_qr_scan", "ios": "https://dc.lft.to/lastmile_qr_scan"}, "is_disabled": 0, "fusion_lat": 0.0, "name": "997591fbf6606290216a1a92954f49ad", "fusion_lon": 0.0}, {"is_reserved": 0, "type": "electric_scooter", "bike_id": "5330c56b30a441a7783fc51723310ba0", "lat": 38.936304166666666, "lon": -77.024842, "rental_uris": {"android": "https://dc.lft.to/lastmile_qr_scan", "ios": "https://dc.lft.to/lastmile_qr_scan"}, "is_disabled": 0, "fusion_lat": 0.0, "name": "5330c56b30a441a7783fc51723310ba0", "fusion_lon": 0.0}, {"is_reserved": 0, "type": "electric_scooter", "bike_id": "0e74ce1ebc687bc77ed9ebb66791a3bf", "lat": 38.953767, "lon": -77.00190633333334, "rental_uris": {"android": "https://dc.lft.to/lastmile_qr_scan", "ios": "https://dc.lft.to/lastmile_qr_scan"}, "is_disabled": 0, "fusion_lat": 0.0, "name": "0e74ce1ebc687bc77ed9ebb66791a3bf", "fusion_lon": 0.0}, {"is_reserved": 0, "type": "electric_scooter", "bike_id": "af77b976107347a61da7710d8e8fd6e9", "lat": 38.8996645, "lon": -77.04766633333334, "rental_uris": {"android": "https://dc.lft.to/lastmile_qr_scan", "ios": "https://dc.lft.to/lastmile_qr_scan"}, "is_disabled": 0, "fusion_lat": 0.0, "name": "af77b976107347a61da7710d8e8fd6e9", "fusion_lon": 0.0}, {"is_reserved": 0, "type": "electric_scooter", "bike_id": "e586f4d72eb287ca431b86750065e402", "lat": 38.89458783333333, "lon": -77.01897483333333, "rental_uris": {"android": "https://dc.lft.to/lastmile_qr_scan", "ios": "https://dc.lft.to/lastmile_qr_scan"}, "is_disabled": 0, "fusion_lat": 0.0, "name": "e586f4d72eb287ca431b86750065e402", "fusion_lon": 0.0}, {"is_reserved": 0, "type": "electric_scooter", "bike_id": "6709c7c74e2eb311d2fac922a5e6301d", "lat": 38.863734666666666, "lon": -76.99060866666667, "rental_uris": {"android": "https://dc.lft.to/lastmile_qr_scan", "ios": "https://dc.lft.to/lastmile_qr_scan"}, "is_disabled": 0, "fusion_lat": 0.0, "name": "6709c7c74e2eb311d2fac922a5e6301d", "fusion_lon": 0.0}, {"is_reserved": 0, "type": "electric_scooter", "bike_id": "3ea3fd4bf1b79d243b218609b3e89718", "lat": 38.90561533333333, "lon": -77.0059845, "rental_uris": {"android": "https://dc.lft.to/lastmile_qr_scan", "ios": "https://dc.lft.to/lastmile_qr_scan"}, "is_disabled": 0, "fusion_lat": 0.0, "name": "3ea3fd4bf1b79d243b218609b3e89718", "fusion_lon": 0.0}, {"is_reserved": 0, "type": "electric_scooter", "bike_id": "06bc88e34c739f46c14dadcac1756559", "lat": 38.91366433333334, "lon": -77.0200295, "rental_uris": {"android": "https://dc.lft.to/lastmile_qr_scan", "ios": "https://dc.lft.to/lastmile_qr_scan"}, "is_disabled": 0, "fusion_lat": 0.0, "name": "06bc88e34c739f46c14dadcac1756559", "fusion_lon": 0.0}, {"is_reserved": 0, "type": "electric_scooter", "bike_id": "999aef675e61571a4972c4a0119fdca9", "lat": 38.90774066666667, "lon": -77.04513883333334, "rental_uris": {"android": "https://dc.lft.to/lastmile_qr_scan", "ios": "https://dc.lft.to/lastmile_qr_scan"}, "is_disabled": 0, "fusion_lat": 0.0, "name": "999aef675e61571a4972c4a0119fdca9", "fusion_lon": 0.0}, {"is_reserved": 0, "type": "electric_bike", "bike_id": "a79d997a3c6c0e0042d348aad59ed155", "lat": 38.87037983333333, "lon": -77.22907933333333, "rental_uris": {"android": "https://dc.lft.to/lastmile_qr_scan", "ios": "https://dc.lft.to/lastmile_qr_scan"}, "is_disabled": 0, "fusion_lat": 0.0, "name": "a79d997a3c6c0e0042d348aad59ed155", "fusion_lon": 0.0}, {"is_reserved": 0, "type": "electric_scooter", "bike_id": "9fe923f92f181771faab2851d571876b", "lat": 38.913861833333335, "lon": -77.02609866666667, "rental_uris": {"android": "https://dc.lft.to/lastmile_qr_scan", "ios": "https://dc.lft.to/lastmile_qr_scan"}, "is_disabled": 0, "fusion_lat": 0.0, "name": "9fe923f92f181771faab2851d571876b", "fusion_lon": 0.0}, {"is_reserved": 0, "type": "electric_scooter", "bike_id": "66f3b890f64445950f3f1c55b46643cf", "lat": 38.92228883333333, "lon": -77.04385083333334, "rental_uris": {"android": "https://dc.lft.to/lastmile_qr_scan", "ios": "https://dc.lft.to/lastmile_qr_scan"}, "is_disabled": 0, "fusion_lat": 0.0, "name": "66f3b890f64445950f3f1c55b46643cf", "fusion_lon": 0.0}, {"is_reserved": 0, "type": "electric_scooter", "bike_id": "159985db2afc66cd95d8685a955f3b0a", "lat": 38.914054666666665, "lon": -77.032619, "rental_uris": {"android": "https://dc.lft.to/lastmile_qr_scan", "ios": "https://dc.lft.to/lastmile_qr_scan"}, "is_disabled": 0, "fusion_lat": 0.0, "name": "159985db2afc66cd95d8685a955f3b0a", "fusion_lon": 0.0}, {"is_reserved": 0, "type": "electric_bike", "bike_id": "9bc51e49c408d1ee71348e273c22f538", "lat": 38.998923833333336, "lon": -76.9086105, "rental_uris": {"android": "https://dc.lft.to/lastmile_qr_scan", "ios": "https://dc.lft.to/lastmile_qr_scan"}, "is_disabled": 0, "fusion_lat": 0.0, "name": "9bc51e49c408d1ee71348e273c22f538", "fusion_lon": 0.0}, {"is_reserved": 0, "type": "electric_scooter", "bike_id": "d13db7bc5a8ebfac1c6248ac439d3241", "lat": 38.8941855, "lon": -76.99825616666666, "rental_uris": {"android": "https://dc.lft.to/lastmile_qr_scan", "ios": "https://dc.lft.to/lastmile_qr_scan"}, "is_disabled": 0, "fusion_lat": 0.0, "name": "d13db7bc5a8ebfac1c6248ac439d3241", "fusion_lon": 0.0}, {"is_reserved": 0, "type": "electric_scooter", "bike_id": "e86e0522bd5f9ee29559e307a0e42196", "lat": 38.942199, "lon": -77.02962916666667, "rental_uris": {"android": "https://dc.lft.to/lastmile_qr_scan", "ios": "https://dc.lft.to/lastmile_qr_scan"}, "is_disabled": 0, "fusion_lat": 0.0, "name": "e86e0522bd5f9ee29559e307a0e42196", "fusion_lon": 0.0}, {"is_reserved": 0, "type": "electric_scooter", "bike_id": "22e7be8d970ace36e77e63b4f3219e63", "lat": 38.924458, "lon": -77.0203845, "rental_uris": {"android": "https://dc.lft.to/lastmile_qr_scan", "ios": "https://dc.lft.to/lastmile_qr_scan"}, "is_disabled": 0, "fusion_lat": 0.0, "name": "22e7be8d970ace36e77e63b4f3219e63", "fusion_lon": 0.0}, {"is_reserved": 0, "type": "electric_bike", "bike_id": "1c03df78772498f7fdea734db4d19fdc", "lat": 38.854350333333336, "lon": -77.083193, "rental_uris": {"android": "https://dc.lft.to/lastmile_qr_scan", "ios": "https://dc.lft.to/lastmile_qr_scan"}, "is_disabled": 0, "fusion_lat": 0.0, "name": "1c03df78772498f7fdea734db4d19fdc", "fusion_lon": 0.0}, {"is_reserved": 0, "type": "electric_bike", "bike_id": "47d06ec0dda4e37b4bfdbf9056457fb6", "lat": 38.96437433333333, "lon": -77.031623, "rental_uris": {"android": "https://dc.lft.to/lastmile_qr_scan", "ios": "https://dc.lft.to/lastmile_qr_scan"}, "is_disabled": 0, "fusion_lat": 0.0, "name": "47d06ec0dda4e37b4bfdbf9056457fb6", "fusion_lon": 0.0}, {"is_reserved": 0, "type": "electric_scooter", "bike_id": "565bcf601a4a4c82704aa3cfc34e555a", "lat": 38.93114033333333, "lon": -77.02093333333333, "rental_uris": {"android": "https://dc.lft.to/lastmile_qr_scan", "ios": "https://dc.lft.to/lastmile_qr_scan"}, "is_disabled": 0, "fusion_lat": 0.0, "name": "565bcf601a4a4c82704aa3cfc34e555a", "fusion_lon": 0.0}, {"is_reserved": 0, "type": "electric_scooter", "bike_id": "3b762afb0c7c19867d1c92aeffb1286f", "lat": 38.924206, "lon": -77.019465, "rental_uris": {"android": "https://dc.lft.to/lastmile_qr_scan", "ios": "https://dc.lft.to/lastmile_qr_scan"}, "is_disabled": 0, "fusion_lat": 0.0, "name": "3b762afb0c7c19867d1c92aeffb1286f", "fusion_lon": 0.0}, {"is_reserved": 0, "type": "electric_scooter", "bike_id": "2b8cdefc813d00e54d471edd6541e627", "lat": 38.901131166666666, "lon": -77.02759383333333, "rental_uris": {"android": "https://dc.lft.to/lastmile_qr_scan", "ios": "https://dc.lft.to/lastmile_qr_scan"}, "is_disabled": 0, "fusion_lat": 0.0, "name": "2b8cdefc813d00e54d471edd6541e627", "fusion_lon": 0.0}, {"is_reserved": 0, "type": "electric_scooter", "bike_id": "f6f66b65d592154e61c8a8496e2c5403", "lat": 38.91930416666667, "lon": -77.034269, "rental_uris": {"android": "https://dc.lft.to/lastmile_qr_scan", "ios": "https://dc.lft.to/lastmile_qr_scan"}, "is_disabled": 0, "fusion_lat": 0.0, "name": "f6f66b65d592154e61c8a8496e2c5403", "fusion_lon": 0.0}, {"is_reserved": 0, "type": "electric_scooter", "bike_id": "4df054fa9552c95ae250e7f90233c99d", "lat": 38.9149365, "lon": -77.02000033333333, "rental_uris": {"android": "https://dc.lft.to/lastmile_qr_scan", "ios": "https://dc.lft.to/lastmile_qr_scan"}, "is_disabled": 0, "fusion_lat": 0.0, "name": "4df054fa9552c95ae250e7f90233c99d", "fusion_lon": 0.0}, {"is_reserved": 0, "type": "electric_scooter", "bike_id": "274b110955c7c1ea1585d4db07a05fc2", "lat": 38.9729685, "lon": -77.03629383333333, "rental_uris": {"android": "https://dc.lft.to/lastmile_qr_scan", "ios": "https://dc.lft.to/lastmile_qr_scan"}, "is_disabled": 0, "fusion_lat": 0.0, "name": "274b110955c7c1ea1585d4db07a05fc2", "fusion_lon": 0.0}, {"is_reserved": 0, "type": "electric_scooter", "bike_id": "41ab4753b26354f1aaabc30f000d3bda", "lat": 38.91679216666667, "lon": -77.0319965, "rental_uris": {"android": "https://dc.lft.to/lastmile_qr_scan", "ios": "https://dc.lft.to/lastmile_qr_scan"}, "is_disabled": 0, "fusion_lat": 0.0, "name": "41ab4753b26354f1aaabc30f000d3bda", "fusion_lon": 0.0}, {"is_reserved": 0, "type": "electric_scooter", "bike_id": "6cc50c92b4401f01557875001a2bb707", "lat": 38.93636583333333, "lon": -77.06007933333333, "rental_uris": {"android": "https://dc.lft.to/lastmile_qr_scan", "ios": "https://dc.lft.to/lastmile_qr_scan"}, "is_disabled": 0, "fusion_lat": 0.0, "name": "6cc50c92b4401f01557875001a2bb707", "fusion_lon": 0.0}, {"is_reserved": 0, "type": "electric_scooter", "bike_id": "abdbe113ccd1b3b83fd68b1f170f6bfd", "lat": 38.92377316666666, "lon": -77.08054116666666, "rental_uris": {"android": "https://dc.lft.to/lastmile_qr_scan", "ios": "https://dc.lft.to/lastmile_qr_scan"}, "is_disabled": 0, "fusion_lat": 0.0, "name": "abdbe113ccd1b3b83fd68b1f170f6bfd", "fusion_lon": 0.0}, {"is_reserved": 0, "type": "electric_scooter", "bike_id": "57060d5ad660e44f0f49618b8208c7db", "lat": 38.89708783333333, "lon": -76.9911945, "rental_uris": {"android": "https://dc.lft.to/lastmile_qr_scan", "ios": "https://dc.lft.to/lastmile_qr_scan"}, "is_disabled": 0, "fusion_lat": 0.0, "name": "57060d5ad660e44f0f49618b8208c7db", "fusion_lon": 0.0}, {"is_reserved": 0, "type": "electric_scooter", "bike_id": "48838b9d87d3318a9ee7174c50567535", "lat": 38.924864166666666, "lon": -77.02816333333334, "rental_uris": {"android": "https://dc.lft.to/lastmile_qr_scan", "ios": "https://dc.lft.to/lastmile_qr_scan"}, "is_disabled": 0, "fusion_lat": 0.0, "name": "48838b9d87d3318a9ee7174c50567535", "fusion_lon": 0.0}, {"is_reserved": 0, "type": "electric_scooter", "bike_id": "b72e41d595cf6fd276767db8c832f2b8", "lat": 38.91704216666667, "lon": -77.01073266666667, "rental_uris": {"android": "https://dc.lft.to/lastmile_qr_scan", "ios": "https://dc.lft.to/lastmile_qr_scan"}, "is_disabled": 0, "fusion_lat": 0.0, "name": "b72e41d595cf6fd276767db8c832f2b8", "fusion_lon": 0.0}, {"is_reserved": 0, "type": "electric_scooter", "bike_id": "4967178e6ceb27bb6ebd91ef2e0e6bf0", "lat": 38.86455683333333, "lon": -76.9913135, "rental_uris": {"android": "https://dc.lft.to/lastmile_qr_scan", "ios": "https://dc.lft.to/lastmile_qr_scan"}, "is_disabled": 0, "fusion_lat": 0.0, "name": "4967178e6ceb27bb6ebd91ef2e0e6bf0", "fusion_lon": 0.0}, {"is_reserved": 0, "type": "electric_scooter", "bike_id": "f4d88fda22d4d033fbf9f6b2bb3dfd04", "lat": 38.91711866666667, "lon": -77.0385935, "rental_uris": {"android": "https://dc.lft.to/lastmile_qr_scan", "ios": "https://dc.lft.to/lastmile_qr_scan"}, "is_disabled": 0, "fusion_lat": 0.0, "name": "f4d88fda22d4d033fbf9f6b2bb3dfd04", "fusion_lon": 0.0}, {"is_reserved": 0, "type": "electric_scooter", "bike_id": "76bae62d8f68f3e31dd3864e06932c84", "lat": 38.92471966666667, "lon": -77.02997133333334, "rental_uris": {"android": "https://dc.lft.to/lastmile_qr_scan", "ios": "https://dc.lft.to/lastmile_qr_scan"}, "is_disabled": 0, "fusion_lat": 0.0, "name": "76bae62d8f68f3e31dd3864e06932c84", "fusion_lon": 0.0}, {"is_reserved": 0, "type": "electric_scooter", "bike_id": "cd6a2d0bb3e8f72aca5cc8bd7a4856ad", "lat": 38.91418783333334, "lon": -77.017995, "rental_uris": {"android": "https://dc.lft.to/lastmile_qr_scan", "ios": "https://dc.lft.to/lastmile_qr_scan"}, "is_disabled": 0, "fusion_lat": 0.0, "name": "cd6a2d0bb3e8f72aca5cc8bd7a4856ad", "fusion_lon": 0.0}, {"is_reserved": 0, "type": "electric_scooter", "bike_id": "62cc587bfe3c83a03526709b3da02000", "lat": 38.93019133333333, "lon": -77.037846, "rental_uris": {"android": "https://dc.lft.to/lastmile_qr_scan", "ios": "https://dc.lft.to/lastmile_qr_scan"}, "is_disabled": 0, "fusion_lat": 0.0, "name": "62cc587bfe3c83a03526709b3da02000", "fusion_lon": 0.0}, {"is_reserved": 0, "type": "electric_bike", "bike_id": "9b6d0636799b95b1d2d06752a080d9f9", "lat": 39.09445183333333, "lon": -77.1346095, "rental_uris": {"android": "https://dc.lft.to/lastmile_qr_scan", "ios": "https://dc.lft.to/lastmile_qr_scan"}, "is_disabled": 0, "fusion_lat": 0.0, "name": "9b6d0636799b95b1d2d06752a080d9f9", "fusion_lon": 0.0}, {"is_reserved": 0, "type": "electric_scooter", "bike_id": "94d434b6769537b5d22cf251ee7ac3f5", "lat": 38.97370516666667, "lon": -77.01863666666667, "rental_uris": {"android": "https://dc.lft.to/lastmile_qr_scan", "ios": "https://dc.lft.to/lastmile_qr_scan"}, "is_disabled": 0, "fusion_lat": 0.0, "name": "94d434b6769537b5d22cf251ee7ac3f5", "fusion_lon": 0.0}, {"is_reserved": 0, "type": "electric_bike", "bike_id": "e5563bc62b080d38fcad00459b9c2e7f", "lat": 38.84489716666667, "lon": -76.98165366666667, "rental_uris": {"android": "https://dc.lft.to/lastmile_qr_scan", "ios": "https://dc.lft.to/lastmile_qr_scan"}, "is_disabled": 0, "fusion_lat": 0.0, "name": "e5563bc62b080d38fcad00459b9c2e7f", "fusion_lon": 0.0}, {"is_reserved": 0, "type": "electric_scooter", "bike_id": "abd7d043348682b9acdaf8575b925430", "lat": 38.9137025, "lon": -77.06569666666667, "rental_uris": {"android": "https://dc.lft.to/lastmile_qr_scan", "ios": "https://dc.lft.to/lastmile_qr_scan"}, "is_disabled": 0, "fusion_lat": 0.0, "name": "abd7d043348682b9acdaf8575b925430", "fusion_lon": 0.0}, {"is_reserved": 0, "type": "electric_scooter", "bike_id": "30c81f6360a67c8b20a1ff47958380c9", "lat": 38.897295166666666, "lon": -77.01963816666667, "rental_uris": {"android": "https://dc.lft.to/lastmile_qr_scan", "ios": "https://dc.lft.to/lastmile_qr_scan"}, "is_disabled": 0, "fusion_lat": 0.0, "name": "30c81f6360a67c8b20a1ff47958380c9", "fusion_lon": 0.0}, {"is_reserved": 0, "type": "electric_scooter", "bike_id": "1a5c9d64862ab72482b8de39828116e1", "lat": 38.927806833333335, "lon": -77.02566783333333, "rental_uris": {"android": "https://dc.lft.to/lastmile_qr_scan", "ios": "https://dc.lft.to/lastmile_qr_scan"}, "is_disabled": 0, "fusion_lat": 0.0, "name": "1a5c9d64862ab72482b8de39828116e1", "fusion_lon": 0.0}, {"is_reserved": 0, "type": "electric_scooter", "bike_id": "e813665d5019494d46e03e42aad6e919", "lat": 38.901134166666665, "lon": -77.02780316666667, "rental_uris": {"android": "https://dc.lft.to/lastmile_qr_scan", "ios": "https://dc.lft.to/lastmile_qr_scan"}, "is_disabled": 0, "fusion_lat": 0.0, "name": "e813665d5019494d46e03e42aad6e919", "fusion_lon": 0.0}, {"is_reserved": 0, "type": "electric_scooter", "bike_id": "df3a689e67c51a137acb6af16d612b47", "lat": 38.9049515, "lon": -77.019872, "rental_uris": {"android": "https://dc.lft.to/lastmile_qr_scan", "ios": "https://dc.lft.to/lastmile_qr_scan"}, "is_disabled": 0, "fusion_lat": 0.0, "name": "df3a689e67c51a137acb6af16d612b47", "fusion_lon": 0.0}, {"is_reserved": 0, "type": "electric_bike", "bike_id": "96f83890aae81868e13955064d7bf8ef", "lat": 39.04232016666667, "lon": -76.99727816666666, "rental_uris": {"android": "https://dc.lft.to/lastmile_qr_scan", "ios": "https://dc.lft.to/lastmile_qr_scan"}, "is_disabled": 0, "fusion_lat": 0.0, "name": "96f83890aae81868e13955064d7bf8ef", "fusion_lon": 0.0}, {"is_reserved": 0, "type": "electric_bike", "bike_id": "e6b7901f37d9e0201421489abe5e4d10", "lat": 38.97330866666667, "lon": -76.99584066666667, "rental_uris": {"android": "https://dc.lft.to/lastmile_qr_scan", "ios": "https://dc.lft.to/lastmile_qr_scan"}, "is_disabled": 0, "fusion_lat": 0.0, "name": "e6b7901f37d9e0201421489abe5e4d10", "fusion_lon": 0.0}, {"is_reserved": 0, "type": "electric_scooter", "bike_id": "ba87b874211719e07baf057dc15d8a09", "lat": 38.9026395, "lon": -77.02002083333333, "rental_uris": {"android": "https://dc.lft.to/lastmile_qr_scan", "ios": "https://dc.lft.to/lastmile_qr_scan"}, "is_disabled": 0, "fusion_lat": 0.0, "name": "ba87b874211719e07baf057dc15d8a09", "fusion_lon": 0.0}, {"is_reserved": 0, "type": "electric_scooter", "bike_id": "0ef58de389209ac629bba73fa30aadc8", "lat": 38.95213016666666, "lon": -77.01599866666666, "rental_uris": {"android": "https://dc.lft.to/lastmile_qr_scan", "ios": "https://dc.lft.to/lastmile_qr_scan"}, "is_disabled": 0, "fusion_lat": 0.0, "name": "0ef58de389209ac629bba73fa30aadc8", "fusion_lon": 0.0}, {"is_reserved": 0, "type": "electric_scooter", "bike_id": "eac0e71e522a4662483a9ecf71af4514", "lat": 38.900387, "lon": -77.001955, "rental_uris": {"android": "https://dc.lft.to/lastmile_qr_scan", "ios": "https://dc.lft.to/lastmile_qr_scan"}, "is_disabled": 0, "fusion_lat": 0.0, "name": "eac0e71e522a4662483a9ecf71af4514", "fusion_lon": 0.0}, {"is_reserved": 0, "type": "electric_scooter", "bike_id": "774263d031ef16eeda3e72a6616954ed", "lat": 38.913045, "lon": -77.0269955, "rental_uris": {"android": "https://dc.lft.to/lastmile_qr_scan", "ios": "https://dc.lft.to/lastmile_qr_scan"}, "is_disabled": 0, "fusion_lat": 0.0, "name": "774263d031ef16eeda3e72a6616954ed", "fusion_lon": 0.0}, {"is_reserved": 0, "type": "electric_scooter", "bike_id": "611228e4d11a4f043ab5a3f3c85e0fc1", "lat": 38.9125755, "lon": -77.03142933333334, "rental_uris": {"android": "https://dc.lft.to/lastmile_qr_scan", "ios": "https://dc.lft.to/lastmile_qr_scan"}, "is_disabled": 0, "fusion_lat": 0.0, "name": "611228e4d11a4f043ab5a3f3c85e0fc1", "fusion_lon": 0.0}, {"is_reserved": 0, "type": "electric_scooter", "bike_id": "912bc5d65b512525b42eb6a78517173b", "lat": 38.918835666666666, "lon": -77.027108, "rental_uris": {"android": "https://dc.lft.to/lastmile_qr_scan", "ios": "https://dc.lft.to/lastmile_qr_scan"}, "is_disabled": 0, "fusion_lat": 0.0, "name": "912bc5d65b512525b42eb6a78517173b", "fusion_lon": 0.0}, {"is_reserved": 0, "type": "electric_bike", "bike_id": "61da4193e87cc9b9b31dc406649b825d", "lat": 38.807334833333336, "lon": -76.992574, "rental_uris": {"android": "https://dc.lft.to/lastmile_qr_scan", "ios": "https://dc.lft.to/lastmile_qr_scan"}, "is_disabled": 0, "fusion_lat": 0.0, "name": "61da4193e87cc9b9b31dc406649b825d", "fusion_lon": 0.0}, {"is_reserved": 0, "type": "electric_scooter", "bike_id": "e07903fc578d8ef2d75889b360760735", "lat": 38.9077495, "lon": -77.00240516666666, "rental_uris": {"android": "https://dc.lft.to/lastmile_qr_scan", "ios": "https://dc.lft.to/lastmile_qr_scan"}, "is_disabled": 0, "fusion_lat": 0.0, "name": "e07903fc578d8ef2d75889b360760735", "fusion_lon": 0.0}, {"is_reserved": 0, "type": "electric_scooter", "bike_id": "65b4a442294bd97711cb46763bc7df06", "lat": 38.928892833333336, "lon": -77.02563116666667, "rental_uris": {"android": "https://dc.lft.to/lastmile_qr_scan", "ios": "https://dc.lft.to/lastmile_qr_scan"}, "is_disabled": 0, "fusion_lat": 0.0, "name": "65b4a442294bd97711cb46763bc7df06", "fusion_lon": 0.0}, {"is_reserved": 0, "type": "electric_bike", "bike_id": "0bab28f8ee12afd206ca1ef4a38898ef", "lat": 38.8883695, "lon": -76.95748416666666, "rental_uris": {"android": "https://dc.lft.to/lastmile_qr_scan", "ios": "https://dc.lft.to/lastmile_qr_scan"}, "is_disabled": 0, "fusion_lat": 0.0, "name": "0bab28f8ee12afd206ca1ef4a38898ef", "fusion_lon": 0.0}, {"is_reserved": 0, "type": "electric_scooter", "bike_id": "47f75c48dc73f1f66b8f45502f1ee54d", "lat": 38.935859, "lon": -77.05886216666667, "rental_uris": {"android": "https://dc.lft.to/lastmile_qr_scan", "ios": "https://dc.lft.to/lastmile_qr_scan"}, "is_disabled": 0, "fusion_lat": 0.0, "name": "47f75c48dc73f1f66b8f45502f1ee54d", "fusion_lon": 0.0}, {"is_reserved": 0, "type": "electric_scooter", "bike_id": "42bddda35868d5b2b990a5cc2a003a2b", "lat": 38.90168083333333, "lon": -76.93024233333334, "rental_uris": {"android": "https://dc.lft.to/lastmile_qr_scan", "ios": "https://dc.lft.to/lastmile_qr_scan"}, "is_disabled": 0, "fusion_lat": 0.0, "name": "42bddda35868d5b2b990a5cc2a003a2b", "fusion_lon": 0.0}, {"is_reserved": 0, "type": "electric_scooter", "bike_id": "cf4865b62bdc7703cbeb8e556b9810b8", "lat": 38.925355833333334, "lon": -77.03370616666666, "rental_uris": {"android": "https://dc.lft.to/lastmile_qr_scan", "ios": "https://dc.lft.to/lastmile_qr_scan"}, "is_disabled": 0, "fusion_lat": 0.0, "name": "cf4865b62bdc7703cbeb8e556b9810b8", "fusion_lon": 0.0}, {"is_reserved": 0, "type": "electric_scooter", "bike_id": "00e649d7c48a6a2daf60358261aabace", "lat": 38.86116033333333, "lon": -76.98382366666667, "rental_uris": {"android": "https://dc.lft.to/lastmile_qr_scan", "ios": "https://dc.lft.to/lastmile_qr_scan"}, "is_disabled": 0, "fusion_lat": 0.0, "name": "00e649d7c48a6a2daf60358261aabace", "fusion_lon": 0.0}, {"is_reserved": 0, "type": "electric_bike", "bike_id": "3c12a99a792c562bc09a4e193f399cb7", "lat": 38.945362833333334, "lon": -77.3445815, "rental_uris": {"android": "https://dc.lft.to/lastmile_qr_scan", "ios": "https://dc.lft.to/lastmile_qr_scan"}, "is_disabled": 0, "fusion_lat": 0.0, "name": "3c12a99a792c562bc09a4e193f399cb7", "fusion_lon": 0.0}, {"is_reserved": 0, "type": "electric_scooter", "bike_id": "a8322ff6d274cf3acbe77d1ccad329cd", "lat": 38.9111245, "lon": -77.04821983333333, "rental_uris": {"android": "https://dc.lft.to/lastmile_qr_scan", "ios": "https://dc.lft.to/lastmile_qr_scan"}, "is_disabled": 0, "fusion_lat": 0.0, "name": "a8322ff6d274cf3acbe77d1ccad329cd", "fusion_lon": 0.0}, {"is_reserved": 0, "type": "electric_scooter", "bike_id": "e947f523ce686f9932587e10bdbefe00", "lat": 38.92424033333333, "lon": -77.02226983333334, "rental_uris": {"android": "https://dc.lft.to/lastmile_qr_scan", "ios": "https://dc.lft.to/lastmile_qr_scan"}, "is_disabled": 0, "fusion_lat": 0.0, "name": "e947f523ce686f9932587e10bdbefe00", "fusion_lon": 0.0}, {"is_reserved": 0, "type": "electric_scooter", "bike_id": "2004355dabf43d0d972833c8e5b7f3bc", "lat": 38.875445166666665, "lon": -77.0054165, "rental_uris": {"android": "https://dc.lft.to/lastmile_qr_scan", "ios": "https://dc.lft.to/lastmile_qr_scan"}, "is_disabled": 0, "fusion_lat": 0.0, "name": "2004355dabf43d0d972833c8e5b7f3bc", "fusion_lon": 0.0}, {"is_reserved": 0, "type": "electric_scooter", "bike_id": "cab7e442f6b1946ae9dc7f3cf83f7153", "lat": 38.91933933333333, "lon": -77.02512, "rental_uris": {"android": "https://dc.lft.to/lastmile_qr_scan", "ios": "https://dc.lft.to/lastmile_qr_scan"}, "is_disabled": 0, "fusion_lat": 0.0, "name": "cab7e442f6b1946ae9dc7f3cf83f7153", "fusion_lon": 0.0}, {"is_reserved": 0, "type": "electric_scooter", "bike_id": "49c18731fd76a56977392f52076bf395", "lat": 38.88660516666667, "lon": -76.936754, "rental_uris": {"android": "https://dc.lft.to/lastmile_qr_scan", "ios": "https://dc.lft.to/lastmile_qr_scan"}, "is_disabled": 0, "fusion_lat": 0.0, "name": "49c18731fd76a56977392f52076bf395", "fusion_lon": 0.0}, {"is_reserved": 0, "type": "electric_scooter", "bike_id": "7158a9162cae90cb5e51641d9488a198", "lat": 38.905157333333335, "lon": -77.0401665, "rental_uris": {"android": "https://dc.lft.to/lastmile_qr_scan", "ios": "https://dc.lft.to/lastmile_qr_scan"}, "is_disabled": 0, "fusion_lat": 0.0, "name": "7158a9162cae90cb5e51641d9488a198", "fusion_lon": 0.0}, {"is_reserved": 0, "type": "electric_scooter", "bike_id": "0788e98851a849d8f8d3afaa77b60bcf", "lat": 38.89250716666667, "lon": -77.03961183333334, "rental_uris": {"android": "https://dc.lft.to/lastmile_qr_scan", "ios": "https://dc.lft.to/lastmile_qr_scan"}, "is_disabled": 0, "fusion_lat": 0.0, "name": "0788e98851a849d8f8d3afaa77b60bcf", "fusion_lon": 0.0}, {"is_reserved": 0, "type": "electric_bike", "bike_id": "7e1acc2ab7ff389733ccdf3d40c5c057", "lat": 39.084308, "lon": -76.9515045, "rental_uris": {"android": "https://dc.lft.to/lastmile_qr_scan", "ios": "https://dc.lft.to/lastmile_qr_scan"}, "is_disabled": 0, "fusion_lat": 0.0, "name": "7e1acc2ab7ff389733ccdf3d40c5c057", "fusion_lon": 0.0}, {"is_reserved": 0, "type": "electric_scooter", "bike_id": "2010b16e79f3dfce61fc2351237c2590", "lat": 38.899968, "lon": -76.99013583333333, "rental_uris": {"android": "https://dc.lft.to/lastmile_qr_scan", "ios": "https://dc.lft.to/lastmile_qr_scan"}, "is_disabled": 0, "fusion_lat": 0.0, "name": "2010b16e79f3dfce61fc2351237c2590", "fusion_lon": 0.0}, {"is_reserved": 0, "type": "electric_bike", "bike_id": "4635c530a05a1932ba51f5ed8fb22d11", "lat": 38.83543866666667, "lon": -77.00750416666666, "rental_uris": {"android": "https://dc.lft.to/lastmile_qr_scan", "ios": "https://dc.lft.to/lastmile_qr_scan"}, "is_disabled": 0, "fusion_lat": 0.0, "name": "4635c530a05a1932ba51f5ed8fb22d11", "fusion_lon": 0.0}, {"is_reserved": 0, "type": "electric_scooter", "bike_id": "7d50c2dd1a0f5da89ce4699df122520f", "lat": 38.924552166666665, "lon": -77.0216315, "rental_uris": {"android": "https://dc.lft.to/lastmile_qr_scan", "ios": "https://dc.lft.to/lastmile_qr_scan"}, "is_disabled": 0, "fusion_lat": 0.0, "name": "7d50c2dd1a0f5da89ce4699df122520f", "fusion_lon": 0.0}, {"is_reserved": 0, "type": "electric_scooter", "bike_id": "8042302b0061764dce3800b5b3631397", "lat": 38.91641583333333, "lon": -77.01061866666667, "rental_uris": {"android": "https://dc.lft.to/lastmile_qr_scan", "ios": "https://dc.lft.to/lastmile_qr_scan"}, "is_disabled": 0, "fusion_lat": 0.0, "name": "8042302b0061764dce3800b5b3631397", "fusion_lon": 0.0}, {"is_reserved": 0, "type": "electric_scooter", "bike_id": "fc9ff27dc33d3195c7325969511983a1", "lat": 38.89991216666667, "lon": -77.0221135, "rental_uris": {"android": "https://dc.lft.to/lastmile_qr_scan", "ios": "https://dc.lft.to/lastmile_qr_scan"}, "is_disabled": 0, "fusion_lat": 0.0, "name": "fc9ff27dc33d3195c7325969511983a1", "fusion_lon": 0.0}, {"is_reserved": 0, "type": "electric_bike", "bike_id": "cb690fe178fa5ec23d8f1c5125f5b67f", "lat": 38.96674383333333, "lon": -77.02304866666667, "rental_uris": {"android": "https://dc.lft.to/lastmile_qr_scan", "ios": "https://dc.lft.to/lastmile_qr_scan"}, "is_disabled": 0, "fusion_lat": 0.0, "name": "cb690fe178fa5ec23d8f1c5125f5b67f", "fusion_lon": 0.0}, {"is_reserved": 0, "type": "electric_bike", "bike_id": "cacf0ad6b70baf50d817c5c5c7b57dd9", "lat": 38.9156545, "lon": -77.02023083333333, "rental_uris": {"android": "https://dc.lft.to/lastmile_qr_scan", "ios": "https://dc.lft.to/lastmile_qr_scan"}, "is_disabled": 0, "fusion_lat": 0.0, "name": "cacf0ad6b70baf50d817c5c5c7b57dd9", "fusion_lon": 0.0}, {"is_reserved": 0, "type": "electric_scooter", "bike_id": "aeb07b6470400ecc1588c92e4b7da6d3", "lat": 38.90236866666667, "lon": -77.05331616666666, "rental_uris": {"android": "https://dc.lft.to/lastmile_qr_scan", "ios": "https://dc.lft.to/lastmile_qr_scan"}, "is_disabled": 0, "fusion_lat": 0.0, "name": "aeb07b6470400ecc1588c92e4b7da6d3", "fusion_lon": 0.0}, {"is_reserved": 0, "type": "electric_scooter", "bike_id": "8778859b8ceae999beb896847a4f57ec", "lat": 38.8715135, "lon": -76.96585916666666, "rental_uris": {"android": "https://dc.lft.to/lastmile_qr_scan", "ios": "https://dc.lft.to/lastmile_qr_scan"}, "is_disabled": 0, "fusion_lat": 0.0, "name": "8778859b8ceae999beb896847a4f57ec", "fusion_lon": 0.0}, {"is_reserved": 0, "type": "electric_bike", "bike_id": "1f623d64de6fa9d5e04b8bb0d97d9829", "lat": 38.86755816666667, "lon": -76.94533766666666, "rental_uris": {"android": "https://dc.lft.to/lastmile_qr_scan", "ios": "https://dc.lft.to/lastmile_qr_scan"}, "is_disabled": 0, "fusion_lat": 0.0, "name": "1f623d64de6fa9d5e04b8bb0d97d9829", "fusion_lon": 0.0}, {"is_reserved": 0, "type": "electric_scooter", "bike_id": "8dbc2624cb39e53ffd39397f28fd0939", "lat": 38.92284033333333, "lon": -77.03394933333334, "rental_uris": {"android": "https://dc.lft.to/lastmile_qr_scan", "ios": "https://dc.lft.to/lastmile_qr_scan"}, "is_disabled": 0, "fusion_lat": 0.0, "name": "8dbc2624cb39e53ffd39397f28fd0939", "fusion_lon": 0.0}, {"is_reserved": 0, "type": "electric_scooter", "bike_id": "bb7f2da39a26445a373d1ac61cc53df9", "lat": 38.92377166666667, "lon": -77.0305865, "rental_uris": {"android": "https://dc.lft.to/lastmile_qr_scan", "ios": "https://dc.lft.to/lastmile_qr_scan"}, "is_disabled": 0, "fusion_lat": 0.0, "name": "bb7f2da39a26445a373d1ac61cc53df9", "fusion_lon": 0.0}, {"is_reserved": 0, "type": "electric_scooter", "bike_id": "3367413eb791d05db4a0d86c129607ed", "lat": 38.8877195, "lon": -76.93264033333334, "rental_uris": {"android": "https://dc.lft.to/lastmile_qr_scan", "ios": "https://dc.lft.to/lastmile_qr_scan"}, "is_disabled": 0, "fusion_lat": 0.0, "name": "3367413eb791d05db4a0d86c129607ed", "fusion_lon": 0.0}, {"is_reserved": 0, "type": "electric_scooter", "bike_id": "3dc7a2404a01f30cdc9205018d03d5a9", "lat": 38.920237, "lon": -76.98543316666667, "rental_uris": {"android": "https://dc.lft.to/lastmile_qr_scan", "ios": "https://dc.lft.to/lastmile_qr_scan"}, "is_disabled": 0, "fusion_lat": 0.0, "name": "3dc7a2404a01f30cdc9205018d03d5a9", "fusion_lon": 0.0}, {"is_reserved": 0, "type": "electric_bike", "bike_id": "0669d6e2f1a410b7febdd40b64154ad0", "lat": 38.83027116666667, "lon": -77.08375983333333, "rental_uris": {"android": "https://dc.lft.to/lastmile_qr_scan", "ios": "https://dc.lft.to/lastmile_qr_scan"}, "is_disabled": 0, "fusion_lat": 0.0, "name": "0669d6e2f1a410b7febdd40b64154ad0", "fusion_lon": 0.0}, {"is_reserved": 0, "type": "electric_scooter", "bike_id": "f16caa69d1f9da61ae7320f987559e7e", "lat": 38.920784, "lon": -77.02391, "rental_uris": {"android": "https://dc.lft.to/lastmile_qr_scan", "ios": "https://dc.lft.to/lastmile_qr_scan"}, "is_disabled": 0, "fusion_lat": 0.0, "name": "f16caa69d1f9da61ae7320f987559e7e", "fusion_lon": 0.0}, {"is_reserved": 0, "type": "electric_scooter", "bike_id": "3b36d56a21c9e8a2a7309d4a166ba4fb", "lat": 38.91581166666667, "lon": -76.9837005, "rental_uris": {"android": "https://dc.lft.to/lastmile_qr_scan", "ios": "https://dc.lft.to/lastmile_qr_scan"}, "is_disabled": 0, "fusion_lat": 0.0, "name": "3b36d56a21c9e8a2a7309d4a166ba4fb", "fusion_lon": 0.0}, {"is_reserved": 0, "type": "electric_bike", "bike_id": "28b15db86797a03c69cbda76037e0086", "lat": 38.85780233333333, "lon": -76.9876235, "rental_uris": {"android": "https://dc.lft.to/lastmile_qr_scan", "ios": "https://dc.lft.to/lastmile_qr_scan"}, "is_disabled": 0, "fusion_lat": 0.0, "name": "28b15db86797a03c69cbda76037e0086", "fusion_lon": 0.0}, {"is_reserved": 0, "type": "electric_scooter", "bike_id": "62e72e9404a503ee8c14c85ea8824234", "lat": 38.89225233333333, "lon": -77.04357266666666, "rental_uris": {"android": "https://dc.lft.to/lastmile_qr_scan", "ios": "https://dc.lft.to/lastmile_qr_scan"}, "is_disabled": 0, "fusion_lat": 0.0, "name": "62e72e9404a503ee8c14c85ea8824234", "fusion_lon": 0.0}, {"is_reserved": 0, "type": "electric_scooter", "bike_id": "79b3b1658056f57c8a58b9858f14c0d4", "lat": 38.897285833333335, "lon": -76.99514966666666, "rental_uris": {"android": "https://dc.lft.to/lastmile_qr_scan", "ios": "https://dc.lft.to/lastmile_qr_scan"}, "is_disabled": 0, "fusion_lat": 0.0, "name": "79b3b1658056f57c8a58b9858f14c0d4", "fusion_lon": 0.0}, {"is_reserved": 0, "type": "electric_scooter", "bike_id": "4696306cf342ff00f8fe632253b60ed2", "lat": 38.9212125, "lon": -77.04569183333334, "rental_uris": {"android": "https://dc.lft.to/lastmile_qr_scan", "ios": "https://dc.lft.to/lastmile_qr_scan"}, "is_disabled": 0, "fusion_lat": 0.0, "name": "4696306cf342ff00f8fe632253b60ed2", "fusion_lon": 0.0}, {"is_reserved": 0, "type": "electric_scooter", "bike_id": "6a83f816ce65dd922e4d938222634790", "lat": 38.914790833333335, "lon": -77.00213116666667, "rental_uris": {"android": "https://dc.lft.to/lastmile_qr_scan", "ios": "https://dc.lft.to/lastmile_qr_scan"}, "is_disabled": 0, "fusion_lat": 0.0, "name": "6a83f816ce65dd922e4d938222634790", "fusion_lon": 0.0}, {"is_reserved": 0, "type": "electric_scooter", "bike_id": "bfd04350906f97717d5a791643efaa40", "lat": 38.944555, "lon": -77.02803283333333, "rental_uris": {"android": "https://dc.lft.to/lastmile_qr_scan", "ios": "https://dc.lft.to/lastmile_qr_scan"}, "is_disabled": 0, "fusion_lat": 0.0, "name": "bfd04350906f97717d5a791643efaa40", "fusion_lon": 0.0}, {"is_reserved": 0, "type": "electric_scooter", "bike_id": "d7a3b09fcceb2cd22174db318c64f4cd", "lat": 38.92512133333334, "lon": -77.0228505, "rental_uris": {"android": "https://dc.lft.to/lastmile_qr_scan", "ios": "https://dc.lft.to/lastmile_qr_scan"}, "is_disabled": 0, "fusion_lat": 0.0, "name": "d7a3b09fcceb2cd22174db318c64f4cd", "fusion_lon": 0.0}, {"is_reserved": 0, "type": "electric_scooter", "bike_id": "c764ad5a2e3e8a6367deabc0ebc0d19c", "lat": 38.928965, "lon": -77.02493533333333, "rental_uris": {"android": "https://dc.lft.to/lastmile_qr_scan", "ios": "https://dc.lft.to/lastmile_qr_scan"}, "is_disabled": 0, "fusion_lat": 0.0, "name": "c764ad5a2e3e8a6367deabc0ebc0d19c", "fusion_lon": 0.0}, {"is_reserved": 0, "type": "electric_scooter", "bike_id": "6180b4c18e34bda33928f5437c417749", "lat": 38.9026955, "lon": -77.03971183333333, "rental_uris": {"android": "https://dc.lft.to/lastmile_qr_scan", "ios": "https://dc.lft.to/lastmile_qr_scan"}, "is_disabled": 0, "fusion_lat": 0.0, "name": "6180b4c18e34bda33928f5437c417749", "fusion_lon": 0.0}, {"is_reserved": 0, "type": "electric_scooter", "bike_id": "77bd968435129c3a843a1be717f573ce", "lat": 38.89423683333333, "lon": -77.055977, "rental_uris": {"android": "https://dc.lft.to/lastmile_qr_scan", "ios": "https://dc.lft.to/lastmile_qr_scan"}, "is_disabled": 0, "fusion_lat": 0.0, "name": "77bd968435129c3a843a1be717f573ce", "fusion_lon": 0.0}, {"is_reserved": 0, "type": "electric_scooter", "bike_id": "6ab52a7cc8f9cb12b80924c128afe53b", "lat": 38.895029666666666, "lon": -76.93480783333334, "rental_uris": {"android": "https://dc.lft.to/lastmile_qr_scan", "ios": "https://dc.lft.to/lastmile_qr_scan"}, "is_disabled": 0, "fusion_lat": 0.0, "name": "6ab52a7cc8f9cb12b80924c128afe53b", "fusion_lon": 0.0}, {"is_reserved": 0, "type": "electric_scooter", "bike_id": "fde3dcaa7f5f709ae2aff67231448bd4", "lat": 38.9026775, "lon": -77.039671, "rental_uris": {"android": "https://dc.lft.to/lastmile_qr_scan", "ios": "https://dc.lft.to/lastmile_qr_scan"}, "is_disabled": 0, "fusion_lat": 0.0, "name": "fde3dcaa7f5f709ae2aff67231448bd4", "fusion_lon": 0.0}, {"is_reserved": 0, "type": "electric_scooter", "bike_id": "598ae4b2b66df436fdc87eb141a9f983", "lat": 38.889326, "lon": -76.993704, "rental_uris": {"android": "https://dc.lft.to/lastmile_qr_scan", "ios": "https://dc.lft.to/lastmile_qr_scan"}, "is_disabled": 0, "fusion_lat": 0.0, "name": "598ae4b2b66df436fdc87eb141a9f983", "fusion_lon": 0.0}, {"is_reserved": 0, "type": "electric_scooter", "bike_id": "7a9485ef6b55f5e76b94422bb17d638e", "lat": 38.883649, "lon": -76.94155833333333, "rental_uris": {"android": "https://dc.lft.to/lastmile_qr_scan", "ios": "https://dc.lft.to/lastmile_qr_scan"}, "is_disabled": 0, "fusion_lat": 0.0, "name": "7a9485ef6b55f5e76b94422bb17d638e", "fusion_lon": 0.0}, {"is_reserved": 0, "type": "electric_scooter", "bike_id": "c42bd76ccc1d7d616a3dc842c57d27d1", "lat": 38.86692516666667, "lon": -76.97900216666666, "rental_uris": {"android": "https://dc.lft.to/lastmile_qr_scan", "ios": "https://dc.lft.to/lastmile_qr_scan"}, "is_disabled": 0, "fusion_lat": 0.0, "name": "c42bd76ccc1d7d616a3dc842c57d27d1", "fusion_lon": 0.0}, {"is_reserved": 0, "type": "electric_scooter", "bike_id": "40bf076a0161de7426ec49f3b5cb0b83", "lat": 38.893642666666665, "lon": -76.935962, "rental_uris": {"android": "https://dc.lft.to/lastmile_qr_scan", "ios": "https://dc.lft.to/lastmile_qr_scan"}, "is_disabled": 0, "fusion_lat": 0.0, "name": "40bf076a0161de7426ec49f3b5cb0b83", "fusion_lon": 0.0}, {"is_reserved": 0, "type": "electric_scooter", "bike_id": "ca01c28d020274395b8b2af509d21d7f", "lat": 38.922170333333334, "lon": -77.0228805, "rental_uris": {"android": "https://dc.lft.to/lastmile_qr_scan", "ios": "https://dc.lft.to/lastmile_qr_scan"}, "is_disabled": 0, "fusion_lat": 0.0, "name": "ca01c28d020274395b8b2af509d21d7f", "fusion_lon": 0.0}, {"is_reserved": 0, "type": "electric_scooter", "bike_id": "b44dbe76707881245495cddb15a036a1", "lat": 38.897903166666666, "lon": -77.05013933333333, "rental_uris": {"android": "https://dc.lft.to/lastmile_qr_scan", "ios": "https://dc.lft.to/lastmile_qr_scan"}, "is_disabled": 0, "fusion_lat": 0.0, "name": "b44dbe76707881245495cddb15a036a1", "fusion_lon": 0.0}, {"is_reserved": 0, "type": "electric_scooter", "bike_id": "7327ee36e0cffb407b37097991a7b822", "lat": 38.90388933333333, "lon": -77.04732, "rental_uris": {"android": "https://dc.lft.to/lastmile_qr_scan", "ios": "https://dc.lft.to/lastmile_qr_scan"}, "is_disabled": 0, "fusion_lat": 0.0, "name": "7327ee36e0cffb407b37097991a7b822", "fusion_lon": 0.0}, {"is_reserved": 0, "type": "electric_bike", "bike_id": "cf6396de537ab0276ff624506d78ec22", "lat": 38.93067933333333, "lon": -77.02181633333333, "rental_uris": {"android": "https://dc.lft.to/lastmile_qr_scan", "ios": "https://dc.lft.to/lastmile_qr_scan"}, "is_disabled": 0, "fusion_lat": 0.0, "name": "cf6396de537ab0276ff624506d78ec22", "fusion_lon": 0.0}, {"is_reserved": 0, "type": "electric_scooter", "bike_id": "1a5808a4f0d8a34a106c624745706513", "lat": 38.894549, "lon": -77.0189865, "rental_uris": {"android": "https://dc.lft.to/lastmile_qr_scan", "ios": "https://dc.lft.to/lastmile_qr_scan"}, "is_disabled": 0, "fusion_lat": 0.0, "name": "1a5808a4f0d8a34a106c624745706513", "fusion_lon": 0.0}, {"is_reserved": 0, "type": "electric_bike", "bike_id": "1b7ec2187d011f8afc7151db463f208c", "lat": 38.803834, "lon": -76.98815633333334, "rental_uris": {"android": "https://dc.lft.to/lastmile_qr_scan", "ios": "https://dc.lft.to/lastmile_qr_scan"}, "is_disabled": 0, "fusion_lat": 0.0, "name": "1b7ec2187d011f8afc7151db463f208c", "fusion_lon": 0.0}, {"is_reserved": 0, "type": "electric_scooter", "bike_id": "be0e25a04118cb400a1af33b4e37a0c5", "lat": 38.9037135, "lon": -77.03193533333334, "rental_uris": {"android": "https://dc.lft.to/lastmile_qr_scan", "ios": "https://dc.lft.to/lastmile_qr_scan"}, "is_disabled": 0, "fusion_lat": 0.0, "name": "be0e25a04118cb400a1af33b4e37a0c5", "fusion_lon": 0.0}, {"is_reserved": 0, "type": "electric_scooter", "bike_id": "0ed2fbcfdbc346436b7087309a11d8b9", "lat": 38.906385, "lon": -77.01139616666667, "rental_uris": {"android": "https://dc.lft.to/lastmile_qr_scan", "ios": "https://dc.lft.to/lastmile_qr_scan"}, "is_disabled": 0, "fusion_lat": 0.0, "name": "0ed2fbcfdbc346436b7087309a11d8b9", "fusion_lon": 0.0}, {"is_reserved": 0, "type": "electric_scooter", "bike_id": "e2d5997a9bad7cccadaca730f452072a", "lat": 38.94436433333333, "lon": -77.063519, "rental_uris": {"android": "https://dc.lft.to/lastmile_qr_scan", "ios": "https://dc.lft.to/lastmile_qr_scan"}, "is_disabled": 0, "fusion_lat": 0.0, "name": "e2d5997a9bad7cccadaca730f452072a", "fusion_lon": 0.0}, {"is_reserved": 0, "type": "electric_scooter", "bike_id": "b29523febb37979ea84d11148396da4d", "lat": 38.91416016666667, "lon": -77.02615, "rental_uris": {"android": "https://dc.lft.to/lastmile_qr_scan", "ios": "https://dc.lft.to/lastmile_qr_scan"}, "is_disabled": 0, "fusion_lat": 0.0, "name": "b29523febb37979ea84d11148396da4d", "fusion_lon": 0.0}, {"is_reserved": 0, "type": "electric_scooter", "bike_id": "3410d21216f9e14afacff3188bfc11f3", "lat": 38.906505, "lon": -77.04869316666667, "rental_uris": {"android": "https://dc.lft.to/lastmile_qr_scan", "ios": "https://dc.lft.to/lastmile_qr_scan"}, "is_disabled": 0, "fusion_lat": 0.0, "name": "3410d21216f9e14afacff3188bfc11f3", "fusion_lon": 0.0}, {"is_reserved": 0, "type": "electric_bike", "bike_id": "8ab9f439802cf628472a331d0005fd50", "lat": 38.89454333333333, "lon": -77.19131883333333, "rental_uris": {"android": "https://dc.lft.to/lastmile_qr_scan", "ios": "https://dc.lft.to/lastmile_qr_scan"}, "is_disabled": 0, "fusion_lat": 0.0, "name": "8ab9f439802cf628472a331d0005fd50", "fusion_lon": 0.0}, {"is_reserved": 0, "type": "electric_scooter", "bike_id": "d41a1ecaeec5224137d95106ad26cbcc", "lat": 38.932410833333336, "lon": -77.02969566666667, "rental_uris": {"android": "https://dc.lft.to/lastmile_qr_scan", "ios": "https://dc.lft.to/lastmile_qr_scan"}, "is_disabled": 0, "fusion_lat": 0.0, "name": "d41a1ecaeec5224137d95106ad26cbcc", "fusion_lon": 0.0}, {"is_reserved": 0, "type": "electric_scooter", "bike_id": "7e6f998d798b07f6e9ce99448e64ab0f", "lat": 38.90590683333333, "lon": -76.9505605, "rental_uris": {"android": "https://dc.lft.to/lastmile_qr_scan", "ios": "https://dc.lft.to/lastmile_qr_scan"}, "is_disabled": 0, "fusion_lat": 0.0, "name": "7e6f998d798b07f6e9ce99448e64ab0f", "fusion_lon": 0.0}, {"is_reserved": 0, "type": "electric_scooter", "bike_id": "73754b93a8f4e0b303b6060f556a7c9b", "lat": 38.88384033333333, "lon": -76.930432, "rental_uris": {"android": "https://dc.lft.to/lastmile_qr_scan", "ios": "https://dc.lft.to/lastmile_qr_scan"}, "is_disabled": 0, "fusion_lat": 0.0, "name": "73754b93a8f4e0b303b6060f556a7c9b", "fusion_lon": 0.0}, {"is_reserved": 0, "type": "electric_scooter", "bike_id": "67acfff7e0f774abf29504dfb367b8c8", "lat": 38.923251666666665, "lon": -77.03680083333333, "rental_uris": {"android": "https://dc.lft.to/lastmile_qr_scan", "ios": "https://dc.lft.to/lastmile_qr_scan"}, "is_disabled": 0, "fusion_lat": 0.0, "name": "67acfff7e0f774abf29504dfb367b8c8", "fusion_lon": 0.0}, {"is_reserved": 0, "type": "electric_scooter", "bike_id": "0555ffb8bdf9383b4f8deb996aec9a7e", "lat": 38.90265, "lon": -77.017721, "rental_uris": {"android": "https://dc.lft.to/lastmile_qr_scan", "ios": "https://dc.lft.to/lastmile_qr_scan"}, "is_disabled": 0, "fusion_lat": 0.0, "name": "0555ffb8bdf9383b4f8deb996aec9a7e", "fusion_lon": 0.0}, {"is_reserved": 0, "type": "electric_scooter", "bike_id": "ce6818d150fa95b35038340a66b92e51", "lat": 38.95637416666667, "lon": -77.02775366666667, "rental_uris": {"android": "https://dc.lft.to/lastmile_qr_scan", "ios": "https://dc.lft.to/lastmile_qr_scan"}, "is_disabled": 0, "fusion_lat": 0.0, "name": "ce6818d150fa95b35038340a66b92e51", "fusion_lon": 0.0}, {"is_reserved": 0, "type": "electric_scooter", "bike_id": "9777c06f022c74773536590efc8ed88a", "lat": 38.91809516666667, "lon": -77.03308, "rental_uris": {"android": "https://dc.lft.to/lastmile_qr_scan", "ios": "https://dc.lft.to/lastmile_qr_scan"}, "is_disabled": 0, "fusion_lat": 0.0, "name": "9777c06f022c74773536590efc8ed88a", "fusion_lon": 0.0}, {"is_reserved": 0, "type": "electric_scooter", "bike_id": "cc9e3a9ea57d1613560fa4dc54c3b90d", "lat": 38.891926833333336, "lon": -77.03216883333333, "rental_uris": {"android": "https://dc.lft.to/lastmile_qr_scan", "ios": "https://dc.lft.to/lastmile_qr_scan"}, "is_disabled": 0, "fusion_lat": 0.0, "name": "cc9e3a9ea57d1613560fa4dc54c3b90d", "fusion_lon": 0.0}, {"is_reserved": 0, "type": "electric_scooter", "bike_id": "2f6c6b9ffb5dd51e913008a04c55562d", "lat": 38.92448483333333, "lon": -77.04399533333333, "rental_uris": {"android": "https://dc.lft.to/lastmile_qr_scan", "ios": "https://dc.lft.to/lastmile_qr_scan"}, "is_disabled": 0, "fusion_lat": 0.0, "name": "2f6c6b9ffb5dd51e913008a04c55562d", "fusion_lon": 0.0}, {"is_reserved": 0, "type": "electric_scooter", "bike_id": "bbfafdd41267aebdd0d5bfeb93191e81", "lat": 38.92230466666667, "lon": -77.04121433333333, "rental_uris": {"android": "https://dc.lft.to/lastmile_qr_scan", "ios": "https://dc.lft.to/lastmile_qr_scan"}, "is_disabled": 0, "fusion_lat": 0.0, "name": "bbfafdd41267aebdd0d5bfeb93191e81", "fusion_lon": 0.0}, {"is_reserved": 0, "type": "electric_scooter", "bike_id": "69bb07fb12d88c37f3ccb09faddd4627", "lat": 38.908686333333335, "lon": -77.02364733333333, "rental_uris": {"android": "https://dc.lft.to/lastmile_qr_scan", "ios": "https://dc.lft.to/lastmile_qr_scan"}, "is_disabled": 0, "fusion_lat": 0.0, "name": "69bb07fb12d88c37f3ccb09faddd4627", "fusion_lon": 0.0}, {"is_reserved": 0, "type": "electric_scooter", "bike_id": "fd5792a1cc69e656826e794fbbb242ef", "lat": 38.93558066666667, "lon": -77.0221945, "rental_uris": {"android": "https://dc.lft.to/lastmile_qr_scan", "ios": "https://dc.lft.to/lastmile_qr_scan"}, "is_disabled": 0, "fusion_lat": 0.0, "name": "fd5792a1cc69e656826e794fbbb242ef", "fusion_lon": 0.0}, {"is_reserved": 0, "type": "electric_scooter", "bike_id": "8a96b67b1caa14931a341cd5057c045a", "lat": 38.9169505, "lon": -77.0290255, "rental_uris": {"android": "https://dc.lft.to/lastmile_qr_scan", "ios": "https://dc.lft.to/lastmile_qr_scan"}, "is_disabled": 0, "fusion_lat": 0.0, "name": "8a96b67b1caa14931a341cd5057c045a", "fusion_lon": 0.0}, {"is_reserved": 0, "type": "electric_scooter", "bike_id": "5083438580ec53b2da4e3ece899a11b6", "lat": 38.95737533333333, "lon": -77.02971083333334, "rental_uris": {"android": "https://dc.lft.to/lastmile_qr_scan", "ios": "https://dc.lft.to/lastmile_qr_scan"}, "is_disabled": 0, "fusion_lat": 0.0, "name": "5083438580ec53b2da4e3ece899a11b6", "fusion_lon": 0.0}, {"is_reserved": 0, "type": "electric_scooter", "bike_id": "59b3aeb89e4e48944b6fcbc16e2c6806", "lat": 38.914187166666665, "lon": -77.03143516666667, "rental_uris": {"android": "https://dc.lft.to/lastmile_qr_scan", "ios": "https://dc.lft.to/lastmile_qr_scan"}, "is_disabled": 0, "fusion_lat": 0.0, "name": "59b3aeb89e4e48944b6fcbc16e2c6806", "fusion_lon": 0.0}, {"is_reserved": 0, "type": "electric_scooter", "bike_id": "9d0c85b0eeabd2dc5a81863ef26f2c90", "lat": 38.919620333333334, "lon": -77.014374, "rental_uris": {"android": "https://dc.lft.to/lastmile_qr_scan", "ios": "https://dc.lft.to/lastmile_qr_scan"}, "is_disabled": 0, "fusion_lat": 0.0, "name": "9d0c85b0eeabd2dc5a81863ef26f2c90", "fusion_lon": 0.0}, {"is_reserved": 0, "type": "electric_scooter", "bike_id": "f2260024dcb24a7c9c2347055b0187ae", "lat": 38.92139016666667, "lon": -77.04714466666667, "rental_uris": {"android": "https://dc.lft.to/lastmile_qr_scan", "ios": "https://dc.lft.to/lastmile_qr_scan"}, "is_disabled": 0, "fusion_lat": 0.0, "name": "f2260024dcb24a7c9c2347055b0187ae", "fusion_lon": 0.0}, {"is_reserved": 0, "type": "electric_scooter", "bike_id": "95bdd0acc60c8acf09977165bb1658bb", "lat": 38.90049916666667, "lon": -77.04316066666667, "rental_uris": {"android": "https://dc.lft.to/lastmile_qr_scan", "ios": "https://dc.lft.to/lastmile_qr_scan"}, "is_disabled": 0, "fusion_lat": 0.0, "name": "95bdd0acc60c8acf09977165bb1658bb", "fusion_lon": 0.0}, {"is_reserved": 0, "type": "electric_bike", "bike_id": "75f7dda764d306489d7f00899a353ca2", "lat": 38.943230166666666, "lon": -76.99013233333334, "rental_uris": {"android": "https://dc.lft.to/lastmile_qr_scan", "ios": "https://dc.lft.to/lastmile_qr_scan"}, "is_disabled": 0, "fusion_lat": 0.0, "name": "75f7dda764d306489d7f00899a353ca2", "fusion_lon": 0.0}, {"is_reserved": 0, "type": "electric_scooter", "bike_id": "a0112f3c59e42cbfd330b4f5e97c7bf5", "lat": 38.916687333333336, "lon": -77.02964466666667, "rental_uris": {"android": "https://dc.lft.to/lastmile_qr_scan", "ios": "https://dc.lft.to/lastmile_qr_scan"}, "is_disabled": 0, "fusion_lat": 0.0, "name": "a0112f3c59e42cbfd330b4f5e97c7bf5", "fusion_lon": 0.0}, {"is_reserved": 0, "type": "electric_scooter", "bike_id": "b5b0a7c24ccdabedc0c6c3ecd47e1f8b", "lat": 38.93892316666667, "lon": -77.017648, "rental_uris": {"android": "https://dc.lft.to/lastmile_qr_scan", "ios": "https://dc.lft.to/lastmile_qr_scan"}, "is_disabled": 0, "fusion_lat": 0.0, "name": "b5b0a7c24ccdabedc0c6c3ecd47e1f8b", "fusion_lon": 0.0}, {"is_reserved": 0, "type": "electric_bike", "bike_id": "2bc0b56b92ed0b37d9fcb5e00edb704b", "lat": 38.8720965, "lon": -77.11739566666667, "rental_uris": {"android": "https://dc.lft.to/lastmile_qr_scan", "ios": "https://dc.lft.to/lastmile_qr_scan"}, "is_disabled": 0, "fusion_lat": 0.0, "name": "2bc0b56b92ed0b37d9fcb5e00edb704b", "fusion_lon": 0.0}, {"is_reserved": 0, "type": "electric_bike", "bike_id": "708998b354d03407e664fd1cee9c4bcf", "lat": 38.80672283333333, "lon": -77.087594, "rental_uris": {"android": "https://dc.lft.to/lastmile_qr_scan", "ios": "https://dc.lft.to/lastmile_qr_scan"}, "is_disabled": 0, "fusion_lat": 0.0, "name": "708998b354d03407e664fd1cee9c4bcf", "fusion_lon": 0.0}, {"is_reserved": 0, "type": "electric_bike", "bike_id": "2de34734c11a475dd8d1bf79597a55a0", "lat": 38.857899833333335, "lon": -76.98754633333333, "rental_uris": {"android": "https://dc.lft.to/lastmile_qr_scan", "ios": "https://dc.lft.to/lastmile_qr_scan"}, "is_disabled": 0, "fusion_lat": 0.0, "name": "2de34734c11a475dd8d1bf79597a55a0", "fusion_lon": 0.0}, {"is_reserved": 0, "type": "electric_bike", "bike_id": "2f4d1356b0f9b680c2ee42bb25de76ab", "lat": 38.8559865, "lon": -76.97455866666667, "rental_uris": {"android": "https://dc.lft.to/lastmile_qr_scan", "ios": "https://dc.lft.to/lastmile_qr_scan"}, "is_disabled": 0, "fusion_lat": 0.0, "name": "2f4d1356b0f9b680c2ee42bb25de76ab", "fusion_lon": 0.0}, {"is_reserved": 0, "type": "electric_scooter", "bike_id": "1cb9570b066df9c4bb73d06b3ff9329a", "lat": 38.9071085, "lon": -76.98553183333334, "rental_uris": {"android": "https://dc.lft.to/lastmile_qr_scan", "ios": "https://dc.lft.to/lastmile_qr_scan"}, "is_disabled": 0, "fusion_lat": 0.0, "name": "1cb9570b066df9c4bb73d06b3ff9329a", "fusion_lon": 0.0}, {"is_reserved": 0, "type": "electric_scooter", "bike_id": "7e4d8afa312e9c77188c73ac46a70108", "lat": 38.898592, "lon": -76.977593, "rental_uris": {"android": "https://dc.lft.to/lastmile_qr_scan", "ios": "https://dc.lft.to/lastmile_qr_scan"}, "is_disabled": 0, "fusion_lat": 0.0, "name": "7e4d8afa312e9c77188c73ac46a70108", "fusion_lon": 0.0}, {"is_reserved": 0, "type": "electric_scooter", "bike_id": "2a34d02902c790ebaae26ecbd6a9705b", "lat": 38.914584166666664, "lon": -77.0228895, "rental_uris": {"android": "https://dc.lft.to/lastmile_qr_scan", "ios": "https://dc.lft.to/lastmile_qr_scan"}, "is_disabled": 0, "fusion_lat": 0.0, "name": "2a34d02902c790ebaae26ecbd6a9705b", "fusion_lon": 0.0}, {"is_reserved": 0, "type": "electric_scooter", "bike_id": "2e0e53d055ea23d3a0a12f285feebd0d", "lat": 38.9127075, "lon": -77.03876633333333, "rental_uris": {"android": "https://dc.lft.to/lastmile_qr_scan", "ios": "https://dc.lft.to/lastmile_qr_scan"}, "is_disabled": 0, "fusion_lat": 0.0, "name": "2e0e53d055ea23d3a0a12f285feebd0d", "fusion_lon": 0.0}, {"is_reserved": 0, "type": "electric_scooter", "bike_id": "1ce627ba27af452294195103e2ce5ec0", "lat": 38.9058465, "lon": -77.03635283333334, "rental_uris": {"android": "https://dc.lft.to/lastmile_qr_scan", "ios": "https://dc.lft.to/lastmile_qr_scan"}, "is_disabled": 0, "fusion_lat": 0.0, "name": "1ce627ba27af452294195103e2ce5ec0", "fusion_lon": 0.0}, {"is_reserved": 0, "type": "electric_scooter", "bike_id": "b1a816396d187aa645ce8dc9d892a560", "lat": 38.918561, "lon": -77.03643466666666, "rental_uris": {"android": "https://dc.lft.to/lastmile_qr_scan", "ios": "https://dc.lft.to/lastmile_qr_scan"}, "is_disabled": 0, "fusion_lat": 0.0, "name": "b1a816396d187aa645ce8dc9d892a560", "fusion_lon": 0.0}, {"is_reserved": 0, "type": "electric_scooter", "bike_id": "510169b0b6085563921ad5afa9407381", "lat": 38.901165, "lon": -77.03643383333333, "rental_uris": {"android": "https://dc.lft.to/lastmile_qr_scan", "ios": "https://dc.lft.to/lastmile_qr_scan"}, "is_disabled": 0, "fusion_lat": 0.0, "name": "510169b0b6085563921ad5afa9407381", "fusion_lon": 0.0}, {"is_reserved": 0, "type": "electric_scooter", "bike_id": "5e078a43519e8a1e7692721dfd02afb6", "lat": 38.9211955, "lon": -77.0121055, "rental_uris": {"android": "https://dc.lft.to/lastmile_qr_scan", "ios": "https://dc.lft.to/lastmile_qr_scan"}, "is_disabled": 0, "fusion_lat": 0.0, "name": "5e078a43519e8a1e7692721dfd02afb6", "fusion_lon": 0.0}, {"is_reserved": 0, "type": "electric_scooter", "bike_id": "8daae0bd0bb3f6ec34496c846efdc6fa", "lat": 38.91727316666667, "lon": -77.03671566666667, "rental_uris": {"android": "https://dc.lft.to/lastmile_qr_scan", "ios": "https://dc.lft.to/lastmile_qr_scan"}, "is_disabled": 0, "fusion_lat": 0.0, "name": "8daae0bd0bb3f6ec34496c846efdc6fa", "fusion_lon": 0.0}, {"is_reserved": 0, "type": "electric_scooter", "bike_id": "4471b05f6cb98390733076b4b6e36d5c", "lat": 38.93353966666667, "lon": -77.05722, "rental_uris": {"android": "https://dc.lft.to/lastmile_qr_scan", "ios": "https://dc.lft.to/lastmile_qr_scan"}, "is_disabled": 0, "fusion_lat": 0.0, "name": "4471b05f6cb98390733076b4b6e36d5c", "fusion_lon": 0.0}, {"is_reserved": 0, "type": "electric_scooter", "bike_id": "adea9b296ec3e082a45b4c4260184fa2", "lat": 38.87580066666666, "lon": -77.01996233333334, "rental_uris": {"android": "https://dc.lft.to/lastmile_qr_scan", "ios": "https://dc.lft.to/lastmile_qr_scan"}, "is_disabled": 0, "fusion_lat": 0.0, "name": "adea9b296ec3e082a45b4c4260184fa2", "fusion_lon": 0.0}, {"is_reserved": 0, "type": "electric_scooter", "bike_id": "8cdf4398d58cc63c3270f1cb613e56f3", "lat": 38.91125483333333, "lon": -77.021988, "rental_uris": {"android": "https://dc.lft.to/lastmile_qr_scan", "ios": "https://dc.lft.to/lastmile_qr_scan"}, "is_disabled": 0, "fusion_lat": 0.0, "name": "8cdf4398d58cc63c3270f1cb613e56f3", "fusion_lon": 0.0}, {"is_reserved": 0, "type": "electric_scooter", "bike_id": "f6c687a77cad58954c7b5f763fb88e12", "lat": 38.92428783333333, "lon": -77.02162183333333, "rental_uris": {"android": "https://dc.lft.to/lastmile_qr_scan", "ios": "https://dc.lft.to/lastmile_qr_scan"}, "is_disabled": 0, "fusion_lat": 0.0, "name": "f6c687a77cad58954c7b5f763fb88e12", "fusion_lon": 0.0}, {"is_reserved": 0, "type": "electric_scooter", "bike_id": "9c6033857ecbc574f38843f5847c86f5", "lat": 38.939537, "lon": -77.02754116666667, "rental_uris": {"android": "https://dc.lft.to/lastmile_qr_scan", "ios": "https://dc.lft.to/lastmile_qr_scan"}, "is_disabled": 0, "fusion_lat": 0.0, "name": "9c6033857ecbc574f38843f5847c86f5", "fusion_lon": 0.0}, {"is_reserved": 0, "type": "electric_scooter", "bike_id": "0e4262e718b549f73f2c2fbe9d148c78", "lat": 38.9242145, "lon": -77.01973883333334, "rental_uris": {"android": "https://dc.lft.to/lastmile_qr_scan", "ios": "https://dc.lft.to/lastmile_qr_scan"}, "is_disabled": 0, "fusion_lat": 0.0, "name": "0e4262e718b549f73f2c2fbe9d148c78", "fusion_lon": 0.0}, {"is_reserved": 0, "type": "electric_scooter", "bike_id": "c52f606da1bdf740365aff3b1112cb89", "lat": 38.90789566666667, "lon": -77.04265633333333, "rental_uris": {"android": "https://dc.lft.to/lastmile_qr_scan", "ios": "https://dc.lft.to/lastmile_qr_scan"}, "is_disabled": 0, "fusion_lat": 0.0, "name": "c52f606da1bdf740365aff3b1112cb89", "fusion_lon": 0.0}, {"is_reserved": 0, "type": "electric_scooter", "bike_id": "b73818dd10240d3be5026e5a9d326df0", "lat": 38.9196555, "lon": -77.0222415, "rental_uris": {"android": "https://dc.lft.to/lastmile_qr_scan", "ios": "https://dc.lft.to/lastmile_qr_scan"}, "is_disabled": 0, "fusion_lat": 0.0, "name": "b73818dd10240d3be5026e5a9d326df0", "fusion_lon": 0.0}, {"is_reserved": 0, "type": "electric_scooter", "bike_id": "268ccb9ccc13c00ea3ce4ebcc7fa6f5f", "lat": 38.922742, "lon": -77.021243, "rental_uris": {"android": "https://dc.lft.to/lastmile_qr_scan", "ios": "https://dc.lft.to/lastmile_qr_scan"}, "is_disabled": 0, "fusion_lat": 0.0, "name": "268ccb9ccc13c00ea3ce4ebcc7fa6f5f", "fusion_lon": 0.0}, {"is_reserved": 0, "type": "electric_scooter", "bike_id": "bf598e2cb0bdd53c88452e12688a0c5f", "lat": 38.92550516666667, "lon": -77.03225166666667, "rental_uris": {"android": "https://dc.lft.to/lastmile_qr_scan", "ios": "https://dc.lft.to/lastmile_qr_scan"}, "is_disabled": 0, "fusion_lat": 0.0, "name": "bf598e2cb0bdd53c88452e12688a0c5f", "fusion_lon": 0.0}, {"is_reserved": 0, "type": "electric_scooter", "bike_id": "74f3de984bb0accd3f06a53825e946db", "lat": 38.91494083333333, "lon": -77.0199295, "rental_uris": {"android": "https://dc.lft.to/lastmile_qr_scan", "ios": "https://dc.lft.to/lastmile_qr_scan"}, "is_disabled": 0, "fusion_lat": 0.0, "name": "74f3de984bb0accd3f06a53825e946db", "fusion_lon": 0.0}, {"is_reserved": 0, "type": "electric_scooter", "bike_id": "2a868318b6e5c8102645f5fe9753c562", "lat": 38.923227833333335, "lon": -77.02967616666666, "rental_uris": {"android": "https://dc.lft.to/lastmile_qr_scan", "ios": "https://dc.lft.to/lastmile_qr_scan"}, "is_disabled": 0, "fusion_lat": 0.0, "name": "2a868318b6e5c8102645f5fe9753c562", "fusion_lon": 0.0}, {"is_reserved": 0, "type": "electric_bike", "bike_id": "c71c5ac7ee658b99851060f3edb5a25c", "lat": 38.91703316666667, "lon": -77.05719166666667, "rental_uris": {"android": "https://dc.lft.to/lastmile_qr_scan", "ios": "https://dc.lft.to/lastmile_qr_scan"}, "is_disabled": 0, "fusion_lat": 0.0, "name": "c71c5ac7ee658b99851060f3edb5a25c", "fusion_lon": 0.0}, {"is_reserved": 0, "type": "electric_scooter", "bike_id": "59795d766ff42b149f3a03340d07d611", "lat": 38.91190516666666, "lon": -77.00549366666667, "rental_uris": {"android": "https://dc.lft.to/lastmile_qr_scan", "ios": "https://dc.lft.to/lastmile_qr_scan"}, "is_disabled": 0, "fusion_lat": 0.0, "name": "59795d766ff42b149f3a03340d07d611", "fusion_lon": 0.0}, {"is_reserved": 0, "type": "electric_scooter", "bike_id": "cb9586c65cf2cfc1212668cd7836f090", "lat": 38.8969785, "lon": -77.05027283333334, "rental_uris": {"android": "https://dc.lft.to/lastmile_qr_scan", "ios": "https://dc.lft.to/lastmile_qr_scan"}, "is_disabled": 0, "fusion_lat": 0.0, "name": "cb9586c65cf2cfc1212668cd7836f090", "fusion_lon": 0.0}, {"is_reserved": 0, "type": "electric_scooter", "bike_id": "b1850cffc20d5cdc103d3b64b74f3930", "lat": 38.897756666666666, "lon": -76.99272783333333, "rental_uris": {"android": "https://dc.lft.to/lastmile_qr_scan", "ios": "https://dc.lft.to/lastmile_qr_scan"}, "is_disabled": 0, "fusion_lat": 0.0, "name": "b1850cffc20d5cdc103d3b64b74f3930", "fusion_lon": 0.0}, {"is_reserved": 0, "type": "electric_scooter", "bike_id": "979c71ffbdcf308d732c4e1cde12a8a9", "lat": 38.913822833333334, "lon": -77.04606483333333, "rental_uris": {"android": "https://dc.lft.to/lastmile_qr_scan", "ios": "https://dc.lft.to/lastmile_qr_scan"}, "is_disabled": 0, "fusion_lat": 0.0, "name": "979c71ffbdcf308d732c4e1cde12a8a9", "fusion_lon": 0.0}, {"is_reserved": 0, "type": "electric_scooter", "bike_id": "fee06087eb219b102f2c2193c5264cc9", "lat": 38.8626125, "lon": -76.98193216666667, "rental_uris": {"android": "https://dc.lft.to/lastmile_qr_scan", "ios": "https://dc.lft.to/lastmile_qr_scan"}, "is_disabled": 0, "fusion_lat": 0.0, "name": "fee06087eb219b102f2c2193c5264cc9", "fusion_lon": 0.0}, {"is_reserved": 0, "type": "electric_scooter", "bike_id": "36737eabdc9f1f217fdbf58a25392c62", "lat": 38.89886533333333, "lon": -76.93178816666666, "rental_uris": {"android": "https://dc.lft.to/lastmile_qr_scan", "ios": "https://dc.lft.to/lastmile_qr_scan"}, "is_disabled": 0, "fusion_lat": 0.0, "name": "36737eabdc9f1f217fdbf58a25392c62", "fusion_lon": 0.0}, {"is_reserved": 0, "type": "electric_scooter", "bike_id": "338ca2e1b096c07a875709e45e1fcb8b", "lat": 38.925569333333335, "lon": -77.05319633333333, "rental_uris": {"android": "https://dc.lft.to/lastmile_qr_scan", "ios": "https://dc.lft.to/lastmile_qr_scan"}, "is_disabled": 0, "fusion_lat": 0.0, "name": "338ca2e1b096c07a875709e45e1fcb8b", "fusion_lon": 0.0}, {"is_reserved": 0, "type": "electric_scooter", "bike_id": "3a3472c8ce2a5898e680eb2c0337673e", "lat": 38.9105245, "lon": -77.00463533333334, "rental_uris": {"android": "https://dc.lft.to/lastmile_qr_scan", "ios": "https://dc.lft.to/lastmile_qr_scan"}, "is_disabled": 0, "fusion_lat": 0.0, "name": "3a3472c8ce2a5898e680eb2c0337673e", "fusion_lon": 0.0}, {"is_reserved": 0, "type": "electric_scooter", "bike_id": "2ab00f4ab86940d60cf583f92d765906", "lat": 38.989898333333336, "lon": -77.0336235, "rental_uris": {"android": "https://dc.lft.to/lastmile_qr_scan", "ios": "https://dc.lft.to/lastmile_qr_scan"}, "is_disabled": 0, "fusion_lat": 0.0, "name": "2ab00f4ab86940d60cf583f92d765906", "fusion_lon": 0.0}, {"is_reserved": 0, "type": "electric_scooter", "bike_id": "76d2215a8d3bc32b4c5e77ac4bfb2616", "lat": 38.906336, "lon": -77.02503833333333, "rental_uris": {"android": "https://dc.lft.to/lastmile_qr_scan", "ios": "https://dc.lft.to/lastmile_qr_scan"}, "is_disabled": 0, "fusion_lat": 0.0, "name": "76d2215a8d3bc32b4c5e77ac4bfb2616", "fusion_lon": 0.0}, {"is_reserved": 0, "type": "electric_bike", "bike_id": "51a486df2424bb5c5b757bb7875638dc", "lat": 38.981314166666664, "lon": -77.00759416666666, "rental_uris": {"android": "https://dc.lft.to/lastmile_qr_scan", "ios": "https://dc.lft.to/lastmile_qr_scan"}, "is_disabled": 0, "fusion_lat": 0.0, "name": "51a486df2424bb5c5b757bb7875638dc", "fusion_lon": 0.0}, {"is_reserved": 0, "type": "electric_scooter", "bike_id": "dfa8f095eb22ecb35f3585c27af04ee5", "lat": 38.88610366666666, "lon": -77.00351233333333, "rental_uris": {"android": "https://dc.lft.to/lastmile_qr_scan", "ios": "https://dc.lft.to/lastmile_qr_scan"}, "is_disabled": 0, "fusion_lat": 0.0, "name": "dfa8f095eb22ecb35f3585c27af04ee5", "fusion_lon": 0.0}, {"is_reserved": 0, "type": "electric_scooter", "bike_id": "f0bb03fca438d785aab26d8d73e5224f", "lat": 38.91818516666667, "lon": -77.04, "rental_uris": {"android": "https://dc.lft.to/lastmile_qr_scan", "ios": "https://dc.lft.to/lastmile_qr_scan"}, "is_disabled": 0, "fusion_lat": 0.0, "name": "f0bb03fca438d785aab26d8d73e5224f", "fusion_lon": 0.0}, {"is_reserved": 0, "type": "electric_scooter", "bike_id": "3d336ee69051c87611e893df0e7baa58", "lat": 38.899112, "lon": -76.9336245, "rental_uris": {"android": "https://dc.lft.to/lastmile_qr_scan", "ios": "https://dc.lft.to/lastmile_qr_scan"}, "is_disabled": 0, "fusion_lat": 0.0, "name": "3d336ee69051c87611e893df0e7baa58", "fusion_lon": 0.0}, {"is_reserved": 0, "type": "electric_scooter", "bike_id": "d869d91ea72495d245941b3811dbbbaf", "lat": 38.921095666666666, "lon": -77.04204333333334, "rental_uris": {"android": "https://dc.lft.to/lastmile_qr_scan", "ios": "https://dc.lft.to/lastmile_qr_scan"}, "is_disabled": 0, "fusion_lat": 0.0, "name": "d869d91ea72495d245941b3811dbbbaf", "fusion_lon": 0.0}, {"is_reserved": 0, "type": "electric_scooter", "bike_id": "6f648926a363493c29794eaaddf1192b", "lat": 38.9181625, "lon": -77.024749, "rental_uris": {"android": "https://dc.lft.to/lastmile_qr_scan", "ios": "https://dc.lft.to/lastmile_qr_scan"}, "is_disabled": 0, "fusion_lat": 0.0, "name": "6f648926a363493c29794eaaddf1192b", "fusion_lon": 0.0}, {"is_reserved": 0, "type": "electric_scooter", "bike_id": "089f0d27ecfbceae309ee5af4cb6cc37", "lat": 38.89879066666666, "lon": -76.98842016666667, "rental_uris": {"android": "https://dc.lft.to/lastmile_qr_scan", "ios": "https://dc.lft.to/lastmile_qr_scan"}, "is_disabled": 0, "fusion_lat": 0.0, "name": "089f0d27ecfbceae309ee5af4cb6cc37", "fusion_lon": 0.0}, {"is_reserved": 0, "type": "electric_scooter", "bike_id": "b5b1589a692454ef2e7a616d15ff1f65", "lat": 38.927431, "lon": -77.02254966666666, "rental_uris": {"android": "https://dc.lft.to/lastmile_qr_scan", "ios": "https://dc.lft.to/lastmile_qr_scan"}, "is_disabled": 0, "fusion_lat": 0.0, "name": "b5b1589a692454ef2e7a616d15ff1f65", "fusion_lon": 0.0}, {"is_reserved": 0, "type": "electric_scooter", "bike_id": "7e848181747a78b9ff1c68347255fdc5", "lat": 38.93500383333333, "lon": -77.04455066666667, "rental_uris": {"android": "https://dc.lft.to/lastmile_qr_scan", "ios": "https://dc.lft.to/lastmile_qr_scan"}, "is_disabled": 0, "fusion_lat": 0.0, "name": "7e848181747a78b9ff1c68347255fdc5", "fusion_lon": 0.0}, {"is_reserved": 0, "type": "electric_scooter", "bike_id": "9c097b3b89d039966680d2ad8ba104d6", "lat": 38.883509333333336, "lon": -77.0258445, "rental_uris": {"android": "https://dc.lft.to/lastmile_qr_scan", "ios": "https://dc.lft.to/lastmile_qr_scan"}, "is_disabled": 0, "fusion_lat": 0.0, "name": "9c097b3b89d039966680d2ad8ba104d6", "fusion_lon": 0.0}, {"is_reserved": 0, "type": "electric_scooter", "bike_id": "9c04472d5e09e98c089ac2fa72a222d9", "lat": 38.9263595, "lon": -77.02507633333333, "rental_uris": {"android": "https://dc.lft.to/lastmile_qr_scan", "ios": "https://dc.lft.to/lastmile_qr_scan"}, "is_disabled": 0, "fusion_lat": 0.0, "name": "9c04472d5e09e98c089ac2fa72a222d9", "fusion_lon": 0.0}, {"is_reserved": 0, "type": "electric_bike", "bike_id": "cc0b075833433a765f9af59d3fd12a98", "lat": 38.94798133333333, "lon": -76.942503, "rental_uris": {"android": "https://dc.lft.to/lastmile_qr_scan", "ios": "https://dc.lft.to/lastmile_qr_scan"}, "is_disabled": 0, "fusion_lat": 0.0, "name": "cc0b075833433a765f9af59d3fd12a98", "fusion_lon": 0.0}, {"is_reserved": 0, "type": "electric_bike", "bike_id": "24fe38ed090713d9940f0b154545c942", "lat": 38.84455883333333, "lon": -76.93167816666667, "rental_uris": {"android": "https://dc.lft.to/lastmile_qr_scan", "ios": "https://dc.lft.to/lastmile_qr_scan"}, "is_disabled": 0, "fusion_lat": 0.0, "name": "24fe38ed090713d9940f0b154545c942", "fusion_lon": 0.0}, {"is_reserved": 0, "type": "electric_scooter", "bike_id": "059d1bf568891fab9dbd244497cac5db", "lat": 38.9008345, "lon": -77.01793033333334, "rental_uris": {"android": "https://dc.lft.to/lastmile_qr_scan", "ios": "https://dc.lft.to/lastmile_qr_scan"}, "is_disabled": 0, "fusion_lat": 0.0, "name": "059d1bf568891fab9dbd244497cac5db", "fusion_lon": 0.0}, {"is_reserved": 0, "type": "electric_scooter", "bike_id": "8c9f9ce067b18553110174af3987fa64", "lat": 38.91553366666667, "lon": -77.0312215, "rental_uris": {"android": "https://dc.lft.to/lastmile_qr_scan", "ios": "https://dc.lft.to/lastmile_qr_scan"}, "is_disabled": 0, "fusion_lat": 0.0, "name": "8c9f9ce067b18553110174af3987fa64", "fusion_lon": 0.0}, {"is_reserved": 0, "type": "electric_scooter", "bike_id": "70b4732fb4dd85843865686e1c8d9125", "lat": 38.914173, "lon": -77.01879266666667, "rental_uris": {"android": "https://dc.lft.to/lastmile_qr_scan", "ios": "https://dc.lft.to/lastmile_qr_scan"}, "is_disabled": 0, "fusion_lat": 0.0, "name": "70b4732fb4dd85843865686e1c8d9125", "fusion_lon": 0.0}, {"is_reserved": 0, "type": "electric_scooter", "bike_id": "e036f8e048d695041e4810969b613b2e", "lat": 38.89857466666667, "lon": -77.039365, "rental_uris": {"android": "https://dc.lft.to/lastmile_qr_scan", "ios": "https://dc.lft.to/lastmile_qr_scan"}, "is_disabled": 0, "fusion_lat": 0.0, "name": "e036f8e048d695041e4810969b613b2e", "fusion_lon": 0.0}, {"is_reserved": 0, "type": "electric_scooter", "bike_id": "72a5c12389ffaaef119db0a940bf394e", "lat": 38.922464, "lon": -77.04712666666667, "rental_uris": {"android": "https://dc.lft.to/lastmile_qr_scan", "ios": "https://dc.lft.to/lastmile_qr_scan"}, "is_disabled": 0, "fusion_lat": 0.0, "name": "72a5c12389ffaaef119db0a940bf394e", "fusion_lon": 0.0}, {"is_reserved": 0, "type": "electric_scooter", "bike_id": "cf1f186f2c980502f45e178a31aba3b2", "lat": 38.90392133333334, "lon": -77.01788266666667, "rental_uris": {"android": "https://dc.lft.to/lastmile_qr_scan", "ios": "https://dc.lft.to/lastmile_qr_scan"}, "is_disabled": 0, "fusion_lat": 0.0, "name": "cf1f186f2c980502f45e178a31aba3b2", "fusion_lon": 0.0}, {"is_reserved": 0, "type": "electric_scooter", "bike_id": "b34edad4b29b004a918162f3b18eb1cf", "lat": 38.92325433333333, "lon": -77.03675866666667, "rental_uris": {"android": "https://dc.lft.to/lastmile_qr_scan", "ios": "https://dc.lft.to/lastmile_qr_scan"}, "is_disabled": 0, "fusion_lat": 0.0, "name": "b34edad4b29b004a918162f3b18eb1cf", "fusion_lon": 0.0}, {"is_reserved": 0, "type": "electric_scooter", "bike_id": "8aeaa20d881a6a883fa2dcb5f1956399", "lat": 38.91107483333333, "lon": -77.00258783333334, "rental_uris": {"android": "https://dc.lft.to/lastmile_qr_scan", "ios": "https://dc.lft.to/lastmile_qr_scan"}, "is_disabled": 0, "fusion_lat": 0.0, "name": "8aeaa20d881a6a883fa2dcb5f1956399", "fusion_lon": 0.0}, {"is_reserved": 0, "type": "electric_bike", "bike_id": "c49638f920c6b2b1082923e55f1d2921", "lat": 38.9853235, "lon": -76.95471316666666, "rental_uris": {"android": "https://dc.lft.to/lastmile_qr_scan", "ios": "https://dc.lft.to/lastmile_qr_scan"}, "is_disabled": 0, "fusion_lat": 0.0, "name": "c49638f920c6b2b1082923e55f1d2921", "fusion_lon": 0.0}, {"is_reserved": 0, "type": "electric_scooter", "bike_id": "ee8f57619538abad2ff591c47fd89ab1", "lat": 38.910444166666665, "lon": -77.04807983333333, "rental_uris": {"android": "https://dc.lft.to/lastmile_qr_scan", "ios": "https://dc.lft.to/lastmile_qr_scan"}, "is_disabled": 0, "fusion_lat": 0.0, "name": "ee8f57619538abad2ff591c47fd89ab1", "fusion_lon": 0.0}, {"is_reserved": 0, "type": "electric_scooter", "bike_id": "1918a3bae0217b02dfcfd26a796128a5", "lat": 38.8954705, "lon": -76.9833835, "rental_uris": {"android": "https://dc.lft.to/lastmile_qr_scan", "ios": "https://dc.lft.to/lastmile_qr_scan"}, "is_disabled": 0, "fusion_lat": 0.0, "name": "1918a3bae0217b02dfcfd26a796128a5", "fusion_lon": 0.0}, {"is_reserved": 0, "type": "electric_scooter", "bike_id": "be8fa0afa6e45861479723e63e124008", "lat": 38.92672816666666, "lon": -77.00746266666667, "rental_uris": {"android": "https://dc.lft.to/lastmile_qr_scan", "ios": "https://dc.lft.to/lastmile_qr_scan"}, "is_disabled": 0, "fusion_lat": 0.0, "name": "be8fa0afa6e45861479723e63e124008", "fusion_lon": 0.0}, {"is_reserved": 0, "type": "electric_scooter", "bike_id": "f3c42fb115ca85788ae118ceac3ff389", "lat": 38.91664183333334, "lon": -77.0385405, "rental_uris": {"android": "https://dc.lft.to/lastmile_qr_scan", "ios": "https://dc.lft.to/lastmile_qr_scan"}, "is_disabled": 0, "fusion_lat": 0.0, "name": "f3c42fb115ca85788ae118ceac3ff389", "fusion_lon": 0.0}, {"is_reserved": 0, "type": "electric_scooter", "bike_id": "526d0a659cc256b853715d118020826e", "lat": 38.873415333333334, "lon": -76.99169966666666, "rental_uris": {"android": "https://dc.lft.to/lastmile_qr_scan", "ios": "https://dc.lft.to/lastmile_qr_scan"}, "is_disabled": 0, "fusion_lat": 0.0, "name": "526d0a659cc256b853715d118020826e", "fusion_lon": 0.0}, {"is_reserved": 0, "type": "electric_scooter", "bike_id": "b40bc1e0b75d7ca578da4c1264cbf002", "lat": 38.918835, "lon": -77.03466416666667, "rental_uris": {"android": "https://dc.lft.to/lastmile_qr_scan", "ios": "https://dc.lft.to/lastmile_qr_scan"}, "is_disabled": 0, "fusion_lat": 0.0, "name": "b40bc1e0b75d7ca578da4c1264cbf002", "fusion_lon": 0.0}, {"is_reserved": 0, "type": "electric_scooter", "bike_id": "3d6e4ebe78587cf9a68e938c0a7c5c29", "lat": 38.89448633333333, "lon": -77.02107466666666, "rental_uris": {"android": "https://dc.lft.to/lastmile_qr_scan", "ios": "https://dc.lft.to/lastmile_qr_scan"}, "is_disabled": 0, "fusion_lat": 0.0, "name": "3d6e4ebe78587cf9a68e938c0a7c5c29", "fusion_lon": 0.0}, {"is_reserved": 0, "type": "electric_scooter", "bike_id": "278ab90d89f2d8b9caa072b8bdef7128", "lat": 38.900889, "lon": -77.01326283333333, "rental_uris": {"android": "https://dc.lft.to/lastmile_qr_scan", "ios": "https://dc.lft.to/lastmile_qr_scan"}, "is_disabled": 0, "fusion_lat": 0.0, "name": "278ab90d89f2d8b9caa072b8bdef7128", "fusion_lon": 0.0}, {"is_reserved": 0, "type": "electric_scooter", "bike_id": "72efe6904d64a8412f6dbbc99e56a976", "lat": 38.9003515, "lon": -77.02939333333333, "rental_uris": {"android": "https://dc.lft.to/lastmile_qr_scan", "ios": "https://dc.lft.to/lastmile_qr_scan"}, "is_disabled": 0, "fusion_lat": 0.0, "name": "72efe6904d64a8412f6dbbc99e56a976", "fusion_lon": 0.0}, {"is_reserved": 0, "type": "electric_scooter", "bike_id": "572cf21d0ebf0352de42c64565728a4b", "lat": 38.8923205, "lon": -77.05001266666666, "rental_uris": {"android": "https://dc.lft.to/lastmile_qr_scan", "ios": "https://dc.lft.to/lastmile_qr_scan"}, "is_disabled": 0, "fusion_lat": 0.0, "name": "572cf21d0ebf0352de42c64565728a4b", "fusion_lon": 0.0}, {"is_reserved": 0, "type": "electric_scooter", "bike_id": "6ff3d4842afce88a5990028f3569680e", "lat": 38.892387, "lon": -77.04896466666666, "rental_uris": {"android": "https://dc.lft.to/lastmile_qr_scan", "ios": "https://dc.lft.to/lastmile_qr_scan"}, "is_disabled": 0, "fusion_lat": 0.0, "name": "6ff3d4842afce88a5990028f3569680e", "fusion_lon": 0.0}, {"is_reserved": 0, "type": "electric_scooter", "bike_id": "fdfdd77f3939a9c0106e8d6490722e48", "lat": 38.9058165, "lon": -77.009264, "rental_uris": {"android": "https://dc.lft.to/lastmile_qr_scan", "ios": "https://dc.lft.to/lastmile_qr_scan"}, "is_disabled": 0, "fusion_lat": 0.0, "name": "fdfdd77f3939a9c0106e8d6490722e48", "fusion_lon": 0.0}, {"is_reserved": 0, "type": "electric_scooter", "bike_id": "ff9c966f82e0d5a7e4d857056c2c069f", "lat": 38.8922915, "lon": -77.01352466666667, "rental_uris": {"android": "https://dc.lft.to/lastmile_qr_scan", "ios": "https://dc.lft.to/lastmile_qr_scan"}, "is_disabled": 0, "fusion_lat": 0.0, "name": "ff9c966f82e0d5a7e4d857056c2c069f", "fusion_lon": 0.0}, {"is_reserved": 0, "type": "electric_bike", "bike_id": "ebe8db3dd4478551a25d5bdb85da213b", "lat": 38.929079333333334, "lon": -77.0974255, "rental_uris": {"android": "https://dc.lft.to/lastmile_qr_scan", "ios": "https://dc.lft.to/lastmile_qr_scan"}, "is_disabled": 0, "fusion_lat": 0.0, "name": "ebe8db3dd4478551a25d5bdb85da213b", "fusion_lon": 0.0}, {"is_reserved": 0, "type": "electric_scooter", "bike_id": "ba955f4a7fdb70bb585a93abfdc32cf2", "lat": 38.920553, "lon": -77.0339565, "rental_uris": {"android": "https://dc.lft.to/lastmile_qr_scan", "ios": "https://dc.lft.to/lastmile_qr_scan"}, "is_disabled": 0, "fusion_lat": 0.0, "name": "ba955f4a7fdb70bb585a93abfdc32cf2", "fusion_lon": 0.0}, {"is_reserved": 0, "type": "electric_scooter", "bike_id": "be6531ef040574556f074fc8b374c666", "lat": 38.89224516666667, "lon": -77.031151, "rental_uris": {"android": "https://dc.lft.to/lastmile_qr_scan", "ios": "https://dc.lft.to/lastmile_qr_scan"}, "is_disabled": 0, "fusion_lat": 0.0, "name": "be6531ef040574556f074fc8b374c666", "fusion_lon": 0.0}, {"is_reserved": 0, "type": "electric_bike", "bike_id": "5dad324f6bb0ed0f10200ad5055c7aa8", "lat": 38.836084, "lon": -77.0038005, "rental_uris": {"android": "https://dc.lft.to/lastmile_qr_scan", "ios": "https://dc.lft.to/lastmile_qr_scan"}, "is_disabled": 0, "fusion_lat": 0.0, "name": "5dad324f6bb0ed0f10200ad5055c7aa8", "fusion_lon": 0.0}, {"is_reserved": 0, "type": "electric_scooter", "bike_id": "881540a743e036957ae12c25d6436bb0", "lat": 38.8872765, "lon": -76.98379, "rental_uris": {"android": "https://dc.lft.to/lastmile_qr_scan", "ios": "https://dc.lft.to/lastmile_qr_scan"}, "is_disabled": 0, "fusion_lat": 0.0, "name": "881540a743e036957ae12c25d6436bb0", "fusion_lon": 0.0}, {"is_reserved": 0, "type": "electric_scooter", "bike_id": "daf4213d8a44254f3ab8a5778e66ef19", "lat": 38.90572383333333, "lon": -77.030923, "rental_uris": {"android": "https://dc.lft.to/lastmile_qr_scan", "ios": "https://dc.lft.to/lastmile_qr_scan"}, "is_disabled": 0, "fusion_lat": 0.0, "name": "daf4213d8a44254f3ab8a5778e66ef19", "fusion_lon": 0.0}, {"is_reserved": 0, "type": "electric_scooter", "bike_id": "bd064cb44de32bb21c36430f1c416896", "lat": 38.903968666666664, "lon": -77.06294233333334, "rental_uris": {"android": "https://dc.lft.to/lastmile_qr_scan", "ios": "https://dc.lft.to/lastmile_qr_scan"}, "is_disabled": 0, "fusion_lat": 0.0, "name": "bd064cb44de32bb21c36430f1c416896", "fusion_lon": 0.0}, {"is_reserved": 0, "type": "electric_scooter", "bike_id": "6cec3f8909616f3852d142b3680075a4", "lat": 38.90924166666667, "lon": -77.03214066666666, "rental_uris": {"android": "https://dc.lft.to/lastmile_qr_scan", "ios": "https://dc.lft.to/lastmile_qr_scan"}, "is_disabled": 0, "fusion_lat": 0.0, "name": "6cec3f8909616f3852d142b3680075a4", "fusion_lon": 0.0}, {"is_reserved": 0, "type": "electric_scooter", "bike_id": "ea1f37b4e3dac868e36fd89cab8e53b6", "lat": 38.923829166666664, "lon": -77.03658516666667, "rental_uris": {"android": "https://dc.lft.to/lastmile_qr_scan", "ios": "https://dc.lft.to/lastmile_qr_scan"}, "is_disabled": 0, "fusion_lat": 0.0, "name": "ea1f37b4e3dac868e36fd89cab8e53b6", "fusion_lon": 0.0}, {"is_reserved": 0, "type": "electric_scooter", "bike_id": "02ff4d42df683cc0effb3a87e59ce5df", "lat": 38.920439, "lon": -77.03123033333334, "rental_uris": {"android": "https://dc.lft.to/lastmile_qr_scan", "ios": "https://dc.lft.to/lastmile_qr_scan"}, "is_disabled": 0, "fusion_lat": 0.0, "name": "02ff4d42df683cc0effb3a87e59ce5df", "fusion_lon": 0.0}, {"is_reserved": 0, "type": "electric_scooter", "bike_id": "659c2044af24ff967b34fe7adf97ae96", "lat": 38.90086083333333, "lon": -77.04955966666667, "rental_uris": {"android": "https://dc.lft.to/lastmile_qr_scan", "ios": "https://dc.lft.to/lastmile_qr_scan"}, "is_disabled": 0, "fusion_lat": 0.0, "name": "659c2044af24ff967b34fe7adf97ae96", "fusion_lon": 0.0}, {"is_reserved": 0, "type": "electric_scooter", "bike_id": "2f1808d653bb1fe66900d91530a2a608", "lat": 38.900113166666664, "lon": -77.01198716666667, "rental_uris": {"android": "https://dc.lft.to/lastmile_qr_scan", "ios": "https://dc.lft.to/lastmile_qr_scan"}, "is_disabled": 0, "fusion_lat": 0.0, "name": "2f1808d653bb1fe66900d91530a2a608", "fusion_lon": 0.0}, {"is_reserved": 0, "type": "electric_scooter", "bike_id": "8de3ef8cff983be785d7f631c1fbf3b4", "lat": 38.91800766666667, "lon": -77.03184716666667, "rental_uris": {"android": "https://dc.lft.to/lastmile_qr_scan", "ios": "https://dc.lft.to/lastmile_qr_scan"}, "is_disabled": 0, "fusion_lat": 0.0, "name": "8de3ef8cff983be785d7f631c1fbf3b4", "fusion_lon": 0.0}, {"is_reserved": 0, "type": "electric_scooter", "bike_id": "21548c8787eea2f368e3ea8df028534f", "lat": 38.877886, "lon": -77.00115133333334, "rental_uris": {"android": "https://dc.lft.to/lastmile_qr_scan", "ios": "https://dc.lft.to/lastmile_qr_scan"}, "is_disabled": 0, "fusion_lat": 0.0, "name": "21548c8787eea2f368e3ea8df028534f", "fusion_lon": 0.0}, {"is_reserved": 0, "type": "electric_scooter", "bike_id": "ebed4c74bb21e46519b024d88012020f", "lat": 38.907175, "lon": -77.02546516666666, "rental_uris": {"android": "https://dc.lft.to/lastmile_qr_scan", "ios": "https://dc.lft.to/lastmile_qr_scan"}, "is_disabled": 0, "fusion_lat": 0.0, "name": "ebed4c74bb21e46519b024d88012020f", "fusion_lon": 0.0}, {"is_reserved": 0, "type": "electric_scooter", "bike_id": "3e11d384be08e3bcabcff86570e4efb1", "lat": 38.932059, "lon": -77.02390533333333, "rental_uris": {"android": "https://dc.lft.to/lastmile_qr_scan", "ios": "https://dc.lft.to/lastmile_qr_scan"}, "is_disabled": 0, "fusion_lat": 0.0, "name": "3e11d384be08e3bcabcff86570e4efb1", "fusion_lon": 0.0}, {"is_reserved": 0, "type": "electric_scooter", "bike_id": "9f35b28ff18527908e2b8b55fc7da55e", "lat": 38.92821516666667, "lon": -77.02251666666666, "rental_uris": {"android": "https://dc.lft.to/lastmile_qr_scan", "ios": "https://dc.lft.to/lastmile_qr_scan"}, "is_disabled": 0, "fusion_lat": 0.0, "name": "9f35b28ff18527908e2b8b55fc7da55e", "fusion_lon": 0.0}, {"is_reserved": 0, "type": "electric_scooter", "bike_id": "a0a5623219ac923e019c5255983e8709", "lat": 38.92237216666667, "lon": -77.0352045, "rental_uris": {"android": "https://dc.lft.to/lastmile_qr_scan", "ios": "https://dc.lft.to/lastmile_qr_scan"}, "is_disabled": 0, "fusion_lat": 0.0, "name": "a0a5623219ac923e019c5255983e8709", "fusion_lon": 0.0}, {"is_reserved": 0, "type": "electric_scooter", "bike_id": "c318a2e399880886c9cd9226bef49094", "lat": 38.8977735, "lon": -77.015786, "rental_uris": {"android": "https://dc.lft.to/lastmile_qr_scan", "ios": "https://dc.lft.to/lastmile_qr_scan"},