{"data": {"bikes": [{"lon": -77.030444, "rental_uris": {"android": "https://dc.lft.to/lastmile_qr_scan", "ios": "https://dc.lft.to/lastmile_qr_scan"}, "fusion_lon": 0.0, "is_reserved": 0, "is_disabled": 0, "fusion_lat": 0.0, "type": "electric_scooter", "name": "489c5f63a1cac71f5f085987efb6a6bc", "lat": 38.8981865, "bike_id": "489c5f63a1cac71f5f085987efb6a6bc"}, {"lon": -77.02199733333333, "rental_uris": {"android": "https://dc.lft.to/lastmile_qr_scan", "ios": "https://dc.lft.to/lastmile_qr_scan"}, "fusion_lon": 0.0, "is_reserved": 0, "is_disabled": 0, "fusion_lat": 0.0, "type": "electric_scooter", "name": "4e5f63343e644477b89a83f33e95c68c", "lat": 38.9036055, "bike_id": "4e5f63343e644477b89a83f33e95c68c"}, {"lon": -77.02701866666666, "rental_uris": {"android": "https://dc.lft.to/lastmile_qr_scan", "ios": "https://dc.lft.to/lastmile_qr_scan"}, "fusion_lon": 0.0, "is_reserved": 0, "is_disabled": 0, "fusion_lat": 0.0, "type": "electric_scooter", "name": "016c673233322305d609466baeae2764", "lat": 38.917294, "bike_id": "016c673233322305d609466baeae2764"}, {"lon": -77.03997466666667, "rental_uris": {"android": "https://dc.lft.to/lastmile_qr_scan", "ios": "https://dc.lft.to/lastmile_qr_scan"}, "fusion_lon": 0.0, "is_reserved": 0, "is_disabled": 0, "fusion_lat": 0.0, "type": "electric_scooter", "name": "1b773b9e6e7baef9a5c4774f5f908131", "lat": 38.898353, "bike_id": "1b773b9e6e7baef9a5c4774f5f908131"}, {"lon": -77.01948566666667, "rental_uris": {"android": "https://dc.lft.to/lastmile_qr_scan", "ios": "https://dc.lft.to/lastmile_qr_scan"}, "fusion_lon": 0.0, "is_reserved": 0, "is_disabled": 0, "fusion_lat": 0.0, "type": "electric_scooter", "name": "ea66fb118eae5a6075f581265ceec183", "lat": 38.92420716666667, "bike_id": "ea66fb118eae5a6075f581265ceec183"}, {"lon": -77.03234233333333, "rental_uris": {"android": "https://dc.lft.to/lastmile_qr_scan", "ios": "https://dc.lft.to/lastmile_qr_scan"}, "fusion_lon": 0.0, "is_reserved": 0, "is_disabled": 0, "fusion_lat": 0.0, "type": "electric_scooter", "name": "a855d04323dea1adb5a5738ccd5aa715", "lat": 38.91490316666667, "bike_id": "a855d04323dea1adb5a5738ccd5aa715"}, {"lon": -76.93192333333333, "rental_uris": {"android": "https://dc.lft.to/lastmile_qr_scan", "ios": "https://dc.lft.to/lastmile_qr_scan"}, "fusion_lon": 0.0, "is_reserved": 0, "is_disabled": 0, "fusion_lat": 0.0, "type": "electric_scooter", "name": "b8d6cd6a1dfab51a4db095138a5dc8b2", "lat": 38.89881333333334, "bike_id": "b8d6cd6a1dfab51a4db095138a5dc8b2"}, {"lon": -76.97774516666666, "rental_uris": {"android": "https://dc.lft.to/lastmile_qr_scan", "ios": "https://dc.lft.to/lastmile_qr_scan"}, "fusion_lon": 0.0, "is_reserved": 0, "is_disabled": 0, "fusion_lat": 0.0, "type": "electric_bike", "name": "35d0aeeb14491be2fdf629580a94b1d5", "lat": 38.85725633333333, "bike_id": "35d0aeeb14491be2fdf629580a94b1d5"}, {"lon": -77.03217583333333, "rental_uris": {"android": "https://dc.lft.to/lastmile_qr_scan", "ios": "https://dc.lft.to/lastmile_qr_scan"}, "fusion_lon": 0.0, "is_reserved": 0, "is_disabled": 0, "fusion_lat": 0.0, "type": "electric_scooter", "name": "586599765f3dc1b88334b6fdebcfe800", "lat": 38.89224266666667, "bike_id": "586599765f3dc1b88334b6fdebcfe800"}, {"lon": -77.03053866666667, "rental_uris": {"android": "https://dc.lft.to/lastmile_qr_scan", "ios": "https://dc.lft.to/lastmile_qr_scan"}, "fusion_lon": 0.0, "is_reserved": 0, "is_disabled": 0, "fusion_lat": 0.0, "type": "electric_scooter", "name": "3d92fb3154673899a31d69c1cbdd9405", "lat": 38.916877, "bike_id": "3d92fb3154673899a31d69c1cbdd9405"}, {"lon": -77.21035766666667, "rental_uris": {"android": "https://dc.lft.to/lastmile_qr_scan", "ios": "https://dc.lft.to/lastmile_qr_scan"}, "fusion_lon": 0.0, "is_reserved": 0, "is_disabled": 0, "fusion_lat": 0.0, "type": "electric_bike", "name": "b5ac37cb12a01ae619a8232186e2616f", "lat": 38.925980333333335, "bike_id": "b5ac37cb12a01ae619a8232186e2616f"}, {"lon": -77.01577833333333, "rental_uris": {"android": "https://dc.lft.to/lastmile_qr_scan", "ios": "https://dc.lft.to/lastmile_qr_scan"}, "fusion_lon": 0.0, "is_reserved": 0, "is_disabled": 0, "fusion_lat": 0.0, "type": "electric_scooter", "name": "c30f1ac8ee68b15c7384981e1452bd61", "lat": 38.91512133333333, "bike_id": "c30f1ac8ee68b15c7384981e1452bd61"}, {"lon": -77.02035216666667, "rental_uris": {"android": "https://dc.lft.to/lastmile_qr_scan", "ios": "https://dc.lft.to/lastmile_qr_scan"}, "fusion_lon": 0.0, "is_reserved": 0, "is_disabled": 0, "fusion_lat": 0.0, "type": "electric_scooter", "name": "1721ad4607c7aab3d9c42ed57ff93dd6", "lat": 38.924592, "bike_id": "1721ad4607c7aab3d9c42ed57ff93dd6"}, {"lon": -77.06377133333334, "rental_uris": {"android": "https://dc.lft.to/lastmile_qr_scan", "ios": "https://dc.lft.to/lastmile_qr_scan"}, "fusion_lon": 0.0, "is_reserved": 0, "is_disabled": 0, "fusion_lat": 0.0, "type": "electric_scooter", "name": "8523fcd1b313e33db32087a58e139db7", "lat": 38.9062295, "bike_id": "8523fcd1b313e33db32087a58e139db7"}, {"lon": -77.01364066666666, "rental_uris": {"android": "https://dc.lft.to/lastmile_qr_scan", "ios": "https://dc.lft.to/lastmile_qr_scan"}, "fusion_lon": 0.0, "is_reserved": 0, "is_disabled": 0, "fusion_lat": 0.0, "type": "electric_scooter", "name": "b7cc7eddbc6985558d19943ecd28f667", "lat": 38.871668, "bike_id": "b7cc7eddbc6985558d19943ecd28f667"}, {"lon": -76.99948366666666, "rental_uris": {"android": "https://dc.lft.to/lastmile_qr_scan", "ios": "https://dc.lft.to/lastmile_qr_scan"}, "fusion_lon": 0.0, "is_reserved": 0, "is_disabled": 0, "fusion_lat": 0.0, "type": "electric_scooter", "name": "fada8ccf72605f8f1f91292301a19f77", "lat": 38.904288666666666, "bike_id": "fada8ccf72605f8f1f91292301a19f77"}, {"lon": -77.04328816666667, "rental_uris": {"android": "https://dc.lft.to/lastmile_qr_scan", "ios": "https://dc.lft.to/lastmile_qr_scan"}, "fusion_lon": 0.0, "is_reserved": 0, "is_disabled": 0, "fusion_lat": 0.0, "type": "electric_scooter", "name": "eb5e2cc13a46d35fcf7d0b04f894ed57", "lat": 38.90407666666667, "bike_id": "eb5e2cc13a46d35fcf7d0b04f894ed57"}, {"lon": -77.04549266666666, "rental_uris": {"android": "https://dc.lft.to/lastmile_qr_scan", "ios": "https://dc.lft.to/lastmile_qr_scan"}, "fusion_lon": 0.0, "is_reserved": 0, "is_disabled": 0, "fusion_lat": 0.0, "type": "electric_scooter", "name": "3dfed94c182c3dcb439d3a92ceb9460a", "lat": 38.91123433333333, "bike_id": "3dfed94c182c3dcb439d3a92ceb9460a"}, {"lon": -77.03395916666666, "rental_uris": {"android": "https://dc.lft.to/lastmile_qr_scan", "ios": "https://dc.lft.to/lastmile_qr_scan"}, "fusion_lon": 0.0, "is_reserved": 0, "is_disabled": 0, "fusion_lat": 0.0, "type": "electric_scooter", "name": "50a11d80f47d654e488f840a23301d5a", "lat": 38.938454666666665, "bike_id": "50a11d80f47d654e488f840a23301d5a"}, {"lon": -77.0220405, "rental_uris": {"android": "https://dc.lft.to/lastmile_qr_scan", "ios": "https://dc.lft.to/lastmile_qr_scan"}, "fusion_lon": 0.0, "is_reserved": 0, "is_disabled": 0, "fusion_lat": 0.0, "type": "electric_scooter", "name": "149f7f74063ea98b0bbc4b96e7eefb6f", "lat": 38.90538333333333, "bike_id": "149f7f74063ea98b0bbc4b96e7eefb6f"}, {"lon": -77.02658, "rental_uris": {"android": "https://dc.lft.to/lastmile_qr_scan", "ios": "https://dc.lft.to/lastmile_qr_scan"}, "fusion_lon": 0.0, "is_reserved": 0, "is_disabled": 0, "fusion_lat": 0.0, "type": "electric_scooter", "name": "ae79909059eb7ee88e91968aa57db40f", "lat": 38.89223883333333, "bike_id": "ae79909059eb7ee88e91968aa57db40f"}, {"lon": -77.02212366666667, "rental_uris": {"android": "https://dc.lft.to/lastmile_qr_scan", "ios": "https://dc.lft.to/lastmile_qr_scan"}, "fusion_lon": 0.0, "is_reserved": 0, "is_disabled": 0, "fusion_lat": 0.0, "type": "electric_scooter", "name": "1a3f30ef54c527d9872c8d2db5019624", "lat": 38.92229, "bike_id": "1a3f30ef54c527d9872c8d2db5019624"}, {"lon": -77.02105183333333, "rental_uris": {"android": "https://dc.lft.to/lastmile_qr_scan", "ios": "https://dc.lft.to/lastmile_qr_scan"}, "fusion_lon": 0.0, "is_reserved": 0, "is_disabled": 0, "fusion_lat": 0.0, "type": "electric_scooter", "name": "404902ab5108a5d688a161db60347327", "lat": 38.934405, "bike_id": "404902ab5108a5d688a161db60347327"}, {"lon": -76.999536, "rental_uris": {"android": "https://dc.lft.to/lastmile_qr_scan", "ios": "https://dc.lft.to/lastmile_qr_scan"}, "fusion_lon": 0.0, "is_reserved": 0, "is_disabled": 0, "fusion_lat": 0.0, "type": "electric_scooter", "name": "97f8222743e1879c851205f26fc0bcd6", "lat": 38.9235725, "bike_id": "97f8222743e1879c851205f26fc0bcd6"}, {"lon": -76.98313166666667, "rental_uris": {"android": "https://dc.lft.to/lastmile_qr_scan", "ios": "https://dc.lft.to/lastmile_qr_scan"}, "fusion_lon": 0.0, "is_reserved": 0, "is_disabled": 0, "fusion_lat": 0.0, "type": "electric_scooter", "name": "cbaf78e6e1c90a70679092034f2fdeb0", "lat": 38.94335733333333, "bike_id": "cbaf78e6e1c90a70679092034f2fdeb0"}, {"lon": -77.0528375, "rental_uris": {"android": "https://dc.lft.to/lastmile_qr_scan", "ios": "https://dc.lft.to/lastmile_qr_scan"}, "fusion_lon": 0.0, "is_reserved": 0, "is_disabled": 0, "fusion_lat": 0.0, "type": "electric_scooter", "name": "1d9caf6290a3bcfd374be1d950952c1d", "lat": 38.92232883333333, "bike_id": "1d9caf6290a3bcfd374be1d950952c1d"}, {"lon": -77.00538166666666, "rental_uris": {"android": "https://dc.lft.to/lastmile_qr_scan", "ios": "https://dc.lft.to/lastmile_qr_scan"}, "fusion_lon": 0.0, "is_reserved": 0, "is_disabled": 0, "fusion_lat": 0.0, "type": "electric_scooter", "name": "24140370c90c5458cf6ee7ff6e7a31f4", "lat": 38.87547983333333, "bike_id": "24140370c90c5458cf6ee7ff6e7a31f4"}, {"lon": -77.01082833333334, "rental_uris": {"android": "https://dc.lft.to/lastmile_qr_scan", "ios": "https://dc.lft.to/lastmile_qr_scan"}, "fusion_lon": 0.0, "is_reserved": 0, "is_disabled": 0, "fusion_lat": 0.0, "type": "electric_scooter", "name": "1d43915d1eff606f236297122ff3845a", "lat": 38.89448183333333, "bike_id": "1d43915d1eff606f236297122ff3845a"}, {"lon": -77.03009783333333, "rental_uris": {"android": "https://dc.lft.to/lastmile_qr_scan", "ios": "https://dc.lft.to/lastmile_qr_scan"}, "fusion_lon": 0.0, "is_reserved": 0, "is_disabled": 0, "fusion_lat": 0.0, "type": "electric_scooter", "name": "d6f96ea7fd2c90b31a79c31275e5570f", "lat": 38.916383333333336, "bike_id": "d6f96ea7fd2c90b31a79c31275e5570f"}, {"lon": -77.0274065, "rental_uris": {"android": "https://dc.lft.to/lastmile_qr_scan", "ios": "https://dc.lft.to/lastmile_qr_scan"}, "fusion_lon": 0.0, "is_reserved": 0, "is_disabled": 0, "fusion_lat": 0.0, "type": "electric_scooter", "name": "163d834e4929b0e6a3195b916944722b", "lat": 38.966104, "bike_id": "163d834e4929b0e6a3195b916944722b"}, {"lon": -77.01930633333333, "rental_uris": {"android": "https://dc.lft.to/lastmile_qr_scan", "ios": "https://dc.lft.to/lastmile_qr_scan"}, "fusion_lon": 0.0, "is_reserved": 0, "is_disabled": 0, "fusion_lat": 0.0, "type": "electric_scooter", "name": "f3887a97660c37b087f867392b3b3751", "lat": 38.89563033333334, "bike_id": "f3887a97660c37b087f867392b3b3751"}, {"lon": -77.051838, "rental_uris": {"android": "https://dc.lft.to/lastmile_qr_scan", "ios": "https://dc.lft.to/lastmile_qr_scan"}, "fusion_lon": 0.0, "is_reserved": 0, "is_disabled": 0, "fusion_lat": 0.0, "type": "electric_scooter", "name": "48191348831c8f0b592bf1171cd4fccc", "lat": 38.923441, "bike_id": "48191348831c8f0b592bf1171cd4fccc"}, {"lon": -77.03966183333333, "rental_uris": {"android": "https://dc.lft.to/lastmile_qr_scan", "ios": "https://dc.lft.to/lastmile_qr_scan"}, "fusion_lon": 0.0, "is_reserved": 0, "is_disabled": 0, "fusion_lat": 0.0, "type": "electric_scooter", "name": "446098c6a25e619bf4800cff9bdb6ee2", "lat": 38.915655666666666, "bike_id": "446098c6a25e619bf4800cff9bdb6ee2"}, {"lon": -77.02220416666667, "rental_uris": {"android": "https://dc.lft.to/lastmile_qr_scan", "ios": "https://dc.lft.to/lastmile_qr_scan"}, "fusion_lon": 0.0, "is_reserved": 0, "is_disabled": 0, "fusion_lat": 0.0, "type": "electric_scooter", "name": "4434f86a16f287438d4c3570a9eb7170", "lat": 38.892200333333335, "bike_id": "4434f86a16f287438d4c3570a9eb7170"}, {"lon": -76.94006866666666, "rental_uris": {"android": "https://dc.lft.to/lastmile_qr_scan", "ios": "https://dc.lft.to/lastmile_qr_scan"}, "fusion_lon": 0.0, "is_reserved": 0, "is_disabled": 0, "fusion_lat": 0.0, "type": "electric_bike", "name": "e7a7abe70890fb5b44198d4d088ea945", "lat": 38.96052983333333, "bike_id": "e7a7abe70890fb5b44198d4d088ea945"}, {"lon": -76.97812033333334, "rental_uris": {"android": "https://dc.lft.to/lastmile_qr_scan", "ios": "https://dc.lft.to/lastmile_qr_scan"}, "fusion_lon": 0.0, "is_reserved": 0, "is_disabled": 0, "fusion_lat": 0.0, "type": "electric_scooter", "name": "9244283753ad20d298ab45fc0ce6bbde", "lat": 38.903142333333335, "bike_id": "9244283753ad20d298ab45fc0ce6bbde"}, {"lon": -77.01125383333333, "rental_uris": {"android": "https://dc.lft.to/lastmile_qr_scan", "ios": "https://dc.lft.to/lastmile_qr_scan"}, "fusion_lon": 0.0, "is_reserved": 0, "is_disabled": 0, "fusion_lat": 0.0, "type": "electric_scooter", "name": "4f1b900ea9a574bea9ddb672a9636bc3", "lat": 38.89532633333334, "bike_id": "4f1b900ea9a574bea9ddb672a9636bc3"}, {"lon": -77.02513366666666, "rental_uris": {"android": "https://dc.lft.to/lastmile_qr_scan", "ios": "https://dc.lft.to/lastmile_qr_scan"}, "fusion_lon": 0.0, "is_reserved": 0, "is_disabled": 0, "fusion_lat": 0.0, "type": "electric_scooter", "name": "5daa858f0581af37def34bdecba8ff7f", "lat": 38.904276333333335, "bike_id": "5daa858f0581af37def34bdecba8ff7f"}, {"lon": -77.022391, "rental_uris": {"android": "https://dc.lft.to/lastmile_qr_scan", "ios": "https://dc.lft.to/lastmile_qr_scan"}, "fusion_lon": 0.0, "is_reserved": 0, "is_disabled": 0, "fusion_lat": 0.0, "type": "electric_scooter", "name": "d61d862bec048152ac1b6fba81db3028", "lat": 38.9141615, "bike_id": "d61d862bec048152ac1b6fba81db3028"}, {"lon": -77.03973016666667, "rental_uris": {"android": "https://dc.lft.to/lastmile_qr_scan", "ios": "https://dc.lft.to/lastmile_qr_scan"}, "fusion_lon": 0.0, "is_reserved": 0, "is_disabled": 0, "fusion_lat": 0.0, "type": "electric_scooter", "name": "ea4dd80c47b6ed6768efc98e32adc6e9", "lat": 38.9062825, "bike_id": "ea4dd80c47b6ed6768efc98e32adc6e9"}, {"lon": -77.00891133333333, "rental_uris": {"android": "https://dc.lft.to/lastmile_qr_scan", "ios": "https://dc.lft.to/lastmile_qr_scan"}, "fusion_lon": 0.0, "is_reserved": 0, "is_disabled": 0, "fusion_lat": 0.0, "type": "electric_scooter", "name": "8851e8498ae6ea93c8ae7492116f713e", "lat": 38.885026833333335, "bike_id": "8851e8498ae6ea93c8ae7492116f713e"}, {"lon": -77.03443633333333, "rental_uris": {"android": "https://dc.lft.to/lastmile_qr_scan", "ios": "https://dc.lft.to/lastmile_qr_scan"}, "fusion_lon": 0.0, "is_reserved": 0, "is_disabled": 0, "fusion_lat": 0.0, "type": "electric_scooter", "name": "835f66e9b25320669f2734255737025f", "lat": 38.90398316666667, "bike_id": "835f66e9b25320669f2734255737025f"}, {"lon": -77.02164883333333, "rental_uris": {"android": "https://dc.lft.to/lastmile_qr_scan", "ios": "https://dc.lft.to/lastmile_qr_scan"}, "fusion_lon": 0.0, "is_reserved": 0, "is_disabled": 0, "fusion_lat": 0.0, "type": "electric_scooter", "name": "ce1da608f2ffdccd32f5544e91c63ca1", "lat": 38.9261615, "bike_id": "ce1da608f2ffdccd32f5544e91c63ca1"}, {"lon": -77.04921716666666, "rental_uris": {"android": "https://dc.lft.to/lastmile_qr_scan", "ios": "https://dc.lft.to/lastmile_qr_scan"}, "fusion_lon": 0.0, "is_reserved": 0, "is_disabled": 0, "fusion_lat": 0.0, "type": "electric_scooter", "name": "95b4269283585b56c141d6103f48e986", "lat": 38.898373166666666, "bike_id": "95b4269283585b56c141d6103f48e986"}, {"lon": -77.0004115, "rental_uris": {"android": "https://dc.lft.to/lastmile_qr_scan", "ios": "https://dc.lft.to/lastmile_qr_scan"}, "fusion_lon": 0.0, "is_reserved": 0, "is_disabled": 0, "fusion_lat": 0.0, "type": "electric_scooter", "name": "f048b1fde684f722330b1f449a5d84b1", "lat": 38.88766316666667, "bike_id": "f048b1fde684f722330b1f449a5d84b1"}, {"lon": -76.97348533333333, "rental_uris": {"android": "https://dc.lft.to/lastmile_qr_scan", "ios": "https://dc.lft.to/lastmile_qr_scan"}, "fusion_lon": 0.0, "is_reserved": 0, "is_disabled": 0, "fusion_lat": 0.0, "type": "electric_bike", "name": "93596463ef33a57526271ff520fa7db9", "lat": 38.89731833333333, "bike_id": "93596463ef33a57526271ff520fa7db9"}, {"lon": -77.03431133333333, "rental_uris": {"android": "https://dc.lft.to/lastmile_qr_scan", "ios": "https://dc.lft.to/lastmile_qr_scan"}, "fusion_lon": 0.0, "is_reserved": 0, "is_disabled": 0, "fusion_lat": 0.0, "type": "electric_scooter", "name": "d571be20145a772a524e1529b390e015", "lat": 38.9095935, "bike_id": "d571be20145a772a524e1529b390e015"}, {"lon": -77.0636115, "rental_uris": {"android": "https://dc.lft.to/lastmile_qr_scan", "ios": "https://dc.lft.to/lastmile_qr_scan"}, "fusion_lon": 0.0, "is_reserved": 0, "is_disabled": 0, "fusion_lat": 0.0, "type": "electric_scooter", "name": "2ded280825c3185c5baa6d746d95efd6", "lat": 38.944498, "bike_id": "2ded280825c3185c5baa6d746d95efd6"}, {"lon": -77.03996066666667, "rental_uris": {"android": "https://dc.lft.to/lastmile_qr_scan", "ios": "https://dc.lft.to/lastmile_qr_scan"}, "fusion_lon": 0.0, "is_reserved": 0, "is_disabled": 0, "fusion_lat": 0.0, "type": "electric_scooter", "name": "1ff9c8d82392f9be0e0e9f9b6bc3c079", "lat": 38.90368266666667, "bike_id": "1ff9c8d82392f9be0e0e9f9b6bc3c079"}, {"lon": -77.0296775, "rental_uris": {"android": "https://dc.lft.to/lastmile_qr_scan", "ios": "https://dc.lft.to/lastmile_qr_scan"}, "fusion_lon": 0.0, "is_reserved": 0, "is_disabled": 0, "fusion_lat": 0.0, "type": "electric_scooter", "name": "a03b6a77d64d5cd6c8c2f866650fddde", "lat": 38.94225733333333, "bike_id": "a03b6a77d64d5cd6c8c2f866650fddde"}, {"lon": -77.032374, "rental_uris": {"android": "https://dc.lft.to/lastmile_qr_scan", "ios": "https://dc.lft.to/lastmile_qr_scan"}, "fusion_lon": 0.0, "is_reserved": 0, "is_disabled": 0, "fusion_lat": 0.0, "type": "electric_scooter", "name": "af8eed49b0893bfe4ec28317d8ed4ada", "lat": 38.915645, "bike_id": "af8eed49b0893bfe4ec28317d8ed4ada"}, {"lon": -77.0235305, "rental_uris": {"android": "https://dc.lft.to/lastmile_qr_scan", "ios": "https://dc.lft.to/lastmile_qr_scan"}, "fusion_lon": 0.0, "is_reserved": 0, "is_disabled": 0, "fusion_lat": 0.0, "type": "electric_scooter", "name": "4e8414f6cfccafb349aa51882444e041", "lat": 38.896045, "bike_id": "4e8414f6cfccafb349aa51882444e041"}, {"lon": -77.02666266666667, "rental_uris": {"android": "https://dc.lft.to/lastmile_qr_scan", "ios": "https://dc.lft.to/lastmile_qr_scan"}, "fusion_lon": 0.0, "is_reserved": 0, "is_disabled": 0, "fusion_lat": 0.0, "type": "electric_scooter", "name": "353126a538d31da40ade6309f4e00f4b", "lat": 38.9310115, "bike_id": "353126a538d31da40ade6309f4e00f4b"}, {"lon": -77.02236116666667, "rental_uris": {"android": "https://dc.lft.to/lastmile_qr_scan", "ios": "https://dc.lft.to/lastmile_qr_scan"}, "fusion_lon": 0.0, "is_reserved": 0, "is_disabled": 0, "fusion_lat": 0.0, "type": "electric_scooter", "name": "f8ae25d495a5fe61b35b623f3ca8d74c", "lat": 38.9141165, "bike_id": "f8ae25d495a5fe61b35b623f3ca8d74c"}, {"lon": -77.002968, "rental_uris": {"android": "https://dc.lft.to/lastmile_qr_scan", "ios": "https://dc.lft.to/lastmile_qr_scan"}, "fusion_lon": 0.0, "is_reserved": 0, "is_disabled": 0, "fusion_lat": 0.0, "type": "electric_scooter", "name": "2b3c35efe81f455fa710497f4f242a01", "lat": 38.87654083333334, "bike_id": "2b3c35efe81f455fa710497f4f242a01"}, {"lon": -77.047661, "rental_uris": {"android": "https://dc.lft.to/lastmile_qr_scan", "ios": "https://dc.lft.to/lastmile_qr_scan"}, "fusion_lon": 0.0, "is_reserved": 0, "is_disabled": 0, "fusion_lat": 0.0, "type": "electric_scooter", "name": "2b4ae639ff77d011033f4aac7881c267", "lat": 38.91869033333333, "bike_id": "2b4ae639ff77d011033f4aac7881c267"}, {"lon": -77.01361366666667, "rental_uris": {"android": "https://dc.lft.to/lastmile_qr_scan", "ios": "https://dc.lft.to/lastmile_qr_scan"}, "fusion_lon": 0.0, "is_reserved": 0, "is_disabled": 0, "fusion_lat": 0.0, "type": "electric_scooter", "name": "8390356eefd30eba01be51451e5ac024", "lat": 38.956754333333336, "bike_id": "8390356eefd30eba01be51451e5ac024"}, {"lon": -77.088598, "rental_uris": {"android": "https://dc.lft.to/lastmile_qr_scan", "ios": "https://dc.lft.to/lastmile_qr_scan"}, "fusion_lon": 0.0, "is_reserved": 0, "is_disabled": 0, "fusion_lat": 0.0, "type": "electric_scooter", "name": "702a208b5dbe22200a9ebf193d784165", "lat": 38.9338235, "bike_id": "702a208b5dbe22200a9ebf193d784165"}, {"lon": -77.0248075, "rental_uris": {"android": "https://dc.lft.to/lastmile_qr_scan", "ios": "https://dc.lft.to/lastmile_qr_scan"}, "fusion_lon": 0.0, "is_reserved": 0, "is_disabled": 0, "fusion_lat": 0.0, "type": "electric_scooter", "name": "cf308e0401059ccd01ef32572ba73789", "lat": 38.941989166666666, "bike_id": "cf308e0401059ccd01ef32572ba73789"}, {"lon": -76.992612, "rental_uris": {"android": "https://dc.lft.to/lastmile_qr_scan", "ios": "https://dc.lft.to/lastmile_qr_scan"}, "fusion_lon": 0.0, "is_reserved": 0, "is_disabled": 0, "fusion_lat": 0.0, "type": "electric_scooter", "name": "7ba0894d6ad997e9ebd7a6558743bc92", "lat": 38.902974666666665, "bike_id": "7ba0894d6ad997e9ebd7a6558743bc92"}, {"lon": -77.10615866666667, "rental_uris": {"android": "https://dc.lft.to/lastmile_qr_scan", "ios": "https://dc.lft.to/lastmile_qr_scan"}, "fusion_lon": 0.0, "is_reserved": 0, "is_disabled": 0, "fusion_lat": 0.0, "type": "electric_bike", "name": "3a6f34ac16978c103c5cef3a5de0e378", "lat": 38.9356995, "bike_id": "3a6f34ac16978c103c5cef3a5de0e378"}, {"lon": -77.02421416666667, "rental_uris": {"android": "https://dc.lft.to/lastmile_qr_scan", "ios": "https://dc.lft.to/lastmile_qr_scan"}, "fusion_lon": 0.0, "is_reserved": 0, "is_disabled": 0, "fusion_lat": 0.0, "type": "electric_scooter", "name": "16c7afe7737b6ec04e42ed0a7593d61c", "lat": 38.89227116666667, "bike_id": "16c7afe7737b6ec04e42ed0a7593d61c"}, {"lon": -77.02198, "rental_uris": {"android": "https://dc.lft.to/lastmile_qr_scan", "ios": "https://dc.lft.to/lastmile_qr_scan"}, "fusion_lon": 0.0, "is_reserved": 0, "is_disabled": 0, "fusion_lat": 0.0, "type": "electric_scooter", "name": "8c82d1439a0e246eb381b32948c2ed94", "lat": 38.91129866666667, "bike_id": "8c82d1439a0e246eb381b32948c2ed94"}, {"lon": -77.05454333333333, "rental_uris": {"android": "https://dc.lft.to/lastmile_qr_scan", "ios": "https://dc.lft.to/lastmile_qr_scan"}, "fusion_lon": 0.0, "is_reserved": 0, "is_disabled": 0, "fusion_lat": 0.0, "type": "electric_scooter", "name": "b091ad8dfb5b5d2444173cfa90708bda", "lat": 38.9030045, "bike_id": "b091ad8dfb5b5d2444173cfa90708bda"}, {"lon": -77.0064545, "rental_uris": {"android": "https://dc.lft.to/lastmile_qr_scan", "ios": "https://dc.lft.to/lastmile_qr_scan"}, "fusion_lon": 0.0, "is_reserved": 0, "is_disabled": 0, "fusion_lat": 0.0, "type": "electric_scooter", "name": "f4fbdc0d7df421f46025b0222315cc57", "lat": 38.8718825, "bike_id": "f4fbdc0d7df421f46025b0222315cc57"}, {"lon": -77.059082, "rental_uris": {"android": "https://dc.lft.to/lastmile_qr_scan", "ios": "https://dc.lft.to/lastmile_qr_scan"}, "fusion_lon": 0.0, "is_reserved": 0, "is_disabled": 0, "fusion_lat": 0.0, "type": "electric_bike", "name": "6e8ea2f960cd058274e086cbbbbddae4", "lat": 38.90084316666667, "bike_id": "6e8ea2f960cd058274e086cbbbbddae4"}, {"lon": -77.07285666666667, "rental_uris": {"android": "https://dc.lft.to/lastmile_qr_scan", "ios": "https://dc.lft.to/lastmile_qr_scan"}, "fusion_lon": 0.0, "is_reserved": 0, "is_disabled": 0, "fusion_lat": 0.0, "type": "electric_scooter", "name": "eb73e72d6e326eb7e9c48fabb862e535", "lat": 38.9222905, "bike_id": "eb73e72d6e326eb7e9c48fabb862e535"}, {"lon": -77.00332066666667, "rental_uris": {"android": "https://dc.lft.to/lastmile_qr_scan", "ios": "https://dc.lft.to/lastmile_qr_scan"}, "fusion_lon": 0.0, "is_reserved": 0, "is_disabled": 0, "fusion_lat": 0.0, "type": "electric_scooter", "name": "72efffdc3cb0fe2842f359b5c1aab3d0", "lat": 38.89354, "bike_id": "72efffdc3cb0fe2842f359b5c1aab3d0"}, {"lon": -77.02295833333334, "rental_uris": {"android": "https://dc.lft.to/lastmile_qr_scan", "ios": "https://dc.lft.to/lastmile_qr_scan"}, "fusion_lon": 0.0, "is_reserved": 0, "is_disabled": 0, "fusion_lat": 0.0, "type": "electric_scooter", "name": "2c31e8bd7d927cae3ef0a1bbfeeb15d0", "lat": 38.91455666666667, "bike_id": "2c31e8bd7d927cae3ef0a1bbfeeb15d0"}, {"lon": -77.01925883333334, "rental_uris": {"android": "https://dc.lft.to/lastmile_qr_scan", "ios": "https://dc.lft.to/lastmile_qr_scan"}, "fusion_lon": 0.0, "is_reserved": 0, "is_disabled": 0, "fusion_lat": 0.0, "type": "electric_scooter", "name": "8656c54a8bec30a9095f313cff19d6c4", "lat": 38.8991375, "bike_id": "8656c54a8bec30a9095f313cff19d6c4"}, {"lon": -76.99964966666667, "rental_uris": {"android": "https://dc.lft.to/lastmile_qr_scan", "ios": "https://dc.lft.to/lastmile_qr_scan"}, "fusion_lon": 0.0, "is_reserved": 0, "is_disabled": 0, "fusion_lat": 0.0, "type": "electric_scooter", "name": "24025b5fb023ca296fa6c63db7f1df03", "lat": 38.909236666666665, "bike_id": "24025b5fb023ca296fa6c63db7f1df03"}, {"lon": -77.03336116666667, "rental_uris": {"android": "https://dc.lft.to/lastmile_qr_scan", "ios": "https://dc.lft.to/lastmile_qr_scan"}, "fusion_lon": 0.0, "is_reserved": 0, "is_disabled": 0, "fusion_lat": 0.0, "type": "electric_scooter", "name": "ce9a232963505dbd9c94a630e6943b7c", "lat": 38.97213766666667, "bike_id": "ce9a232963505dbd9c94a630e6943b7c"}, {"lon": -77.03587683333333, "rental_uris": {"android": "https://dc.lft.to/lastmile_qr_scan", "ios": "https://dc.lft.to/lastmile_qr_scan"}, "fusion_lon": 0.0, "is_reserved": 0, "is_disabled": 0, "fusion_lat": 0.0, "type": "electric_scooter", "name": "acac666bf07c9e54e4b75805470162c9", "lat": 38.9262765, "bike_id": "acac666bf07c9e54e4b75805470162c9"}, {"lon": -76.95226916666667, "rental_uris": {"android": "https://dc.lft.to/lastmile_qr_scan", "ios": "https://dc.lft.to/lastmile_qr_scan"}, "fusion_lon": 0.0, "is_reserved": 0, "is_disabled": 0, "fusion_lat": 0.0, "type": "electric_scooter", "name": "2ae5ad9d5ea0ccf563d428a4c8cfec27", "lat": 38.8934205, "bike_id": "2ae5ad9d5ea0ccf563d428a4c8cfec27"}, {"lon": -77.0508755, "rental_uris": {"android": "https://dc.lft.to/lastmile_qr_scan", "ios": "https://dc.lft.to/lastmile_qr_scan"}, "fusion_lon": 0.0, "is_reserved": 0, "is_disabled": 0, "fusion_lat": 0.0, "type": "electric_scooter", "name": "b29292f366b47292b24e6f6838215f4e", "lat": 38.89952366666667, "bike_id": "b29292f366b47292b24e6f6838215f4e"}, {"lon": -77.0394295, "rental_uris": {"android": "https://dc.lft.to/lastmile_qr_scan", "ios": "https://dc.lft.to/lastmile_qr_scan"}, "fusion_lon": 0.0, "is_reserved": 0, "is_disabled": 0, "fusion_lat": 0.0, "type": "electric_scooter", "name": "0a5b0b0b59843f34ff2cfa5331987cd2", "lat": 38.89856866666667, "bike_id": "0a5b0b0b59843f34ff2cfa5331987cd2"}, {"lon": -77.02947966666666, "rental_uris": {"android": "https://dc.lft.to/lastmile_qr_scan", "ios": "https://dc.lft.to/lastmile_qr_scan"}, "fusion_lon": 0.0, "is_reserved": 0, "is_disabled": 0, "fusion_lat": 0.0, "type": "electric_scooter", "name": "69ce225fddb38687eacbe272df15e164", "lat": 38.91685733333333, "bike_id": "69ce225fddb38687eacbe272df15e164"}, {"lon": -76.9941105, "rental_uris": {"android": "https://dc.lft.to/lastmile_qr_scan", "ios": "https://dc.lft.to/lastmile_qr_scan"}, "fusion_lon": 0.0, "is_reserved": 0, "is_disabled": 0, "fusion_lat": 0.0, "type": "electric_scooter", "name": "130c7182d30533440df936b4c7cc7930", "lat": 38.87787316666667, "bike_id": "130c7182d30533440df936b4c7cc7930"}, {"lon": -77.028802, "rental_uris": {"android": "https://dc.lft.to/lastmile_qr_scan", "ios": "https://dc.lft.to/lastmile_qr_scan"}, "fusion_lon": 0.0, "is_reserved": 0, "is_disabled": 0, "fusion_lat": 0.0, "type": "electric_bike", "name": "7b4e57f6689f07ff42895b19477b93cb", "lat": 38.99444533333333, "bike_id": "7b4e57f6689f07ff42895b19477b93cb"}, {"lon": -77.03477333333333, "rental_uris": {"android": "https://dc.lft.to/lastmile_qr_scan", "ios": "https://dc.lft.to/lastmile_qr_scan"}, "fusion_lon": 0.0, "is_reserved": 0, "is_disabled": 0, "fusion_lat": 0.0, "type": "electric_scooter", "name": "8d8c45f198362bb06c6627963c289f36", "lat": 38.88488266666667, "bike_id": "8d8c45f198362bb06c6627963c289f36"}, {"lon": -76.99783966666666, "rental_uris": {"android": "https://dc.lft.to/lastmile_qr_scan", "ios": "https://dc.lft.to/lastmile_qr_scan"}, "fusion_lon": 0.0, "is_reserved": 0, "is_disabled": 0, "fusion_lat": 0.0, "type": "electric_scooter", "name": "a0707085e84350bc0c252502f7f8f8ee", "lat": 38.84428833333333, "bike_id": "a0707085e84350bc0c252502f7f8f8ee"}, {"lon": -77.03960116666667, "rental_uris": {"android": "https://dc.lft.to/lastmile_qr_scan", "ios": "https://dc.lft.to/lastmile_qr_scan"}, "fusion_lon": 0.0, "is_reserved": 0, "is_disabled": 0, "fusion_lat": 0.0, "type": "electric_scooter", "name": "9d5fb3c135c26bfaf70b69b74920fa4c", "lat": 38.898494166666666, "bike_id": "9d5fb3c135c26bfaf70b69b74920fa4c"}, {"lon": -77.007071, "rental_uris": {"android": "https://dc.lft.to/lastmile_qr_scan", "ios": "https://dc.lft.to/lastmile_qr_scan"}, "fusion_lon": 0.0, "is_reserved": 0, "is_disabled": 0, "fusion_lat": 0.0, "type": "electric_scooter", "name": "fad28ef681909e97a9092f6df96bf40f", "lat": 38.88487966666667, "bike_id": "fad28ef681909e97a9092f6df96bf40f"}, {"lon": -76.99966233333333, "rental_uris": {"android": "https://dc.lft.to/lastmile_qr_scan", "ios": "https://dc.lft.to/lastmile_qr_scan"}, "fusion_lon": 0.0, "is_reserved": 0, "is_disabled": 0, "fusion_lat": 0.0, "type": "electric_scooter", "name": "ebc1995ed94583b20940d38e520c21b4", "lat": 38.90929416666667, "bike_id": "ebc1995ed94583b20940d38e520c21b4"}, {"lon": -77.03105866666667, "rental_uris": {"android": "https://dc.lft.to/lastmile_qr_scan", "ios": "https://dc.lft.to/lastmile_qr_scan"}, "fusion_lon": 0.0, "is_reserved": 0, "is_disabled": 0, "fusion_lat": 0.0, "type": "electric_scooter", "name": "b15535a094afaaf86e9d27e97f1fabc6", "lat": 38.92387, "bike_id": "b15535a094afaaf86e9d27e97f1fabc6"}, {"lon": -76.96160566666667, "rental_uris": {"android": "https://dc.lft.to/lastmile_qr_scan", "ios": "https://dc.lft.to/lastmile_qr_scan"}, "fusion_lon": 0.0, "is_reserved": 0, "is_disabled": 0, "fusion_lat": 0.0, "type": "electric_bike", "name": "c40981520af1503ea4492550f584ff5f", "lat": 38.856247333333336, "bike_id": "c40981520af1503ea4492550f584ff5f"}, {"lon": -77.031967, "rental_uris": {"android": "https://dc.lft.to/lastmile_qr_scan", "ios": "https://dc.lft.to/lastmile_qr_scan"}, "fusion_lon": 0.0, "is_reserved": 0, "is_disabled": 0, "fusion_lat": 0.0, "type": "electric_scooter", "name": "97d9e9b3c74749e5a48be36ae69e811c", "lat": 38.936136833333336, "bike_id": "97d9e9b3c74749e5a48be36ae69e811c"}, {"lon": -77.001926, "rental_uris": {"android": "https://dc.lft.to/lastmile_qr_scan", "ios": "https://dc.lft.to/lastmile_qr_scan"}, "fusion_lon": 0.0, "is_reserved": 0, "is_disabled": 0, "fusion_lat": 0.0, "type": "electric_scooter", "name": "31ded4ee04c32c6a0d75c62d4f4d665a", "lat": 38.900339, "bike_id": "31ded4ee04c32c6a0d75c62d4f4d665a"}, {"lon": -77.04657583333334, "rental_uris": {"android": "https://dc.lft.to/lastmile_qr_scan", "ios": "https://dc.lft.to/lastmile_qr_scan"}, "fusion_lon": 0.0, "is_reserved": 0, "is_disabled": 0, "fusion_lat": 0.0, "type": "electric_scooter", "name": "e3f675e5c24535efb64967eb2df6782b", "lat": 38.90180383333333, "bike_id": "e3f675e5c24535efb64967eb2df6782b"}, {"lon": -77.02187583333334, "rental_uris": {"android": "https://dc.lft.to/lastmile_qr_scan", "ios": "https://dc.lft.to/lastmile_qr_scan"}, "fusion_lon": 0.0, "is_reserved": 0, "is_disabled": 0, "fusion_lat": 0.0, "type": "electric_bike", "name": "30bf4a4661c4b2127e67330c16b58242", "lat": 39.0048325, "bike_id": "30bf4a4661c4b2127e67330c16b58242"}, {"lon": -77.03232466666667, "rental_uris": {"android": "https://dc.lft.to/lastmile_qr_scan", "ios": "https://dc.lft.to/lastmile_qr_scan"}, "fusion_lon": 0.0, "is_reserved": 0, "is_disabled": 0, "fusion_lat": 0.0, "type": "electric_scooter", "name": "8e4627004b81b4d2ac6031771d35136a", "lat": 38.92177916666667, "bike_id": "8e4627004b81b4d2ac6031771d35136a"}, {"lon": -77.03659383333333, "rental_uris": {"android": "https://dc.lft.to/lastmile_qr_scan", "ios": "https://dc.lft.to/lastmile_qr_scan"}, "fusion_lon": 0.0, "is_reserved": 0, "is_disabled": 0, "fusion_lat": 0.0, "type": "electric_scooter", "name": "6641f063da69a822ef5df10ccca200f5", "lat": 38.913039, "bike_id": "6641f063da69a822ef5df10ccca200f5"}, {"lon": -77.03798066666667, "rental_uris": {"android": "https://dc.lft.to/lastmile_qr_scan", "ios": "https://dc.lft.to/lastmile_qr_scan"}, "fusion_lon": 0.0, "is_reserved": 0, "is_disabled": 0, "fusion_lat": 0.0, "type": "electric_scooter", "name": "9518a54f5d1056b07e479b1de0a080b5", "lat": 38.906739333333334, "bike_id": "9518a54f5d1056b07e479b1de0a080b5"}, {"lon": -77.03164516666666, "rental_uris": {"android": "https://dc.lft.to/lastmile_qr_scan", "ios": "https://dc.lft.to/lastmile_qr_scan"}, "fusion_lon": 0.0, "is_reserved": 0, "is_disabled": 0, "fusion_lat": 0.0, "type": "electric_scooter", "name": "b2eadfb21a077e197ed4a6a35fa06e4e", "lat": 38.892224166666665, "bike_id": "b2eadfb21a077e197ed4a6a35fa06e4e"}, {"lon": -77.04033116666666, "rental_uris": {"android": "https://dc.lft.to/lastmile_qr_scan", "ios": "https://dc.lft.to/lastmile_qr_scan"}, "fusion_lon": 0.0, "is_reserved": 0, "is_disabled": 0, "fusion_lat": 0.0, "type": "electric_scooter", "name": "06686f00b4bfcc83ece9805bc735686f", "lat": 38.901499, "bike_id": "06686f00b4bfcc83ece9805bc735686f"}, {"lon": -77.051342, "rental_uris": {"android": "https://dc.lft.to/lastmile_qr_scan", "ios": "https://dc.lft.to/lastmile_qr_scan"}, "fusion_lon": 0.0, "is_reserved": 0, "is_disabled": 0, "fusion_lat": 0.0, "type": "electric_scooter", "name": "e59e1840f7e1e7cf25dcbd021a0175d0", "lat": 38.923618, "bike_id": "e59e1840f7e1e7cf25dcbd021a0175d0"}, {"lon": -76.96507583333333, "rental_uris": {"android": "https://dc.lft.to/lastmile_qr_scan", "ios": "https://dc.lft.to/lastmile_qr_scan"}, "fusion_lon": 0.0, "is_reserved": 0, "is_disabled": 0, "fusion_lat": 0.0, "type": "electric_scooter", "name": "a7e7b7a52da0f7fcfaa426780b7329bd", "lat": 38.876469, "bike_id": "a7e7b7a52da0f7fcfaa426780b7329bd"}, {"lon": -77.02386116666666, "rental_uris": {"android": "https://dc.lft.to/lastmile_qr_scan", "ios": "https://dc.lft.to/lastmile_qr_scan"}, "fusion_lon": 0.0, "is_reserved": 0, "is_disabled": 0, "fusion_lat": 0.0, "type": "electric_scooter", "name": "90c38c74f8b91bfed5c1002a996a507c", "lat": 38.909721166666664, "bike_id": "90c38c74f8b91bfed5c1002a996a507c"}, {"lon": -76.9883895, "rental_uris": {"android": "https://dc.lft.to/lastmile_qr_scan", "ios": "https://dc.lft.to/lastmile_qr_scan"}, "fusion_lon": 0.0, "is_reserved": 0, "is_disabled": 0, "fusion_lat": 0.0, "type": "electric_scooter", "name": "8b6d9071fa9b6c69857c533b031bf233", "lat": 38.89253983333333, "bike_id": "8b6d9071fa9b6c69857c533b031bf233"}, {"lon": -77.04030566666667, "rental_uris": {"android": "https://dc.lft.to/lastmile_qr_scan", "ios": "https://dc.lft.to/lastmile_qr_scan"}, "fusion_lon": 0.0, "is_reserved": 0, "is_disabled": 0, "fusion_lat": 0.0, "type": "electric_scooter", "name": "164801db699f6bd0e378973bd71362f2", "lat": 38.90388983333333, "bike_id": "164801db699f6bd0e378973bd71362f2"}, {"lon": -76.994075, "rental_uris": {"android": "https://dc.lft.to/lastmile_qr_scan", "ios": "https://dc.lft.to/lastmile_qr_scan"}, "fusion_lon": 0.0, "is_reserved": 0, "is_disabled": 0, "fusion_lat": 0.0, "type": "electric_bike", "name": "e0c5c9627d93bd462341871c6b827c2c", "lat": 38.8314465, "bike_id": "e0c5c9627d93bd462341871c6b827c2c"}, {"lon": -76.99977216666667, "rental_uris": {"android": "https://dc.lft.to/lastmile_qr_scan", "ios": "https://dc.lft.to/lastmile_qr_scan"}, "fusion_lon": 0.0, "is_reserved": 0, "is_disabled": 0, "fusion_lat": 0.0, "type": "electric_scooter", "name": "5f9c6bea75753b3dfce302918f34416d", "lat": 38.906975333333335, "bike_id": "5f9c6bea75753b3dfce302918f34416d"}, {"lon": -77.02939566666667, "rental_uris": {"android": "https://dc.lft.to/lastmile_qr_scan", "ios": "https://dc.lft.to/lastmile_qr_scan"}, "fusion_lon": 0.0, "is_reserved": 0, "is_disabled": 0, "fusion_lat": 0.0, "type": "electric_scooter", "name": "984bbf38cb8808bff5605eb72a596e6f", "lat": 38.910243666666666, "bike_id": "984bbf38cb8808bff5605eb72a596e6f"}, {"lon": -77.01966716666666, "rental_uris": {"android": "https://dc.lft.to/lastmile_qr_scan", "ios": "https://dc.lft.to/lastmile_qr_scan"}, "fusion_lon": 0.0, "is_reserved": 0, "is_disabled": 0, "fusion_lat": 0.0, "type": "electric_scooter", "name": "9c0693ae52606905fd9b316f2ea1a129", "lat": 38.95653816666667, "bike_id": "9c0693ae52606905fd9b316f2ea1a129"}, {"lon": -77.04110866666667, "rental_uris": {"android": "https://dc.lft.to/lastmile_qr_scan", "ios": "https://dc.lft.to/lastmile_qr_scan"}, "fusion_lon": 0.0, "is_reserved": 0, "is_disabled": 0, "fusion_lat": 0.0, "type": "electric_scooter", "name": "3ec31f0b41784d6d99ea9ad6f753d0b2", "lat": 38.92054733333333, "bike_id": "3ec31f0b41784d6d99ea9ad6f753d0b2"}, {"lon": -77.03309066666667, "rental_uris": {"android": "https://dc.lft.to/lastmile_qr_scan", "ios": "https://dc.lft.to/lastmile_qr_scan"}, "fusion_lon": 0.0, "is_reserved": 0, "is_disabled": 0, "fusion_lat": 0.0, "type": "electric_scooter", "name": "cd0695bb67b7ea59626f16628f7def2e", "lat": 38.928894166666666, "bike_id": "cd0695bb67b7ea59626f16628f7def2e"}, {"lon": -77.02706916666666, "rental_uris": {"android": "https://dc.lft.to/lastmile_qr_scan", "ios": "https://dc.lft.to/lastmile_qr_scan"}, "fusion_lon": 0.0, "is_reserved": 0, "is_disabled": 0, "fusion_lat": 0.0, "type": "electric_scooter", "name": "937a56c75c1d02f9ea0b9a2c19f78fce", "lat": 38.917991, "bike_id": "937a56c75c1d02f9ea0b9a2c19f78fce"}, {"lon": -77.02782283333333, "rental_uris": {"android": "https://dc.lft.to/lastmile_qr_scan", "ios": "https://dc.lft.to/lastmile_qr_scan"}, "fusion_lon": 0.0, "is_reserved": 0, "is_disabled": 0, "fusion_lat": 0.0, "type": "electric_scooter", "name": "e6249ac5b46fc9c98c3ad4ebafc7ee51", "lat": 38.89223583333333, "bike_id": "e6249ac5b46fc9c98c3ad4ebafc7ee51"}, {"lon": -77.02600283333334, "rental_uris": {"android": "https://dc.lft.to/lastmile_qr_scan", "ios": "https://dc.lft.to/lastmile_qr_scan"}, "fusion_lon": 0.0, "is_reserved": 0, "is_disabled": 0, "fusion_lat": 0.0, "type": "electric_scooter", "name": "18544ba5fed031638f9940062f0f5e35", "lat": 38.94209133333333, "bike_id": "18544ba5fed031638f9940062f0f5e35"}, {"lon": -77.02387183333333, "rental_uris": {"android": "https://dc.lft.to/lastmile_qr_scan", "ios": "https://dc.lft.to/lastmile_qr_scan"}, "fusion_lon": 0.0, "is_reserved": 0, "is_disabled": 0, "fusion_lat": 0.0, "type": "electric_scooter", "name": "776f294c17ef3628a1b3562fe44c9ab7", "lat": 38.88731533333333, "bike_id": "776f294c17ef3628a1b3562fe44c9ab7"}, {"lon": -77.0393875, "rental_uris": {"android": "https://dc.lft.to/lastmile_qr_scan", "ios": "https://dc.lft.to/lastmile_qr_scan"}, "fusion_lon": 0.0, "is_reserved": 0, "is_disabled": 0, "fusion_lat": 0.0, "type": "electric_scooter", "name": "6ed69dc2ef31ff8fe0cfd9f073686de1", "lat": 38.914083, "bike_id": "6ed69dc2ef31ff8fe0cfd9f073686de1"}, {"lon": -77.07311366666667, "rental_uris": {"android": "https://dc.lft.to/lastmile_qr_scan", "ios": "https://dc.lft.to/lastmile_qr_scan"}, "fusion_lon": 0.0, "is_reserved": 0, "is_disabled": 0, "fusion_lat": 0.0, "type": "electric_scooter", "name": "84b57127d9ab33118266e07d53668eb2", "lat": 38.92239816666667, "bike_id": "84b57127d9ab33118266e07d53668eb2"}, {"lon": -77.03551533333334, "rental_uris": {"android": "https://dc.lft.to/lastmile_qr_scan", "ios": "https://dc.lft.to/lastmile_qr_scan"}, "fusion_lon": 0.0, "is_reserved": 0, "is_disabled": 0, "fusion_lat": 0.0, "type": "electric_scooter", "name": "feb075229f438f3786db7e77ca3c61cf", "lat": 38.92585416666667, "bike_id": "feb075229f438f3786db7e77ca3c61cf"}, {"lon": -77.02379616666667, "rental_uris": {"android": "https://dc.lft.to/lastmile_qr_scan", "ios": "https://dc.lft.to/lastmile_qr_scan"}, "fusion_lon": 0.0, "is_reserved": 0, "is_disabled": 0, "fusion_lat": 0.0, "type": "electric_scooter", "name": "a2d88564ec6dff355185e6420c3b8a6e", "lat": 38.89196583333333, "bike_id": "a2d88564ec6dff355185e6420c3b8a6e"}, {"lon": -77.02981866666667, "rental_uris": {"android": "https://dc.lft.to/lastmile_qr_scan", "ios": "https://dc.lft.to/lastmile_qr_scan"}, "fusion_lon": 0.0, "is_reserved": 0, "is_disabled": 0, "fusion_lat": 0.0, "type": "electric_scooter", "name": "14a04b0e2b0e38cbff1369925570ebc5", "lat": 38.90715633333333, "bike_id": "14a04b0e2b0e38cbff1369925570ebc5"}, {"lon": -77.009254, "rental_uris": {"android": "https://dc.lft.to/lastmile_qr_scan", "ios": "https://dc.lft.to/lastmile_qr_scan"}, "fusion_lon": 0.0, "is_reserved": 0, "is_disabled": 0, "fusion_lat": 0.0, "type": "electric_scooter", "name": "f5f0e87d92c228ff44e5b0eef9b70551", "lat": 38.896212, "bike_id": "f5f0e87d92c228ff44e5b0eef9b70551"}, {"lon": -77.0388045, "rental_uris": {"android": "https://dc.lft.to/lastmile_qr_scan", "ios": "https://dc.lft.to/lastmile_qr_scan"}, "fusion_lon": 0.0, "is_reserved": 0, "is_disabled": 0, "fusion_lat": 0.0, "type": "electric_scooter", "name": "7bd431d539e7ff1abfe022dc509b3960", "lat": 38.9062625, "bike_id": "7bd431d539e7ff1abfe022dc509b3960"}, {"lon": -77.01356233333334, "rental_uris": {"android": "https://dc.lft.to/lastmile_qr_scan", "ios": "https://dc.lft.to/lastmile_qr_scan"}, "fusion_lon": 0.0, "is_reserved": 0, "is_disabled": 0, "fusion_lat": 0.0, "type": "electric_scooter", "name": "845e161e7aeaf87f95fc53a9b087c954", "lat": 38.95675883333333, "bike_id": "845e161e7aeaf87f95fc53a9b087c954"}, {"lon": -77.04686416666667, "rental_uris": {"android": "https://dc.lft.to/lastmile_qr_scan", "ios": "https://dc.lft.to/lastmile_qr_scan"}, "fusion_lon": 0.0, "is_reserved": 0, "is_disabled": 0, "fusion_lat": 0.0, "type": "electric_scooter", "name": "cdd963b51b0b724d67dd63ab490af1ca", "lat": 38.905658, "bike_id": "cdd963b51b0b724d67dd63ab490af1ca"}, {"lon": -76.93743583333334, "rental_uris": {"android": "https://dc.lft.to/lastmile_qr_scan", "ios": "https://dc.lft.to/lastmile_qr_scan"}, "fusion_lon": 0.0, "is_reserved": 0, "is_disabled": 0, "fusion_lat": 0.0, "type": "electric_scooter", "name": "bb5cb91154ace7aecd164e1e7f06afb7", "lat": 38.89008966666667, "bike_id": "bb5cb91154ace7aecd164e1e7f06afb7"}, {"lon": -77.02929133333333, "rental_uris": {"android": "https://dc.lft.to/lastmile_qr_scan", "ios": "https://dc.lft.to/lastmile_qr_scan"}, "fusion_lon": 0.0, "is_reserved": 0, "is_disabled": 0, "fusion_lat": 0.0, "type": "electric_scooter", "name": "5e688c88af92e21bb2c4ae6ca46f1ddd", "lat": 38.899800666666664, "bike_id": "5e688c88af92e21bb2c4ae6ca46f1ddd"}, {"lon": -77.03726366666666, "rental_uris": {"android": "https://dc.lft.to/lastmile_qr_scan", "ios": "https://dc.lft.to/lastmile_qr_scan"}, "fusion_lon": 0.0, "is_reserved": 0, "is_disabled": 0, "fusion_lat": 0.0, "type": "electric_scooter", "name": "3b09ffc5e4be11cb81f7b86ba1d06530", "lat": 38.933625666666664, "bike_id": "3b09ffc5e4be11cb81f7b86ba1d06530"}, {"lon": -77.18306666666666, "rental_uris": {"android": "https://dc.lft.to/lastmile_qr_scan", "ios": "https://dc.lft.to/lastmile_qr_scan"}, "fusion_lon": 0.0, "is_reserved": 0, "is_disabled": 0, "fusion_lat": 0.0, "type": "electric_bike", "name": "fb68df1e0ec1d4b64f883c970ffc17a7", "lat": 39.0997005, "bike_id": "fb68df1e0ec1d4b64f883c970ffc17a7"}, {"lon": -77.01184, "rental_uris": {"android": "https://dc.lft.to/lastmile_qr_scan", "ios": "https://dc.lft.to/lastmile_qr_scan"}, "fusion_lon": 0.0, "is_reserved": 0, "is_disabled": 0, "fusion_lat": 0.0, "type": "electric_scooter", "name": "2d4578ed7dcd7d31c28f09a0c33c7456", "lat": 38.91562366666667, "bike_id": "2d4578ed7dcd7d31c28f09a0c33c7456"}, {"lon": -77.0193975, "rental_uris": {"android": "https://dc.lft.to/lastmile_qr_scan", "ios": "https://dc.lft.to/lastmile_qr_scan"}, "fusion_lon": 0.0, "is_reserved": 0, "is_disabled": 0, "fusion_lat": 0.0, "type": "electric_scooter", "name": "adc2c7b3d4d2b0aae19b8d77dcb5ccde", "lat": 38.90860683333333, "bike_id": "adc2c7b3d4d2b0aae19b8d77dcb5ccde"}, {"lon": -76.997986, "rental_uris": {"android": "https://dc.lft.to/lastmile_qr_scan", "ios": "https://dc.lft.to/lastmile_qr_scan"}, "fusion_lon": 0.0, "is_reserved": 0, "is_disabled": 0, "fusion_lat": 0.0, "type": "electric_scooter", "name": "200b8459f344a5b716f03257fd72825a", "lat": 38.900112166666666, "bike_id": "200b8459f344a5b716f03257fd72825a"}, {"lon": -77.0353315, "rental_uris": {"android": "https://dc.lft.to/lastmile_qr_scan", "ios": "https://dc.lft.to/lastmile_qr_scan"}, "fusion_lon": 0.0, "is_reserved": 0, "is_disabled": 0, "fusion_lat": 0.0, "type": "electric_scooter", "name": "6f02f03a186ff20d80c8f612d206fbf0", "lat": 38.90735516666667, "bike_id": "6f02f03a186ff20d80c8f612d206fbf0"}, {"lon": -77.03286716666666, "rental_uris": {"android": "https://dc.lft.to/lastmile_qr_scan", "ios": "https://dc.lft.to/lastmile_qr_scan"}, "fusion_lon": 0.0, "is_reserved": 0, "is_disabled": 0, "fusion_lat": 0.0, "type": "electric_scooter", "name": "5ffa811129759221aec26fe72f9f40c4", "lat": 38.939783166666665, "bike_id": "5ffa811129759221aec26fe72f9f40c4"}, {"lon": -77.03792183333333, "rental_uris": {"android": "https://dc.lft.to/lastmile_qr_scan", "ios": "https://dc.lft.to/lastmile_qr_scan"}, "fusion_lon": 0.0, "is_reserved": 0, "is_disabled": 0, "fusion_lat": 0.0, "type": "electric_scooter", "name": "a53d333fd7ba3f0b26e43cde2f1e6388", "lat": 38.917125166666665, "bike_id": "a53d333fd7ba3f0b26e43cde2f1e6388"}, {"lon": -76.9865845, "rental_uris": {"android": "https://dc.lft.to/lastmile_qr_scan", "ios": "https://dc.lft.to/lastmile_qr_scan"}, "fusion_lon": 0.0, "is_reserved": 0, "is_disabled": 0, "fusion_lat": 0.0, "type": "electric_scooter", "name": "276bc739bb1cece36d7db39babfb02cd", "lat": 38.8935365, "bike_id": "276bc739bb1cece36d7db39babfb02cd"}, {"lon": -77.02835983333334, "rental_uris": {"android": "https://dc.lft.to/lastmile_qr_scan", "ios": "https://dc.lft.to/lastmile_qr_scan"}, "fusion_lon": 0.0, "is_reserved": 0, "is_disabled": 0, "fusion_lat": 0.0, "type": "electric_scooter", "name": "f26b8da7794e894c6af1875eb46cab33", "lat": 38.8873305, "bike_id": "f26b8da7794e894c6af1875eb46cab33"}, {"lon": -77.0855465, "rental_uris": {"android": "https://dc.lft.to/lastmile_qr_scan", "ios": "https://dc.lft.to/lastmile_qr_scan"}, "fusion_lon": 0.0, "is_reserved": 0, "is_disabled": 0, "fusion_lat": 0.0, "type": "electric_scooter", "name": "38f2d0a66219f2849d2e4fbde0bae7d6", "lat": 38.88952183333333, "bike_id": "38f2d0a66219f2849d2e4fbde0bae7d6"}, {"lon": -77.02501333333333, "rental_uris": {"android": "https://dc.lft.to/lastmile_qr_scan", "ios": "https://dc.lft.to/lastmile_qr_scan"}, "fusion_lon": 0.0, "is_reserved": 0, "is_disabled": 0, "fusion_lat": 0.0, "type": "electric_scooter", "name": "13043d89997ec1bb59bb58eb53aa60ec", "lat": 38.920799833333334, "bike_id": "13043d89997ec1bb59bb58eb53aa60ec"}, {"lon": -77.01514716666667, "rental_uris": {"android": "https://dc.lft.to/lastmile_qr_scan", "ios": "https://dc.lft.to/lastmile_qr_scan"}, "fusion_lon": 0.0, "is_reserved": 0, "is_disabled": 0, "fusion_lat": 0.0, "type": "electric_scooter", "name": "d6a48d12e8980707ce12990894b28419", "lat": 38.958053, "bike_id": "d6a48d12e8980707ce12990894b28419"}, {"lon": -76.94654283333334, "rental_uris": {"android": "https://dc.lft.to/lastmile_qr_scan", "ios": "https://dc.lft.to/lastmile_qr_scan"}, "fusion_lon": 0.0, "is_reserved": 0, "is_disabled": 0, "fusion_lat": 0.0, "type": "electric_scooter", "name": "a60ca72849929e0ca3843a2456016f89", "lat": 38.898241, "bike_id": "a60ca72849929e0ca3843a2456016f89"}, {"lon": -77.021553, "rental_uris": {"android": "https://dc.lft.to/lastmile_qr_scan", "ios": "https://dc.lft.to/lastmile_qr_scan"}, "fusion_lon": 0.0, "is_reserved": 0, "is_disabled": 0, "fusion_lat": 0.0, "type": "electric_scooter", "name": "4e2bee034149f47bb3b2a64878f6d353", "lat": 38.92461266666667, "bike_id": "4e2bee034149f47bb3b2a64878f6d353"}, {"lon": -77.02810633333333, "rental_uris": {"android": "https://dc.lft.to/lastmile_qr_scan", "ios": "https://dc.lft.to/lastmile_qr_scan"}, "fusion_lon": 0.0, "is_reserved": 0, "is_disabled": 0, "fusion_lat": 0.0, "type": "electric_scooter", "name": "e768adcafade14424bd1ada4d34a1be0", "lat": 38.89230366666666, "bike_id": "e768adcafade14424bd1ada4d34a1be0"}, {"lon": -77.04532033333334, "rental_uris": {"android": "https://dc.lft.to/lastmile_qr_scan", "ios": "https://dc.lft.to/lastmile_qr_scan"}, "fusion_lon": 0.0, "is_reserved": 0, "is_disabled": 0, "fusion_lat": 0.0, "type": "electric_scooter", "name": "18598b7c54ae8d7f0c3e771a9ad0fb1e", "lat": 38.918500333333334, "bike_id": "18598b7c54ae8d7f0c3e771a9ad0fb1e"}, {"lon": -77.01826183333333, "rental_uris": {"android": "https://dc.lft.to/lastmile_qr_scan", "ios": "https://dc.lft.to/lastmile_qr_scan"}, "fusion_lon": 0.0, "is_reserved": 0, "is_disabled": 0, "fusion_lat": 0.0, "type": "electric_scooter", "name": "69d8701575a0cc930c9de46167f6af8e", "lat": 38.92237933333333, "bike_id": "69d8701575a0cc930c9de46167f6af8e"}, {"lon": -76.98206233333333, "rental_uris": {"android": "https://dc.lft.to/lastmile_qr_scan", "ios": "https://dc.lft.to/lastmile_qr_scan"}, "fusion_lon": 0.0, "is_reserved": 0, "is_disabled": 0, "fusion_lat": 0.0, "type": "electric_scooter", "name": "9915afbd68389eec92eba2593a05fd79", "lat": 38.901960833333334, "bike_id": "9915afbd68389eec92eba2593a05fd79"}, {"lon": -77.04135433333333, "rental_uris": {"android": "https://dc.lft.to/lastmile_qr_scan", "ios": "https://dc.lft.to/lastmile_qr_scan"}, "fusion_lon": 0.0, "is_reserved": 0, "is_disabled": 0, "fusion_lat": 0.0, "type": "electric_scooter", "name": "d549acac5171f4a40d86fb46ecead974", "lat": 38.921314, "bike_id": "d549acac5171f4a40d86fb46ecead974"}, {"lon": -77.04645783333333, "rental_uris": {"android": "https://dc.lft.to/lastmile_qr_scan", "ios": "https://dc.lft.to/lastmile_qr_scan"}, "fusion_lon": 0.0, "is_reserved": 0, "is_disabled": 0, "fusion_lat": 0.0, "type": "electric_scooter", "name": "e7a9f56e05154f83114ff2e89dc56024", "lat": 38.90418483333333, "bike_id": "e7a9f56e05154f83114ff2e89dc56024"}, {"lon": -76.97960783333333, "rental_uris": {"android": "https://dc.lft.to/lastmile_qr_scan", "ios": "https://dc.lft.to/lastmile_qr_scan"}, "fusion_lon": 0.0, "is_reserved": 0, "is_disabled": 0, "fusion_lat": 0.0, "type": "electric_scooter", "name": "cb3b71df82082ba1eedd59be6b40a6c2", "lat": 38.89219166666667, "bike_id": "cb3b71df82082ba1eedd59be6b40a6c2"}, {"lon": -77.07460816666666, "rental_uris": {"android": "https://dc.lft.to/lastmile_qr_scan", "ios": "https://dc.lft.to/lastmile_qr_scan"}, "fusion_lon": 0.0, "is_reserved": 0, "is_disabled": 0, "fusion_lat": 0.0, "type": "electric_scooter", "name": "40ec3acadd8bad9ada13150642c50831", "lat": 38.935586666666666, "bike_id": "40ec3acadd8bad9ada13150642c50831"}, {"lon": -77.046567, "rental_uris": {"android": "https://dc.lft.to/lastmile_qr_scan", "ios": "https://dc.lft.to/lastmile_qr_scan"}, "fusion_lon": 0.0, "is_reserved": 0, "is_disabled": 0, "fusion_lat": 0.0, "type": "electric_scooter", "name": "cd5e76220fcb9c084bd67db329bbedcb", "lat": 38.89229533333334, "bike_id": "cd5e76220fcb9c084bd67db329bbedcb"}, {"lon": -77.03238916666666, "rental_uris": {"android": "https://dc.lft.to/lastmile_qr_scan", "ios": "https://dc.lft.to/lastmile_qr_scan"}, "fusion_lon": 0.0, "is_reserved": 0, "is_disabled": 0, "fusion_lat": 0.0, "type": "electric_scooter", "name": "e034c3979d59171d28cd224c6993bbd3", "lat": 38.9087185, "bike_id": "e034c3979d59171d28cd224c6993bbd3"}, {"lon": -77.04646333333334, "rental_uris": {"android": "https://dc.lft.to/lastmile_qr_scan", "ios": "https://dc.lft.to/lastmile_qr_scan"}, "fusion_lon": 0.0, "is_reserved": 0, "is_disabled": 0, "fusion_lat": 0.0, "type": "electric_scooter", "name": "72faf7d2b92b9d41669d4ed158049786", "lat": 38.899676666666664, "bike_id": "72faf7d2b92b9d41669d4ed158049786"}, {"lon": -77.05003566666667, "rental_uris": {"android": "https://dc.lft.to/lastmile_qr_scan", "ios": "https://dc.lft.to/lastmile_qr_scan"}, "fusion_lon": 0.0, "is_reserved": 0, "is_disabled": 0, "fusion_lat": 0.0, "type": "electric_scooter", "name": "7e1dd0f356c847bb115d7533760fe72d", "lat": 38.90560833333333, "bike_id": "7e1dd0f356c847bb115d7533760fe72d"}, {"lon": -77.06299983333334, "rental_uris": {"android": "https://dc.lft.to/lastmile_qr_scan", "ios": "https://dc.lft.to/lastmile_qr_scan"}, "fusion_lon": 0.0, "is_reserved": 0, "is_disabled": 0, "fusion_lat": 0.0, "type": "electric_scooter", "name": "89c0c9ce9f530cdaa3a19389ca2fad9a", "lat": 38.903983833333335, "bike_id": "89c0c9ce9f530cdaa3a19389ca2fad9a"}, {"lon": -77.00318933333334, "rental_uris": {"android": "https://dc.lft.to/lastmile_qr_scan", "ios": "https://dc.lft.to/lastmile_qr_scan"}, "fusion_lon": 0.0, "is_reserved": 0, "is_disabled": 0, "fusion_lat": 0.0, "type": "electric_scooter", "name": "e1c3d9104e93167e30c9863825d99e77", "lat": 38.8765195, "bike_id": "e1c3d9104e93167e30c9863825d99e77"}, {"lon": -77.001716, "rental_uris": {"android": "https://dc.lft.to/lastmile_qr_scan", "ios": "https://dc.lft.to/lastmile_qr_scan"}, "fusion_lon": 0.0, "is_reserved": 0, "is_disabled": 0, "fusion_lat": 0.0, "type": "electric_scooter", "name": "b18f9aa760faa91242f76fd128bf121a", "lat": 38.958385166666666, "bike_id": "b18f9aa760faa91242f76fd128bf121a"}, {"lon": -77.03807116666667, "rental_uris": {"android": "https://dc.lft.to/lastmile_qr_scan", "ios": "https://dc.lft.to/lastmile_qr_scan"}, "fusion_lon": 0.0, "is_reserved": 0, "is_disabled": 0, "fusion_lat": 0.0, "type": "electric_scooter", "name": "823b11adedb2adccf8581dd490829a7f", "lat": 38.9231505, "bike_id": "823b11adedb2adccf8581dd490829a7f"}, {"lon": -77.02186783333333, "rental_uris": {"android": "https://dc.lft.to/lastmile_qr_scan", "ios": "https://dc.lft.to/lastmile_qr_scan"}, "fusion_lon": 0.0, "is_reserved": 0, "is_disabled": 0, "fusion_lat": 0.0, "type": "electric_scooter", "name": "72413aab03ea3cb8382f8859035aa53f", "lat": 38.918811, "bike_id": "72413aab03ea3cb8382f8859035aa53f"}, {"lon": -77.04274583333333, "rental_uris": {"android": "https://dc.lft.to/lastmile_qr_scan", "ios": "https://dc.lft.to/lastmile_qr_scan"}, "fusion_lon": 0.0, "is_reserved": 0, "is_disabled": 0, "fusion_lat": 0.0, "type": "electric_scooter", "name": "6b8042615c9d6961eb7e121a87ce8203", "lat": 38.922414833333335, "bike_id": "6b8042615c9d6961eb7e121a87ce8203"}, {"lon": -77.03001183333333, "rental_uris": {"android": "https://dc.lft.to/lastmile_qr_scan", "ios": "https://dc.lft.to/lastmile_qr_scan"}, "fusion_lon": 0.0, "is_reserved": 0, "is_disabled": 0, "fusion_lat": 0.0, "type": "electric_scooter", "name": "936771292605b4715eb9abb1d0eb718b", "lat": 38.9165035, "bike_id": "936771292605b4715eb9abb1d0eb718b"}, {"lon": -77.05528166666667, "rental_uris": {"android": "https://dc.lft.to/lastmile_qr_scan", "ios": "https://dc.lft.to/lastmile_qr_scan"}, "fusion_lon": 0.0, "is_reserved": 0, "is_disabled": 0, "fusion_lat": 0.0, "type": "electric_scooter", "name": "cccd72fd0d9230f9a9fd9d8757fc1499", "lat": 38.89738533333333, "bike_id": "cccd72fd0d9230f9a9fd9d8757fc1499"}, {"lon": -77.02873283333334, "rental_uris": {"android": "https://dc.lft.to/lastmile_qr_scan", "ios": "https://dc.lft.to/lastmile_qr_scan"}, "fusion_lon": 0.0, "is_reserved": 0, "is_disabled": 0, "fusion_lat": 0.0, "type": "electric_bike", "name": "2fcced266879aab1cf927cd670c1acbd", "lat": 38.941826, "bike_id": "2fcced266879aab1cf927cd670c1acbd"}, {"lon": -77.057645, "rental_uris": {"android": "https://dc.lft.to/lastmile_qr_scan", "ios": "https://dc.lft.to/lastmile_qr_scan"}, "fusion_lon": 0.0, "is_reserved": 0, "is_disabled": 0, "fusion_lat": 0.0, "type": "electric_scooter", "name": "457fb05438ca75902f897c4147739928", "lat": 38.933776, "bike_id": "457fb05438ca75902f897c4147739928"}, {"lon": -77.02391033333333, "rental_uris": {"android": "https://dc.lft.to/lastmile_qr_scan", "ios": "https://dc.lft.to/lastmile_qr_scan"}, "fusion_lon": 0.0, "is_reserved": 0, "is_disabled": 0, "fusion_lat": 0.0, "type": "electric_scooter", "name": "c35d3af7fae4acf015e9c9bd9691bd75", "lat": 38.90178366666667, "bike_id": "c35d3af7fae4acf015e9c9bd9691bd75"}, {"lon": -77.0334225, "rental_uris": {"android": "https://dc.lft.to/lastmile_qr_scan", "ios": "https://dc.lft.to/lastmile_qr_scan"}, "fusion_lon": 0.0, "is_reserved": 0, "is_disabled": 0, "fusion_lat": 0.0, "type": "electric_scooter", "name": "8cc97fef647e8e228d05530b44688183", "lat": 38.898063, "bike_id": "8cc97fef647e8e228d05530b44688183"}, {"lon": -76.9965315, "rental_uris": {"android": "https://dc.lft.to/lastmile_qr_scan", "ios": "https://dc.lft.to/lastmile_qr_scan"}, "fusion_lon": 0.0, "is_reserved": 0, "is_disabled": 0, "fusion_lat": 0.0, "type": "electric_scooter", "name": "75f21a525ebf922428f7c94bf5c0712c", "lat": 38.859844833333334, "bike_id": "75f21a525ebf922428f7c94bf5c0712c"}, {"lon": -77.02825383333334, "rental_uris": {"android": "https://dc.lft.to/lastmile_qr_scan", "ios": "https://dc.lft.to/lastmile_qr_scan"}, "fusion_lon": 0.0, "is_reserved": 0, "is_disabled": 0, "fusion_lat": 0.0, "type": "electric_scooter", "name": "eb4c704e2980842e85005d561cf36ae6", "lat": 38.8873785, "bike_id": "eb4c704e2980842e85005d561cf36ae6"}, {"lon": -77.03945066666667, "rental_uris": {"android": "https://dc.lft.to/lastmile_qr_scan", "ios": "https://dc.lft.to/lastmile_qr_scan"}, "fusion_lon": 0.0, "is_reserved": 0, "is_disabled": 0, "fusion_lat": 0.0, "type": "electric_scooter", "name": "823da5cda99cd15d80d0e03a337509bc", "lat": 38.90842833333333, "bike_id": "823da5cda99cd15d80d0e03a337509bc"}, {"lon": -77.0019985, "rental_uris": {"android": "https://dc.lft.to/lastmile_qr_scan", "ios": "https://dc.lft.to/lastmile_qr_scan"}, "fusion_lon": 0.0, "is_reserved": 0, "is_disabled": 0, "fusion_lat": 0.0, "type": "electric_scooter", "name": "825334abe0e93d6cb8027ab9f7d3af03", "lat": 38.886772, "bike_id": "825334abe0e93d6cb8027ab9f7d3af03"}, {"lon": -77.026681, "rental_uris": {"android": "https://dc.lft.to/lastmile_qr_scan", "ios": "https://dc.lft.to/lastmile_qr_scan"}, "fusion_lon": 0.0, "is_reserved": 0, "is_disabled": 0, "fusion_lat": 0.0, "type": "electric_scooter", "name": "87ab4ad5711a702b689bda8448c1478f", "lat": 38.921865, "bike_id": "87ab4ad5711a702b689bda8448c1478f"}, {"lon": -77.038904, "rental_uris": {"android": "https://dc.lft.to/lastmile_qr_scan", "ios": "https://dc.lft.to/lastmile_qr_scan"}, "fusion_lon": 0.0, "is_reserved": 0, "is_disabled": 0, "fusion_lat": 0.0, "type": "electric_scooter", "name": "86db08fb69582987f34fb9c86abb2865", "lat": 38.90619733333333, "bike_id": "86db08fb69582987f34fb9c86abb2865"}, {"lon": -77.03923133333333, "rental_uris": {"android": "https://dc.lft.to/lastmile_qr_scan", "ios": "https://dc.lft.to/lastmile_qr_scan"}, "fusion_lon": 0.0, "is_reserved": 0, "is_disabled": 0, "fusion_lat": 0.0, "type": "electric_scooter", "name": "2d72541fba6e5a6e45e648e19948caf9", "lat": 38.928857666666666, "bike_id": "2d72541fba6e5a6e45e648e19948caf9"}, {"lon": -77.02236033333334, "rental_uris": {"android": "https://dc.lft.to/lastmile_qr_scan", "ios": "https://dc.lft.to/lastmile_qr_scan"}, "fusion_lon": 0.0, "is_reserved": 0, "is_disabled": 0, "fusion_lat": 0.0, "type": "electric_scooter", "name": "21e9ba68510cc4c2e2a59c6c50c1dc75", "lat": 38.899601, "bike_id": "21e9ba68510cc4c2e2a59c6c50c1dc75"}, {"lon": -77.07353083333334, "rental_uris": {"android": "https://dc.lft.to/lastmile_qr_scan", "ios": "https://dc.lft.to/lastmile_qr_scan"}, "fusion_lon": 0.0, "is_reserved": 0, "is_disabled": 0, "fusion_lat": 0.0, "type": "electric_scooter", "name": "6f71e43c308d4905d043d04c0006434f", "lat": 38.9349455, "bike_id": "6f71e43c308d4905d043d04c0006434f"}, {"lon": -77.0420155, "rental_uris": {"android": "https://dc.lft.to/lastmile_qr_scan", "ios": "https://dc.lft.to/lastmile_qr_scan"}, "fusion_lon": 0.0, "is_reserved": 0, "is_disabled": 0, "fusion_lat": 0.0, "type": "electric_scooter", "name": "f7a85028e29ba3f88500566dbb029ee6", "lat": 38.927233, "bike_id": "f7a85028e29ba3f88500566dbb029ee6"}, {"lon": -77.02156466666666, "rental_uris": {"android": "https://dc.lft.to/lastmile_qr_scan", "ios": "https://dc.lft.to/lastmile_qr_scan"}, "fusion_lon": 0.0, "is_reserved": 0, "is_disabled": 0, "fusion_lat": 0.0, "type": "electric_scooter", "name": "aeff133241808fddbfd01aec968de03a", "lat": 38.9260465, "bike_id": "aeff133241808fddbfd01aec968de03a"}, {"lon": -77.021567, "rental_uris": {"android": "https://dc.lft.to/lastmile_qr_scan", "ios": "https://dc.lft.to/lastmile_qr_scan"}, "fusion_lon": 0.0, "is_reserved": 0, "is_disabled": 0, "fusion_lat": 0.0, "type": "electric_scooter", "name": "3db545d09cff39dba20caba1ddc04e65", "lat": 38.92466116666667, "bike_id": "3db545d09cff39dba20caba1ddc04e65"}, {"lon": -77.0079975, "rental_uris": {"android": "https://dc.lft.to/lastmile_qr_scan", "ios": "https://dc.lft.to/lastmile_qr_scan"}, "fusion_lon": 0.0, "is_reserved": 0, "is_disabled": 0, "fusion_lat": 0.0, "type": "electric_bike", "name": "6d681f0f6f732d42a2de20eb3aed65d1", "lat": 38.94927666666667, "bike_id": "6d681f0f6f732d42a2de20eb3aed65d1"}, {"lon": -77.044976, "rental_uris": {"android": "https://dc.lft.to/lastmile_qr_scan", "ios": "https://dc.lft.to/lastmile_qr_scan"}, "fusion_lon": 0.0, "is_reserved": 0, "is_disabled": 0, "fusion_lat": 0.0, "type": "electric_scooter", "name": "5114f34fb5cf20427ba11538fc150ef0", "lat": 38.91126283333333, "bike_id": "5114f34fb5cf20427ba11538fc150ef0"}, {"lon": -77.029804, "rental_uris": {"android": "https://dc.lft.to/lastmile_qr_scan", "ios": "https://dc.lft.to/lastmile_qr_scan"}, "fusion_lon": 0.0, "is_reserved": 0, "is_disabled": 0, "fusion_lat": 0.0, "type": "electric_scooter", "name": "207660fda5d8477b2bb6e7bc4d657958", "lat": 38.916854666666666, "bike_id": "207660fda5d8477b2bb6e7bc4d657958"}, {"lon": -77.0284215, "rental_uris": {"android": "https://dc.lft.to/lastmile_qr_scan", "ios": "https://dc.lft.to/lastmile_qr_scan"}, "fusion_lon": 0.0, "is_reserved": 0, "is_disabled": 0, "fusion_lat": 0.0, "type": "electric_scooter", "name": "647688b1bb4c1389d15456908fc033c5", "lat": 38.887257, "bike_id": "647688b1bb4c1389d15456908fc033c5"}, {"lon": -77.06382183333334, "rental_uris": {"android": "https://dc.lft.to/lastmile_qr_scan", "ios": "https://dc.lft.to/lastmile_qr_scan"}, "fusion_lon": 0.0, "is_reserved": 0, "is_disabled": 0, "fusion_lat": 0.0, "type": "electric_scooter", "name": "fcb2e47e5fa1baacd72508c39cb85e7a", "lat": 38.9052315, "bike_id": "fcb2e47e5fa1baacd72508c39cb85e7a"}, {"lon": -76.99813866666666, "rental_uris": {"android": "https://dc.lft.to/lastmile_qr_scan", "ios": "https://dc.lft.to/lastmile_qr_scan"}, "fusion_lon": 0.0, "is_reserved": 0, "is_disabled": 0, "fusion_lat": 0.0, "type": "electric_scooter", "name": "6f36b412ce2f2411bcd7b4168ba8098c", "lat": 38.8764235, "bike_id": "6f36b412ce2f2411bcd7b4168ba8098c"}, {"lon": -76.983406, "rental_uris": {"android": "https://dc.lft.to/lastmile_qr_scan", "ios": "https://dc.lft.to/lastmile_qr_scan"}, "fusion_lon": 0.0, "is_reserved": 0, "is_disabled": 0, "fusion_lat": 0.0, "type": "electric_scooter", "name": "7ffc9f6f1666444bc64d59a14c724b6b", "lat": 38.895482, "bike_id": "7ffc9f6f1666444bc64d59a14c724b6b"}, {"lon": -77.003369, "rental_uris": {"android": "https://dc.lft.to/lastmile_qr_scan", "ios": "https://dc.lft.to/lastmile_qr_scan"}, "fusion_lon": 0.0, "is_reserved": 0, "is_disabled": 0, "fusion_lat": 0.0, "type": "electric_scooter", "name": "53ebe8257b195fc58eab1a90ef731818", "lat": 38.913409333333334, "bike_id": "53ebe8257b195fc58eab1a90ef731818"}, {"lon": -77.0499615, "rental_uris": {"android": "https://dc.lft.to/lastmile_qr_scan", "ios": "https://dc.lft.to/lastmile_qr_scan"}, "fusion_lon": 0.0, "is_reserved": 0, "is_disabled": 0, "fusion_lat": 0.0, "type": "electric_scooter", "name": "32383e0cc6298e00b67600b5268b73ab", "lat": 38.9012085, "bike_id": "32383e0cc6298e00b67600b5268b73ab"}, {"lon": -77.1409995, "rental_uris": {"android": "https://dc.lft.to/lastmile_qr_scan", "ios": "https://dc.lft.to/lastmile_qr_scan"}, "fusion_lon": 0.0, "is_reserved": 0, "is_disabled": 0, "fusion_lat": 0.0, "type": "electric_bike", "name": "feb59d05b780fdee10938a7663b01fe7", "lat": 38.98794566666667, "bike_id": "feb59d05b780fdee10938a7663b01fe7"}, {"lon": -76.99714683333333, "rental_uris": {"android": "https://dc.lft.to/lastmile_qr_scan", "ios": "https://dc.lft.to/lastmile_qr_scan"}, "fusion_lon": 0.0, "is_reserved": 0, "is_disabled": 0, "fusion_lat": 0.0, "type": "electric_bike", "name": "9257b438040e35ecb50e3a4c148acc39", "lat": 38.83875916666667, "bike_id": "9257b438040e35ecb50e3a4c148acc39"}, {"lon": -77.04683983333334, "rental_uris": {"android": "https://dc.lft.to/lastmile_qr_scan", "ios": "https://dc.lft.to/lastmile_qr_scan"}, "fusion_lon": 0.0, "is_reserved": 0, "is_disabled": 0, "fusion_lat": 0.0, "type": "electric_scooter", "name": "e3bd378fef329ef6bb4aa9938580d4f7", "lat": 38.900365666666666, "bike_id": "e3bd378fef329ef6bb4aa9938580d4f7"}, {"lon": -77.0660315, "rental_uris": {"android": "https://dc.lft.to/lastmile_qr_scan", "ios": "https://dc.lft.to/lastmile_qr_scan"}, "fusion_lon": 0.0, "is_reserved": 0, "is_disabled": 0, "fusion_lat": 0.0, "type": "electric_scooter", "name": "b6fc9749dc8e605a297ad37483941bcd", "lat": 38.9046535, "bike_id": "b6fc9749dc8e605a297ad37483941bcd"}, {"lon": -77.02210666666667, "rental_uris": {"android": "https://dc.lft.to/lastmile_qr_scan", "ios": "https://dc.lft.to/lastmile_qr_scan"}, "fusion_lon": 0.0, "is_reserved": 0, "is_disabled": 0, "fusion_lat": 0.0, "type": "electric_scooter", "name": "e9ca6dc145fd401af64ae6a7782df98e", "lat": 38.901994, "bike_id": "e9ca6dc145fd401af64ae6a7782df98e"}, {"lon": -76.94654333333334, "rental_uris": {"android": "https://dc.lft.to/lastmile_qr_scan", "ios": "https://dc.lft.to/lastmile_qr_scan"}, "fusion_lon": 0.0, "is_reserved": 0, "is_disabled": 0, "fusion_lat": 0.0, "type": "electric_scooter", "name": "be2d2d7ac3c52583898846b241edc5a0", "lat": 38.89824633333333, "bike_id": "be2d2d7ac3c52583898846b241edc5a0"}, {"lon": -77.06755683333333, "rental_uris": {"android": "https://dc.lft.to/lastmile_qr_scan", "ios": "https://dc.lft.to/lastmile_qr_scan"}, "fusion_lon": 0.0, "is_reserved": 0, "is_disabled": 0, "fusion_lat": 0.0, "type": "electric_bike", "name": "85169287dce83ad47f5556b0dcc8e915", "lat": 38.841958166666664, "bike_id": "85169287dce83ad47f5556b0dcc8e915"}, {"lon": -77.00301583333334, "rental_uris": {"android": "https://dc.lft.to/lastmile_qr_scan", "ios": "https://dc.lft.to/lastmile_qr_scan"}, "fusion_lon": 0.0, "is_reserved": 0, "is_disabled": 0, "fusion_lat": 0.0, "type": "electric_scooter", "name": "f9114c15b26ba25804d2b3da3a55162e", "lat": 38.892105, "bike_id": "f9114c15b26ba25804d2b3da3a55162e"}, {"lon": -77.0394535, "rental_uris": {"android": "https://dc.lft.to/lastmile_qr_scan", "ios": "https://dc.lft.to/lastmile_qr_scan"}, "fusion_lon": 0.0, "is_reserved": 0, "is_disabled": 0, "fusion_lat": 0.0, "type": "electric_scooter", "name": "1391bf0e3f4e9ed7cb7d82b71909f7f5", "lat": 38.91417883333333, "bike_id": "1391bf0e3f4e9ed7cb7d82b71909f7f5"}, {"lon": -77.20111566666667, "rental_uris": {"android": "https://dc.lft.to/lastmile_qr_scan", "ios": "https://dc.lft.to/lastmile_qr_scan"}, "fusion_lon": 0.0, "is_reserved": 0, "is_disabled": 0, "fusion_lat": 0.0, "type": "electric_bike", "name": "f82495cc42e55bf1251544006e1cee8b", "lat": 38.86394683333333, "bike_id": "f82495cc42e55bf1251544006e1cee8b"}, {"lon": -77.0067695, "rental_uris": {"android": "https://dc.lft.to/lastmile_qr_scan", "ios": "https://dc.lft.to/lastmile_qr_scan"}, "fusion_lon": 0.0, "is_reserved": 0, "is_disabled": 0, "fusion_lat": 0.0, "type": "electric_scooter", "name": "6e58e05484f28be10d344c9202d30356", "lat": 38.90015433333333, "bike_id": "6e58e05484f28be10d344c9202d30356"}, {"lon": -77.0333665, "rental_uris": {"android": "https://dc.lft.to/lastmile_qr_scan", "ios": "https://dc.lft.to/lastmile_qr_scan"}, "fusion_lon": 0.0, "is_reserved": 0, "is_disabled": 0, "fusion_lat": 0.0, "type": "electric_scooter", "name": "1f78b0a67ebfe59ab3fa66e40a1c20e3", "lat": 38.9721485, "bike_id": "1f78b0a67ebfe59ab3fa66e40a1c20e3"}, {"lon": -77.02179133333334, "rental_uris": {"android": "https://dc.lft.to/lastmile_qr_scan", "ios": "https://dc.lft.to/lastmile_qr_scan"}, "fusion_lon": 0.0, "is_reserved": 0, "is_disabled": 0, "fusion_lat": 0.0, "type": "electric_scooter", "name": "9b34a4508fa71a06dd507689dca1eaa2", "lat": 38.88533566666667, "bike_id": "9b34a4508fa71a06dd507689dca1eaa2"}, {"lon": -76.99367016666666, "rental_uris": {"android": "https://dc.lft.to/lastmile_qr_scan", "ios": "https://dc.lft.to/lastmile_qr_scan"}, "fusion_lon": 0.0, "is_reserved": 0, "is_disabled": 0, "fusion_lat": 0.0, "type": "electric_bike", "name": "fd25666b1cdf885cd0284831bc59e0f8", "lat": 38.883439333333335, "bike_id": "fd25666b1cdf885cd0284831bc59e0f8"}, {"lon": -77.03831216666667, "rental_uris": {"android": "https://dc.lft.to/lastmile_qr_scan", "ios": "https://dc.lft.to/lastmile_qr_scan"}, "fusion_lon": 0.0, "is_reserved": 0, "is_disabled": 0, "fusion_lat": 0.0, "type": "electric_scooter", "name": "a8bbc5383ce8be35af14d4ba55e59b85", "lat": 38.9189215, "bike_id": "a8bbc5383ce8be35af14d4ba55e59b85"}, {"lon": -77.02287633333333, "rental_uris": {"android": "https://dc.lft.to/lastmile_qr_scan", "ios": "https://dc.lft.to/lastmile_qr_scan"}, "fusion_lon": 0.0, "is_reserved": 0, "is_disabled": 0, "fusion_lat": 0.0, "type": "electric_scooter", "name": "e50c86c92a067be437fb09125d4992fe", "lat": 38.898559166666665, "bike_id": "e50c86c92a067be437fb09125d4992fe"}, {"lon": -77.0354435, "rental_uris": {"android": "https://dc.lft.to/lastmile_qr_scan", "ios": "https://dc.lft.to/lastmile_qr_scan"}, "fusion_lon": 0.0, "is_reserved": 0, "is_disabled": 0, "fusion_lat": 0.0, "type": "electric_scooter", "name": "4019558eaaa1da5e74ae729d01728435", "lat": 38.908417, "bike_id": "4019558eaaa1da5e74ae729d01728435"}, {"lon": -76.98033683333334, "rental_uris": {"android": "https://dc.lft.to/lastmile_qr_scan", "ios": "https://dc.lft.to/lastmile_qr_scan"}, "fusion_lon": 0.0, "is_reserved": 0, "is_disabled": 0, "fusion_lat": 0.0, "type": "electric_scooter", "name": "b79fef3fcca35401d48f62fd53af7cd5", "lat": 38.91678183333333, "bike_id": "b79fef3fcca35401d48f62fd53af7cd5"}, {"lon": -77.03153316666666, "rental_uris": {"android": "https://dc.lft.to/lastmile_qr_scan", "ios": "https://dc.lft.to/lastmile_qr_scan"}, "fusion_lon": 0.0, "is_reserved": 0, "is_disabled": 0, "fusion_lat": 0.0, "type": "electric_scooter", "name": "a39142510b2e574cd33ea7fc9cda8056", "lat": 38.915616166666666, "bike_id": "a39142510b2e574cd33ea7fc9cda8056"}, {"lon": -77.0446965, "rental_uris": {"android": "https://dc.lft.to/lastmile_qr_scan", "ios": "https://dc.lft.to/lastmile_qr_scan"}, "fusion_lon": 0.0, "is_reserved": 0, "is_disabled": 0, "fusion_lat": 0.0, "type": "electric_scooter", "name": "a6d8d1e181c1d623ced9f87aa575f514", "lat": 38.9126175, "bike_id": "a6d8d1e181c1d623ced9f87aa575f514"}, {"lon": -77.03352, "rental_uris": {"android": "https://dc.lft.to/lastmile_qr_scan", "ios": "https://dc.lft.to/lastmile_qr_scan"}, "fusion_lon": 0.0, "is_reserved": 0, "is_disabled": 0, "fusion_lat": 0.0, "type": "electric_scooter", "name": "21b3dedfd4716b3b786ca183980cc084", "lat": 38.897386833333336, "bike_id": "21b3dedfd4716b3b786ca183980cc084"}, {"lon": -77.03149783333333, "rental_uris": {"android": "https://dc.lft.to/lastmile_qr_scan", "ios": "https://dc.lft.to/lastmile_qr_scan"}, "fusion_lon": 0.0, "is_reserved": 0, "is_disabled": 0, "fusion_lat": 0.0, "type": "electric_scooter", "name": "65f8385d3e12bebfd5a978f94069ed60", "lat": 38.941877166666664, "bike_id": "65f8385d3e12bebfd5a978f94069ed60"}, {"lon": -77.034999, "rental_uris": {"android": "https://dc.lft.to/lastmile_qr_scan", "ios": "https://dc.lft.to/lastmile_qr_scan"}, "fusion_lon": 0.0, "is_reserved": 0, "is_disabled": 0, "fusion_lat": 0.0, "type": "electric_scooter", "name": "9e824f8e3dc75948b3e1511340f205cd", "lat": 38.93165916666667, "bike_id": "9e824f8e3dc75948b3e1511340f205cd"}, {"lon": -77.09906, "rental_uris": {"android": "https://dc.lft.to/lastmile_qr_scan", "ios": "https://dc.lft.to/lastmile_qr_scan"}, "fusion_lon": 0.0, "is_reserved": 0, "is_disabled": 0, "fusion_lat": 0.0, "type": "electric_bike", "name": "894770c2ff175e43c44742b84a3809da", "lat": 38.84864616666667, "bike_id": "894770c2ff175e43c44742b84a3809da"}, {"lon": -77.04322066666667, "rental_uris": {"android": "https://dc.lft.to/lastmile_qr_scan", "ios": "https://dc.lft.to/lastmile_qr_scan"}, "fusion_lon": 0.0, "is_reserved": 0, "is_disabled": 0, "fusion_lat": 0.0, "type": "electric_scooter", "name": "674a1a78e617818ee57ddc5a63b1c480", "lat": 38.900398, "bike_id": "674a1a78e617818ee57ddc5a63b1c480"}, {"lon": -77.01992983333334, "rental_uris": {"android": "https://dc.lft.to/lastmile_qr_scan", "ios": "https://dc.lft.to/lastmile_qr_scan"}, "fusion_lon": 0.0, "is_reserved": 0, "is_disabled": 0, "fusion_lat": 0.0, "type": "electric_scooter", "name": "33f7ac8390c98f81b713453e85e6ab82", "lat": 38.8867155, "bike_id": "33f7ac8390c98f81b713453e85e6ab82"}, {"lon": -77.0416705, "rental_uris": {"android": "https://dc.lft.to/lastmile_qr_scan", "ios": "https://dc.lft.to/lastmile_qr_scan"}, "fusion_lon": 0.0, "is_reserved": 0, "is_disabled": 0, "fusion_lat": 0.0, "type": "electric_scooter", "name": "652a616bc79967c5b71c2ee22d16a9e6", "lat": 38.93416116666667, "bike_id": "652a616bc79967c5b71c2ee22d16a9e6"}, {"lon": -77.04192283333333, "rental_uris": {"android": "https://dc.lft.to/lastmile_qr_scan", "ios": "https://dc.lft.to/lastmile_qr_scan"}, "fusion_lon": 0.0, "is_reserved": 0, "is_disabled": 0, "fusion_lat": 0.0, "type": "electric_scooter", "name": "10ea3bd4493412262610d340b6a0fdda", "lat": 38.9219005, "bike_id": "10ea3bd4493412262610d340b6a0fdda"}, {"lon": -77.00675283333334, "rental_uris": {"android": "https://dc.lft.to/lastmile_qr_scan", "ios": "https://dc.lft.to/lastmile_qr_scan"}, "fusion_lon": 0.0, "is_reserved": 0, "is_disabled": 0, "fusion_lat": 0.0, "type": "electric_bike", "name": "a6f7f3453fa7bf8eb4f26bf3ec11b05c", "lat": 38.94511833333333, "bike_id": "a6f7f3453fa7bf8eb4f26bf3ec11b05c"}, {"lon": -77.1298215, "rental_uris": {"android": "https://dc.lft.to/lastmile_qr_scan", "ios": "https://dc.lft.to/lastmile_qr_scan"}, "fusion_lon": 0.0, "is_reserved": 0, "is_disabled": 0, "fusion_lat": 0.0, "type": "electric_bike", "name": "34432acc90abc46e7c4928b63d55838e", "lat": 38.79986933333333, "bike_id": "34432acc90abc46e7c4928b63d55838e"}, {"lon": -77.05758166666666, "rental_uris": {"android": "https://dc.lft.to/lastmile_qr_scan", "ios": "https://dc.lft.to/lastmile_qr_scan"}, "fusion_lon": 0.0, "is_reserved": 0, "is_disabled": 0, "fusion_lat": 0.0, "type": "electric_scooter", "name": "915eb3e9c22929e98ef338f35db51a2a", "lat": 38.92426483333333, "bike_id": "915eb3e9c22929e98ef338f35db51a2a"}, {"lon": -77.05238316666667, "rental_uris": {"android": "https://dc.lft.to/lastmile_qr_scan", "ios": "https://dc.lft.to/lastmile_qr_scan"}, "fusion_lon": 0.0, "is_reserved": 0, "is_disabled": 0, "fusion_lat": 0.0, "type": "electric_scooter", "name": "de0a5345d2af246444b2c382b79ee1d5", "lat": 38.924625, "bike_id": "de0a5345d2af246444b2c382b79ee1d5"}, {"lon": -77.04039266666666, "rental_uris": {"android": "https://dc.lft.to/lastmile_qr_scan", "ios": "https://dc.lft.to/lastmile_qr_scan"}, "fusion_lon": 0.0, "is_reserved": 0, "is_disabled": 0, "fusion_lat": 0.0, "type": "electric_scooter", "name": "8f22d706385d5e1a11b972da79a26620", "lat": 38.90600966666667, "bike_id": "8f22d706385d5e1a11b972da79a26620"}, {"lon": -76.987221, "rental_uris": {"android": "https://dc.lft.to/lastmile_qr_scan", "ios": "https://dc.lft.to/lastmile_qr_scan"}, "fusion_lon": 0.0, "is_reserved": 0, "is_disabled": 0, "fusion_lat": 0.0, "type": "electric_bike", "name": "a95d58a7a5c288faa29e30ff7e4cf8a3", "lat": 38.863353333333336, "bike_id": "a95d58a7a5c288faa29e30ff7e4cf8a3"}, {"lon": -77.046116, "rental_uris": {"android": "https://dc.lft.to/lastmile_qr_scan", "ios": "https://dc.lft.to/lastmile_qr_scan"}, "fusion_lon": 0.0, "is_reserved": 0, "is_disabled": 0, "fusion_lat": 0.0, "type": "electric_scooter", "name": "d8e5e78a31662c80ce760bea84440b11", "lat": 38.90258583333333, "bike_id": "d8e5e78a31662c80ce760bea84440b11"}, {"lon": -77.01077616666667, "rental_uris": {"android": "https://dc.lft.to/lastmile_qr_scan", "ios": "https://dc.lft.to/lastmile_qr_scan"}, "fusion_lon": 0.0, "is_reserved": 0, "is_disabled": 0, "fusion_lat": 0.0, "type": "electric_scooter", "name": "492bc53b1c2663b23358a90b56105f83", "lat": 38.894971166666664, "bike_id": "492bc53b1c2663b23358a90b56105f83"}, {"lon": -77.04056883333334, "rental_uris": {"android": "https://dc.lft.to/lastmile_qr_scan", "ios": "https://dc.lft.to/lastmile_qr_scan"}, "fusion_lon": 0.0, "is_reserved": 0, "is_disabled": 0, "fusion_lat": 0.0, "type": "electric_scooter", "name": "0b339a9ad0814cb7a4f5a9eb45bf2207", "lat": 38.8989885, "bike_id": "0b339a9ad0814cb7a4f5a9eb45bf2207"}, {"lon": -77.0759065, "rental_uris": {"android": "https://dc.lft.to/lastmile_qr_scan", "ios": "https://dc.lft.to/lastmile_qr_scan"}, "fusion_lon": 0.0, "is_reserved": 0, "is_disabled": 0, "fusion_lat": 0.0, "type": "electric_scooter", "name": "0cf6df1676e575a9748cc45f50b6bcee", "lat": 38.912048666666664, "bike_id": "0cf6df1676e575a9748cc45f50b6bcee"}, {"lon": -77.0318135, "rental_uris": {"android": "https://dc.lft.to/lastmile_qr_scan", "ios": "https://dc.lft.to/lastmile_qr_scan"}, "fusion_lon": 0.0, "is_reserved": 0, "is_disabled": 0, "fusion_lat": 0.0, "type": "electric_scooter", "name": "fb72bbaf462efecd0c0a2e03b9a0450b", "lat": 38.901172, "bike_id": "fb72bbaf462efecd0c0a2e03b9a0450b"}, {"lon": -77.02085666666666, "rental_uris": {"android": "https://dc.lft.to/lastmile_qr_scan", "ios": "https://dc.lft.to/lastmile_qr_scan"}, "fusion_lon": 0.0, "is_reserved": 0, "is_disabled": 0, "fusion_lat": 0.0, "type": "electric_scooter", "name": "6b7804599262196878d5dca9df02e854", "lat": 38.90242466666667, "bike_id": "6b7804599262196878d5dca9df02e854"}, {"lon": -76.9671085, "rental_uris": {"android": "https://dc.lft.to/lastmile_qr_scan", "ios": "https://dc.lft.to/lastmile_qr_scan"}, "fusion_lon": 0.0, "is_reserved": 0, "is_disabled": 0, "fusion_lat": 0.0, "type": "electric_scooter", "name": "8d1d41bf10c5240da92454ca1c6e072a", "lat": 38.86015783333333, "bike_id": "8d1d41bf10c5240da92454ca1c6e072a"}, {"lon": -77.03150366666667, "rental_uris": {"android": "https://dc.lft.to/lastmile_qr_scan", "ios": "https://dc.lft.to/lastmile_qr_scan"}, "fusion_lon": 0.0, "is_reserved": 0, "is_disabled": 0, "fusion_lat": 0.0, "type": "electric_scooter", "name": "5f5aae3dc59975be4cd93565dcde267c", "lat": 38.94183266666667, "bike_id": "5f5aae3dc59975be4cd93565dcde267c"}, {"lon": -77.031792, "rental_uris": {"android": "https://dc.lft.to/lastmile_qr_scan", "ios": "https://dc.lft.to/lastmile_qr_scan"}, "fusion_lon": 0.0, "is_reserved": 0, "is_disabled": 0, "fusion_lat": 0.0, "type": "electric_scooter", "name": "dadc161c7ab6a849e80275affbdb8f91", "lat": 38.9083115, "bike_id": "dadc161c7ab6a849e80275affbdb8f91"}, {"lon": -77.04544033333333, "rental_uris": {"android": "https://dc.lft.to/lastmile_qr_scan", "ios": "https://dc.lft.to/lastmile_qr_scan"}, "fusion_lon": 0.0, "is_reserved": 0, "is_disabled": 0, "fusion_lat": 0.0, "type": "electric_scooter", "name": "d5ad78db2f8914f56df3d411d9ba31af", "lat": 38.911186, "bike_id": "d5ad78db2f8914f56df3d411d9ba31af"}, {"lon": -77.0500535, "rental_uris": {"android": "https://dc.lft.to/lastmile_qr_scan", "ios": "https://dc.lft.to/lastmile_qr_scan"}, "fusion_lon": 0.0, "is_reserved": 0, "is_disabled": 0, "fusion_lat": 0.0, "type": "electric_scooter", "name": "0a4f173ea98939f878417a1aefa14fdd", "lat": 38.905370833333336, "bike_id": "0a4f173ea98939f878417a1aefa14fdd"}, {"lon": -77.02407216666667, "rental_uris": {"android": "https://dc.lft.to/lastmile_qr_scan", "ios": "https://dc.lft.to/lastmile_qr_scan"}, "fusion_lon": 0.0, "is_reserved": 0, "is_disabled": 0, "fusion_lat": 0.0, "type": "electric_scooter", "name": "daff90f2522f33fa168a9f648e632a5a", "lat": 38.897488333333335, "bike_id": "daff90f2522f33fa168a9f648e632a5a"}, {"lon": -77.020556, "rental_uris": {"android": "https://dc.lft.to/lastmile_qr_scan", "ios": "https://dc.lft.to/lastmile_qr_scan"}, "fusion_lon": 0.0, "is_reserved": 0, "is_disabled": 0, "fusion_lat": 0.0, "type": "electric_scooter", "name": "c6a216013ee53fa137b745fd63ce4454", "lat": 38.9156, "bike_id": "c6a216013ee53fa137b745fd63ce4454"}, {"lon": -77.053262, "rental_uris": {"android": "https://dc.lft.to/lastmile_qr_scan", "ios": "https://dc.lft.to/lastmile_qr_scan"}, "fusion_lon": 0.0, "is_reserved": 0, "is_disabled": 0, "fusion_lat": 0.0, "type": "electric_scooter", "name": "229f0a9c9ddbefb5f6fcc713bb1b09c9", "lat": 38.904262333333335, "bike_id": "229f0a9c9ddbefb5f6fcc713bb1b09c9"}, {"lon": -77.03919583333334, "rental_uris": {"android": "https://dc.lft.to/lastmile_qr_scan", "ios": "https://dc.lft.to/lastmile_qr_scan"}, "fusion_lon": 0.0, "is_reserved": 0, "is_disabled": 0, "fusion_lat": 0.0, "type": "electric_scooter", "name": "507b053c70e71f074c8d0bf77cb6055c", "lat": 38.90072833333333, "bike_id": "507b053c70e71f074c8d0bf77cb6055c"}, {"lon": -77.0430675, "rental_uris": {"android": "https://dc.lft.to/lastmile_qr_scan", "ios": "https://dc.lft.to/lastmile_qr_scan"}, "fusion_lon": 0.0, "is_reserved": 0, "is_disabled": 0, "fusion_lat": 0.0, "type": "electric_scooter", "name": "fa23970db56595c1472247891f77d56a", "lat": 38.912639166666665, "bike_id": "fa23970db56595c1472247891f77d56a"}, {"lon": -76.99799516666667, "rental_uris": {"android": "https://dc.lft.to/lastmile_qr_scan", "ios": "https://dc.lft.to/lastmile_qr_scan"}, "fusion_lon": 0.0, "is_reserved": 0, "is_disabled": 0, "fusion_lat": 0.0, "type": "electric_bike", "name": "f8f13158d733a1b9460826c7bd9fc3e9", "lat": 38.95091166666667, "bike_id": "f8f13158d733a1b9460826c7bd9fc3e9"}, {"lon": -77.05839233333333, "rental_uris": {"android": "https://dc.lft.to/lastmile_qr_scan", "ios": "https://dc.lft.to/lastmile_qr_scan"}, "fusion_lon": 0.0, "is_reserved": 0, "is_disabled": 0, "fusion_lat": 0.0, "type": "electric_scooter", "name": "6b440fd82e33ed0b8ed93f6aa25d5935", "lat": 38.930639166666666, "bike_id": "6b440fd82e33ed0b8ed93f6aa25d5935"}, {"lon": -76.96305866666667, "rental_uris": {"android": "https://dc.lft.to/lastmile_qr_scan", "ios": "https://dc.lft.to/lastmile_qr_scan"}, "fusion_lon": 0.0, "is_reserved": 0, "is_disabled": 0, "fusion_lat": 0.0, "type": "electric_bike", "name": "bb5f88368e43ff4673da8d8e49341818", "lat": 38.935075, "bike_id": "bb5f88368e43ff4673da8d8e49341818"}, {"lon": -77.06923616666667, "rental_uris": {"android": "https://dc.lft.to/lastmile_qr_scan", "ios": "https://dc.lft.to/lastmile_qr_scan"}, "fusion_lon": 0.0, "is_reserved": 0, "is_disabled": 0, "fusion_lat": 0.0, "type": "electric_bike", "name": "c73292ebc941b43c40cb5909e21a0531", "lat": 38.806863166666666, "bike_id": "c73292ebc941b43c40cb5909e21a0531"}, {"lon": -76.98053783333333, "rental_uris": {"android": "https://dc.lft.to/lastmile_qr_scan", "ios": "https://dc.lft.to/lastmile_qr_scan"}, "fusion_lon": 0.0, "is_reserved": 0, "is_disabled": 0, "fusion_lat": 0.0, "type": "electric_scooter", "name": "36126a068e699cad0bc8ef7f0fa8c35b", "lat": 38.8848815, "bike_id": "36126a068e699cad0bc8ef7f0fa8c35b"}, {"lon": -76.98428983333334, "rental_uris": {"android": "https://dc.lft.to/lastmile_qr_scan", "ios": "https://dc.lft.to/lastmile_qr_scan"}, "fusion_lon": 0.0, "is_reserved": 0, "is_disabled": 0, "fusion_lat": 0.0, "type": "electric_bike", "name": "8375caeaba95c4130ca1e879c8ed8764", "lat": 38.85514283333333, "bike_id": "8375caeaba95c4130ca1e879c8ed8764"}, {"lon": -76.933893, "rental_uris": {"android": "https://dc.lft.to/lastmile_qr_scan", "ios": "https://dc.lft.to/lastmile_qr_scan"}, "fusion_lon": 0.0, "is_reserved": 0, "is_disabled": 0, "fusion_lat": 0.0, "type": "electric_scooter", "name": "356dd7c13ccca02546f332084ca4ffcd", "lat": 38.89912666666667, "bike_id": "356dd7c13ccca02546f332084ca4ffcd"}, {"lon": -77.02360716666666, "rental_uris": {"android": "https://dc.lft.to/lastmile_qr_scan", "ios": "https://dc.lft.to/lastmile_qr_scan"}, "fusion_lon": 0.0, "is_reserved": 0, "is_disabled": 0, "fusion_lat": 0.0, "type": "electric_scooter", "name": "6b978a9f299fb79d3654de0c799581fc", "lat": 38.920649833333336, "bike_id": "6b978a9f299fb79d3654de0c799581fc"}, {"lon": -77.0230835, "rental_uris": {"android": "https://dc.lft.to/lastmile_qr_scan", "ios": "https://dc.lft.to/lastmile_qr_scan"}, "fusion_lon": 0.0, "is_reserved": 0, "is_disabled": 0, "fusion_lat": 0.0, "type": "electric_scooter", "name": "ec36cab27f912034deba7f4d6f5c5d93", "lat": 38.91775616666666, "bike_id": "ec36cab27f912034deba7f4d6f5c5d93"}, {"lon": -77.02927266666667, "rental_uris": {"android": "https://dc.lft.to/lastmile_qr_scan", "ios": "https://dc.lft.to/lastmile_qr_scan"}, "fusion_lon": 0.0, "is_reserved": 0, "is_disabled": 0, "fusion_lat": 0.0, "type": "electric_scooter", "name": "6f82c1c1f5dce86d3be248fa43b31fb7", "lat": 38.94282, "bike_id": "6f82c1c1f5dce86d3be248fa43b31fb7"}, {"lon": -77.0380095, "rental_uris": {"android": "https://dc.lft.to/lastmile_qr_scan", "ios": "https://dc.lft.to/lastmile_qr_scan"}, "fusion_lon": 0.0, "is_reserved": 0, "is_disabled": 0, "fusion_lat": 0.0, "type": "electric_scooter", "name": "87f01a7b555e71d461976941c68dda33", "lat": 38.9180975, "bike_id": "87f01a7b555e71d461976941c68dda33"}, {"lon": -77.04055633333333, "rental_uris": {"android": "https://dc.lft.to/lastmile_qr_scan", "ios": "https://dc.lft.to/lastmile_qr_scan"}, "fusion_lon": 0.0, "is_reserved": 0, "is_disabled": 0, "fusion_lat": 0.0, "type": "electric_scooter", "name": "f181e33db184026a733dcdfee5da9f86", "lat": 38.90882933333334, "bike_id": "f181e33db184026a733dcdfee5da9f86"}, {"lon": -77.01031283333333, "rental_uris": {"android": "https://dc.lft.to/lastmile_qr_scan", "ios": "https://dc.lft.to/lastmile_qr_scan"}, "fusion_lon": 0.0, "is_reserved": 0, "is_disabled": 0, "fusion_lat": 0.0, "type": "electric_scooter", "name": "31c6af3eb2476554e3af3265154ea6cb", "lat": 38.92030666666667, "bike_id": "31c6af3eb2476554e3af3265154ea6cb"}, {"lon": -77.043739, "rental_uris": {"android": "https://dc.lft.to/lastmile_qr_scan", "ios": "https://dc.lft.to/lastmile_qr_scan"}, "fusion_lon": 0.0, "is_reserved": 0, "is_disabled": 0, "fusion_lat": 0.0, "type": "electric_scooter", "name": "50eb3224782f3c6f078af2dbd0f59a40", "lat": 38.90248533333333, "bike_id": "50eb3224782f3c6f078af2dbd0f59a40"}, {"lon": -77.021812, "rental_uris": {"android": "https://dc.lft.to/lastmile_qr_scan", "ios": "https://dc.lft.to/lastmile_qr_scan"}, "fusion_lon": 0.0, "is_reserved": 0, "is_disabled": 0, "fusion_lat": 0.0, "type": "electric_scooter", "name": "66eedafeb1e7764d0d56bb8790cf9cf8", "lat": 38.93949683333334, "bike_id": "66eedafeb1e7764d0d56bb8790cf9cf8"}, {"lon": -77.032422, "rental_uris": {"android": "https://dc.lft.to/lastmile_qr_scan", "ios": "https://dc.lft.to/lastmile_qr_scan"}, "fusion_lon": 0.0, "is_reserved": 0, "is_disabled": 0, "fusion_lat": 0.0, "type": "electric_scooter", "name": "c54d4f1f473283a2180706c3a47595b3", "lat": 38.96162266666666, "bike_id": "c54d4f1f473283a2180706c3a47595b3"}, {"lon": -76.99059783333334, "rental_uris": {"android": "https://dc.lft.to/lastmile_qr_scan", "ios": "https://dc.lft.to/lastmile_qr_scan"}, "fusion_lon": 0.0, "is_reserved": 0, "is_disabled": 0, "fusion_lat": 0.0, "type": "electric_bike", "name": "2dc6934795a8bb8d01e41735be5b1bf5", "lat": 38.93692083333333, "bike_id": "2dc6934795a8bb8d01e41735be5b1bf5"}, {"lon": -77.03972, "rental_uris": {"android": "https://dc.lft.to/lastmile_qr_scan", "ios": "https://dc.lft.to/lastmile_qr_scan"}, "fusion_lon": 0.0, "is_reserved": 0, "is_disabled": 0, "fusion_lat": 0.0, "type": "electric_scooter", "name": "06741658efb6ba155efd53e146ba6bc9", "lat": 38.901545, "bike_id": "06741658efb6ba155efd53e146ba6bc9"}, {"lon": -77.029198, "rental_uris": {"android": "https://dc.lft.to/lastmile_qr_scan", "ios": "https://dc.lft.to/lastmile_qr_scan"}, "fusion_lon": 0.0, "is_reserved": 0, "is_disabled": 0, "fusion_lat": 0.0, "type": "electric_scooter", "name": "5257a602c3740a8be20653e78eee7a85", "lat": 38.91706666666666, "bike_id": "5257a602c3740a8be20653e78eee7a85"}, {"lon": -77.00996983333333, "rental_uris": {"android": "https://dc.lft.to/lastmile_qr_scan", "ios": "https://dc.lft.to/lastmile_qr_scan"}, "fusion_lon": 0.0, "is_reserved": 0, "is_disabled": 0, "fusion_lat": 0.0, "type": "electric_scooter", "name": "aab34dd7be2383921c87cca6b91daacc", "lat": 38.89899833333333, "bike_id": "aab34dd7be2383921c87cca6b91daacc"}, {"lon": -77.02724083333334, "rental_uris": {"android": "https://dc.lft.to/lastmile_qr_scan", "ios": "https://dc.lft.to/lastmile_qr_scan"}, "fusion_lon": 0.0, "is_reserved": 0, "is_disabled": 0, "fusion_lat": 0.0, "type": "electric_scooter", "name": "14eaf0361aecf6f2b7f630e14ee557b1", "lat": 38.940880666666665, "bike_id": "14eaf0361aecf6f2b7f630e14ee557b1"}, {"lon": -77.02779433333333, "rental_uris": {"android": "https://dc.lft.to/lastmile_qr_scan", "ios": "https://dc.lft.to/lastmile_qr_scan"}, "fusion_lon": 0.0, "is_reserved": 0, "is_disabled": 0, "fusion_lat": 0.0, "type": "electric_scooter", "name": "d51f9ec6c0fd391d964680f7db0d414e", "lat": 38.887456666666665, "bike_id": "d51f9ec6c0fd391d964680f7db0d414e"}, {"lon": -76.96975966666666, "rental_uris": {"android": "https://dc.lft.to/lastmile_qr_scan", "ios": "https://dc.lft.to/lastmile_qr_scan"}, "fusion_lon": 0.0, "is_reserved": 0, "is_disabled": 0, "fusion_lat": 0.0, "type": "electric_scooter", "name": "d1b488970d9462176d16453c91c91f6e", "lat": 38.873874666666666, "bike_id": "d1b488970d9462176d16453c91c91f6e"}, {"lon": -76.977483, "rental_uris": {"android": "https://dc.lft.to/lastmile_qr_scan", "ios": "https://dc.lft.to/lastmile_qr_scan"}, "fusion_lon": 0.0, "is_reserved": 0, "is_disabled": 0, "fusion_lat": 0.0, "type": "electric_bike", "name": "9618443fa6d497f275a7e089c0f38be1", "lat": 38.8650425, "bike_id": "9618443fa6d497f275a7e089c0f38be1"}, {"lon": -77.02796916666667, "rental_uris": {"android": "https://dc.lft.to/lastmile_qr_scan", "ios": "https://dc.lft.to/lastmile_qr_scan"}, "fusion_lon": 0.0, "is_reserved": 0, "is_disabled": 0, "fusion_lat": 0.0, "type": "electric_scooter", "name": "6280d1e56bccc8021e301933f8a2d020", "lat": 38.954096166666666, "bike_id": "6280d1e56bccc8021e301933f8a2d020"}, {"lon": -77.050722, "rental_uris": {"android": "https://dc.lft.to/lastmile_qr_scan", "ios": "https://dc.lft.to/lastmile_qr_scan"}, "fusion_lon": 0.0, "is_reserved": 0, "is_disabled": 0, "fusion_lat": 0.0, "type": "electric_scooter", "name": "0def0876322e922287f2bfc72b380dcd", "lat": 38.916322666666666, "bike_id": "0def0876322e922287f2bfc72b380dcd"}, {"lon": -77.02474933333333, "rental_uris": {"android": "https://dc.lft.to/lastmile_qr_scan", "ios": "https://dc.lft.to/lastmile_qr_scan"}, "fusion_lon": 0.0, "is_reserved": 0, "is_disabled": 0, "fusion_lat": 0.0, "type": "electric_scooter", "name": "c780e4ad8e69f9d9b5c7b63b56e4bc4b", "lat": 38.89986666666667, "bike_id": "c780e4ad8e69f9d9b5c7b63b56e4bc4b"}, {"lon": -77.029387, "rental_uris": {"android": "https://dc.lft.to/lastmile_qr_scan", "ios": "https://dc.lft.to/lastmile_qr_scan"}, "fusion_lon": 0.0, "is_reserved": 0, "is_disabled": 0, "fusion_lat": 0.0, "type": "electric_scooter", "name": "4f0f30f1d2a70ef44c886f5be5ca3d14", "lat": 38.9102825, "bike_id": "4f0f30f1d2a70ef44c886f5be5ca3d14"}, {"lon": -77.03829516666667, "rental_uris": {"android": "https://dc.lft.to/lastmile_qr_scan", "ios": "https://dc.lft.to/lastmile_qr_scan"}, "fusion_lon": 0.0, "is_reserved": 0, "is_disabled": 0, "fusion_lat": 0.0, "type": "electric_scooter", "name": "f8dee8b8bdbbc090d50237ae166a69bd", "lat": 38.90854183333333, "bike_id": "f8dee8b8bdbbc090d50237ae166a69bd"}, {"lon": -77.04496316666666, "rental_uris": {"android": "https://dc.lft.to/lastmile_qr_scan", "ios": "https://dc.lft.to/lastmile_qr_scan"}, "fusion_lon": 0.0, "is_reserved": 0, "is_disabled": 0, "fusion_lat": 0.0, "type": "electric_scooter", "name": "780f7636a98fee2fb0fca2e33c5fcfa2", "lat": 38.899246166666664, "bike_id": "780f7636a98fee2fb0fca2e33c5fcfa2"}, {"lon": -77.08199416666666, "rental_uris": {"android": "https://dc.lft.to/lastmile_qr_scan", "ios": "https://dc.lft.to/lastmile_qr_scan"}, "fusion_lon": 0.0, "is_reserved": 0, "is_disabled": 0, "fusion_lat": 0.0, "type": "electric_scooter", "name": "8845c949b8890c8a9aaa4415ced078c4", "lat": 38.92092133333333, "bike_id": "8845c949b8890c8a9aaa4415ced078c4"}, {"lon": -77.0217425, "rental_uris": {"android": "https://dc.lft.to/lastmile_qr_scan", "ios": "https://dc.lft.to/lastmile_qr_scan"}, "fusion_lon": 0.0, "is_reserved": 0, "is_disabled": 0, "fusion_lat": 0.0, "type": "electric_scooter", "name": "13b1053d10f98051369c30c30c595948", "lat": 38.89700633333333, "bike_id": "13b1053d10f98051369c30c30c595948"}, {"lon": -76.95760066666666, "rental_uris": {"android": "https://dc.lft.to/lastmile_qr_scan", "ios": "https://dc.lft.to/lastmile_qr_scan"}, "fusion_lon": 0.0, "is_reserved": 0, "is_disabled": 0, "fusion_lat": 0.0, "type": "electric_scooter", "name": "9dab717ba5d46ca4572ce0dac606c599", "lat": 38.8842885, "bike_id": "9dab717ba5d46ca4572ce0dac606c599"}, {"lon": -76.99484416666667, "rental_uris": {"android": "https://dc.lft.to/lastmile_qr_scan", "ios": "https://dc.lft.to/lastmile_qr_scan"}, "fusion_lon": 0.0, "is_reserved": 0, "is_disabled": 0, "fusion_lat": 0.0, "type": "electric_scooter", "name": "804f2807abf889302b2c0a0f2e101db6", "lat": 38.9254175, "bike_id": "804f2807abf889302b2c0a0f2e101db6"}, {"lon": -77.050496, "rental_uris": {"android": "https://dc.lft.to/lastmile_qr_scan", "ios": "https://dc.lft.to/lastmile_qr_scan"}, "fusion_lon": 0.0, "is_reserved": 0, "is_disabled": 0, "fusion_lat": 0.0, "type": "electric_scooter", "name": "0c87f67aba3f2847052df242ca78b77a", "lat": 38.90546966666667, "bike_id": "0c87f67aba3f2847052df242ca78b77a"}, {"lon": -77.01365116666666, "rental_uris": {"android": "https://dc.lft.to/lastmile_qr_scan", "ios": "https://dc.lft.to/lastmile_qr_scan"}, "fusion_lon": 0.0, "is_reserved": 0, "is_disabled": 0, "fusion_lat": 0.0, "type": "electric_scooter", "name": "a1cc67dd1c1e60b6d7d049a4e3c1f5f8", "lat": 38.928729, "bike_id": "a1cc67dd1c1e60b6d7d049a4e3c1f5f8"}, {"lon": -76.9733625, "rental_uris": {"android": "https://dc.lft.to/lastmile_qr_scan", "ios": "https://dc.lft.to/lastmile_qr_scan"}, "fusion_lon": 0.0, "is_reserved": 0, "is_disabled": 0, "fusion_lat": 0.0, "type": "electric_scooter", "name": "2ddb1b9dee2343b2933d40fbaee7e6ac", "lat": 38.90410333333333, "bike_id": "2ddb1b9dee2343b2933d40fbaee7e6ac"}, {"lon": -77.02706833333333, "rental_uris": {"android": "https://dc.lft.to/lastmile_qr_scan", "ios": "https://dc.lft.to/lastmile_qr_scan"}, "fusion_lon": 0.0, "is_reserved": 0, "is_disabled": 0, "fusion_lat": 0.0, "type": "electric_scooter", "name": "b94276d8bba3b6503670c0fc0ff1da8c", "lat": 38.898433833333335, "bike_id": "b94276d8bba3b6503670c0fc0ff1da8c"}, {"lon": -76.998453, "rental_uris": {"android": "https://dc.lft.to/lastmile_qr_scan", "ios": "https://dc.lft.to/lastmile_qr_scan"}, "fusion_lon": 0.0, "is_reserved": 0, "is_disabled": 0, "fusion_lat": 0.0, "type": "electric_scooter", "name": "dde2d54b748b66752b1b77e86b412854", "lat": 38.8396055, "bike_id": "dde2d54b748b66752b1b77e86b412854"}, {"lon": -77.0462875, "rental_uris": {"android": "https://dc.lft.to/lastmile_qr_scan", "ios": "https://dc.lft.to/lastmile_qr_scan"}, "fusion_lon": 0.0, "is_reserved": 0, "is_disabled": 0, "fusion_lat": 0.0, "type": "electric_scooter", "name": "ac0a3af58c51e3d919bcdee6c0e8ed1c", "lat": 38.906393333333334, "bike_id": "ac0a3af58c51e3d919bcdee6c0e8ed1c"}, {"lon": -77.0454865, "rental_uris": {"android": "https://dc.lft.to/lastmile_qr_scan", "ios": "https://dc.lft.to/lastmile_qr_scan"}, "fusion_lon": 0.0, "is_reserved": 0, "is_disabled": 0, "fusion_lat": 0.0, "type": "electric_scooter", "name": "884f9510462e0fa1298632a391e7ae97", "lat": 38.91110166666667, "bike_id": "884f9510462e0fa1298632a391e7ae97"}, {"lon": -77.0324905, "rental_uris": {"android": "https://dc.lft.to/lastmile_qr_scan", "ios": "https://dc.lft.to/lastmile_qr_scan"}, "fusion_lon": 0.0, "is_reserved": 0, "is_disabled": 0, "fusion_lat": 0.0, "type": "electric_scooter", "name": "fed0d6427267a6d38341f6767928b853", "lat": 38.90543383333333, "bike_id": "fed0d6427267a6d38341f6767928b853"}, {"lon": -77.02999033333333, "rental_uris": {"android": "https://dc.lft.to/lastmile_qr_scan", "ios": "https://dc.lft.to/lastmile_qr_scan"}, "fusion_lon": 0.0, "is_reserved": 0, "is_disabled": 0, "fusion_lat": 0.0, "type": "electric_scooter", "name": "ca1aa7e6ce20f3d6a553d110afa78642", "lat": 38.905007, "bike_id": "ca1aa7e6ce20f3d6a553d110afa78642"}, {"lon": -77.02209233333333, "rental_uris": {"android": "https://dc.lft.to/lastmile_qr_scan", "ios": "https://dc.lft.to/lastmile_qr_scan"}, "fusion_lon": 0.0, "is_reserved": 0, "is_disabled": 0, "fusion_lat": 0.0, "type": "electric_scooter", "name": "fc250412937f71b2aab6facec99dbcc4", "lat": 38.886084833333335, "bike_id": "fc250412937f71b2aab6facec99dbcc4"}, {"lon": -77.00568966666667, "rental_uris": {"android": "https://dc.lft.to/lastmile_qr_scan", "ios": "https://dc.lft.to/lastmile_qr_scan"}, "fusion_lon": 0.0, "is_reserved": 0, "is_disabled": 0, "fusion_lat": 0.0, "type": "electric_scooter", "name": "efd98e030f7613308460f616b195a0f4", "lat": 38.875647, "bike_id": "efd98e030f7613308460f616b195a0f4"}, {"lon": -77.03249116666667, "rental_uris": {"android": "https://dc.lft.to/lastmile_qr_scan", "ios": "https://dc.lft.to/lastmile_qr_scan"}, "fusion_lon": 0.0, "is_reserved": 0, "is_disabled": 0, "fusion_lat": 0.0, "type": "electric_scooter", "name": "a1e979aa91c218579e2d0ab8ec775df3", "lat": 38.92939783333333, "bike_id": "a1e979aa91c218579e2d0ab8ec775df3"}, {"lon": -77.01946316666667, "rental_uris": {"android": "https://dc.lft.to/lastmile_qr_scan", "ios": "https://dc.lft.to/lastmile_qr_scan"}, "fusion_lon": 0.0, "is_reserved": 0, "is_disabled": 0, "fusion_lat": 0.0, "type": "electric_scooter", "name": "ee44d7e8b20ccd90c79a99a75791e1bc", "lat": 38.922552333333336, "bike_id": "ee44d7e8b20ccd90c79a99a75791e1bc"}, {"lon": -76.98437516666667, "rental_uris": {"android": "https://dc.lft.to/lastmile_qr_scan", "ios": "https://dc.lft.to/lastmile_qr_scan"}, "fusion_lon": 0.0, "is_reserved": 0, "is_disabled": 0, "fusion_lat": 0.0, "type": "electric_scooter", "name": "dac6b71b2747c52a7267fcf83294d6b7", "lat": 38.93279733333333, "bike_id": "dac6b71b2747c52a7267fcf83294d6b7"}, {"lon": -77.02805316666667, "rental_uris": {"android": "https://dc.lft.to/lastmile_qr_scan", "ios": "https://dc.lft.to/lastmile_qr_scan"}, "fusion_lon": 0.0, "is_reserved": 0, "is_disabled": 0, "fusion_lat": 0.0, "type": "electric_scooter", "name": "4a3ec0a110253d55de4729919832eebf", "lat": 38.944519166666666, "bike_id": "4a3ec0a110253d55de4729919832eebf"}, {"lon": -76.99618216666667, "rental_uris": {"android": "https://dc.lft.to/lastmile_qr_scan", "ios": "https://dc.lft.to/lastmile_qr_scan"}, "fusion_lon": 0.0, "is_reserved": 0, "is_disabled": 0, "fusion_lat": 0.0, "type": "electric_scooter", "name": "58315d6706efab853ca97b5606bdca69", "lat": 38.93080066666667, "bike_id": "58315d6706efab853ca97b5606bdca69"}, {"lon": -77.02159016666667, "rental_uris": {"android": "https://dc.lft.to/lastmile_qr_scan", "ios": "https://dc.lft.to/lastmile_qr_scan"}, "fusion_lon": 0.0, "is_reserved": 0, "is_disabled": 0, "fusion_lat": 0.0, "type": "electric_bike", "name": "4ac83c44423dc433aed726b7e9169a00", "lat": 38.8956535, "bike_id": "4ac83c44423dc433aed726b7e9169a00"}, {"lon": -77.052657, "rental_uris": {"android": "https://dc.lft.to/lastmile_qr_scan", "ios": "https://dc.lft.to/lastmile_qr_scan"},