{"data": {"bikes": [{"is_reserved": 0, "rental_uris": {"ios": "https://dc.lft.to/lastmile_qr_scan", "android": "https://dc.lft.to/lastmile_qr_scan"}, "name": "3c3115d9bc4c185106ff1ba01a36e837", "bike_id": "3c3115d9bc4c185106ff1ba01a36e837", "type": "electric_bike", "lat": 39.05201433333333, "fusion_lon": 0.0, "is_disabled": 0, "fusion_lat": 0.0, "lon": -77.10924033333333}, {"is_reserved": 0, "rental_uris": {"ios": "https://dc.lft.to/lastmile_qr_scan", "android": "https://dc.lft.to/lastmile_qr_scan"}, "name": "2aef33501787ecc7e266fb0daf871cc8", "bike_id": "2aef33501787ecc7e266fb0daf871cc8", "type": "electric_scooter", "lat": 38.916876, "fusion_lon": 0.0, "is_disabled": 0, "fusion_lat": 0.0, "lon": -77.03107483333334}, {"is_reserved": 0, "rental_uris": {"ios": "https://dc.lft.to/lastmile_qr_scan", "android": "https://dc.lft.to/lastmile_qr_scan"}, "name": "5d6abb194e9148dbdd0eb3db17fdd3e9", "bike_id": "5d6abb194e9148dbdd0eb3db17fdd3e9", "type": "electric_scooter", "lat": 38.917685666666664, "fusion_lon": 0.0, "is_disabled": 0, "fusion_lat": 0.0, "lon": -77.03578716666667}, {"is_reserved": 0, "rental_uris": {"ios": "https://dc.lft.to/lastmile_qr_scan", "android": "https://dc.lft.to/lastmile_qr_scan"}, "name": "dc08159ca1cfd60f95bd60715a97f66c", "bike_id": "dc08159ca1cfd60f95bd60715a97f66c", "type": "electric_scooter", "lat": 38.90551933333333, "fusion_lon": 0.0, "is_disabled": 0, "fusion_lat": 0.0, "lon": -77.04574766666667}, {"is_reserved": 0, "rental_uris": {"ios": "https://dc.lft.to/lastmile_qr_scan", "android": "https://dc.lft.to/lastmile_qr_scan"}, "name": "3d223f81eab0fbd9620722384cbd0573", "bike_id": "3d223f81eab0fbd9620722384cbd0573", "type": "electric_scooter", "lat": 38.89728016666667, "fusion_lon": 0.0, "is_disabled": 0, "fusion_lat": 0.0, "lon": -77.007552}, {"is_reserved": 0, "rental_uris": {"ios": "https://dc.lft.to/lastmile_qr_scan", "android": "https://dc.lft.to/lastmile_qr_scan"}, "name": "756022c3a718a76fa1f39127001a4c33", "bike_id": "756022c3a718a76fa1f39127001a4c33", "type": "electric_scooter", "lat": 38.91735116666667, "fusion_lon": 0.0, "is_disabled": 0, "fusion_lat": 0.0, "lon": -77.04175483333333}, {"is_reserved": 0, "rental_uris": {"ios": "https://dc.lft.to/lastmile_qr_scan", "android": "https://dc.lft.to/lastmile_qr_scan"}, "name": "d1884121f43f7befed32e9ce54243a3b", "bike_id": "d1884121f43f7befed32e9ce54243a3b", "type": "electric_scooter", "lat": 38.90716533333333, "fusion_lon": 0.0, "is_disabled": 0, "fusion_lat": 0.0, "lon": -77.03430483333334}, {"is_reserved": 0, "rental_uris": {"ios": "https://dc.lft.to/lastmile_qr_scan", "android": "https://dc.lft.to/lastmile_qr_scan"}, "name": "5f5580164ab44d8a9ea8846130e78ba0", "bike_id": "5f5580164ab44d8a9ea8846130e78ba0", "type": "electric_scooter", "lat": 38.91215716666667, "fusion_lon": 0.0, "is_disabled": 0, "fusion_lat": 0.0, "lon": -77.0759495}, {"is_reserved": 0, "rental_uris": {"ios": "https://dc.lft.to/lastmile_qr_scan", "android": "https://dc.lft.to/lastmile_qr_scan"}, "name": "34e63678611f795b4d981341c7a2fa52", "bike_id": "34e63678611f795b4d981341c7a2fa52", "type": "electric_scooter", "lat": 38.9113385, "fusion_lon": 0.0, "is_disabled": 0, "fusion_lat": 0.0, "lon": -77.01986316666667}, {"is_reserved": 0, "rental_uris": {"ios": "https://dc.lft.to/lastmile_qr_scan", "android": "https://dc.lft.to/lastmile_qr_scan"}, "name": "289427ed22becd12a25834ff5914821d", "bike_id": "289427ed22becd12a25834ff5914821d", "type": "electric_scooter", "lat": 38.896331, "fusion_lon": 0.0, "is_disabled": 0, "fusion_lat": 0.0, "lon": -77.04511383333333}, {"is_reserved": 0, "rental_uris": {"ios": "https://dc.lft.to/lastmile_qr_scan", "android": "https://dc.lft.to/lastmile_qr_scan"}, "name": "903716ed3a5faa83e8fa48c4bcf0affa", "bike_id": "903716ed3a5faa83e8fa48c4bcf0affa", "type": "electric_scooter", "lat": 38.91673566666667, "fusion_lon": 0.0, "is_disabled": 0, "fusion_lat": 0.0, "lon": -77.02966933333333}, {"is_reserved": 0, "rental_uris": {"ios": "https://dc.lft.to/lastmile_qr_scan", "android": "https://dc.lft.to/lastmile_qr_scan"}, "name": "155a1eae285a71a2449ba4e2527a972e", "bike_id": "155a1eae285a71a2449ba4e2527a972e", "type": "electric_scooter", "lat": 38.909577166666665, "fusion_lon": 0.0, "is_disabled": 0, "fusion_lat": 0.0, "lon": -77.03139216666666}, {"is_reserved": 0, "rental_uris": {"ios": "https://dc.lft.to/lastmile_qr_scan", "android": "https://dc.lft.to/lastmile_qr_scan"}, "name": "f51a912b4abad133e88c097f529f1d91", "bike_id": "f51a912b4abad133e88c097f529f1d91", "type": "electric_scooter", "lat": 38.91689733333333, "fusion_lon": 0.0, "is_disabled": 0, "fusion_lat": 0.0, "lon": -77.02659616666666}, {"is_reserved": 0, "rental_uris": {"ios": "https://dc.lft.to/lastmile_qr_scan", "android": "https://dc.lft.to/lastmile_qr_scan"}, "name": "201802faf230f4b2be0855e78e64d993", "bike_id": "201802faf230f4b2be0855e78e64d993", "type": "electric_bike", "lat": 38.88306383333333, "fusion_lon": 0.0, "is_disabled": 0, "fusion_lat": 0.0, "lon": -77.03158533333334}, {"is_reserved": 0, "rental_uris": {"ios": "https://dc.lft.to/lastmile_qr_scan", "android": "https://dc.lft.to/lastmile_qr_scan"}, "name": "7a94eb7420ffbb9701a1aefaabed880c", "bike_id": "7a94eb7420ffbb9701a1aefaabed880c", "type": "electric_scooter", "lat": 38.903448, "fusion_lon": 0.0, "is_disabled": 0, "fusion_lat": 0.0, "lon": -77.03859766666666}, {"is_reserved": 0, "rental_uris": {"ios": "https://dc.lft.to/lastmile_qr_scan", "android": "https://dc.lft.to/lastmile_qr_scan"}, "name": "db1e1149744ceeeea12dc9f7381885f7", "bike_id": "db1e1149744ceeeea12dc9f7381885f7", "type": "electric_scooter", "lat": 38.936616, "fusion_lon": 0.0, "is_disabled": 0, "fusion_lat": 0.0, "lon": -77.03593983333333}, {"is_reserved": 0, "rental_uris": {"ios": "https://dc.lft.to/lastmile_qr_scan", "android": "https://dc.lft.to/lastmile_qr_scan"}, "name": "e58936c83a4a58e5ab0fb6e82932e62f", "bike_id": "e58936c83a4a58e5ab0fb6e82932e62f", "type": "electric_bike", "lat": 38.958858, "fusion_lon": 0.0, "is_disabled": 0, "fusion_lat": 0.0, "lon": -76.92488416666667}, {"is_reserved": 0, "rental_uris": {"ios": "https://dc.lft.to/lastmile_qr_scan", "android": "https://dc.lft.to/lastmile_qr_scan"}, "name": "1208aa8dfae3c44d5a0d2ec2c8b5b63f", "bike_id": "1208aa8dfae3c44d5a0d2ec2c8b5b63f", "type": "electric_scooter", "lat": 38.92201566666667, "fusion_lon": 0.0, "is_disabled": 0, "fusion_lat": 0.0, "lon": -76.98368933333333}, {"is_reserved": 0, "rental_uris": {"ios": "https://dc.lft.to/lastmile_qr_scan", "android": "https://dc.lft.to/lastmile_qr_scan"}, "name": "4f83671a2012453a6f3685ac823b2366", "bike_id": "4f83671a2012453a6f3685ac823b2366", "type": "electric_scooter", "lat": 38.90004233333333, "fusion_lon": 0.0, "is_disabled": 0, "fusion_lat": 0.0, "lon": -76.99927116666667}, {"is_reserved": 0, "rental_uris": {"ios": "https://dc.lft.to/lastmile_qr_scan", "android": "https://dc.lft.to/lastmile_qr_scan"}, "name": "8e8a93e6a88d4e27705000f37e5aa27d", "bike_id": "8e8a93e6a88d4e27705000f37e5aa27d", "type": "electric_scooter", "lat": 38.918127, "fusion_lon": 0.0, "is_disabled": 0, "fusion_lat": 0.0, "lon": -77.0417825}, {"is_reserved": 0, "rental_uris": {"ios": "https://dc.lft.to/lastmile_qr_scan", "android": "https://dc.lft.to/lastmile_qr_scan"}, "name": "04634954ece4b4b6afffd24a9ebcabf3", "bike_id": "04634954ece4b4b6afffd24a9ebcabf3", "type": "electric_scooter", "lat": 38.915546, "fusion_lon": 0.0, "is_disabled": 0, "fusion_lat": 0.0, "lon": -77.03872383333334}, {"is_reserved": 0, "rental_uris": {"ios": "https://dc.lft.to/lastmile_qr_scan", "android": "https://dc.lft.to/lastmile_qr_scan"}, "name": "e674a1bc1485f1ee82cd5e16d18857f5", "bike_id": "e674a1bc1485f1ee82cd5e16d18857f5", "type": "electric_bike", "lat": 38.97322583333333, "fusion_lon": 0.0, "is_disabled": 0, "fusion_lat": 0.0, "lon": -77.02153116666666}, {"is_reserved": 0, "rental_uris": {"ios": "https://dc.lft.to/lastmile_qr_scan", "android": "https://dc.lft.to/lastmile_qr_scan"}, "name": "83e107d6d3aec65373702b1889af68c3", "bike_id": "83e107d6d3aec65373702b1889af68c3", "type": "electric_scooter", "lat": 38.89369266666667, "fusion_lon": 0.0, "is_disabled": 0, "fusion_lat": 0.0, "lon": -76.95003833333334}, {"is_reserved": 0, "rental_uris": {"ios": "https://dc.lft.to/lastmile_qr_scan", "android": "https://dc.lft.to/lastmile_qr_scan"}, "name": "63773fd8757b9dfd94fbd0d9800e6af1", "bike_id": "63773fd8757b9dfd94fbd0d9800e6af1", "type": "electric_scooter", "lat": 38.952098, "fusion_lon": 0.0, "is_disabled": 0, "fusion_lat": 0.0, "lon": -77.00249716666667}, {"is_reserved": 0, "rental_uris": {"ios": "https://dc.lft.to/lastmile_qr_scan", "android": "https://dc.lft.to/lastmile_qr_scan"}, "name": "7ea4229126d2c8fb8a0088a4db029300", "bike_id": "7ea4229126d2c8fb8a0088a4db029300", "type": "electric_scooter", "lat": 38.899725333333336, "fusion_lon": 0.0, "is_disabled": 0, "fusion_lat": 0.0, "lon": -77.03358983333334}, {"is_reserved": 0, "rental_uris": {"ios": "https://dc.lft.to/lastmile_qr_scan", "android": "https://dc.lft.to/lastmile_qr_scan"}, "name": "a87e17c33ed7ed59a3116d4fc3e49ad8", "bike_id": "a87e17c33ed7ed59a3116d4fc3e49ad8", "type": "electric_scooter", "lat": 38.90558633333333, "fusion_lon": 0.0, "is_disabled": 0, "fusion_lat": 0.0, "lon": -77.005872}, {"is_reserved": 0, "rental_uris": {"ios": "https://dc.lft.to/lastmile_qr_scan", "android": "https://dc.lft.to/lastmile_qr_scan"}, "name": "8b7ce4839cacf34c90f4e7ad3511cc56", "bike_id": "8b7ce4839cacf34c90f4e7ad3511cc56", "type": "electric_scooter", "lat": 38.921040833333336, "fusion_lon": 0.0, "is_disabled": 0, "fusion_lat": 0.0, "lon": -77.04691483333333}, {"is_reserved": 0, "rental_uris": {"ios": "https://dc.lft.to/lastmile_qr_scan", "android": "https://dc.lft.to/lastmile_qr_scan"}, "name": "2983747815fe72c0a73081d2a7d8010a", "bike_id": "2983747815fe72c0a73081d2a7d8010a", "type": "electric_scooter", "lat": 38.927833, "fusion_lon": 0.0, "is_disabled": 0, "fusion_lat": 0.0, "lon": -77.0369645}, {"is_reserved": 0, "rental_uris": {"ios": "https://dc.lft.to/lastmile_qr_scan", "android": "https://dc.lft.to/lastmile_qr_scan"}, "name": "8a3345d942d71ba72aae011f6a6a2cc1", "bike_id": "8a3345d942d71ba72aae011f6a6a2cc1", "type": "electric_scooter", "lat": 38.92915166666667, "fusion_lon": 0.0, "is_disabled": 0, "fusion_lat": 0.0, "lon": -77.03263}, {"is_reserved": 0, "rental_uris": {"ios": "https://dc.lft.to/lastmile_qr_scan", "android": "https://dc.lft.to/lastmile_qr_scan"}, "name": "2c7d1aa150463db427e184511cb5c4a6", "bike_id": "2c7d1aa150463db427e184511cb5c4a6", "type": "electric_scooter", "lat": 38.91565933333333, "fusion_lon": 0.0, "is_disabled": 0, "fusion_lat": 0.0, "lon": -77.05024133333333}, {"is_reserved": 0, "rental_uris": {"ios": "https://dc.lft.to/lastmile_qr_scan", "android": "https://dc.lft.to/lastmile_qr_scan"}, "name": "083f71827e8358963e7b22d77d162267", "bike_id": "083f71827e8358963e7b22d77d162267", "type": "electric_scooter", "lat": 38.90702316666667, "fusion_lon": 0.0, "is_disabled": 0, "fusion_lat": 0.0, "lon": -77.04006816666667}, {"is_reserved": 0, "rental_uris": {"ios": "https://dc.lft.to/lastmile_qr_scan", "android": "https://dc.lft.to/lastmile_qr_scan"}, "name": "0bfe155713221199f91853edeb8f6c05", "bike_id": "0bfe155713221199f91853edeb8f6c05", "type": "electric_scooter", "lat": 38.916926333333336, "fusion_lon": 0.0, "is_disabled": 0, "fusion_lat": 0.0, "lon": -77.0327425}, {"is_reserved": 0, "rental_uris": {"ios": "https://dc.lft.to/lastmile_qr_scan", "android": "https://dc.lft.to/lastmile_qr_scan"}, "name": "c76625df156f1b259d94ee7e59b38a3f", "bike_id": "c76625df156f1b259d94ee7e59b38a3f", "type": "electric_scooter", "lat": 38.89219683333334, "fusion_lon": 0.0, "is_disabled": 0, "fusion_lat": 0.0, "lon": -77.04443866666666}, {"is_reserved": 0, "rental_uris": {"ios": "https://dc.lft.to/lastmile_qr_scan", "android": "https://dc.lft.to/lastmile_qr_scan"}, "name": "0357ac7be8e1265655a09de04b6ef978", "bike_id": "0357ac7be8e1265655a09de04b6ef978", "type": "electric_scooter", "lat": 38.930158166666665, "fusion_lon": 0.0, "is_disabled": 0, "fusion_lat": 0.0, "lon": -77.05535083333334}, {"is_reserved": 0, "rental_uris": {"ios": "https://dc.lft.to/lastmile_qr_scan", "android": "https://dc.lft.to/lastmile_qr_scan"}, "name": "4c515ef356626e5ace86d5202cb12891", "bike_id": "4c515ef356626e5ace86d5202cb12891", "type": "electric_scooter", "lat": 38.92117266666666, "fusion_lon": 0.0, "is_disabled": 0, "fusion_lat": 0.0, "lon": -77.01796566666667}, {"is_reserved": 0, "rental_uris": {"ios": "https://dc.lft.to/lastmile_qr_scan", "android": "https://dc.lft.to/lastmile_qr_scan"}, "name": "80c6f7da2dfde3dad4ccef63a9cff47f", "bike_id": "80c6f7da2dfde3dad4ccef63a9cff47f", "type": "electric_scooter", "lat": 38.895266666666664, "fusion_lon": 0.0, "is_disabled": 0, "fusion_lat": 0.0, "lon": -76.948925}, {"is_reserved": 0, "rental_uris": {"ios": "https://dc.lft.to/lastmile_qr_scan", "android": "https://dc.lft.to/lastmile_qr_scan"}, "name": "6a831dfbbc2f3a7919f8b15c66a68a1e", "bike_id": "6a831dfbbc2f3a7919f8b15c66a68a1e", "type": "electric_scooter", "lat": 38.8724445, "fusion_lon": 0.0, "is_disabled": 0, "fusion_lat": 0.0, "lon": -76.9772695}, {"is_reserved": 0, "rental_uris": {"ios": "https://dc.lft.to/lastmile_qr_scan", "android": "https://dc.lft.to/lastmile_qr_scan"}, "name": "acad26c1b8ca0a06b6a23d9038217321", "bike_id": "acad26c1b8ca0a06b6a23d9038217321", "type": "electric_scooter", "lat": 38.854516333333336, "fusion_lon": 0.0, "is_disabled": 0, "fusion_lat": 0.0, "lon": -76.97230316666666}, {"is_reserved": 0, "rental_uris": {"ios": "https://dc.lft.to/lastmile_qr_scan", "android": "https://dc.lft.to/lastmile_qr_scan"}, "name": "b4f4dc1c05e900b508149f4214db42f1", "bike_id": "b4f4dc1c05e900b508149f4214db42f1", "type": "electric_scooter", "lat": 38.842889, "fusion_lon": 0.0, "is_disabled": 0, "fusion_lat": 0.0, "lon": -76.9995135}, {"is_reserved": 0, "rental_uris": {"ios": "https://dc.lft.to/lastmile_qr_scan", "android": "https://dc.lft.to/lastmile_qr_scan"}, "name": "f35fee39d68bd2df7a9c063612482ac1", "bike_id": "f35fee39d68bd2df7a9c063612482ac1", "type": "electric_scooter", "lat": 38.906937666666664, "fusion_lon": 0.0, "is_disabled": 0, "fusion_lat": 0.0, "lon": -76.99957466666666}, {"is_reserved": 0, "rental_uris": {"ios": "https://dc.lft.to/lastmile_qr_scan", "android": "https://dc.lft.to/lastmile_qr_scan"}, "name": "b68b696db42e621007018ced78a3ad4f", "bike_id": "b68b696db42e621007018ced78a3ad4f", "type": "electric_scooter", "lat": 38.973673833333336, "fusion_lon": 0.0, "is_disabled": 0, "fusion_lat": 0.0, "lon": -77.0186605}, {"is_reserved": 0, "rental_uris": {"ios": "https://dc.lft.to/lastmile_qr_scan", "android": "https://dc.lft.to/lastmile_qr_scan"}, "name": "b6042aa9f65db707c9b8a418f6ebea0b", "bike_id": "b6042aa9f65db707c9b8a418f6ebea0b", "type": "electric_scooter", "lat": 38.8672935, "fusion_lon": 0.0, "is_disabled": 0, "fusion_lat": 0.0, "lon": -76.98785}, {"is_reserved": 0, "rental_uris": {"ios": "https://dc.lft.to/lastmile_qr_scan", "android": "https://dc.lft.to/lastmile_qr_scan"}, "name": "90c5126d4109d1c6d84de78668ac8b55", "bike_id": "90c5126d4109d1c6d84de78668ac8b55", "type": "electric_scooter", "lat": 38.916635166666666, "fusion_lon": 0.0, "is_disabled": 0, "fusion_lat": 0.0, "lon": -77.0066305}, {"is_reserved": 0, "rental_uris": {"ios": "https://dc.lft.to/lastmile_qr_scan", "android": "https://dc.lft.to/lastmile_qr_scan"}, "name": "6e537e01fee977c0ec16e5a0361b3ae1", "bike_id": "6e537e01fee977c0ec16e5a0361b3ae1", "type": "electric_scooter", "lat": 38.94052116666667, "fusion_lon": 0.0, "is_disabled": 0, "fusion_lat": 0.0, "lon": -77.09271083333333}, {"is_reserved": 0, "rental_uris": {"ios": "https://dc.lft.to/lastmile_qr_scan", "android": "https://dc.lft.to/lastmile_qr_scan"}, "name": "2dabb71a67aefb1a3f1d0f6c91116bec", "bike_id": "2dabb71a67aefb1a3f1d0f6c91116bec", "type": "electric_scooter", "lat": 38.919785, "fusion_lon": 0.0, "is_disabled": 0, "fusion_lat": 0.0, "lon": -77.04197016666667}, {"is_reserved": 0, "rental_uris": {"ios": "https://dc.lft.to/lastmile_qr_scan", "android": "https://dc.lft.to/lastmile_qr_scan"}, "name": "844fafab5398099c4f3a312c3a7c5ef4", "bike_id": "844fafab5398099c4f3a312c3a7c5ef4", "type": "electric_scooter", "lat": 38.922181333333334, "fusion_lon": 0.0, "is_disabled": 0, "fusion_lat": 0.0, "lon": -77.0424915}, {"is_reserved": 0, "rental_uris": {"ios": "https://dc.lft.to/lastmile_qr_scan", "android": "https://dc.lft.to/lastmile_qr_scan"}, "name": "07cf62fa0aadecebe1f274a418a2bfbd", "bike_id": "07cf62fa0aadecebe1f274a418a2bfbd", "type": "electric_scooter", "lat": 38.91195533333333, "fusion_lon": 0.0, "is_disabled": 0, "fusion_lat": 0.0, "lon": -77.0609085}, {"is_reserved": 0, "rental_uris": {"ios": "https://dc.lft.to/lastmile_qr_scan", "android": "https://dc.lft.to/lastmile_qr_scan"}, "name": "07223f18d04096e8651bbba4b9729e26", "bike_id": "07223f18d04096e8651bbba4b9729e26", "type": "electric_scooter", "lat": 38.92115866666666, "fusion_lon": 0.0, "is_disabled": 0, "fusion_lat": 0.0, "lon": -77.04206283333333}, {"is_reserved": 0, "rental_uris": {"ios": "https://dc.lft.to/lastmile_qr_scan", "android": "https://dc.lft.to/lastmile_qr_scan"}, "name": "a4baedfde06fcfa7b4a532b06984d6a7", "bike_id": "a4baedfde06fcfa7b4a532b06984d6a7", "type": "electric_scooter", "lat": 38.92661316666667, "fusion_lon": 0.0, "is_disabled": 0, "fusion_lat": 0.0, "lon": -77.05355266666666}, {"is_reserved": 0, "rental_uris": {"ios": "https://dc.lft.to/lastmile_qr_scan", "android": "https://dc.lft.to/lastmile_qr_scan"}, "name": "92fbde66d7bbd74da01521e2b68f3e11", "bike_id": "92fbde66d7bbd74da01521e2b68f3e11", "type": "electric_scooter", "lat": 38.892226, "fusion_lon": 0.0, "is_disabled": 0, "fusion_lat": 0.0, "lon": -77.04860033333334}, {"is_reserved": 0, "rental_uris": {"ios": "https://dc.lft.to/lastmile_qr_scan", "android": "https://dc.lft.to/lastmile_qr_scan"}, "name": "ff21cea7e2d57b93e6285af92e97ff44", "bike_id": "ff21cea7e2d57b93e6285af92e97ff44", "type": "electric_scooter", "lat": 38.8876165, "fusion_lon": 0.0, "is_disabled": 0, "fusion_lat": 0.0, "lon": -76.955979}, {"is_reserved": 0, "rental_uris": {"ios": "https://dc.lft.to/lastmile_qr_scan", "android": "https://dc.lft.to/lastmile_qr_scan"}, "name": "f8e3c6b04eee0f4060910129a2218586", "bike_id": "f8e3c6b04eee0f4060910129a2218586", "type": "electric_scooter", "lat": 38.9391115, "fusion_lon": 0.0, "is_disabled": 0, "fusion_lat": 0.0, "lon": -77.02469816666667}, {"is_reserved": 0, "rental_uris": {"ios": "https://dc.lft.to/lastmile_qr_scan", "android": "https://dc.lft.to/lastmile_qr_scan"}, "name": "219c7f4aa7205756daf4ca788836420b", "bike_id": "219c7f4aa7205756daf4ca788836420b", "type": "electric_scooter", "lat": 38.924631833333336, "fusion_lon": 0.0, "is_disabled": 0, "fusion_lat": 0.0, "lon": -77.03661033333333}, {"is_reserved": 0, "rental_uris": {"ios": "https://dc.lft.to/lastmile_qr_scan", "android": "https://dc.lft.to/lastmile_qr_scan"}, "name": "405680906e23310995acbab45efe2917", "bike_id": "405680906e23310995acbab45efe2917", "type": "electric_scooter", "lat": 38.8871695, "fusion_lon": 0.0, "is_disabled": 0, "fusion_lat": 0.0, "lon": -77.03198016666667}, {"is_reserved": 0, "rental_uris": {"ios": "https://dc.lft.to/lastmile_qr_scan", "android": "https://dc.lft.to/lastmile_qr_scan"}, "name": "426798171d94a426e7c96b3a617e7450", "bike_id": "426798171d94a426e7c96b3a617e7450", "type": "electric_scooter", "lat": 38.917071, "fusion_lon": 0.0, "is_disabled": 0, "fusion_lat": 0.0, "lon": -77.03134916666667}, {"is_reserved": 0, "rental_uris": {"ios": "https://dc.lft.to/lastmile_qr_scan", "android": "https://dc.lft.to/lastmile_qr_scan"}, "name": "5e3109e3daf19fa151d4143ea4b95c23", "bike_id": "5e3109e3daf19fa151d4143ea4b95c23", "type": "electric_scooter", "lat": 38.92142833333333, "fusion_lon": 0.0, "is_disabled": 0, "fusion_lat": 0.0, "lon": -76.96926183333333}, {"is_reserved": 0, "rental_uris": {"ios": "https://dc.lft.to/lastmile_qr_scan", "android": "https://dc.lft.to/lastmile_qr_scan"}, "name": "71522bd25de613216daef77307c6c63e", "bike_id": "71522bd25de613216daef77307c6c63e", "type": "electric_bike", "lat": 38.86165616666667, "fusion_lon": 0.0, "is_disabled": 0, "fusion_lat": 0.0, "lon": -76.95066116666666}, {"is_reserved": 0, "rental_uris": {"ios": "https://dc.lft.to/lastmile_qr_scan", "android": "https://dc.lft.to/lastmile_qr_scan"}, "name": "f9b62d2e794873c466ecf13b9d66ebf5", "bike_id": "f9b62d2e794873c466ecf13b9d66ebf5", "type": "electric_scooter", "lat": 38.92326716666667, "fusion_lon": 0.0, "is_disabled": 0, "fusion_lat": 0.0, "lon": -77.05682916666666}, {"is_reserved": 0, "rental_uris": {"ios": "https://dc.lft.to/lastmile_qr_scan", "android": "https://dc.lft.to/lastmile_qr_scan"}, "name": "2529cf39f42ff4d4a117591d305e0b50", "bike_id": "2529cf39f42ff4d4a117591d305e0b50", "type": "electric_scooter", "lat": 38.92442966666667, "fusion_lon": 0.0, "is_disabled": 0, "fusion_lat": 0.0, "lon": -77.04117933333333}, {"is_reserved": 0, "rental_uris": {"ios": "https://dc.lft.to/lastmile_qr_scan", "android": "https://dc.lft.to/lastmile_qr_scan"}, "name": "155564b78595dcffc35f848ffc2847e3", "bike_id": "155564b78595dcffc35f848ffc2847e3", "type": "electric_scooter", "lat": 38.891933333333334, "fusion_lon": 0.0, "is_disabled": 0, "fusion_lat": 0.0, "lon": -77.0245595}, {"is_reserved": 0, "rental_uris": {"ios": "https://dc.lft.to/lastmile_qr_scan", "android": "https://dc.lft.to/lastmile_qr_scan"}, "name": "d1e6bb177c2955b6e5f547e58b53702a", "bike_id": "d1e6bb177c2955b6e5f547e58b53702a", "type": "electric_scooter", "lat": 38.9289285, "fusion_lon": 0.0, "is_disabled": 0, "fusion_lat": 0.0, "lon": -77.03291916666667}, {"is_reserved": 0, "rental_uris": {"ios": "https://dc.lft.to/lastmile_qr_scan", "android": "https://dc.lft.to/lastmile_qr_scan"}, "name": "8c048a73de24db08c797115e85a339f0", "bike_id": "8c048a73de24db08c797115e85a339f0", "type": "electric_scooter", "lat": 38.909209, "fusion_lon": 0.0, "is_disabled": 0, "fusion_lat": 0.0, "lon": -77.03190983333333}, {"is_reserved": 0, "rental_uris": {"ios": "https://dc.lft.to/lastmile_qr_scan", "android": "https://dc.lft.to/lastmile_qr_scan"}, "name": "5c7a066c0c45579262582cb10a4dbbb9", "bike_id": "5c7a066c0c45579262582cb10a4dbbb9", "type": "electric_scooter", "lat": 38.928579166666665, "fusion_lon": 0.0, "is_disabled": 0, "fusion_lat": 0.0, "lon": -77.03445016666667}, {"is_reserved": 0, "rental_uris": {"ios": "https://dc.lft.to/lastmile_qr_scan", "android": "https://dc.lft.to/lastmile_qr_scan"}, "name": "90dc5c2caa0c2ef70a2b662e9137e29a", "bike_id": "90dc5c2caa0c2ef70a2b662e9137e29a", "type": "electric_scooter", "lat": 38.9002225, "fusion_lon": 0.0, "is_disabled": 0, "fusion_lat": 0.0, "lon": -77.00170083333333}, {"is_reserved": 0, "rental_uris": {"ios": "https://dc.lft.to/lastmile_qr_scan", "android": "https://dc.lft.to/lastmile_qr_scan"}, "name": "3ddceaa3b8b27536a2d85c2b031728e3", "bike_id": "3ddceaa3b8b27536a2d85c2b031728e3", "type": "electric_scooter", "lat": 38.89273383333333, "fusion_lon": 0.0, "is_disabled": 0, "fusion_lat": 0.0, "lon": -76.94238466666667}, {"is_reserved": 0, "rental_uris": {"ios": "https://dc.lft.to/lastmile_qr_scan", "android": "https://dc.lft.to/lastmile_qr_scan"}, "name": "dbd8bec96191126474fa5bf11a83d3ea", "bike_id": "dbd8bec96191126474fa5bf11a83d3ea", "type": "electric_scooter", "lat": 38.90540083333333, "fusion_lon": 0.0, "is_disabled": 0, "fusion_lat": 0.0, "lon": -77.06258733333334}, {"is_reserved": 0, "rental_uris": {"ios": "https://dc.lft.to/lastmile_qr_scan", "android": "https://dc.lft.to/lastmile_qr_scan"}, "name": "3b3f2a156f7595515fa0916773034c1a", "bike_id": "3b3f2a156f7595515fa0916773034c1a", "type": "electric_bike", "lat": 38.93411733333333, "fusion_lon": 0.0, "is_disabled": 0, "fusion_lat": 0.0, "lon": -77.02513733333333}, {"is_reserved": 0, "rental_uris": {"ios": "https://dc.lft.to/lastmile_qr_scan", "android": "https://dc.lft.to/lastmile_qr_scan"}, "name": "b4bfcc176f1170bd7ea75db5fb2eb34a", "bike_id": "b4bfcc176f1170bd7ea75db5fb2eb34a", "type": "electric_scooter", "lat": 38.942090666666665, "fusion_lon": 0.0, "is_disabled": 0, "fusion_lat": 0.0, "lon": -77.02024783333333}, {"is_reserved": 0, "rental_uris": {"ios": "https://dc.lft.to/lastmile_qr_scan", "android": "https://dc.lft.to/lastmile_qr_scan"}, "name": "469ef79760f66996b947cdfb7bc64215", "bike_id": "469ef79760f66996b947cdfb7bc64215", "type": "electric_scooter", "lat": 38.900141, "fusion_lon": 0.0, "is_disabled": 0, "fusion_lat": 0.0, "lon": -77.00042216666667}, {"is_reserved": 0, "rental_uris": {"ios": "https://dc.lft.to/lastmile_qr_scan", "android": "https://dc.lft.to/lastmile_qr_scan"}, "name": "8587f44efea7178430d8d5db6f567c93", "bike_id": "8587f44efea7178430d8d5db6f567c93", "type": "electric_scooter", "lat": 38.90017866666667, "fusion_lon": 0.0, "is_disabled": 0, "fusion_lat": 0.0, "lon": -77.04503766666667}, {"is_reserved": 0, "rental_uris": {"ios": "https://dc.lft.to/lastmile_qr_scan", "android": "https://dc.lft.to/lastmile_qr_scan"}, "name": "dba0dd4024438b1266701113f28920ce", "bike_id": "dba0dd4024438b1266701113f28920ce", "type": "electric_scooter", "lat": 38.921960166666665, "fusion_lon": 0.0, "is_disabled": 0, "fusion_lat": 0.0, "lon": -77.03813633333333}, {"is_reserved": 0, "rental_uris": {"ios": "https://dc.lft.to/lastmile_qr_scan", "android": "https://dc.lft.to/lastmile_qr_scan"}, "name": "38094353bee98502ca74723a9a319826", "bike_id": "38094353bee98502ca74723a9a319826", "type": "electric_scooter", "lat": 38.96015716666667, "fusion_lon": 0.0, "is_disabled": 0, "fusion_lat": 0.0, "lon": -77.0282735}, {"is_reserved": 0, "rental_uris": {"ios": "https://dc.lft.to/lastmile_qr_scan", "android": "https://dc.lft.to/lastmile_qr_scan"}, "name": "e46303ce01ee7f5648baf5d9fa75d6f0", "bike_id": "e46303ce01ee7f5648baf5d9fa75d6f0", "type": "electric_scooter", "lat": 38.87471033333333, "fusion_lon": 0.0, "is_disabled": 0, "fusion_lat": 0.0, "lon": -77.00558716666667}, {"is_reserved": 0, "rental_uris": {"ios": "https://dc.lft.to/lastmile_qr_scan", "android": "https://dc.lft.to/lastmile_qr_scan"}, "name": "ab163506dc6a1324598b5825f51a8a30", "bike_id": "ab163506dc6a1324598b5825f51a8a30", "type": "electric_scooter", "lat": 38.89744966666667, "fusion_lon": 0.0, "is_disabled": 0, "fusion_lat": 0.0, "lon": -77.045056}, {"is_reserved": 0, "rental_uris": {"ios": "https://dc.lft.to/lastmile_qr_scan", "android": "https://dc.lft.to/lastmile_qr_scan"}, "name": "b34d564e67c383243080f13137a6d670", "bike_id": "b34d564e67c383243080f13137a6d670", "type": "electric_scooter", "lat": 38.914124666666666, "fusion_lon": 0.0, "is_disabled": 0, "fusion_lat": 0.0, "lon": -77.01283916666667}, {"is_reserved": 0, "rental_uris": {"ios": "https://dc.lft.to/lastmile_qr_scan", "android": "https://dc.lft.to/lastmile_qr_scan"}, "name": "b8fbefae6cf83e8c7cfb3d9fbc47308c", "bike_id": "b8fbefae6cf83e8c7cfb3d9fbc47308c", "type": "electric_scooter", "lat": 38.904130333333335, "fusion_lon": 0.0, "is_disabled": 0, "fusion_lat": 0.0, "lon": -76.99086583333333}, {"is_reserved": 0, "rental_uris": {"ios": "https://dc.lft.to/lastmile_qr_scan", "android": "https://dc.lft.to/lastmile_qr_scan"}, "name": "143a8ae1f1b1606a7b537371a3469b59", "bike_id": "143a8ae1f1b1606a7b537371a3469b59", "type": "electric_scooter", "lat": 38.928652666666665, "fusion_lon": 0.0, "is_disabled": 0, "fusion_lat": 0.0, "lon": -77.032395}, {"is_reserved": 0, "rental_uris": {"ios": "https://dc.lft.to/lastmile_qr_scan", "android": "https://dc.lft.to/lastmile_qr_scan"}, "name": "d98a3a1a8894b31cf0a094862eee6c15", "bike_id": "d98a3a1a8894b31cf0a094862eee6c15", "type": "electric_scooter", "lat": 38.893654166666664, "fusion_lon": 0.0, "is_disabled": 0, "fusion_lat": 0.0, "lon": -76.94980683333333}, {"is_reserved": 0, "rental_uris": {"ios": "https://dc.lft.to/lastmile_qr_scan", "android": "https://dc.lft.to/lastmile_qr_scan"}, "name": "5f9c20fe1abe4e09f0dc3bddf0d67ec6", "bike_id": "5f9c20fe1abe4e09f0dc3bddf0d67ec6", "type": "electric_bike", "lat": 38.87187983333333, "fusion_lon": 0.0, "is_disabled": 0, "fusion_lat": 0.0, "lon": -77.083968}, {"is_reserved": 0, "rental_uris": {"ios": "https://dc.lft.to/lastmile_qr_scan", "android": "https://dc.lft.to/lastmile_qr_scan"}, "name": "82eeb19093614ad896ca76f7ba9fe664", "bike_id": "82eeb19093614ad896ca76f7ba9fe664", "type": "electric_scooter", "lat": 38.925035333333334, "fusion_lon": 0.0, "is_disabled": 0, "fusion_lat": 0.0, "lon": -77.02176433333334}, {"is_reserved": 0, "rental_uris": {"ios": "https://dc.lft.to/lastmile_qr_scan", "android": "https://dc.lft.to/lastmile_qr_scan"}, "name": "dabf9de6a618dcaf8421f286494c84c8", "bike_id": "dabf9de6a618dcaf8421f286494c84c8", "type": "electric_scooter", "lat": 38.89215333333333, "fusion_lon": 0.0, "is_disabled": 0, "fusion_lat": 0.0, "lon": -77.03978833333333}, {"is_reserved": 0, "rental_uris": {"ios": "https://dc.lft.to/lastmile_qr_scan", "android": "https://dc.lft.to/lastmile_qr_scan"}, "name": "3375a248c6894563044c7be9228b48e7", "bike_id": "3375a248c6894563044c7be9228b48e7", "type": "electric_scooter", "lat": 38.90577316666667, "fusion_lon": 0.0, "is_disabled": 0, "fusion_lat": 0.0, "lon": -77.03095916666666}, {"is_reserved": 0, "rental_uris": {"ios": "https://dc.lft.to/lastmile_qr_scan", "android": "https://dc.lft.to/lastmile_qr_scan"}, "name": "f594a82c1ef99e691d3fc3e24e4d33a5", "bike_id": "f594a82c1ef99e691d3fc3e24e4d33a5", "type": "electric_scooter", "lat": 38.8981395, "fusion_lon": 0.0, "is_disabled": 0, "fusion_lat": 0.0, "lon": -77.03309166666666}, {"is_reserved": 0, "rental_uris": {"ios": "https://dc.lft.to/lastmile_qr_scan", "android": "https://dc.lft.to/lastmile_qr_scan"}, "name": "958b0108e446a4f22216ab30916589be", "bike_id": "958b0108e446a4f22216ab30916589be", "type": "electric_scooter", "lat": 38.896218166666664, "fusion_lon": 0.0, "is_disabled": 0, "fusion_lat": 0.0, "lon": -76.9984375}, {"is_reserved": 0, "rental_uris": {"ios": "https://dc.lft.to/lastmile_qr_scan", "android": "https://dc.lft.to/lastmile_qr_scan"}, "name": "42673a90c1987da2d1b876bea0844817", "bike_id": "42673a90c1987da2d1b876bea0844817", "type": "electric_scooter", "lat": 38.932872, "fusion_lon": 0.0, "is_disabled": 0, "fusion_lat": 0.0, "lon": -77.03976116666666}, {"is_reserved": 0, "rental_uris": {"ios": "https://dc.lft.to/lastmile_qr_scan", "android": "https://dc.lft.to/lastmile_qr_scan"}, "name": "2e93c0a158e2adfb3313788448e3afbf", "bike_id": "2e93c0a158e2adfb3313788448e3afbf", "type": "electric_scooter", "lat": 38.938041166666665, "fusion_lon": 0.0, "is_disabled": 0, "fusion_lat": 0.0, "lon": -77.02451916666666}, {"is_reserved": 0, "rental_uris": {"ios": "https://dc.lft.to/lastmile_qr_scan", "android": "https://dc.lft.to/lastmile_qr_scan"}, "name": "2e372983a30d937ee70ac79de359c3fb", "bike_id": "2e372983a30d937ee70ac79de359c3fb", "type": "electric_scooter", "lat": 38.92855316666667, "fusion_lon": 0.0, "is_disabled": 0, "fusion_lat": 0.0, "lon": -77.03101733333334}, {"is_reserved": 0, "rental_uris": {"ios": "https://dc.lft.to/lastmile_qr_scan", "android": "https://dc.lft.to/lastmile_qr_scan"}, "name": "1aa3c0a18c30120ae838816fea217db8", "bike_id": "1aa3c0a18c30120ae838816fea217db8", "type": "electric_scooter", "lat": 38.925875, "fusion_lon": 0.0, "is_disabled": 0, "fusion_lat": 0.0, "lon": -77.03227783333334}, {"is_reserved": 0, "rental_uris": {"ios": "https://dc.lft.to/lastmile_qr_scan", "android": "https://dc.lft.to/lastmile_qr_scan"}, "name": "7925fe0b26f126b1194c93f17d284e43", "bike_id": "7925fe0b26f126b1194c93f17d284e43", "type": "electric_scooter", "lat": 38.89620633333333, "fusion_lon": 0.0, "is_disabled": 0, "fusion_lat": 0.0, "lon": -77.02699933333334}, {"is_reserved": 0, "rental_uris": {"ios": "https://dc.lft.to/lastmile_qr_scan", "android": "https://dc.lft.to/lastmile_qr_scan"}, "name": "c4c5de6cc073aef304f2fd9adf230cab", "bike_id": "c4c5de6cc073aef304f2fd9adf230cab", "type": "electric_scooter", "lat": 38.92023783333333, "fusion_lon": 0.0, "is_disabled": 0, "fusion_lat": 0.0, "lon": -77.03134783333333}, {"is_reserved": 0, "rental_uris": {"ios": "https://dc.lft.to/lastmile_qr_scan", "android": "https://dc.lft.to/lastmile_qr_scan"}, "name": "22f5a8ceee92b15a27692c8b331a8943", "bike_id": "22f5a8ceee92b15a27692c8b331a8943", "type": "electric_scooter", "lat": 38.89506166666666, "fusion_lon": 0.0, "is_disabled": 0, "fusion_lat": 0.0, "lon": -77.02305583333333}, {"is_reserved": 0, "rental_uris": {"ios": "https://dc.lft.to/lastmile_qr_scan", "android": "https://dc.lft.to/lastmile_qr_scan"}, "name": "3ec5e32bb672e1ff794ffba7e2fd2bfa", "bike_id": "3ec5e32bb672e1ff794ffba7e2fd2bfa", "type": "electric_bike", "lat": 38.84654116666667, "fusion_lon": 0.0, "is_disabled": 0, "fusion_lat": 0.0, "lon": -76.97935433333333}, {"is_reserved": 0, "rental_uris": {"ios": "https://dc.lft.to/lastmile_qr_scan", "android": "https://dc.lft.to/lastmile_qr_scan"}, "name": "dca62bc290086ca2b54012d2030bd79c", "bike_id": "dca62bc290086ca2b54012d2030bd79c", "type": "electric_scooter", "lat": 38.92850966666666, "fusion_lon": 0.0, "is_disabled": 0, "fusion_lat": 0.0, "lon": -77.0544045}, {"is_reserved": 0, "rental_uris": {"ios": "https://dc.lft.to/lastmile_qr_scan", "android": "https://dc.lft.to/lastmile_qr_scan"}, "name": "1d7484969a0bca294caf8b2a2d20a5dc", "bike_id": "1d7484969a0bca294caf8b2a2d20a5dc", "type": "electric_scooter", "lat": 38.9110895, "fusion_lon": 0.0, "is_disabled": 0, "fusion_lat": 0.0, "lon": -77.04836783333333}, {"is_reserved": 0, "rental_uris": {"ios": "https://dc.lft.to/lastmile_qr_scan", "android": "https://dc.lft.to/lastmile_qr_scan"}, "name": "1c55fca04aac7b9bb4dd7bbed14e1009", "bike_id": "1c55fca04aac7b9bb4dd7bbed14e1009", "type": "electric_scooter", "lat": 38.89970566666667, "fusion_lon": 0.0, "is_disabled": 0, "fusion_lat": 0.0, "lon": -77.03363516666667}, {"is_reserved": 0, "rental_uris": {"ios": "https://dc.lft.to/lastmile_qr_scan", "android": "https://dc.lft.to/lastmile_qr_scan"}, "name": "a08410f8de56f00258b864f9d0a8bcfa", "bike_id": "a08410f8de56f00258b864f9d0a8bcfa", "type": "electric_scooter", "lat": 38.91549666666667, "fusion_lon": 0.0, "is_disabled": 0, "fusion_lat": 0.0, "lon": -77.03175416666667}, {"is_reserved": 0, "rental_uris": {"ios": "https://dc.lft.to/lastmile_qr_scan", "android": "https://dc.lft.to/lastmile_qr_scan"}, "name": "befd2fa6f7a3477703ab67d17c7c2b55", "bike_id": "befd2fa6f7a3477703ab67d17c7c2b55", "type": "electric_bike", "lat": 38.869074, "fusion_lon": 0.0, "is_disabled": 0, "fusion_lat": 0.0, "lon": -77.1318325}, {"is_reserved": 0, "rental_uris": {"ios": "https://dc.lft.to/lastmile_qr_scan", "android": "https://dc.lft.to/lastmile_qr_scan"}, "name": "6df8f5a37e47f2b58b57e3a898ea5e59", "bike_id": "6df8f5a37e47f2b58b57e3a898ea5e59", "type": "electric_scooter", "lat": 38.91705833333333, "fusion_lon": 0.0, "is_disabled": 0, "fusion_lat": 0.0, "lon": -77.03498433333333}, {"is_reserved": 0, "rental_uris": {"ios": "https://dc.lft.to/lastmile_qr_scan", "android": "https://dc.lft.to/lastmile_qr_scan"}, "name": "cdc7a42fa4c2f101fbb2871a07ac8526", "bike_id": "cdc7a42fa4c2f101fbb2871a07ac8526", "type": "electric_scooter", "lat": 38.93974466666667, "fusion_lon": 0.0, "is_disabled": 0, "fusion_lat": 0.0, "lon": -77.03589483333333}, {"is_reserved": 0, "rental_uris": {"ios": "https://dc.lft.to/lastmile_qr_scan", "android": "https://dc.lft.to/lastmile_qr_scan"}, "name": "b88ff06185251d67d4cd10b3783dcc64", "bike_id": "b88ff06185251d67d4cd10b3783dcc64", "type": "electric_scooter", "lat": 38.90777966666667, "fusion_lon": 0.0, "is_disabled": 0, "fusion_lat": 0.0, "lon": -77.06899666666666}, {"is_reserved": 0, "rental_uris": {"ios": "https://dc.lft.to/lastmile_qr_scan", "android": "https://dc.lft.to/lastmile_qr_scan"}, "name": "a490614e400908ee04ca830d3ca9ed49", "bike_id": "a490614e400908ee04ca830d3ca9ed49", "type": "electric_scooter", "lat": 38.932320833333335, "fusion_lon": 0.0, "is_disabled": 0, "fusion_lat": 0.0, "lon": -77.03263316666667}, {"is_reserved": 0, "rental_uris": {"ios": "https://dc.lft.to/lastmile_qr_scan", "android": "https://dc.lft.to/lastmile_qr_scan"}, "name": "527a7f227505c187f7e68c82a6f10809", "bike_id": "527a7f227505c187f7e68c82a6f10809", "type": "electric_scooter", "lat": 38.92456633333333, "fusion_lon": 0.0, "is_disabled": 0, "fusion_lat": 0.0, "lon": -77.01224883333333}, {"is_reserved": 0, "rental_uris": {"ios": "https://dc.lft.to/lastmile_qr_scan", "android": "https://dc.lft.to/lastmile_qr_scan"}, "name": "4b1cbe919a70ad67b1992f5231568bb9", "bike_id": "4b1cbe919a70ad67b1992f5231568bb9", "type": "electric_scooter", "lat": 38.9088165, "fusion_lon": 0.0, "is_disabled": 0, "fusion_lat": 0.0, "lon": -77.03667866666666}, {"is_reserved": 0, "rental_uris": {"ios": "https://dc.lft.to/lastmile_qr_scan", "android": "https://dc.lft.to/lastmile_qr_scan"}, "name": "c0a1a89eefd19b260c35f08b57a7d9c4", "bike_id": "c0a1a89eefd19b260c35f08b57a7d9c4", "type": "electric_scooter", "lat": 38.894815333333334, "fusion_lon": 0.0, "is_disabled": 0, "fusion_lat": 0.0, "lon": -77.04981033333334}, {"is_reserved": 0, "rental_uris": {"ios": "https://dc.lft.to/lastmile_qr_scan", "android": "https://dc.lft.to/lastmile_qr_scan"}, "name": "e595976b2068a911d3eb8c3ff2e1404f", "bike_id": "e595976b2068a911d3eb8c3ff2e1404f", "type": "electric_scooter", "lat": 38.909887166666664, "fusion_lon": 0.0, "is_disabled": 0, "fusion_lat": 0.0, "lon": -77.03848016666667}, {"is_reserved": 0, "rental_uris": {"ios": "https://dc.lft.to/lastmile_qr_scan", "android": "https://dc.lft.to/lastmile_qr_scan"}, "name": "2b2d8d9802b7643cedeb1b507b317ff4", "bike_id": "2b2d8d9802b7643cedeb1b507b317ff4", "type": "electric_scooter", "lat": 38.88717416666667, "fusion_lon": 0.0, "is_disabled": 0, "fusion_lat": 0.0, "lon": -77.013835}, {"is_reserved": 0, "rental_uris": {"ios": "https://dc.lft.to/lastmile_qr_scan", "android": "https://dc.lft.to/lastmile_qr_scan"}, "name": "15d75c85b88b0237325501c54dfde49c", "bike_id": "15d75c85b88b0237325501c54dfde49c", "type": "electric_scooter", "lat": 38.86359683333333, "fusion_lon": 0.0, "is_disabled": 0, "fusion_lat": 0.0, "lon": -76.98271766666667}, {"is_reserved": 0, "rental_uris": {"ios": "https://dc.lft.to/lastmile_qr_scan", "android": "https://dc.lft.to/lastmile_qr_scan"}, "name": "77f584ab257bcd16ef57342dba8fc612", "bike_id": "77f584ab257bcd16ef57342dba8fc612", "type": "electric_bike", "lat": 38.89216616666667, "fusion_lon": 0.0, "is_disabled": 0, "fusion_lat": 0.0, "lon": -77.1078385}, {"is_reserved": 0, "rental_uris": {"ios": "https://dc.lft.to/lastmile_qr_scan", "android": "https://dc.lft.to/lastmile_qr_scan"}, "name": "ba64c021bba51dbabc4d738516a3b110", "bike_id": "ba64c021bba51dbabc4d738516a3b110", "type": "electric_scooter", "lat": 38.908573833333335, "fusion_lon": 0.0, "is_disabled": 0, "fusion_lat": 0.0, "lon": -77.02854066666667}, {"is_reserved": 0, "rental_uris": {"ios": "https://dc.lft.to/lastmile_qr_scan", "android": "https://dc.lft.to/lastmile_qr_scan"}, "name": "f6a32b46b6289e24e340eee0fc18145c", "bike_id": "f6a32b46b6289e24e340eee0fc18145c", "type": "electric_scooter", "lat": 38.897215833333334, "fusion_lon": 0.0, "is_disabled": 0, "fusion_lat": 0.0, "lon": -77.048914}, {"is_reserved": 0, "rental_uris": {"ios": "https://dc.lft.to/lastmile_qr_scan", "android": "https://dc.lft.to/lastmile_qr_scan"}, "name": "0c27e7a9fe13f9b549a5b5f76a11f97a", "bike_id": "0c27e7a9fe13f9b549a5b5f76a11f97a", "type": "electric_scooter", "lat": 38.9225195, "fusion_lon": 0.0, "is_disabled": 0, "fusion_lat": 0.0, "lon": -77.03291966666667}, {"is_reserved": 0, "rental_uris": {"ios": "https://dc.lft.to/lastmile_qr_scan", "android": "https://dc.lft.to/lastmile_qr_scan"}, "name": "8473a77f53c276117db193611ce9e845", "bike_id": "8473a77f53c276117db193611ce9e845", "type": "electric_scooter", "lat": 38.9063045, "fusion_lon": 0.0, "is_disabled": 0, "fusion_lat": 0.0, "lon": -77.043362}, {"is_reserved": 0, "rental_uris": {"ios": "https://dc.lft.to/lastmile_qr_scan", "android": "https://dc.lft.to/lastmile_qr_scan"}, "name": "fc9067917632774a93d6b099a923cafe", "bike_id": "fc9067917632774a93d6b099a923cafe", "type": "electric_scooter", "lat": 38.9110585, "fusion_lon": 0.0, "is_disabled": 0, "fusion_lat": 0.0, "lon": -77.04503266666667}, {"is_reserved": 0, "rental_uris": {"ios": "https://dc.lft.to/lastmile_qr_scan", "android": "https://dc.lft.to/lastmile_qr_scan"}, "name": "a76f335c2da781758a59621e647dfc58", "bike_id": "a76f335c2da781758a59621e647dfc58", "type": "electric_scooter", "lat": 38.91607416666667, "fusion_lon": 0.0, "is_disabled": 0, "fusion_lat": 0.0, "lon": -77.0231495}, {"is_reserved": 0, "rental_uris": {"ios": "https://dc.lft.to/lastmile_qr_scan", "android": "https://dc.lft.to/lastmile_qr_scan"}, "name": "63e4f0e8fb73074703a7544de9d2d0ba", "bike_id": "63e4f0e8fb73074703a7544de9d2d0ba", "type": "electric_scooter", "lat": 38.9003685, "fusion_lon": 0.0, "is_disabled": 0, "fusion_lat": 0.0, "lon": -77.0053915}, {"is_reserved": 0, "rental_uris": {"ios": "https://dc.lft.to/lastmile_qr_scan", "android": "https://dc.lft.to/lastmile_qr_scan"}, "name": "8490bac8369acd1546e05e802ea872fa", "bike_id": "8490bac8369acd1546e05e802ea872fa", "type": "electric_bike", "lat": 38.8914225, "fusion_lon": 0.0, "is_disabled": 0, "fusion_lat": 0.0, "lon": -77.113102}, {"is_reserved": 0, "rental_uris": {"ios": "https://dc.lft.to/lastmile_qr_scan", "android": "https://dc.lft.to/lastmile_qr_scan"}, "name": "834ff8c7d4387b6d76fcd0c89d173cea", "bike_id": "834ff8c7d4387b6d76fcd0c89d173cea", "type": "electric_scooter", "lat": 38.9111955, "fusion_lon": 0.0, "is_disabled": 0, "fusion_lat": 0.0, "lon": -77.02186183333333}, {"is_reserved": 0, "rental_uris": {"ios": "https://dc.lft.to/lastmile_qr_scan", "android": "https://dc.lft.to/lastmile_qr_scan"}, "name": "64c8f83c6a98491a1de517ac8819850f", "bike_id": "64c8f83c6a98491a1de517ac8819850f", "type": "electric_scooter", "lat": 38.88465583333333, "fusion_lon": 0.0, "is_disabled": 0, "fusion_lat": 0.0, "lon": -77.0153865}, {"is_reserved": 0, "rental_uris": {"ios": "https://dc.lft.to/lastmile_qr_scan", "android": "https://dc.lft.to/lastmile_qr_scan"}, "name": "b1417705f7d0d9e41c3d77b8260bb161", "bike_id": "b1417705f7d0d9e41c3d77b8260bb161", "type": "electric_scooter", "lat": 38.904202, "fusion_lon": 0.0, "is_disabled": 0, "fusion_lat": 0.0, "lon": -77.02458216666666}, {"is_reserved": 0, "rental_uris": {"ios": "https://dc.lft.to/lastmile_qr_scan", "android": "https://dc.lft.to/lastmile_qr_scan"}, "name": "1d7436619d865cbd845a1408ef344a5d", "bike_id": "1d7436619d865cbd845a1408ef344a5d", "type": "electric_scooter", "lat": 38.920725166666664, "fusion_lon": 0.0, "is_disabled": 0, "fusion_lat": 0.0, "lon": -77.0231385}, {"is_reserved": 0, "rental_uris": {"ios": "https://dc.lft.to/lastmile_qr_scan", "android": "https://dc.lft.to/lastmile_qr_scan"}, "name": "e76bec748c1f5b0a1e199e5eea0395b0", "bike_id": "e76bec748c1f5b0a1e199e5eea0395b0", "type": "electric_scooter", "lat": 38.90715933333333, "fusion_lon": 0.0, "is_disabled": 0, "fusion_lat": 0.0, "lon": -77.0439775}, {"is_reserved": 0, "rental_uris": {"ios": "https://dc.lft.to/lastmile_qr_scan", "android": "https://dc.lft.to/lastmile_qr_scan"}, "name": "af1869c523d1929f8072e85942c8349a", "bike_id": "af1869c523d1929f8072e85942c8349a", "type": "electric_scooter", "lat": 38.891965666666664, "fusion_lon": 0.0, "is_disabled": 0, "fusion_lat": 0.0, "lon": -77.01537566666667}, {"is_reserved": 0, "rental_uris": {"ios": "https://dc.lft.to/lastmile_qr_scan", "android": "https://dc.lft.to/lastmile_qr_scan"}, "name": "6dc59ce8a719d9e371bfa58f4d0892ab", "bike_id": "6dc59ce8a719d9e371bfa58f4d0892ab", "type": "electric_scooter", "lat": 38.923639, "fusion_lon": 0.0, "is_disabled": 0, "fusion_lat": 0.0, "lon": -77.076834}, {"is_reserved": 0, "rental_uris": {"ios": "https://dc.lft.to/lastmile_qr_scan", "android": "https://dc.lft.to/lastmile_qr_scan"}, "name": "a9b562400a31733e7ed27dfe86a745ab", "bike_id": "a9b562400a31733e7ed27dfe86a745ab", "type": "electric_scooter", "lat": 38.9223385, "fusion_lon": 0.0, "is_disabled": 0, "fusion_lat": 0.0, "lon": -77.0298705}, {"is_reserved": 0, "rental_uris": {"ios": "https://dc.lft.to/lastmile_qr_scan", "android": "https://dc.lft.to/lastmile_qr_scan"}, "name": "6c293137b6b613c65921f6ec1b188d48", "bike_id": "6c293137b6b613c65921f6ec1b188d48", "type": "electric_scooter", "lat": 38.903143, "fusion_lon": 0.0, "is_disabled": 0, "fusion_lat": 0.0, "lon": -77.03306033333334}, {"is_reserved": 0, "rental_uris": {"ios": "https://dc.lft.to/lastmile_qr_scan", "android": "https://dc.lft.to/lastmile_qr_scan"}, "name": "1753b7991737f6eb0e2b8c8e2e6140f0", "bike_id": "1753b7991737f6eb0e2b8c8e2e6140f0", "type": "electric_scooter", "lat": 38.9059325, "fusion_lon": 0.0, "is_disabled": 0, "fusion_lat": 0.0, "lon": -77.058598}, {"is_reserved": 0, "rental_uris": {"ios": "https://dc.lft.to/lastmile_qr_scan", "android": "https://dc.lft.to/lastmile_qr_scan"}, "name": "39d410aff6ae7d86d0ff3ce1502a1a27", "bike_id": "39d410aff6ae7d86d0ff3ce1502a1a27", "type": "electric_bike", "lat": 38.8842395, "fusion_lon": 0.0, "is_disabled": 0, "fusion_lat": 0.0, "lon": -76.98084533333333}, {"is_reserved": 0, "rental_uris": {"ios": "https://dc.lft.to/lastmile_qr_scan", "android": "https://dc.lft.to/lastmile_qr_scan"}, "name": "ef917caccd12ad164e171ceeba00eda7", "bike_id": "ef917caccd12ad164e171ceeba00eda7", "type": "electric_bike", "lat": 38.94916766666667, "fusion_lon": 0.0, "is_disabled": 0, "fusion_lat": 0.0, "lon": -77.07841133333334}, {"is_reserved": 0, "rental_uris": {"ios": "https://dc.lft.to/lastmile_qr_scan", "android": "https://dc.lft.to/lastmile_qr_scan"}, "name": "2ca214e799f5efd5e92152b4a2087ab9", "bike_id": "2ca214e799f5efd5e92152b4a2087ab9", "type": "electric_scooter", "lat": 38.931427166666666, "fusion_lon": 0.0, "is_disabled": 0, "fusion_lat": 0.0, "lon": -77.0785405}, {"is_reserved": 0, "rental_uris": {"ios": "https://dc.lft.to/lastmile_qr_scan", "android": "https://dc.lft.to/lastmile_qr_scan"}, "name": "46bb5e891d104104ec0e44c4da70e9f4", "bike_id": "46bb5e891d104104ec0e44c4da70e9f4", "type": "electric_scooter", "lat": 38.91441116666667, "fusion_lon": 0.0, "is_disabled": 0, "fusion_lat": 0.0, "lon": -77.03861866666666}, {"is_reserved": 0, "rental_uris": {"ios": "https://dc.lft.to/lastmile_qr_scan", "android": "https://dc.lft.to/lastmile_qr_scan"}, "name": "3dbf50d009b328d24c6f8df16e656b18", "bike_id": "3dbf50d009b328d24c6f8df16e656b18", "type": "electric_scooter", "lat": 38.93010966666667, "fusion_lon": 0.0, "is_disabled": 0, "fusion_lat": 0.0, "lon": -76.995033}, {"is_reserved": 0, "rental_uris": {"ios": "https://dc.lft.to/lastmile_qr_scan", "android": "https://dc.lft.to/lastmile_qr_scan"}, "name": "61dbf1e3f26cc57ee402678ee78d8680", "bike_id": "61dbf1e3f26cc57ee402678ee78d8680", "type": "electric_scooter", "lat": 38.905363666666666, "fusion_lon": 0.0, "is_disabled": 0, "fusion_lat": 0.0, "lon": -77.0679855}, {"is_reserved": 0, "rental_uris": {"ios": "https://dc.lft.to/lastmile_qr_scan", "android": "https://dc.lft.to/lastmile_qr_scan"}, "name": "317c6b2150dc646d9e01c396130f7be6", "bike_id": "317c6b2150dc646d9e01c396130f7be6", "type": "electric_scooter", "lat": 38.90894466666666, "fusion_lon": 0.0, "is_disabled": 0, "fusion_lat": 0.0, "lon": -77.0863545}, {"is_reserved": 0, "rental_uris": {"ios": "https://dc.lft.to/lastmile_qr_scan", "android": "https://dc.lft.to/lastmile_qr_scan"}, "name": "131bcf4796f2c620647bc4d0b4cea80f", "bike_id": "131bcf4796f2c620647bc4d0b4cea80f", "type": "electric_scooter", "lat": 38.87583583333333, "fusion_lon": 0.0, "is_disabled": 0, "fusion_lat": 0.0, "lon": -77.01505366666666}, {"is_reserved": 0, "rental_uris": {"ios": "https://dc.lft.to/lastmile_qr_scan", "android": "https://dc.lft.to/lastmile_qr_scan"}, "name": "2305c0aca138f6f32efff55dc538077a", "bike_id": "2305c0aca138f6f32efff55dc538077a", "type": "electric_scooter", "lat": 38.918949833333336, "fusion_lon": 0.0, "is_disabled": 0, "fusion_lat": 0.0, "lon": -77.04155483333334}, {"is_reserved": 0, "rental_uris": {"ios": "https://dc.lft.to/lastmile_qr_scan", "android": "https://dc.lft.to/lastmile_qr_scan"}, "name": "784cc2aa9214b54297f46adb00cc3335", "bike_id": "784cc2aa9214b54297f46adb00cc3335", "type": "electric_bike", "lat": 39.02928766666667, "fusion_lon": 0.0, "is_disabled": 0, "fusion_lat": 0.0, "lon": -77.04931433333333}, {"is_reserved": 0, "rental_uris": {"ios": "https://dc.lft.to/lastmile_qr_scan", "android": "https://dc.lft.to/lastmile_qr_scan"}, "name": "3fdf6985851a37dced24a579b596ab6c", "bike_id": "3fdf6985851a37dced24a579b596ab6c", "type": "electric_scooter", "lat": 38.917163333333335, "fusion_lon": 0.0, "is_disabled": 0, "fusion_lat": 0.0, "lon": -77.03198266666666}, {"is_reserved": 0, "rental_uris": {"ios": "https://dc.lft.to/lastmile_qr_scan", "android": "https://dc.lft.to/lastmile_qr_scan"}, "name": "cc31489a236f638e3a00f36575f1168a", "bike_id": "cc31489a236f638e3a00f36575f1168a", "type": "electric_scooter", "lat": 38.879696, "fusion_lon": 0.0, "is_disabled": 0, "fusion_lat": 0.0, "lon": -76.98564816666666}, {"is_reserved": 0, "rental_uris": {"ios": "https://dc.lft.to/lastmile_qr_scan", "android": "https://dc.lft.to/lastmile_qr_scan"}, "name": "71dacbb00b0876205ed50ebbf61c4d4a", "bike_id": "71dacbb00b0876205ed50ebbf61c4d4a", "type": "electric_scooter", "lat": 38.91436866666667, "fusion_lon": 0.0, "is_disabled": 0, "fusion_lat": 0.0, "lon": -77.0121035}, {"is_reserved": 0, "rental_uris": {"ios": "https://dc.lft.to/lastmile_qr_scan", "android": "https://dc.lft.to/lastmile_qr_scan"}, "name": "4b2df5e8e02c3a2b15d58903b3664d97", "bike_id": "4b2df5e8e02c3a2b15d58903b3664d97", "type": "electric_scooter", "lat": 38.9521755, "fusion_lon": 0.0, "is_disabled": 0, "fusion_lat": 0.0, "lon": -77.0026615}, {"is_reserved": 0, "rental_uris": {"ios": "https://dc.lft.to/lastmile_qr_scan", "android": "https://dc.lft.to/lastmile_qr_scan"}, "name": "55c27a396439a378d048e9d8c229416d", "bike_id": "55c27a396439a378d048e9d8c229416d", "type": "electric_scooter", "lat": 38.919796, "fusion_lon": 0.0, "is_disabled": 0, "fusion_lat": 0.0, "lon": -76.97309033333333}, {"is_reserved": 0, "rental_uris": {"ios": "https://dc.lft.to/lastmile_qr_scan", "android": "https://dc.lft.to/lastmile_qr_scan"}, "name": "1b885fd16ec3c27ea8b9b1249a66db30", "bike_id": "1b885fd16ec3c27ea8b9b1249a66db30", "type": "electric_bike", "lat": 38.96016316666667, "fusion_lon": 0.0, "is_disabled": 0, "fusion_lat": 0.0, "lon": -77.01731}, {"is_reserved": 0, "rental_uris": {"ios": "https://dc.lft.to/lastmile_qr_scan", "android": "https://dc.lft.to/lastmile_qr_scan"}, "name": "b042afd9b13971e1033f44f2c29a7aa1", "bike_id": "b042afd9b13971e1033f44f2c29a7aa1", "type": "electric_scooter", "lat": 38.953992166666666, "fusion_lon": 0.0, "is_disabled": 0, "fusion_lat": 0.0, "lon": -77.02748083333333}, {"is_reserved": 0, "rental_uris": {"ios": "https://dc.lft.to/lastmile_qr_scan", "android": "https://dc.lft.to/lastmile_qr_scan"}, "name": "8b8bc1bfb6a8a665c8e848b2d70108d5", "bike_id": "8b8bc1bfb6a8a665c8e848b2d70108d5", "type": "electric_bike", "lat": 38.87421116666667, "fusion_lon": 0.0, "is_disabled": 0, "fusion_lat": 0.0, "lon": -77.08568966666667}, {"is_reserved": 0, "rental_uris": {"ios": "https://dc.lft.to/lastmile_qr_scan", "android": "https://dc.lft.to/lastmile_qr_scan"}, "name": "9e961d48dbff4cf49240b405f343beef", "bike_id": "9e961d48dbff4cf49240b405f343beef", "type": "electric_bike", "lat": 38.90855716666667, "fusion_lon": 0.0, "is_disabled": 0, "fusion_lat": 0.0, "lon": -77.0807915}, {"is_reserved": 0, "rental_uris": {"ios": "https://dc.lft.to/lastmile_qr_scan", "android": "https://dc.lft.to/lastmile_qr_scan"}, "name": "0ee6c53ba68a301ec0059202bd71ae7f", "bike_id": "0ee6c53ba68a301ec0059202bd71ae7f", "type": "electric_scooter", "lat": 38.8842955, "fusion_lon": 0.0, "is_disabled": 0, "fusion_lat": 0.0, "lon": -76.994874}, {"is_reserved": 0, "rental_uris": {"ios": "https://dc.lft.to/lastmile_qr_scan", "android": "https://dc.lft.to/lastmile_qr_scan"}, "name": "4ef42b3478a1940b38914dddd2fa421c", "bike_id": "4ef42b3478a1940b38914dddd2fa421c", "type": "electric_scooter", "lat": 38.950714833333336, "fusion_lon": 0.0, "is_disabled": 0, "fusion_lat": 0.0, "lon": -77.008745}, {"is_reserved": 0, "rental_uris": {"ios": "https://dc.lft.to/lastmile_qr_scan", "android": "https://dc.lft.to/lastmile_qr_scan"}, "name": "7e94b931ba7ab125481195b9d9ced931", "bike_id": "7e94b931ba7ab125481195b9d9ced931", "type": "electric_scooter", "lat": 38.898059333333336, "fusion_lon": 0.0, "is_disabled": 0, "fusion_lat": 0.0, "lon": -77.02191966666666}, {"is_reserved": 0, "rental_uris": {"ios": "https://dc.lft.to/lastmile_qr_scan", "android": "https://dc.lft.to/lastmile_qr_scan"}, "name": "e431b40c7520010bbacb3ab26b2539d1", "bike_id": "e431b40c7520010bbacb3ab26b2539d1", "type": "electric_scooter", "lat": 38.9032775, "fusion_lon": 0.0, "is_disabled": 0, "fusion_lat": 0.0, "lon": -77.03457216666666}, {"is_reserved": 0, "rental_uris": {"ios": "https://dc.lft.to/lastmile_qr_scan", "android": "https://dc.lft.to/lastmile_qr_scan"}, "name": "1a95c5c8c247cf2307d9fc933777b437", "bike_id": "1a95c5c8c247cf2307d9fc933777b437", "type": "electric_scooter", "lat": 38.87231633333333, "fusion_lon": 0.0, "is_disabled": 0, "fusion_lat": 0.0, "lon": -77.017665}, {"is_reserved": 0, "rental_uris": {"ios": "https://dc.lft.to/lastmile_qr_scan", "android": "https://dc.lft.to/lastmile_qr_scan"}, "name": "447c4d1ec8e8e33726b0092312ac2dd9", "bike_id": "447c4d1ec8e8e33726b0092312ac2dd9", "type": "electric_scooter", "lat": 38.929361666666665, "fusion_lon": 0.0, "is_disabled": 0, "fusion_lat": 0.0, "lon": -77.03259783333333}, {"is_reserved": 0, "rental_uris": {"ios": "https://dc.lft.to/lastmile_qr_scan", "android": "https://dc.lft.to/lastmile_qr_scan"}, "name": "faddc4c27ea213aebf741a22d025f802", "bike_id": "faddc4c27ea213aebf741a22d025f802", "type": "electric_scooter", "lat": 38.9257885, "fusion_lon": 0.0, "is_disabled": 0, "fusion_lat": 0.0, "lon": -77.0576815}, {"is_reserved": 0, "rental_uris": {"ios": "https://dc.lft.to/lastmile_qr_scan", "android": "https://dc.lft.to/lastmile_qr_scan"}, "name": "5fed911c822f0d85e702cc36a0d2fba8", "bike_id": "5fed911c822f0d85e702cc36a0d2fba8", "type": "electric_scooter", "lat": 38.9012155, "fusion_lon": 0.0, "is_disabled": 0, "fusion_lat": 0.0, "lon": -77.01628166666667}, {"is_reserved": 0, "rental_uris": {"ios": "https://dc.lft.to/lastmile_qr_scan", "android": "https://dc.lft.to/lastmile_qr_scan"}, "name": "38e0f2cce5aec2f94b1dd110427690ca", "bike_id": "38e0f2cce5aec2f94b1dd110427690ca", "type": "electric_scooter", "lat": 38.896338, "fusion_lon": 0.0, "is_disabled": 0, "fusion_lat": 0.0, "lon": -77.02977316666667}, {"is_reserved": 0, "rental_uris": {"ios": "https://dc.lft.to/lastmile_qr_scan", "android": "https://dc.lft.to/lastmile_qr_scan"}, "name": "0a25e37ab3261534b326556ec80072d8", "bike_id": "0a25e37ab3261534b326556ec80072d8", "type": "electric_scooter", "lat": 38.88421433333333, "fusion_lon": 0.0, "is_disabled": 0, "fusion_lat": 0.0, "lon": -77.030503}, {"is_reserved": 0, "rental_uris": {"ios": "https://dc.lft.to/lastmile_qr_scan", "android": "https://dc.lft.to/lastmile_qr_scan"}, "name": "2d17f5bc56983293810b17527743477f", "bike_id": "2d17f5bc56983293810b17527743477f", "type": "electric_scooter", "lat": 38.90174366666667, "fusion_lon": 0.0, "is_disabled": 0, "fusion_lat": 0.0, "lon": -77.0000005}, {"is_reserved": 0, "rental_uris": {"ios": "https://dc.lft.to/lastmile_qr_scan", "android": "https://dc.lft.to/lastmile_qr_scan"}, "name": "b1a0636cbbbeef669775a17d1541e611", "bike_id": "b1a0636cbbbeef669775a17d1541e611", "type": "electric_scooter", "lat": 38.89272483333333, "fusion_lon": 0.0, "is_disabled": 0, "fusion_lat": 0.0, "lon": -77.02586716666667}, {"is_reserved": 0, "rental_uris": {"ios": "https://dc.lft.to/lastmile_qr_scan", "android": "https://dc.lft.to/lastmile_qr_scan"}, "name": "5dbdb6461e298d0e4c4560c4ee264ea9", "bike_id": "5dbdb6461e298d0e4c4560c4ee264ea9", "type": "electric_bike", "lat": 38.93205783333333, "fusion_lon": 0.0, "is_disabled": 0, "fusion_lat": 0.0, "lon": -76.97430466666667}, {"is_reserved": 0, "rental_uris": {"ios": "https://dc.lft.to/lastmile_qr_scan", "android": "https://dc.lft.to/lastmile_qr_scan"}, "name": "6d65c358374b9ab100d7362f2e05456c", "bike_id": "6d65c358374b9ab100d7362f2e05456c", "type": "electric_scooter", "lat": 38.923641833333335, "fusion_lon": 0.0, "is_disabled": 0, "fusion_lat": 0.0, "lon": -77.05758983333334}, {"is_reserved": 0, "rental_uris": {"ios": "https://dc.lft.to/lastmile_qr_scan", "android": "https://dc.lft.to/lastmile_qr_scan"}, "name": "4bdf62bedcdcb06bc62b85f8c22994e3", "bike_id": "4bdf62bedcdcb06bc62b85f8c22994e3", "type": "electric_scooter", "lat": 38.9046005, "fusion_lon": 0.0, "is_disabled": 0, "fusion_lat": 0.0, "lon": -77.0435875}, {"is_reserved": 0, "rental_uris": {"ios": "https://dc.lft.to/lastmile_qr_scan", "android": "https://dc.lft.to/lastmile_qr_scan"}, "name": "4398471ba6691d42f0f45180e4cd45bc", "bike_id": "4398471ba6691d42f0f45180e4cd45bc", "type": "electric_scooter", "lat": 38.9127995, "fusion_lon": 0.0, "is_disabled": 0, "fusion_lat": 0.0, "lon": -77.045093}, {"is_reserved": 0, "rental_uris": {"ios": "https://dc.lft.to/lastmile_qr_scan", "android": "https://dc.lft.to/lastmile_qr_scan"}, "name": "32f155f6bb8b58e259cd3552ba6ba759", "bike_id": "32f155f6bb8b58e259cd3552ba6ba759", "type": "electric_scooter", "lat": 38.91372233333333, "fusion_lon": 0.0, "is_disabled": 0, "fusion_lat": 0.0, "lon": -77.01997783333333}, {"is_reserved": 0, "rental_uris": {"ios": "https://dc.lft.to/lastmile_qr_scan", "android": "https://dc.lft.to/lastmile_qr_scan"}, "name": "e07a9f3b1561ae303e05b5f209d71c0a", "bike_id": "e07a9f3b1561ae303e05b5f209d71c0a", "type": "electric_scooter", "lat": 38.936652, "fusion_lon": 0.0, "is_disabled": 0, "fusion_lat": 0.0, "lon": -77.03598016666666}, {"is_reserved": 0, "rental_uris": {"ios": "https://dc.lft.to/lastmile_qr_scan", "android": "https://dc.lft.to/lastmile_qr_scan"}, "name": "7ec43ce6279c6c8f084f0ccf0fd26c8a", "bike_id": "7ec43ce6279c6c8f084f0ccf0fd26c8a", "type": "electric_scooter", "lat": 38.88481133333333, "fusion_lon": 0.0, "is_disabled": 0, "fusion_lat": 0.0, "lon": -77.03371333333334}, {"is_reserved": 0, "rental_uris": {"ios": "https://dc.lft.to/lastmile_qr_scan", "android": "https://dc.lft.to/lastmile_qr_scan"}, "name": "ebda8aeac63c46fa54e500e06ce7ffb5", "bike_id": "ebda8aeac63c46fa54e500e06ce7ffb5", "type": "electric_scooter", "lat": 38.926617666666665, "fusion_lon": 0.0, "is_disabled": 0, "fusion_lat": 0.0, "lon": -77.0559365}, {"is_reserved": 0, "rental_uris": {"ios": "https://dc.lft.to/lastmile_qr_scan", "android": "https://dc.lft.to/lastmile_qr_scan"}, "name": "071b43ddcc2eac99abb3c46a61a7a01c", "bike_id": "071b43ddcc2eac99abb3c46a61a7a01c", "type": "electric_scooter", "lat": 38.90208283333333, "fusion_lon": 0.0, "is_disabled": 0, "fusion_lat": 0.0, "lon": -76.98851366666666}, {"is_reserved": 0, "rental_uris": {"ios": "https://dc.lft.to/lastmile_qr_scan", "android": "https://dc.lft.to/lastmile_qr_scan"}, "name": "2d502b986da4c6159cb01bbe9b5a911b", "bike_id": "2d502b986da4c6159cb01bbe9b5a911b", "type": "electric_scooter", "lat": 38.924667666666664, "fusion_lon": 0.0, "is_disabled": 0, "fusion_lat": 0.0, "lon": -77.05262283333333}, {"is_reserved": 0, "rental_uris": {"ios": "https://dc.lft.to/lastmile_qr_scan", "android": "https://dc.lft.to/lastmile_qr_scan"}, "name": "112d6f0a01c37e892e7d1b52778a2ff4", "bike_id": "112d6f0a01c37e892e7d1b52778a2ff4", "type": "electric_scooter", "lat": 38.900321, "fusion_lon": 0.0, "is_disabled": 0, "fusion_lat": 0.0, "lon": -76.98908166666666}, {"is_reserved": 0, "rental_uris": {"ios": "https://dc.lft.to/lastmile_qr_scan", "android": "https://dc.lft.to/lastmile_qr_scan"}, "name": "fe9ac553a683cf378e68099f160b6ac2", "bike_id": "fe9ac553a683cf378e68099f160b6ac2", "type": "electric_scooter", "lat": 38.89548716666667, "fusion_lon": 0.0, "is_disabled": 0, "fusion_lat": 0.0, "lon": -76.93373116666666}, {"is_reserved": 0, "rental_uris": {"ios": "https://dc.lft.to/lastmile_qr_scan", "android": "https://dc.lft.to/lastmile_qr_scan"}, "name": "a195159f5f05c7d57a05386de6f45912", "bike_id": "a195159f5f05c7d57a05386de6f45912", "type": "electric_scooter", "lat": 38.8847635, "fusion_lon": 0.0, "is_disabled": 0, "fusion_lat": 0.0, "lon": -77.03368983333333}, {"is_reserved": 0, "rental_uris": {"ios": "https://dc.lft.to/lastmile_qr_scan", "android": "https://dc.lft.to/lastmile_qr_scan"}, "name": "7d761d89110d216ef771eddeca723bae", "bike_id": "7d761d89110d216ef771eddeca723bae", "type": "electric_scooter", "lat": 38.918803833333335, "fusion_lon": 0.0, "is_disabled": 0, "fusion_lat": 0.0, "lon": -77.0160655}, {"is_reserved": 0, "rental_uris": {"ios": "https://dc.lft.to/lastmile_qr_scan", "android": "https://dc.lft.to/lastmile_qr_scan"}, "name": "10aa7f89b184aa673df00a78392b2069", "bike_id": "10aa7f89b184aa673df00a78392b2069", "type": "electric_scooter", "lat": 38.896425666666666, "fusion_lon": 0.0, "is_disabled": 0, "fusion_lat": 0.0, "lon": -77.0231735}, {"is_reserved": 0, "rental_uris": {"ios": "https://dc.lft.to/lastmile_qr_scan", "android": "https://dc.lft.to/lastmile_qr_scan"}, "name": "4f9f93be700622b9c8ebf4e8b62dd316", "bike_id": "4f9f93be700622b9c8ebf4e8b62dd316", "type": "electric_scooter", "lat": 38.9032305, "fusion_lon": 0.0, "is_disabled": 0, "fusion_lat": 0.0, "lon": -77.01630533333334}, {"is_reserved": 0, "rental_uris": {"ios": "https://dc.lft.to/lastmile_qr_scan", "android": "https://dc.lft.to/lastmile_qr_scan"}, "name": "80f0b89faf47848b2c71391076fe5f7b", "bike_id": "80f0b89faf47848b2c71391076fe5f7b", "type": "electric_scooter", "lat": 38.926618833333336, "fusion_lon": 0.0, "is_disabled": 0, "fusion_lat": 0.0, "lon": -77.0372695}, {"is_reserved": 0, "rental_uris": {"ios": "https://dc.lft.to/lastmile_qr_scan", "android": "https://dc.lft.to/lastmile_qr_scan"}, "name": "47ea67e034970ed1759408350a97e2a0", "bike_id": "47ea67e034970ed1759408350a97e2a0", "type": "electric_scooter", "lat": 38.880121833333334, "fusion_lon": 0.0, "is_disabled": 0, "fusion_lat": 0.0, "lon": -76.93136266666667}, {"is_reserved": 0, "rental_uris": {"ios": "https://dc.lft.to/lastmile_qr_scan", "android": "https://dc.lft.to/lastmile_qr_scan"}, "name": "a9256151e3a99f4318927675a76bc7f7", "bike_id": "a9256151e3a99f4318927675a76bc7f7", "type": "electric_bike", "lat": 38.88064216666667, "fusion_lon": 0.0, "is_disabled": 0, "fusion_lat": 0.0, "lon": -77.0863495}, {"is_reserved": 0, "rental_uris": {"ios": "https://dc.lft.to/lastmile_qr_scan", "android": "https://dc.lft.to/lastmile_qr_scan"}, "name": "b0f9de2822915b3a2cf07ccc0eb47b93", "bike_id": "b0f9de2822915b3a2cf07ccc0eb47b93", "type": "electric_scooter", "lat": 38.892155, "fusion_lon": 0.0, "is_disabled": 0, "fusion_lat": 0.0, "lon": -77.02141133333333}, {"is_reserved": 0, "rental_uris": {"ios": "https://dc.lft.to/lastmile_qr_scan", "android": "https://dc.lft.to/lastmile_qr_scan"}, "name": "8ea6b5a6ad28d5fcab701fc818b8dd95", "bike_id": "8ea6b5a6ad28d5fcab701fc818b8dd95", "type": "electric_scooter", "lat": 38.922301166666664, "fusion_lon": 0.0, "is_disabled": 0, "fusion_lat": 0.0, "lon": -77.0438195}, {"is_reserved": 0, "rental_uris": {"ios": "https://dc.lft.to/lastmile_qr_scan", "android": "https://dc.lft.to/lastmile_qr_scan"}, "name": "43f1a60af2e9149a2c8ca47c896fd3d7", "bike_id": "43f1a60af2e9149a2c8ca47c896fd3d7", "type": "electric_scooter", "lat": 38.88497066666667, "fusion_lon": 0.0, "is_disabled": 0, "fusion_lat": 0.0, "lon": -77.0151385}, {"is_reserved": 0, "rental_uris": {"ios": "https://dc.lft.to/lastmile_qr_scan", "android": "https://dc.lft.to/lastmile_qr_scan"}, "name": "af8ffd0355ffa2777d4ea41122e70f2a", "bike_id": "af8ffd0355ffa2777d4ea41122e70f2a", "type": "electric_bike", "lat": 38.84931866666667, "fusion_lon": 0.0, "is_disabled": 0, "fusion_lat": 0.0, "lon": -77.100183}, {"is_reserved": 0, "rental_uris": {"ios": "https://dc.lft.to/lastmile_qr_scan", "android": "https://dc.lft.to/lastmile_qr_scan"}, "name": "f3353c9c14a224c6dfcdd80d8cd21084", "bike_id": "f3353c9c14a224c6dfcdd80d8cd21084", "type": "electric_scooter", "lat": 38.93088433333333, "fusion_lon": 0.0, "is_disabled": 0, "fusion_lat": 0.0, "lon": -77.0375}, {"is_reserved": 0, "rental_uris": {"ios": "https://dc.lft.to/lastmile_qr_scan", "android": "https://dc.lft.to/lastmile_qr_scan"}, "name": "d55b196ac1a1dfe694075657904c349e", "bike_id": "d55b196ac1a1dfe694075657904c349e", "type": "electric_scooter", "lat": 38.909437, "fusion_lon": 0.0, "is_disabled": 0, "fusion_lat": 0.0, "lon": -77.04826183333333}, {"is_reserved": 0, "rental_uris": {"ios": "https://dc.lft.to/lastmile_qr_scan", "android": "https://dc.lft.to/lastmile_qr_scan"}, "name": "c07d5046317a78c709e11439b41a18ca", "bike_id": "c07d5046317a78c709e11439b41a18ca", "type": "electric_scooter", "lat": 38.9055875, "fusion_lon": 0.0, "is_disabled": 0, "fusion_lat": 0.0, "lon": -77.03822216666667}, {"is_reserved": 0, "rental_uris": {"ios": "https://dc.lft.to/lastmile_qr_scan", "android": "https://dc.lft.to/lastmile_qr_scan"}, "name": "d2b3ecf4a2e2ccf1b03b1e3bc80d3a0b", "bike_id": "d2b3ecf4a2e2ccf1b03b1e3bc80d3a0b", "type": "electric_scooter", "lat": 38.923859, "fusion_lon": 0.0, "is_disabled": 0, "fusion_lat": 0.0, "lon": -77.04073066666666}, {"is_reserved": 0, "rental_uris": {"ios": "https://dc.lft.to/lastmile_qr_scan", "android": "https://dc.lft.to/lastmile_qr_scan"}, "name": "ce0b8c66a0101cabe3b9272985eb669a", "bike_id": "ce0b8c66a0101cabe3b9272985eb669a", "type": "electric_scooter", "lat": 38.921306333333334, "fusion_lon": 0.0, "is_disabled": 0, "fusion_lat": 0.0, "lon": -77.01808583333333}, {"is_reserved": 0, "rental_uris": {"ios": "https://dc.lft.to/lastmile_qr_scan", "android": "https://dc.lft.to/lastmile_qr_scan"}, "name": "99cf078e386fb0fffa5301ead951ff36", "bike_id": "99cf078e386fb0fffa5301ead951ff36", "type": "electric_scooter", "lat": 38.921814166666664, "fusion_lon": 0.0, "is_disabled": 0, "fusion_lat": 0.0, "lon": -77.02414283333333}, {"is_reserved": 0, "rental_uris": {"ios": "https://dc.lft.to/lastmile_qr_scan", "android": "https://dc.lft.to/lastmile_qr_scan"}, "name": "22e93e717e4fd8c6f99b047ae618b759", "bike_id": "22e93e717e4fd8c6f99b047ae618b759", "type": "electric_scooter", "lat": 38.866172166666665, "fusion_lon": 0.0, "is_disabled": 0, "fusion_lat": 0.0, "lon": -76.98699033333334}, {"is_reserved": 0, "rental_uris": {"ios": "https://dc.lft.to/lastmile_qr_scan", "android": "https://dc.lft.to/lastmile_qr_scan"}, "name": "d245d03af58ec958923ea7ef5eaee2c1", "bike_id": "d245d03af58ec958923ea7ef5eaee2c1", "type": "electric_scooter", "lat": 38.91114783333333, "fusion_lon": 0.0, "is_disabled": 0, "fusion_lat": 0.0, "lon": -77.04455166666666}, {"is_reserved": 0, "rental_uris": {"ios": "https://dc.lft.to/lastmile_qr_scan", "android": "https://dc.lft.to/lastmile_qr_scan"}, "name": "1a4fe145726f9e984fd3adfc7a4f4fdd", "bike_id": "1a4fe145726f9e984fd3adfc7a4f4fdd", "type": "electric_scooter", "lat": 38.909628, "fusion_lon": 0.0, "is_disabled": 0, "fusion_lat": 0.0, "lon": -76.98442066666667}, {"is_reserved": 0, "rental_uris": {"ios": "https://dc.lft.to/lastmile_qr_scan", "android": "https://dc.lft.to/lastmile_qr_scan"}, "name": "72eafce268cf5e6e71a777eb42dd93ba", "bike_id": "72eafce268cf5e6e71a777eb42dd93ba", "type": "electric_scooter", "lat": 38.91885716666667, "fusion_lon": 0.0, "is_disabled": 0, "fusion_lat": 0.0, "lon": -77.029701}, {"is_reserved": 0, "rental_uris": {"ios": "https://dc.lft.to/lastmile_qr_scan", "android": "https://dc.lft.to/lastmile_qr_scan"}, "name": "befa291a37ff03be72cb9eb729694dbe", "bike_id": "befa291a37ff03be72cb9eb729694dbe", "type": "electric_scooter", "lat": 38.843018666666666, "fusion_lon": 0.0, "is_disabled": 0, "fusion_lat": 0.0, "lon": -76.99949533333333}, {"is_reserved": 0, "rental_uris": {"ios": "https://dc.lft.to/lastmile_qr_scan", "android": "https://dc.lft.to/lastmile_qr_scan"}, "name": "136f09af7747cb0d09fda85068a1fd2a", "bike_id": "136f09af7747cb0d09fda85068a1fd2a", "type": "electric_bike", "lat": 38.95258883333333, "fusion_lon": 0.0, "is_disabled": 0, "fusion_lat": 0.0, "lon": -77.00196683333333}, {"is_reserved": 0, "rental_uris": {"ios": "https://dc.lft.to/lastmile_qr_scan", "android": "https://dc.lft.to/lastmile_qr_scan"}, "name": "40f83a34a67d029d41fa50067ea02733", "bike_id": "40f83a34a67d029d41fa50067ea02733", "type": "electric_scooter", "lat": 38.89371166666667, "fusion_lon": 0.0, "is_disabled": 0, "fusion_lat": 0.0, "lon": -76.95001133333334}, {"is_reserved": 0, "rental_uris": {"ios": "https://dc.lft.to/lastmile_qr_scan", "android": "https://dc.lft.to/lastmile_qr_scan"}, "name": "2477538f32e851a701fdd52500eaa954", "bike_id": "2477538f32e851a701fdd52500eaa954", "type": "electric_bike", "lat": 38.842737, "fusion_lon": 0.0, "is_disabled": 0, "fusion_lat": 0.0, "lon": -76.98844533333333}, {"is_reserved": 0, "rental_uris": {"ios": "https://dc.lft.to/lastmile_qr_scan", "android": "https://dc.lft.to/lastmile_qr_scan"}, "name": "3637e53b10f4d36a1e452fa6d18287b2", "bike_id": "3637e53b10f4d36a1e452fa6d18287b2", "type": "electric_scooter", "lat": 38.916414333333336, "fusion_lon": 0.0, "is_disabled": 0, "fusion_lat": 0.0, "lon": -77.0322345}, {"is_reserved": 0, "rental_uris": {"ios": "https://dc.lft.to/lastmile_qr_scan", "android": "https://dc.lft.to/lastmile_qr_scan"}, "name": "3de04bfb5481f4d128c114d5dcb81792", "bike_id": "3de04bfb5481f4d128c114d5dcb81792", "type": "electric_scooter", "lat": 38.901429, "fusion_lon": 0.0, "is_disabled": 0, "fusion_lat": 0.0, "lon": -77.018129}, {"is_reserved": 0, "rental_uris": {"ios": "https://dc.lft.to/lastmile_qr_scan", "android": "https://dc.lft.to/lastmile_qr_scan"}, "name": "c198eafd81acc1ddfc7fe62b7716fbe9", "bike_id": "c198eafd81acc1ddfc7fe62b7716fbe9", "type": "electric_scooter", "lat": 38.920700333333336, "fusion_lon": 0.0, "is_disabled": 0, "fusion_lat": 0.0, "lon": -77.02316333333333}, {"is_reserved": 0, "rental_uris": {"ios": "https://dc.lft.to/lastmile_qr_scan", "android": "https://dc.lft.to/lastmile_qr_scan"}, "name": "4ebcc12acdb3cfc97eadd175aed86446", "bike_id": "4ebcc12acdb3cfc97eadd175aed86446", "type": "electric_scooter", "lat": 38.90503733333333, "fusion_lon": 0.0, "is_disabled": 0, "fusion_lat": 0.0, "lon": -77.05144883333334}, {"is_reserved": 0, "rental_uris": {"ios": "https://dc.lft.to/lastmile_qr_scan", "android": "https://dc.lft.to/lastmile_qr_scan"}, "name": "03bdbc26b33d42ff67a8073ecee476d0", "bike_id": "03bdbc26b33d42ff67a8073ecee476d0", "type": "electric_scooter", "lat": 38.92060983333333, "fusion_lon": 0.0, "is_disabled": 0, "fusion_lat": 0.0, "lon": -77.04278433333333}, {"is_reserved": 0, "rental_uris": {"ios": "https://dc.lft.to/lastmile_qr_scan", "android": "https://dc.lft.to/lastmile_qr_scan"}, "name": "c47f967ae1588a470806532fbf66a237", "bike_id": "c47f967ae1588a470806532fbf66a237", "type": "electric_scooter", "lat": 38.9171495, "fusion_lon": 0.0, "is_disabled": 0, "fusion_lat": 0.0, "lon": -77.02959183333333}, {"is_reserved": 0, "rental_uris": {"ios": "https://dc.lft.to/lastmile_qr_scan", "android": "https://dc.lft.to/lastmile_qr_scan"}, "name": "4d09dfc6c8ccf113818bb0cfba573a0b", "bike_id": "4d09dfc6c8ccf113818bb0cfba573a0b", "type": "electric_scooter", "lat": 38.93007633333333, "fusion_lon": 0.0, "is_disabled": 0, "fusion_lat": 0.0, "lon": -77.05528083333333}, {"is_reserved": 0, "rental_uris": {"ios": "https://dc.lft.to/lastmile_qr_scan", "android": "https://dc.lft.to/lastmile_qr_scan"}, "name": "ee07334eefe11cf4244aa807644a50b0", "bike_id": "ee07334eefe11cf4244aa807644a50b0", "type": "electric_scooter", "lat": 38.91810916666667, "fusion_lon": 0.0, "is_disabled": 0, "fusion_lat": 0.0, "lon": -77.02783116666667}, {"is_reserved": 0, "rental_uris": {"ios": "https://dc.lft.to/lastmile_qr_scan", "android": "https://dc.lft.to/lastmile_qr_scan"}, "name": "51a1c6f0b976cebead800292fbaca4ea", "bike_id": "51a1c6f0b976cebead800292fbaca4ea", "type": "electric_scooter", "lat": 38.918041, "fusion_lon": 0.0, "is_disabled": 0, "fusion_lat": 0.0, "lon": -77.03182566666666}, {"is_reserved": 0, "rental_uris": {"ios": "https://dc.lft.to/lastmile_qr_scan", "android": "https://dc.lft.to/lastmile_qr_scan"}, "name": "29110232bc4e7f5f9ce3ff1f6fc4e655", "bike_id": "29110232bc4e7f5f9ce3ff1f6fc4e655", "type": "electric_bike", "lat": 38.93250533333333, "fusion_lon": 0.0, "is_disabled": 0, "fusion_lat": 0.0, "lon": -76.99644}, {"is_reserved": 0, "rental_uris": {"ios": "https://dc.lft.to/lastmile_qr_scan", "android": "https://dc.lft.to/lastmile_qr_scan"}, "name": "8869e6c7369b601527cfa5adaa82afe9", "bike_id": "8869e6c7369b601527cfa5adaa82afe9", "type": "electric_scooter", "lat": 38.90255583333333, "fusion_lon": 0.0, "is_disabled": 0, "fusion_lat": 0.0, "lon": -77.03475566666667}, {"is_reserved": 0, "rental_uris": {"ios": "https://dc.lft.to/lastmile_qr_scan", "android": "https://dc.lft.to/lastmile_qr_scan"}, "name": "2f633d4de280dcf212976bc9508d50eb", "bike_id": "2f633d4de280dcf212976bc9508d50eb", "type": "electric_scooter", "lat": 38.91340133333333, "fusion_lon": 0.0, "is_disabled": 0, "fusion_lat": 0.0, "lon": -77.01065233333334}, {"is_reserved": 0, "rental_uris": {"ios": "https://dc.lft.to/lastmile_qr_scan", "android": "https://dc.lft.to/lastmile_qr_scan"}, "name": "2ab7c8e721262bcf442e63f59047502f", "bike_id": "2ab7c8e721262bcf442e63f59047502f", "type": "electric_bike", "lat": 38.88026716666667, "fusion_lon": 0.0, "is_disabled": 0, "fusion_lat": 0.0, "lon": -77.00566916666666}, {"is_reserved": 0, "rental_uris": {"ios": "https://dc.lft.to/lastmile_qr_scan", "android": "https://dc.lft.to/lastmile_qr_scan"}, "name": "55238c1d761d73d75257955243837071", "bike_id": "55238c1d761d73d75257955243837071", "type": "electric_scooter", "lat": 38.9463005, "fusion_lon": 0.0, "is_disabled": 0, "fusion_lat": 0.0, "lon": -77.02526883333333}, {"is_reserved": 0, "rental_uris": {"ios": "https://dc.lft.to/lastmile_qr_scan", "android": "https://dc.lft.to/lastmile_qr_scan"}, "name": "cef97f15ed9db9ee8843cb3282920c58", "bike_id": "cef97f15ed9db9ee8843cb3282920c58", "type": "electric_scooter", "lat": 38.874654, "fusion_lon": 0.0, "is_disabled": 0, "fusion_lat": 0.0, "lon": -77.00122366666666}, {"is_reserved": 0, "rental_uris": {"ios": "https://dc.lft.to/lastmile_qr_scan", "android": "https://dc.lft.to/lastmile_qr_scan"}, "name": "e1ec7c6b8bb75d3d4cffe4ee33c259e4", "bike_id": "e1ec7c6b8bb75d3d4cffe4ee33c259e4", "type": "electric_scooter", "lat": 38.92148, "fusion_lon": 0.0, "is_disabled": 0, "fusion_lat": 0.0, "lon": -77.04238966666666}, {"is_reserved": 0, "rental_uris": {"ios": "https://dc.lft.to/lastmile_qr_scan", "android": "https://dc.lft.to/lastmile_qr_scan"}, "name": "cdea8cd73072c46b8d271c13942543b1", "bike_id": "cdea8cd73072c46b8d271c13942543b1", "type": "electric_scooter", "lat": 38.89992516666667, "fusion_lon": 0.0, "is_disabled": 0, "fusion_lat": 0.0, "lon": -77.04037733333334}, {"is_reserved": 0, "rental_uris": {"ios": "https://dc.lft.to/lastmile_qr_scan", "android": "https://dc.lft.to/lastmile_qr_scan"}, "name": "2ee705d3b48274ecfc6f4d70bb9f994c", "bike_id": "2ee705d3b48274ecfc6f4d70bb9f994c", "type": "electric_scooter", "lat": 38.89221233333333, "fusion_lon": 0.0, "is_disabled": 0, "fusion_lat": 0.0, "lon": -77.03220983333334}, {"is_reserved": 0, "rental_uris": {"ios": "https://dc.lft.to/lastmile_qr_scan", "android": "https://dc.lft.to/lastmile_qr_scan"}, "name": "6f8707e4556f2782d5df886d9dabcae6", "bike_id": "6f8707e4556f2782d5df886d9dabcae6", "type": "electric_scooter", "lat": 38.93596333333333, "fusion_lon": 0.0, "is_disabled": 0, "fusion_lat": 0.0, "lon": -77.05737966666666}, {"is_reserved": 0, "rental_uris": {"ios": "https://dc.lft.to/lastmile_qr_scan", "android": "https://dc.lft.to/lastmile_qr_scan"}, "name": "2eb5c75f45b8b5ba54917d253ab19bba", "bike_id": "2eb5c75f45b8b5ba54917d253ab19bba", "type": "electric_scooter", "lat": 38.92226483333334, "fusion_lon": 0.0, "is_disabled": 0, "fusion_lat": 0.0, "lon": -77.03351}, {"is_reserved": 0, "rental_uris": {"ios": "https://dc.lft.to/lastmile_qr_scan", "android": "https://dc.lft.to/lastmile_qr_scan"}, "name": "a43a95ee16881658b95f55df07ece7ab", "bike_id": "a43a95ee16881658b95f55df07ece7ab", "type": "electric_scooter", "lat": 38.91759166666667, "fusion_lon": 0.0, "is_disabled": 0, "fusion_lat": 0.0, "lon": -77.01602183333334}, {"is_reserved": 0, "rental_uris": {"ios": "https://dc.lft.to/lastmile_qr_scan", "android": "https://dc.lft.to/lastmile_qr_scan"}, "name": "858f19b9a8c6b35fba8128c30cf07528", "bike_id": "858f19b9a8c6b35fba8128c30cf07528", "type": "electric_scooter", "lat": 38.937712, "fusion_lon": 0.0, "is_disabled": 0, "fusion_lat": 0.0, "lon": -77.02255633333333}, {"is_reserved": 0, "rental_uris": {"ios": "https://dc.lft.to/lastmile_qr_scan", "android": "https://dc.lft.to/lastmile_qr_scan"}, "name": "da82b2a595a00823be1a6b4f9a74fdc0", "bike_id": "da82b2a595a00823be1a6b4f9a74fdc0", "type": "electric_scooter", "lat": 38.92111233333333, "fusion_lon": 0.0, "is_disabled": 0, "fusion_lat": 0.0, "lon": -77.042225}, {"is_reserved": 0, "rental_uris": {"ios": "https://dc.lft.to/lastmile_qr_scan", "android": "https://dc.lft.to/lastmile_qr_scan"}, "name": "bca96544efa3b0c8cbd1bc9e1b123dbb", "bike_id": "bca96544efa3b0c8cbd1bc9e1b123dbb", "type": "electric_scooter", "lat": 38.93424483333333, "fusion_lon": 0.0, "is_disabled": 0, "fusion_lat": 0.0, "lon": -77.0285305}, {"is_reserved": 0, "rental_uris": {"ios": "https://dc.lft.to/lastmile_qr_scan", "android": "https://dc.lft.to/lastmile_qr_scan"}, "name": "79e6816ee6781516456e602e32e0a5ad", "bike_id": "79e6816ee6781516456e602e32e0a5ad", "type": "electric_scooter", "lat": 38.90643083333333, "fusion_lon": 0.0, "is_disabled": 0, "fusion_lat": 0.0, "lon": -77.01141916666667}, {"is_reserved": 0, "rental_uris": {"ios": "https://dc.lft.to/lastmile_qr_scan", "android": "https://dc.lft.to/lastmile_qr_scan"}, "name": "0181d6b4475cc02ea3f67c7e90c393dc", "bike_id": "0181d6b4475cc02ea3f67c7e90c393dc", "type": "electric_scooter", "lat": 38.887043, "fusion_lon": 0.0, "is_disabled": 0, "fusion_lat": 0.0, "lon": -77.02827983333333}, {"is_reserved": 0, "rental_uris": {"ios": "https://dc.lft.to/lastmile_qr_scan", "android": "https://dc.lft.to/lastmile_qr_scan"}, "name": "d1f936f39e6ad489e9090a5542d9066b", "bike_id": "d1f936f39e6ad489e9090a5542d9066b", "type": "electric_scooter", "lat": 38.89221516666667, "fusion_lon": 0.0, "is_disabled": 0, "fusion_lat": 0.0, "lon": -77.0486345}, {"is_reserved": 0, "rental_uris": {"ios": "https://dc.lft.to/lastmile_qr_scan", "android": "https://dc.lft.to/lastmile_qr_scan"}, "name": "6c76786f1da5420dab6ad06b05ae16cc", "bike_id": "6c76786f1da5420dab6ad06b05ae16cc", "type": "electric_scooter", "lat": 38.925969, "fusion_lon": 0.0, "is_disabled": 0, "fusion_lat": 0.0, "lon": -77.056995}, {"is_reserved": 0, "rental_uris": {"ios": "https://dc.lft.to/lastmile_qr_scan", "android": "https://dc.lft.to/lastmile_qr_scan"}, "name": "bbac45aebe998855533c10a05d267636", "bike_id": "bbac45aebe998855533c10a05d267636", "type": "electric_scooter", "lat": 38.886741, "fusion_lon": 0.0, "is_disabled": 0, "fusion_lat": 0.0, "lon": -77.00215266666666}, {"is_reserved": 0, "rental_uris": {"ios": "https://dc.lft.to/lastmile_qr_scan", "android": "https://dc.lft.to/lastmile_qr_scan"}, "name": "1287411534b0136cfe88f7293072752d", "bike_id": "1287411534b0136cfe88f7293072752d", "type": "electric_bike", "lat": 38.854191, "fusion_lon": 0.0, "is_disabled": 0, "fusion_lat": 0.0, "lon": -76.90962333333333}, {"is_reserved": 0, "rental_uris": {"ios": "https://dc.lft.to/lastmile_qr_scan", "android": "https://dc.lft.to/lastmile_qr_scan"}, "name": "d1ef4577d30e3a5e1594bfbe09f68ff4", "bike_id": "d1ef4577d30e3a5e1594bfbe09f68ff4", "type": "electric_scooter", "lat": 38.884433666666666, "fusion_lon": 0.0, "is_disabled": 0, "fusion_lat": 0.0, "lon": -76.99506466666666}, {"is_reserved": 0, "rental_uris": {"ios": "https://dc.lft.to/lastmile_qr_scan", "android": "https://dc.lft.to/lastmile_qr_scan"}, "name": "ea434962f8c84a58e3e10f82b489fc6c", "bike_id": "ea434962f8c84a58e3e10f82b489fc6c", "type": "electric_scooter", "lat": 38.844250333333335, "fusion_lon": 0.0, "is_disabled": 0, "fusion_lat": 0.0, "lon": -76.9977745}, {"is_reserved": 0, "rental_uris": {"ios": "https://dc.lft.to/lastmile_qr_scan", "android": "https://dc.lft.to/lastmile_qr_scan"}, "name": "92d7b49f1a15bf119bcb7ceb6e2df382", "bike_id": "92d7b49f1a15bf119bcb7ceb6e2df382", "type": "electric_bike", "lat": 38.810423666666665, "fusion_lon": 0.0, "is_disabled": 0, "fusion_lat": 0.0, "lon": -77.08517333333333}, {"is_reserved": 0, "rental_uris": {"ios": "https://dc.lft.to/lastmile_qr_scan", "android": "https://dc.lft.to/lastmile_qr_scan"}, "name": "7282e03262c3d601bb6bf210f90b56b8", "bike_id": "7282e03262c3d601bb6bf210f90b56b8", "type": "electric_scooter", "lat": 38.923821333333336, "fusion_lon": 0.0, "is_disabled": 0, "fusion_lat": 0.0, "lon": -77.02760383333333}, {"is_reserved": 0, "rental_uris": {"ios": "https://dc.lft.to/lastmile_qr_scan", "android": "https://dc.lft.to/lastmile_qr_scan"}, "name": "b9f9f485b21520969941ad01015a2276", "bike_id": "b9f9f485b21520969941ad01015a2276", "type": "electric_scooter", "lat": 38.91552433333333, "fusion_lon": 0.0, "is_disabled": 0, "fusion_lat": 0.0, "lon": -77.00980433333334}, {"is_reserved": 0, "rental_uris": {"ios": "https://dc.lft.to/lastmile_qr_scan", "android": "https://dc.lft.to/lastmile_qr_scan"}, "name": "661cdad8463470c6cdd3db4c4a6b95af", "bike_id": "661cdad8463470c6cdd3db4c4a6b95af", "type": "electric_scooter", "lat": 38.90944833333333, "fusion_lon": 0.0, "is_disabled": 0, "fusion_lat": 0.0, "lon": -77.04663533333333}, {"is_reserved": 0, "rental_uris": {"ios": "https://dc.lft.to/lastmile_qr_scan", "android": "https://dc.lft.to/lastmile_qr_scan"}, "name": "659b86d209ca787381d44459f899e065", "bike_id": "659b86d209ca787381d44459f899e065", "type": "electric_scooter", "lat": 38.90397266666667, "fusion_lon": 0.0, "is_disabled": 0, "fusion_lat": 0.0, "lon": -77.05332683333333}, {"is_reserved": 0, "rental_uris": {"ios": "https://dc.lft.to/lastmile_qr_scan", "android": "https://dc.lft.to/lastmile_qr_scan"}, "name": "2a66c75a22d0bf35600377d7e7faff0b", "bike_id": "2a66c75a22d0bf35600377d7e7faff0b", "type": "electric_scooter", "lat": 38.900605166666665, "fusion_lon": 0.0, "is_disabled": 0, "fusion_lat": 0.0, "lon": -77.0281775}, {"is_reserved": 0, "rental_uris": {"ios": "https://dc.lft.to/lastmile_qr_scan", "android": "https://dc.lft.to/lastmile_qr_scan"}, "name": "f997845e7b8a62bf4961fb1879b46618", "bike_id": "f997845e7b8a62bf4961fb1879b46618", "type": "electric_scooter", "lat": 38.924943166666665, "fusion_lon": 0.0, "is_disabled": 0, "fusion_lat": 0.0, "lon": -77.00892}, {"is_reserved": 0, "rental_uris": {"ios": "https://dc.lft.to/lastmile_qr_scan", "android": "https://dc.lft.to/lastmile_qr_scan"}, "name": "4338dbcec9605e34855bbeeb112e0326", "bike_id": "4338dbcec9605e34855bbeeb112e0326", "type": "electric_scooter", "lat": 38.8808525, "fusion_lon": 0.0, "is_disabled": 0, "fusion_lat": 0.0, "lon": -76.9272765}, {"is_reserved": 0, "rental_uris": {"ios": "https://dc.lft.to/lastmile_qr_scan", "android": "https://dc.lft.to/lastmile_qr_scan"}, "name": "1b94ca5952b2969ef3675dd219b1ce81", "bike_id": "1b94ca5952b2969ef3675dd219b1ce81", "type": "electric_scooter", "lat": 38.9170975, "fusion_lon": 0.0, "is_disabled": 0, "fusion_lat": 0.0, "lon": -77.0251245}, {"is_reserved": 0, "rental_uris": {"ios": "https://dc.lft.to/lastmile_qr_scan", "android": "https://dc.lft.to/lastmile_qr_scan"}, "name": "d33beb43d8734bec5539fac9f624b8c8", "bike_id": "d33beb43d8734bec5539fac9f624b8c8", "type": "electric_scooter", "lat": 38.893747, "fusion_lon": 0.0, "is_disabled": 0, "fusion_lat": 0.0, "lon": -76.94993583333333}, {"is_reserved": 0, "rental_uris": {"ios": "https://dc.lft.to/lastmile_qr_scan", "android": "https://dc.lft.to/lastmile_qr_scan"}, "name": "51a031aa1ce3160045aada0958b95428", "bike_id": "51a031aa1ce3160045aada0958b95428", "type": "electric_scooter", "lat": 38.9206165, "fusion_lon": 0.0, "is_disabled": 0, "fusion_lat": 0.0, "lon": -77.023731}, {"is_reserved": 0, "rental_uris": {"ios": "https://dc.lft.to/lastmile_qr_scan", "android": "https://dc.lft.to/lastmile_qr_scan"}, "name": "dcd00a7933b9fe94445f9d30e5d4b17f", "bike_id": "dcd00a7933b9fe94445f9d30e5d4b17f", "type": "electric_scooter", "lat": 38.90101266666667, "fusion_lon": 0.0, "is_disabled": 0, "fusion_lat": 0.0, "lon": -77.01362916666666}, {"is_reserved": 0, "rental_uris": {"ios": "https://dc.lft.to/lastmile_qr_scan", "android": "https://dc.lft.to/lastmile_qr_scan"}, "name": "43258ee9ba6a62e6e1186bf21b726a9b", "bike_id": "43258ee9ba6a62e6e1186bf21b726a9b", "type": "electric_scooter", "lat": 38.873821, "fusion_lon": 0.0, "is_disabled": 0, "fusion_lat": 0.0, "lon": -77.00092516666666}, {"is_reserved": 0, "rental_uris": {"ios": "https://dc.lft.to/lastmile_qr_scan", "android": "https://dc.lft.to/lastmile_qr_scan"}, "name": "1c02b57c21e99be20fe36aa748f05864", "bike_id": "1c02b57c21e99be20fe36aa748f05864", "type": "electric_scooter", "lat": 38.8962265, "fusion_lon": 0.0, "is_disabled": 0, "fusion_lat": 0.0, "lon": -76.998445}, {"is_reserved": 0, "rental_uris": {"ios": "https://dc.lft.to/lastmile_qr_scan", "android": "https://dc.lft.to/lastmile_qr_scan"}, "name": "b38dee0513c6bf8b9717f19887950b2d", "bike_id": "b38dee0513c6bf8b9717f19887950b2d", "type": "electric_bike", "lat": 39.0341565, "fusion_lon": 0.0, "is_disabled": 0, "fusion_lat": 0.0, "lon": -77.04216066666666}, {"is_reserved": 0, "rental_uris": {"ios": "https://dc.lft.to/lastmile_qr_scan", "android": "https://dc.lft.to/lastmile_qr_scan"}, "name": "8230e447faabec7f8632c2710a7c9253", "bike_id": "8230e447faabec7f8632c2710a7c9253", "type": "electric_scooter", "lat": 38.902973, "fusion_lon": 0.0, "is_disabled": 0, "fusion_lat": 0.0, "lon": -77.02048716666667}, {"is_reserved": 0, "rental_uris": {"ios": "https://dc.lft.to/lastmile_qr_scan", "android": "https://dc.lft.to/lastmile_qr_scan"}, "name": "0f5fc51fa453d18e9a995a39b16ab742", "bike_id": "0f5fc51fa453d18e9a995a39b16ab742", "type": "electric_scooter", "lat": 38.876277333333334, "fusion_lon": 0.0, "is_disabled": 0, "fusion_lat": 0.0, "lon": -76.96527166666667}, {"is_reserved": 0, "rental_uris": {"ios": "https://dc.lft.to/lastmile_qr_scan", "android": "https://dc.lft.to/lastmile_qr_scan"}, "name": "5b0a0c4a1f0e30a950a66873be2e472b", "bike_id": "5b0a0c4a1f0e30a950a66873be2e472b", "type": "electric_scooter", "lat": 38.921837833333335, "fusion_lon": 0.0, "is_disabled": 0, "fusion_lat": 0.0, "lon": -77.03207766666667}, {"is_reserved": 0, "rental_uris": {"ios": "https://dc.lft.to/lastmile_qr_scan", "android": "https://dc.lft.to/lastmile_qr_scan"}, "name": "c5ff14a5574698ce3f48c829b8f154e3", "bike_id": "c5ff14a5574698ce3f48c829b8f154e3", "type": "electric_scooter", "lat": 38.919138, "fusion_lon": 0.0, "is_disabled": 0, "fusion_lat": 0.0, "lon": -77.025218}, {"is_reserved": 0, "rental_uris": {"ios": "https://dc.lft.to/lastmile_qr_scan", "android": "https://dc.lft.to/lastmile_qr_scan"}, "name": "8b2f41db764e665f6e0b321ab38bc629", "bike_id": "8b2f41db764e665f6e0b321ab38bc629", "type": "electric_scooter", "lat": 38.905154, "fusion_lon": 0.0, "is_disabled": 0, "fusion_lat": 0.0, "lon": -77.0476975}, {"is_reserved": 0, "rental_uris": {"ios": "https://dc.lft.to/lastmile_qr_scan", "android": "https://dc.lft.to/lastmile_qr_scan"}, "name": "8d26ece14982d88a47b22fb0dd39270d", "bike_id": "8d26ece14982d88a47b22fb0dd39270d", "type": "electric_scooter", "lat": 38.910184, "fusion_lon": 0.0, "is_disabled": 0, "fusion_lat": 0.0, "lon": -77.03457516666667}, {"is_reserved": 0, "rental_uris": {"ios": "https://dc.lft.to/lastmile_qr_scan", "android": "https://dc.lft.to/lastmile_qr_scan"}, "name": "de04e3a8045b33518cf1d4f08f2819bd", "bike_id": "de04e3a8045b33518cf1d4f08f2819bd", "type": "electric_scooter", "lat": 38.939122166666664, "fusion_lon": 0.0, "is_disabled": 0, "fusion_lat": 0.0, "lon": -77.02472233333333}, {"is_reserved": 0, "rental_uris": {"ios": "https://dc.lft.to/lastmile_qr_scan", "android": "https://dc.lft.to/lastmile_qr_scan"}, "name": "6061dfa9ac4ece49ca1d32e8ca644267", "bike_id": "6061dfa9ac4ece49ca1d32e8ca644267", "type": "electric_scooter", "lat": 38.893216833333334, "fusion_lon": 0.0, "is_disabled": 0, "fusion_lat": 0.0, "lon": -76.92992783333334}, {"is_reserved": 0, "rental_uris": {"ios": "https://dc.lft.to/lastmile_qr_scan", "android": "https://dc.lft.to/lastmile_qr_scan"}, "name": "fdf716c772cabced7ef53f876c31c8e1", "bike_id": "fdf716c772cabced7ef53f876c31c8e1", "type": "electric_scooter", "lat": 38.92364, "fusion_lon": 0.0, "is_disabled": 0, "fusion_lat": 0.0, "lon": -77.04129083333333}, {"is_reserved": 0, "rental_uris": {"ios": "https://dc.lft.to/lastmile_qr_scan", "android": "https://dc.lft.to/lastmile_qr_scan"}, "name": "53aeb3e3eb371b8ad1199bc76ab5e19b", "bike_id": "53aeb3e3eb371b8ad1199bc76ab5e19b", "type": "electric_scooter", "lat": 38.90107183333333, "fusion_lon": 0.0, "is_disabled": 0, "fusion_lat": 0.0, "lon": -77.02893683333333}, {"is_reserved": 0, "rental_uris": {"ios": "https://dc.lft.to/lastmile_qr_scan", "android": "https://dc.lft.to/lastmile_qr_scan"}, "name": "2ec6886791c18ba0a230981e8c8bca43", "bike_id": "2ec6886791c18ba0a230981e8c8bca43", "type": "electric_scooter", "lat": 38.885101, "fusion_lon": 0.0, "is_disabled": 0, "fusion_lat": 0.0, "lon": -77.005703}, {"is_reserved": 0, "rental_uris": {"ios": "https://dc.lft.to/lastmile_qr_scan", "android": "https://dc.lft.to/lastmile_qr_scan"}, "name": "a8e326eb9c36f3fd7518198375fa5265", "bike_id": "a8e326eb9c36f3fd7518198375fa5265", "type": "electric_scooter", "lat": 38.89817016666667, "fusion_lon": 0.0, "is_disabled": 0, "fusion_lat": 0.0, "lon": -76.99696616666667}, {"is_reserved": 0, "rental_uris": {"ios": "https://dc.lft.to/lastmile_qr_scan", "android": "https://dc.lft.to/lastmile_qr_scan"}, "name": "53c1d317933c49afbf567a0e6ed9e5ba", "bike_id": "53c1d317933c49afbf567a0e6ed9e5ba", "type": "electric_bike", "lat": 39.056349, "fusion_lon": 0.0, "is_disabled": 0, "fusion_lat": 0.0, "lon": -77.1252965}, {"is_reserved": 0, "rental_uris": {"ios": "https://dc.lft.to/lastmile_qr_scan", "android": "https://dc.lft.to/lastmile_qr_scan"}, "name": "6f14e7d75ea804c8f26d907f47ddaed5", "bike_id": "6f14e7d75ea804c8f26d907f47ddaed5", "type": "electric_scooter", "lat": 38.914017333333334, "fusion_lon": 0.0, "is_disabled": 0, "fusion_lat": 0.0, "lon": -77.03903033333333}, {"is_reserved": 0, "rental_uris": {"ios": "https://dc.lft.to/lastmile_qr_scan", "android": "https://dc.lft.to/lastmile_qr_scan"}, "name": "5d2f3ab53fd977eb0e9a081f2a79e94d", "bike_id": "5d2f3ab53fd977eb0e9a081f2a79e94d", "type": "electric_scooter", "lat": 38.9077425, "fusion_lon": 0.0, "is_disabled": 0, "fusion_lat": 0.0, "lon": -77.03833133333333}, {"is_reserved": 0, "rental_uris": {"ios": "https://dc.lft.to/lastmile_qr_scan", "android": "https://dc.lft.to/lastmile_qr_scan"}, "name": "3f3c0dff36b94902d9d81d8be8f612f3", "bike_id": "3f3c0dff36b94902d9d81d8be8f612f3", "type": "electric_scooter", "lat": 38.927543, "fusion_lon": 0.0, "is_disabled": 0, "fusion_lat": 0.0, "lon": -77.0321815}, {"is_reserved": 0, "rental_uris": {"ios": "https://dc.lft.to/lastmile_qr_scan", "android": "https://dc.lft.to/lastmile_qr_scan"}, "name": "1b8dd46a209454342edaa20a47987ec1", "bike_id": "1b8dd46a209454342edaa20a47987ec1", "type": "electric_scooter", "lat": 38.956078833333336, "fusion_lon": 0.0, "is_disabled": 0, "fusion_lat": 0.0, "lon": -77.02763316666666}, {"is_reserved": 0, "rental_uris": {"ios": "https://dc.lft.to/lastmile_qr_scan", "android": "https://dc.lft.to/lastmile_qr_scan"}, "name": "aff02ca95dc5770ff529091f7a52143a", "bike_id": "aff02ca95dc5770ff529091f7a52143a", "type": "electric_bike", "lat": 38.886349833333334, "fusion_lon": 0.0, "is_disabled": 0, "fusion_lat": 0.0, "lon": -76.95472183333334}, {"is_reserved": 0, "rental_uris": {"ios": "https://dc.lft.to/lastmile_qr_scan", "android": "https://dc.lft.to/lastmile_qr_scan"}, "name": "ffba4d2f95c0bd042e60b1d78a7e46ad", "bike_id": "ffba4d2f95c0bd042e60b1d78a7e46ad", "type": "electric_scooter", "lat": 38.930707, "fusion_lon": 0.0, "is_disabled": 0, "fusion_lat": 0.0, "lon": -77.037416}, {"is_reserved": 0, "rental_uris": {"ios": "https://dc.lft.to/lastmile_qr_scan", "android": "https://dc.lft.to/lastmile_qr_scan"}, "name": "0716ccc384fe2ab720c0a1acd875f340", "bike_id": "0716ccc384fe2ab720c0a1acd875f340", "type": "electric_scooter", "lat": 38.91922783333333, "fusion_lon": 0.0, "is_disabled": 0, "fusion_lat": 0.0, "lon": -77.03182833333334}, {"is_reserved": 0, "rental_uris": {"ios": "https://dc.lft.to/lastmile_qr_scan", "android": "https://dc.lft.to/lastmile_qr_scan"}, "name": "13b928ececa0cc8eb7abb0d9262da0c2", "bike_id": "13b928ececa0cc8eb7abb0d9262da0c2", "type": "electric_scooter", "lat": 38.9169155, "fusion_lon": 0.0, "is_disabled": 0, "fusion_lat": 0.0, "lon": -77.033342}, {"is_reserved": 0, "rental_uris": {"ios": "https://dc.lft.to/lastmile_qr_scan", "android": "https://dc.lft.to/lastmile_qr_scan"}, "name": "1d0c74dcfce8103dc09ce630154ee198", "bike_id": "1d0c74dcfce8103dc09ce630154ee198", "type": "electric_scooter", "lat": 38.900410666666666, "fusion_lon": 0.0, "is_disabled": 0, "fusion_lat": 0.0, "lon": -76.99011666666667}, {"is_reserved": 0, "rental_uris": {"ios": "https://dc.lft.to/lastmile_qr_scan", "android": "https://dc.lft.to/lastmile_qr_scan"}, "name": "0224a09a247376604d9aa737f6240304", "bike_id": "0224a09a247376604d9aa737f6240304", "type": "electric_scooter", "lat": 38.90079516666667, "fusion_lon": 0.0, "is_disabled": 0, "fusion_lat": 0.0, "lon": -77.04766216666667}, {"is_reserved": 0, "rental_uris": {"ios": "https://dc.lft.to/lastmile_qr_scan", "android": "https://dc.lft.to/lastmile_qr_scan"}, "name": "2ec428c7b3f2fd2f5b2073d116382053", "bike_id": "2ec428c7b3f2fd2f5b2073d116382053", "type": "electric_scooter", "lat": 38.9360655, "fusion_lon": 0.0, "is_disabled": 0, "fusion_lat": 0.0, "lon": -77.08177183333333}, {"is_reserved": 0, "rental_uris": {"ios": "https://dc.lft.to/lastmile_qr_scan", "android": "https://dc.lft.to/lastmile_qr_scan"}, "name": "ea960085448c91d0b93739d3963f56e3", "bike_id": "ea960085448c91d0b93739d3963f56e3", "type": "electric_scooter", "lat": 38.9350035, "fusion_lon": 0.0, "is_disabled": 0, "fusion_lat": 0.0, "lon": -77.05804216666667}, {"is_reserved": 0, "rental_uris": {"ios": "https://dc.lft.to/lastmile_qr_scan", "android": "https://dc.lft.to/lastmile_qr_scan"}, "name": "25039bfbc0a2367e01929df0a1ccdd30", "bike_id": "25039bfbc0a2367e01929df0a1ccdd30", "type": "electric_scooter", "lat": 38.905574666666666, "fusion_lon": 0.0, "is_disabled": 0, "fusion_lat": 0.0, "lon": -77.03466033333333}, {"is_reserved": 0, "rental_uris": {"ios": "https://dc.lft.to/lastmile_qr_scan", "android": "https://dc.lft.to/lastmile_qr_scan"}, "name": "4691963a79a4184d9044afd46abb035b", "bike_id": "4691963a79a4184d9044afd46abb035b", "type": "electric_scooter", "lat": 38.924513, "fusion_lon": 0.0, "is_disabled": 0, "fusion_lat": 0.0, "lon": -77.05762133333333}, {"is_reserved": 0, "rental_uris": {"ios": "https://dc.lft.to/lastmile_qr_scan", "android": "https://dc.lft.to/lastmile_qr_scan"}, "name": "c0b25bd272969ae0225f8cdd7fbf096b", "bike_id": "c0b25bd272969ae0225f8cdd7fbf096b", "type": "electric_scooter", "lat": 38.88034783333333, "fusion_lon": 0.0, "is_disabled": 0, "fusion_lat": 0.0, "lon": -77.01936066666667}, {"is_reserved": 0, "rental_uris": {"ios": "https://dc.lft.to/lastmile_qr_scan", "android": "https://dc.lft.to/lastmile_qr_scan"}, "name": "3edd72da6cf4c54bed21c715fce6f3ec", "bike_id": "3edd72da6cf4c54bed21c715fce6f3ec", "type": "electric_bike", "lat": 38.8700545, "fusion_lon": 0.0, "is_disabled": 0, "fusion_lat": 0.0, "lon": -76.96024516666667}, {"is_reserved": 0, "rental_uris": {"ios": "https://dc.lft.to/lastmile_qr_scan", "android": "https://dc.lft.to/lastmile_qr_scan"}, "name": "1c358678f241ee307e6fdd2d158eba7d", "bike_id": "1c358678f241ee307e6fdd2d158eba7d", "type": "electric_scooter", "lat": 38.83689833333333, "fusion_lon": 0.0, "is_disabled": 0, "fusion_lat": 0.0, "lon": -77.00589483333333}, {"is_reserved": 0, "rental_uris": {"ios": "https://dc.lft.to/lastmile_qr_scan", "android": "https://dc.lft.to/lastmile_qr_scan"}, "name": "5f2d1114dc34d6e06235d8d71f6b1008", "bike_id": "5f2d1114dc34d6e06235d8d71f6b1008", "type": "electric_scooter", "lat": 38.9173135, "fusion_lon": 0.0, "is_disabled": 0, "fusion_lat": 0.0, "lon": -77.02300783333334}, {"is_reserved": 0, "rental_uris": {"ios": "https://dc.lft.to/lastmile_qr_scan", "android": "https://dc.lft.to/lastmile_qr_scan"}, "name": "8ed59e83510402508e9fb8895f7fb15b", "bike_id": "8ed59e83510402508e9fb8895f7fb15b", "type": "electric_scooter", "lat": 38.916878833333335, "fusion_lon": 0.0, "is_disabled": 0, "fusion_lat": 0.0, "lon": -77.03228183333333}, {"is_reserved": 0, "rental_uris": {"ios": "https://dc.lft.to/lastmile_qr_scan", "android": "https://dc.lft.to/lastmile_qr_scan"}, "name": "ee7db092810a1a55dd46d95ea0a5d5b1", "bike_id": "ee7db092810a1a55dd46d95ea0a5d5b1", "type": "electric_scooter", "lat": 38.917631166666666, "fusion_lon": 0.0, "is_disabled": 0, "fusion_lat": 0.0, "lon": -77.03194216666667}, {"is_reserved": 0, "rental_uris": {"ios": "https://dc.lft.to/lastmile_qr_scan", "android": "https://dc.lft.to/lastmile_qr_scan"}, "name": "8c82c97a352e5ec0664d77741c13f812", "bike_id": "8c82c97a352e5ec0664d77741c13f812", "type": "electric_scooter", "lat": 38.91498833333333, "fusion_lon": 0.0, "is_disabled": 0, "fusion_lat": 0.0, "lon": -77.01221766666667}, {"is_reserved": 0, "rental_uris": {"ios": "https://dc.lft.to/lastmile_qr_scan", "android": "https://dc.lft.to/lastmile_qr_scan"}, "name": "3c0dd33c170ef0c044999104cc51d3c3", "bike_id": "3c0dd33c170ef0c044999104cc51d3c3", "type": "electric_scooter", "lat": 38.866623833333335, "fusion_lon": 0.0, "is_disabled": 0, "fusion_lat": 0.0, "lon": -76.98897783333334}, {"is_reserved": 0, "rental_uris": {"ios": "https://dc.lft.to/lastmile_qr_scan", "android": "https://dc.lft.to/lastmile_qr_scan"}, "name": "1a751bcb5371bd8821dff8ad9c61282c", "bike_id": "1a751bcb5371bd8821dff8ad9c61282c", "type": "electric_scooter", "lat": 38.903713833333335, "fusion_lon": 0.0, "is_disabled": 0, "fusion_lat": 0.0, "lon": -77.04386283333334}, {"is_reserved": 0, "rental_uris": {"ios": "https://dc.lft.to/lastmile_qr_scan", "android": "https://dc.lft.to/lastmile_qr_scan"}, "name": "85f5f3b2ff77014d379ef87d07d2b2c1", "bike_id": "85f5f3b2ff77014d379ef87d07d2b2c1", "type": "electric_scooter", "lat": 38.90448633333333, "fusion_lon": 0.0, "is_disabled": 0, "fusion_lat": 0.0, "lon": -77.040348}, {"is_reserved": 0, "rental_uris": {"ios": "https://dc.lft.to/lastmile_qr_scan", "android": "https://dc.lft.to/lastmile_qr_scan"}, "name": "28743e533b82349cf9d97264f5371f3e", "bike_id": "28743e533b82349cf9d97264f5371f3e", "type": "electric_scooter", "lat": 38.90754916666667, "fusion_lon": 0.0, "is_disabled": 0, "fusion_lat": 0.0, "lon": -76.999128}, {"is_reserved": 0, "rental_uris": {"ios": "https://dc.lft.to/lastmile_qr_scan", "android": "https://dc.lft.to/lastmile_qr_scan"}, "name": "4686036d666a07d371c479808ab72261", "bike_id": "4686036d666a07d371c479808ab72261", "type": "electric_scooter", "lat": 38.92507666666667, "fusion_lon": 0.0, "is_disabled": 0, "fusion_lat": 0.0, "lon": -77.04098}, {"is_reserved": 0, "rental_uris": {"ios": "https://dc.lft.to/lastmile_qr_scan", "android": "https://dc.lft.to/lastmile_qr_scan"}, "name": "0d106be66e9242429d07f66b2f77fc03", "bike_id": "0d106be66e9242429d07f66b2f77fc03", "type": "electric_scooter", "lat": 38.9053085, "fusion_lon": 0.0, "is_disabled": 0, "fusion_lat": 0.0, "lon": -77.05013766666667}, {"is_reserved": 0, "rental_uris": {"ios": "https://dc.lft.to/lastmile_qr_scan", "android": "https://dc.lft.to/lastmile_qr_scan"}, "name": "03da974ccd2f2e2adb2ecbb3f984f8a6", "bike_id": "03da974ccd2f2e2adb2ecbb3f984f8a6", "type": "electric_scooter", "lat": 38.874607166666664, "fusion_lon": 0.0, "is_disabled": 0, "fusion_lat": 0.0, "lon": -77.00493066666667}, {"is_reserved": 0, "rental_uris": {"ios": "https://dc.lft.to/lastmile_qr_scan", "android": "https://dc.lft.to/lastmile_qr_scan"},