{"data": {"bikes": [{"bike_id": "b9b207c93bd1b4bc4b814a4f077fbc20", "is_reserved": 0, "fusion_lon": 0.0, "lat": 38.919847833333336, "is_disabled": 0, "name": "b9b207c93bd1b4bc4b814a4f077fbc20", "fusion_lat": 0.0, "rental_uris": {"ios": "https://dc.lft.to/lastmile_qr_scan", "android": "https://dc.lft.to/lastmile_qr_scan"}, "lon": -76.97306266666666, "type": "electric_scooter"}, {"bike_id": "2bd5ae3ea468f825b8694b21310e6415", "is_reserved": 0, "fusion_lon": 0.0, "lat": 38.8875495, "is_disabled": 0, "name": "2bd5ae3ea468f825b8694b21310e6415", "fusion_lat": 0.0, "rental_uris": {"ios": "https://dc.lft.to/lastmile_qr_scan", "android": "https://dc.lft.to/lastmile_qr_scan"}, "lon": -77.03146083333333, "type": "electric_scooter"}, {"bike_id": "b279db9046ed35a8beeb262c02eda2b1", "is_reserved": 0, "fusion_lon": 0.0, "lat": 38.90255033333333, "is_disabled": 0, "name": "b279db9046ed35a8beeb262c02eda2b1", "fusion_lat": 0.0, "rental_uris": {"ios": "https://dc.lft.to/lastmile_qr_scan", "android": "https://dc.lft.to/lastmile_qr_scan"}, "lon": -77.02827283333333, "type": "electric_scooter"}, {"bike_id": "7b6783502421ae62328924fb7784cebf", "is_reserved": 0, "fusion_lon": 0.0, "lat": 38.935364666666665, "is_disabled": 0, "name": "7b6783502421ae62328924fb7784cebf", "fusion_lat": 0.0, "rental_uris": {"ios": "https://dc.lft.to/lastmile_qr_scan", "android": "https://dc.lft.to/lastmile_qr_scan"}, "lon": -77.02349616666666, "type": "electric_scooter"}, {"bike_id": "82aa5aa20c38a5d1544aa52af37f3c22", "is_reserved": 0, "fusion_lon": 0.0, "lat": 38.88373283333333, "is_disabled": 0, "name": "82aa5aa20c38a5d1544aa52af37f3c22", "fusion_lat": 0.0, "rental_uris": {"ios": "https://dc.lft.to/lastmile_qr_scan", "android": "https://dc.lft.to/lastmile_qr_scan"}, "lon": -76.995294, "type": "electric_scooter"}, {"bike_id": "d4281f6467325b8ad5a9dc4f80b4c459", "is_reserved": 0, "fusion_lon": 0.0, "lat": 38.896076, "is_disabled": 0, "name": "d4281f6467325b8ad5a9dc4f80b4c459", "fusion_lat": 0.0, "rental_uris": {"ios": "https://dc.lft.to/lastmile_qr_scan", "android": "https://dc.lft.to/lastmile_qr_scan"}, "lon": -77.04541116666667, "type": "electric_scooter"}, {"bike_id": "60ab350e98bce64d937c59039a7d8ad8", "is_reserved": 0, "fusion_lon": 0.0, "lat": 38.95381016666666, "is_disabled": 0, "name": "60ab350e98bce64d937c59039a7d8ad8", "fusion_lat": 0.0, "rental_uris": {"ios": "https://dc.lft.to/lastmile_qr_scan", "android": "https://dc.lft.to/lastmile_qr_scan"}, "lon": -76.9991995, "type": "electric_scooter"}, {"bike_id": "317c4fc84b329234a597f0f8f358cda2", "is_reserved": 0, "fusion_lon": 0.0, "lat": 38.89616516666667, "is_disabled": 0, "name": "317c4fc84b329234a597f0f8f358cda2", "fusion_lat": 0.0, "rental_uris": {"ios": "https://dc.lft.to/lastmile_qr_scan", "android": "https://dc.lft.to/lastmile_qr_scan"}, "lon": -76.98568816666666, "type": "electric_scooter"}, {"bike_id": "3d7626b9b1ec291eee00205ae88b43a2", "is_reserved": 0, "fusion_lon": 0.0, "lat": 38.884946666666664, "is_disabled": 0, "name": "3d7626b9b1ec291eee00205ae88b43a2", "fusion_lat": 0.0, "rental_uris": {"ios": "https://dc.lft.to/lastmile_qr_scan", "android": "https://dc.lft.to/lastmile_qr_scan"}, "lon": -77.00728716666667, "type": "electric_scooter"}, {"bike_id": "7923cb59bed540bc32a81df287dbd493", "is_reserved": 0, "fusion_lon": 0.0, "lat": 38.88730566666667, "is_disabled": 0, "name": "7923cb59bed540bc32a81df287dbd493", "fusion_lat": 0.0, "rental_uris": {"ios": "https://dc.lft.to/lastmile_qr_scan", "android": "https://dc.lft.to/lastmile_qr_scan"}, "lon": -77.02023033333333, "type": "electric_scooter"}, {"bike_id": "40d05ff0626b538f71bbc843135ae86c", "is_reserved": 0, "fusion_lon": 0.0, "lat": 38.88231833333333, "is_disabled": 0, "name": "40d05ff0626b538f71bbc843135ae86c", "fusion_lat": 0.0, "rental_uris": {"ios": "https://dc.lft.to/lastmile_qr_scan", "android": "https://dc.lft.to/lastmile_qr_scan"}, "lon": -76.990893, "type": "electric_scooter"}, {"bike_id": "6cfdf71f133b2a8078379f1b666189b9", "is_reserved": 0, "fusion_lon": 0.0, "lat": 38.89767166666667, "is_disabled": 0, "name": "6cfdf71f133b2a8078379f1b666189b9", "fusion_lat": 0.0, "rental_uris": {"ios": "https://dc.lft.to/lastmile_qr_scan", "android": "https://dc.lft.to/lastmile_qr_scan"}, "lon": -76.9044095, "type": "electric_bike"}, {"bike_id": "934ce18ce1dc2277d89d4a631c8b52c5", "is_reserved": 0, "fusion_lon": 0.0, "lat": 38.93444816666667, "is_disabled": 0, "name": "934ce18ce1dc2277d89d4a631c8b52c5", "fusion_lat": 0.0, "rental_uris": {"ios": "https://dc.lft.to/lastmile_qr_scan", "android": "https://dc.lft.to/lastmile_qr_scan"}, "lon": -77.028487, "type": "electric_scooter"}, {"bike_id": "783737b0c8282e4eee8a326daf9b1bd3", "is_reserved": 0, "fusion_lon": 0.0, "lat": 38.90952766666667, "is_disabled": 0, "name": "783737b0c8282e4eee8a326daf9b1bd3", "fusion_lat": 0.0, "rental_uris": {"ios": "https://dc.lft.to/lastmile_qr_scan", "android": "https://dc.lft.to/lastmile_qr_scan"}, "lon": -77.04460733333333, "type": "electric_scooter"}, {"bike_id": "2b40fe93729ae75e3333af16235c20cf", "is_reserved": 0, "fusion_lon": 0.0, "lat": 38.9183825, "is_disabled": 0, "name": "2b40fe93729ae75e3333af16235c20cf", "fusion_lat": 0.0, "rental_uris": {"ios": "https://dc.lft.to/lastmile_qr_scan", "android": "https://dc.lft.to/lastmile_qr_scan"}, "lon": -77.03896766666666, "type": "electric_scooter"}, {"bike_id": "deaed32ce851afb8a36422f113ae24b5", "is_reserved": 0, "fusion_lon": 0.0, "lat": 38.89764916666667, "is_disabled": 0, "name": "deaed32ce851afb8a36422f113ae24b5", "fusion_lat": 0.0, "rental_uris": {"ios": "https://dc.lft.to/lastmile_qr_scan", "android": "https://dc.lft.to/lastmile_qr_scan"}, "lon": -77.02684083333334, "type": "electric_scooter"}, {"bike_id": "51e8d435bff1f83bf3bdb449860f1f34", "is_reserved": 0, "fusion_lon": 0.0, "lat": 38.956358, "is_disabled": 0, "name": "51e8d435bff1f83bf3bdb449860f1f34", "fusion_lat": 0.0, "rental_uris": {"ios": "https://dc.lft.to/lastmile_qr_scan", "android": "https://dc.lft.to/lastmile_qr_scan"}, "lon": -76.938812, "type": "electric_bike"}, {"bike_id": "1657c140065a8f7877bf1523f59d0176", "is_reserved": 0, "fusion_lon": 0.0, "lat": 38.920979833333334, "is_disabled": 0, "name": "1657c140065a8f7877bf1523f59d0176", "fusion_lat": 0.0, "rental_uris": {"ios": "https://dc.lft.to/lastmile_qr_scan", "android": "https://dc.lft.to/lastmile_qr_scan"}, "lon": -77.02960783333333, "type": "electric_scooter"}, {"bike_id": "163432047d913e5b34425887c3cf98f0", "is_reserved": 0, "fusion_lon": 0.0, "lat": 38.883218, "is_disabled": 0, "name": "163432047d913e5b34425887c3cf98f0", "fusion_lat": 0.0, "rental_uris": {"ios": "https://dc.lft.to/lastmile_qr_scan", "android": "https://dc.lft.to/lastmile_qr_scan"}, "lon": -77.01759616666666, "type": "electric_scooter"}, {"bike_id": "0846f7558e626470186e6db1322e7992", "is_reserved": 0, "fusion_lon": 0.0, "lat": 38.8803615, "is_disabled": 0, "name": "0846f7558e626470186e6db1322e7992", "fusion_lat": 0.0, "rental_uris": {"ios": "https://dc.lft.to/lastmile_qr_scan", "android": "https://dc.lft.to/lastmile_qr_scan"}, "lon": -77.02514383333333, "type": "electric_scooter"}, {"bike_id": "356b99072fe209181019c59598f48a75", "is_reserved": 0, "fusion_lon": 0.0, "lat": 38.867277, "is_disabled": 0, "name": "356b99072fe209181019c59598f48a75", "fusion_lat": 0.0, "rental_uris": {"ios": "https://dc.lft.to/lastmile_qr_scan", "android": "https://dc.lft.to/lastmile_qr_scan"}, "lon": -76.98789333333333, "type": "electric_scooter"}, {"bike_id": "f85567d03424649b32857e919b91de22", "is_reserved": 0, "fusion_lon": 0.0, "lat": 38.866306333333334, "is_disabled": 0, "name": "f85567d03424649b32857e919b91de22", "fusion_lat": 0.0, "rental_uris": {"ios": "https://dc.lft.to/lastmile_qr_scan", "android": "https://dc.lft.to/lastmile_qr_scan"}, "lon": -76.987167, "type": "electric_scooter"}, {"bike_id": "d13f1cff356507f0228fabc1b4a6f3bf", "is_reserved": 0, "fusion_lon": 0.0, "lat": 38.89004383333334, "is_disabled": 0, "name": "d13f1cff356507f0228fabc1b4a6f3bf", "fusion_lat": 0.0, "rental_uris": {"ios": "https://dc.lft.to/lastmile_qr_scan", "android": "https://dc.lft.to/lastmile_qr_scan"}, "lon": -76.93748966666666, "type": "electric_scooter"}, {"bike_id": "abb51ba53dc178a3ea9299738f8675bd", "is_reserved": 0, "fusion_lon": 0.0, "lat": 38.88504016666667, "is_disabled": 0, "name": "abb51ba53dc178a3ea9299738f8675bd", "fusion_lat": 0.0, "rental_uris": {"ios": "https://dc.lft.to/lastmile_qr_scan", "android": "https://dc.lft.to/lastmile_qr_scan"}, "lon": -77.00567666666667, "type": "electric_scooter"}, {"bike_id": "845bffc91529ee7eb93dbe4b54a7b2cb", "is_reserved": 0, "fusion_lon": 0.0, "lat": 38.896288166666665, "is_disabled": 0, "name": "845bffc91529ee7eb93dbe4b54a7b2cb", "fusion_lat": 0.0, "rental_uris": {"ios": "https://dc.lft.to/lastmile_qr_scan", "android": "https://dc.lft.to/lastmile_qr_scan"}, "lon": -77.0089625, "type": "electric_scooter"}, {"bike_id": "0020703b39498f30f5f6fd0cbf99832e", "is_reserved": 0, "fusion_lon": 0.0, "lat": 38.923421166666664, "is_disabled": 0, "name": "0020703b39498f30f5f6fd0cbf99832e", "fusion_lat": 0.0, "rental_uris": {"ios": "https://dc.lft.to/lastmile_qr_scan", "android": "https://dc.lft.to/lastmile_qr_scan"}, "lon": -77.03491366666667, "type": "electric_scooter"}, {"bike_id": "d204a00e8959a4e9e0f44eda9966da2e", "is_reserved": 0, "fusion_lon": 0.0, "lat": 38.92467516666667, "is_disabled": 0, "name": "d204a00e8959a4e9e0f44eda9966da2e", "fusion_lat": 0.0, "rental_uris": {"ios": "https://dc.lft.to/lastmile_qr_scan", "android": "https://dc.lft.to/lastmile_qr_scan"}, "lon": -77.05208916666666, "type": "electric_scooter"}, {"bike_id": "a18219f7b129234bb034cde947c130f0", "is_reserved": 0, "fusion_lon": 0.0, "lat": 38.87393083333333, "is_disabled": 0, "name": "a18219f7b129234bb034cde947c130f0", "fusion_lat": 0.0, "rental_uris": {"ios": "https://dc.lft.to/lastmile_qr_scan", "android": "https://dc.lft.to/lastmile_qr_scan"}, "lon": -77.000672, "type": "electric_scooter"}, {"bike_id": "ea18e50de3854f5b68e10e2deaf5d670", "is_reserved": 0, "fusion_lon": 0.0, "lat": 38.889958666666665, "is_disabled": 0, "name": "ea18e50de3854f5b68e10e2deaf5d670", "fusion_lat": 0.0, "rental_uris": {"ios": "https://dc.lft.to/lastmile_qr_scan", "android": "https://dc.lft.to/lastmile_qr_scan"}, "lon": -77.0034555, "type": "electric_scooter"}, {"bike_id": "7d19bb642ac1ca16b6a8932fe353dbd5", "is_reserved": 0, "fusion_lon": 0.0, "lat": 38.903716333333335, "is_disabled": 0, "name": "7d19bb642ac1ca16b6a8932fe353dbd5", "fusion_lat": 0.0, "rental_uris": {"ios": "https://dc.lft.to/lastmile_qr_scan", "android": "https://dc.lft.to/lastmile_qr_scan"}, "lon": -77.038734, "type": "electric_scooter"}, {"bike_id": "74c34b067508afcac2126e20c625b221", "is_reserved": 0, "fusion_lon": 0.0, "lat": 38.90529266666667, "is_disabled": 0, "name": "74c34b067508afcac2126e20c625b221", "fusion_lat": 0.0, "rental_uris": {"ios": "https://dc.lft.to/lastmile_qr_scan", "android": "https://dc.lft.to/lastmile_qr_scan"}, "lon": -77.0597145, "type": "electric_scooter"}, {"bike_id": "551ea88e1ea3bc7df61a6a68eb0df9f9", "is_reserved": 0, "fusion_lon": 0.0, "lat": 38.95350233333333, "is_disabled": 0, "name": "551ea88e1ea3bc7df61a6a68eb0df9f9", "fusion_lat": 0.0, "rental_uris": {"ios": "https://dc.lft.to/lastmile_qr_scan", "android": "https://dc.lft.to/lastmile_qr_scan"}, "lon": -76.9809345, "type": "electric_bike"}, {"bike_id": "c7e65a88c7256ed2bdc00c2dc5edd989", "is_reserved": 0, "fusion_lon": 0.0, "lat": 38.871474, "is_disabled": 0, "name": "c7e65a88c7256ed2bdc00c2dc5edd989", "fusion_lat": 0.0, "rental_uris": {"ios": "https://dc.lft.to/lastmile_qr_scan", "android": "https://dc.lft.to/lastmile_qr_scan"}, "lon": -76.93670716666666, "type": "electric_bike"}, {"bike_id": "d0e9187d09f6baa2b05c7fb5024543fc", "is_reserved": 0, "fusion_lon": 0.0, "lat": 38.89743283333333, "is_disabled": 0, "name": "d0e9187d09f6baa2b05c7fb5024543fc", "fusion_lat": 0.0, "rental_uris": {"ios": "https://dc.lft.to/lastmile_qr_scan", "android": "https://dc.lft.to/lastmile_qr_scan"}, "lon": -77.0338, "type": "electric_scooter"}, {"bike_id": "5e2dda35730b08331b493e1c67e8dcf2", "is_reserved": 0, "fusion_lon": 0.0, "lat": 38.876583833333335, "is_disabled": 0, "name": "5e2dda35730b08331b493e1c67e8dcf2", "fusion_lat": 0.0, "rental_uris": {"ios": "https://dc.lft.to/lastmile_qr_scan", "android": "https://dc.lft.to/lastmile_qr_scan"}, "lon": -77.000667, "type": "electric_scooter"}, {"bike_id": "ce017748d110a29eadc95dfb30600b10", "is_reserved": 0, "fusion_lon": 0.0, "lat": 38.9063205, "is_disabled": 0, "name": "ce017748d110a29eadc95dfb30600b10", "fusion_lat": 0.0, "rental_uris": {"ios": "https://dc.lft.to/lastmile_qr_scan", "android": "https://dc.lft.to/lastmile_qr_scan"}, "lon": -77.00613416666667, "type": "electric_scooter"}, {"bike_id": "53d77272b7a1eb7f083e79ed97744fce", "is_reserved": 0, "fusion_lon": 0.0, "lat": 38.9427235, "is_disabled": 0, "name": "53d77272b7a1eb7f083e79ed97744fce", "fusion_lat": 0.0, "rental_uris": {"ios": "https://dc.lft.to/lastmile_qr_scan", "android": "https://dc.lft.to/lastmile_qr_scan"}, "lon": -76.9807315, "type": "electric_bike"}, {"bike_id": "87198ae9bbd27f0e0f84058dba97df57", "is_reserved": 0, "fusion_lon": 0.0, "lat": 38.904051333333335, "is_disabled": 0, "name": "87198ae9bbd27f0e0f84058dba97df57", "fusion_lat": 0.0, "rental_uris": {"ios": "https://dc.lft.to/lastmile_qr_scan", "android": "https://dc.lft.to/lastmile_qr_scan"}, "lon": -77.03876383333333, "type": "electric_scooter"}, {"bike_id": "2eef3e7e975f7b7ce24c5718e240e33c", "is_reserved": 0, "fusion_lon": 0.0, "lat": 38.93861783333333, "is_disabled": 0, "name": "2eef3e7e975f7b7ce24c5718e240e33c", "fusion_lat": 0.0, "rental_uris": {"ios": "https://dc.lft.to/lastmile_qr_scan", "android": "https://dc.lft.to/lastmile_qr_scan"}, "lon": -77.02652083333334, "type": "electric_scooter"}, {"bike_id": "c62ae84002480f4bb04fa4d05a1617ba", "is_reserved": 0, "fusion_lon": 0.0, "lat": 38.917173, "is_disabled": 0, "name": "c62ae84002480f4bb04fa4d05a1617ba", "fusion_lat": 0.0, "rental_uris": {"ios": "https://dc.lft.to/lastmile_qr_scan", "android": "https://dc.lft.to/lastmile_qr_scan"}, "lon": -77.02965933333333, "type": "electric_scooter"}, {"bike_id": "aed5cd89021ed2d622a3e8cfb0f8d68b", "is_reserved": 0, "fusion_lon": 0.0, "lat": 38.903024333333335, "is_disabled": 0, "name": "aed5cd89021ed2d622a3e8cfb0f8d68b", "fusion_lat": 0.0, "rental_uris": {"ios": "https://dc.lft.to/lastmile_qr_scan", "android": "https://dc.lft.to/lastmile_qr_scan"}, "lon": -77.03439066666667, "type": "electric_scooter"}, {"bike_id": "47142e2c310e29588f48c5e8ebb940f0", "is_reserved": 0, "fusion_lon": 0.0, "lat": 38.89612833333333, "is_disabled": 0, "name": "47142e2c310e29588f48c5e8ebb940f0", "fusion_lat": 0.0, "rental_uris": {"ios": "https://dc.lft.to/lastmile_qr_scan", "android": "https://dc.lft.to/lastmile_qr_scan"}, "lon": -77.0446285, "type": "electric_scooter"}, {"bike_id": "68743dcb373ab8f31b72a6e5d6ada728", "is_reserved": 0, "fusion_lon": 0.0, "lat": 38.93451833333334, "is_disabled": 0, "name": "68743dcb373ab8f31b72a6e5d6ada728", "fusion_lat": 0.0, "rental_uris": {"ios": "https://dc.lft.to/lastmile_qr_scan", "android": "https://dc.lft.to/lastmile_qr_scan"}, "lon": -77.07234116666666, "type": "electric_scooter"}, {"bike_id": "1a2a72034c260228786f998b34b80a1c", "is_reserved": 0, "fusion_lon": 0.0, "lat": 38.8831715, "is_disabled": 0, "name": "1a2a72034c260228786f998b34b80a1c", "fusion_lat": 0.0, "rental_uris": {"ios": "https://dc.lft.to/lastmile_qr_scan", "android": "https://dc.lft.to/lastmile_qr_scan"}, "lon": -77.009327, "type": "electric_scooter"}, {"bike_id": "4e8237b0fe0cc905d95a764a96bda158", "is_reserved": 0, "fusion_lon": 0.0, "lat": 38.894686666666665, "is_disabled": 0, "name": "4e8237b0fe0cc905d95a764a96bda158", "fusion_lat": 0.0, "rental_uris": {"ios": "https://dc.lft.to/lastmile_qr_scan", "android": "https://dc.lft.to/lastmile_qr_scan"}, "lon": -77.017548, "type": "electric_scooter"}, {"bike_id": "216c86b8748199679256224a4412a350", "is_reserved": 0, "fusion_lon": 0.0, "lat": 38.891934, "is_disabled": 0, "name": "216c86b8748199679256224a4412a350", "fusion_lat": 0.0, "rental_uris": {"ios": "https://dc.lft.to/lastmile_qr_scan", "android": "https://dc.lft.to/lastmile_qr_scan"}, "lon": -77.02837933333333, "type": "electric_scooter"}, {"bike_id": "875c48a97e80adf883f56020a50bb66c", "is_reserved": 0, "fusion_lon": 0.0, "lat": 38.90569766666667, "is_disabled": 0, "name": "875c48a97e80adf883f56020a50bb66c", "fusion_lat": 0.0, "rental_uris": {"ios": "https://dc.lft.to/lastmile_qr_scan", "android": "https://dc.lft.to/lastmile_qr_scan"}, "lon": -77.03827883333334, "type": "electric_scooter"}, {"bike_id": "93fd88d71f36c34e8ba3a45bf270656d", "is_reserved": 0, "fusion_lon": 0.0, "lat": 38.89890283333333, "is_disabled": 0, "name": "93fd88d71f36c34e8ba3a45bf270656d", "fusion_lat": 0.0, "rental_uris": {"ios": "https://dc.lft.to/lastmile_qr_scan", "android": "https://dc.lft.to/lastmile_qr_scan"}, "lon": -77.032876, "type": "electric_scooter"}, {"bike_id": "e04629885028e5d4fe21fb16c5fd7845", "is_reserved": 0, "fusion_lon": 0.0, "lat": 38.89246133333333, "is_disabled": 0, "name": "e04629885028e5d4fe21fb16c5fd7845", "fusion_lat": 0.0, "rental_uris": {"ios": "https://dc.lft.to/lastmile_qr_scan", "android": "https://dc.lft.to/lastmile_qr_scan"}, "lon": -76.94333933333333, "type": "electric_scooter"}, {"bike_id": "4a5a1c9eccd0838edfcc212f9e8c0f92", "is_reserved": 0, "fusion_lon": 0.0, "lat": 38.893561, "is_disabled": 0, "name": "4a5a1c9eccd0838edfcc212f9e8c0f92", "fusion_lat": 0.0, "rental_uris": {"ios": "https://dc.lft.to/lastmile_qr_scan", "android": "https://dc.lft.to/lastmile_qr_scan"}, "lon": -77.00335666666666, "type": "electric_scooter"}, {"bike_id": "44a2616e65a2f7455978547a9ae05d1b", "is_reserved": 0, "fusion_lon": 0.0, "lat": 38.892210166666665, "is_disabled": 0, "name": "44a2616e65a2f7455978547a9ae05d1b", "fusion_lat": 0.0, "rental_uris": {"ios": "https://dc.lft.to/lastmile_qr_scan", "android": "https://dc.lft.to/lastmile_qr_scan"}, "lon": -77.02623116666666, "type": "electric_scooter"}, {"bike_id": "6cf3f3c005d470c3f775b6d4738f3bf5", "is_reserved": 0, "fusion_lon": 0.0, "lat": 38.90970866666667, "is_disabled": 0, "name": "6cf3f3c005d470c3f775b6d4738f3bf5", "fusion_lat": 0.0, "rental_uris": {"ios": "https://dc.lft.to/lastmile_qr_scan", "android": "https://dc.lft.to/lastmile_qr_scan"}, "lon": -77.02277683333334, "type": "electric_scooter"}, {"bike_id": "29e4754f2b9f263f110037e5a0a522a9", "is_reserved": 0, "fusion_lon": 0.0, "lat": 38.96616266666667, "is_disabled": 0, "name": "29e4754f2b9f263f110037e5a0a522a9", "fusion_lat": 0.0, "rental_uris": {"ios": "https://dc.lft.to/lastmile_qr_scan", "android": "https://dc.lft.to/lastmile_qr_scan"}, "lon": -76.9442055, "type": "electric_bike"}, {"bike_id": "6d7837754998847d717f078aacba96c1", "is_reserved": 0, "fusion_lon": 0.0, "lat": 38.884470666666665, "is_disabled": 0, "name": "6d7837754998847d717f078aacba96c1", "fusion_lat": 0.0, "rental_uris": {"ios": "https://dc.lft.to/lastmile_qr_scan", "android": "https://dc.lft.to/lastmile_qr_scan"}, "lon": -77.005779, "type": "electric_scooter"}, {"bike_id": "de6fd814be0b87e90b94fcabae09776a", "is_reserved": 0, "fusion_lon": 0.0, "lat": 38.903737, "is_disabled": 0, "name": "de6fd814be0b87e90b94fcabae09776a", "fusion_lat": 0.0, "rental_uris": {"ios": "https://dc.lft.to/lastmile_qr_scan", "android": "https://dc.lft.to/lastmile_qr_scan"}, "lon": -76.98089833333333, "type": "electric_bike"}, {"bike_id": "f45e4ceaea95e6f6451c51e6c9168f43", "is_reserved": 0, "fusion_lon": 0.0, "lat": 38.906531, "is_disabled": 0, "name": "f45e4ceaea95e6f6451c51e6c9168f43", "fusion_lat": 0.0, "rental_uris": {"ios": "https://dc.lft.to/lastmile_qr_scan", "android": "https://dc.lft.to/lastmile_qr_scan"}, "lon": -77.0100765, "type": "electric_scooter"}, {"bike_id": "fab4b6d9347f065f4fb0eca844eaa3e4", "is_reserved": 0, "fusion_lon": 0.0, "lat": 38.914694, "is_disabled": 0, "name": "fab4b6d9347f065f4fb0eca844eaa3e4", "fusion_lat": 0.0, "rental_uris": {"ios": "https://dc.lft.to/lastmile_qr_scan", "android": "https://dc.lft.to/lastmile_qr_scan"}, "lon": -77.03211366666666, "type": "electric_scooter"}, {"bike_id": "0954d20911076250d32a0c0798b1ad76", "is_reserved": 0, "fusion_lon": 0.0, "lat": 38.90264, "is_disabled": 0, "name": "0954d20911076250d32a0c0798b1ad76", "fusion_lat": 0.0, "rental_uris": {"ios": "https://dc.lft.to/lastmile_qr_scan", "android": "https://dc.lft.to/lastmile_qr_scan"}, "lon": -77.039437, "type": "electric_scooter"}, {"bike_id": "dae92eb4021896a7a1e8da378d50cfb7", "is_reserved": 0, "fusion_lon": 0.0, "lat": 38.902725, "is_disabled": 0, "name": "dae92eb4021896a7a1e8da378d50cfb7", "fusion_lat": 0.0, "rental_uris": {"ios": "https://dc.lft.to/lastmile_qr_scan", "android": "https://dc.lft.to/lastmile_qr_scan"}, "lon": -77.03826433333333, "type": "electric_scooter"}, {"bike_id": "b1967369411f633ab6fb362e00a828f6", "is_reserved": 0, "fusion_lon": 0.0, "lat": 38.9037565, "is_disabled": 0, "name": "b1967369411f633ab6fb362e00a828f6", "fusion_lat": 0.0, "rental_uris": {"ios": "https://dc.lft.to/lastmile_qr_scan", "android": "https://dc.lft.to/lastmile_qr_scan"}, "lon": -77.04523616666667, "type": "electric_scooter"}, {"bike_id": "dfbf90d6ffb84851efb7139f0c9ce334", "is_reserved": 0, "fusion_lon": 0.0, "lat": 38.890076666666666, "is_disabled": 0, "name": "dfbf90d6ffb84851efb7139f0c9ce334", "fusion_lat": 0.0, "rental_uris": {"ios": "https://dc.lft.to/lastmile_qr_scan", "android": "https://dc.lft.to/lastmile_qr_scan"}, "lon": -76.93747766666667, "type": "electric_scooter"}, {"bike_id": "d4a6e8bbab6ee9a3079a144865219d29", "is_reserved": 0, "fusion_lon": 0.0, "lat": 38.84584616666667, "is_disabled": 0, "name": "d4a6e8bbab6ee9a3079a144865219d29", "fusion_lat": 0.0, "rental_uris": {"ios": "https://dc.lft.to/lastmile_qr_scan", "android": "https://dc.lft.to/lastmile_qr_scan"}, "lon": -76.9816375, "type": "electric_scooter"}, {"bike_id": "5f33ebd4ddc0909233e956d5b59ef441", "is_reserved": 0, "fusion_lon": 0.0, "lat": 38.8922245, "is_disabled": 0, "name": "5f33ebd4ddc0909233e956d5b59ef441", "fusion_lat": 0.0, "rental_uris": {"ios": "https://dc.lft.to/lastmile_qr_scan", "android": "https://dc.lft.to/lastmile_qr_scan"}, "lon": -77.03222, "type": "electric_scooter"}, {"bike_id": "ae1a59c3a6ed8885e414390655cdda87", "is_reserved": 0, "fusion_lon": 0.0, "lat": 38.935129, "is_disabled": 0, "name": "ae1a59c3a6ed8885e414390655cdda87", "fusion_lat": 0.0, "rental_uris": {"ios": "https://dc.lft.to/lastmile_qr_scan", "android": "https://dc.lft.to/lastmile_qr_scan"}, "lon": -77.03301216666667, "type": "electric_scooter"}, {"bike_id": "43f2e391d94ce020bfd30af4b6a3c927", "is_reserved": 0, "fusion_lon": 0.0, "lat": 38.92398083333333, "is_disabled": 0, "name": "43f2e391d94ce020bfd30af4b6a3c927", "fusion_lat": 0.0, "rental_uris": {"ios": "https://dc.lft.to/lastmile_qr_scan", "android": "https://dc.lft.to/lastmile_qr_scan"}, "lon": -77.01957933333334, "type": "electric_scooter"}, {"bike_id": "0d030a9a1558616a6332862db6f03ce9", "is_reserved": 0, "fusion_lon": 0.0, "lat": 38.88671133333333, "is_disabled": 0, "name": "0d030a9a1558616a6332862db6f03ce9", "fusion_lat": 0.0, "rental_uris": {"ios": "https://dc.lft.to/lastmile_qr_scan", "android": "https://dc.lft.to/lastmile_qr_scan"}, "lon": -77.01371966666666, "type": "electric_scooter"}, {"bike_id": "f89fdb72af4b1031f1258d2e12120d1f", "is_reserved": 0, "fusion_lon": 0.0, "lat": 38.9156465, "is_disabled": 0, "name": "f89fdb72af4b1031f1258d2e12120d1f", "fusion_lat": 0.0, "rental_uris": {"ios": "https://dc.lft.to/lastmile_qr_scan", "android": "https://dc.lft.to/lastmile_qr_scan"}, "lon": -77.03369416666666, "type": "electric_scooter"}, {"bike_id": "a068b5da445d66fe2ecbf63ddd948003", "is_reserved": 0, "fusion_lon": 0.0, "lat": 38.934977, "is_disabled": 0, "name": "a068b5da445d66fe2ecbf63ddd948003", "fusion_lat": 0.0, "rental_uris": {"ios": "https://dc.lft.to/lastmile_qr_scan", "android": "https://dc.lft.to/lastmile_qr_scan"}, "lon": -77.027259, "type": "electric_scooter"}, {"bike_id": "6e7eefc8def767e2ffd28b3bdab1e598", "is_reserved": 0, "fusion_lon": 0.0, "lat": 38.8665215, "is_disabled": 0, "name": "6e7eefc8def767e2ffd28b3bdab1e598", "fusion_lat": 0.0, "rental_uris": {"ios": "https://dc.lft.to/lastmile_qr_scan", "android": "https://dc.lft.to/lastmile_qr_scan"}, "lon": -76.98883216666667, "type": "electric_scooter"}, {"bike_id": "1dbb41dafc5211aedc55d920585b96cb", "is_reserved": 0, "fusion_lon": 0.0, "lat": 38.86201533333333, "is_disabled": 0, "name": "1dbb41dafc5211aedc55d920585b96cb", "fusion_lat": 0.0, "rental_uris": {"ios": "https://dc.lft.to/lastmile_qr_scan", "android": "https://dc.lft.to/lastmile_qr_scan"}, "lon": -76.99466733333334, "type": "electric_scooter"}, {"bike_id": "c854a8435c091e88657f41118061dc58", "is_reserved": 0, "fusion_lon": 0.0, "lat": 38.939723666666666, "is_disabled": 0, "name": "c854a8435c091e88657f41118061dc58", "fusion_lat": 0.0, "rental_uris": {"ios": "https://dc.lft.to/lastmile_qr_scan", "android": "https://dc.lft.to/lastmile_qr_scan"}, "lon": -77.0358935, "type": "electric_scooter"}, {"bike_id": "5e85f5ac2de9e8dfb2d858e4781671ae", "is_reserved": 0, "fusion_lon": 0.0, "lat": 38.905072, "is_disabled": 0, "name": "5e85f5ac2de9e8dfb2d858e4781671ae", "fusion_lat": 0.0, "rental_uris": {"ios": "https://dc.lft.to/lastmile_qr_scan", "android": "https://dc.lft.to/lastmile_qr_scan"}, "lon": -77.05692683333334, "type": "electric_bike"}, {"bike_id": "b6e607f8d5349f5c7416e6acd819d8d4", "is_reserved": 0, "fusion_lon": 0.0, "lat": 38.91402983333333, "is_disabled": 0, "name": "b6e607f8d5349f5c7416e6acd819d8d4", "fusion_lat": 0.0, "rental_uris": {"ios": "https://dc.lft.to/lastmile_qr_scan", "android": "https://dc.lft.to/lastmile_qr_scan"}, "lon": -77.00805083333333, "type": "electric_scooter"}, {"bike_id": "3870e6cd0bc6d96f3eec404c460fce23", "is_reserved": 0, "fusion_lon": 0.0, "lat": 38.90527683333333, "is_disabled": 0, "name": "3870e6cd0bc6d96f3eec404c460fce23", "fusion_lat": 0.0, "rental_uris": {"ios": "https://dc.lft.to/lastmile_qr_scan", "android": "https://dc.lft.to/lastmile_qr_scan"}, "lon": -77.04467733333334, "type": "electric_scooter"}, {"bike_id": "4f72cd34cd389806614ddac6609e2d2c", "is_reserved": 0, "fusion_lon": 0.0, "lat": 38.89473133333333, "is_disabled": 0, "name": "4f72cd34cd389806614ddac6609e2d2c", "fusion_lat": 0.0, "rental_uris": {"ios": "https://dc.lft.to/lastmile_qr_scan", "android": "https://dc.lft.to/lastmile_qr_scan"}, "lon": -77.05013116666667, "type": "electric_scooter"}, {"bike_id": "85f743f57cacd7af9b23a621c61f126b", "is_reserved": 0, "fusion_lon": 0.0, "lat": 38.8922125, "is_disabled": 0, "name": "85f743f57cacd7af9b23a621c61f126b", "fusion_lat": 0.0, "rental_uris": {"ios": "https://dc.lft.to/lastmile_qr_scan", "android": "https://dc.lft.to/lastmile_qr_scan"}, "lon": -77.04363916666667, "type": "electric_scooter"}, {"bike_id": "0c093cd82151f49749fa7464ae82cfc0", "is_reserved": 0, "fusion_lon": 0.0, "lat": 38.90267716666666, "is_disabled": 0, "name": "0c093cd82151f49749fa7464ae82cfc0", "fusion_lat": 0.0, "rental_uris": {"ios": "https://dc.lft.to/lastmile_qr_scan", "android": "https://dc.lft.to/lastmile_qr_scan"}, "lon": -77.060259, "type": "electric_scooter"}, {"bike_id": "e385e2b2ae4998ab2629d7f32972c737", "is_reserved": 0, "fusion_lon": 0.0, "lat": 38.90541366666667, "is_disabled": 0, "name": "e385e2b2ae4998ab2629d7f32972c737", "fusion_lat": 0.0, "rental_uris": {"ios": "https://dc.lft.to/lastmile_qr_scan", "android": "https://dc.lft.to/lastmile_qr_scan"}, "lon": -77.05004416666667, "type": "electric_scooter"}, {"bike_id": "064f59493c3dcfe6564406b68849e31b", "is_reserved": 0, "fusion_lon": 0.0, "lat": 38.923719, "is_disabled": 0, "name": "064f59493c3dcfe6564406b68849e31b", "fusion_lat": 0.0, "rental_uris": {"ios": "https://dc.lft.to/lastmile_qr_scan", "android": "https://dc.lft.to/lastmile_qr_scan"}, "lon": -77.020595, "type": "electric_scooter"}, {"bike_id": "12383c76b7b589bae8789d3062254552", "is_reserved": 0, "fusion_lon": 0.0, "lat": 38.89730733333333, "is_disabled": 0, "name": "12383c76b7b589bae8789d3062254552", "fusion_lat": 0.0, "rental_uris": {"ios": "https://dc.lft.to/lastmile_qr_scan", "android": "https://dc.lft.to/lastmile_qr_scan"}, "lon": -76.94719166666667, "type": "electric_scooter"}, {"bike_id": "792e3cbec22d8c1f141ff16fe8465d5a", "is_reserved": 0, "fusion_lon": 0.0, "lat": 38.905391, "is_disabled": 0, "name": "792e3cbec22d8c1f141ff16fe8465d5a", "fusion_lat": 0.0, "rental_uris": {"ios": "https://dc.lft.to/lastmile_qr_scan", "android": "https://dc.lft.to/lastmile_qr_scan"}, "lon": -77.05000416666667, "type": "electric_scooter"}, {"bike_id": "285eb597b769869df243fc3c4c47beb3", "is_reserved": 0, "fusion_lon": 0.0, "lat": 38.90779366666666, "is_disabled": 0, "name": "285eb597b769869df243fc3c4c47beb3", "fusion_lat": 0.0, "rental_uris": {"ios": "https://dc.lft.to/lastmile_qr_scan", "android": "https://dc.lft.to/lastmile_qr_scan"}, "lon": -77.0110615, "type": "electric_scooter"}, {"bike_id": "21fca6bf177242d795c55c4af67a15c8", "is_reserved": 0, "fusion_lon": 0.0, "lat": 38.91000183333333, "is_disabled": 0, "name": "21fca6bf177242d795c55c4af67a15c8", "fusion_lat": 0.0, "rental_uris": {"ios": "https://dc.lft.to/lastmile_qr_scan", "android": "https://dc.lft.to/lastmile_qr_scan"}, "lon": -77.02097833333333, "type": "electric_scooter"}, {"bike_id": "a450310ca1fa16ea33446b7bf3997814", "is_reserved": 0, "fusion_lon": 0.0, "lat": 38.9040515, "is_disabled": 0, "name": "a450310ca1fa16ea33446b7bf3997814", "fusion_lat": 0.0, "rental_uris": {"ios": "https://dc.lft.to/lastmile_qr_scan", "android": "https://dc.lft.to/lastmile_qr_scan"}, "lon": -77.040181, "type": "electric_scooter"}, {"bike_id": "506dd4e2e8d6386d027cdd35d864976a", "is_reserved": 0, "fusion_lon": 0.0, "lat": 38.92445566666667, "is_disabled": 0, "name": "506dd4e2e8d6386d027cdd35d864976a", "fusion_lat": 0.0, "rental_uris": {"ios": "https://dc.lft.to/lastmile_qr_scan", "android": "https://dc.lft.to/lastmile_qr_scan"}, "lon": -77.03373516666667, "type": "electric_scooter"}, {"bike_id": "f849789555015b27d3789244ad12d57f", "is_reserved": 0, "fusion_lon": 0.0, "lat": 38.90419683333333, "is_disabled": 0, "name": "f849789555015b27d3789244ad12d57f", "fusion_lat": 0.0, "rental_uris": {"ios": "https://dc.lft.to/lastmile_qr_scan", "android": "https://dc.lft.to/lastmile_qr_scan"}, "lon": -77.04655866666667, "type": "electric_scooter"}, {"bike_id": "5ed22e20064bcf4e144408d610ad7c7c", "is_reserved": 0, "fusion_lon": 0.0, "lat": 38.901900499999996, "is_disabled": 0, "name": "5ed22e20064bcf4e144408d610ad7c7c", "fusion_lat": 0.0, "rental_uris": {"ios": "https://dc.lft.to/lastmile_qr_scan", "android": "https://dc.lft.to/lastmile_qr_scan"}, "lon": -77.03918133333333, "type": "electric_scooter"}, {"bike_id": "4abb406c243a77079ddd04663cd6899c", "is_reserved": 0, "fusion_lon": 0.0, "lat": 38.89517, "is_disabled": 0, "name": "4abb406c243a77079ddd04663cd6899c", "fusion_lat": 0.0, "rental_uris": {"ios": "https://dc.lft.to/lastmile_qr_scan", "android": "https://dc.lft.to/lastmile_qr_scan"}, "lon": -77.02937683333333, "type": "electric_scooter"}, {"bike_id": "0fd4f0cb0d7ff9dd674a9b67f0b63e9f", "is_reserved": 0, "fusion_lon": 0.0, "lat": 38.95924733333333, "is_disabled": 0, "name": "0fd4f0cb0d7ff9dd674a9b67f0b63e9f", "fusion_lat": 0.0, "rental_uris": {"ios": "https://dc.lft.to/lastmile_qr_scan", "android": "https://dc.lft.to/lastmile_qr_scan"}, "lon": -77.0312195, "type": "electric_bike"}, {"bike_id": "642230f42d5b149f079c8f85499bcdd9", "is_reserved": 0, "fusion_lon": 0.0, "lat": 38.99359116666667, "is_disabled": 0, "name": "642230f42d5b149f079c8f85499bcdd9", "fusion_lat": 0.0, "rental_uris": {"ios": "https://dc.lft.to/lastmile_qr_scan", "android": "https://dc.lft.to/lastmile_qr_scan"}, "lon": -77.0241975, "type": "electric_bike"}, {"bike_id": "79c87f1f7663e1b2ea3c06cfdfc62710", "is_reserved": 0, "fusion_lon": 0.0, "lat": 38.8747495, "is_disabled": 0, "name": "79c87f1f7663e1b2ea3c06cfdfc62710", "fusion_lat": 0.0, "rental_uris": {"ios": "https://dc.lft.to/lastmile_qr_scan", "android": "https://dc.lft.to/lastmile_qr_scan"}, "lon": -76.96523566666667, "type": "electric_bike"}, {"bike_id": "7ffbb4c43ecea6f73e676b774b7b5b47", "is_reserved": 0, "fusion_lon": 0.0, "lat": 38.91683066666667, "is_disabled": 0, "name": "7ffbb4c43ecea6f73e676b774b7b5b47", "fusion_lat": 0.0, "rental_uris": {"ios": "https://dc.lft.to/lastmile_qr_scan", "android": "https://dc.lft.to/lastmile_qr_scan"}, "lon": -77.02897516666667, "type": "electric_scooter"}, {"bike_id": "869b20ce06076285782d2506aedd4368", "is_reserved": 0, "fusion_lon": 0.0, "lat": 38.866606833333336, "is_disabled": 0, "name": "869b20ce06076285782d2506aedd4368", "fusion_lat": 0.0, "rental_uris": {"ios": "https://dc.lft.to/lastmile_qr_scan", "android": "https://dc.lft.to/lastmile_qr_scan"}, "lon": -76.98899083333333, "type": "electric_scooter"}, {"bike_id": "d84b16a5526610e06ef098d96cd75990", "is_reserved": 0, "fusion_lon": 0.0, "lat": 38.89633533333333, "is_disabled": 0, "name": "d84b16a5526610e06ef098d96cd75990", "fusion_lat": 0.0, "rental_uris": {"ios": "https://dc.lft.to/lastmile_qr_scan", "android": "https://dc.lft.to/lastmile_qr_scan"}, "lon": -77.04452466666666, "type": "electric_scooter"}, {"bike_id": "5b46531edae0e8611f243d706d0029d2", "is_reserved": 0, "fusion_lon": 0.0, "lat": 38.838646833333335, "is_disabled": 0, "name": "5b46531edae0e8611f243d706d0029d2", "fusion_lat": 0.0, "rental_uris": {"ios": "https://dc.lft.to/lastmile_qr_scan", "android": "https://dc.lft.to/lastmile_qr_scan"}, "lon": -76.99699533333333, "type": "electric_bike"}, {"bike_id": "10bfdb94094bd15d4c8ca7454f275873", "is_reserved": 0, "fusion_lon": 0.0, "lat": 38.9463165, "is_disabled": 0, "name": "10bfdb94094bd15d4c8ca7454f275873", "fusion_lat": 0.0, "rental_uris": {"ios": "https://dc.lft.to/lastmile_qr_scan", "android": "https://dc.lft.to/lastmile_qr_scan"}, "lon": -77.01844716666666, "type": "electric_scooter"}, {"bike_id": "ad41d07af576ddf8787fb0404f93ce50", "is_reserved": 0, "fusion_lon": 0.0, "lat": 38.93291516666667, "is_disabled": 0, "name": "ad41d07af576ddf8787fb0404f93ce50", "fusion_lat": 0.0, "rental_uris": {"ios": "https://dc.lft.to/lastmile_qr_scan", "android": "https://dc.lft.to/lastmile_qr_scan"}, "lon": -77.03977433333333, "type": "electric_scooter"}, {"bike_id": "4ebfadfec85eb3c7593324ae140cf9b1", "is_reserved": 0, "fusion_lon": 0.0, "lat": 38.933362833333334, "is_disabled": 0, "name": "4ebfadfec85eb3c7593324ae140cf9b1", "fusion_lat": 0.0, "rental_uris": {"ios": "https://dc.lft.to/lastmile_qr_scan", "android": "https://dc.lft.to/lastmile_qr_scan"}, "lon": -77.03283166666667, "type": "electric_scooter"}, {"bike_id": "5acc4cd1b58d4b78067af806d39d6090", "is_reserved": 0, "fusion_lon": 0.0, "lat": 38.876267, "is_disabled": 0, "name": "5acc4cd1b58d4b78067af806d39d6090", "fusion_lat": 0.0, "rental_uris": {"ios": "https://dc.lft.to/lastmile_qr_scan", "android": "https://dc.lft.to/lastmile_qr_scan"}, "lon": -76.96529416666667, "type": "electric_scooter"}, {"bike_id": "11c95d9f3e8d634321657240a9af2633", "is_reserved": 0, "fusion_lon": 0.0, "lat": 38.8652245, "is_disabled": 0, "name": "11c95d9f3e8d634321657240a9af2633", "fusion_lat": 0.0, "rental_uris": {"ios": "https://dc.lft.to/lastmile_qr_scan", "android": "https://dc.lft.to/lastmile_qr_scan"}, "lon": -76.990309, "type": "electric_scooter"}, {"bike_id": "bb955355fa0817493a3c93acfb827fd6", "is_reserved": 0, "fusion_lon": 0.0, "lat": 38.903314, "is_disabled": 0, "name": "bb955355fa0817493a3c93acfb827fd6", "fusion_lat": 0.0, "rental_uris": {"ios": "https://dc.lft.to/lastmile_qr_scan", "android": "https://dc.lft.to/lastmile_qr_scan"}, "lon": -76.97598866666667, "type": "electric_scooter"}, {"bike_id": "cb6876099b52d0504dcf43ff34630520", "is_reserved": 0, "fusion_lon": 0.0, "lat": 38.89735266666667, "is_disabled": 0, "name": "cb6876099b52d0504dcf43ff34630520", "fusion_lat": 0.0, "rental_uris": {"ios": "https://dc.lft.to/lastmile_qr_scan", "android": "https://dc.lft.to/lastmile_qr_scan"}, "lon": -76.93844633333333, "type": "electric_scooter"}, {"bike_id": "ef04fa82644c58b14139038e2a14e6e5", "is_reserved": 0, "fusion_lon": 0.0, "lat": 38.904661833333336, "is_disabled": 0, "name": "ef04fa82644c58b14139038e2a14e6e5", "fusion_lat": 0.0, "rental_uris": {"ios": "https://dc.lft.to/lastmile_qr_scan", "android": "https://dc.lft.to/lastmile_qr_scan"}, "lon": -77.0297755, "type": "electric_scooter"}, {"bike_id": "6c5d161b0faa7d92b8ba5981101d7ab2", "is_reserved": 0, "fusion_lon": 0.0, "lat": 38.83807866666667, "is_disabled": 0, "name": "6c5d161b0faa7d92b8ba5981101d7ab2", "fusion_lat": 0.0, "rental_uris": {"ios": "https://dc.lft.to/lastmile_qr_scan", "android": "https://dc.lft.to/lastmile_qr_scan"}, "lon": -77.095255, "type": "electric_bike"}, {"bike_id": "18c375f32a5074664c0b986780f6e1e3", "is_reserved": 0, "fusion_lon": 0.0, "lat": 38.907931833333336, "is_disabled": 0, "name": "18c375f32a5074664c0b986780f6e1e3", "fusion_lat": 0.0, "rental_uris": {"ios": "https://dc.lft.to/lastmile_qr_scan", "android": "https://dc.lft.to/lastmile_qr_scan"}, "lon": -76.99701966666666, "type": "electric_scooter"}, {"bike_id": "155daf8bebffdd29212e6e974dc84722", "is_reserved": 0, "fusion_lon": 0.0, "lat": 38.828714833333336, "is_disabled": 0, "name": "155daf8bebffdd29212e6e974dc84722", "fusion_lat": 0.0, "rental_uris": {"ios": "https://dc.lft.to/lastmile_qr_scan", "android": "https://dc.lft.to/lastmile_qr_scan"}, "lon": -77.11221433333333, "type": "electric_bike"}, {"bike_id": "683b2f8ab3593dde7c4e208c6f08bf5c", "is_reserved": 0, "fusion_lon": 0.0, "lat": 38.905554, "is_disabled": 0, "name": "683b2f8ab3593dde7c4e208c6f08bf5c", "fusion_lat": 0.0, "rental_uris": {"ios": "https://dc.lft.to/lastmile_qr_scan", "android": "https://dc.lft.to/lastmile_qr_scan"}, "lon": -77.03963133333333, "type": "electric_scooter"}, {"bike_id": "b2b00a33da942b2de92d5406604614a1", "is_reserved": 0, "fusion_lon": 0.0, "lat": 38.91043233333333, "is_disabled": 0, "name": "b2b00a33da942b2de92d5406604614a1", "fusion_lat": 0.0, "rental_uris": {"ios": "https://dc.lft.to/lastmile_qr_scan", "android": "https://dc.lft.to/lastmile_qr_scan"}, "lon": -77.042664, "type": "electric_scooter"}, {"bike_id": "0d7050aabb2fcfbd0f6ad8b17340b6e0", "is_reserved": 0, "fusion_lon": 0.0, "lat": 38.900887166666664, "is_disabled": 0, "name": "0d7050aabb2fcfbd0f6ad8b17340b6e0", "fusion_lat": 0.0, "rental_uris": {"ios": "https://dc.lft.to/lastmile_qr_scan", "android": "https://dc.lft.to/lastmile_qr_scan"}, "lon": -77.048745, "type": "electric_scooter"}, {"bike_id": "8255e23a1dc00e6ea294e2174def1dd9", "is_reserved": 0, "fusion_lon": 0.0, "lat": 38.93601666666667, "is_disabled": 0, "name": "8255e23a1dc00e6ea294e2174def1dd9", "fusion_lat": 0.0, "rental_uris": {"ios": "https://dc.lft.to/lastmile_qr_scan", "android": "https://dc.lft.to/lastmile_qr_scan"}, "lon": -77.0586385, "type": "electric_scooter"}, {"bike_id": "2eaa163749c01a065be01d02aeaabf17", "is_reserved": 0, "fusion_lon": 0.0, "lat": 38.884032, "is_disabled": 0, "name": "2eaa163749c01a065be01d02aeaabf17", "fusion_lat": 0.0, "rental_uris": {"ios": "https://dc.lft.to/lastmile_qr_scan", "android": "https://dc.lft.to/lastmile_qr_scan"}, "lon": -77.01527883333333, "type": "electric_scooter"}, {"bike_id": "b2624548ea659d9df8d8873e251834df", "is_reserved": 0, "fusion_lon": 0.0, "lat": 38.910254333333334, "is_disabled": 0, "name": "b2624548ea659d9df8d8873e251834df", "fusion_lat": 0.0, "rental_uris": {"ios": "https://dc.lft.to/lastmile_qr_scan", "android": "https://dc.lft.to/lastmile_qr_scan"}, "lon": -77.043894, "type": "electric_scooter"}, {"bike_id": "e43a8227f1c5158d0ab2b649f34c10ca", "is_reserved": 0, "fusion_lon": 0.0, "lat": 38.902723333333334, "is_disabled": 0, "name": "e43a8227f1c5158d0ab2b649f34c10ca", "fusion_lat": 0.0, "rental_uris": {"ios": "https://dc.lft.to/lastmile_qr_scan", "android": "https://dc.lft.to/lastmile_qr_scan"}, "lon": -77.02640316666667, "type": "electric_scooter"}, {"bike_id": "4207cdda294d6b4b5e505ddfabe030f6", "is_reserved": 0, "fusion_lon": 0.0, "lat": 38.917600666666665, "is_disabled": 0, "name": "4207cdda294d6b4b5e505ddfabe030f6", "fusion_lat": 0.0, "rental_uris": {"ios": "https://dc.lft.to/lastmile_qr_scan", "android": "https://dc.lft.to/lastmile_qr_scan"}, "lon": -77.02200333333333, "type": "electric_scooter"}, {"bike_id": "1d3520b28a7a8ae3d36e019e1bf58a4e", "is_reserved": 0, "fusion_lon": 0.0, "lat": 38.89217133333333, "is_disabled": 0, "name": "1d3520b28a7a8ae3d36e019e1bf58a4e", "fusion_lat": 0.0, "rental_uris": {"ios": "https://dc.lft.to/lastmile_qr_scan", "android": "https://dc.lft.to/lastmile_qr_scan"}, "lon": -77.0262195, "type": "electric_scooter"}, {"bike_id": "5f6d571b5b3100b53b23a813a661314d", "is_reserved": 0, "fusion_lon": 0.0, "lat": 38.99070733333333, "is_disabled": 0, "name": "5f6d571b5b3100b53b23a813a661314d", "fusion_lat": 0.0, "rental_uris": {"ios": "https://dc.lft.to/lastmile_qr_scan", "android": "https://dc.lft.to/lastmile_qr_scan"}, "lon": -76.87470116666667, "type": "electric_bike"}, {"bike_id": "6a35fb99352c0828e4d814ac320a8d80", "is_reserved": 0, "fusion_lon": 0.0, "lat": 38.9026625, "is_disabled": 0, "name": "6a35fb99352c0828e4d814ac320a8d80", "fusion_lat": 0.0, "rental_uris": {"ios": "https://dc.lft.to/lastmile_qr_scan", "android": "https://dc.lft.to/lastmile_qr_scan"}, "lon": -77.04057966666667, "type": "electric_scooter"}, {"bike_id": "3098ffe4bafec18df063c5cbe5cdc038", "is_reserved": 0, "fusion_lon": 0.0, "lat": 38.892219833333336, "is_disabled": 0, "name": "3098ffe4bafec18df063c5cbe5cdc038", "fusion_lat": 0.0, "rental_uris": {"ios": "https://dc.lft.to/lastmile_qr_scan", "android": "https://dc.lft.to/lastmile_qr_scan"}, "lon": -77.028392, "type": "electric_scooter"}, {"bike_id": "8c9d6465868b666cdaebb549f5bcb768", "is_reserved": 0, "fusion_lon": 0.0, "lat": 38.9274625, "is_disabled": 0, "name": "8c9d6465868b666cdaebb549f5bcb768", "fusion_lat": 0.0, "rental_uris": {"ios": "https://dc.lft.to/lastmile_qr_scan", "android": "https://dc.lft.to/lastmile_qr_scan"}, "lon": -77.05389383333333, "type": "electric_scooter"}, {"bike_id": "9893df86f4d29ae012f4a8c68ace674e", "is_reserved": 0, "fusion_lon": 0.0, "lat": 38.865563, "is_disabled": 0, "name": "9893df86f4d29ae012f4a8c68ace674e", "fusion_lat": 0.0, "rental_uris": {"ios": "https://dc.lft.to/lastmile_qr_scan", "android": "https://dc.lft.to/lastmile_qr_scan"}, "lon": -76.989488, "type": "electric_scooter"}, {"bike_id": "407cf7fec84747971e6b82e4fe79748c", "is_reserved": 0, "fusion_lon": 0.0, "lat": 38.852153, "is_disabled": 0, "name": "407cf7fec84747971e6b82e4fe79748c", "fusion_lat": 0.0, "rental_uris": {"ios": "https://dc.lft.to/lastmile_qr_scan", "android": "https://dc.lft.to/lastmile_qr_scan"}, "lon": -77.12958383333333, "type": "electric_bike"}, {"bike_id": "923635f8437283373613fea6ddfa8728", "is_reserved": 0, "fusion_lon": 0.0, "lat": 38.93948683333333, "is_disabled": 0, "name": "923635f8437283373613fea6ddfa8728", "fusion_lat": 0.0, "rental_uris": {"ios": "https://dc.lft.to/lastmile_qr_scan", "android": "https://dc.lft.to/lastmile_qr_scan"}, "lon": -77.032609, "type": "electric_scooter"}, {"bike_id": "132be61d760434cfdb7c6ffdb8779afb", "is_reserved": 0, "fusion_lon": 0.0, "lat": 38.92372983333333, "is_disabled": 0, "name": "132be61d760434cfdb7c6ffdb8779afb", "fusion_lat": 0.0, "rental_uris": {"ios": "https://dc.lft.to/lastmile_qr_scan", "android": "https://dc.lft.to/lastmile_qr_scan"}, "lon": -77.01913916666666, "type": "electric_scooter"}, {"bike_id": "797f68aabcbef56e90d5da84d4d69cc3", "is_reserved": 0, "fusion_lon": 0.0, "lat": 38.92338733333333, "is_disabled": 0, "name": "797f68aabcbef56e90d5da84d4d69cc3", "fusion_lat": 0.0, "rental_uris": {"ios": "https://dc.lft.to/lastmile_qr_scan", "android": "https://dc.lft.to/lastmile_qr_scan"}, "lon": -77.0191205, "type": "electric_scooter"}, {"bike_id": "0bde42332e9296956ee703ea811be6e1", "is_reserved": 0, "fusion_lon": 0.0, "lat": 38.9004725, "is_disabled": 0, "name": "0bde42332e9296956ee703ea811be6e1", "fusion_lat": 0.0, "rental_uris": {"ios": "https://dc.lft.to/lastmile_qr_scan", "android": "https://dc.lft.to/lastmile_qr_scan"}, "lon": -77.00754033333334, "type": "electric_scooter"}, {"bike_id": "070eb6973a591ccfc11257bfd46dcd35", "is_reserved": 0, "fusion_lon": 0.0, "lat": 38.903651833333335, "is_disabled": 0, "name": "070eb6973a591ccfc11257bfd46dcd35", "fusion_lat": 0.0, "rental_uris": {"ios": "https://dc.lft.to/lastmile_qr_scan", "android": "https://dc.lft.to/lastmile_qr_scan"}, "lon": -77.04416983333333, "type": "electric_scooter"}, {"bike_id": "a63e770e0d90582cf14e881e277685ae", "is_reserved": 0, "fusion_lon": 0.0, "lat": 38.80698983333333, "is_disabled": 0, "name": "a63e770e0d90582cf14e881e277685ae", "fusion_lat": 0.0, "rental_uris": {"ios": "https://dc.lft.to/lastmile_qr_scan", "android": "https://dc.lft.to/lastmile_qr_scan"}, "lon": -77.059587, "type": "electric_bike"}, {"bike_id": "970cbc2d0e1a84f7f9858f9611769de6", "is_reserved": 0, "fusion_lon": 0.0, "lat": 38.865944, "is_disabled": 0, "name": "970cbc2d0e1a84f7f9858f9611769de6", "fusion_lat": 0.0, "rental_uris": {"ios": "https://dc.lft.to/lastmile_qr_scan", "android": "https://dc.lft.to/lastmile_qr_scan"}, "lon": -76.93228666666667, "type": "electric_bike"}, {"bike_id": "2396b3bfcdfbe0fde5f46ad95f4343c7", "is_reserved": 0, "fusion_lon": 0.0, "lat": 38.939516166666664, "is_disabled": 0, "name": "2396b3bfcdfbe0fde5f46ad95f4343c7", "fusion_lat": 0.0, "rental_uris": {"ios": "https://dc.lft.to/lastmile_qr_scan", "android": "https://dc.lft.to/lastmile_qr_scan"}, "lon": -77.03255633333333, "type": "electric_scooter"}, {"bike_id": "2d15b385e24f2d1da241387b2cee3d85", "is_reserved": 0, "fusion_lon": 0.0, "lat": 38.90427233333333, "is_disabled": 0, "name": "2d15b385e24f2d1da241387b2cee3d85", "fusion_lat": 0.0, "rental_uris": {"ios": "https://dc.lft.to/lastmile_qr_scan", "android": "https://dc.lft.to/lastmile_qr_scan"}, "lon": -77.03425533333333, "type": "electric_scooter"}, {"bike_id": "3082b6da5ce656b1035212d6c3adc36d", "is_reserved": 0, "fusion_lon": 0.0, "lat": 38.89231783333334, "is_disabled": 0, "name": "3082b6da5ce656b1035212d6c3adc36d", "fusion_lat": 0.0, "rental_uris": {"ios": "https://dc.lft.to/lastmile_qr_scan", "android": "https://dc.lft.to/lastmile_qr_scan"}, "lon": -77.025864, "type": "electric_scooter"}, {"bike_id": "b1e5df0865c150330f8c67d8a61d9714", "is_reserved": 0, "fusion_lon": 0.0, "lat": 38.92082166666667, "is_disabled": 0, "name": "b1e5df0865c150330f8c67d8a61d9714", "fusion_lat": 0.0, "rental_uris": {"ios": "https://dc.lft.to/lastmile_qr_scan", "android": "https://dc.lft.to/lastmile_qr_scan"}, "lon": -77.02539766666666, "type": "electric_scooter"}, {"bike_id": "4d0fb12f523d9ce4705b4e874831725c", "is_reserved": 0, "fusion_lon": 0.0, "lat": 38.98593966666667, "is_disabled": 0, "name": "4d0fb12f523d9ce4705b4e874831725c", "fusion_lat": 0.0, "rental_uris": {"ios": "https://dc.lft.to/lastmile_qr_scan", "android": "https://dc.lft.to/lastmile_qr_scan"}, "lon": -77.0375515, "type": "electric_bike"}, {"bike_id": "07de0f2f5f5935b540338997ed58de2e", "is_reserved": 0, "fusion_lon": 0.0, "lat": 38.984648666666665, "is_disabled": 0, "name": "07de0f2f5f5935b540338997ed58de2e", "fusion_lat": 0.0, "rental_uris": {"ios": "https://dc.lft.to/lastmile_qr_scan", "android": "https://dc.lft.to/lastmile_qr_scan"}, "lon": -76.95525733333334, "type": "electric_bike"}, {"bike_id": "8eb9207e6b39abc8c3d957ba63cbdf28", "is_reserved": 0, "fusion_lon": 0.0, "lat": 38.8973175, "is_disabled": 0, "name": "8eb9207e6b39abc8c3d957ba63cbdf28", "fusion_lat": 0.0, "rental_uris": {"ios": "https://dc.lft.to/lastmile_qr_scan", "android": "https://dc.lft.to/lastmile_qr_scan"}, "lon": -77.02689383333333, "type": "electric_scooter"}, {"bike_id": "196cd3858ad215eca2864cdbb1350c94", "is_reserved": 0, "fusion_lon": 0.0, "lat": 38.93226666666666, "is_disabled": 0, "name": "196cd3858ad215eca2864cdbb1350c94", "fusion_lat": 0.0, "rental_uris": {"ios": "https://dc.lft.to/lastmile_qr_scan", "android": "https://dc.lft.to/lastmile_qr_scan"}, "lon": -77.02828883333333, "type": "electric_scooter"}, {"bike_id": "9d06a6fff22f8bdbb67ffc83398705b6", "is_reserved": 0, "fusion_lon": 0.0, "lat": 38.926235, "is_disabled": 0, "name": "9d06a6fff22f8bdbb67ffc83398705b6", "fusion_lat": 0.0, "rental_uris": {"ios": "https://dc.lft.to/lastmile_qr_scan", "android": "https://dc.lft.to/lastmile_qr_scan"}, "lon": -77.03783816666666, "type": "electric_scooter"}, {"bike_id": "25afc725c5c878d6ef563a1e4e8bad24", "is_reserved": 0, "fusion_lon": 0.0, "lat": 38.89789283333333, "is_disabled": 0, "name": "25afc725c5c878d6ef563a1e4e8bad24", "fusion_lat": 0.0, "rental_uris": {"ios": "https://dc.lft.to/lastmile_qr_scan", "android": "https://dc.lft.to/lastmile_qr_scan"}, "lon": -77.03165816666667, "type": "electric_scooter"}, {"bike_id": "ef3a02ce16f98a414ba2624f22fda611", "is_reserved": 0, "fusion_lon": 0.0, "lat": 38.890353166666664, "is_disabled": 0, "name": "ef3a02ce16f98a414ba2624f22fda611", "fusion_lat": 0.0, "rental_uris": {"ios": "https://dc.lft.to/lastmile_qr_scan", "android": "https://dc.lft.to/lastmile_qr_scan"}, "lon": -76.93753833333334, "type": "electric_scooter"}, {"bike_id": "8f78ace1e7c54ed2fccb91eab1de558c", "is_reserved": 0, "fusion_lon": 0.0, "lat": 38.933639, "is_disabled": 0, "name": "8f78ace1e7c54ed2fccb91eab1de558c", "fusion_lat": 0.0, "rental_uris": {"ios": "https://dc.lft.to/lastmile_qr_scan", "android": "https://dc.lft.to/lastmile_qr_scan"}, "lon": -77.05726266666667, "type": "electric_scooter"}, {"bike_id": "cc07a13b807fdffa5622b4324e8e5c80", "is_reserved": 0, "fusion_lon": 0.0, "lat": 38.89453233333333, "is_disabled": 0, "name": "cc07a13b807fdffa5622b4324e8e5c80", "fusion_lat": 0.0, "rental_uris": {"ios": "https://dc.lft.to/lastmile_qr_scan", "android": "https://dc.lft.to/lastmile_qr_scan"}, "lon": -76.97035533333333, "type": "electric_bike"}, {"bike_id": "0cb546a807d6ba0346dcee3a4ea64fe2", "is_reserved": 0, "fusion_lon": 0.0, "lat": 38.9104075, "is_disabled": 0, "name": "0cb546a807d6ba0346dcee3a4ea64fe2", "fusion_lat": 0.0, "rental_uris": {"ios": "https://dc.lft.to/lastmile_qr_scan", "android": "https://dc.lft.to/lastmile_qr_scan"}, "lon": -77.03583216666667, "type": "electric_scooter"}, {"bike_id": "1b21517c3edab8e25471437730f0336e", "is_reserved": 0, "fusion_lon": 0.0, "lat": 38.862023, "is_disabled": 0, "name": "1b21517c3edab8e25471437730f0336e", "fusion_lat": 0.0, "rental_uris": {"ios": "https://dc.lft.to/lastmile_qr_scan", "android": "https://dc.lft.to/lastmile_qr_scan"}, "lon": -76.99464433333333, "type": "electric_scooter"}, {"bike_id": "7a1666178fef939862be6168e40631c9", "is_reserved": 0, "fusion_lon": 0.0, "lat": 38.92104416666667, "is_disabled": 0, "name": "7a1666178fef939862be6168e40631c9", "fusion_lat": 0.0, "rental_uris": {"ios": "https://dc.lft.to/lastmile_qr_scan", "android": "https://dc.lft.to/lastmile_qr_scan"}, "lon": -77.02210016666666, "type": "electric_scooter"}, {"bike_id": "bfa774f7f1f7eaff08a67f54cfe8b47a", "is_reserved": 0, "fusion_lon": 0.0, "lat": 38.89218266666666, "is_disabled": 0, "name": "bfa774f7f1f7eaff08a67f54cfe8b47a", "fusion_lat": 0.0, "rental_uris": {"ios": "https://dc.lft.to/lastmile_qr_scan", "android": "https://dc.lft.to/lastmile_qr_scan"}, "lon": -77.02646016666667, "type": "electric_scooter"}, {"bike_id": "5b89fa92d6383f12594a00cc26c89dbb", "is_reserved": 0, "fusion_lon": 0.0, "lat": 38.902432166666664, "is_disabled": 0, "name": "5b89fa92d6383f12594a00cc26c89dbb", "fusion_lat": 0.0, "rental_uris": {"ios": "https://dc.lft.to/lastmile_qr_scan", "android": "https://dc.lft.to/lastmile_qr_scan"}, "lon": -77.03959166666667, "type": "electric_scooter"}, {"bike_id": "a48fea5a1995cb516311056185672f44", "is_reserved": 0, "fusion_lon": 0.0, "lat": 38.885910333333335, "is_disabled": 0, "name": "a48fea5a1995cb516311056185672f44", "fusion_lat": 0.0, "rental_uris": {"ios": "https://dc.lft.to/lastmile_qr_scan", "android": "https://dc.lft.to/lastmile_qr_scan"}, "lon": -77.01771483333333, "type": "electric_scooter"}, {"bike_id": "f12a6b8cd20fa55d73def7cd301b3fb7", "is_reserved": 0, "fusion_lon": 0.0, "lat": 38.907356, "is_disabled": 0, "name": "f12a6b8cd20fa55d73def7cd301b3fb7", "fusion_lat": 0.0, "rental_uris": {"ios": "https://dc.lft.to/lastmile_qr_scan", "android": "https://dc.lft.to/lastmile_qr_scan"}, "lon": -76.98648566666667, "type": "electric_scooter"}, {"bike_id": "90160f2225b82c3227ed4ce953bb0731", "is_reserved": 0, "fusion_lon": 0.0, "lat": 38.903486, "is_disabled": 0, "name": "90160f2225b82c3227ed4ce953bb0731", "fusion_lat": 0.0, "rental_uris": {"ios": "https://dc.lft.to/lastmile_qr_scan", "android": "https://dc.lft.to/lastmile_qr_scan"}, "lon": -77.04005583333333, "type": "electric_scooter"}, {"bike_id": "d4093256cd3ec8393005df394b68a2cb", "is_reserved": 0, "fusion_lon": 0.0, "lat": 38.93083633333333, "is_disabled": 0, "name": "d4093256cd3ec8393005df394b68a2cb", "fusion_lat": 0.0, "rental_uris": {"ios": "https://dc.lft.to/lastmile_qr_scan", "android": "https://dc.lft.to/lastmile_qr_scan"}, "lon": -77.03420483333333, "type": "electric_scooter"}, {"bike_id": "49f5bb41f95d94a9bcb8b857774c1ed1", "is_reserved": 0, "fusion_lon": 0.0, "lat": 38.82258366666667, "is_disabled": 0, "name": "49f5bb41f95d94a9bcb8b857774c1ed1", "fusion_lat": 0.0, "rental_uris": {"ios": "https://dc.lft.to/lastmile_qr_scan", "android": "https://dc.lft.to/lastmile_qr_scan"}, "lon": -77.005494, "type": "electric_bike"}, {"bike_id": "30279b9f59f11e543083a078c6dc9207", "is_reserved": 0, "fusion_lon": 0.0, "lat": 38.89736666666667, "is_disabled": 0, "name": "30279b9f59f11e543083a078c6dc9207", "fusion_lat": 0.0, "rental_uris": {"ios": "https://dc.lft.to/lastmile_qr_scan", "android": "https://dc.lft.to/lastmile_qr_scan"}, "lon": -77.04619966666667, "type": "electric_scooter"}, {"bike_id": "98b5ea7566a3f7f0eca3e7a76fa86cec", "is_reserved": 0, "fusion_lon": 0.0, "lat": 38.8927925, "is_disabled": 0, "name": "98b5ea7566a3f7f0eca3e7a76fa86cec", "fusion_lat": 0.0, "rental_uris": {"ios": "https://dc.lft.to/lastmile_qr_scan", "android": "https://dc.lft.to/lastmile_qr_scan"}, "lon": -77.02603366666666, "type": "electric_scooter"}, {"bike_id": "5ce3b825f5ba4084f952559fb00157ab", "is_reserved": 0, "fusion_lon": 0.0, "lat": 38.940876833333334, "is_disabled": 0, "name": "5ce3b825f5ba4084f952559fb00157ab", "fusion_lat": 0.0, "rental_uris": {"ios": "https://dc.lft.to/lastmile_qr_scan", "android": "https://dc.lft.to/lastmile_qr_scan"}, "lon": -77.061877, "type": "electric_scooter"}, {"bike_id": "c96b953d49419365cd94303bd712cf47", "is_reserved": 0, "fusion_lon": 0.0, "lat": 38.90473333333333, "is_disabled": 0, "name": "c96b953d49419365cd94303bd712cf47", "fusion_lat": 0.0, "rental_uris": {"ios": "https://dc.lft.to/lastmile_qr_scan", "android": "https://dc.lft.to/lastmile_qr_scan"}, "lon": -77.046634, "type": "electric_scooter"}, {"bike_id": "a240401015f8fbc44c373be500189f4b", "is_reserved": 0, "fusion_lon": 0.0, "lat": 38.892224, "is_disabled": 0, "name": "a240401015f8fbc44c373be500189f4b", "fusion_lat": 0.0, "rental_uris": {"ios": "https://dc.lft.to/lastmile_qr_scan", "android": "https://dc.lft.to/lastmile_qr_scan"}, "lon": -77.04868433333333, "type": "electric_scooter"}, {"bike_id": "f80fc09a0dc1cbcef3af135ef42e59dc", "is_reserved": 0, "fusion_lon": 0.0, "lat": 38.86522316666667, "is_disabled": 0, "name": "f80fc09a0dc1cbcef3af135ef42e59dc", "fusion_lat": 0.0, "rental_uris": {"ios": "https://dc.lft.to/lastmile_qr_scan", "android": "https://dc.lft.to/lastmile_qr_scan"}, "lon": -76.9903995, "type": "electric_scooter"}, {"bike_id": "bc5c3545b33bd282d00e4e822b23016e", "is_reserved": 0, "fusion_lon": 0.0, "lat": 38.851742, "is_disabled": 0, "name": "bc5c3545b33bd282d00e4e822b23016e", "fusion_lat": 0.0, "rental_uris": {"ios": "https://dc.lft.to/lastmile_qr_scan", "android": "https://dc.lft.to/lastmile_qr_scan"}, "lon": -76.99581116666667, "type": "electric_scooter"}, {"bike_id": "3a3801b84d8f88c1e6958048ea8a8d07", "is_reserved": 0, "fusion_lon": 0.0, "lat": 38.916076, "is_disabled": 0, "name": "3a3801b84d8f88c1e6958048ea8a8d07", "fusion_lat": 0.0, "rental_uris": {"ios": "https://dc.lft.to/lastmile_qr_scan", "android": "https://dc.lft.to/lastmile_qr_scan"}, "lon": -77.0457155, "type": "electric_scooter"}, {"bike_id": "ddfe71f271a722032f6d804ae61368bc", "is_reserved": 0, "fusion_lon": 0.0, "lat": 38.903277, "is_disabled": 0, "name": "ddfe71f271a722032f6d804ae61368bc", "fusion_lat": 0.0, "rental_uris": {"ios": "https://dc.lft.to/lastmile_qr_scan", "android": "https://dc.lft.to/lastmile_qr_scan"}, "lon": -77.01999366666666, "type": "electric_scooter"}, {"bike_id": "156254133498b1c35b970589bfea5d0f", "is_reserved": 0, "fusion_lon": 0.0, "lat": 38.93346366666667, "is_disabled": 0, "name": "156254133498b1c35b970589bfea5d0f", "fusion_lat": 0.0, "rental_uris": {"ios": "https://dc.lft.to/lastmile_qr_scan", "android": "https://dc.lft.to/lastmile_qr_scan"}, "lon": -77.06939416666667, "type": "electric_scooter"}, {"bike_id": "099aa18324b83aa12ad60775b17551c2", "is_reserved": 0, "fusion_lon": 0.0, "lat": 38.908171, "is_disabled": 0, "name": "099aa18324b83aa12ad60775b17551c2", "fusion_lat": 0.0, "rental_uris": {"ios": "https://dc.lft.to/lastmile_qr_scan", "android": "https://dc.lft.to/lastmile_qr_scan"}, "lon": -77.03466833333333, "type": "electric_scooter"}, {"bike_id": "11028158aabba71571dc2c4fef73890c", "is_reserved": 0, "fusion_lon": 0.0, "lat": 38.902716, "is_disabled": 0, "name": "11028158aabba71571dc2c4fef73890c", "fusion_lat": 0.0, "rental_uris": {"ios": "https://dc.lft.to/lastmile_qr_scan", "android": "https://dc.lft.to/lastmile_qr_scan"}, "lon": -77.03833483333334, "type": "electric_scooter"}, {"bike_id": "b0bd7e823bedd4191f16e950a8d27621", "is_reserved": 0, "fusion_lon": 0.0, "lat": 38.866625166666665, "is_disabled": 0, "name": "b0bd7e823bedd4191f16e950a8d27621", "fusion_lat": 0.0, "rental_uris": {"ios": "https://dc.lft.to/lastmile_qr_scan", "android": "https://dc.lft.to/lastmile_qr_scan"}, "lon": -76.98903466666667, "type": "electric_scooter"}, {"bike_id": "e8253b35ef09634704a77e3ff0eb9ded", "is_reserved": 0, "fusion_lon": 0.0, "lat": 38.92097183333333, "is_disabled": 0, "name": "e8253b35ef09634704a77e3ff0eb9ded", "fusion_lat": 0.0, "rental_uris": {"ios": "https://dc.lft.to/lastmile_qr_scan", "android": "https://dc.lft.to/lastmile_qr_scan"}, "lon": -77.06336566666667, "type": "electric_scooter"}, {"bike_id": "3599e1a6d7536ea228b49fce7474ad69", "is_reserved": 0, "fusion_lon": 0.0, "lat": 38.89221233333333, "is_disabled": 0, "name": "3599e1a6d7536ea228b49fce7474ad69", "fusion_lat": 0.0, "rental_uris": {"ios": "https://dc.lft.to/lastmile_qr_scan", "android": "https://dc.lft.to/lastmile_qr_scan"}, "lon": -77.04510533333334, "type": "electric_scooter"}, {"bike_id": "a507dbb6adc937b0c7af0dab444954a0", "is_reserved": 0, "fusion_lon": 0.0, "lat": 38.89908283333333, "is_disabled": 0, "name": "a507dbb6adc937b0c7af0dab444954a0", "fusion_lat": 0.0, "rental_uris": {"ios": "https://dc.lft.to/lastmile_qr_scan", "android": "https://dc.lft.to/lastmile_qr_scan"}, "lon": -77.03935, "type": "electric_scooter"}, {"bike_id": "aa2aa850845f8f904afdc09b8791b4e0", "is_reserved": 0, "fusion_lon": 0.0, "lat": 38.909732166666664, "is_disabled": 0, "name": "aa2aa850845f8f904afdc09b8791b4e0", "fusion_lat": 0.0, "rental_uris": {"ios": "https://dc.lft.to/lastmile_qr_scan", "android": "https://dc.lft.to/lastmile_qr_scan"}, "lon": -77.04869983333333, "type": "electric_scooter"}, {"bike_id": "e3ecfa2b5b60cc8f793650a25cfe8de8", "is_reserved": 0, "fusion_lon": 0.0, "lat": 38.88861966666666, "is_disabled": 0, "name": "e3ecfa2b5b60cc8f793650a25cfe8de8", "fusion_lat": 0.0, "rental_uris": {"ios": "https://dc.lft.to/lastmile_qr_scan", "android": "https://dc.lft.to/lastmile_qr_scan"}, "lon": -77.00120133333333, "type": "electric_scooter"}, {"bike_id": "89ee7e402620561b973e19cb7f9efbc5", "is_reserved": 0, "fusion_lon": 0.0, "lat": 38.90960333333334, "is_disabled": 0, "name": "89ee7e402620561b973e19cb7f9efbc5", "fusion_lat": 0.0, "rental_uris": {"ios": "https://dc.lft.to/lastmile_qr_scan", "android": "https://dc.lft.to/lastmile_qr_scan"}, "lon": -77.0451425, "type": "electric_scooter"}, {"bike_id": "6e0ab0b7df941cf710d208ca74af0c50", "is_reserved": 0, "fusion_lon": 0.0, "lat": 38.905587, "is_disabled": 0, "name": "6e0ab0b7df941cf710d208ca74af0c50", "fusion_lat": 0.0, "rental_uris": {"ios": "https://dc.lft.to/lastmile_qr_scan", "android": "https://dc.lft.to/lastmile_qr_scan"}, "lon": -77.03431133333333, "type": "electric_scooter"}, {"bike_id": "56c6469a8d0181029daf521af5751b96", "is_reserved": 0, "fusion_lon": 0.0, "lat": 38.8850225, "is_disabled": 0, "name": "56c6469a8d0181029daf521af5751b96", "fusion_lat": 0.0, "rental_uris": {"ios": "https://dc.lft.to/lastmile_qr_scan", "android": "https://dc.lft.to/lastmile_qr_scan"}, "lon": -77.00567416666667, "type": "electric_scooter"}, {"bike_id": "9f9bb3d237af14a791d2a86737da8750", "is_reserved": 0, "fusion_lon": 0.0, "lat": 38.904983666666666, "is_disabled": 0, "name": "9f9bb3d237af14a791d2a86737da8750", "fusion_lat": 0.0, "rental_uris": {"ios": "https://dc.lft.to/lastmile_qr_scan", "android": "https://dc.lft.to/lastmile_qr_scan"}, "lon": -76.9901505, "type": "electric_scooter"}, {"bike_id": "7c4c97c89a95b62eacb41b2049ca6095", "is_reserved": 0, "fusion_lon": 0.0, "lat": 38.904705, "is_disabled": 0, "name": "7c4c97c89a95b62eacb41b2049ca6095", "fusion_lat": 0.0, "rental_uris": {"ios": "https://dc.lft.to/lastmile_qr_scan", "android": "https://dc.lft.to/lastmile_qr_scan"}, "lon": -77.04661666666667, "type": "electric_scooter"}, {"bike_id": "ebf71dbaf95bf83981c348bc51e14e90", "is_reserved": 0, "fusion_lon": 0.0, "lat": 38.91957816666667, "is_disabled": 0, "name": "ebf71dbaf95bf83981c348bc51e14e90", "fusion_lat": 0.0, "rental_uris": {"ios": "https://dc.lft.to/lastmile_qr_scan", "android": "https://dc.lft.to/lastmile_qr_scan"}, "lon": -77.014772, "type": "electric_scooter"}, {"bike_id": "27f8149f9d9753ebc1fb9917459c8a9d", "is_reserved": 0, "fusion_lon": 0.0, "lat": 38.981377333333334, "is_disabled": 0, "name": "27f8149f9d9753ebc1fb9917459c8a9d", "fusion_lat": 0.0, "rental_uris": {"ios": "https://dc.lft.to/lastmile_qr_scan", "android": "https://dc.lft.to/lastmile_qr_scan"}, "lon": -77.00767716666667, "type": "electric_bike"}, {"bike_id": "a33b18fcfe0f3c20c06f5d8c7f1334cd", "is_reserved": 0, "fusion_lon": 0.0, "lat": 38.90418716666667, "is_disabled": 0, "name": "a33b18fcfe0f3c20c06f5d8c7f1334cd", "fusion_lat": 0.0, "rental_uris": {"ios": "https://dc.lft.to/lastmile_qr_scan", "android": "https://dc.lft.to/lastmile_qr_scan"}, "lon": -77.03281216666667, "type": "electric_scooter"}, {"bike_id": "f3e867be87ee24f9bdd1a6b0a79fe713", "is_reserved": 0, "fusion_lon": 0.0, "lat": 38.892180333333336, "is_disabled": 0, "name": "f3e867be87ee24f9bdd1a6b0a79fe713", "fusion_lat": 0.0, "rental_uris": {"ios": "https://dc.lft.to/lastmile_qr_scan", "android": "https://dc.lft.to/lastmile_qr_scan"}, "lon": -77.0464765, "type": "electric_scooter"}, {"bike_id": "2b83cfe6858115f079f41a488fc52673", "is_reserved": 0, "fusion_lon": 0.0, "lat": 38.904468666666666, "is_disabled": 0, "name": "2b83cfe6858115f079f41a488fc52673", "fusion_lat": 0.0, "rental_uris": {"ios": "https://dc.lft.to/lastmile_qr_scan", "android": "https://dc.lft.to/lastmile_qr_scan"}, "lon": -77.03482816666667, "type": "electric_scooter"}, {"bike_id": "5354de0ee0c1cfa089b3828147cabb34", "is_reserved": 0, "fusion_lon": 0.0, "lat": 38.891913, "is_disabled": 0, "name": "5354de0ee0c1cfa089b3828147cabb34", "fusion_lat": 0.0, "rental_uris": {"ios": "https://dc.lft.to/lastmile_qr_scan", "android": "https://dc.lft.to/lastmile_qr_scan"}, "lon": -77.02834416666667, "type": "electric_scooter"}, {"bike_id": "8ff20b394ec0e394e63cd2a22ecf20df", "is_reserved": 0, "fusion_lon": 0.0, "lat": 38.9002835, "is_disabled": 0, "name": "8ff20b394ec0e394e63cd2a22ecf20df", "fusion_lat": 0.0, "rental_uris": {"ios": "https://dc.lft.to/lastmile_qr_scan", "android": "https://dc.lft.to/lastmile_qr_scan"}, "lon": -77.02216966666667, "type": "electric_scooter"}, {"bike_id": "15285f8b1619b184234bbf97838bf46a", "is_reserved": 0, "fusion_lon": 0.0, "lat": 38.896101, "is_disabled": 0, "name": "15285f8b1619b184234bbf97838bf46a", "fusion_lat": 0.0, "rental_uris": {"ios": "https://dc.lft.to/lastmile_qr_scan", "android": "https://dc.lft.to/lastmile_qr_scan"}, "lon": -77.04793266666667, "type": "electric_scooter"}, {"bike_id": "bcaf7faf93281eaf98e5e3c82548353d", "is_reserved": 0, "fusion_lon": 0.0, "lat": 38.959288666666666, "is_disabled": 0, "name": "bcaf7faf93281eaf98e5e3c82548353d", "fusion_lat": 0.0, "rental_uris": {"ios": "https://dc.lft.to/lastmile_qr_scan", "android": "https://dc.lft.to/lastmile_qr_scan"}, "lon": -77.03120516666667, "type": "electric_scooter"}, {"bike_id": "db477c40a879b95b8cdf6330ff251c2c", "is_reserved": 0, "fusion_lon": 0.0, "lat": 38.97878766666667, "is_disabled": 0, "name": "db477c40a879b95b8cdf6330ff251c2c", "fusion_lat": 0.0, "rental_uris": {"ios": "https://dc.lft.to/lastmile_qr_scan", "android": "https://dc.lft.to/lastmile_qr_scan"}, "lon": -77.0254895, "type": "electric_scooter"}, {"bike_id": "b028719b19c96ba07dfb2e54b1ef7c7e", "is_reserved": 0, "fusion_lon": 0.0, "lat": 38.862397666666666, "is_disabled": 0, "name": "b028719b19c96ba07dfb2e54b1ef7c7e", "fusion_lat": 0.0, "rental_uris": {"ios": "https://dc.lft.to/lastmile_qr_scan", "android": "https://dc.lft.to/lastmile_qr_scan"}, "lon": -76.99495483333334, "type": "electric_scooter"}, {"bike_id": "b3d4442d1b6da860888ba918839142fd", "is_reserved": 0, "fusion_lon": 0.0, "lat": 38.940974833333335, "is_disabled": 0, "name": "b3d4442d1b6da860888ba918839142fd", "fusion_lat": 0.0, "rental_uris": {"ios": "https://dc.lft.to/lastmile_qr_scan", "android": "https://dc.lft.to/lastmile_qr_scan"}, "lon": -77.032789, "type": "electric_scooter"}, {"bike_id": "d460245ae76478f336f64f635990aba9", "is_reserved": 0, "fusion_lon": 0.0, "lat": 38.924404, "is_disabled": 0, "name": "d460245ae76478f336f64f635990aba9", "fusion_lat": 0.0, "rental_uris": {"ios": "https://dc.lft.to/lastmile_qr_scan", "android": "https://dc.lft.to/lastmile_qr_scan"}, "lon": -77.02031983333333, "type": "electric_scooter"}, {"bike_id": "20bf29e6c50c98e89877607cee8569a8", "is_reserved": 0, "fusion_lon": 0.0, "lat": 38.90952716666666, "is_disabled": 0, "name": "20bf29e6c50c98e89877607cee8569a8", "fusion_lat": 0.0, "rental_uris": {"ios": "https://dc.lft.to/lastmile_qr_scan", "android": "https://dc.lft.to/lastmile_qr_scan"}, "lon": -77.04254833333333, "type": "electric_scooter"}, {"bike_id": "33ecbb405276f6a83cc0a5256656f965", "is_reserved": 0, "fusion_lon": 0.0, "lat": 38.903504, "is_disabled": 0, "name": "33ecbb405276f6a83cc0a5256656f965", "fusion_lat": 0.0, "rental_uris": {"ios": "https://dc.lft.to/lastmile_qr_scan", "android": "https://dc.lft.to/lastmile_qr_scan"}, "lon": -77.0435385, "type": "electric_scooter"}, {"bike_id": "596c981dc176a8260ac58c957d52d431", "is_reserved": 0, "fusion_lon": 0.0, "lat": 38.902171333333335, "is_disabled": 0, "name": "596c981dc176a8260ac58c957d52d431", "fusion_lat": 0.0, "rental_uris": {"ios": "https://dc.lft.to/lastmile_qr_scan", "android": "https://dc.lft.to/lastmile_qr_scan"}, "lon": -77.05912266666667, "type": "electric_bike"}, {"bike_id": "4c5b3a9845dd26eb61e9f273fb0a48af", "is_reserved": 0, "fusion_lon": 0.0, "lat": 38.94505866666667, "is_disabled": 0, "name": "4c5b3a9845dd26eb61e9f273fb0a48af", "fusion_lat": 0.0, "rental_uris": {"ios": "https://dc.lft.to/lastmile_qr_scan", "android": "https://dc.lft.to/lastmile_qr_scan"}, "lon": -77.03360833333333, "type": "electric_scooter"}, {"bike_id": "33524e5e42a7dca93285e0d041c0ce9c", "is_reserved": 0, "fusion_lon": 0.0, "lat": 38.910480166666666, "is_disabled": 0, "name": "33524e5e42a7dca93285e0d041c0ce9c", "fusion_lat": 0.0, "rental_uris": {"ios": "https://dc.lft.to/lastmile_qr_scan", "android": "https://dc.lft.to/lastmile_qr_scan"}, "lon": -77.01511583333334, "type": "electric_scooter"}, {"bike_id": "7e1c1140e33322915157a16567a67e22", "is_reserved": 0, "fusion_lon": 0.0, "lat": 38.907937833333335, "is_disabled": 0, "name": "7e1c1140e33322915157a16567a67e22", "fusion_lat": 0.0, "rental_uris": {"ios": "https://dc.lft.to/lastmile_qr_scan", "android": "https://dc.lft.to/lastmile_qr_scan"}, "lon": -77.048681, "type": "electric_scooter"}, {"bike_id": "cf7451b88040a0cc068ca8d9f141bb49", "is_reserved": 0, "fusion_lon": 0.0, "lat": 38.8641385, "is_disabled": 0, "name": "cf7451b88040a0cc068ca8d9f141bb49", "fusion_lat": 0.0, "rental_uris": {"ios": "https://dc.lft.to/lastmile_qr_scan", "android": "https://dc.lft.to/lastmile_qr_scan"}, "lon": -76.98057716666666, "type": "electric_scooter"}, {"bike_id": "fd93a29464e5978b5254fd82da628dcc", "is_reserved": 0, "fusion_lon": 0.0, "lat": 38.889925, "is_disabled": 0, "name": "fd93a29464e5978b5254fd82da628dcc", "fusion_lat": 0.0, "rental_uris": {"ios": "https://dc.lft.to/lastmile_qr_scan", "android": "https://dc.lft.to/lastmile_qr_scan"}, "lon": -76.94704, "type": "electric_scooter"}, {"bike_id": "da50f2315f577313ea33c621d33d6168", "is_reserved": 0, "fusion_lon": 0.0, "lat": 38.832328833333335, "is_disabled": 0, "name": "da50f2315f577313ea33c621d33d6168", "fusion_lat": 0.0, "rental_uris": {"ios": "https://dc.lft.to/lastmile_qr_scan", "android": "https://dc.lft.to/lastmile_qr_scan"}, "lon": -76.94623366666667, "type": "electric_bike"}, {"bike_id": "0d0173e99419f520057f95c98cadcb1d", "is_reserved": 0, "fusion_lon": 0.0, "lat": 38.92873266666667, "is_disabled": 0, "name": "0d0173e99419f520057f95c98cadcb1d", "fusion_lat": 0.0, "rental_uris": {"ios": "https://dc.lft.to/lastmile_qr_scan", "android": "https://dc.lft.to/lastmile_qr_scan"}, "lon": -77.03343083333333, "type": "electric_scooter"}, {"bike_id": "296ef38678e24c056b2428c978c8b11e", "is_reserved": 0, "fusion_lon": 0.0, "lat": 38.895299, "is_disabled": 0, "name": "296ef38678e24c056b2428c978c8b11e", "fusion_lat": 0.0, "rental_uris": {"ios": "https://dc.lft.to/lastmile_qr_scan", "android": "https://dc.lft.to/lastmile_qr_scan"}, "lon": -77.03350333333333, "type": "electric_scooter"}, {"bike_id": "65068e3d6f1d398b2bd1f58ea8e71e83", "is_reserved": 0, "fusion_lon": 0.0, "lat": 38.915757166666666, "is_disabled": 0, "name": "65068e3d6f1d398b2bd1f58ea8e71e83", "fusion_lat": 0.0, "rental_uris": {"ios": "https://dc.lft.to/lastmile_qr_scan", "android": "https://dc.lft.to/lastmile_qr_scan"}, "lon": -77.0469665, "type": "electric_scooter"}, {"bike_id": "8acd1cfb279fa08be1384f6fe6cf2c1b", "is_reserved": 0, "fusion_lon": 0.0, "lat": 38.9450985, "is_disabled": 0, "name": "8acd1cfb279fa08be1384f6fe6cf2c1b", "fusion_lat": 0.0, "rental_uris": {"ios": "https://dc.lft.to/lastmile_qr_scan", "android": "https://dc.lft.to/lastmile_qr_scan"}, "lon": -77.0066975, "type": "electric_bike"}, {"bike_id": "9a441b486cca66a4178af5880d1b746e", "is_reserved": 0, "fusion_lon": 0.0, "lat": 38.90252916666667, "is_disabled": 0, "name": "9a441b486cca66a4178af5880d1b746e", "fusion_lat": 0.0, "rental_uris": {"ios": "https://dc.lft.to/lastmile_qr_scan", "android": "https://dc.lft.to/lastmile_qr_scan"}, "lon": -77.0341795, "type": "electric_scooter"}, {"bike_id": "0d0c64c01221f95624faaf825cf4a5fe", "is_reserved": 0, "fusion_lon": 0.0, "lat": 38.862405833333334, "is_disabled": 0, "name": "0d0c64c01221f95624faaf825cf4a5fe", "fusion_lat": 0.0, "rental_uris": {"ios": "https://dc.lft.to/lastmile_qr_scan", "android": "https://dc.lft.to/lastmile_qr_scan"}, "lon": -76.9949265, "type": "electric_scooter"}, {"bike_id": "bb8f2182f32ee84ce9b68ec7a3f5b11f", "is_reserved": 0, "fusion_lon": 0.0, "lat": 38.9025795, "is_disabled": 0, "name": "bb8f2182f32ee84ce9b68ec7a3f5b11f", "fusion_lat": 0.0, "rental_uris": {"ios": "https://dc.lft.to/lastmile_qr_scan", "android": "https://dc.lft.to/lastmile_qr_scan"}, "lon": -77.0153295, "type": "electric_scooter"}, {"bike_id": "5959338ba892214830acd008300f135b", "is_reserved": 0, "fusion_lon": 0.0, "lat": 38.8918965, "is_disabled": 0, "name": "5959338ba892214830acd008300f135b", "fusion_lat": 0.0, "rental_uris": {"ios": "https://dc.lft.to/lastmile_qr_scan", "android": "https://dc.lft.to/lastmile_qr_scan"}, "lon": -77.02218233333333, "type": "electric_scooter"}, {"bike_id": "f39ba3fa24b60bae63bb056aaa063c97", "is_reserved": 0, "fusion_lon": 0.0, "lat": 38.902794, "is_disabled": 0, "name": "f39ba3fa24b60bae63bb056aaa063c97", "fusion_lat": 0.0, "rental_uris": {"ios": "https://dc.lft.to/lastmile_qr_scan", "android": "https://dc.lft.to/lastmile_qr_scan"}, "lon": -77.03644266666667, "type": "electric_scooter"}, {"bike_id": "aa2ffbb77405e6460b633dd0187ce34e", "is_reserved": 0, "fusion_lon": 0.0, "lat": 38.9203575, "is_disabled": 0, "name": "aa2ffbb77405e6460b633dd0187ce34e", "fusion_lat": 0.0, "rental_uris": {"ios": "https://dc.lft.to/lastmile_qr_scan", "android": "https://dc.lft.to/lastmile_qr_scan"}, "lon": -76.99940416666666, "type": "electric_scooter"}, {"bike_id": "b5d9dce1f8fee9261b9eb9bfe9726149", "is_reserved": 0, "fusion_lon": 0.0, "lat": 38.88217816666667, "is_disabled": 0, "name": "b5d9dce1f8fee9261b9eb9bfe9726149", "fusion_lat": 0.0, "rental_uris": {"ios": "https://dc.lft.to/lastmile_qr_scan", "android": "https://dc.lft.to/lastmile_qr_scan"}, "lon": -76.94178566666666, "type": "electric_scooter"}, {"bike_id": "fbbed810f1b5335c2009d4ed5acbb3ea", "is_reserved": 0, "fusion_lon": 0.0, "lat": 38.923621833333335, "is_disabled": 0, "name": "fbbed810f1b5335c2009d4ed5acbb3ea", "fusion_lat": 0.0, "rental_uris": {"ios": "https://dc.lft.to/lastmile_qr_scan", "android": "https://dc.lft.to/lastmile_qr_scan"}, "lon": -77.0513205, "type": "electric_scooter"}, {"bike_id": "9cbf4b6416704fd42f315cf5d1ad21ab", "is_reserved": 0, "fusion_lon": 0.0, "lat": 38.903757666666664, "is_disabled": 0, "name": "9cbf4b6416704fd42f315cf5d1ad21ab", "fusion_lat": 0.0, "rental_uris": {"ios": "https://dc.lft.to/lastmile_qr_scan", "android": "https://dc.lft.to/lastmile_qr_scan"}, "lon": -77.04498683333334, "type": "electric_scooter"}, {"bike_id": "f7e5a10aaa20135775d4b88724872fb8", "is_reserved": 0, "fusion_lon": 0.0, "lat": 38.923171833333335, "is_disabled": 0, "name": "f7e5a10aaa20135775d4b88724872fb8", "fusion_lat": 0.0, "rental_uris": {"ios": "https://dc.lft.to/lastmile_qr_scan", "android": "https://dc.lft.to/lastmile_qr_scan"}, "lon": -77.03667866666666, "type": "electric_scooter"}, {"bike_id": "5064ac45a0b16620ba3e03a4f938d975", "is_reserved": 0, "fusion_lon": 0.0, "lat": 38.92372566666667, "is_disabled": 0, "name": "5064ac45a0b16620ba3e03a4f938d975", "fusion_lat": 0.0, "rental_uris": {"ios": "https://dc.lft.to/lastmile_qr_scan", "android": "https://dc.lft.to/lastmile_qr_scan"}, "lon": -77.01917033333334, "type": "electric_scooter"}, {"bike_id": "2f892802a3c1a22fefb259dca434341a", "is_reserved": 0, "fusion_lon": 0.0, "lat": 38.90720783333333, "is_disabled": 0, "name": "2f892802a3c1a22fefb259dca434341a", "fusion_lat": 0.0, "rental_uris": {"ios": "https://dc.lft.to/lastmile_qr_scan", "android": "https://dc.lft.to/lastmile_qr_scan"}, "lon": -77.04375683333333, "type": "electric_scooter"}, {"bike_id": "ed808d045ad74956fa576eeed3ec29cd", "is_reserved": 0, "fusion_lon": 0.0, "lat": 38.878846833333334, "is_disabled": 0, "name": "ed808d045ad74956fa576eeed3ec29cd", "fusion_lat": 0.0, "rental_uris": {"ios": "https://dc.lft.to/lastmile_qr_scan", "android": "https://dc.lft.to/lastmile_qr_scan"}, "lon": -76.99142483333333, "type": "electric_scooter"}, {"bike_id": "56af993d7ac8ea0f688b45181cb3dad0", "is_reserved": 0, "fusion_lon": 0.0, "lat": 38.903168, "is_disabled": 0, "name": "56af993d7ac8ea0f688b45181cb3dad0", "fusion_lat": 0.0, "rental_uris": {"ios": "https://dc.lft.to/lastmile_qr_scan", "android": "https://dc.lft.to/lastmile_qr_scan"}, "lon": -77.03421933333334, "type": "electric_scooter"}, {"bike_id": "6dfab81c21dbb45c2547b0cba3769cc8", "is_reserved": 0, "fusion_lon": 0.0, "lat": 38.91661833333333, "is_disabled": 0, "name": "6dfab81c21dbb45c2547b0cba3769cc8", "fusion_lat": 0.0, "rental_uris": {"ios": "https://dc.lft.to/lastmile_qr_scan", "android": "https://dc.lft.to/lastmile_qr_scan"}, "lon": -77.02710183333333, "type": "electric_scooter"}, {"bike_id": "0aafaceb8e3ce3384aeaff45eb90f34b", "is_reserved": 0, "fusion_lon": 0.0, "lat": 38.9248095, "is_disabled": 0, "name": "0aafaceb8e3ce3384aeaff45eb90f34b", "fusion_lat": 0.0, "rental_uris": {"ios": "https://dc.lft.to/lastmile_qr_scan", "android": "https://dc.lft.to/lastmile_qr_scan"}, "lon": -77.05212583333333, "type": "electric_scooter"}, {"bike_id": "9ff982d6883057facd53f4f258115798", "is_reserved": 0, "fusion_lon": 0.0, "lat": 38.9310665, "is_disabled": 0, "name": "9ff982d6883057facd53f4f258115798", "fusion_lat": 0.0, "rental_uris": {"ios": "https://dc.lft.to/lastmile_qr_scan", "android": "https://dc.lft.to/lastmile_qr_scan"}, "lon": -77.03842466666667, "type": "electric_scooter"}, {"bike_id": "7cfe06559d49ba5501a16c18eb982f50", "is_reserved": 0, "fusion_lon": 0.0, "lat": 38.998246333333334, "is_disabled": 0, "name": "7cfe06559d49ba5501a16c18eb982f50", "fusion_lat": 0.0, "rental_uris": {"ios": "https://dc.lft.to/lastmile_qr_scan", "android": "https://dc.lft.to/lastmile_qr_scan"}, "lon": -76.88371216666667, "type": "electric_bike"}, {"bike_id": "f1ebaa9de2e73b227f9dcb03b518190c", "is_reserved": 0, "fusion_lon": 0.0, "lat": 38.904739166666666, "is_disabled": 0, "name": "f1ebaa9de2e73b227f9dcb03b518190c", "fusion_lat": 0.0, "rental_uris": {"ios": "https://dc.lft.to/lastmile_qr_scan", "android": "https://dc.lft.to/lastmile_qr_scan"}, "lon": -77.0601895, "type": "electric_scooter"}, {"bike_id": "c671d1825e6f562aebd6cf9e1fd7c5a1", "is_reserved": 0, "fusion_lon": 0.0, "lat": 38.90139633333333, "is_disabled": 0, "name": "c671d1825e6f562aebd6cf9e1fd7c5a1", "fusion_lat": 0.0, "rental_uris": {"ios": "https://dc.lft.to/lastmile_qr_scan", "android": "https://dc.lft.to/lastmile_qr_scan"}, "lon": -76.99799083333333, "type": "electric_scooter"}, {"bike_id": "44752aab450393392a5d714c45825404", "is_reserved": 0, "fusion_lon": 0.0, "lat": 38.900266, "is_disabled": 0, "name": "44752aab450393392a5d714c45825404", "fusion_lat": 0.0, "rental_uris": {"ios": "https://dc.lft.to/lastmile_qr_scan", "android": "https://dc.lft.to/lastmile_qr_scan"}, "lon": -76.99544166666666, "type": "electric_scooter"}, {"bike_id": "6f379444ae40d70e4d3cbb01f6a5ef6b", "is_reserved": 0, "fusion_lon": 0.0, "lat": 38.93083883333333, "is_disabled": 0, "name": "6f379444ae40d70e4d3cbb01f6a5ef6b", "fusion_lat": 0.0, "rental_uris": {"ios": "https://dc.lft.to/lastmile_qr_scan", "android": "https://dc.lft.to/lastmile_qr_scan"}, "lon": -76.967173, "type": "electric_scooter"}, {"bike_id": "96bd17011a0fcadd8332486392de3bbf", "is_reserved": 0, "fusion_lon": 0.0, "lat": 38.9076565, "is_disabled": 0, "name": "96bd17011a0fcadd8332486392de3bbf", "fusion_lat": 0.0, "rental_uris": {"ios": "https://dc.lft.to/lastmile_qr_scan", "android": "https://dc.lft.to/lastmile_qr_scan"}, "lon": -77.069169, "type": "electric_scooter"}, {"bike_id": "bea184270ea2b2cbe0e98d6e26e688bb", "is_reserved": 0, "fusion_lon": 0.0, "lat": 39.03042633333333, "is_disabled": 0, "name": "bea184270ea2b2cbe0e98d6e26e688bb", "fusion_lat": 0.0, "rental_uris": {"ios": "https://dc.lft.to/lastmile_qr_scan", "android": "https://dc.lft.to/lastmile_qr_scan"}, "lon": -77.09483566666667, "type": "electric_bike"}, {"bike_id": "fbefb4a25e7b6965ff0784165a2454bf", "is_reserved": 0, "fusion_lon": 0.0, "lat": 38.916257, "is_disabled": 0, "name": "fbefb4a25e7b6965ff0784165a2454bf", "fusion_lat": 0.0, "rental_uris": {"ios": "https://dc.lft.to/lastmile_qr_scan", "android": "https://dc.lft.to/lastmile_qr_scan"}, "lon": -77.0359645, "type": "electric_scooter"}, {"bike_id": "62ec0d4fc1c0db8da474c7674cbdffbf", "is_reserved": 0, "fusion_lon": 0.0, "lat": 38.943928, "is_disabled": 0, "name": "62ec0d4fc1c0db8da474c7674cbdffbf", "fusion_lat": 0.0, "rental_uris": {"ios": "https://dc.lft.to/lastmile_qr_scan", "android": "https://dc.lft.to/lastmile_qr_scan"}, "lon": -77.038927, "type": "electric_scooter"}, {"bike_id": "6802363ce8c89009a7993e223f3d8c10", "is_reserved": 0, "fusion_lon": 0.0, "lat": 38.908611, "is_disabled": 0, "name": "6802363ce8c89009a7993e223f3d8c10", "fusion_lat": 0.0, "rental_uris": {"ios": "https://dc.lft.to/lastmile_qr_scan", "android": "https://dc.lft.to/lastmile_qr_scan"}, "lon": -77.0449325, "type": "electric_scooter"}, {"bike_id": "47d8e4d82bce06fc350f152ebaaa0ae9", "is_reserved": 0, "fusion_lon": 0.0, "lat": 38.90564116666667, "is_disabled": 0, "name": "47d8e4d82bce06fc350f152ebaaa0ae9", "fusion_lat": 0.0, "rental_uris": {"ios": "https://dc.lft.to/lastmile_qr_scan", "android": "https://dc.lft.to/lastmile_qr_scan"}, "lon": -77.03955733333333, "type": "electric_scooter"}, {"bike_id": "5d3de8e2232e34ce4bf2bffb6791227e", "is_reserved": 0, "fusion_lon": 0.0, "lat": 38.904487333333336, "is_disabled": 0, "name": "5d3de8e2232e34ce4bf2bffb6791227e", "fusion_lat": 0.0, "rental_uris": {"ios": "https://dc.lft.to/lastmile_qr_scan", "android": "https://dc.lft.to/lastmile_qr_scan"}, "lon": -77.03868966666667, "type": "electric_scooter"}, {"bike_id": "829c971f757210f642625c4f8157dd7d", "is_reserved": 0, "fusion_lon": 0.0, "lat": 38.876090833333336, "is_disabled": 0, "name": "829c971f757210f642625c4f8157dd7d", "fusion_lat": 0.0, "rental_uris": {"ios": "https://dc.lft.to/lastmile_qr_scan", "android": "https://dc.lft.to/lastmile_qr_scan"}, "lon": -77.00687533333333, "type": "electric_scooter"}, {"bike_id": "17426610149921801ad448e0d27c9904", "is_reserved": 0, "fusion_lon": 0.0, "lat": 38.89874966666667, "is_disabled": 0, "name": "17426610149921801ad448e0d27c9904", "fusion_lat": 0.0, "rental_uris": {"ios": "https://dc.lft.to/lastmile_qr_scan", "android": "https://dc.lft.to/lastmile_qr_scan"}, "lon": -76.93159716666666, "type": "electric_scooter"}, {"bike_id": "1e0b003963b875891d1e0c995b5c4f19", "is_reserved": 0, "fusion_lon": 0.0, "lat": 38.90604916666667, "is_disabled": 0, "name": "1e0b003963b875891d1e0c995b5c4f19", "fusion_lat": 0.0, "rental_uris": {"ios": "https://dc.lft.to/lastmile_qr_scan", "android": "https://dc.lft.to/lastmile_qr_scan"}, "lon": -77.03981083333333, "type": "electric_scooter"}, {"bike_id": "b7a35a845b065155ff524e6cf63a7ff1", "is_reserved": 0, "fusion_lon": 0.0, "lat": 38.915274333333336, "is_disabled": 0, "name": "b7a35a845b065155ff524e6cf63a7ff1", "fusion_lat": 0.0, "rental_uris": {"ios": "https://dc.lft.to/lastmile_qr_scan", "android": "https://dc.lft.to/lastmile_qr_scan"}, "lon": -77.0184795, "type": "electric_scooter"}, {"bike_id": "4903340e2b70af780422d56ae46d098c", "is_reserved": 0, "fusion_lon": 0.0, "lat": 38.909660333333335, "is_disabled": 0, "name": "4903340e2b70af780422d56ae46d098c", "fusion_lat": 0.0, "rental_uris": {"ios": "https://dc.lft.to/lastmile_qr_scan", "android": "https://dc.lft.to/lastmile_qr_scan"}, "lon": -77.027259, "type": "electric_scooter"}, {"bike_id": "1c25b5561e6df2159fc8d65da06c803b", "is_reserved": 0, "fusion_lon": 0.0, "lat": 38.92065783333334, "is_disabled": 0, "name": "1c25b5561e6df2159fc8d65da06c803b", "fusion_lat": 0.0, "rental_uris": {"ios": "https://dc.lft.to/lastmile_qr_scan", "android": "https://dc.lft.to/lastmile_qr_scan"}, "lon": -77.023488, "type": "electric_scooter"}, {"bike_id": "4b0bfe55f56911fe22a46cb3ec4b6056", "is_reserved": 0, "fusion_lon": 0.0, "lat": 38.9009855, "is_disabled": 0, "name": "4b0bfe55f56911fe22a46cb3ec4b6056", "fusion_lat": 0.0, "rental_uris": {"ios": "https://dc.lft.to/lastmile_qr_scan", "android": "https://dc.lft.to/lastmile_qr_scan"}, "lon": -77.04370216666666, "type": "electric_scooter"}, {"bike_id": "7f51fc4383f384dd3efa65bc8ab728b2", "is_reserved": 0, "fusion_lon": 0.0, "lat": 38.9120615, "is_disabled": 0, "name": "7f51fc4383f384dd3efa65bc8ab728b2", "fusion_lat": 0.0, "rental_uris": {"ios": "https://dc.lft.to/lastmile_qr_scan", "android": "https://dc.lft.to/lastmile_qr_scan"}, "lon": -77.0487255, "type": "electric_scooter"}, {"bike_id": "37fcbbf451a8ab54a9df0bf279e081c0", "is_reserved": 0, "fusion_lon": 0.0, "lat": 38.91241333333333, "is_disabled": 0, "name": "37fcbbf451a8ab54a9df0bf279e081c0", "fusion_lat": 0.0, "rental_uris": {"ios": "https://dc.lft.to/lastmile_qr_scan", "android": "https://dc.lft.to/lastmile_qr_scan"}, "lon": -77.01617983333334, "type": "electric_scooter"}, {"bike_id": "95396b34ae7e236a81a02c60ff462790", "is_reserved": 0, "fusion_lon": 0.0, "lat": 38.912679833333335, "is_disabled": 0, "name": "95396b34ae7e236a81a02c60ff462790", "fusion_lat": 0.0, "rental_uris": {"ios": "https://dc.lft.to/lastmile_qr_scan", "android": "https://dc.lft.to/lastmile_qr_scan"}, "lon": -77.022102, "type": "electric_scooter"}, {"bike_id": "d11e29209bde388bfd7026ff3cc89974", "is_reserved": 0, "fusion_lon": 0.0, "lat": 38.92163716666666, "is_disabled": 0, "name": "d11e29209bde388bfd7026ff3cc89974", "fusion_lat": 0.0, "rental_uris": {"ios": "https://dc.lft.to/lastmile_qr_scan", "android": "https://dc.lft.to/lastmile_qr_scan"}, "lon": -77.0329005, "type": "electric_scooter"}, {"bike_id": "2a923a771672bb6c0f062054fd0414b7", "is_reserved": 0, "fusion_lon": 0.0, "lat": 38.89556266666666, "is_disabled": 0, "name": "2a923a771672bb6c0f062054fd0414b7", "fusion_lat": 0.0, "rental_uris": {"ios": "https://dc.lft.to/lastmile_qr_scan", "android": "https://dc.lft.to/lastmile_qr_scan"}, "lon": -76.93043633333333, "type": "electric_scooter"}, {"bike_id": "4daa497b8e9106c702134adcfe4032c5", "is_reserved": 0, "fusion_lon": 0.0, "lat": 38.8461305, "is_disabled": 0, "name": "4daa497b8e9106c702134adcfe4032c5", "fusion_lat": 0.0, "rental_uris": {"ios": "https://dc.lft.to/lastmile_qr_scan", "android": "https://dc.lft.to/lastmile_qr_scan"}, "lon": -76.97818333333333, "type": "electric_bike"}, {"bike_id": "4354a553427fe71a6a656b0705afbb0c", "is_reserved": 0, "fusion_lon": 0.0, "lat": 38.909185, "is_disabled": 0, "name": "4354a553427fe71a6a656b0705afbb0c", "fusion_lat": 0.0, "rental_uris": {"ios": "https://dc.lft.to/lastmile_qr_scan", "android": "https://dc.lft.to/lastmile_qr_scan"}, "lon": -76.9996795, "type": "electric_scooter"}, {"bike_id": "4a1b3dfb150ac423e1fc373e971b7e59", "is_reserved": 0, "fusion_lon": 0.0, "lat": 39.058086, "is_disabled": 0, "name": "4a1b3dfb150ac423e1fc373e971b7e59", "fusion_lat": 0.0, "rental_uris": {"ios": "https://dc.lft.to/lastmile_qr_scan", "android": "https://dc.lft.to/lastmile_qr_scan"}, "lon": -77.12626766666666, "type": "electric_bike"}, {"bike_id": "21f08b420b19e870c0b9ac267d3f53cd", "is_reserved": 0, "fusion_lon": 0.0, "lat": 38.914815, "is_disabled": 0, "name": "21f08b420b19e870c0b9ac267d3f53cd", "fusion_lat": 0.0, "rental_uris": {"ios": "https://dc.lft.to/lastmile_qr_scan", "android": "https://dc.lft.to/lastmile_qr_scan"}, "lon": -76.98579733333334, "type": "electric_scooter"}, {"bike_id": "a920a264918cffce7b19b9d600a8b7cf", "is_reserved": 0, "fusion_lon": 0.0, "lat": 38.910450166666664, "is_disabled": 0, "name": "a920a264918cffce7b19b9d600a8b7cf", "fusion_lat": 0.0, "rental_uris": {"ios": "https://dc.lft.to/lastmile_qr_scan", "android": "https://dc.lft.to/lastmile_qr_scan"}, "lon": -77.01508416666667, "type": "electric_scooter"}, {"bike_id": "f5bdfe3e2f09dcd8df830340697e9e0d", "is_reserved": 0, "fusion_lon": 0.0, "lat": 38.906897666666666, "is_disabled": 0, "name": "f5bdfe3e2f09dcd8df830340697e9e0d", "fusion_lat": 0.0, "rental_uris": {"ios": "https://dc.lft.to/lastmile_qr_scan", "android": "https://dc.lft.to/lastmile_qr_scan"}, "lon": -77.00278233333333, "type": "electric_scooter"}, {"bike_id": "56653bc12e7a9ac860511b75dfd372d6", "is_reserved": 0, "fusion_lon": 0.0, "lat": 38.953549, "is_disabled": 0, "name": "56653bc12e7a9ac860511b75dfd372d6", "fusion_lat": 0.0, "rental_uris": {"ios": "https://dc.lft.to/lastmile_qr_scan", "android": "https://dc.lft.to/lastmile_qr_scan"}, "lon": -76.98092616666666, "type": "electric_bike"}, {"bike_id": "7aadd07a46b495f4c63df8719a5ace84", "is_reserved": 0, "fusion_lon": 0.0, "lat": 38.89845183333333, "is_disabled": 0, "name": "7aadd07a46b495f4c63df8719a5ace84", "fusion_lat": 0.0, "rental_uris": {"ios": "https://dc.lft.to/lastmile_qr_scan", "android": "https://dc.lft.to/lastmile_qr_scan"}, "lon": -77.02861233333333, "type": "electric_scooter"}, {"bike_id": "e1af74e89897bda8c117b17570140b8b", "is_reserved": 0, "fusion_lon": 0.0, "lat": 38.901957, "is_disabled": 0, "name": "e1af74e89897bda8c117b17570140b8b", "fusion_lat": 0.0, "rental_uris": {"ios": "https://dc.lft.to/lastmile_qr_scan", "android": "https://dc.lft.to/lastmile_qr_scan"}, "lon": -77.06119483333333, "type": "electric_scooter"}, {"bike_id": "d5856a0d02af4dffbd2276cd73427571", "is_reserved": 0, "fusion_lon": 0.0, "lat": 38.896132333333334, "is_disabled": 0, "name": "d5856a0d02af4dffbd2276cd73427571", "fusion_lat": 0.0, "rental_uris": {"ios": "https://dc.lft.to/lastmile_qr_scan", "android": "https://dc.lft.to/lastmile_qr_scan"}, "lon": -77.01146266666667, "type": "electric_scooter"}, {"bike_id": "a68de9ceeaccb933d268c84064ccc3bf", "is_reserved": 0, "fusion_lon": 0.0, "lat": 38.846086, "is_disabled": 0, "name": "a68de9ceeaccb933d268c84064ccc3bf", "fusion_lat": 0.0, "rental_uris": {"ios": "https://dc.lft.to/lastmile_qr_scan", "android": "https://dc.lft.to/lastmile_qr_scan"}, "lon": -76.96906183333333, "type": "electric_bike"}, {"bike_id": "317e0491facfcae545d1fea2dd270f28", "is_reserved": 0, "fusion_lon": 0.0, "lat": 38.924945, "is_disabled": 0, "name": "317e0491facfcae545d1fea2dd270f28", "fusion_lat": 0.0, "rental_uris": {"ios": "https://dc.lft.to/lastmile_qr_scan", "android": "https://dc.lft.to/lastmile_qr_scan"}, "lon": -77.02176416666667, "type": "electric_scooter"}, {"bike_id": "edd42c6b83904497572eda131ea3b969", "is_reserved": 0, "fusion_lon": 0.0, "lat": 38.89604533333333, "is_disabled": 0, "name": "edd42c6b83904497572eda131ea3b969", "fusion_lat": 0.0, "rental_uris": {"ios": "https://dc.lft.to/lastmile_qr_scan", "android": "https://dc.lft.to/lastmile_qr_scan"}, "lon": -77.04236316666666, "type": "electric_scooter"}, {"bike_id": "c43b5227a1657123fdafcba863190bb3", "is_reserved": 0, "fusion_lon": 0.0, "lat": 38.922516333333334, "is_disabled": 0, "name": "c43b5227a1657123fdafcba863190bb3", "fusion_lat": 0.0, "rental_uris": {"ios": "https://dc.lft.to/lastmile_qr_scan", "android": "https://dc.lft.to/lastmile_qr_scan"}, "lon": -77.04131216666667, "type": "electric_scooter"}, {"bike_id": "b5c89a936301a8e96af7065338a71b3c", "is_reserved": 0, "fusion_lon": 0.0, "lat": 38.90338216666667, "is_disabled": 0, "name": "b5c89a936301a8e96af7065338a71b3c", "fusion_lat": 0.0, "rental_uris": {"ios": "https://dc.lft.to/lastmile_qr_scan", "android": "https://dc.lft.to/lastmile_qr_scan"}, "lon": -77.025471, "type": "electric_scooter"}, {"bike_id": "698f597fafad0dbaf55334f5b91606b5", "is_reserved": 0, "fusion_lon": 0.0, "lat": 38.91803633333333, "is_disabled": 0, "name": "698f597fafad0dbaf55334f5b91606b5", "fusion_lat": 0.0, "rental_uris": {"ios": "https://dc.lft.to/lastmile_qr_scan", "android": "https://dc.lft.to/lastmile_qr_scan"}, "lon": -77.0343485, "type": "electric_scooter"}, {"bike_id": "9e0162e203598762b0efffefab6b8b26", "is_reserved": 0, "fusion_lon": 0.0, "lat": 38.94043533333333, "is_disabled": 0, "name": "9e0162e203598762b0efffefab6b8b26", "fusion_lat": 0.0, "rental_uris": {"ios": "https://dc.lft.to/lastmile_qr_scan", "android": "https://dc.lft.to/lastmile_qr_scan"}, "lon": -77.02979466666666, "type": "electric_scooter"}, {"bike_id": "6db9343acb6b6ebb397dec9fad6af287", "is_reserved": 0, "fusion_lon": 0.0, "lat": 38.89881316666666, "is_disabled": 0, "name": "6db9343acb6b6ebb397dec9fad6af287", "fusion_lat": 0.0, "rental_uris": {"ios": "https://dc.lft.to/lastmile_qr_scan", "android": "https://dc.lft.to/lastmile_qr_scan"}, "lon": -77.00355416666666, "type": "electric_scooter"}, {"bike_id": "da04ada09d103c04e9711b3581484309", "is_reserved": 0, "fusion_lon": 0.0, "lat": 38.920489333333336, "is_disabled": 0, "name": "da04ada09d103c04e9711b3581484309", "fusion_lat": 0.0, "rental_uris": {"ios": "https://dc.lft.to/lastmile_qr_scan", "android": "https://dc.lft.to/lastmile_qr_scan"}, "lon": -76.99819233333334, "type": "electric_scooter"}, {"bike_id": "f7f6f3dc39b14b7314834a94745e380b", "is_reserved": 0, "fusion_lon": 0.0, "lat": 38.90864583333333, "is_disabled": 0, "name": "f7f6f3dc39b14b7314834a94745e380b", "fusion_lat": 0.0, "rental_uris": {"ios": "https://dc.lft.to/lastmile_qr_scan", "android": "https://dc.lft.to/lastmile_qr_scan"}, "lon": -77.04334433333334, "type": "electric_scooter"}, {"bike_id": "34b152bac9a469bf97f1c84cff9c3d66", "is_reserved": 0, "fusion_lon": 0.0, "lat": 38.90802683333333, "is_disabled": 0, "name": "34b152bac9a469bf97f1c84cff9c3d66", "fusion_lat": 0.0, "rental_uris": {"ios": "https://dc.lft.to/lastmile_qr_scan", "android": "https://dc.lft.to/lastmile_qr_scan"}, "lon": -77.03457583333334, "type": "electric_scooter"}, {"bike_id": "2a181bd28f3acbb950d5b0a15d7cdb6f", "is_reserved": 0, "fusion_lon": 0.0, "lat": 38.934024, "is_disabled": 0, "name": "2a181bd28f3acbb950d5b0a15d7cdb6f", "fusion_lat": 0.0, "rental_uris": {"ios": "https://dc.lft.to/lastmile_qr_scan", "android": "https://dc.lft.to/lastmile_qr_scan"}, "lon": -77.020695, "type": "electric_scooter"}, {"bike_id": "9f4ac9533dff93e325c90b5ec4543143", "is_reserved": 0, "fusion_lon": 0.0, "lat": 38.9616775, "is_disabled": 0, "name": "9f4ac9533dff93e325c90b5ec4543143", "fusion_lat": 0.0, "rental_uris": {"ios": "https://dc.lft.to/lastmile_qr_scan", "android": "https://dc.lft.to/lastmile_qr_scan"}, "lon": -77.08596366666667, "type": "electric_bike"}, {"bike_id": "1430f67e5c77e3db263cbf9bd52666a8", "is_reserved": 0, "fusion_lon": 0.0, "lat": 38.89227916666667, "is_disabled": 0, "name": "1430f67e5c77e3db263cbf9bd52666a8", "fusion_lat": 0.0, "rental_uris": {"ios": "https://dc.lft.to/lastmile_qr_scan", "android": "https://dc.lft.to/lastmile_qr_scan"}, "lon": -77.02180583333333, "type": "electric_scooter"}, {"bike_id": "693fa9160d4ed7f693b252e9eb3efc33", "is_reserved": 0, "fusion_lon": 0.0, "lat": 38.853206166666666, "is_disabled": 0, "name": "693fa9160d4ed7f693b252e9eb3efc33", "fusion_lat": 0.0, "rental_uris": {"ios": "https://dc.lft.to/lastmile_qr_scan", "android": "https://dc.lft.to/lastmile_qr_scan"}, "lon": -76.98007083333333, "type": "electric_scooter"}, {"bike_id": "0a17cdf6e5737cdd0c0e79b3139d7408", "is_reserved": 0, "fusion_lon": 0.0, "lat": 38.911033, "is_disabled": 0, "name": "0a17cdf6e5737cdd0c0e79b3139d7408", "fusion_lat": 0.0, "rental_uris": {"ios": "https://dc.lft.to/lastmile_qr_scan", "android": "https://dc.lft.to/lastmile_qr_scan"}, "lon": -77.036273, "type": "electric_scooter"}, {"bike_id": "bad4aae637d36916f852f05c9914afcc", "is_reserved": 0, "fusion_lon": 0.0, "lat": 38.95279466666667, "is_disabled": 0, "name": "bad4aae637d36916f852f05c9914afcc", "fusion_lat": 0.0, "rental_uris": {"ios": "https://dc.lft.to/lastmile_qr_scan", "android": "https://dc.lft.to/lastmile_qr_scan"}, "lon": -77.00791216666667, "type": "electric_scooter"}, {"bike_id": "c91d264e20d99d3686f428923fc9093d", "is_reserved": 0, "fusion_lon": 0.0, "lat": 38.939536, "is_disabled": 0, "name": "c91d264e20d99d3686f428923fc9093d", "fusion_lat": 0.0, "rental_uris": {"ios": "https://dc.lft.to/lastmile_qr_scan", "android": "https://dc.lft.to/lastmile_qr_scan"}, "lon": -77.0325565, "type": "electric_scooter"}, {"bike_id": "809d917f33f77608f94a40b2a3ab6c3a", "is_reserved": 0, "fusion_lon": 0.0, "lat": 38.9079345, "is_disabled": 0, "name": "809d917f33f77608f94a40b2a3ab6c3a", "fusion_lat": 0.0, "rental_uris": {"ios": "https://dc.lft.to/lastmile_qr_scan", "android": "https://dc.lft.to/lastmile_qr_scan"}, "lon": -76.9970205, "type": "electric_scooter"}, {"bike_id": "19f41e2fae8a4050b7a1ed66a8abe7a1", "is_reserved": 0, "fusion_lon": 0.0, "lat": 38.85807716666667, "is_disabled": 0, "name": "19f41e2fae8a4050b7a1ed66a8abe7a1", "fusion_lat": 0.0, "rental_uris": {"ios": "https://dc.lft.to/lastmile_qr_scan", "android": "https://dc.lft.to/lastmile_qr_scan"}, "lon": -76.986539, "type": "electric_scooter"}, {"bike_id": "6bb99e7d917d028c713c358ac83a99e4", "is_reserved": 0, "fusion_lon": 0.0, "lat": 38.90958083333334, "is_disabled": 0, "name": "6bb99e7d917d028c713c358ac83a99e4", "fusion_lat": 0.0, "rental_uris": {"ios": "https://dc.lft.to/lastmile_qr_scan", "android": "https://dc.lft.to/lastmile_qr_scan"}, "lon": -77.04235633333333, "type": "electric_scooter"}, {"bike_id": "06352330578e4261d5bb47cae185970d", "is_reserved": 0, "fusion_lon": 0.0, "lat": 38.899503833333334, "is_disabled": 0, "name": "06352330578e4261d5bb47cae185970d", "fusion_lat": 0.0, "rental_uris": {"ios": "https://dc.lft.to/lastmile_qr_scan", "android": "https://dc.lft.to/lastmile_qr_scan"}, "lon": -77.05045433333333, "type": "electric_scooter"}, {"bike_id": "d352b2f9961832d24c8f79cd754d8011", "is_reserved": 0, "fusion_lon": 0.0, "lat": 38.90869983333333, "is_disabled": 0, "name": "d352b2f9961832d24c8f79cd754d8011", "fusion_lat": 0.0, "rental_uris": {"ios": "https://dc.lft.to/lastmile_qr_scan", "android": "https://dc.lft.to/lastmile_qr_scan"}, "lon": -77.08597933333333, "type": "electric_scooter"}, {"bike_id": "b9b8656eb16f04052c63d15e88db5064", "is_reserved": 0, "fusion_lon": 0.0, "lat": 38.9162025, "is_disabled": 0, "name": "b9b8656eb16f04052c63d15e88db5064", "fusion_lat": 0.0, "rental_uris": {"ios": "https://dc.lft.to/lastmile_qr_scan", "android": "https://dc.lft.to/lastmile_qr_scan"}, "lon": -77.03193766666666, "type": "electric_scooter"}, {"bike_id": "84aad28ddcc59783461ae8ef8e1f2127", "is_reserved": 0, "fusion_lon": 0.0, "lat": 38.90518, "is_disabled": 0, "name": "84aad28ddcc59783461ae8ef8e1f2127", "fusion_lat": 0.0, "rental_uris": {"ios": "https://dc.lft.to/lastmile_qr_scan", "android": "https://dc.lft.to/lastmile_qr_scan"}, "lon": -77.05149866666666, "type": "electric_scooter"}, {"bike_id": "7a889a42b39b32dc8fe20628335f8712", "is_reserved": 0, "fusion_lon": 0.0, "lat": 38.8901325, "is_disabled": 0, "name": "7a889a42b39b32dc8fe20628335f8712", "fusion_lat": 0.0, "rental_uris": {"ios": "https://dc.lft.to/lastmile_qr_scan", "android": "https://dc.lft.to/lastmile_qr_scan"}, "lon": -76.93736033333333, "type": "electric_scooter"}, {"bike_id": "88728df4be860a086c6b6c0670d6640b", "is_reserved": 0, "fusion_lon": 0.0, "lat": 38.901961166666666, "is_disabled": 0, "name": "88728df4be860a086c6b6c0670d6640b", "fusion_lat": 0.0, "rental_uris": {"ios": "https://dc.lft.to/lastmile_qr_scan", "android": "https://dc.lft.to/lastmile_qr_scan"}, "lon": -76.94186633333334, "type": "electric_scooter"}, {"bike_id": "f68ba21db6909fc7eb8b5bf80bce5f94", "is_reserved": 0, "fusion_lon": 0.0, "lat": 38.94181, "is_disabled": 0, "name": "f68ba21db6909fc7eb8b5bf80bce5f94", "fusion_lat": 0.0, "rental_uris": {"ios": "https://dc.lft.to/lastmile_qr_scan", "android": "https://dc.lft.to/lastmile_qr_scan"}, "lon": -77.03092316666667, "type": "electric_scooter"}, {"bike_id": "b26e0fece7b85e1b2f6c7452cfe35dd6", "is_reserved": 0, "fusion_lon": 0.0, "lat": 38.871831, "is_disabled": 0, "name": "b26e0fece7b85e1b2f6c7452cfe35dd6", "fusion_lat": 0.0, "rental_uris": {"ios": "https://dc.lft.to/lastmile_qr_scan", "android": "https://dc.lft.to/lastmile_qr_scan"}, "lon": -77.01223233333333, "type": "electric_scooter"}, {"bike_id": "94c650c0b37093fb1c1cc2e4b41b17c2", "is_reserved": 0, "fusion_lon": 0.0, "lat": 38.8991055, "is_disabled": 0, "name": "94c650c0b37093fb1c1cc2e4b41b17c2", "fusion_lat": 0.0, "rental_uris": {"ios": "https://dc.lft.to/lastmile_qr_scan", "android": "https://dc.lft.to/lastmile_qr_scan"}, "lon": -76.9335905, "type": "electric_scooter"}, {"bike_id": "5af6f7930591333048d00d2ba27e0b5e", "is_reserved": 0, "fusion_lon": 0.0, "lat": 38.911133, "is_disabled": 0, "name": "5af6f7930591333048d00d2ba27e0b5e", "fusion_lat": 0.0, "rental_uris": {"ios": "https://dc.lft.to/lastmile_qr_scan", "android": "https://dc.lft.to/lastmile_qr_scan"}, "lon": -77.00247383333334, "type": "electric_scooter"},