{"data": {"bikes": [{"is_disabled": 0, "fusion_lon": 0.0, "fusion_lat": 0.0, "lat": 38.91988033333333, "type": "electric_scooter", "lon": -77.02551066666666, "bike_id": "edafed05ab3d5e05d3e9adfdc9d05c47", "rental_uris": {"android": "https://dc.lft.to/lastmile_qr_scan", "ios": "https://dc.lft.to/lastmile_qr_scan"}, "name": "edafed05ab3d5e05d3e9adfdc9d05c47", "is_reserved": 0}, {"is_disabled": 0, "fusion_lon": 0.0, "fusion_lat": 0.0, "lat": 38.9302595, "type": "electric_scooter", "lon": -77.034553, "bike_id": "1ba8cc02efcdb4997ba06e61d076df98", "rental_uris": {"android": "https://dc.lft.to/lastmile_qr_scan", "ios": "https://dc.lft.to/lastmile_qr_scan"}, "name": "1ba8cc02efcdb4997ba06e61d076df98", "is_reserved": 0}, {"is_disabled": 0, "fusion_lon": 0.0, "fusion_lat": 0.0, "lat": 38.915921, "type": "electric_scooter", "lon": -77.02294716666667, "bike_id": "c8c65e3288fb00a66cd8ed51d062ddcf", "rental_uris": {"android": "https://dc.lft.to/lastmile_qr_scan", "ios": "https://dc.lft.to/lastmile_qr_scan"}, "name": "c8c65e3288fb00a66cd8ed51d062ddcf", "is_reserved": 0}, {"is_disabled": 0, "fusion_lon": 0.0, "fusion_lat": 0.0, "lat": 38.82775083333333, "type": "electric_bike", "lon": -77.11079833333334, "bike_id": "3da5a31acdce6cd313596547c601035a", "rental_uris": {"android": "https://dc.lft.to/lastmile_qr_scan", "ios": "https://dc.lft.to/lastmile_qr_scan"}, "name": "3da5a31acdce6cd313596547c601035a", "is_reserved": 0}, {"is_disabled": 0, "fusion_lon": 0.0, "fusion_lat": 0.0, "lat": 38.90506883333333, "type": "electric_scooter", "lon": -77.06519533333334, "bike_id": "f576fa186488bf42fd86ea4f016a9d47", "rental_uris": {"android": "https://dc.lft.to/lastmile_qr_scan", "ios": "https://dc.lft.to/lastmile_qr_scan"}, "name": "f576fa186488bf42fd86ea4f016a9d47", "is_reserved": 0}, {"is_disabled": 0, "fusion_lon": 0.0, "fusion_lat": 0.0, "lat": 38.9236905, "type": "electric_scooter", "lon": -77.0302075, "bike_id": "bc53586e8ae3589e8d2747fd146878df", "rental_uris": {"android": "https://dc.lft.to/lastmile_qr_scan", "ios": "https://dc.lft.to/lastmile_qr_scan"}, "name": "bc53586e8ae3589e8d2747fd146878df", "is_reserved": 0}, {"is_disabled": 0, "fusion_lon": 0.0, "fusion_lat": 0.0, "lat": 38.912629333333335, "type": "electric_scooter", "lon": -77.02559133333334, "bike_id": "d1154b64154ff1065db3d1f957267cbf", "rental_uris": {"android": "https://dc.lft.to/lastmile_qr_scan", "ios": "https://dc.lft.to/lastmile_qr_scan"}, "name": "d1154b64154ff1065db3d1f957267cbf", "is_reserved": 0}, {"is_disabled": 0, "fusion_lon": 0.0, "fusion_lat": 0.0, "lat": 38.904758333333334, "type": "electric_bike", "lon": -76.9505125, "bike_id": "47b8a6eeb59dde002bc561a24bc44135", "rental_uris": {"android": "https://dc.lft.to/lastmile_qr_scan", "ios": "https://dc.lft.to/lastmile_qr_scan"}, "name": "47b8a6eeb59dde002bc561a24bc44135", "is_reserved": 0}, {"is_disabled": 0, "fusion_lon": 0.0, "fusion_lat": 0.0, "lat": 38.915715, "type": "electric_bike", "lon": -77.0692835, "bike_id": "b308af951a6bac29cd1c3671ede07fd2", "rental_uris": {"android": "https://dc.lft.to/lastmile_qr_scan", "ios": "https://dc.lft.to/lastmile_qr_scan"}, "name": "b308af951a6bac29cd1c3671ede07fd2", "is_reserved": 0}, {"is_disabled": 0, "fusion_lon": 0.0, "fusion_lat": 0.0, "lat": 38.89834283333333, "type": "electric_scooter", "lon": -76.946337, "bike_id": "1af1c24bf524b168bc3a379337c74525", "rental_uris": {"android": "https://dc.lft.to/lastmile_qr_scan", "ios": "https://dc.lft.to/lastmile_qr_scan"}, "name": "1af1c24bf524b168bc3a379337c74525", "is_reserved": 0}, {"is_disabled": 0, "fusion_lon": 0.0, "fusion_lat": 0.0, "lat": 38.962627499999996, "type": "electric_scooter", "lon": -77.0289775, "bike_id": "f1fac88436cf08385a1ecb8a8d3452d8", "rental_uris": {"android": "https://dc.lft.to/lastmile_qr_scan", "ios": "https://dc.lft.to/lastmile_qr_scan"}, "name": "f1fac88436cf08385a1ecb8a8d3452d8", "is_reserved": 0}, {"is_disabled": 0, "fusion_lon": 0.0, "fusion_lat": 0.0, "lat": 38.90783866666666, "type": "electric_scooter", "lon": -77.03047583333333, "bike_id": "6321cfa2227ea0522b43b6ad2eb79ccd", "rental_uris": {"android": "https://dc.lft.to/lastmile_qr_scan", "ios": "https://dc.lft.to/lastmile_qr_scan"}, "name": "6321cfa2227ea0522b43b6ad2eb79ccd", "is_reserved": 0}, {"is_disabled": 0, "fusion_lon": 0.0, "fusion_lat": 0.0, "lat": 38.8974555, "type": "electric_scooter", "lon": -76.9948765, "bike_id": "143da217f3df6e3c0fd3cc6df1ff7000", "rental_uris": {"android": "https://dc.lft.to/lastmile_qr_scan", "ios": "https://dc.lft.to/lastmile_qr_scan"}, "name": "143da217f3df6e3c0fd3cc6df1ff7000", "is_reserved": 0}, {"is_disabled": 0, "fusion_lon": 0.0, "fusion_lat": 0.0, "lat": 38.916876, "type": "electric_scooter", "lon": -77.02596816666667, "bike_id": "a6eb53af689d1157dc9ff6e00e9c8a0b", "rental_uris": {"android": "https://dc.lft.to/lastmile_qr_scan", "ios": "https://dc.lft.to/lastmile_qr_scan"}, "name": "a6eb53af689d1157dc9ff6e00e9c8a0b", "is_reserved": 0}, {"is_disabled": 0, "fusion_lon": 0.0, "fusion_lat": 0.0, "lat": 38.91362, "type": "electric_scooter", "lon": -77.03964616666667, "bike_id": "1b2e52cfd1128417a1071123bcb267e9", "rental_uris": {"android": "https://dc.lft.to/lastmile_qr_scan", "ios": "https://dc.lft.to/lastmile_qr_scan"}, "name": "1b2e52cfd1128417a1071123bcb267e9", "is_reserved": 0}, {"is_disabled": 0, "fusion_lon": 0.0, "fusion_lat": 0.0, "lat": 38.9395825, "type": "electric_scooter", "lon": -77.032583, "bike_id": "d43c3d65459f9ad356d1c9e513143992", "rental_uris": {"android": "https://dc.lft.to/lastmile_qr_scan", "ios": "https://dc.lft.to/lastmile_qr_scan"}, "name": "d43c3d65459f9ad356d1c9e513143992", "is_reserved": 0}, {"is_disabled": 0, "fusion_lon": 0.0, "fusion_lat": 0.0, "lat": 38.90719266666667, "type": "electric_scooter", "lon": -77.0460135, "bike_id": "5606df5dc77ae071dfb96740daad6afe", "rental_uris": {"android": "https://dc.lft.to/lastmile_qr_scan", "ios": "https://dc.lft.to/lastmile_qr_scan"}, "name": "5606df5dc77ae071dfb96740daad6afe", "is_reserved": 0}, {"is_disabled": 0, "fusion_lon": 0.0, "fusion_lat": 0.0, "lat": 38.93370733333333, "type": "electric_scooter", "lon": -77.02388366666666, "bike_id": "fa78ab69db40179943bf535caed93362", "rental_uris": {"android": "https://dc.lft.to/lastmile_qr_scan", "ios": "https://dc.lft.to/lastmile_qr_scan"}, "name": "fa78ab69db40179943bf535caed93362", "is_reserved": 0}, {"is_disabled": 0, "fusion_lon": 0.0, "fusion_lat": 0.0, "lat": 38.94281633333333, "type": "electric_bike", "lon": -77.069211, "bike_id": "b4466d1a5f878b1ba7cafa314100dc74", "rental_uris": {"android": "https://dc.lft.to/lastmile_qr_scan", "ios": "https://dc.lft.to/lastmile_qr_scan"}, "name": "b4466d1a5f878b1ba7cafa314100dc74", "is_reserved": 0}, {"is_disabled": 0, "fusion_lon": 0.0, "fusion_lat": 0.0, "lat": 39.007825833333335, "type": "electric_bike", "lon": -76.99569516666666, "bike_id": "2af6884f615f4545d7fe88329b4162f7", "rental_uris": {"android": "https://dc.lft.to/lastmile_qr_scan", "ios": "https://dc.lft.to/lastmile_qr_scan"}, "name": "2af6884f615f4545d7fe88329b4162f7", "is_reserved": 0}, {"is_disabled": 0, "fusion_lon": 0.0, "fusion_lat": 0.0, "lat": 38.90434116666667, "type": "electric_scooter", "lon": -77.022619, "bike_id": "9c181f14c72fd7c9fa816e7aef7c5491", "rental_uris": {"android": "https://dc.lft.to/lastmile_qr_scan", "ios": "https://dc.lft.to/lastmile_qr_scan"}, "name": "9c181f14c72fd7c9fa816e7aef7c5491", "is_reserved": 0}, {"is_disabled": 0, "fusion_lon": 0.0, "fusion_lat": 0.0, "lat": 38.906391166666666, "type": "electric_scooter", "lon": -77.04522183333333, "bike_id": "8237e529f7c41fdc275a3d18d87e1239", "rental_uris": {"android": "https://dc.lft.to/lastmile_qr_scan", "ios": "https://dc.lft.to/lastmile_qr_scan"}, "name": "8237e529f7c41fdc275a3d18d87e1239", "is_reserved": 0}, {"is_disabled": 0, "fusion_lon": 0.0, "fusion_lat": 0.0, "lat": 38.914608666666666, "type": "electric_scooter", "lon": -77.02284016666667, "bike_id": "8af91a6a150a4ac3e04960709c404dfd", "rental_uris": {"android": "https://dc.lft.to/lastmile_qr_scan", "ios": "https://dc.lft.to/lastmile_qr_scan"}, "name": "8af91a6a150a4ac3e04960709c404dfd", "is_reserved": 0}, {"is_disabled": 0, "fusion_lon": 0.0, "fusion_lat": 0.0, "lat": 38.8635615, "type": "electric_scooter", "lon": -76.99064666666666, "bike_id": "9ddb02eae33522257bb2207e80776e6e", "rental_uris": {"android": "https://dc.lft.to/lastmile_qr_scan", "ios": "https://dc.lft.to/lastmile_qr_scan"}, "name": "9ddb02eae33522257bb2207e80776e6e", "is_reserved": 0}, {"is_disabled": 0, "fusion_lon": 0.0, "fusion_lat": 0.0, "lat": 38.848959666666666, "type": "electric_scooter", "lon": -77.00524933333334, "bike_id": "6aaf81cd0b4e90b9613df2b472253a56", "rental_uris": {"android": "https://dc.lft.to/lastmile_qr_scan", "ios": "https://dc.lft.to/lastmile_qr_scan"}, "name": "6aaf81cd0b4e90b9613df2b472253a56", "is_reserved": 0}, {"is_disabled": 0, "fusion_lon": 0.0, "fusion_lat": 0.0, "lat": 38.87774566666667, "type": "electric_scooter", "lon": -77.01436783333334, "bike_id": "238eba0011b3793866702a40fddd5ae2", "rental_uris": {"android": "https://dc.lft.to/lastmile_qr_scan", "ios": "https://dc.lft.to/lastmile_qr_scan"}, "name": "238eba0011b3793866702a40fddd5ae2", "is_reserved": 0}, {"is_disabled": 0, "fusion_lon": 0.0, "fusion_lat": 0.0, "lat": 38.900459833333336, "type": "electric_scooter", "lon": -77.00731933333333, "bike_id": "28317a665e61698b2ef2f2d66eb6d306", "rental_uris": {"android": "https://dc.lft.to/lastmile_qr_scan", "ios": "https://dc.lft.to/lastmile_qr_scan"}, "name": "28317a665e61698b2ef2f2d66eb6d306", "is_reserved": 0}, {"is_disabled": 0, "fusion_lon": 0.0, "fusion_lat": 0.0, "lat": 38.937025166666665, "type": "electric_scooter", "lon": -77.061044, "bike_id": "cbec33eda38f3a2f7add8ee2c6fd1055", "rental_uris": {"android": "https://dc.lft.to/lastmile_qr_scan", "ios": "https://dc.lft.to/lastmile_qr_scan"}, "name": "cbec33eda38f3a2f7add8ee2c6fd1055", "is_reserved": 0}, {"is_disabled": 0, "fusion_lon": 0.0, "fusion_lat": 0.0, "lat": 38.981316666666665, "type": "electric_bike", "lon": -77.007722, "bike_id": "824d80ac61e51ca66fdd7c4804a3bfbb", "rental_uris": {"android": "https://dc.lft.to/lastmile_qr_scan", "ios": "https://dc.lft.to/lastmile_qr_scan"}, "name": "824d80ac61e51ca66fdd7c4804a3bfbb", "is_reserved": 0}, {"is_disabled": 0, "fusion_lon": 0.0, "fusion_lat": 0.0, "lat": 38.89834533333333, "type": "electric_scooter", "lon": -77.007413, "bike_id": "cd26096d98852f12400ccb19eee4077e", "rental_uris": {"android": "https://dc.lft.to/lastmile_qr_scan", "ios": "https://dc.lft.to/lastmile_qr_scan"}, "name": "cd26096d98852f12400ccb19eee4077e", "is_reserved": 0}, {"is_disabled": 0, "fusion_lon": 0.0, "fusion_lat": 0.0, "lat": 38.9113015, "type": "electric_scooter", "lon": -77.0365795, "bike_id": "db1a10255d749d54213af9a088be7735", "rental_uris": {"android": "https://dc.lft.to/lastmile_qr_scan", "ios": "https://dc.lft.to/lastmile_qr_scan"}, "name": "db1a10255d749d54213af9a088be7735", "is_reserved": 0}, {"is_disabled": 0, "fusion_lon": 0.0, "fusion_lat": 0.0, "lat": 38.905876666666664, "type": "electric_scooter", "lon": -77.05132433333333, "bike_id": "82e3ee9c0b4996e18581d37ca2b6d083", "rental_uris": {"android": "https://dc.lft.to/lastmile_qr_scan", "ios": "https://dc.lft.to/lastmile_qr_scan"}, "name": "82e3ee9c0b4996e18581d37ca2b6d083", "is_reserved": 0}, {"is_disabled": 0, "fusion_lon": 0.0, "fusion_lat": 0.0, "lat": 38.90618033333333, "type": "electric_scooter", "lon": -77.02407883333333, "bike_id": "e600440de5ef7fa4dbd4f0d35855d1a0", "rental_uris": {"android": "https://dc.lft.to/lastmile_qr_scan", "ios": "https://dc.lft.to/lastmile_qr_scan"}, "name": "e600440de5ef7fa4dbd4f0d35855d1a0", "is_reserved": 0}, {"is_disabled": 0, "fusion_lon": 0.0, "fusion_lat": 0.0, "lat": 38.9295785, "type": "electric_scooter", "lon": -77.023419, "bike_id": "339a76e22eda9242221ad48d031b5c15", "rental_uris": {"android": "https://dc.lft.to/lastmile_qr_scan", "ios": "https://dc.lft.to/lastmile_qr_scan"}, "name": "339a76e22eda9242221ad48d031b5c15", "is_reserved": 0}, {"is_disabled": 0, "fusion_lon": 0.0, "fusion_lat": 0.0, "lat": 38.914917, "type": "electric_scooter", "lon": -76.98380033333333, "bike_id": "8f90857ca6fb005bae4e4e996f812388", "rental_uris": {"android": "https://dc.lft.to/lastmile_qr_scan", "ios": "https://dc.lft.to/lastmile_qr_scan"}, "name": "8f90857ca6fb005bae4e4e996f812388", "is_reserved": 0}, {"is_disabled": 0, "fusion_lon": 0.0, "fusion_lat": 0.0, "lat": 38.9170605, "type": "electric_scooter", "lon": -77.02617683333334, "bike_id": "f4627868caad5fd37081f030c950c359", "rental_uris": {"android": "https://dc.lft.to/lastmile_qr_scan", "ios": "https://dc.lft.to/lastmile_qr_scan"}, "name": "f4627868caad5fd37081f030c950c359", "is_reserved": 0}, {"is_disabled": 0, "fusion_lon": 0.0, "fusion_lat": 0.0, "lat": 38.862089166666664, "type": "electric_bike", "lon": -76.99499883333333, "bike_id": "ad0b0fe89401e40f822592590d08b522", "rental_uris": {"android": "https://dc.lft.to/lastmile_qr_scan", "ios": "https://dc.lft.to/lastmile_qr_scan"}, "name": "ad0b0fe89401e40f822592590d08b522", "is_reserved": 0}, {"is_disabled": 0, "fusion_lon": 0.0, "fusion_lat": 0.0, "lat": 38.92744183333333, "type": "electric_scooter", "lon": -77.025327, "bike_id": "8a78854d035ebec871c6c5c466852149", "rental_uris": {"android": "https://dc.lft.to/lastmile_qr_scan", "ios": "https://dc.lft.to/lastmile_qr_scan"}, "name": "8a78854d035ebec871c6c5c466852149", "is_reserved": 0}, {"is_disabled": 0, "fusion_lon": 0.0, "fusion_lat": 0.0, "lat": 38.9170195, "type": "electric_scooter", "lon": -77.04299666666667, "bike_id": "17a3fbbcb48fba78a1da8c177f6e3964", "rental_uris": {"android": "https://dc.lft.to/lastmile_qr_scan", "ios": "https://dc.lft.to/lastmile_qr_scan"}, "name": "17a3fbbcb48fba78a1da8c177f6e3964", "is_reserved": 0}, {"is_disabled": 0, "fusion_lon": 0.0, "fusion_lat": 0.0, "lat": 38.87505383333333, "type": "electric_bike", "lon": -77.00079216666667, "bike_id": "28673eedcb35ce7fa955107d5dd84fb3", "rental_uris": {"android": "https://dc.lft.to/lastmile_qr_scan", "ios": "https://dc.lft.to/lastmile_qr_scan"}, "name": "28673eedcb35ce7fa955107d5dd84fb3", "is_reserved": 0}, {"is_disabled": 0, "fusion_lon": 0.0, "fusion_lat": 0.0, "lat": 38.87974533333333, "type": "electric_scooter", "lon": -77.02422766666666, "bike_id": "7addb9c861641d813813b2b6e26cd7f3", "rental_uris": {"android": "https://dc.lft.to/lastmile_qr_scan", "ios": "https://dc.lft.to/lastmile_qr_scan"}, "name": "7addb9c861641d813813b2b6e26cd7f3", "is_reserved": 0}, {"is_disabled": 0, "fusion_lon": 0.0, "fusion_lat": 0.0, "lat": 38.905671, "type": "electric_scooter", "lon": -77.02464566666667, "bike_id": "86db37cb2afb5ed856253611373acfc2", "rental_uris": {"android": "https://dc.lft.to/lastmile_qr_scan", "ios": "https://dc.lft.to/lastmile_qr_scan"}, "name": "86db37cb2afb5ed856253611373acfc2", "is_reserved": 0}, {"is_disabled": 0, "fusion_lon": 0.0, "fusion_lat": 0.0, "lat": 38.92843233333333, "type": "electric_scooter", "lon": -77.0563035, "bike_id": "03c23876bfdfd92d773a9f2d00ab2a98", "rental_uris": {"android": "https://dc.lft.to/lastmile_qr_scan", "ios": "https://dc.lft.to/lastmile_qr_scan"}, "name": "03c23876bfdfd92d773a9f2d00ab2a98", "is_reserved": 0}, {"is_disabled": 0, "fusion_lon": 0.0, "fusion_lat": 0.0, "lat": 38.903666666666666, "type": "electric_scooter", "lon": -77.05299866666667, "bike_id": "fa0e63f22be54009e0cfe0b1ad76e40f", "rental_uris": {"android": "https://dc.lft.to/lastmile_qr_scan", "ios": "https://dc.lft.to/lastmile_qr_scan"}, "name": "fa0e63f22be54009e0cfe0b1ad76e40f", "is_reserved": 0}, {"is_disabled": 0, "fusion_lon": 0.0, "fusion_lat": 0.0, "lat": 38.9179465, "type": "electric_scooter", "lon": -77.0346055, "bike_id": "e21db1a32f11a5b89ca8b44e08bf6d0b", "rental_uris": {"android": "https://dc.lft.to/lastmile_qr_scan", "ios": "https://dc.lft.to/lastmile_qr_scan"}, "name": "e21db1a32f11a5b89ca8b44e08bf6d0b", "is_reserved": 0}, {"is_disabled": 0, "fusion_lon": 0.0, "fusion_lat": 0.0, "lat": 38.92719966666667, "type": "electric_scooter", "lon": -77.0159735, "bike_id": "5b1e7d9a2cc909e4fb8db57d1a4e72c9", "rental_uris": {"android": "https://dc.lft.to/lastmile_qr_scan", "ios": "https://dc.lft.to/lastmile_qr_scan"}, "name": "5b1e7d9a2cc909e4fb8db57d1a4e72c9", "is_reserved": 0}, {"is_disabled": 0, "fusion_lon": 0.0, "fusion_lat": 0.0, "lat": 38.87575733333333, "type": "electric_scooter", "lon": -77.02076383333333, "bike_id": "448da2af077953420c8bab515a611a30", "rental_uris": {"android": "https://dc.lft.to/lastmile_qr_scan", "ios": "https://dc.lft.to/lastmile_qr_scan"}, "name": "448da2af077953420c8bab515a611a30", "is_reserved": 0}, {"is_disabled": 0, "fusion_lon": 0.0, "fusion_lat": 0.0, "lat": 38.9265655, "type": "electric_scooter", "lon": -77.02293883333333, "bike_id": "b063af01a0ef722175f09ccc899fde4d", "rental_uris": {"android": "https://dc.lft.to/lastmile_qr_scan", "ios": "https://dc.lft.to/lastmile_qr_scan"}, "name": "b063af01a0ef722175f09ccc899fde4d", "is_reserved": 0}, {"is_disabled": 0, "fusion_lon": 0.0, "fusion_lat": 0.0, "lat": 38.8998275, "type": "electric_scooter", "lon": -77.0210115, "bike_id": "89fae717b4d22662b36ae4b1f901ceef", "rental_uris": {"android": "https://dc.lft.to/lastmile_qr_scan", "ios": "https://dc.lft.to/lastmile_qr_scan"}, "name": "89fae717b4d22662b36ae4b1f901ceef", "is_reserved": 0}, {"is_disabled": 0, "fusion_lon": 0.0, "fusion_lat": 0.0, "lat": 38.909613666666665, "type": "electric_scooter", "lon": -77.0386095, "bike_id": "c6b90c85c0bcdb47752f6972798a4331", "rental_uris": {"android": "https://dc.lft.to/lastmile_qr_scan", "ios": "https://dc.lft.to/lastmile_qr_scan"}, "name": "c6b90c85c0bcdb47752f6972798a4331", "is_reserved": 0}, {"is_disabled": 0, "fusion_lon": 0.0, "fusion_lat": 0.0, "lat": 38.93353033333333, "type": "electric_scooter", "lon": -77.07376333333333, "bike_id": "8a06829ded41486fcae9beb74fec218e", "rental_uris": {"android": "https://dc.lft.to/lastmile_qr_scan", "ios": "https://dc.lft.to/lastmile_qr_scan"}, "name": "8a06829ded41486fcae9beb74fec218e", "is_reserved": 0}, {"is_disabled": 0, "fusion_lon": 0.0, "fusion_lat": 0.0, "lat": 38.8751125, "type": "electric_scooter", "lon": -77.0138305, "bike_id": "e215b84cb27437e2309ae43b5a44ac06", "rental_uris": {"android": "https://dc.lft.to/lastmile_qr_scan", "ios": "https://dc.lft.to/lastmile_qr_scan"}, "name": "e215b84cb27437e2309ae43b5a44ac06", "is_reserved": 0}, {"is_disabled": 0, "fusion_lon": 0.0, "fusion_lat": 0.0, "lat": 38.9966435, "type": "electric_bike", "lon": -76.991423, "bike_id": "311ee556396dd0453b565480d61ce18f", "rental_uris": {"android": "https://dc.lft.to/lastmile_qr_scan", "ios": "https://dc.lft.to/lastmile_qr_scan"}, "name": "311ee556396dd0453b565480d61ce18f", "is_reserved": 0}, {"is_disabled": 0, "fusion_lon": 0.0, "fusion_lat": 0.0, "lat": 38.903527833333335, "type": "electric_scooter", "lon": -77.01114716666666, "bike_id": "d64f60c0a89268b639eec53e4d60f2e2", "rental_uris": {"android": "https://dc.lft.to/lastmile_qr_scan", "ios": "https://dc.lft.to/lastmile_qr_scan"}, "name": "d64f60c0a89268b639eec53e4d60f2e2", "is_reserved": 0}, {"is_disabled": 0, "fusion_lon": 0.0, "fusion_lat": 0.0, "lat": 38.896610333333335, "type": "electric_scooter", "lon": -77.0434415, "bike_id": "1db1a6934d4015da6cb5e84a12b46428", "rental_uris": {"android": "https://dc.lft.to/lastmile_qr_scan", "ios": "https://dc.lft.to/lastmile_qr_scan"}, "name": "1db1a6934d4015da6cb5e84a12b46428", "is_reserved": 0}, {"is_disabled": 0, "fusion_lon": 0.0, "fusion_lat": 0.0, "lat": 38.944539, "type": "electric_scooter", "lon": -77.060241, "bike_id": "b6ad2d393eae6df9fb20eaceba0c1317", "rental_uris": {"android": "https://dc.lft.to/lastmile_qr_scan", "ios": "https://dc.lft.to/lastmile_qr_scan"}, "name": "b6ad2d393eae6df9fb20eaceba0c1317", "is_reserved": 0}, {"is_disabled": 0, "fusion_lon": 0.0, "fusion_lat": 0.0, "lat": 38.926149833333334, "type": "electric_scooter", "lon": -77.04195066666666, "bike_id": "7ebd76a03a991f2f9bbb68e7793c8a4f", "rental_uris": {"android": "https://dc.lft.to/lastmile_qr_scan", "ios": "https://dc.lft.to/lastmile_qr_scan"}, "name": "7ebd76a03a991f2f9bbb68e7793c8a4f", "is_reserved": 0}, {"is_disabled": 0, "fusion_lon": 0.0, "fusion_lat": 0.0, "lat": 38.89223066666667, "type": "electric_scooter", "lon": -77.02837933333333, "bike_id": "51bcf1e1356c4a8ca4e069e9c10e3d24", "rental_uris": {"android": "https://dc.lft.to/lastmile_qr_scan", "ios": "https://dc.lft.to/lastmile_qr_scan"}, "name": "51bcf1e1356c4a8ca4e069e9c10e3d24", "is_reserved": 0}, {"is_disabled": 0, "fusion_lon": 0.0, "fusion_lat": 0.0, "lat": 38.9233115, "type": "electric_scooter", "lon": -77.04187, "bike_id": "f4eff58fa50adf44fe113f376d6ccb07", "rental_uris": {"android": "https://dc.lft.to/lastmile_qr_scan", "ios": "https://dc.lft.to/lastmile_qr_scan"}, "name": "f4eff58fa50adf44fe113f376d6ccb07", "is_reserved": 0}, {"is_disabled": 0, "fusion_lon": 0.0, "fusion_lat": 0.0, "lat": 38.9005845, "type": "electric_scooter", "lon": -76.93383633333333, "bike_id": "3153effabdf65c70c19df2e959a65a90", "rental_uris": {"android": "https://dc.lft.to/lastmile_qr_scan", "ios": "https://dc.lft.to/lastmile_qr_scan"}, "name": "3153effabdf65c70c19df2e959a65a90", "is_reserved": 0}, {"is_disabled": 0, "fusion_lon": 0.0, "fusion_lat": 0.0, "lat": 38.87709383333333, "type": "electric_scooter", "lon": -77.00521433333333, "bike_id": "c451e2360346538336db894b6ad716dc", "rental_uris": {"android": "https://dc.lft.to/lastmile_qr_scan", "ios": "https://dc.lft.to/lastmile_qr_scan"}, "name": "c451e2360346538336db894b6ad716dc", "is_reserved": 0}, {"is_disabled": 0, "fusion_lon": 0.0, "fusion_lat": 0.0, "lat": 38.9312905, "type": "electric_scooter", "lon": -77.0572895, "bike_id": "2cec46f9ac8195f5f3466762b335432d", "rental_uris": {"android": "https://dc.lft.to/lastmile_qr_scan", "ios": "https://dc.lft.to/lastmile_qr_scan"}, "name": "2cec46f9ac8195f5f3466762b335432d", "is_reserved": 0}, {"is_disabled": 0, "fusion_lon": 0.0, "fusion_lat": 0.0, "lat": 38.90366483333333, "type": "electric_scooter", "lon": -77.0175245, "bike_id": "91a5d85ba7a5680ac73fe3bba754275a", "rental_uris": {"android": "https://dc.lft.to/lastmile_qr_scan", "ios": "https://dc.lft.to/lastmile_qr_scan"}, "name": "91a5d85ba7a5680ac73fe3bba754275a", "is_reserved": 0}, {"is_disabled": 0, "fusion_lon": 0.0, "fusion_lat": 0.0, "lat": 38.878958833333336, "type": "electric_scooter", "lon": -76.9352385, "bike_id": "a25dc6fe6ea1aa98a8330b77e1b3fc2e", "rental_uris": {"android": "https://dc.lft.to/lastmile_qr_scan", "ios": "https://dc.lft.to/lastmile_qr_scan"}, "name": "a25dc6fe6ea1aa98a8330b77e1b3fc2e", "is_reserved": 0}, {"is_disabled": 0, "fusion_lon": 0.0, "fusion_lat": 0.0, "lat": 38.8922065, "type": "electric_scooter", "lon": -77.046929, "bike_id": "72cf40196f89681aa18ae8bc1b4ba1cc", "rental_uris": {"android": "https://dc.lft.to/lastmile_qr_scan", "ios": "https://dc.lft.to/lastmile_qr_scan"}, "name": "72cf40196f89681aa18ae8bc1b4ba1cc", "is_reserved": 0}, {"is_disabled": 0, "fusion_lon": 0.0, "fusion_lat": 0.0, "lat": 38.898526833333335, "type": "electric_scooter", "lon": -77.039956, "bike_id": "105e35318d078f33b53d26c927bdd7b8", "rental_uris": {"android": "https://dc.lft.to/lastmile_qr_scan", "ios": "https://dc.lft.to/lastmile_qr_scan"}, "name": "105e35318d078f33b53d26c927bdd7b8", "is_reserved": 0}, {"is_disabled": 0, "fusion_lon": 0.0, "fusion_lat": 0.0, "lat": 38.894798333333334, "type": "electric_scooter", "lon": -77.02293433333334, "bike_id": "4d7ba0c5b85e503049e78bea9027c8bc", "rental_uris": {"android": "https://dc.lft.to/lastmile_qr_scan", "ios": "https://dc.lft.to/lastmile_qr_scan"}, "name": "4d7ba0c5b85e503049e78bea9027c8bc", "is_reserved": 0}, {"is_disabled": 0, "fusion_lon": 0.0, "fusion_lat": 0.0, "lat": 38.93538516666667, "type": "electric_scooter", "lon": -77.03407083333333, "bike_id": "1559a10a7bcdf39979b2399b15edefe0", "rental_uris": {"android": "https://dc.lft.to/lastmile_qr_scan", "ios": "https://dc.lft.to/lastmile_qr_scan"}, "name": "1559a10a7bcdf39979b2399b15edefe0", "is_reserved": 0}, {"is_disabled": 0, "fusion_lon": 0.0, "fusion_lat": 0.0, "lat": 38.90465116666667, "type": "electric_scooter", "lon": -76.9921185, "bike_id": "b4def1220b4a44718867b2c7fd536565", "rental_uris": {"android": "https://dc.lft.to/lastmile_qr_scan", "ios": "https://dc.lft.to/lastmile_qr_scan"}, "name": "b4def1220b4a44718867b2c7fd536565", "is_reserved": 0}, {"is_disabled": 0, "fusion_lon": 0.0, "fusion_lat": 0.0, "lat": 38.92258283333334, "type": "electric_scooter", "lon": -77.071299, "bike_id": "69ab5a875415c6b9c2cc798fd8fb4624", "rental_uris": {"android": "https://dc.lft.to/lastmile_qr_scan", "ios": "https://dc.lft.to/lastmile_qr_scan"}, "name": "69ab5a875415c6b9c2cc798fd8fb4624", "is_reserved": 0}, {"is_disabled": 0, "fusion_lon": 0.0, "fusion_lat": 0.0, "lat": 38.9003095, "type": "electric_scooter", "lon": -77.00219466666667, "bike_id": "53c996de3e358b1e5a30b826f3ea4427", "rental_uris": {"android": "https://dc.lft.to/lastmile_qr_scan", "ios": "https://dc.lft.to/lastmile_qr_scan"}, "name": "53c996de3e358b1e5a30b826f3ea4427", "is_reserved": 0}, {"is_disabled": 0, "fusion_lon": 0.0, "fusion_lat": 0.0, "lat": 38.91149883333333, "type": "electric_scooter", "lon": -76.984992, "bike_id": "d41f59bbcb0a106fef13a5a5f6e84168", "rental_uris": {"android": "https://dc.lft.to/lastmile_qr_scan", "ios": "https://dc.lft.to/lastmile_qr_scan"}, "name": "d41f59bbcb0a106fef13a5a5f6e84168", "is_reserved": 0}, {"is_disabled": 0, "fusion_lon": 0.0, "fusion_lat": 0.0, "lat": 38.942938, "type": "electric_scooter", "lon": -77.03355583333334, "bike_id": "2d097e3331c21a97301975151fdeb8b5", "rental_uris": {"android": "https://dc.lft.to/lastmile_qr_scan", "ios": "https://dc.lft.to/lastmile_qr_scan"}, "name": "2d097e3331c21a97301975151fdeb8b5", "is_reserved": 0}, {"is_disabled": 0, "fusion_lon": 0.0, "fusion_lat": 0.0, "lat": 38.887419333333334, "type": "electric_scooter", "lon": -77.01602883333334, "bike_id": "1e25550bb38e5dc0f8b27e70a4d5feff", "rental_uris": {"android": "https://dc.lft.to/lastmile_qr_scan", "ios": "https://dc.lft.to/lastmile_qr_scan"}, "name": "1e25550bb38e5dc0f8b27e70a4d5feff", "is_reserved": 0}, {"is_disabled": 0, "fusion_lon": 0.0, "fusion_lat": 0.0, "lat": 38.841016, "type": "electric_bike", "lon": -77.08935883333334, "bike_id": "0c757c92bacde0c867922c8d5e813787", "rental_uris": {"android": "https://dc.lft.to/lastmile_qr_scan", "ios": "https://dc.lft.to/lastmile_qr_scan"}, "name": "0c757c92bacde0c867922c8d5e813787", "is_reserved": 0}, {"is_disabled": 0, "fusion_lon": 0.0, "fusion_lat": 0.0, "lat": 38.96446266666667, "type": "electric_bike", "lon": -76.97723483333333, "bike_id": "22887455a9a154122b2cd559721e1ea9", "rental_uris": {"android": "https://dc.lft.to/lastmile_qr_scan", "ios": "https://dc.lft.to/lastmile_qr_scan"}, "name": "22887455a9a154122b2cd559721e1ea9", "is_reserved": 0}, {"is_disabled": 0, "fusion_lon": 0.0, "fusion_lat": 0.0, "lat": 39.02995883333333, "type": "electric_bike", "lon": -77.1065105, "bike_id": "644c3688b2e0610ccf063994b1a98aa9", "rental_uris": {"android": "https://dc.lft.to/lastmile_qr_scan", "ios": "https://dc.lft.to/lastmile_qr_scan"}, "name": "644c3688b2e0610ccf063994b1a98aa9", "is_reserved": 0}, {"is_disabled": 0, "fusion_lon": 0.0, "fusion_lat": 0.0, "lat": 38.92887183333333, "type": "electric_scooter", "lon": -77.02307433333333, "bike_id": "9c5f70ff007e422151f931968d868729", "rental_uris": {"android": "https://dc.lft.to/lastmile_qr_scan", "ios": "https://dc.lft.to/lastmile_qr_scan"}, "name": "9c5f70ff007e422151f931968d868729", "is_reserved": 0}, {"is_disabled": 0, "fusion_lon": 0.0, "fusion_lat": 0.0, "lat": 38.8428855, "type": "electric_scooter", "lon": -76.99947483333334, "bike_id": "b0f1e6c0e11999d1859753472581f9d5", "rental_uris": {"android": "https://dc.lft.to/lastmile_qr_scan", "ios": "https://dc.lft.to/lastmile_qr_scan"}, "name": "b0f1e6c0e11999d1859753472581f9d5", "is_reserved": 0}, {"is_disabled": 0, "fusion_lon": 0.0, "fusion_lat": 0.0, "lat": 38.94054, "type": "electric_scooter", "lon": -77.02506233333334, "bike_id": "80ccfe5714a777cd68b660f9c0ef0bf7", "rental_uris": {"android": "https://dc.lft.to/lastmile_qr_scan", "ios": "https://dc.lft.to/lastmile_qr_scan"}, "name": "80ccfe5714a777cd68b660f9c0ef0bf7", "is_reserved": 0}, {"is_disabled": 0, "fusion_lon": 0.0, "fusion_lat": 0.0, "lat": 38.899506, "type": "electric_scooter", "lon": -77.05218933333333, "bike_id": "04b167525df926f689feae36bbd5ed62", "rental_uris": {"android": "https://dc.lft.to/lastmile_qr_scan", "ios": "https://dc.lft.to/lastmile_qr_scan"}, "name": "04b167525df926f689feae36bbd5ed62", "is_reserved": 0}, {"is_disabled": 0, "fusion_lon": 0.0, "fusion_lat": 0.0, "lat": 38.921180166666666, "type": "electric_scooter", "lon": -77.01210283333333, "bike_id": "34f66539419c773d859ab5ba3ec85184", "rental_uris": {"android": "https://dc.lft.to/lastmile_qr_scan", "ios": "https://dc.lft.to/lastmile_qr_scan"}, "name": "34f66539419c773d859ab5ba3ec85184", "is_reserved": 0}, {"is_disabled": 0, "fusion_lon": 0.0, "fusion_lat": 0.0, "lat": 38.93561833333333, "type": "electric_scooter", "lon": -77.0820895, "bike_id": "f7bfa0d6c33a5717929f02ebb7d65c09", "rental_uris": {"android": "https://dc.lft.to/lastmile_qr_scan", "ios": "https://dc.lft.to/lastmile_qr_scan"}, "name": "f7bfa0d6c33a5717929f02ebb7d65c09", "is_reserved": 0}, {"is_disabled": 0, "fusion_lon": 0.0, "fusion_lat": 0.0, "lat": 38.927393, "type": "electric_scooter", "lon": -77.07589716666666, "bike_id": "901081302466b759f305b09c84f3a5e6", "rental_uris": {"android": "https://dc.lft.to/lastmile_qr_scan", "ios": "https://dc.lft.to/lastmile_qr_scan"}, "name": "901081302466b759f305b09c84f3a5e6", "is_reserved": 0}, {"is_disabled": 0, "fusion_lon": 0.0, "fusion_lat": 0.0, "lat": 38.883714499999996, "type": "electric_bike", "lon": -77.03049933333334, "bike_id": "3beafe71e778b65125b9fb617825c668", "rental_uris": {"android": "https://dc.lft.to/lastmile_qr_scan", "ios": "https://dc.lft.to/lastmile_qr_scan"}, "name": "3beafe71e778b65125b9fb617825c668", "is_reserved": 0}, {"is_disabled": 0, "fusion_lon": 0.0, "fusion_lat": 0.0, "lat": 38.845931666666665, "type": "electric_bike", "lon": -76.96879916666667, "bike_id": "504ca65e2162408d722b266be7d02e0f", "rental_uris": {"android": "https://dc.lft.to/lastmile_qr_scan", "ios": "https://dc.lft.to/lastmile_qr_scan"}, "name": "504ca65e2162408d722b266be7d02e0f", "is_reserved": 0}, {"is_disabled": 0, "fusion_lon": 0.0, "fusion_lat": 0.0, "lat": 38.956279, "type": "electric_scooter", "lon": -77.02978283333333, "bike_id": "b1952eca83d63e62e14281b0536e087a", "rental_uris": {"android": "https://dc.lft.to/lastmile_qr_scan", "ios": "https://dc.lft.to/lastmile_qr_scan"}, "name": "b1952eca83d63e62e14281b0536e087a", "is_reserved": 0}, {"is_disabled": 0, "fusion_lon": 0.0, "fusion_lat": 0.0, "lat": 38.95961466666667, "type": "electric_scooter", "lon": -77.02111066666667, "bike_id": "d2b9acd816d7af6e52603157a7528752", "rental_uris": {"android": "https://dc.lft.to/lastmile_qr_scan", "ios": "https://dc.lft.to/lastmile_qr_scan"}, "name": "d2b9acd816d7af6e52603157a7528752", "is_reserved": 0}, {"is_disabled": 0, "fusion_lon": 0.0, "fusion_lat": 0.0, "lat": 38.907627833333336, "type": "electric_scooter", "lon": -77.0358585, "bike_id": "ff21d6a81eec65b80da08befc405ee98", "rental_uris": {"android": "https://dc.lft.to/lastmile_qr_scan", "ios": "https://dc.lft.to/lastmile_qr_scan"}, "name": "ff21d6a81eec65b80da08befc405ee98", "is_reserved": 0}, {"is_disabled": 0, "fusion_lon": 0.0, "fusion_lat": 0.0, "lat": 38.8873655, "type": "electric_scooter", "lon": -77.01530116666666, "bike_id": "bee3d1cf520e25c8f367117908fccd86", "rental_uris": {"android": "https://dc.lft.to/lastmile_qr_scan", "ios": "https://dc.lft.to/lastmile_qr_scan"}, "name": "bee3d1cf520e25c8f367117908fccd86", "is_reserved": 0}, {"is_disabled": 0, "fusion_lon": 0.0, "fusion_lat": 0.0, "lat": 38.91108283333333, "type": "electric_scooter", "lon": -77.0382905, "bike_id": "2d417440061b18321b69033c98605f9c", "rental_uris": {"android": "https://dc.lft.to/lastmile_qr_scan", "ios": "https://dc.lft.to/lastmile_qr_scan"}, "name": "2d417440061b18321b69033c98605f9c", "is_reserved": 0}, {"is_disabled": 0, "fusion_lon": 0.0, "fusion_lat": 0.0, "lat": 38.8990475, "type": "electric_scooter", "lon": -76.93391316666667, "bike_id": "c69fc3e33f2c0e9e197cd678a6c9b38f", "rental_uris": {"android": "https://dc.lft.to/lastmile_qr_scan", "ios": "https://dc.lft.to/lastmile_qr_scan"}, "name": "c69fc3e33f2c0e9e197cd678a6c9b38f", "is_reserved": 0}, {"is_disabled": 0, "fusion_lon": 0.0, "fusion_lat": 0.0, "lat": 38.895041666666664, "type": "electric_scooter", "lon": -77.01612233333333, "bike_id": "aea6441c529fd0f8b36ace72f45907a4", "rental_uris": {"android": "https://dc.lft.to/lastmile_qr_scan", "ios": "https://dc.lft.to/lastmile_qr_scan"}, "name": "aea6441c529fd0f8b36ace72f45907a4", "is_reserved": 0}, {"is_disabled": 0, "fusion_lon": 0.0, "fusion_lat": 0.0, "lat": 38.9430135, "type": "electric_scooter", "lon": -77.02761733333334, "bike_id": "20f3a8cd641621fa2b79f6ddff40fb1b", "rental_uris": {"android": "https://dc.lft.to/lastmile_qr_scan", "ios": "https://dc.lft.to/lastmile_qr_scan"}, "name": "20f3a8cd641621fa2b79f6ddff40fb1b", "is_reserved": 0}, {"is_disabled": 0, "fusion_lon": 0.0, "fusion_lat": 0.0, "lat": 38.9095555, "type": "electric_scooter", "lon": -77.02375816666667, "bike_id": "a954a3a9d26e274e8c53a94b670407da", "rental_uris": {"android": "https://dc.lft.to/lastmile_qr_scan", "ios": "https://dc.lft.to/lastmile_qr_scan"}, "name": "a954a3a9d26e274e8c53a94b670407da", "is_reserved": 0}, {"is_disabled": 0, "fusion_lon": 0.0, "fusion_lat": 0.0, "lat": 38.923261833333335, "type": "electric_scooter", "lon": -77.04183016666667, "bike_id": "750626eb22f165957309bbda12b37146", "rental_uris": {"android": "https://dc.lft.to/lastmile_qr_scan", "ios": "https://dc.lft.to/lastmile_qr_scan"}, "name": "750626eb22f165957309bbda12b37146", "is_reserved": 0}, {"is_disabled": 0, "fusion_lon": 0.0, "fusion_lat": 0.0, "lat": 38.904894166666665, "type": "electric_scooter", "lon": -77.05133083333334, "bike_id": "34b15e669a8e22013718b162629a8772", "rental_uris": {"android": "https://dc.lft.to/lastmile_qr_scan", "ios": "https://dc.lft.to/lastmile_qr_scan"}, "name": "34b15e669a8e22013718b162629a8772", "is_reserved": 0}, {"is_disabled": 0, "fusion_lon": 0.0, "fusion_lat": 0.0, "lat": 38.913758, "type": "electric_scooter", "lon": -77.0459505, "bike_id": "ddff3db462ffb0583b8b74e014487a89", "rental_uris": {"android": "https://dc.lft.to/lastmile_qr_scan", "ios": "https://dc.lft.to/lastmile_qr_scan"}, "name": "ddff3db462ffb0583b8b74e014487a89", "is_reserved": 0}, {"is_disabled": 0, "fusion_lon": 0.0, "fusion_lat": 0.0, "lat": 38.869557666666665, "type": "electric_scooter", "lon": -76.96030466666667, "bike_id": "2740069c1a42d2a972057982e9b36dba", "rental_uris": {"android": "https://dc.lft.to/lastmile_qr_scan", "ios": "https://dc.lft.to/lastmile_qr_scan"}, "name": "2740069c1a42d2a972057982e9b36dba", "is_reserved": 0}, {"is_disabled": 0, "fusion_lon": 0.0, "fusion_lat": 0.0, "lat": 38.81023066666667, "type": "electric_bike", "lon": -77.08434783333334, "bike_id": "dc88177f82dc5a49df5ee97ff02c7f30", "rental_uris": {"android": "https://dc.lft.to/lastmile_qr_scan", "ios": "https://dc.lft.to/lastmile_qr_scan"}, "name": "dc88177f82dc5a49df5ee97ff02c7f30", "is_reserved": 0}, {"is_disabled": 0, "fusion_lon": 0.0, "fusion_lat": 0.0, "lat": 38.899841333333335, "type": "electric_scooter", "lon": -77.033171, "bike_id": "b5b3f40cc4e9ff0a2d8fea85cedf4b81", "rental_uris": {"android": "https://dc.lft.to/lastmile_qr_scan", "ios": "https://dc.lft.to/lastmile_qr_scan"}, "name": "b5b3f40cc4e9ff0a2d8fea85cedf4b81", "is_reserved": 0}, {"is_disabled": 0, "fusion_lon": 0.0, "fusion_lat": 0.0, "lat": 38.919347, "type": "electric_bike", "lon": -76.9750235, "bike_id": "f7efc2b6a912de460fa1b7e1057ab1a7", "rental_uris": {"android": "https://dc.lft.to/lastmile_qr_scan", "ios": "https://dc.lft.to/lastmile_qr_scan"}, "name": "f7efc2b6a912de460fa1b7e1057ab1a7", "is_reserved": 0}, {"is_disabled": 0, "fusion_lon": 0.0, "fusion_lat": 0.0, "lat": 38.929823, "type": "electric_scooter", "lon": -77.05504416666666, "bike_id": "fc8dc063e335f0fa9ef96b50a42ca081", "rental_uris": {"android": "https://dc.lft.to/lastmile_qr_scan", "ios": "https://dc.lft.to/lastmile_qr_scan"}, "name": "fc8dc063e335f0fa9ef96b50a42ca081", "is_reserved": 0}, {"is_disabled": 0, "fusion_lon": 0.0, "fusion_lat": 0.0, "lat": 38.894108833333334, "type": "electric_scooter", "lon": -77.0108685, "bike_id": "09c4a70321291cb4276d3b6e2dd3c687", "rental_uris": {"android": "https://dc.lft.to/lastmile_qr_scan", "ios": "https://dc.lft.to/lastmile_qr_scan"}, "name": "09c4a70321291cb4276d3b6e2dd3c687", "is_reserved": 0}, {"is_disabled": 0, "fusion_lon": 0.0, "fusion_lat": 0.0, "lat": 38.992508, "type": "electric_bike", "lon": -77.04996366666667, "bike_id": "8b488821e03c7c5758c4dfa819253037", "rental_uris": {"android": "https://dc.lft.to/lastmile_qr_scan", "ios": "https://dc.lft.to/lastmile_qr_scan"}, "name": "8b488821e03c7c5758c4dfa819253037", "is_reserved": 0}, {"is_disabled": 0, "fusion_lon": 0.0, "fusion_lat": 0.0, "lat": 38.94298583333333, "type": "electric_scooter", "lon": -77.0234925, "bike_id": "dacfe7a93614b2890d5d604f48eb8a45", "rental_uris": {"android": "https://dc.lft.to/lastmile_qr_scan", "ios": "https://dc.lft.to/lastmile_qr_scan"}, "name": "dacfe7a93614b2890d5d604f48eb8a45", "is_reserved": 0}, {"is_disabled": 0, "fusion_lon": 0.0, "fusion_lat": 0.0, "lat": 39.11524516666667, "type": "electric_bike", "lon": -77.195372, "bike_id": "7be06cf3045fd0b38bba0461a0076939", "rental_uris": {"android": "https://dc.lft.to/lastmile_qr_scan", "ios": "https://dc.lft.to/lastmile_qr_scan"}, "name": "7be06cf3045fd0b38bba0461a0076939", "is_reserved": 0}, {"is_disabled": 0, "fusion_lon": 0.0, "fusion_lat": 0.0, "lat": 38.938781166666665, "type": "electric_scooter", "lon": -77.03329083333334, "bike_id": "89ccfa094d148d198605b00839940702", "rental_uris": {"android": "https://dc.lft.to/lastmile_qr_scan", "ios": "https://dc.lft.to/lastmile_qr_scan"}, "name": "89ccfa094d148d198605b00839940702", "is_reserved": 0}, {"is_disabled": 0, "fusion_lon": 0.0, "fusion_lat": 0.0, "lat": 38.930447666666666, "type": "electric_scooter", "lon": -77.00414733333334, "bike_id": "c9bcb6126a88789dd408a01dc625e89f", "rental_uris": {"android": "https://dc.lft.to/lastmile_qr_scan", "ios": "https://dc.lft.to/lastmile_qr_scan"}, "name": "c9bcb6126a88789dd408a01dc625e89f", "is_reserved": 0}, {"is_disabled": 0, "fusion_lon": 0.0, "fusion_lat": 0.0, "lat": 38.83813983333334, "type": "electric_scooter", "lon": -77.0043535, "bike_id": "ea9e9b58148c2db57996f097fc2caa50", "rental_uris": {"android": "https://dc.lft.to/lastmile_qr_scan", "ios": "https://dc.lft.to/lastmile_qr_scan"}, "name": "ea9e9b58148c2db57996f097fc2caa50", "is_reserved": 0}, {"is_disabled": 0, "fusion_lon": 0.0, "fusion_lat": 0.0, "lat": 38.857127, "type": "electric_bike", "lon": -76.98110316666667, "bike_id": "32ca9e983657565ce7783e6152c01c7e", "rental_uris": {"android": "https://dc.lft.to/lastmile_qr_scan", "ios": "https://dc.lft.to/lastmile_qr_scan"}, "name": "32ca9e983657565ce7783e6152c01c7e", "is_reserved": 0}, {"is_disabled": 0, "fusion_lon": 0.0, "fusion_lat": 0.0, "lat": 38.94326983333333, "type": "electric_bike", "lon": -77.01477416666667, "bike_id": "f1d196b6c1a6c17587bc43f54cdf4cba", "rental_uris": {"android": "https://dc.lft.to/lastmile_qr_scan", "ios": "https://dc.lft.to/lastmile_qr_scan"}, "name": "f1d196b6c1a6c17587bc43f54cdf4cba", "is_reserved": 0}, {"is_disabled": 0, "fusion_lon": 0.0, "fusion_lat": 0.0, "lat": 38.92124183333333, "type": "electric_scooter", "lon": -77.04436716666666, "bike_id": "c80341a6f3c46ed9cb99691056aedce2", "rental_uris": {"android": "https://dc.lft.to/lastmile_qr_scan", "ios": "https://dc.lft.to/lastmile_qr_scan"}, "name": "c80341a6f3c46ed9cb99691056aedce2", "is_reserved": 0}, {"is_disabled": 0, "fusion_lon": 0.0, "fusion_lat": 0.0, "lat": 38.90441033333333, "type": "electric_scooter", "lon": -77.02413716666666, "bike_id": "be86291b4aacad1878abb9027dd5166c", "rental_uris": {"android": "https://dc.lft.to/lastmile_qr_scan", "ios": "https://dc.lft.to/lastmile_qr_scan"}, "name": "be86291b4aacad1878abb9027dd5166c", "is_reserved": 0}, {"is_disabled": 0, "fusion_lon": 0.0, "fusion_lat": 0.0, "lat": 38.918111, "type": "electric_scooter", "lon": -77.03375766666667, "bike_id": "0dd87aefa44781456ea323228910b44b", "rental_uris": {"android": "https://dc.lft.to/lastmile_qr_scan", "ios": "https://dc.lft.to/lastmile_qr_scan"}, "name": "0dd87aefa44781456ea323228910b44b", "is_reserved": 0}, {"is_disabled": 0, "fusion_lon": 0.0, "fusion_lat": 0.0, "lat": 38.9055415, "type": "electric_scooter", "lon": -77.02761933333333, "bike_id": "c243e3780f08a7b30ccbe0a3660e10ee", "rental_uris": {"android": "https://dc.lft.to/lastmile_qr_scan", "ios": "https://dc.lft.to/lastmile_qr_scan"}, "name": "c243e3780f08a7b30ccbe0a3660e10ee", "is_reserved": 0}, {"is_disabled": 0, "fusion_lon": 0.0, "fusion_lat": 0.0, "lat": 38.852808333333336, "type": "electric_bike", "lon": -76.981505, "bike_id": "1cc5adb3be05daf2a535d912642e8e64", "rental_uris": {"android": "https://dc.lft.to/lastmile_qr_scan", "ios": "https://dc.lft.to/lastmile_qr_scan"}, "name": "1cc5adb3be05daf2a535d912642e8e64", "is_reserved": 0}, {"is_disabled": 0, "fusion_lon": 0.0, "fusion_lat": 0.0, "lat": 38.857869, "type": "electric_bike", "lon": -76.98756916666666, "bike_id": "ef62be220ebb47cd8d831c12fbe22924", "rental_uris": {"android": "https://dc.lft.to/lastmile_qr_scan", "ios": "https://dc.lft.to/lastmile_qr_scan"}, "name": "ef62be220ebb47cd8d831c12fbe22924", "is_reserved": 0}, {"is_disabled": 0, "fusion_lon": 0.0, "fusion_lat": 0.0, "lat": 38.899965333333334, "type": "electric_scooter", "lon": -77.03361566666666, "bike_id": "3fe10d9a15f39bc4b58f52665c51133a", "rental_uris": {"android": "https://dc.lft.to/lastmile_qr_scan", "ios": "https://dc.lft.to/lastmile_qr_scan"}, "name": "3fe10d9a15f39bc4b58f52665c51133a", "is_reserved": 0}, {"is_disabled": 0, "fusion_lon": 0.0, "fusion_lat": 0.0, "lat": 38.90616683333333, "type": "electric_scooter", "lon": -77.0240235, "bike_id": "cf8931f442b2b958219eb5c82d744a64", "rental_uris": {"android": "https://dc.lft.to/lastmile_qr_scan", "ios": "https://dc.lft.to/lastmile_qr_scan"}, "name": "cf8931f442b2b958219eb5c82d744a64", "is_reserved": 0}, {"is_disabled": 0, "fusion_lon": 0.0, "fusion_lat": 0.0, "lat": 38.848389833333336, "type": "electric_bike", "lon": -77.08049133333333, "bike_id": "5956bbd6412324dde352e10e7cd48991", "rental_uris": {"android": "https://dc.lft.to/lastmile_qr_scan", "ios": "https://dc.lft.to/lastmile_qr_scan"}, "name": "5956bbd6412324dde352e10e7cd48991", "is_reserved": 0}, {"is_disabled": 0, "fusion_lon": 0.0, "fusion_lat": 0.0, "lat": 38.9057255, "type": "electric_scooter", "lon": -77.04673933333333, "bike_id": "ea642d38059ee46fba5363d8540658c5", "rental_uris": {"android": "https://dc.lft.to/lastmile_qr_scan", "ios": "https://dc.lft.to/lastmile_qr_scan"}, "name": "ea642d38059ee46fba5363d8540658c5", "is_reserved": 0}, {"is_disabled": 0, "fusion_lon": 0.0, "fusion_lat": 0.0, "lat": 38.917255833333336, "type": "electric_scooter", "lon": -77.04171066666666, "bike_id": "73679b1d21da2bd42640e073e2d04805", "rental_uris": {"android": "https://dc.lft.to/lastmile_qr_scan", "ios": "https://dc.lft.to/lastmile_qr_scan"}, "name": "73679b1d21da2bd42640e073e2d04805", "is_reserved": 0}, {"is_disabled": 0, "fusion_lon": 0.0, "fusion_lat": 0.0, "lat": 38.87573416666667, "type": "electric_scooter", "lon": -77.01988583333333, "bike_id": "a07cf562eea0a6aeaa40a516fefeb570", "rental_uris": {"android": "https://dc.lft.to/lastmile_qr_scan", "ios": "https://dc.lft.to/lastmile_qr_scan"}, "name": "a07cf562eea0a6aeaa40a516fefeb570", "is_reserved": 0}, {"is_disabled": 0, "fusion_lon": 0.0, "fusion_lat": 0.0, "lat": 38.933956, "type": "electric_scooter", "lon": -77.02732083333333, "bike_id": "6a98b3d1435303492d856e0fa8af09d7", "rental_uris": {"android": "https://dc.lft.to/lastmile_qr_scan", "ios": "https://dc.lft.to/lastmile_qr_scan"}, "name": "6a98b3d1435303492d856e0fa8af09d7", "is_reserved": 0}, {"is_disabled": 0, "fusion_lon": 0.0, "fusion_lat": 0.0, "lat": 38.90061983333333, "type": "electric_scooter", "lon": -77.03447216666666, "bike_id": "2d2a3200e7a158d701a156a0f9769e2c", "rental_uris": {"android": "https://dc.lft.to/lastmile_qr_scan", "ios": "https://dc.lft.to/lastmile_qr_scan"}, "name": "2d2a3200e7a158d701a156a0f9769e2c", "is_reserved": 0}, {"is_disabled": 0, "fusion_lon": 0.0, "fusion_lat": 0.0, "lat": 38.905952166666665, "type": "electric_scooter", "lon": -77.0637205, "bike_id": "87224dd59952d6590c4548acbbbeb953", "rental_uris": {"android": "https://dc.lft.to/lastmile_qr_scan", "ios": "https://dc.lft.to/lastmile_qr_scan"}, "name": "87224dd59952d6590c4548acbbbeb953", "is_reserved": 0}, {"is_disabled": 0, "fusion_lon": 0.0, "fusion_lat": 0.0, "lat": 38.89528933333333, "type": "electric_scooter", "lon": -77.02814266666667, "bike_id": "19bf3b992842cced4f7eec891bff0fc4", "rental_uris": {"android": "https://dc.lft.to/lastmile_qr_scan", "ios": "https://dc.lft.to/lastmile_qr_scan"}, "name": "19bf3b992842cced4f7eec891bff0fc4", "is_reserved": 0}, {"is_disabled": 0, "fusion_lon": 0.0, "fusion_lat": 0.0, "lat": 38.89679616666667, "type": "electric_scooter", "lon": -76.947162, "bike_id": "602a7e4f166799ba5df8a2bcb4d4ce4e", "rental_uris": {"android": "https://dc.lft.to/lastmile_qr_scan", "ios": "https://dc.lft.to/lastmile_qr_scan"}, "name": "602a7e4f166799ba5df8a2bcb4d4ce4e", "is_reserved": 0}, {"is_disabled": 0, "fusion_lon": 0.0, "fusion_lat": 0.0, "lat": 38.898441166666665, "type": "electric_scooter", "lon": -77.03346716666667, "bike_id": "86a4e04e13c4626b61f4e25e9d7d2f69", "rental_uris": {"android": "https://dc.lft.to/lastmile_qr_scan", "ios": "https://dc.lft.to/lastmile_qr_scan"}, "name": "86a4e04e13c4626b61f4e25e9d7d2f69", "is_reserved": 0}, {"is_disabled": 0, "fusion_lon": 0.0, "fusion_lat": 0.0, "lat": 38.912574666666664, "type": "electric_scooter", "lon": -77.03671083333333, "bike_id": "b630fa89bae15125bca6f5ea05b74664", "rental_uris": {"android": "https://dc.lft.to/lastmile_qr_scan", "ios": "https://dc.lft.to/lastmile_qr_scan"}, "name": "b630fa89bae15125bca6f5ea05b74664", "is_reserved": 0}, {"is_disabled": 0, "fusion_lon": 0.0, "fusion_lat": 0.0, "lat": 38.90208116666667, "type": "electric_scooter", "lon": -77.0210325, "bike_id": "b1fbd65abf4fd6204cf639862ab73a5a", "rental_uris": {"android": "https://dc.lft.to/lastmile_qr_scan", "ios": "https://dc.lft.to/lastmile_qr_scan"}, "name": "b1fbd65abf4fd6204cf639862ab73a5a", "is_reserved": 0}, {"is_disabled": 0, "fusion_lon": 0.0, "fusion_lat": 0.0, "lat": 38.902414, "type": "electric_bike", "lon": -76.97017516666666, "bike_id": "8c9c8fd1e8997f8c28f2936add1f4193", "rental_uris": {"android": "https://dc.lft.to/lastmile_qr_scan", "ios": "https://dc.lft.to/lastmile_qr_scan"}, "name": "8c9c8fd1e8997f8c28f2936add1f4193", "is_reserved": 0}, {"is_disabled": 0, "fusion_lon": 0.0, "fusion_lat": 0.0, "lat": 38.90712716666667, "type": "electric_scooter", "lon": -77.03242566666667, "bike_id": "4ea9879a12a8f3ff9ee77db4a3fd0ee2", "rental_uris": {"android": "https://dc.lft.to/lastmile_qr_scan", "ios": "https://dc.lft.to/lastmile_qr_scan"}, "name": "4ea9879a12a8f3ff9ee77db4a3fd0ee2", "is_reserved": 0}, {"is_disabled": 0, "fusion_lon": 0.0, "fusion_lat": 0.0, "lat": 38.89252166666667, "type": "electric_scooter", "lon": -77.03196033333333, "bike_id": "6361e8587b8573ae96acb6064c42ae12", "rental_uris": {"android": "https://dc.lft.to/lastmile_qr_scan", "ios": "https://dc.lft.to/lastmile_qr_scan"}, "name": "6361e8587b8573ae96acb6064c42ae12", "is_reserved": 0}, {"is_disabled": 0, "fusion_lon": 0.0, "fusion_lat": 0.0, "lat": 38.929911833333335, "type": "electric_scooter", "lon": -77.02181883333333, "bike_id": "1d34f768be6a43b02ba3bb44d2041391", "rental_uris": {"android": "https://dc.lft.to/lastmile_qr_scan", "ios": "https://dc.lft.to/lastmile_qr_scan"}, "name": "1d34f768be6a43b02ba3bb44d2041391", "is_reserved": 0}, {"is_disabled": 0, "fusion_lon": 0.0, "fusion_lat": 0.0, "lat": 38.922657, "type": "electric_scooter", "lon": -76.99392266666666, "bike_id": "09b1d2cf08d333db863ce18f76e358be", "rental_uris": {"android": "https://dc.lft.to/lastmile_qr_scan", "ios": "https://dc.lft.to/lastmile_qr_scan"}, "name": "09b1d2cf08d333db863ce18f76e358be", "is_reserved": 0}, {"is_disabled": 0, "fusion_lon": 0.0, "fusion_lat": 0.0, "lat": 38.912617166666664, "type": "electric_scooter", "lon": -77.03362833333334, "bike_id": "00ad0fa427882744c9f1ff1d88ff7e99", "rental_uris": {"android": "https://dc.lft.to/lastmile_qr_scan", "ios": "https://dc.lft.to/lastmile_qr_scan"}, "name": "00ad0fa427882744c9f1ff1d88ff7e99", "is_reserved": 0}, {"is_disabled": 0, "fusion_lon": 0.0, "fusion_lat": 0.0, "lat": 38.8782315, "type": "electric_scooter", "lon": -76.96316, "bike_id": "559cccada8078053b2d75684b4cc458e", "rental_uris": {"android": "https://dc.lft.to/lastmile_qr_scan", "ios": "https://dc.lft.to/lastmile_qr_scan"}, "name": "559cccada8078053b2d75684b4cc458e", "is_reserved": 0}, {"is_disabled": 0, "fusion_lon": 0.0, "fusion_lat": 0.0, "lat": 38.920497, "type": "electric_scooter", "lon": -77.041897, "bike_id": "aac54ca8a712b02bf0a087fddbdeee89", "rental_uris": {"android": "https://dc.lft.to/lastmile_qr_scan", "ios": "https://dc.lft.to/lastmile_qr_scan"}, "name": "aac54ca8a712b02bf0a087fddbdeee89", "is_reserved": 0}, {"is_disabled": 0, "fusion_lon": 0.0, "fusion_lat": 0.0, "lat": 38.87666183333333, "type": "electric_scooter", "lon": -76.93199783333333, "bike_id": "9ff731e2f834fd3d751c9acb9e54c7b0", "rental_uris": {"android": "https://dc.lft.to/lastmile_qr_scan", "ios": "https://dc.lft.to/lastmile_qr_scan"}, "name": "9ff731e2f834fd3d751c9acb9e54c7b0", "is_reserved": 0}, {"is_disabled": 0, "fusion_lon": 0.0, "fusion_lat": 0.0, "lat": 38.9181415, "type": "electric_scooter", "lon": -77.041719, "bike_id": "c470a42c1773801ac729a0b967ef19c0", "rental_uris": {"android": "https://dc.lft.to/lastmile_qr_scan", "ios": "https://dc.lft.to/lastmile_qr_scan"}, "name": "c470a42c1773801ac729a0b967ef19c0", "is_reserved": 0}, {"is_disabled": 0, "fusion_lon": 0.0, "fusion_lat": 0.0, "lat": 38.949978, "type": "electric_bike", "lon": -77.3530785, "bike_id": "1f799d81d596c5f7281d55aa1237ef55", "rental_uris": {"android": "https://dc.lft.to/lastmile_qr_scan", "ios": "https://dc.lft.to/lastmile_qr_scan"}, "name": "1f799d81d596c5f7281d55aa1237ef55", "is_reserved": 0}, {"is_disabled": 0, "fusion_lon": 0.0, "fusion_lat": 0.0, "lat": 38.8950025, "type": "electric_scooter", "lon": -77.022143, "bike_id": "980fad9daf0c8c3ba5f01d6ce24ef5f4", "rental_uris": {"android": "https://dc.lft.to/lastmile_qr_scan", "ios": "https://dc.lft.to/lastmile_qr_scan"}, "name": "980fad9daf0c8c3ba5f01d6ce24ef5f4", "is_reserved": 0}, {"is_disabled": 0, "fusion_lon": 0.0, "fusion_lat": 0.0, "lat": 38.92361666666667, "type": "electric_scooter", "lon": -77.0281375, "bike_id": "0648a016e83fbcf1c183cc21d6995fe9", "rental_uris": {"android": "https://dc.lft.to/lastmile_qr_scan", "ios": "https://dc.lft.to/lastmile_qr_scan"}, "name": "0648a016e83fbcf1c183cc21d6995fe9", "is_reserved": 0}, {"is_disabled": 0, "fusion_lon": 0.0, "fusion_lat": 0.0, "lat": 38.9349085, "type": "electric_scooter", "lon": -77.02604033333333, "bike_id": "413bbeaf198fcf50d2f130091bdf9a3d", "rental_uris": {"android": "https://dc.lft.to/lastmile_qr_scan", "ios": "https://dc.lft.to/lastmile_qr_scan"}, "name": "413bbeaf198fcf50d2f130091bdf9a3d", "is_reserved": 0}, {"is_disabled": 0, "fusion_lon": 0.0, "fusion_lat": 0.0, "lat": 38.928225, "type": "electric_scooter", "lon": -77.014148, "bike_id": "b14708203bd1a37d6962d526901c9a14", "rental_uris": {"android": "https://dc.lft.to/lastmile_qr_scan", "ios": "https://dc.lft.to/lastmile_qr_scan"}, "name": "b14708203bd1a37d6962d526901c9a14", "is_reserved": 0}, {"is_disabled": 0, "fusion_lon": 0.0, "fusion_lat": 0.0, "lat": 38.89249783333333, "type": "electric_scooter", "lon": -77.02001983333334, "bike_id": "b1885e0525246d649c73b124f1d1abdb", "rental_uris": {"android": "https://dc.lft.to/lastmile_qr_scan", "ios": "https://dc.lft.to/lastmile_qr_scan"}, "name": "b1885e0525246d649c73b124f1d1abdb", "is_reserved": 0}, {"is_disabled": 0, "fusion_lon": 0.0, "fusion_lat": 0.0, "lat": 38.98591116666667, "type": "electric_bike", "lon": -77.0374685, "bike_id": "e5062538a9fea5a540d89a6d347606e6", "rental_uris": {"android": "https://dc.lft.to/lastmile_qr_scan", "ios": "https://dc.lft.to/lastmile_qr_scan"}, "name": "e5062538a9fea5a540d89a6d347606e6", "is_reserved": 0}, {"is_disabled": 0, "fusion_lon": 0.0, "fusion_lat": 0.0, "lat": 38.923155333333334, "type": "electric_scooter", "lon": -77.04519516666667, "bike_id": "10115719a95b0bd9615dc952f912a169", "rental_uris": {"android": "https://dc.lft.to/lastmile_qr_scan", "ios": "https://dc.lft.to/lastmile_qr_scan"}, "name": "10115719a95b0bd9615dc952f912a169", "is_reserved": 0}, {"is_disabled": 0, "fusion_lon": 0.0, "fusion_lat": 0.0, "lat": 38.85916316666667, "type": "electric_scooter", "lon": -76.98780716666667, "bike_id": "fc71ac549b3bfeb3dbec1e5e04660601", "rental_uris": {"android": "https://dc.lft.to/lastmile_qr_scan", "ios": "https://dc.lft.to/lastmile_qr_scan"}, "name": "fc71ac549b3bfeb3dbec1e5e04660601", "is_reserved": 0}, {"is_disabled": 0, "fusion_lon": 0.0, "fusion_lat": 0.0, "lat": 38.92712816666667, "type": "electric_scooter", "lon": -77.04049133333334, "bike_id": "7e02ef0822c1577813997d28ae5119d6", "rental_uris": {"android": "https://dc.lft.to/lastmile_qr_scan", "ios": "https://dc.lft.to/lastmile_qr_scan"}, "name": "7e02ef0822c1577813997d28ae5119d6", "is_reserved": 0}, {"is_disabled": 0, "fusion_lon": 0.0, "fusion_lat": 0.0, "lat": 38.9311275, "type": "electric_scooter", "lon": -77.0236545, "bike_id": "edb70870934906e85dc67b51527c14d6", "rental_uris": {"android": "https://dc.lft.to/lastmile_qr_scan", "ios": "https://dc.lft.to/lastmile_qr_scan"}, "name": "edb70870934906e85dc67b51527c14d6", "is_reserved": 0}, {"is_disabled": 0, "fusion_lon": 0.0, "fusion_lat": 0.0, "lat": 38.8971255, "type": "electric_scooter", "lon": -77.00792766666666, "bike_id": "1c037c94ff711292c8c553f640761008", "rental_uris": {"android": "https://dc.lft.to/lastmile_qr_scan", "ios": "https://dc.lft.to/lastmile_qr_scan"}, "name": "1c037c94ff711292c8c553f640761008", "is_reserved": 0}, {"is_disabled": 0, "fusion_lon": 0.0, "fusion_lat": 0.0, "lat": 38.89577083333333, "type": "electric_scooter", "lon": -77.02301616666666, "bike_id": "b87fc14856c25639c3acce87b2dc99fe", "rental_uris": {"android": "https://dc.lft.to/lastmile_qr_scan", "ios": "https://dc.lft.to/lastmile_qr_scan"}, "name": "b87fc14856c25639c3acce87b2dc99fe", "is_reserved": 0}, {"is_disabled": 0, "fusion_lon": 0.0, "fusion_lat": 0.0, "lat": 38.922789333333334, "type": "electric_scooter", "lon": -77.04225983333333, "bike_id": "156e5ca74eba3d474b8f5c828c584a10", "rental_uris": {"android": "https://dc.lft.to/lastmile_qr_scan", "ios": "https://dc.lft.to/lastmile_qr_scan"}, "name": "156e5ca74eba3d474b8f5c828c584a10", "is_reserved": 0}, {"is_disabled": 0, "fusion_lon": 0.0, "fusion_lat": 0.0, "lat": 38.9026115, "type": "electric_scooter", "lon": -77.03419033333333, "bike_id": "b18f01f91322fd7c1557f6b8de76905a", "rental_uris": {"android": "https://dc.lft.to/lastmile_qr_scan", "ios": "https://dc.lft.to/lastmile_qr_scan"}, "name": "b18f01f91322fd7c1557f6b8de76905a", "is_reserved": 0}, {"is_disabled": 0, "fusion_lon": 0.0, "fusion_lat": 0.0, "lat": 38.97535416666667, "type": "electric_bike", "lon": -76.99526833333333, "bike_id": "ae470ca8dcb43141468777556204c109", "rental_uris": {"android": "https://dc.lft.to/lastmile_qr_scan", "ios": "https://dc.lft.to/lastmile_qr_scan"}, "name": "ae470ca8dcb43141468777556204c109", "is_reserved": 0}, {"is_disabled": 0, "fusion_lon": 0.0, "fusion_lat": 0.0, "lat": 38.916958666666666, "type": "electric_scooter", "lon": -77.03287866666666, "bike_id": "9ff4159b1afd80e099a5990a96433df8", "rental_uris": {"android": "https://dc.lft.to/lastmile_qr_scan", "ios": "https://dc.lft.to/lastmile_qr_scan"}, "name": "9ff4159b1afd80e099a5990a96433df8", "is_reserved": 0}, {"is_disabled": 0, "fusion_lon": 0.0, "fusion_lat": 0.0, "lat": 38.924548333333334, "type": "electric_scooter", "lon": -77.02958933333333, "bike_id": "7c295a3693c3d9792e731ae7a5f48b64", "rental_uris": {"android": "https://dc.lft.to/lastmile_qr_scan", "ios": "https://dc.lft.to/lastmile_qr_scan"}, "name": "7c295a3693c3d9792e731ae7a5f48b64", "is_reserved": 0}, {"is_disabled": 0, "fusion_lon": 0.0, "fusion_lat": 0.0, "lat": 38.8690515, "type": "electric_bike", "lon": -77.1318495, "bike_id": "1cfa57f870512fec9a4b1eae6351d491", "rental_uris": {"android": "https://dc.lft.to/lastmile_qr_scan", "ios": "https://dc.lft.to/lastmile_qr_scan"}, "name": "1cfa57f870512fec9a4b1eae6351d491", "is_reserved": 0}, {"is_disabled": 0, "fusion_lon": 0.0, "fusion_lat": 0.0, "lat": 38.935826, "type": "electric_bike", "lon": -77.0825355, "bike_id": "d7d041b35b9577deb9f7574ccd74324c", "rental_uris": {"android": "https://dc.lft.to/lastmile_qr_scan", "ios": "https://dc.lft.to/lastmile_qr_scan"}, "name": "d7d041b35b9577deb9f7574ccd74324c", "is_reserved": 0}, {"is_disabled": 0, "fusion_lon": 0.0, "fusion_lat": 0.0, "lat": 38.91981583333333, "type": "electric_bike", "lon": -76.97309166666666, "bike_id": "381e4841fd6deee5567c33cdc0123e87", "rental_uris": {"android": "https://dc.lft.to/lastmile_qr_scan", "ios": "https://dc.lft.to/lastmile_qr_scan"}, "name": "381e4841fd6deee5567c33cdc0123e87", "is_reserved": 0}, {"is_disabled": 0, "fusion_lon": 0.0, "fusion_lat": 0.0, "lat": 38.89984366666667, "type": "electric_scooter", "lon": -77.0292585, "bike_id": "399f323450bd46188823036dfd926b70", "rental_uris": {"android": "https://dc.lft.to/lastmile_qr_scan", "ios": "https://dc.lft.to/lastmile_qr_scan"}, "name": "399f323450bd46188823036dfd926b70", "is_reserved": 0}, {"is_disabled": 0, "fusion_lon": 0.0, "fusion_lat": 0.0, "lat": 38.918562333333334, "type": "electric_scooter", "lon": -77.03201966666667, "bike_id": "850ae44c3e5bedee3f26eb9eec402aa2", "rental_uris": {"android": "https://dc.lft.to/lastmile_qr_scan", "ios": "https://dc.lft.to/lastmile_qr_scan"}, "name": "850ae44c3e5bedee3f26eb9eec402aa2", "is_reserved": 0}, {"is_disabled": 0, "fusion_lon": 0.0, "fusion_lat": 0.0, "lat": 38.89923566666667, "type": "electric_scooter", "lon": -77.02954716666666, "bike_id": "6f594d5da3bf3961b571f138461d9ad5", "rental_uris": {"android": "https://dc.lft.to/lastmile_qr_scan", "ios": "https://dc.lft.to/lastmile_qr_scan"}, "name": "6f594d5da3bf3961b571f138461d9ad5", "is_reserved": 0}, {"is_disabled": 0, "fusion_lon": 0.0, "fusion_lat": 0.0, "lat": 38.899348, "type": "electric_scooter", "lon": -77.02158683333333, "bike_id": "19821f93ef92170ba733da72e35dca86", "rental_uris": {"android": "https://dc.lft.to/lastmile_qr_scan", "ios": "https://dc.lft.to/lastmile_qr_scan"}, "name": "19821f93ef92170ba733da72e35dca86", "is_reserved": 0}, {"is_disabled": 0, "fusion_lon": 0.0, "fusion_lat": 0.0, "lat": 38.922866666666664, "type": "electric_bike", "lon": -76.99754883333334, "bike_id": "b72f4479998f170f59438da6224f8bf4", "rental_uris": {"android": "https://dc.lft.to/lastmile_qr_scan", "ios": "https://dc.lft.to/lastmile_qr_scan"}, "name": "b72f4479998f170f59438da6224f8bf4", "is_reserved": 0}, {"is_disabled": 0, "fusion_lon": 0.0, "fusion_lat": 0.0, "lat": 38.915872, "type": "electric_bike", "lon": -76.97147183333334, "bike_id": "1ae55f02b2c81d89b6175c14fba25e23", "rental_uris": {"android": "https://dc.lft.to/lastmile_qr_scan", "ios": "https://dc.lft.to/lastmile_qr_scan"}, "name": "1ae55f02b2c81d89b6175c14fba25e23", "is_reserved": 0}, {"is_disabled": 0, "fusion_lon": 0.0, "fusion_lat": 0.0, "lat": 38.913446666666665, "type": "electric_scooter", "lon": -77.0121735, "bike_id": "5c3fb12710c55431074a3b6ef7b884d5", "rental_uris": {"android": "https://dc.lft.to/lastmile_qr_scan", "ios": "https://dc.lft.to/lastmile_qr_scan"}, "name": "5c3fb12710c55431074a3b6ef7b884d5", "is_reserved": 0}, {"is_disabled": 0, "fusion_lon": 0.0, "fusion_lat": 0.0, "lat": 38.9102555, "type": "electric_scooter", "lon": -77.0075915, "bike_id": "4b2b06a4e5a7fa7c89bb8ccb0df3c87f", "rental_uris": {"android": "https://dc.lft.to/lastmile_qr_scan", "ios": "https://dc.lft.to/lastmile_qr_scan"}, "name": "4b2b06a4e5a7fa7c89bb8ccb0df3c87f", "is_reserved": 0}, {"is_disabled": 0, "fusion_lon": 0.0, "fusion_lat": 0.0, "lat": 38.92998266666667, "type": "electric_scooter", "lon": -77.0220095, "bike_id": "003bb1c2d091af72445d616ed3a04ba3", "rental_uris": {"android": "https://dc.lft.to/lastmile_qr_scan", "ios": "https://dc.lft.to/lastmile_qr_scan"}, "name": "003bb1c2d091af72445d616ed3a04ba3", "is_reserved": 0}, {"is_disabled": 0, "fusion_lon": 0.0, "fusion_lat": 0.0, "lat": 38.92820283333333, "type": "electric_scooter", "lon": -77.02255833333334, "bike_id": "5e408dc9ee2236e7b8c96531ec364a19", "rental_uris": {"android": "https://dc.lft.to/lastmile_qr_scan", "ios": "https://dc.lft.to/lastmile_qr_scan"}, "name": "5e408dc9ee2236e7b8c96531ec364a19", "is_reserved": 0}, {"is_disabled": 0, "fusion_lon": 0.0, "fusion_lat": 0.0, "lat": 38.934167, "type": "electric_scooter", "lon": -77.024469, "bike_id": "51f83bebdc34fb2e30204df34b2a3e94", "rental_uris": {"android": "https://dc.lft.to/lastmile_qr_scan", "ios": "https://dc.lft.to/lastmile_qr_scan"}, "name": "51f83bebdc34fb2e30204df34b2a3e94", "is_reserved": 0}, {"is_disabled": 0, "fusion_lon": 0.0, "fusion_lat": 0.0, "lat": 38.90966133333333, "type": "electric_scooter", "lon": -77.03864283333333, "bike_id": "3c2c4a9a63af7bddbde8c6240a8fe63c", "rental_uris": {"android": "https://dc.lft.to/lastmile_qr_scan", "ios": "https://dc.lft.to/lastmile_qr_scan"}, "name": "3c2c4a9a63af7bddbde8c6240a8fe63c", "is_reserved": 0}, {"is_disabled": 0, "fusion_lon": 0.0, "fusion_lat": 0.0, "lat": 38.9273555, "type": "electric_bike", "lon": -76.99364183333333, "bike_id": "2c4ad594a1723085dff00e32717b3f76", "rental_uris": {"android": "https://dc.lft.to/lastmile_qr_scan", "ios": "https://dc.lft.to/lastmile_qr_scan"}, "name": "2c4ad594a1723085dff00e32717b3f76", "is_reserved": 0}, {"is_disabled": 0, "fusion_lon": 0.0, "fusion_lat": 0.0, "lat": 38.8671395, "type": "electric_scooter", "lon": -76.979169, "bike_id": "801276760bd79471a36dea8cdce1441c", "rental_uris": {"android": "https://dc.lft.to/lastmile_qr_scan", "ios": "https://dc.lft.to/lastmile_qr_scan"}, "name": "801276760bd79471a36dea8cdce1441c", "is_reserved": 0}, {"is_disabled": 0, "fusion_lon": 0.0, "fusion_lat": 0.0, "lat": 38.8778765, "type": "electric_scooter", "lon": -77.01361083333333, "bike_id": "7ee0da0ef596e8c29a5ce670f0cee719", "rental_uris": {"android": "https://dc.lft.to/lastmile_qr_scan", "ios": "https://dc.lft.to/lastmile_qr_scan"}, "name": "7ee0da0ef596e8c29a5ce670f0cee719", "is_reserved": 0}, {"is_disabled": 0, "fusion_lon": 0.0, "fusion_lat": 0.0, "lat": 38.92987933333333, "type": "electric_scooter", "lon": -77.03632416666666, "bike_id": "b68e454124b148d487474f881c1af426", "rental_uris": {"android": "https://dc.lft.to/lastmile_qr_scan", "ios": "https://dc.lft.to/lastmile_qr_scan"}, "name": "b68e454124b148d487474f881c1af426", "is_reserved": 0}, {"is_disabled": 0, "fusion_lon": 0.0, "fusion_lat": 0.0, "lat": 38.933344, "type": "electric_scooter", "lon": -77.04136483333333, "bike_id": "4306ea33e22e9e0d005c8c0074e23a2e", "rental_uris": {"android": "https://dc.lft.to/lastmile_qr_scan", "ios": "https://dc.lft.to/lastmile_qr_scan"}, "name": "4306ea33e22e9e0d005c8c0074e23a2e", "is_reserved": 0}, {"is_disabled": 0, "fusion_lon": 0.0, "fusion_lat": 0.0, "lat": 38.901943333333335, "type": "electric_scooter", "lon": -77.0396595, "bike_id": "b2b7b075aeeda69357ce72d576ea0b81", "rental_uris": {"android": "https://dc.lft.to/lastmile_qr_scan", "ios": "https://dc.lft.to/lastmile_qr_scan"}, "name": "b2b7b075aeeda69357ce72d576ea0b81", "is_reserved": 0}, {"is_disabled": 0, "fusion_lon": 0.0, "fusion_lat": 0.0, "lat": 38.89226633333333, "type": "electric_scooter", "lon": -77.03372233333333, "bike_id": "db2b03a7ad0664224338e6f61f36b5e6", "rental_uris": {"android": "https://dc.lft.to/lastmile_qr_scan", "ios": "https://dc.lft.to/lastmile_qr_scan"}, "name": "db2b03a7ad0664224338e6f61f36b5e6", "is_reserved": 0}, {"is_disabled": 0, "fusion_lon": 0.0, "fusion_lat": 0.0, "lat": 38.8996715, "type": "electric_scooter", "lon": -77.02400316666666, "bike_id": "a2a5a550b8bc2cb072334828d5701ef2", "rental_uris": {"android": "https://dc.lft.to/lastmile_qr_scan", "ios": "https://dc.lft.to/lastmile_qr_scan"}, "name": "a2a5a550b8bc2cb072334828d5701ef2", "is_reserved": 0}, {"is_disabled": 0, "fusion_lon": 0.0, "fusion_lat": 0.0, "lat": 38.905209166666666, "type": "electric_scooter", "lon": -77.0605345, "bike_id": "b63bc4379053ddc294b82896c059b54c", "rental_uris": {"android": "https://dc.lft.to/lastmile_qr_scan", "ios": "https://dc.lft.to/lastmile_qr_scan"}, "name": "b63bc4379053ddc294b82896c059b54c", "is_reserved": 0}, {"is_disabled": 0, "fusion_lon": 0.0, "fusion_lat": 0.0, "lat": 38.908353166666664, "type": "electric_scooter", "lon": -76.99695416666667, "bike_id": "108fde9d2eef1b875401d371d24d521a", "rental_uris": {"android": "https://dc.lft.to/lastmile_qr_scan", "ios": "https://dc.lft.to/lastmile_qr_scan"}, "name": "108fde9d2eef1b875401d371d24d521a", "is_reserved": 0}, {"is_disabled": 0, "fusion_lon": 0.0, "fusion_lat": 0.0, "lat": 38.84514683333333, "type": "electric_bike", "lon": -77.07796316666666, "bike_id": "afadcadb03939607738f43f53eb1eb29", "rental_uris": {"android": "https://dc.lft.to/lastmile_qr_scan", "ios": "https://dc.lft.to/lastmile_qr_scan"}, "name": "afadcadb03939607738f43f53eb1eb29", "is_reserved": 0}, {"is_disabled": 0, "fusion_lon": 0.0, "fusion_lat": 0.0, "lat": 38.91676616666667, "type": "electric_scooter", "lon": -77.02709916666667, "bike_id": "d20ec452d79c22ba4969494c8839e496", "rental_uris": {"android": "https://dc.lft.to/lastmile_qr_scan", "ios": "https://dc.lft.to/lastmile_qr_scan"}, "name": "d20ec452d79c22ba4969494c8839e496", "is_reserved": 0}, {"is_disabled": 0, "fusion_lon": 0.0, "fusion_lat": 0.0, "lat": 38.9068105, "type": "electric_scooter", "lon": -77.02690566666666, "bike_id": "850e5a25e8dd6bb5d93e6e3117b415da", "rental_uris": {"android": "https://dc.lft.to/lastmile_qr_scan", "ios": "https://dc.lft.to/lastmile_qr_scan"}, "name": "850e5a25e8dd6bb5d93e6e3117b415da", "is_reserved": 0}, {"is_disabled": 0, "fusion_lon": 0.0, "fusion_lat": 0.0, "lat": 38.92048333333334, "type": "electric_scooter", "lon": -77.02611433333334, "bike_id": "8e8342f955f9c8c0d7516643a5be73a4", "rental_uris": {"android": "https://dc.lft.to/lastmile_qr_scan", "ios": "https://dc.lft.to/lastmile_qr_scan"}, "name": "8e8342f955f9c8c0d7516643a5be73a4", "is_reserved": 0}, {"is_disabled": 0, "fusion_lon": 0.0, "fusion_lat": 0.0, "lat": 38.87667233333333, "type": "electric_scooter", "lon": -77.00712216666666, "bike_id": "2808c0468cc990e782f173e4a48c3298", "rental_uris": {"android": "https://dc.lft.to/lastmile_qr_scan", "ios": "https://dc.lft.to/lastmile_qr_scan"}, "name": "2808c0468cc990e782f173e4a48c3298", "is_reserved": 0}, {"is_disabled": 0, "fusion_lon": 0.0, "fusion_lat": 0.0, "lat": 38.905966166666666, "type": "electric_scooter", "lon": -77.06370616666666, "bike_id": "e3758c75364ff1c8b089fe6da2e34f0f", "rental_uris": {"android": "https://dc.lft.to/lastmile_qr_scan", "ios": "https://dc.lft.to/lastmile_qr_scan"}, "name": "e3758c75364ff1c8b089fe6da2e34f0f", "is_reserved": 0}, {"is_disabled": 0, "fusion_lon": 0.0, "fusion_lat": 0.0, "lat": 38.88366716666667, "type": "electric_scooter", "lon": -76.92372016666667, "bike_id": "b193d15c8ec7138e932ffda595207f8c", "rental_uris": {"android": "https://dc.lft.to/lastmile_qr_scan", "ios": "https://dc.lft.to/lastmile_qr_scan"}, "name": "b193d15c8ec7138e932ffda595207f8c", "is_reserved": 0}, {"is_disabled": 0, "fusion_lon": 0.0, "fusion_lat": 0.0, "lat": 38.91807516666667, "type": "electric_scooter", "lon": -77.03433783333334, "bike_id": "f5e74eb291186b01460fff795997c3bd", "rental_uris": {"android": "https://dc.lft.to/lastmile_qr_scan", "ios": "https://dc.lft.to/lastmile_qr_scan"}, "name": "f5e74eb291186b01460fff795997c3bd", "is_reserved": 0}, {"is_disabled": 0, "fusion_lon": 0.0, "fusion_lat": 0.0, "lat": 38.91623583333333, "type": "electric_scooter", "lon": -77.04084133333333, "bike_id": "5a59288ccec687f3c4f42713baedd780", "rental_uris": {"android": "https://dc.lft.to/lastmile_qr_scan", "ios": "https://dc.lft.to/lastmile_qr_scan"}, "name": "5a59288ccec687f3c4f42713baedd780", "is_reserved": 0}, {"is_disabled": 0, "fusion_lon": 0.0, "fusion_lat": 0.0, "lat": 38.8990045, "type": "electric_scooter", "lon": -77.03979116666666, "bike_id": "fae334af7a29eaf43b0329a11b00d8e2", "rental_uris": {"android": "https://dc.lft.to/lastmile_qr_scan", "ios": "https://dc.lft.to/lastmile_qr_scan"}, "name": "fae334af7a29eaf43b0329a11b00d8e2", "is_reserved": 0}, {"is_disabled": 0, "fusion_lon": 0.0, "fusion_lat": 0.0, "lat": 38.912671333333336, "type": "electric_scooter", "lon": -77.02208216666666, "bike_id": "0eb2cd52bfea25501e79334a90720f93", "rental_uris": {"android": "https://dc.lft.to/lastmile_qr_scan", "ios": "https://dc.lft.to/lastmile_qr_scan"}, "name": "0eb2cd52bfea25501e79334a90720f93", "is_reserved": 0}, {"is_disabled": 0, "fusion_lon": 0.0, "fusion_lat": 0.0, "lat": 38.906832333333334, "type": "electric_scooter", "lon": -77.0311, "bike_id": "8852b922bdece91564956f8c8c0e46a4", "rental_uris": {"android": "https://dc.lft.to/lastmile_qr_scan", "ios": "https://dc.lft.to/lastmile_qr_scan"}, "name": "8852b922bdece91564956f8c8c0e46a4", "is_reserved": 0}, {"is_disabled": 0, "fusion_lon": 0.0, "fusion_lat": 0.0, "lat": 38.94516766666667, "type": "electric_scooter", "lon": -77.02979433333333, "bike_id": "9992511d47c8543c4df48843871fb640", "rental_uris": {"android": "https://dc.lft.to/lastmile_qr_scan", "ios": "https://dc.lft.to/lastmile_qr_scan"}, "name": "9992511d47c8543c4df48843871fb640", "is_reserved": 0}, {"is_disabled": 0, "fusion_lon": 0.0, "fusion_lat": 0.0, "lat": 38.903058333333334, "type": "electric_scooter", "lon": -77.02247166666666, "bike_id": "8ca4719e6030bbe16dbe243e9f42676c", "rental_uris": {"android": "https://dc.lft.to/lastmile_qr_scan", "ios": "https://dc.lft.to/lastmile_qr_scan"}, "name": "8ca4719e6030bbe16dbe243e9f42676c", "is_reserved": 0}, {"is_disabled": 0, "fusion_lon": 0.0, "fusion_lat": 0.0, "lat": 38.91701916666667, "type": "electric_scooter", "lon": -77.02989483333333, "bike_id": "9dc37429cb46e9beebfdc4823ee47ad9", "rental_uris": {"android": "https://dc.lft.to/lastmile_qr_scan", "ios": "https://dc.lft.to/lastmile_qr_scan"}, "name": "9dc37429cb46e9beebfdc4823ee47ad9", "is_reserved": 0}, {"is_disabled": 0, "fusion_lon": 0.0, "fusion_lat": 0.0, "lat": 38.91915383333333, "type": "electric_scooter", "lon": -77.02795883333333, "bike_id": "387d43220b53d079ae30085a2b8691c4", "rental_uris": {"android": "https://dc.lft.to/lastmile_qr_scan", "ios": "https://dc.lft.to/lastmile_qr_scan"}, "name": "387d43220b53d079ae30085a2b8691c4", "is_reserved": 0}, {"is_disabled": 0, "fusion_lon": 0.0, "fusion_lat": 0.0, "lat": 38.914730666666664, "type": "electric_scooter", "lon": -77.0320175, "bike_id": "a3d7e31d59e52a5cb0dab722aab618db", "rental_uris": {"android": "https://dc.lft.to/lastmile_qr_scan", "ios": "https://dc.lft.to/lastmile_qr_scan"}, "name": "a3d7e31d59e52a5cb0dab722aab618db", "is_reserved": 0}, {"is_disabled": 0, "fusion_lon": 0.0, "fusion_lat": 0.0, "lat": 38.897460333333335, "type": "electric_scooter", "lon": -77.02184033333333, "bike_id": "55ef2e6e0801b50697ab4b3493463cc5", "rental_uris": {"android": "https://dc.lft.to/lastmile_qr_scan", "ios": "https://dc.lft.to/lastmile_qr_scan"}, "name": "55ef2e6e0801b50697ab4b3493463cc5", "is_reserved": 0}, {"is_disabled": 0, "fusion_lon": 0.0, "fusion_lat": 0.0, "lat": 38.9077205, "type": "electric_scooter", "lon": -77.03202183333333, "bike_id": "39b74c0244b544ae3ef937ecdc10f85c", "rental_uris": {"android": "https://dc.lft.to/lastmile_qr_scan", "ios": "https://dc.lft.to/lastmile_qr_scan"}, "name": "39b74c0244b544ae3ef937ecdc10f85c", "is_reserved": 0}, {"is_disabled": 0, "fusion_lon": 0.0, "fusion_lat": 0.0, "lat": 38.90301616666667, "type": "electric_scooter", "lon": -77.03670466666667, "bike_id": "ad23cb9d48912caa4d6c094722cf6d39", "rental_uris": {"android": "https://dc.lft.to/lastmile_qr_scan", "ios": "https://dc.lft.to/lastmile_qr_scan"}, "name": "ad23cb9d48912caa4d6c094722cf6d39", "is_reserved": 0}, {"is_disabled": 0, "fusion_lon": 0.0, "fusion_lat": 0.0, "lat": 38.92657116666667, "type": "electric_scooter", "lon": -77.03725083333333, "bike_id": "eef8c673f1f9b4968d91814518187b49", "rental_uris": {"android": "https://dc.lft.to/lastmile_qr_scan", "ios": "https://dc.lft.to/lastmile_qr_scan"}, "name": "eef8c673f1f9b4968d91814518187b49", "is_reserved": 0}, {"is_disabled": 0, "fusion_lon": 0.0, "fusion_lat": 0.0, "lat": 38.89585566666667, "type": "electric_scooter", "lon": -77.02306233333333, "bike_id": "b9d6e0be9c91929f22455b45a0fb60f1", "rental_uris": {"android": "https://dc.lft.to/lastmile_qr_scan", "ios": "https://dc.lft.to/lastmile_qr_scan"}, "name": "b9d6e0be9c91929f22455b45a0fb60f1", "is_reserved": 0}, {"is_disabled": 0, "fusion_lon": 0.0, "fusion_lat": 0.0, "lat": 38.917934333333335, "type": "electric_scooter", "lon": -77.02396166666666, "bike_id": "275e59f07455b2b3ef287b8143baa143", "rental_uris": {"android": "https://dc.lft.to/lastmile_qr_scan", "ios": "https://dc.lft.to/lastmile_qr_scan"}, "name": "275e59f07455b2b3ef287b8143baa143", "is_reserved": 0}, {"is_disabled": 0, "fusion_lon": 0.0, "fusion_lat": 0.0, "lat": 38.8939365, "type": "electric_scooter", "lon": -76.94998233333334, "bike_id": "b87219c6e433db1bda23dd3cfa9c2a5f", "rental_uris": {"android": "https://dc.lft.to/lastmile_qr_scan", "ios": "https://dc.lft.to/lastmile_qr_scan"}, "name": "b87219c6e433db1bda23dd3cfa9c2a5f", "is_reserved": 0}, {"is_disabled": 0, "fusion_lon": 0.0, "fusion_lat": 0.0, "lat": 38.92610633333334, "type": "electric_scooter", "lon": -77.0216095, "bike_id": "0a82c1c510098b33000afc5725339aac", "rental_uris": {"android": "https://dc.lft.to/lastmile_qr_scan", "ios": "https://dc.lft.to/lastmile_qr_scan"}, "name": "0a82c1c510098b33000afc5725339aac", "is_reserved": 0}, {"is_disabled": 0, "fusion_lon": 0.0, "fusion_lat": 0.0, "lat": 38.912001, "type": "electric_scooter", "lon": -77.03713416666666, "bike_id": "f5df707e7761d10aaec8424c07e7ca66", "rental_uris": {"android": "https://dc.lft.to/lastmile_qr_scan", "ios": "https://dc.lft.to/lastmile_qr_scan"}, "name": "f5df707e7761d10aaec8424c07e7ca66", "is_reserved": 0}, {"is_disabled": 0, "fusion_lon": 0.0, "fusion_lat": 0.0, "lat": 38.91811166666667, "type": "electric_scooter", "lon": -77.03197633333333, "bike_id": "0c4f931c159a7b511b58ddcd867532a8", "rental_uris": {"android": "https://dc.lft.to/lastmile_qr_scan", "ios": "https://dc.lft.to/lastmile_qr_scan"}, "name": "0c4f931c159a7b511b58ddcd867532a8", "is_reserved": 0}, {"is_disabled": 0, "fusion_lon": 0.0, "fusion_lat": 0.0, "lat": 38.905658333333335, "type": "electric_scooter", "lon": -77.02177083333333, "bike_id": "37371097bcf98abd411a5a8dd4d6d48d", "rental_uris": {"android": "https://dc.lft.to/lastmile_qr_scan", "ios": "https://dc.lft.to/lastmile_qr_scan"}, "name": "37371097bcf98abd411a5a8dd4d6d48d", "is_reserved": 0}, {"is_disabled": 0, "fusion_lon": 0.0, "fusion_lat": 0.0, "lat": 38.9027335, "type": "electric_scooter", "lon": -77.02630616666667, "bike_id": "29220bb76cce31f69bc4bf6e890bf6fe", "rental_uris": {"android": "https://dc.lft.to/lastmile_qr_scan", "ios": "https://dc.lft.to/lastmile_qr_scan"}, "name": "29220bb76cce31f69bc4bf6e890bf6fe", "is_reserved": 0}, {"is_disabled": 0, "fusion_lon": 0.0, "fusion_lat": 0.0, "lat": 38.905781833333336, "type": "electric_scooter", "lon": -77.04355233333334, "bike_id": "ab4adf222d2bddf408aa482c1ea1d484", "rental_uris": {"android": "https://dc.lft.to/lastmile_qr_scan", "ios": "https://dc.lft.to/lastmile_qr_scan"}, "name": "ab4adf222d2bddf408aa482c1ea1d484", "is_reserved": 0}, {"is_disabled": 0, "fusion_lon": 0.0, "fusion_lat": 0.0, "lat": 38.9162865, "type": "electric_scooter", "lon": -77.04093933333333, "bike_id": "8d3e3961170ac66f3bade3657b7891d5", "rental_uris": {"android": "https://dc.lft.to/lastmile_qr_scan", "ios": "https://dc.lft.to/lastmile_qr_scan"}, "name": "8d3e3961170ac66f3bade3657b7891d5", "is_reserved": 0}, {"is_disabled": 0, "fusion_lon": 0.0, "fusion_lat": 0.0, "lat": 38.920489333333336, "type": "electric_scooter", "lon": -77.041964, "bike_id": "7c23c54ee34eb76fe1cc5d5a3ae98f0f", "rental_uris": {"android": "https://dc.lft.to/lastmile_qr_scan", "ios": "https://dc.lft.to/lastmile_qr_scan"}, "name": "7c23c54ee34eb76fe1cc5d5a3ae98f0f", "is_reserved": 0}, {"is_disabled": 0, "fusion_lon": 0.0, "fusion_lat": 0.0, "lat": 38.9215385, "type": "electric_scooter", "lon": -77.0338525, "bike_id": "af0c88e444d894bf08a17272e62a9fb9", "rental_uris": {"android": "https://dc.lft.to/lastmile_qr_scan", "ios": "https://dc.lft.to/lastmile_qr_scan"}, "name": "af0c88e444d894bf08a17272e62a9fb9", "is_reserved": 0}, {"is_disabled": 0, "fusion_lon": 0.0, "fusion_lat": 0.0, "lat": 38.923193, "type": "electric_scooter", "lon": -77.04, "bike_id": "f5e32b9e045c73e1e7aadf6fc115cb15", "rental_uris": {"android": "https://dc.lft.to/lastmile_qr_scan", "ios": "https://dc.lft.to/lastmile_qr_scan"}, "name": "f5e32b9e045c73e1e7aadf6fc115cb15", "is_reserved": 0}, {"is_disabled": 0, "fusion_lon": 0.0, "fusion_lat": 0.0, "lat": 38.90037316666667, "type": "electric_scooter", "lon": -77.04662883333333, "bike_id": "8d525d202f4948a05fa5bd387a298b1f", "rental_uris": {"android": "https://dc.lft.to/lastmile_qr_scan", "ios": "https://dc.lft.to/lastmile_qr_scan"}, "name": "8d525d202f4948a05fa5bd387a298b1f", "is_reserved": 0}, {"is_disabled": 0, "fusion_lon": 0.0, "fusion_lat": 0.0, "lat": 38.909552166666664, "type": "electric_scooter", "lon": -77.02741566666667, "bike_id": "79ae896bc7bcff1fd20b5363f75526e6", "rental_uris": {"android": "https://dc.lft.to/lastmile_qr_scan", "ios": "https://dc.lft.to/lastmile_qr_scan"}, "name": "79ae896bc7bcff1fd20b5363f75526e6", "is_reserved": 0}, {"is_disabled": 0, "fusion_lon": 0.0, "fusion_lat": 0.0, "lat": 38.93077533333334, "type": "electric_scooter", "lon": -77.03629333333333, "bike_id": "f5eea4f4a7ee0cae9ba323d4ff2ba183", "rental_uris": {"android": "https://dc.lft.to/lastmile_qr_scan", "ios": "https://dc.lft.to/lastmile_qr_scan"}, "name": "f5eea4f4a7ee0cae9ba323d4ff2ba183", "is_reserved": 0}, {"is_disabled": 0, "fusion_lon": 0.0, "fusion_lat": 0.0, "lat": 38.89841833333333, "type": "electric_scooter", "lon": -77.0334875, "bike_id": "97c04c66ea1a818d9622c248f160344f", "rental_uris": {"android": "https://dc.lft.to/lastmile_qr_scan", "ios": "https://dc.lft.to/lastmile_qr_scan"}, "name": "97c04c66ea1a818d9622c248f160344f", "is_reserved": 0}, {"is_disabled": 0, "fusion_lon": 0.0, "fusion_lat": 0.0, "lat": 39.026842333333335, "type": "electric_bike", "lon": -77.125929, "bike_id": "4a4d7fb456f745425117a8021c96cb22", "rental_uris": {"android": "https://dc.lft.to/lastmile_qr_scan", "ios": "https://dc.lft.to/lastmile_qr_scan"}, "name": "4a4d7fb456f745425117a8021c96cb22", "is_reserved": 0}, {"is_disabled": 0, "fusion_lon": 0.0, "fusion_lat": 0.0, "lat": 38.91395116666666, "type": "electric_scooter", "lon": -77.02384016666667, "bike_id": "2aa13e062e47f903e12aca2a3800a5f1", "rental_uris": {"android": "https://dc.lft.to/lastmile_qr_scan", "ios": "https://dc.lft.to/lastmile_qr_scan"}, "name": "2aa13e062e47f903e12aca2a3800a5f1", "is_reserved": 0}, {"is_disabled": 0, "fusion_lon": 0.0, "fusion_lat": 0.0, "lat": 38.91614916666666, "type": "electric_scooter", "lon": -77.0459775, "bike_id": "8e1a6d5189850f988886ada3bcb56c32", "rental_uris": {"android": "https://dc.lft.to/lastmile_qr_scan", "ios": "https://dc.lft.to/lastmile_qr_scan"}, "name": "8e1a6d5189850f988886ada3bcb56c32", "is_reserved": 0}, {"is_disabled": 0, "fusion_lon": 0.0, "fusion_lat": 0.0, "lat": 38.91487633333333, "type": "electric_scooter", "lon": -77.03238466666667, "bike_id": "bd20045b0fe7fb5683ed194dc164699e", "rental_uris": {"android": "https://dc.lft.to/lastmile_qr_scan", "ios": "https://dc.lft.to/lastmile_qr_scan"}, "name": "bd20045b0fe7fb5683ed194dc164699e", "is_reserved": 0}, {"is_disabled": 0, "fusion_lon": 0.0, "fusion_lat": 0.0, "lat": 38.96642766666667, "type": "electric_bike", "lon": -76.9302315, "bike_id": "a260b5cfb818e03f68c58dbaa89ac32d", "rental_uris": {"android": "https://dc.lft.to/lastmile_qr_scan", "ios": "https://dc.lft.to/lastmile_qr_scan"}, "name": "a260b5cfb818e03f68c58dbaa89ac32d", "is_reserved": 0}, {"is_disabled": 0, "fusion_lon": 0.0, "fusion_lat": 0.0, "lat": 38.89226716666667, "type": "electric_scooter", "lon": -77.04998216666667, "bike_id": "0ca808b2375805c30f9c15376c64870e", "rental_uris": {"android": "https://dc.lft.to/lastmile_qr_scan", "ios": "https://dc.lft.to/lastmile_qr_scan"}, "name": "0ca808b2375805c30f9c15376c64870e", "is_reserved": 0}, {"is_disabled": 0, "fusion_lon": 0.0, "fusion_lat": 0.0, "lat": 38.880595, "type": "electric_scooter", "lon": -77.01682683333334, "bike_id": "2450c0cd37e62f29789dc4b149a03aca", "rental_uris": {"android": "https://dc.lft.to/lastmile_qr_scan", "ios": "https://dc.lft.to/lastmile_qr_scan"}, "name": "2450c0cd37e62f29789dc4b149a03aca", "is_reserved": 0}, {"is_disabled": 0, "fusion_lon": 0.0, "fusion_lat": 0.0, "lat": 38.953754, "type": "electric_scooter", "lon": -77.025565, "bike_id": "e5e50853974d1629dbf9ee75b43f9d1b", "rental_uris": {"android": "https://dc.lft.to/lastmile_qr_scan", "ios": "https://dc.lft.to/lastmile_qr_scan"}, "name": "e5e50853974d1629dbf9ee75b43f9d1b", "is_reserved": 0}, {"is_disabled": 0, "fusion_lon": 0.0, "fusion_lat": 0.0, "lat": 38.930065, "type": "electric_scooter", "lon": -77.078387, "bike_id": "f111e5025aabfe6369cc3715431f981c", "rental_uris": {"android": "https://dc.lft.to/lastmile_qr_scan", "ios": "https://dc.lft.to/lastmile_qr_scan"}, "name": "f111e5025aabfe6369cc3715431f981c", "is_reserved": 0}, {"is_disabled": 0, "fusion_lon": 0.0, "fusion_lat": 0.0, "lat": 38.9224445, "type": "electric_scooter", "lon": -77.0308285, "bike_id": "266e4a81769a42848cb9b91c7c328988", "rental_uris": {"android": "https://dc.lft.to/lastmile_qr_scan", "ios": "https://dc.lft.to/lastmile_qr_scan"}, "name": "266e4a81769a42848cb9b91c7c328988", "is_reserved": 0}, {"is_disabled": 0, "fusion_lon": 0.0, "fusion_lat": 0.0, "lat": 38.965018, "type": "electric_scooter", "lon": -77.02477716666667, "bike_id": "11e7f7b2290f09f485a6ed3202c519ea", "rental_uris": {"android": "https://dc.lft.to/lastmile_qr_scan", "ios": "https://dc.lft.to/lastmile_qr_scan"}, "name": "11e7f7b2290f09f485a6ed3202c519ea", "is_reserved": 0}, {"is_disabled": 0, "fusion_lon": 0.0, "fusion_lat": 0.0, "lat": 38.93873083333333, "type": "electric_scooter", "lon": -77.03255816666666, "bike_id": "9ad1758dbbfbd3f75b91862caab44ade", "rental_uris": {"android": "https://dc.lft.to/lastmile_qr_scan", "ios": "https://dc.lft.to/lastmile_qr_scan"}, "name": "9ad1758dbbfbd3f75b91862caab44ade", "is_reserved": 0}, {"is_disabled": 0, "fusion_lon": 0.0, "fusion_lat": 0.0, "lat": 38.89352366666667, "type": "electric_scooter", "lon": -77.02224433333333, "bike_id": "a4bbf75b76161cfa0ba2599fb7d9c814", "rental_uris": {"android": "https://dc.lft.to/lastmile_qr_scan", "ios": "https://dc.lft.to/lastmile_qr_scan"}, "name": "a4bbf75b76161cfa0ba2599fb7d9c814", "is_reserved": 0}, {"is_disabled": 0, "fusion_lon": 0.0, "fusion_lat": 0.0, "lat": 38.907236, "type": "electric_scooter", "lon": -77.03847183333333, "bike_id": "23c0775eac8af82a90ddbc0c504ddf98", "rental_uris": {"android": "https://dc.lft.to/lastmile_qr_scan", "ios": "https://dc.lft.to/lastmile_qr_scan"}, "name": "23c0775eac8af82a90ddbc0c504ddf98", "is_reserved": 0}, {"is_disabled": 0, "fusion_lon": 0.0, "fusion_lat": 0.0, "lat": 38.903824166666666, "type": "electric_scooter", "lon": -77.050319, "bike_id": "4b74f1cbbaf899581f336f6925a74254", "rental_uris": {"android": "https://dc.lft.to/lastmile_qr_scan", "ios": "https://dc.lft.to/lastmile_qr_scan"}, "name": "4b74f1cbbaf899581f336f6925a74254", "is_reserved": 0}, {"is_disabled": 0, "fusion_lon": 0.0, "fusion_lat": 0.0, "lat": 38.905306833333334, "type": "electric_scooter", "lon": -77.05999616666666, "bike_id": "457c3b4a95ffd8a48f67231a55102a59", "rental_uris": {"android": "https://dc.lft.to/lastmile_qr_scan", "ios": "https://dc.lft.to/lastmile_qr_scan"}, "name": "457c3b4a95ffd8a48f67231a55102a59", "is_reserved": 0}, {"is_disabled": 0, "fusion_lon": 0.0, "fusion_lat": 0.0, "lat": 38.9539585, "type": "electric_scooter", "lon": -77.02751783333333, "bike_id": "3c17af9ea3198429e00c0d34493fdad8", "rental_uris": {"android": "https://dc.lft.to/lastmile_qr_scan", "ios": "https://dc.lft.to/lastmile_qr_scan"}, "name": "3c17af9ea3198429e00c0d34493fdad8", "is_reserved": 0}, {"is_disabled": 0, "fusion_lon": 0.0, "fusion_lat": 0.0, "lat": 38.85836966666667, "type": "electric_bike", "lon": -76.9928235, "bike_id": "225a54c3d24163c3897b9673de9950e3", "rental_uris": {"android": "https://dc.lft.to/lastmile_qr_scan", "ios": "https://dc.lft.to/lastmile_qr_scan"}, "name": "225a54c3d24163c3897b9673de9950e3", "is_reserved": 0}, {"is_disabled": 0, "fusion_lon": 0.0, "fusion_lat": 0.0, "lat": 38.924125333333336, "type": "electric_scooter", "lon": -77.04160883333333, "bike_id": "409af88bae4ba0eaa5c9448280ec947f", "rental_uris": {"android": "https://dc.lft.to/lastmile_qr_scan", "ios": "https://dc.lft.to/lastmile_qr_scan"}, "name": "409af88bae4ba0eaa5c9448280ec947f", "is_reserved": 0}, {"is_disabled": 0, "fusion_lon": 0.0, "fusion_lat": 0.0, "lat": 38.90266066666667, "type": "electric_scooter", "lon": -77.034341, "bike_id": "f88016d0159369999212b04a4a72eea0", "rental_uris": {"android": "https://dc.lft.to/lastmile_qr_scan", "ios": "https://dc.lft.to/lastmile_qr_scan"}, "name": "f88016d0159369999212b04a4a72eea0", "is_reserved": 0}, {"is_disabled": 0, "fusion_lon": 0.0, "fusion_lat": 0.0, "lat": 38.88, "type": "electric_bike", "lon": -76.91598133333333, "bike_id": "406d37704837d5b5ca00d8afe003160f", "rental_uris": {"android": "https://dc.lft.to/lastmile_qr_scan", "ios": "https://dc.lft.to/lastmile_qr_scan"}, "name": "406d37704837d5b5ca00d8afe003160f", "is_reserved": 0}, {"is_disabled": 0, "fusion_lon": 0.0, "fusion_lat": 0.0, "lat": 38.90735383333333, "type": "electric_bike", "lon": -77.03961933333333, "bike_id": "b634af7d849a6ff5713b767ce67a094d", "rental_uris": {"android": "https://dc.lft.to/lastmile_qr_scan", "ios": "https://dc.lft.to/lastmile_qr_scan"}, "name": "b634af7d849a6ff5713b767ce67a094d", "is_reserved": 0}, {"is_disabled": 0, "fusion_lon": 0.0, "fusion_lat": 0.0, "lat": 38.9071575, "type": "electric_scooter", "lon": -77.02974816666666, "bike_id": "c6766b5cbcb44553559684f78060420f", "rental_uris": {"android": "https://dc.lft.to/lastmile_qr_scan", "ios": "https://dc.lft.to/lastmile_qr_scan"}, "name": "c6766b5cbcb44553559684f78060420f", "is_reserved": 0}, {"is_disabled": 0, "fusion_lon": 0.0, "fusion_lat": 0.0, "lat": 38.90963166666667, "type": "electric_scooter", "lon": -77.03864616666667, "bike_id": "48c6fc557064d0a800bcd87c91b53fb2", "rental_uris": {"android": "https://dc.lft.to/lastmile_qr_scan", "ios": "https://dc.lft.to/lastmile_qr_scan"}, "name": "48c6fc557064d0a800bcd87c91b53fb2", "is_reserved": 0}, {"is_disabled": 0, "fusion_lon": 0.0, "fusion_lat": 0.0, "lat": 38.929430833333335, "type": "electric_scooter", "lon": -77.0188735, "bike_id": "ada912b8d7650804867b6fe8ba7cd7e0", "rental_uris": {"android": "https://dc.lft.to/lastmile_qr_scan", "ios": "https://dc.lft.to/lastmile_qr_scan"}, "name": "ada912b8d7650804867b6fe8ba7cd7e0", "is_reserved": 0}, {"is_disabled": 0, "fusion_lon": 0.0, "fusion_lat": 0.0, "lat": 38.906817, "type": "electric_bike", "lon": -76.95190333333333, "bike_id": "6a4b50ede401b008fcdfa86771c202a2", "rental_uris": {"android": "https://dc.lft.to/lastmile_qr_scan", "ios": "https://dc.lft.to/lastmile_qr_scan"}, "name": "6a4b50ede401b008fcdfa86771c202a2", "is_reserved": 0}, {"is_disabled": 0, "fusion_lon": 0.0, "fusion_lat": 0.0, "lat": 38.9073405, "type": "electric_scooter", "lon": -77.04669516666667, "bike_id": "79d10a7d86647a5f1ea26f093f86cca6", "rental_uris": {"android": "https://dc.lft.to/lastmile_qr_scan", "ios": "https://dc.lft.to/lastmile_qr_scan"}, "name": "79d10a7d86647a5f1ea26f093f86cca6", "is_reserved": 0}, {"is_disabled": 0, "fusion_lon": 0.0, "fusion_lat": 0.0, "lat": 38.912777, "type": "electric_scooter", "lon": -77.02242833333334, "bike_id": "222adf9f14e6ebeb78fd010abab301b8", "rental_uris": {"android": "https://dc.lft.to/lastmile_qr_scan", "ios": "https://dc.lft.to/lastmile_qr_scan"}, "name": "222adf9f14e6ebeb78fd010abab301b8", "is_reserved": 0}, {"is_disabled": 0, "fusion_lon": 0.0, "fusion_lat": 0.0, "lat": 38.9195125, "type": "electric_scooter", "lon": -77.01652083333333, "bike_id": "da0ffaa0bda1d9728004bedf4f419fa8", "rental_uris": {"android": "https://dc.lft.to/lastmile_qr_scan", "ios": "https://dc.lft.to/lastmile_qr_scan"}, "name": "da0ffaa0bda1d9728004bedf4f419fa8", "is_reserved": 0}, {"is_disabled": 0, "fusion_lon": 0.0, "fusion_lat": 0.0, "lat": 38.9185255, "type": "electric_scooter", "lon": -77.032091, "bike_id": "190fa4e6b60ca7002dbe823ad9a1b82e", "rental_uris": {"android": "https://dc.lft.to/lastmile_qr_scan", "ios": "https://dc.lft.to/lastmile_qr_scan"}, "name": "190fa4e6b60ca7002dbe823ad9a1b82e", "is_reserved": 0}, {"is_disabled": 0, "fusion_lon": 0.0, "fusion_lat": 0.0, "lat": 38.919552833333334, "type": "electric_scooter", "lon": -77.00075916666667, "bike_id": "b55ff746c2c263327e12c96119b26e0b", "rental_uris": {"android": "https://dc.lft.to/lastmile_qr_scan", "ios": "https://dc.lft.to/lastmile_qr_scan"}, "name": "b55ff746c2c263327e12c96119b26e0b", "is_reserved": 0}, {"is_disabled": 0, "fusion_lon": 0.0, "fusion_lat": 0.0, "lat": 38.9322835, "type": "electric_scooter", "lon": -77.02028016666667, "bike_id": "190c6c62ce8c655151c5de828f543ed2", "rental_uris": {"android": "https://dc.lft.to/lastmile_qr_scan", "ios": "https://dc.lft.to/lastmile_qr_scan"}, "name": "190c6c62ce8c655151c5de828f543ed2", "is_reserved": 0}, {"is_disabled": 0, "fusion_lon": 0.0, "fusion_lat": 0.0, "lat": 38.900564833333334, "type": "electric_scooter", "lon": -76.93474116666667, "bike_id": "36a3b2cc59e91f88c7a673ea8d72aad8", "rental_uris": {"android": "https://dc.lft.to/lastmile_qr_scan", "ios": "https://dc.lft.to/lastmile_qr_scan"}, "name": "36a3b2cc59e91f88c7a673ea8d72aad8", "is_reserved": 0}, {"is_disabled": 0, "fusion_lon": 0.0, "fusion_lat": 0.0, "lat": 38.8850085, "type": "electric_scooter", "lon": -76.99655633333333, "bike_id": "9bf8168e91d64a4ba164c3d2da69a35b", "rental_uris": {"android": "https://dc.lft.to/lastmile_qr_scan", "ios": "https://dc.lft.to/lastmile_qr_scan"}, "name": "9bf8168e91d64a4ba164c3d2da69a35b", "is_reserved": 0}, {"is_disabled": 0, "fusion_lon": 0.0, "fusion_lat": 0.0, "lat": 38.92754266666667, "type": "electric_scooter", "lon": -77.00590916666667, "bike_id": "99506a76ea0df6ecd16d79dfa3d9ff54", "rental_uris": {"android": "https://dc.lft.to/lastmile_qr_scan", "ios": "https://dc.lft.to/lastmile_qr_scan"}, "name": "99506a76ea0df6ecd16d79dfa3d9ff54", "is_reserved": 0}, {"is_disabled": 0, "fusion_lon": 0.0, "fusion_lat": 0.0, "lat": 38.90391833333334, "type": "electric_scooter", "lon": -76.99007116666667, "bike_id": "c4694164f995055968e7fd7dbd939307", "rental_uris": {"android": "https://dc.lft.to/lastmile_qr_scan", "ios": "https://dc.lft.to/lastmile_qr_scan"}, "name": "c4694164f995055968e7fd7dbd939307", "is_reserved": 0}, {"is_disabled": 0, "fusion_lon": 0.0, "fusion_lat": 0.0, "lat": 38.91935, "type": "electric_scooter", "lon": -76.9807205, "bike_id": "16c55b958ed0c383c2af97330cfbfc45", "rental_uris": {"android": "https://dc.lft.to/lastmile_qr_scan", "ios": "https://dc.lft.to/lastmile_qr_scan"}, "name": "16c55b958ed0c383c2af97330cfbfc45", "is_reserved": 0}, {"is_disabled": 0, "fusion_lon": 0.0, "fusion_lat": 0.0, "lat": 38.9233355, "type": "electric_scooter", "lon": -77.04182383333334, "bike_id": "6dd7da373dbc64a9483e6d6e9e6bf783", "rental_uris": {"android": "https://dc.lft.to/lastmile_qr_scan", "ios": "https://dc.lft.to/lastmile_qr_scan"}, "name": "6dd7da373dbc64a9483e6d6e9e6bf783", "is_reserved": 0}, {"is_disabled": 0, "fusion_lon": 0.0, "fusion_lat": 0.0, "lat": 38.915543166666666, "type": "electric_scooter", "lon": -77.03174283333334, "bike_id": "10f860ec1a1c2c37c7873d5757b9948e", "rental_uris": {"android": "https://dc.lft.to/lastmile_qr_scan", "ios": "https://dc.lft.to/lastmile_qr_scan"}, "name": "10f860ec1a1c2c37c7873d5757b9948e", "is_reserved": 0}, {"is_disabled": 0, "fusion_lon": 0.0, "fusion_lat": 0.0, "lat": 38.9155725, "type": "electric_scooter", "lon": -77.007603, "bike_id": "4288f3a12ede365ae0d6c9f61d176ebe", "rental_uris": {"android": "https://dc.lft.to/lastmile_qr_scan", "ios": "https://dc.lft.to/lastmile_qr_scan"}, "name": "4288f3a12ede365ae0d6c9f61d176ebe", "is_reserved": 0}, {"is_disabled": 0, "fusion_lon": 0.0, "fusion_lat": 0.0, "lat": 38.85508016666667, "type": "electric_bike", "lon": -76.958387, "bike_id": "eb1bfe28424b4560b726dc5c9e08cbee", "rental_uris": {"android": "https://dc.lft.to/lastmile_qr_scan", "ios": "https://dc.lft.to/lastmile_qr_scan"}, "name": "eb1bfe28424b4560b726dc5c9e08cbee", "is_reserved": 0}, {"is_disabled": 0, "fusion_lon": 0.0, "fusion_lat": 0.0, "lat": 38.92603166666667, "type": "electric_scooter", "lon": -77.02154683333333, "bike_id": "9dab5f82496842da34ffad187b06bf59", "rental_uris": {"android": "https://dc.lft.to/lastmile_qr_scan", "ios": "https://dc.lft.to/lastmile_qr_scan"}, "name": "9dab5f82496842da34ffad187b06bf59", "is_reserved": 0}, {"is_disabled": 0, "fusion_lon": 0.0, "fusion_lat": 0.0, "lat": 38.9095265, "type": "electric_scooter", "lon": -77.01569333333333, "bike_id": "0a0d055083f1c851fe9a6c58af54828e", "rental_uris": {"android": "https://dc.lft.to/lastmile_qr_scan", "ios": "https://dc.lft.to/lastmile_qr_scan"}, "name": "0a0d055083f1c851fe9a6c58af54828e", "is_reserved": 0}, {"is_disabled": 0, "fusion_lon": 0.0, "fusion_lat": 0.0, "lat": 38.903267666666665, "type": "electric_scooter", "lon": -77.02894216666667, "bike_id": "f4b3c8e46af3608bc564f796494ae763", "rental_uris": {"android": "https://dc.lft.to/lastmile_qr_scan", "ios": "https://dc.lft.to/lastmile_qr_scan"}, "name": "f4b3c8e46af3608bc564f796494ae763", "is_reserved": 0}, {"is_disabled": 0, "fusion_lon": 0.0, "fusion_lat": 0.0, "lat": 38.88593816666667, "type": "electric_scooter", "lon": -77.00580466666666, "bike_id": "a85bd34d39a5f2e3e68128b79cbe8b6e", "rental_uris": {"android": "https://dc.lft.to/lastmile_qr_scan", "ios": "https://dc.lft.to/lastmile_qr_scan"}, "name": "a85bd34d39a5f2e3e68128b79cbe8b6e", "is_reserved": 0}, {"is_disabled": 0, "fusion_lon": 0.0, "fusion_lat": 0.0, "lat": 38.868847, "type": "electric_scooter", "lon": -76.98313333333333, "bike_id": "0883379fffbefecc557978268cb34606", "rental_uris": {"android": "https://dc.lft.to/lastmile_qr_scan", "ios": "https://dc.lft.to/lastmile_qr_scan"}, "name": "0883379fffbefecc557978268cb34606", "is_reserved": 0}, {"is_disabled": 0, "fusion_lon": 0.0, "fusion_lat": 0.0, "lat": 38.859854166666665, "type": "electric_bike", "lon": -76.9705045, "bike_id": "f317cfd0f808a5eee545c5546e08193e", "rental_uris": {"android": "https://dc.lft.to/lastmile_qr_scan", "ios": "https://dc.lft.to/lastmile_qr_scan"}, "name": "f317cfd0f808a5eee545c5546e08193e", "is_reserved": 0}, {"is_disabled": 0, "fusion_lon": 0.0, "fusion_lat": 0.0, "lat": 38.92401366666667, "type": "electric_scooter", "lon": -77.04099133333334, "bike_id": "7510527f68fb1242fece6ca5fd3c71eb", "rental_uris": {"android": "https://dc.lft.to/lastmile_qr_scan", "ios": "https://dc.lft.to/lastmile_qr_scan"}, "name": "7510527f68fb1242fece6ca5fd3c71eb", "is_reserved": 0}, {"is_disabled": 0, "fusion_lon": 0.0, "fusion_lat": 0.0, "lat": 38.9146125, "type": "electric_scooter", "lon": -77.02799566666667, "bike_id": "93f1c041443e9d60f3c0492005bdad93", "rental_uris": {"android": "https://dc.lft.to/lastmile_qr_scan", "ios": "https://dc.lft.to/lastmile_qr_scan"}, "name": "93f1c041443e9d60f3c0492005bdad93", "is_reserved": 0}, {"is_disabled": 0, "fusion_lon": 0.0, "fusion_lat": 0.0, "lat": 38.9945225, "type": "electric_bike", "lon": -76.90814516666667, "bike_id": "93a7d1936a3175f33b4009a36e057df4", "rental_uris": {"android": "https://dc.lft.to/lastmile_qr_scan", "ios": "https://dc.lft.to/lastmile_qr_scan"}, "name": "93a7d1936a3175f33b4009a36e057df4", "is_reserved": 0}, {"is_disabled": 0, "fusion_lon": 0.0, "fusion_lat": 0.0, "lat": 38.880069666666664, "type": "electric_bike", "lon": -76.91596266666667, "bike_id": "114040b5a48e66a9dbc027c541b49c95", "rental_uris": {"android": "https://dc.lft.to/lastmile_qr_scan", "ios": "https://dc.lft.to/lastmile_qr_scan"}, "name": "114040b5a48e66a9dbc027c541b49c95", "is_reserved": 0}, {"is_disabled": 0, "fusion_lon": 0.0, "fusion_lat": 0.0, "lat": 38.952712166666664, "type": "electric_scooter", "lon": -77.0686395, "bike_id": "d6d349df8a8f0ba4ffc11b033571ff66", "rental_uris": {"android": "https://dc.lft.to/lastmile_qr_scan", "ios": "https://dc.lft.to/lastmile_qr_scan"}, "name": "d6d349df8a8f0ba4ffc11b033571ff66", "is_reserved": 0}, {"is_disabled": 0, "fusion_lon": 0.0, "fusion_lat": 0.0, "lat": 38.893066166666664, "type": "electric_scooter", "lon": -77.02203883333334, "bike_id": "e22f79ef8488c910554918b9e8202d32", "rental_uris": {"android": "https://dc.lft.to/lastmile_qr_scan", "ios": "https://dc.lft.to/lastmile_qr_scan"}, "name": "e22f79ef8488c910554918b9e8202d32", "is_reserved": 0}, {"is_disabled": 0, "fusion_lon": 0.0, "fusion_lat": 0.0, "lat": 38.91038483333333, "type": "electric_scooter", "lon": -77.04053333333333, "bike_id": "d054f9d9e0f58dc38dfb5c8177e510f8", "rental_uris": {"android": "https://dc.lft.to/lastmile_qr_scan", "ios": "https://dc.lft.to/lastmile_qr_scan"}, "name": "d054f9d9e0f58dc38dfb5c8177e510f8", "is_reserved": 0}, {"is_disabled": 0, "fusion_lon": 0.0, "fusion_lat": 0.0, "lat": 38.898877666666664, "type": "electric_scooter", "lon": -77.0395445, "bike_id": "a6a22a72ab5271380ccf3197bae53dff", "rental_uris": {"android": "https://dc.lft.to/lastmile_qr_scan", "ios": "https://dc.lft.to/lastmile_qr_scan"}, "name": "a6a22a72ab5271380ccf3197bae53dff", "is_reserved": 0}, {"is_disabled": 0, "fusion_lon": 0.0, "fusion_lat": 0.0, "lat": 38.90498483333333, "type": "electric_scooter", "lon": -76.98858516666667, "bike_id": "600e94c694c27d74540e6086eba73140", "rental_uris": {"android": "https://dc.lft.to/lastmile_qr_scan", "ios": "https://dc.lft.to/lastmile_qr_scan"}, "name": "600e94c694c27d74540e6086eba73140", "is_reserved": 0}, {"is_disabled": 0, "fusion_lon": 0.0, "fusion_lat": 0.0, "lat": 38.89371283333333, "type": "electric_scooter", "lon": -76.94997633333334, "bike_id": "de49765c017fac1e4ac90a093d7dec2a", "rental_uris": {"android": "https://dc.lft.to/lastmile_qr_scan", "ios": "https://dc.lft.to/lastmile_qr_scan"}, "name": "de49765c017fac1e4ac90a093d7dec2a", "is_reserved": 0}, {"is_disabled": 0, "fusion_lon": 0.0, "fusion_lat": 0.0, "lat": 38.92613016666667, "type": "electric_scooter", "lon": -77.056989, "bike_id": "1e6a96539e9fee1aa028febad174857c", "rental_uris": {"android": "https://dc.lft.to/lastmile_qr_scan", "ios": "https://dc.lft.to/lastmile_qr_scan"}, "name": "1e6a96539e9fee1aa028febad174857c", "is_reserved": 0}, {"is_disabled": 0, "fusion_lon": 0.0, "fusion_lat": 0.0, "lat": 38.936013833333334, "type": "electric_scooter", "lon": -77.05855733333334, "bike_id": "c18e46a79ebd96c531884b46dee70895", "rental_uris": {"android": "https://dc.lft.to/lastmile_qr_scan", "ios": "https://dc.lft.to/lastmile_qr_scan"}, "name": "c18e46a79ebd96c531884b46dee70895", "is_reserved": 0},