{"data": {"bikes": [{"lat": 38.9198845, "bike_id": "555ecb09e42adad8875d113b5e872c98", "is_reserved": 0, "is_disabled": 0, "rental_uris": {"android": "https://dc.lft.to/lastmile_qr_scan", "ios": "https://dc.lft.to/lastmile_qr_scan"}, "fusion_lon": 0.0, "lon": -76.97305533333333, "type": "electric_scooter", "fusion_lat": 0.0, "name": "555ecb09e42adad8875d113b5e872c98"}, {"lat": 38.936752166666665, "bike_id": "51c59f7aea0a44e001942c1a721b9459", "is_reserved": 0, "is_disabled": 0, "rental_uris": {"android": "https://dc.lft.to/lastmile_qr_scan", "ios": "https://dc.lft.to/lastmile_qr_scan"}, "fusion_lon": 0.0, "lon": -77.03592266666666, "type": "electric_scooter", "fusion_lat": 0.0, "name": "51c59f7aea0a44e001942c1a721b9459"}, {"lat": 38.905735666666665, "bike_id": "7c6ba2c67e489092749804c5a4da30e8", "is_reserved": 0, "is_disabled": 0, "rental_uris": {"android": "https://dc.lft.to/lastmile_qr_scan", "ios": "https://dc.lft.to/lastmile_qr_scan"}, "fusion_lon": 0.0, "lon": -77.0362235, "type": "electric_scooter", "fusion_lat": 0.0, "name": "7c6ba2c67e489092749804c5a4da30e8"}, {"lat": 38.906932, "bike_id": "497a2c6b142370365eebb78f8f0b27c1", "is_reserved": 0, "is_disabled": 0, "rental_uris": {"android": "https://dc.lft.to/lastmile_qr_scan", "ios": "https://dc.lft.to/lastmile_qr_scan"}, "fusion_lon": 0.0, "lon": -77.03842466666667, "type": "electric_scooter", "fusion_lat": 0.0, "name": "497a2c6b142370365eebb78f8f0b27c1"}, {"lat": 38.903776, "bike_id": "f1a57903999fe966e2e3cd32638f9cdd", "is_reserved": 0, "is_disabled": 0, "rental_uris": {"android": "https://dc.lft.to/lastmile_qr_scan", "ios": "https://dc.lft.to/lastmile_qr_scan"}, "fusion_lon": 0.0, "lon": -77.033173, "type": "electric_scooter", "fusion_lat": 0.0, "name": "f1a57903999fe966e2e3cd32638f9cdd"}, {"lat": 38.886980333333334, "bike_id": "67f5f428fdd0bc04bf37dc1580f077cf", "is_reserved": 0, "is_disabled": 0, "rental_uris": {"android": "https://dc.lft.to/lastmile_qr_scan", "ios": "https://dc.lft.to/lastmile_qr_scan"}, "fusion_lon": 0.0, "lon": -76.99611183333333, "type": "electric_scooter", "fusion_lat": 0.0, "name": "67f5f428fdd0bc04bf37dc1580f077cf"}, {"lat": 38.934885333333334, "bike_id": "ebdaf49deaf1b23936b51d0116d5ef7f", "is_reserved": 0, "is_disabled": 0, "rental_uris": {"android": "https://dc.lft.to/lastmile_qr_scan", "ios": "https://dc.lft.to/lastmile_qr_scan"}, "fusion_lon": 0.0, "lon": -77.0726565, "type": "electric_scooter", "fusion_lat": 0.0, "name": "ebdaf49deaf1b23936b51d0116d5ef7f"}, {"lat": 38.92028466666667, "bike_id": "e7582cf0254263b9343303bc6c03a231", "is_reserved": 0, "is_disabled": 0, "rental_uris": {"android": "https://dc.lft.to/lastmile_qr_scan", "ios": "https://dc.lft.to/lastmile_qr_scan"}, "fusion_lon": 0.0, "lon": -77.07154466666667, "type": "electric_scooter", "fusion_lat": 0.0, "name": "e7582cf0254263b9343303bc6c03a231"}, {"lat": 38.909727333333336, "bike_id": "29223630dfb6c5b0eeef49ad16787d10", "is_reserved": 0, "is_disabled": 0, "rental_uris": {"android": "https://dc.lft.to/lastmile_qr_scan", "ios": "https://dc.lft.to/lastmile_qr_scan"}, "fusion_lon": 0.0, "lon": -77.02433466666666, "type": "electric_scooter", "fusion_lat": 0.0, "name": "29223630dfb6c5b0eeef49ad16787d10"}, {"lat": 38.92049866666667, "bike_id": "7c05781baf1482398f3a3a393c1bd5bc", "is_reserved": 0, "is_disabled": 0, "rental_uris": {"android": "https://dc.lft.to/lastmile_qr_scan", "ios": "https://dc.lft.to/lastmile_qr_scan"}, "fusion_lon": 0.0, "lon": -77.03370283333334, "type": "electric_scooter", "fusion_lat": 0.0, "name": "7c05781baf1482398f3a3a393c1bd5bc"}, {"lat": 38.88147283333333, "bike_id": "8ad0121367956d5a0e59ad82e8542f6c", "is_reserved": 0, "is_disabled": 0, "rental_uris": {"android": "https://dc.lft.to/lastmile_qr_scan", "ios": "https://dc.lft.to/lastmile_qr_scan"}, "fusion_lon": 0.0, "lon": -76.94403583333333, "type": "electric_scooter", "fusion_lat": 0.0, "name": "8ad0121367956d5a0e59ad82e8542f6c"}, {"lat": 38.906379, "bike_id": "e38b75c7d483c06b4387a02dbdff237d", "is_reserved": 0, "is_disabled": 0, "rental_uris": {"android": "https://dc.lft.to/lastmile_qr_scan", "ios": "https://dc.lft.to/lastmile_qr_scan"}, "fusion_lon": 0.0, "lon": -77.05120883333333, "type": "electric_scooter", "fusion_lat": 0.0, "name": "e38b75c7d483c06b4387a02dbdff237d"}, {"lat": 38.87792916666667, "bike_id": "b2e1f2464fdb6d0fee3673bb82ea7252", "is_reserved": 0, "is_disabled": 0, "rental_uris": {"android": "https://dc.lft.to/lastmile_qr_scan", "ios": "https://dc.lft.to/lastmile_qr_scan"}, "fusion_lon": 0.0, "lon": -77.001281, "type": "electric_scooter", "fusion_lat": 0.0, "name": "b2e1f2464fdb6d0fee3673bb82ea7252"}, {"lat": 38.8832265, "bike_id": "b9295e0c396a7feee2e8a682b4109f73", "is_reserved": 0, "is_disabled": 0, "rental_uris": {"android": "https://dc.lft.to/lastmile_qr_scan", "ios": "https://dc.lft.to/lastmile_qr_scan"}, "fusion_lon": 0.0, "lon": -76.998318, "type": "electric_scooter", "fusion_lat": 0.0, "name": "b9295e0c396a7feee2e8a682b4109f73"}, {"lat": 38.909037833333336, "bike_id": "83dc7e1a8cd4433cd42ead52ee3dea0b", "is_reserved": 0, "is_disabled": 0, "rental_uris": {"android": "https://dc.lft.to/lastmile_qr_scan", "ios": "https://dc.lft.to/lastmile_qr_scan"}, "fusion_lon": 0.0, "lon": -77.04489633333333, "type": "electric_scooter", "fusion_lat": 0.0, "name": "83dc7e1a8cd4433cd42ead52ee3dea0b"}, {"lat": 38.905487, "bike_id": "5d40b8221a4e2d4ba86cb66cc3d1dcae", "is_reserved": 0, "is_disabled": 0, "rental_uris": {"android": "https://dc.lft.to/lastmile_qr_scan", "ios": "https://dc.lft.to/lastmile_qr_scan"}, "fusion_lon": 0.0, "lon": -77.0347945, "type": "electric_scooter", "fusion_lat": 0.0, "name": "5d40b8221a4e2d4ba86cb66cc3d1dcae"}, {"lat": 38.899608, "bike_id": "48c8799a2e91b5a4a08d7801efa58af8", "is_reserved": 0, "is_disabled": 0, "rental_uris": {"android": "https://dc.lft.to/lastmile_qr_scan", "ios": "https://dc.lft.to/lastmile_qr_scan"}, "fusion_lon": 0.0, "lon": -77.0268725, "type": "electric_scooter", "fusion_lat": 0.0, "name": "48c8799a2e91b5a4a08d7801efa58af8"}, {"lat": 38.927945666666666, "bike_id": "29d3fb784a11e9982d28121e3361a058", "is_reserved": 0, "is_disabled": 0, "rental_uris": {"android": "https://dc.lft.to/lastmile_qr_scan", "ios": "https://dc.lft.to/lastmile_qr_scan"}, "fusion_lon": 0.0, "lon": -77.02436383333334, "type": "electric_scooter", "fusion_lat": 0.0, "name": "29d3fb784a11e9982d28121e3361a058"}, {"lat": 38.89853033333333, "bike_id": "e5b08b3057fdde814273f947ace61cff", "is_reserved": 0, "is_disabled": 0, "rental_uris": {"android": "https://dc.lft.to/lastmile_qr_scan", "ios": "https://dc.lft.to/lastmile_qr_scan"}, "fusion_lon": 0.0, "lon": -77.03961783333334, "type": "electric_scooter", "fusion_lat": 0.0, "name": "e5b08b3057fdde814273f947ace61cff"}, {"lat": 38.8502375, "bike_id": "0eac90a9f82d20b56edfb2cfafb4e7f4", "is_reserved": 0, "is_disabled": 0, "rental_uris": {"android": "https://dc.lft.to/lastmile_qr_scan", "ios": "https://dc.lft.to/lastmile_qr_scan"}, "fusion_lon": 0.0, "lon": -77.09804433333333, "type": "electric_bike", "fusion_lat": 0.0, "name": "0eac90a9f82d20b56edfb2cfafb4e7f4"}, {"lat": 38.932729, "bike_id": "a1e2e105bfbdcd6bf9b9317c1508bea7", "is_reserved": 0, "is_disabled": 0, "rental_uris": {"android": "https://dc.lft.to/lastmile_qr_scan", "ios": "https://dc.lft.to/lastmile_qr_scan"}, "fusion_lon": 0.0, "lon": -77.03493916666666, "type": "electric_scooter", "fusion_lat": 0.0, "name": "a1e2e105bfbdcd6bf9b9317c1508bea7"}, {"lat": 38.916908166666666, "bike_id": "97a46d7e6e5d628287abaf114ce0f99e", "is_reserved": 0, "is_disabled": 0, "rental_uris": {"android": "https://dc.lft.to/lastmile_qr_scan", "ios": "https://dc.lft.to/lastmile_qr_scan"}, "fusion_lon": 0.0, "lon": -77.01628166666667, "type": "electric_scooter", "fusion_lat": 0.0, "name": "97a46d7e6e5d628287abaf114ce0f99e"}, {"lat": 38.923145166666664, "bike_id": "bf700d0d4993dab3bd4049d8c6a4eecd", "is_reserved": 0, "is_disabled": 0, "rental_uris": {"android": "https://dc.lft.to/lastmile_qr_scan", "ios": "https://dc.lft.to/lastmile_qr_scan"}, "fusion_lon": 0.0, "lon": -77.03914016666667, "type": "electric_scooter", "fusion_lat": 0.0, "name": "bf700d0d4993dab3bd4049d8c6a4eecd"}, {"lat": 38.86262416666667, "bike_id": "6b1e1a661ec1f5689c2059cfe06e7057", "is_reserved": 0, "is_disabled": 0, "rental_uris": {"android": "https://dc.lft.to/lastmile_qr_scan", "ios": "https://dc.lft.to/lastmile_qr_scan"}, "fusion_lon": 0.0, "lon": -76.995499, "type": "electric_scooter", "fusion_lat": 0.0, "name": "6b1e1a661ec1f5689c2059cfe06e7057"}, {"lat": 38.91702016666667, "bike_id": "687899df778eaf7ea25c5ffc1dd610f9", "is_reserved": 0, "is_disabled": 0, "rental_uris": {"android": "https://dc.lft.to/lastmile_qr_scan", "ios": "https://dc.lft.to/lastmile_qr_scan"}, "fusion_lon": 0.0, "lon": -77.03354133333333, "type": "electric_scooter", "fusion_lat": 0.0, "name": "687899df778eaf7ea25c5ffc1dd610f9"}, {"lat": 38.90012216666667, "bike_id": "a10043340104bf6f4317b1b6caa3779b", "is_reserved": 0, "is_disabled": 0, "rental_uris": {"android": "https://dc.lft.to/lastmile_qr_scan", "ios": "https://dc.lft.to/lastmile_qr_scan"}, "fusion_lon": 0.0, "lon": -76.99348416666666, "type": "electric_scooter", "fusion_lat": 0.0, "name": "a10043340104bf6f4317b1b6caa3779b"}, {"lat": 38.89674883333333, "bike_id": "11df45375e788498ec92e37b80b1e9c1", "is_reserved": 0, "is_disabled": 0, "rental_uris": {"android": "https://dc.lft.to/lastmile_qr_scan", "ios": "https://dc.lft.to/lastmile_qr_scan"}, "fusion_lon": 0.0, "lon": -77.02593633333333, "type": "electric_scooter", "fusion_lat": 0.0, "name": "11df45375e788498ec92e37b80b1e9c1"}, {"lat": 38.92667516666667, "bike_id": "3d9ce5ec08b685df8aa6f75d10bce9f8", "is_reserved": 0, "is_disabled": 0, "rental_uris": {"android": "https://dc.lft.to/lastmile_qr_scan", "ios": "https://dc.lft.to/lastmile_qr_scan"}, "fusion_lon": 0.0, "lon": -76.9953415, "type": "electric_scooter", "fusion_lat": 0.0, "name": "3d9ce5ec08b685df8aa6f75d10bce9f8"}, {"lat": 38.915725, "bike_id": "a90ac6e6bb629931090fcc1540938a12", "is_reserved": 0, "is_disabled": 0, "rental_uris": {"android": "https://dc.lft.to/lastmile_qr_scan", "ios": "https://dc.lft.to/lastmile_qr_scan"}, "fusion_lon": 0.0, "lon": -77.046976, "type": "electric_scooter", "fusion_lat": 0.0, "name": "a90ac6e6bb629931090fcc1540938a12"}, {"lat": 38.94225466666666, "bike_id": "ca4a36a0110a959cef44acc742172a6d", "is_reserved": 0, "is_disabled": 0, "rental_uris": {"android": "https://dc.lft.to/lastmile_qr_scan", "ios": "https://dc.lft.to/lastmile_qr_scan"}, "fusion_lon": 0.0, "lon": -77.02549716666667, "type": "electric_scooter", "fusion_lat": 0.0, "name": "ca4a36a0110a959cef44acc742172a6d"}, {"lat": 38.876211833333336, "bike_id": "1143dad94de9bade4d2b5407c63197e8", "is_reserved": 0, "is_disabled": 0, "rental_uris": {"android": "https://dc.lft.to/lastmile_qr_scan", "ios": "https://dc.lft.to/lastmile_qr_scan"}, "fusion_lon": 0.0, "lon": -76.93123883333334, "type": "electric_scooter", "fusion_lat": 0.0, "name": "1143dad94de9bade4d2b5407c63197e8"}, {"lat": 38.91811583333333, "bike_id": "2c0b2c32b9a91c0ca6cac50cd063e1b5", "is_reserved": 0, "is_disabled": 0, "rental_uris": {"android": "https://dc.lft.to/lastmile_qr_scan", "ios": "https://dc.lft.to/lastmile_qr_scan"}, "fusion_lon": 0.0, "lon": -77.03664366666666, "type": "electric_scooter", "fusion_lat": 0.0, "name": "2c0b2c32b9a91c0ca6cac50cd063e1b5"}, {"lat": 38.89841783333333, "bike_id": "af544cfadc925fa6794a7446a6fe45b3", "is_reserved": 0, "is_disabled": 0, "rental_uris": {"android": "https://dc.lft.to/lastmile_qr_scan", "ios": "https://dc.lft.to/lastmile_qr_scan"}, "fusion_lon": 0.0, "lon": -77.0485155, "type": "electric_scooter", "fusion_lat": 0.0, "name": "af544cfadc925fa6794a7446a6fe45b3"}, {"lat": 38.90957866666667, "bike_id": "59cbc049a0396a5a655950856e12977d", "is_reserved": 0, "is_disabled": 0, "rental_uris": {"android": "https://dc.lft.to/lastmile_qr_scan", "ios": "https://dc.lft.to/lastmile_qr_scan"}, "fusion_lon": 0.0, "lon": -77.01441783333334, "type": "electric_scooter", "fusion_lat": 0.0, "name": "59cbc049a0396a5a655950856e12977d"}, {"lat": 38.95359416666667, "bike_id": "b2c0c319580b27a61937991777239011", "is_reserved": 0, "is_disabled": 0, "rental_uris": {"android": "https://dc.lft.to/lastmile_qr_scan", "ios": "https://dc.lft.to/lastmile_qr_scan"}, "fusion_lon": 0.0, "lon": -76.98094233333333, "type": "electric_bike", "fusion_lat": 0.0, "name": "b2c0c319580b27a61937991777239011"}, {"lat": 38.9234615, "bike_id": "ee24bbf02a9d1c67307eb8a24a31fa48", "is_reserved": 0, "is_disabled": 0, "rental_uris": {"android": "https://dc.lft.to/lastmile_qr_scan", "ios": "https://dc.lft.to/lastmile_qr_scan"}, "fusion_lon": 0.0, "lon": -77.01909733333333, "type": "electric_scooter", "fusion_lat": 0.0, "name": "ee24bbf02a9d1c67307eb8a24a31fa48"}, {"lat": 38.96384666666667, "bike_id": "868b474a49345d6288c3612cb98fd33a", "is_reserved": 0, "is_disabled": 0, "rental_uris": {"android": "https://dc.lft.to/lastmile_qr_scan", "ios": "https://dc.lft.to/lastmile_qr_scan"}, "fusion_lon": 0.0, "lon": -77.03500233333334, "type": "electric_scooter", "fusion_lat": 0.0, "name": "868b474a49345d6288c3612cb98fd33a"}, {"lat": 38.88770733333333, "bike_id": "b7f436caed28bd2c5f2b52b9b7144a75", "is_reserved": 0, "is_disabled": 0, "rental_uris": {"android": "https://dc.lft.to/lastmile_qr_scan", "ios": "https://dc.lft.to/lastmile_qr_scan"}, "fusion_lon": 0.0, "lon": -76.99760966666666, "type": "electric_scooter", "fusion_lat": 0.0, "name": "b7f436caed28bd2c5f2b52b9b7144a75"}, {"lat": 38.92745566666667, "bike_id": "67e28d78f04703f67387971c8c08a35f", "is_reserved": 0, "is_disabled": 0, "rental_uris": {"android": "https://dc.lft.to/lastmile_qr_scan", "ios": "https://dc.lft.to/lastmile_qr_scan"}, "fusion_lon": 0.0, "lon": -77.03274, "type": "electric_scooter", "fusion_lat": 0.0, "name": "67e28d78f04703f67387971c8c08a35f"}, {"lat": 38.903467, "bike_id": "efa5432a0c6a05777cabb3f7c7a691f4", "is_reserved": 0, "is_disabled": 0, "rental_uris": {"android": "https://dc.lft.to/lastmile_qr_scan", "ios": "https://dc.lft.to/lastmile_qr_scan"}, "fusion_lon": 0.0, "lon": -77.00215416666667, "type": "electric_scooter", "fusion_lat": 0.0, "name": "efa5432a0c6a05777cabb3f7c7a691f4"}, {"lat": 38.88627116666667, "bike_id": "bdb0f092c7224c861f69759e840bc38e", "is_reserved": 0, "is_disabled": 0, "rental_uris": {"android": "https://dc.lft.to/lastmile_qr_scan", "ios": "https://dc.lft.to/lastmile_qr_scan"}, "fusion_lon": 0.0, "lon": -76.94683366666666, "type": "electric_scooter", "fusion_lat": 0.0, "name": "bdb0f092c7224c861f69759e840bc38e"}, {"lat": 38.91775233333333, "bike_id": "975842c70e60c4e720b8439574b17321", "is_reserved": 0, "is_disabled": 0, "rental_uris": {"android": "https://dc.lft.to/lastmile_qr_scan", "ios": "https://dc.lft.to/lastmile_qr_scan"}, "fusion_lon": 0.0, "lon": -77.0410235, "type": "electric_scooter", "fusion_lat": 0.0, "name": "975842c70e60c4e720b8439574b17321"}, {"lat": 38.90564633333334, "bike_id": "5649c36806e95fb2773fe1cb412d10f5", "is_reserved": 0, "is_disabled": 0, "rental_uris": {"android": "https://dc.lft.to/lastmile_qr_scan", "ios": "https://dc.lft.to/lastmile_qr_scan"}, "fusion_lon": 0.0, "lon": -77.03310533333334, "type": "electric_scooter", "fusion_lat": 0.0, "name": "5649c36806e95fb2773fe1cb412d10f5"}, {"lat": 38.926052166666665, "bike_id": "d56712af60baf51bdd2579085ae4acc5", "is_reserved": 0, "is_disabled": 0, "rental_uris": {"android": "https://dc.lft.to/lastmile_qr_scan", "ios": "https://dc.lft.to/lastmile_qr_scan"}, "fusion_lon": 0.0, "lon": -77.0215545, "type": "electric_scooter", "fusion_lat": 0.0, "name": "d56712af60baf51bdd2579085ae4acc5"}, {"lat": 38.9827285, "bike_id": "9effefb2a98a6e3a4ccdfa2fe8b2d763", "is_reserved": 0, "is_disabled": 0, "rental_uris": {"android": "https://dc.lft.to/lastmile_qr_scan", "ios": "https://dc.lft.to/lastmile_qr_scan"}, "fusion_lon": 0.0, "lon": -77.017743, "type": "electric_bike", "fusion_lat": 0.0, "name": "9effefb2a98a6e3a4ccdfa2fe8b2d763"}, {"lat": 38.90450716666667, "bike_id": "461d1bde44a0338057f2f7ff12af5c91", "is_reserved": 0, "is_disabled": 0, "rental_uris": {"android": "https://dc.lft.to/lastmile_qr_scan", "ios": "https://dc.lft.to/lastmile_qr_scan"}, "fusion_lon": 0.0, "lon": -77.04028033333333, "type": "electric_scooter", "fusion_lat": 0.0, "name": "461d1bde44a0338057f2f7ff12af5c91"}, {"lat": 38.901360333333336, "bike_id": "471def7201eb0f10a275808cac51f6b4", "is_reserved": 0, "is_disabled": 0, "rental_uris": {"android": "https://dc.lft.to/lastmile_qr_scan", "ios": "https://dc.lft.to/lastmile_qr_scan"}, "fusion_lon": 0.0, "lon": -77.04444516666666, "type": "electric_scooter", "fusion_lat": 0.0, "name": "471def7201eb0f10a275808cac51f6b4"}, {"lat": 38.893732166666666, "bike_id": "c2840ff21ef7fbeea523245f55f69f86", "is_reserved": 0, "is_disabled": 0, "rental_uris": {"android": "https://dc.lft.to/lastmile_qr_scan", "ios": "https://dc.lft.to/lastmile_qr_scan"}, "fusion_lon": 0.0, "lon": -76.9419915, "type": "electric_scooter", "fusion_lat": 0.0, "name": "c2840ff21ef7fbeea523245f55f69f86"}, {"lat": 38.91689916666667, "bike_id": "6f2720bb833a0e1967a5212ade6b07a1", "is_reserved": 0, "is_disabled": 0, "rental_uris": {"android": "https://dc.lft.to/lastmile_qr_scan", "ios": "https://dc.lft.to/lastmile_qr_scan"}, "fusion_lon": 0.0, "lon": -77.02893866666666, "type": "electric_scooter", "fusion_lat": 0.0, "name": "6f2720bb833a0e1967a5212ade6b07a1"}, {"lat": 38.93425916666666, "bike_id": "f6d3215eaabdce824ebc8d82dcadae06", "is_reserved": 0, "is_disabled": 0, "rental_uris": {"android": "https://dc.lft.to/lastmile_qr_scan", "ios": "https://dc.lft.to/lastmile_qr_scan"}, "fusion_lon": 0.0, "lon": -77.03274683333333, "type": "electric_bike", "fusion_lat": 0.0, "name": "f6d3215eaabdce824ebc8d82dcadae06"}, {"lat": 38.91568683333333, "bike_id": "2584f392d8c2c6db7c0f4b862a608866", "is_reserved": 0, "is_disabled": 0, "rental_uris": {"android": "https://dc.lft.to/lastmile_qr_scan", "ios": "https://dc.lft.to/lastmile_qr_scan"}, "fusion_lon": 0.0, "lon": -77.03247466666667, "type": "electric_scooter", "fusion_lat": 0.0, "name": "2584f392d8c2c6db7c0f4b862a608866"}, {"lat": 38.81246766666667, "bike_id": "a7d90540758440276ed44774865d909b", "is_reserved": 0, "is_disabled": 0, "rental_uris": {"android": "https://dc.lft.to/lastmile_qr_scan", "ios": "https://dc.lft.to/lastmile_qr_scan"}, "fusion_lon": 0.0, "lon": -77.11200133333334, "type": "electric_bike", "fusion_lat": 0.0, "name": "a7d90540758440276ed44774865d909b"}, {"lat": 38.891845, "bike_id": "32aa6199a2f63a64c6a3153f7c9d9d3b", "is_reserved": 0, "is_disabled": 0, "rental_uris": {"android": "https://dc.lft.to/lastmile_qr_scan", "ios": "https://dc.lft.to/lastmile_qr_scan"}, "fusion_lon": 0.0, "lon": -77.04187816666666, "type": "electric_scooter", "fusion_lat": 0.0, "name": "32aa6199a2f63a64c6a3153f7c9d9d3b"}, {"lat": 38.876655166666666, "bike_id": "751b244fa1914f0edc97cc32dac9891e", "is_reserved": 0, "is_disabled": 0, "rental_uris": {"android": "https://dc.lft.to/lastmile_qr_scan", "ios": "https://dc.lft.to/lastmile_qr_scan"}, "fusion_lon": 0.0, "lon": -77.00468716666667, "type": "electric_scooter", "fusion_lat": 0.0, "name": "751b244fa1914f0edc97cc32dac9891e"}, {"lat": 38.927130166666664, "bike_id": "5418217569acf384972e1bd8e96a2f89", "is_reserved": 0, "is_disabled": 0, "rental_uris": {"android": "https://dc.lft.to/lastmile_qr_scan", "ios": "https://dc.lft.to/lastmile_qr_scan"}, "fusion_lon": 0.0, "lon": -77.0208945, "type": "electric_scooter", "fusion_lat": 0.0, "name": "5418217569acf384972e1bd8e96a2f89"}, {"lat": 38.915404333333335, "bike_id": "a6c35c170513573538fe213b03188f8d", "is_reserved": 0, "is_disabled": 0, "rental_uris": {"android": "https://dc.lft.to/lastmile_qr_scan", "ios": "https://dc.lft.to/lastmile_qr_scan"}, "fusion_lon": 0.0, "lon": -76.98361733333333, "type": "electric_scooter", "fusion_lat": 0.0, "name": "a6c35c170513573538fe213b03188f8d"}, {"lat": 38.9024525, "bike_id": "12a53a4b6bdf0558025091ffcfd4c47a", "is_reserved": 0, "is_disabled": 0, "rental_uris": {"android": "https://dc.lft.to/lastmile_qr_scan", "ios": "https://dc.lft.to/lastmile_qr_scan"}, "fusion_lon": 0.0, "lon": -77.01783383333333, "type": "electric_scooter", "fusion_lat": 0.0, "name": "12a53a4b6bdf0558025091ffcfd4c47a"}, {"lat": 38.954049, "bike_id": "96f281d2c9bb7646629cc4cf89ae549b", "is_reserved": 0, "is_disabled": 0, "rental_uris": {"android": "https://dc.lft.to/lastmile_qr_scan", "ios": "https://dc.lft.to/lastmile_qr_scan"}, "fusion_lon": 0.0, "lon": -77.02797933333333, "type": "electric_scooter", "fusion_lat": 0.0, "name": "96f281d2c9bb7646629cc4cf89ae549b"}, {"lat": 38.9040465, "bike_id": "ddfb3ad64601b006e349d5f991566dcc", "is_reserved": 0, "is_disabled": 0, "rental_uris": {"android": "https://dc.lft.to/lastmile_qr_scan", "ios": "https://dc.lft.to/lastmile_qr_scan"}, "fusion_lon": 0.0, "lon": -76.98111283333333, "type": "electric_scooter", "fusion_lat": 0.0, "name": "ddfb3ad64601b006e349d5f991566dcc"}, {"lat": 38.92219733333334, "bike_id": "d0965a756ebf211d5784cfda5c70013f", "is_reserved": 0, "is_disabled": 0, "rental_uris": {"android": "https://dc.lft.to/lastmile_qr_scan", "ios": "https://dc.lft.to/lastmile_qr_scan"}, "fusion_lon": 0.0, "lon": -77.04245666666667, "type": "electric_scooter", "fusion_lat": 0.0, "name": "d0965a756ebf211d5784cfda5c70013f"}, {"lat": 38.920637, "bike_id": "552d64eb1ed7e92c5d5354a2c8e9887b", "is_reserved": 0, "is_disabled": 0, "rental_uris": {"android": "https://dc.lft.to/lastmile_qr_scan", "ios": "https://dc.lft.to/lastmile_qr_scan"}, "fusion_lon": 0.0, "lon": -77.04543633333333, "type": "electric_scooter", "fusion_lat": 0.0, "name": "552d64eb1ed7e92c5d5354a2c8e9887b"}, {"lat": 38.90429066666667, "bike_id": "c4ff7a68c8225b5bf334f6b4cd119f22", "is_reserved": 0, "is_disabled": 0, "rental_uris": {"android": "https://dc.lft.to/lastmile_qr_scan", "ios": "https://dc.lft.to/lastmile_qr_scan"}, "fusion_lon": 0.0, "lon": -77.04346466666667, "type": "electric_scooter", "fusion_lat": 0.0, "name": "c4ff7a68c8225b5bf334f6b4cd119f22"}, {"lat": 38.908717833333334, "bike_id": "e9b8c8d9c2501bf88d6399ebcf3d54a3", "is_reserved": 0, "is_disabled": 0, "rental_uris": {"android": "https://dc.lft.to/lastmile_qr_scan", "ios": "https://dc.lft.to/lastmile_qr_scan"}, "fusion_lon": 0.0, "lon": -77.03851133333333, "type": "electric_scooter", "fusion_lat": 0.0, "name": "e9b8c8d9c2501bf88d6399ebcf3d54a3"}, {"lat": 38.90017066666667, "bike_id": "2a2fb6dedb0db371bbfbc3d428f0b7ef", "is_reserved": 0, "is_disabled": 0, "rental_uris": {"android": "https://dc.lft.to/lastmile_qr_scan", "ios": "https://dc.lft.to/lastmile_qr_scan"}, "fusion_lon": 0.0, "lon": -77.01160033333333, "type": "electric_scooter", "fusion_lat": 0.0, "name": "2a2fb6dedb0db371bbfbc3d428f0b7ef"}, {"lat": 38.88503883333333, "bike_id": "0938cf5a531fa25c47c72e2eeff3346c", "is_reserved": 0, "is_disabled": 0, "rental_uris": {"android": "https://dc.lft.to/lastmile_qr_scan", "ios": "https://dc.lft.to/lastmile_qr_scan"}, "fusion_lon": 0.0, "lon": -77.00566783333333, "type": "electric_scooter", "fusion_lat": 0.0, "name": "0938cf5a531fa25c47c72e2eeff3346c"}, {"lat": 38.8544865, "bike_id": "5aa90cf80f1a789e6b7a30d587098807", "is_reserved": 0, "is_disabled": 0, "rental_uris": {"android": "https://dc.lft.to/lastmile_qr_scan", "ios": "https://dc.lft.to/lastmile_qr_scan"}, "fusion_lon": 0.0, "lon": -76.97230466666667, "type": "electric_bike", "fusion_lat": 0.0, "name": "5aa90cf80f1a789e6b7a30d587098807"}, {"lat": 38.92344716666667, "bike_id": "58a3b5541a03119d9fda6b2fd92e40aa", "is_reserved": 0, "is_disabled": 0, "rental_uris": {"android": "https://dc.lft.to/lastmile_qr_scan", "ios": "https://dc.lft.to/lastmile_qr_scan"}, "fusion_lon": 0.0, "lon": -77.0349525, "type": "electric_scooter", "fusion_lat": 0.0, "name": "58a3b5541a03119d9fda6b2fd92e40aa"}, {"lat": 38.97441216666667, "bike_id": "7845cbe3c56a48d3fad5e7d846599ad7", "is_reserved": 0, "is_disabled": 0, "rental_uris": {"android": "https://dc.lft.to/lastmile_qr_scan", "ios": "https://dc.lft.to/lastmile_qr_scan"}, "fusion_lon": 0.0, "lon": -77.029892, "type": "electric_bike", "fusion_lat": 0.0, "name": "7845cbe3c56a48d3fad5e7d846599ad7"}, {"lat": 38.9267025, "bike_id": "abbe526f660d704cab7d6594410ceaee", "is_reserved": 0, "is_disabled": 0, "rental_uris": {"android": "https://dc.lft.to/lastmile_qr_scan", "ios": "https://dc.lft.to/lastmile_qr_scan"}, "fusion_lon": 0.0, "lon": -77.007752, "type": "electric_scooter", "fusion_lat": 0.0, "name": "abbe526f660d704cab7d6594410ceaee"}, {"lat": 38.910362, "bike_id": "712bd2eb019e324a8ab3fd0a1fcaa4d9", "is_reserved": 0, "is_disabled": 0, "rental_uris": {"android": "https://dc.lft.to/lastmile_qr_scan", "ios": "https://dc.lft.to/lastmile_qr_scan"}, "fusion_lon": 0.0, "lon": -77.04831266666666, "type": "electric_scooter", "fusion_lat": 0.0, "name": "712bd2eb019e324a8ab3fd0a1fcaa4d9"}, {"lat": 38.918099, "bike_id": "9ec49a478664e0927949a4805d187ebd", "is_reserved": 0, "is_disabled": 0, "rental_uris": {"android": "https://dc.lft.to/lastmile_qr_scan", "ios": "https://dc.lft.to/lastmile_qr_scan"}, "fusion_lon": 0.0, "lon": -77.036555, "type": "electric_scooter", "fusion_lat": 0.0, "name": "9ec49a478664e0927949a4805d187ebd"}, {"lat": 38.9279705, "bike_id": "f2785d9030ac478aaab933d61eb3d3e3", "is_reserved": 0, "is_disabled": 0, "rental_uris": {"android": "https://dc.lft.to/lastmile_qr_scan", "ios": "https://dc.lft.to/lastmile_qr_scan"}, "fusion_lon": 0.0, "lon": -77.053487, "type": "electric_scooter", "fusion_lat": 0.0, "name": "f2785d9030ac478aaab933d61eb3d3e3"}, {"lat": 38.900507833333336, "bike_id": "d1d66de99cbee2d360597ab91ea9e84b", "is_reserved": 0, "is_disabled": 0, "rental_uris": {"android": "https://dc.lft.to/lastmile_qr_scan", "ios": "https://dc.lft.to/lastmile_qr_scan"}, "fusion_lon": 0.0, "lon": -76.98287566666667, "type": "electric_scooter", "fusion_lat": 0.0, "name": "d1d66de99cbee2d360597ab91ea9e84b"}, {"lat": 38.93055783333333, "bike_id": "30c8babeca04fc4e3ad56b8ad6564f83", "is_reserved": 0, "is_disabled": 0, "rental_uris": {"android": "https://dc.lft.to/lastmile_qr_scan", "ios": "https://dc.lft.to/lastmile_qr_scan"}, "fusion_lon": 0.0, "lon": -77.01996966666667, "type": "electric_scooter", "fusion_lat": 0.0, "name": "30c8babeca04fc4e3ad56b8ad6564f83"}, {"lat": 38.90011416666667, "bike_id": "5edea40eb1ff922c1ac46354fc96165f", "is_reserved": 0, "is_disabled": 0, "rental_uris": {"android": "https://dc.lft.to/lastmile_qr_scan", "ios": "https://dc.lft.to/lastmile_qr_scan"}, "fusion_lon": 0.0, "lon": -77.04046683333333, "type": "electric_scooter", "fusion_lat": 0.0, "name": "5edea40eb1ff922c1ac46354fc96165f"}, {"lat": 38.9011955, "bike_id": "d4e5aad3f5ca5ae252bd863c17fff966", "is_reserved": 0, "is_disabled": 0, "rental_uris": {"android": "https://dc.lft.to/lastmile_qr_scan", "ios": "https://dc.lft.to/lastmile_qr_scan"}, "fusion_lon": 0.0, "lon": -77.048672, "type": "electric_scooter", "fusion_lat": 0.0, "name": "d4e5aad3f5ca5ae252bd863c17fff966"}, {"lat": 38.9286055, "bike_id": "bea86b0c6010df611c3a35cf94042007", "is_reserved": 0, "is_disabled": 0, "rental_uris": {"android": "https://dc.lft.to/lastmile_qr_scan", "ios": "https://dc.lft.to/lastmile_qr_scan"}, "fusion_lon": 0.0, "lon": -77.029547, "type": "electric_scooter", "fusion_lat": 0.0, "name": "bea86b0c6010df611c3a35cf94042007"}, {"lat": 38.9175795, "bike_id": "d102068e5e6cf87db2a0ec4a07c5b389", "is_reserved": 0, "is_disabled": 0, "rental_uris": {"android": "https://dc.lft.to/lastmile_qr_scan", "ios": "https://dc.lft.to/lastmile_qr_scan"}, "fusion_lon": 0.0, "lon": -77.03947383333333, "type": "electric_scooter", "fusion_lat": 0.0, "name": "d102068e5e6cf87db2a0ec4a07c5b389"}, {"lat": 38.9172405, "bike_id": "0f29c20c04ae712b8bf47591ebcdfaa3", "is_reserved": 0, "is_disabled": 0, "rental_uris": {"android": "https://dc.lft.to/lastmile_qr_scan", "ios": "https://dc.lft.to/lastmile_qr_scan"}, "fusion_lon": 0.0, "lon": -77.043988, "type": "electric_scooter", "fusion_lat": 0.0, "name": "0f29c20c04ae712b8bf47591ebcdfaa3"}, {"lat": 38.917022, "bike_id": "0fc801cb6498bcc2f45af0b478b3a57a", "is_reserved": 0, "is_disabled": 0, "rental_uris": {"android": "https://dc.lft.to/lastmile_qr_scan", "ios": "https://dc.lft.to/lastmile_qr_scan"}, "fusion_lon": 0.0, "lon": -77.0287985, "type": "electric_scooter", "fusion_lat": 0.0, "name": "0fc801cb6498bcc2f45af0b478b3a57a"}, {"lat": 38.907419, "bike_id": "babfe0a242183412665f5964b19268d1", "is_reserved": 0, "is_disabled": 0, "rental_uris": {"android": "https://dc.lft.to/lastmile_qr_scan", "ios": "https://dc.lft.to/lastmile_qr_scan"}, "fusion_lon": 0.0, "lon": -77.0049415, "type": "electric_scooter", "fusion_lat": 0.0, "name": "babfe0a242183412665f5964b19268d1"}, {"lat": 38.9336505, "bike_id": "83b2065317a99feb606b285a9b1c6999", "is_reserved": 0, "is_disabled": 0, "rental_uris": {"android": "https://dc.lft.to/lastmile_qr_scan", "ios": "https://dc.lft.to/lastmile_qr_scan"}, "fusion_lon": 0.0, "lon": -77.0412715, "type": "electric_scooter", "fusion_lat": 0.0, "name": "83b2065317a99feb606b285a9b1c6999"}, {"lat": 38.90399933333333, "bike_id": "dd33758045f81bad0b9c5456667f0bab", "is_reserved": 0, "is_disabled": 0, "rental_uris": {"android": "https://dc.lft.to/lastmile_qr_scan", "ios": "https://dc.lft.to/lastmile_qr_scan"}, "fusion_lon": 0.0, "lon": -77.04358983333333, "type": "electric_scooter", "fusion_lat": 0.0, "name": "dd33758045f81bad0b9c5456667f0bab"}, {"lat": 38.915535166666665, "bike_id": "202634008d9497caf99faa4d3b4d7d2e", "is_reserved": 0, "is_disabled": 0, "rental_uris": {"android": "https://dc.lft.to/lastmile_qr_scan", "ios": "https://dc.lft.to/lastmile_qr_scan"}, "fusion_lon": 0.0, "lon": -77.04629466666667, "type": "electric_scooter", "fusion_lat": 0.0, "name": "202634008d9497caf99faa4d3b4d7d2e"}, {"lat": 38.91789083333333, "bike_id": "0d4198ee9ea46451db251d28993428c0", "is_reserved": 0, "is_disabled": 0, "rental_uris": {"android": "https://dc.lft.to/lastmile_qr_scan", "ios": "https://dc.lft.to/lastmile_qr_scan"}, "fusion_lon": 0.0, "lon": -77.03201066666666, "type": "electric_scooter", "fusion_lat": 0.0, "name": "0d4198ee9ea46451db251d28993428c0"}, {"lat": 38.90455, "bike_id": "3dc15cdaefa9b62112ac9127a9802270", "is_reserved": 0, "is_disabled": 0, "rental_uris": {"android": "https://dc.lft.to/lastmile_qr_scan", "ios": "https://dc.lft.to/lastmile_qr_scan"}, "fusion_lon": 0.0, "lon": -77.04025633333333, "type": "electric_scooter", "fusion_lat": 0.0, "name": "3dc15cdaefa9b62112ac9127a9802270"}, {"lat": 38.899718666666665, "bike_id": "2ddd22785f426ef635249ae11c7a286f", "is_reserved": 0, "is_disabled": 0, "rental_uris": {"android": "https://dc.lft.to/lastmile_qr_scan", "ios": "https://dc.lft.to/lastmile_qr_scan"}, "fusion_lon": 0.0, "lon": -77.0309325, "type": "electric_scooter", "fusion_lat": 0.0, "name": "2ddd22785f426ef635249ae11c7a286f"}, {"lat": 38.8326575, "bike_id": "5f142ba31c27d1e724f0b561f5df4b84", "is_reserved": 0, "is_disabled": 0, "rental_uris": {"android": "https://dc.lft.to/lastmile_qr_scan", "ios": "https://dc.lft.to/lastmile_qr_scan"}, "fusion_lon": 0.0, "lon": -77.00630316666667, "type": "electric_scooter", "fusion_lat": 0.0, "name": "5f142ba31c27d1e724f0b561f5df4b84"}, {"lat": 38.900327833333336, "bike_id": "42d272963b20888b8cc820256b4e4991", "is_reserved": 0, "is_disabled": 0, "rental_uris": {"android": "https://dc.lft.to/lastmile_qr_scan", "ios": "https://dc.lft.to/lastmile_qr_scan"}, "fusion_lon": 0.0, "lon": -77.04672266666667, "type": "electric_scooter", "fusion_lat": 0.0, "name": "42d272963b20888b8cc820256b4e4991"}, {"lat": 38.89655183333333, "bike_id": "f14492e27da082f037223c5ee22970f4", "is_reserved": 0, "is_disabled": 0, "rental_uris": {"android": "https://dc.lft.to/lastmile_qr_scan", "ios": "https://dc.lft.to/lastmile_qr_scan"}, "fusion_lon": 0.0, "lon": -77.025794, "type": "electric_scooter", "fusion_lat": 0.0, "name": "f14492e27da082f037223c5ee22970f4"}, {"lat": 38.918084666666665, "bike_id": "6c61451d0e49b6f44a27a92db4c429ce", "is_reserved": 0, "is_disabled": 0, "rental_uris": {"android": "https://dc.lft.to/lastmile_qr_scan", "ios": "https://dc.lft.to/lastmile_qr_scan"}, "fusion_lon": 0.0, "lon": -77.03440683333334, "type": "electric_scooter", "fusion_lat": 0.0, "name": "6c61451d0e49b6f44a27a92db4c429ce"}, {"lat": 38.92423683333333, "bike_id": "94618c10b12b321dc1edbf9048a379b2", "is_reserved": 0, "is_disabled": 0, "rental_uris": {"android": "https://dc.lft.to/lastmile_qr_scan", "ios": "https://dc.lft.to/lastmile_qr_scan"}, "fusion_lon": 0.0, "lon": -77.04553566666667, "type": "electric_scooter", "fusion_lat": 0.0, "name": "94618c10b12b321dc1edbf9048a379b2"}, {"lat": 38.89493916666667, "bike_id": "05d150749b769f76b081d2a9fa5c4a0c", "is_reserved": 0, "is_disabled": 0, "rental_uris": {"android": "https://dc.lft.to/lastmile_qr_scan", "ios": "https://dc.lft.to/lastmile_qr_scan"}, "fusion_lon": 0.0, "lon": -77.0029475, "type": "electric_scooter", "fusion_lat": 0.0, "name": "05d150749b769f76b081d2a9fa5c4a0c"}, {"lat": 38.90361566666667, "bike_id": "b3f1dac02e40a036258abcf471e113e3", "is_reserved": 0, "is_disabled": 0, "rental_uris": {"android": "https://dc.lft.to/lastmile_qr_scan", "ios": "https://dc.lft.to/lastmile_qr_scan"}, "fusion_lon": 0.0, "lon": -77.03719333333333, "type": "electric_scooter", "fusion_lat": 0.0, "name": "b3f1dac02e40a036258abcf471e113e3"}, {"lat": 38.8669935, "bike_id": "6726d1be942274f0ca759672e3f6fc9f", "is_reserved": 0, "is_disabled": 0, "rental_uris": {"android": "https://dc.lft.to/lastmile_qr_scan", "ios": "https://dc.lft.to/lastmile_qr_scan"}, "fusion_lon": 0.0, "lon": -76.9840025, "type": "electric_scooter", "fusion_lat": 0.0, "name": "6726d1be942274f0ca759672e3f6fc9f"}, {"lat": 38.901529333333336, "bike_id": "73dc5052122173dbdd96b9813186ec1a", "is_reserved": 0, "is_disabled": 0, "rental_uris": {"android": "https://dc.lft.to/lastmile_qr_scan", "ios": "https://dc.lft.to/lastmile_qr_scan"}, "fusion_lon": 0.0, "lon": -76.93059366666667, "type": "electric_scooter", "fusion_lat": 0.0, "name": "73dc5052122173dbdd96b9813186ec1a"}, {"lat": 38.90203783333333, "bike_id": "e7540a5a6c8792126b9d793755e06b66", "is_reserved": 0, "is_disabled": 0, "rental_uris": {"android": "https://dc.lft.to/lastmile_qr_scan", "ios": "https://dc.lft.to/lastmile_qr_scan"}, "fusion_lon": 0.0, "lon": -77.04344866666666, "type": "electric_scooter", "fusion_lat": 0.0, "name": "e7540a5a6c8792126b9d793755e06b66"}, {"lat": 38.848178833333336, "bike_id": "ffb4e79f04ba9822c9cee73ba4eea285", "is_reserved": 0, "is_disabled": 0, "rental_uris": {"android": "https://dc.lft.to/lastmile_qr_scan", "ios": "https://dc.lft.to/lastmile_qr_scan"}, "fusion_lon": 0.0, "lon": -77.08458333333333, "type": "electric_bike", "fusion_lat": 0.0, "name": "ffb4e79f04ba9822c9cee73ba4eea285"}, {"lat": 38.92676266666667, "bike_id": "98a3902383fd3c1fa6b4ddcbe30b594d", "is_reserved": 0, "is_disabled": 0, "rental_uris": {"android": "https://dc.lft.to/lastmile_qr_scan", "ios": "https://dc.lft.to/lastmile_qr_scan"}, "fusion_lon": 0.0, "lon": -77.007678, "type": "electric_scooter", "fusion_lat": 0.0, "name": "98a3902383fd3c1fa6b4ddcbe30b594d"}, {"lat": 38.94090516666667, "bike_id": "c90eb73fbb7099931cbd5a85869b2d91", "is_reserved": 0, "is_disabled": 0, "rental_uris": {"android": "https://dc.lft.to/lastmile_qr_scan", "ios": "https://dc.lft.to/lastmile_qr_scan"}, "fusion_lon": 0.0, "lon": -77.02319366666667, "type": "electric_scooter", "fusion_lat": 0.0, "name": "c90eb73fbb7099931cbd5a85869b2d91"}, {"lat": 38.893514333333336, "bike_id": "55808bddb84e430ee3a1762c017ada37", "is_reserved": 0, "is_disabled": 0, "rental_uris": {"android": "https://dc.lft.to/lastmile_qr_scan", "ios": "https://dc.lft.to/lastmile_qr_scan"}, "fusion_lon": 0.0, "lon": -77.1873915, "type": "electric_bike", "fusion_lat": 0.0, "name": "55808bddb84e430ee3a1762c017ada37"}, {"lat": 38.9025335, "bike_id": "1b182a71dafa3c8c2719cdeba6933096", "is_reserved": 0, "is_disabled": 0, "rental_uris": {"android": "https://dc.lft.to/lastmile_qr_scan", "ios": "https://dc.lft.to/lastmile_qr_scan"}, "fusion_lon": 0.0, "lon": -77.02676033333333, "type": "electric_scooter", "fusion_lat": 0.0, "name": "1b182a71dafa3c8c2719cdeba6933096"}, {"lat": 38.901574, "bike_id": "b0512236f09df29d0d97f367f8f83f9d", "is_reserved": 0, "is_disabled": 0, "rental_uris": {"android": "https://dc.lft.to/lastmile_qr_scan", "ios": "https://dc.lft.to/lastmile_qr_scan"}, "fusion_lon": 0.0, "lon": -77.02600666666666, "type": "electric_scooter", "fusion_lat": 0.0, "name": "b0512236f09df29d0d97f367f8f83f9d"}, {"lat": 38.915515, "bike_id": "13356e99db61a20cb2e63c3c0ccaeaf5", "is_reserved": 0, "is_disabled": 0, "rental_uris": {"android": "https://dc.lft.to/lastmile_qr_scan", "ios": "https://dc.lft.to/lastmile_qr_scan"}, "fusion_lon": 0.0, "lon": -77.03171366666666, "type": "electric_scooter", "fusion_lat": 0.0, "name": "13356e99db61a20cb2e63c3c0ccaeaf5"}, {"lat": 38.89963483333333, "bike_id": "2c2719085bcb50aff683294bd752c555", "is_reserved": 0, "is_disabled": 0, "rental_uris": {"android": "https://dc.lft.to/lastmile_qr_scan", "ios": "https://dc.lft.to/lastmile_qr_scan"}, "fusion_lon": 0.0, "lon": -77.051177, "type": "electric_scooter", "fusion_lat": 0.0, "name": "2c2719085bcb50aff683294bd752c555"}, {"lat": 38.87928983333333, "bike_id": "bcd13761be1a2c33cb36011dd972b7b5", "is_reserved": 0, "is_disabled": 0, "rental_uris": {"android": "https://dc.lft.to/lastmile_qr_scan", "ios": "https://dc.lft.to/lastmile_qr_scan"}, "fusion_lon": 0.0, "lon": -77.01329416666667, "type": "electric_scooter", "fusion_lat": 0.0, "name": "bcd13761be1a2c33cb36011dd972b7b5"}, {"lat": 38.907159666666665, "bike_id": "dbf07ff5eb216b712207ca0441c940f0", "is_reserved": 0, "is_disabled": 0, "rental_uris": {"android": "https://dc.lft.to/lastmile_qr_scan", "ios": "https://dc.lft.to/lastmile_qr_scan"}, "fusion_lon": 0.0, "lon": -77.02985466666667, "type": "electric_scooter", "fusion_lat": 0.0, "name": "dbf07ff5eb216b712207ca0441c940f0"}, {"lat": 38.93694266666667, "bike_id": "331161c50cf595b3454299368eded8c6", "is_reserved": 0, "is_disabled": 0, "rental_uris": {"android": "https://dc.lft.to/lastmile_qr_scan", "ios": "https://dc.lft.to/lastmile_qr_scan"}, "fusion_lon": 0.0, "lon": -77.0271425, "type": "electric_scooter", "fusion_lat": 0.0, "name": "331161c50cf595b3454299368eded8c6"}, {"lat": 38.93754766666667, "bike_id": "31b62e39265426f0af023d9c16cec518", "is_reserved": 0, "is_disabled": 0, "rental_uris": {"android": "https://dc.lft.to/lastmile_qr_scan", "ios": "https://dc.lft.to/lastmile_qr_scan"}, "fusion_lon": 0.0, "lon": -77.02425166666667, "type": "electric_scooter", "fusion_lat": 0.0, "name": "31b62e39265426f0af023d9c16cec518"}, {"lat": 38.89726533333334, "bike_id": "4e779d23bbd53e25d6289e286f7d4bdc", "is_reserved": 0, "is_disabled": 0, "rental_uris": {"android": "https://dc.lft.to/lastmile_qr_scan", "ios": "https://dc.lft.to/lastmile_qr_scan"}, "fusion_lon": 0.0, "lon": -77.02164816666667, "type": "electric_scooter", "fusion_lat": 0.0, "name": "4e779d23bbd53e25d6289e286f7d4bdc"}, {"lat": 38.85551866666667, "bike_id": "178972a2ed14e7e3cf6a6880f6f30fd2", "is_reserved": 0, "is_disabled": 0, "rental_uris": {"android": "https://dc.lft.to/lastmile_qr_scan", "ios": "https://dc.lft.to/lastmile_qr_scan"}, "fusion_lon": 0.0, "lon": -77.10713233333334, "type": "electric_bike", "fusion_lat": 0.0, "name": "178972a2ed14e7e3cf6a6880f6f30fd2"}, {"lat": 38.9214015, "bike_id": "17d33f9854e91c5bd433687cb1b63bdf", "is_reserved": 0, "is_disabled": 0, "rental_uris": {"android": "https://dc.lft.to/lastmile_qr_scan", "ios": "https://dc.lft.to/lastmile_qr_scan"}, "fusion_lon": 0.0, "lon": -77.02842333333334, "type": "electric_bike", "fusion_lat": 0.0, "name": "17d33f9854e91c5bd433687cb1b63bdf"}, {"lat": 38.909782666666665, "bike_id": "61969ba29c43a55e927c34e3628a85f7", "is_reserved": 0, "is_disabled": 0, "rental_uris": {"android": "https://dc.lft.to/lastmile_qr_scan", "ios": "https://dc.lft.to/lastmile_qr_scan"}, "fusion_lon": 0.0, "lon": -77.027004, "type": "electric_scooter", "fusion_lat": 0.0, "name": "61969ba29c43a55e927c34e3628a85f7"}, {"lat": 38.901302666666666, "bike_id": "bffd2d10509e4f7b17bcb20a5cfc6ac2", "is_reserved": 0, "is_disabled": 0, "rental_uris": {"android": "https://dc.lft.to/lastmile_qr_scan", "ios": "https://dc.lft.to/lastmile_qr_scan"}, "fusion_lon": 0.0, "lon": -77.02193333333334, "type": "electric_scooter", "fusion_lat": 0.0, "name": "bffd2d10509e4f7b17bcb20a5cfc6ac2"}, {"lat": 38.8766675, "bike_id": "7e7cdc6d44479a77b072ff5bea9bc571", "is_reserved": 0, "is_disabled": 0, "rental_uris": {"android": "https://dc.lft.to/lastmile_qr_scan", "ios": "https://dc.lft.to/lastmile_qr_scan"}, "fusion_lon": 0.0, "lon": -77.00444133333333, "type": "electric_scooter", "fusion_lat": 0.0, "name": "7e7cdc6d44479a77b072ff5bea9bc571"}, {"lat": 38.91131466666667, "bike_id": "9d4323784c501fef7662c10b71f3bec7", "is_reserved": 0, "is_disabled": 0, "rental_uris": {"android": "https://dc.lft.to/lastmile_qr_scan", "ios": "https://dc.lft.to/lastmile_qr_scan"}, "fusion_lon": 0.0, "lon": -77.0269425, "type": "electric_scooter", "fusion_lat": 0.0, "name": "9d4323784c501fef7662c10b71f3bec7"}, {"lat": 38.9021695, "bike_id": "a32d5adccd89340ab45f4997b5df6972", "is_reserved": 0, "is_disabled": 0, "rental_uris": {"android": "https://dc.lft.to/lastmile_qr_scan", "ios": "https://dc.lft.to/lastmile_qr_scan"}, "fusion_lon": 0.0, "lon": -77.04698366666666, "type": "electric_scooter", "fusion_lat": 0.0, "name": "a32d5adccd89340ab45f4997b5df6972"}, {"lat": 38.8576235, "bike_id": "38f13cd03ca0b8b16b9d004bc37d708f", "is_reserved": 0, "is_disabled": 0, "rental_uris": {"android": "https://dc.lft.to/lastmile_qr_scan", "ios": "https://dc.lft.to/lastmile_qr_scan"}, "fusion_lon": 0.0, "lon": -76.9876135, "type": "electric_bike", "fusion_lat": 0.0, "name": "38f13cd03ca0b8b16b9d004bc37d708f"}, {"lat": 38.91425183333333, "bike_id": "45e52faaf8bcecddb2b95e311ea2ca6a", "is_reserved": 0, "is_disabled": 0, "rental_uris": {"android": "https://dc.lft.to/lastmile_qr_scan", "ios": "https://dc.lft.to/lastmile_qr_scan"}, "fusion_lon": 0.0, "lon": -77.032455, "type": "electric_scooter", "fusion_lat": 0.0, "name": "45e52faaf8bcecddb2b95e311ea2ca6a"}, {"lat": 38.92139783333333, "bike_id": "fd7d1e21324ada1359e2c30d375328f8", "is_reserved": 0, "is_disabled": 0, "rental_uris": {"android": "https://dc.lft.to/lastmile_qr_scan", "ios": "https://dc.lft.to/lastmile_qr_scan"}, "fusion_lon": 0.0, "lon": -77.04476566666666, "type": "electric_scooter", "fusion_lat": 0.0, "name": "fd7d1e21324ada1359e2c30d375328f8"}, {"lat": 38.9207935, "bike_id": "fb9975b065416ce1a6aa4fbfd4316f9e", "is_reserved": 0, "is_disabled": 0, "rental_uris": {"android": "https://dc.lft.to/lastmile_qr_scan", "ios": "https://dc.lft.to/lastmile_qr_scan"}, "fusion_lon": 0.0, "lon": -77.00452516666667, "type": "electric_scooter", "fusion_lat": 0.0, "name": "fb9975b065416ce1a6aa4fbfd4316f9e"}, {"lat": 38.931483666666665, "bike_id": "08649994251f17f29b24b77ee4e4195f", "is_reserved": 0, "is_disabled": 0, "rental_uris": {"android": "https://dc.lft.to/lastmile_qr_scan", "ios": "https://dc.lft.to/lastmile_qr_scan"}, "fusion_lon": 0.0, "lon": -77.03959433333333, "type": "electric_scooter", "fusion_lat": 0.0, "name": "08649994251f17f29b24b77ee4e4195f"}, {"lat": 38.916920166666664, "bike_id": "7b386dfb5e8ae67539ccbb6e0c4d566b", "is_reserved": 0, "is_disabled": 0, "rental_uris": {"android": "https://dc.lft.to/lastmile_qr_scan", "ios": "https://dc.lft.to/lastmile_qr_scan"}, "fusion_lon": 0.0, "lon": -77.0372375, "type": "electric_scooter", "fusion_lat": 0.0, "name": "7b386dfb5e8ae67539ccbb6e0c4d566b"}, {"lat": 38.92878616666667, "bike_id": "e72a9968f2f950eea51946dbf8242151", "is_reserved": 0, "is_disabled": 0, "rental_uris": {"android": "https://dc.lft.to/lastmile_qr_scan", "ios": "https://dc.lft.to/lastmile_qr_scan"}, "fusion_lon": 0.0, "lon": -77.03314966666667, "type": "electric_scooter", "fusion_lat": 0.0, "name": "e72a9968f2f950eea51946dbf8242151"}, {"lat": 38.889591333333335, "bike_id": "cdaf7d379a4a4ed9418f0ee08c511604", "is_reserved": 0, "is_disabled": 0, "rental_uris": {"android": "https://dc.lft.to/lastmile_qr_scan", "ios": "https://dc.lft.to/lastmile_qr_scan"}, "fusion_lon": 0.0, "lon": -76.937236, "type": "electric_scooter", "fusion_lat": 0.0, "name": "cdaf7d379a4a4ed9418f0ee08c511604"}, {"lat": 38.9245755, "bike_id": "d71e26a2b43dd089d88794e69df63425", "is_reserved": 0, "is_disabled": 0, "rental_uris": {"android": "https://dc.lft.to/lastmile_qr_scan", "ios": "https://dc.lft.to/lastmile_qr_scan"}, "fusion_lon": 0.0, "lon": -76.99911183333333, "type": "electric_scooter", "fusion_lat": 0.0, "name": "d71e26a2b43dd089d88794e69df63425"}, {"lat": 38.901687333333335, "bike_id": "e2dd4933c69eebd87240ccfbf43d76a0", "is_reserved": 0, "is_disabled": 0, "rental_uris": {"android": "https://dc.lft.to/lastmile_qr_scan", "ios": "https://dc.lft.to/lastmile_qr_scan"}, "fusion_lon": 0.0, "lon": -77.04785283333334, "type": "electric_scooter", "fusion_lat": 0.0, "name": "e2dd4933c69eebd87240ccfbf43d76a0"}, {"lat": 38.92376633333333, "bike_id": "3c2b9b8fb2fce218c145270472a84cde", "is_reserved": 0, "is_disabled": 0, "rental_uris": {"android": "https://dc.lft.to/lastmile_qr_scan", "ios": "https://dc.lft.to/lastmile_qr_scan"}, "fusion_lon": 0.0, "lon": -77.01914383333333, "type": "electric_scooter", "fusion_lat": 0.0, "name": "3c2b9b8fb2fce218c145270472a84cde"}, {"lat": 38.91554283333333, "bike_id": "7ddf1afc0c18db637dfe6ac3dd5245ab", "is_reserved": 0, "is_disabled": 0, "rental_uris": {"android": "https://dc.lft.to/lastmile_qr_scan", "ios": "https://dc.lft.to/lastmile_qr_scan"}, "fusion_lon": 0.0, "lon": -77.03172733333334, "type": "electric_scooter", "fusion_lat": 0.0, "name": "7ddf1afc0c18db637dfe6ac3dd5245ab"}, {"lat": 38.90385, "bike_id": "53856ee67122bd1cc7889b0e20dd037c", "is_reserved": 0, "is_disabled": 0, "rental_uris": {"android": "https://dc.lft.to/lastmile_qr_scan", "ios": "https://dc.lft.to/lastmile_qr_scan"}, "fusion_lon": 0.0, "lon": -77.051511, "type": "electric_scooter", "fusion_lat": 0.0, "name": "53856ee67122bd1cc7889b0e20dd037c"}, {"lat": 38.92910216666667, "bike_id": "44b795ec1ece1a816c98062302850a0f", "is_reserved": 0, "is_disabled": 0, "rental_uris": {"android": "https://dc.lft.to/lastmile_qr_scan", "ios": "https://dc.lft.to/lastmile_qr_scan"}, "fusion_lon": 0.0, "lon": -77.0741465, "type": "electric_scooter", "fusion_lat": 0.0, "name": "44b795ec1ece1a816c98062302850a0f"}, {"lat": 38.917912, "bike_id": "5484fdaa1b97e5752dd6571b1b4ab6a0", "is_reserved": 0, "is_disabled": 0, "rental_uris": {"android": "https://dc.lft.to/lastmile_qr_scan", "ios": "https://dc.lft.to/lastmile_qr_scan"}, "fusion_lon": 0.0, "lon": -76.97186283333333, "type": "electric_bike", "fusion_lat": 0.0, "name": "5484fdaa1b97e5752dd6571b1b4ab6a0"}, {"lat": 38.88108316666667, "bike_id": "c70d0b676eb7b8a3dee94e8b0be30119", "is_reserved": 0, "is_disabled": 0, "rental_uris": {"android": "https://dc.lft.to/lastmile_qr_scan", "ios": "https://dc.lft.to/lastmile_qr_scan"}, "fusion_lon": 0.0, "lon": -77.04294833333333, "type": "electric_scooter", "fusion_lat": 0.0, "name": "c70d0b676eb7b8a3dee94e8b0be30119"}, {"lat": 38.86170833333333, "bike_id": "ec289a7590732a3e865d73e8a86e3a35", "is_reserved": 0, "is_disabled": 0, "rental_uris": {"android": "https://dc.lft.to/lastmile_qr_scan", "ios": "https://dc.lft.to/lastmile_qr_scan"}, "fusion_lon": 0.0, "lon": -77.13147533333333, "type": "electric_bike", "fusion_lat": 0.0, "name": "ec289a7590732a3e865d73e8a86e3a35"}, {"lat": 38.923233333333336, "bike_id": "23742b0b345049050f5ca1f3b6e9877f", "is_reserved": 0, "is_disabled": 0, "rental_uris": {"android": "https://dc.lft.to/lastmile_qr_scan", "ios": "https://dc.lft.to/lastmile_qr_scan"}, "fusion_lon": 0.0, "lon": -77.021393, "type": "electric_scooter", "fusion_lat": 0.0, "name": "23742b0b345049050f5ca1f3b6e9877f"}, {"lat": 38.90319683333333, "bike_id": "f9d332f8f78699444360864fb1a3cfb3", "is_reserved": 0, "is_disabled": 0, "rental_uris": {"android": "https://dc.lft.to/lastmile_qr_scan", "ios": "https://dc.lft.to/lastmile_qr_scan"}, "fusion_lon": 0.0, "lon": -77.0519195, "type": "electric_scooter", "fusion_lat": 0.0, "name": "f9d332f8f78699444360864fb1a3cfb3"}, {"lat": 38.894686666666665, "bike_id": "37f56d0503d22ff88864c68b028fc0ba", "is_reserved": 0, "is_disabled": 0, "rental_uris": {"android": "https://dc.lft.to/lastmile_qr_scan", "ios": "https://dc.lft.to/lastmile_qr_scan"}, "fusion_lon": 0.0, "lon": -77.03114883333333, "type": "electric_scooter", "fusion_lat": 0.0, "name": "37f56d0503d22ff88864c68b028fc0ba"}, {"lat": 38.93656566666667, "bike_id": "cd1d4372bc34390aa0c5aa0264991f5c", "is_reserved": 0, "is_disabled": 0, "rental_uris": {"android": "https://dc.lft.to/lastmile_qr_scan", "ios": "https://dc.lft.to/lastmile_qr_scan"}, "fusion_lon": 0.0, "lon": -77.05504333333333, "type": "electric_scooter", "fusion_lat": 0.0, "name": "cd1d4372bc34390aa0c5aa0264991f5c"}, {"lat": 38.91720333333333, "bike_id": "287864bf51b6287dd37eb2f8dbc239f1", "is_reserved": 0, "is_disabled": 0, "rental_uris": {"android": "https://dc.lft.to/lastmile_qr_scan", "ios": "https://dc.lft.to/lastmile_qr_scan"}, "fusion_lon": 0.0, "lon": -77.02906716666666, "type": "electric_scooter", "fusion_lat": 0.0, "name": "287864bf51b6287dd37eb2f8dbc239f1"}, {"lat": 38.8927425, "bike_id": "f49b83ec0c3b6c06a6441b20de31e4f2", "is_reserved": 0, "is_disabled": 0, "rental_uris": {"android": "https://dc.lft.to/lastmile_qr_scan", "ios": "https://dc.lft.to/lastmile_qr_scan"}, "fusion_lon": 0.0, "lon": -77.04874783333334, "type": "electric_scooter", "fusion_lat": 0.0, "name": "f49b83ec0c3b6c06a6441b20de31e4f2"}, {"lat": 38.9059775, "bike_id": "ec2a349d747bfcb9982610907e0cd534", "is_reserved": 0, "is_disabled": 0, "rental_uris": {"android": "https://dc.lft.to/lastmile_qr_scan", "ios": "https://dc.lft.to/lastmile_qr_scan"}, "fusion_lon": 0.0, "lon": -77.04124616666667, "type": "electric_scooter", "fusion_lat": 0.0, "name": "ec2a349d747bfcb9982610907e0cd534"}, {"lat": 38.91000416666667, "bike_id": "d9a78e920ac2fabeeb98b5082bcb51c0", "is_reserved": 0, "is_disabled": 0, "rental_uris": {"android": "https://dc.lft.to/lastmile_qr_scan", "ios": "https://dc.lft.to/lastmile_qr_scan"}, "fusion_lon": 0.0, "lon": -77.049312, "type": "electric_scooter", "fusion_lat": 0.0, "name": "d9a78e920ac2fabeeb98b5082bcb51c0"}, {"lat": 38.99333016666667, "bike_id": "f6fe1d6f622a3120a3e8e4d5107c2b5d", "is_reserved": 0, "is_disabled": 0, "rental_uris": {"android": "https://dc.lft.to/lastmile_qr_scan", "ios": "https://dc.lft.to/lastmile_qr_scan"}, "fusion_lon": 0.0, "lon": -77.115674, "type": "electric_bike", "fusion_lat": 0.0, "name": "f6fe1d6f622a3120a3e8e4d5107c2b5d"}, {"lat": 38.97497833333333, "bike_id": "45a920179c2dc657e8b283b7e6cdbf1c", "is_reserved": 0, "is_disabled": 0, "rental_uris": {"android": "https://dc.lft.to/lastmile_qr_scan", "ios": "https://dc.lft.to/lastmile_qr_scan"}, "fusion_lon": 0.0, "lon": -77.01691766666667, "type": "electric_scooter", "fusion_lat": 0.0, "name": "45a920179c2dc657e8b283b7e6cdbf1c"}, {"lat": 38.86666116666667, "bike_id": "0a50e775c87552ba0dae0fce7d9f32c6", "is_reserved": 0, "is_disabled": 0, "rental_uris": {"android": "https://dc.lft.to/lastmile_qr_scan", "ios": "https://dc.lft.to/lastmile_qr_scan"}, "fusion_lon": 0.0, "lon": -76.988804, "type": "electric_scooter", "fusion_lat": 0.0, "name": "0a50e775c87552ba0dae0fce7d9f32c6"}, {"lat": 38.89473, "bike_id": "eb3439d6c8a1615af014b29390deaf13", "is_reserved": 0, "is_disabled": 0, "rental_uris": {"android": "https://dc.lft.to/lastmile_qr_scan", "ios": "https://dc.lft.to/lastmile_qr_scan"}, "fusion_lon": 0.0, "lon": -77.0128735, "type": "electric_scooter", "fusion_lat": 0.0, "name": "eb3439d6c8a1615af014b29390deaf13"}, {"lat": 38.89769283333333, "bike_id": "dda4b626c3e3bb21c71b169a012a7a6d", "is_reserved": 0, "is_disabled": 0, "rental_uris": {"android": "https://dc.lft.to/lastmile_qr_scan", "ios": "https://dc.lft.to/lastmile_qr_scan"}, "fusion_lon": 0.0, "lon": -77.0300895, "type": "electric_scooter", "fusion_lat": 0.0, "name": "dda4b626c3e3bb21c71b169a012a7a6d"}, {"lat": 38.87742033333333, "bike_id": "6501b9597d4166183ca7058bcac42de4", "is_reserved": 0, "is_disabled": 0, "rental_uris": {"android": "https://dc.lft.to/lastmile_qr_scan", "ios": "https://dc.lft.to/lastmile_qr_scan"}, "fusion_lon": 0.0, "lon": -77.00813716666667, "type": "electric_scooter", "fusion_lat": 0.0, "name": "6501b9597d4166183ca7058bcac42de4"}, {"lat": 38.923149333333335, "bike_id": "fefa5f809a78d7fa1f808fcb78fff6c0", "is_reserved": 0, "is_disabled": 0, "rental_uris": {"android": "https://dc.lft.to/lastmile_qr_scan", "ios": "https://dc.lft.to/lastmile_qr_scan"}, "fusion_lon": 0.0, "lon": -77.045187, "type": "electric_scooter", "fusion_lat": 0.0, "name": "fefa5f809a78d7fa1f808fcb78fff6c0"}, {"lat": 38.9565255, "bike_id": "436bc7415afe2e285e2b6372137dad03", "is_reserved": 0, "is_disabled": 0, "rental_uris": {"android": "https://dc.lft.to/lastmile_qr_scan", "ios": "https://dc.lft.to/lastmile_qr_scan"}, "fusion_lon": 0.0, "lon": -77.01964983333333, "type": "electric_scooter", "fusion_lat": 0.0, "name": "436bc7415afe2e285e2b6372137dad03"}, {"lat": 38.92330716666667, "bike_id": "54d8d4ac7c16f0fc2a956f177ae4c310", "is_reserved": 0, "is_disabled": 0, "rental_uris": {"android": "https://dc.lft.to/lastmile_qr_scan", "ios": "https://dc.lft.to/lastmile_qr_scan"}, "fusion_lon": 0.0, "lon": -77.0462185, "type": "electric_scooter", "fusion_lat": 0.0, "name": "54d8d4ac7c16f0fc2a956f177ae4c310"}, {"lat": 38.916417833333334, "bike_id": "a979856cffd4d058667d5d671a60aaba", "is_reserved": 0, "is_disabled": 0, "rental_uris": {"android": "https://dc.lft.to/lastmile_qr_scan", "ios": "https://dc.lft.to/lastmile_qr_scan"}, "fusion_lon": 0.0, "lon": -77.0320575, "type": "electric_scooter", "fusion_lat": 0.0, "name": "a979856cffd4d058667d5d671a60aaba"}, {"lat": 38.918114333333335, "bike_id": "15edffb543a35a35e14f2e721248f216", "is_reserved": 0, "is_disabled": 0, "rental_uris": {"android": "https://dc.lft.to/lastmile_qr_scan", "ios": "https://dc.lft.to/lastmile_qr_scan"}, "fusion_lon": 0.0, "lon": -77.02710216666667, "type": "electric_scooter", "fusion_lat": 0.0, "name": "15edffb543a35a35e14f2e721248f216"}, {"lat": 38.921234, "bike_id": "a6d88d95e5322276cb9a64f38c7751d3", "is_reserved": 0, "is_disabled": 0, "rental_uris": {"android": "https://dc.lft.to/lastmile_qr_scan", "ios": "https://dc.lft.to/lastmile_qr_scan"}, "fusion_lon": 0.0, "lon": -77.04413933333333, "type": "electric_scooter", "fusion_lat": 0.0, "name": "a6d88d95e5322276cb9a64f38c7751d3"}, {"lat": 38.907543833333335, "bike_id": "bea61ea589402942220863410a21d358", "is_reserved": 0, "is_disabled": 0, "rental_uris": {"android": "https://dc.lft.to/lastmile_qr_scan", "ios": "https://dc.lft.to/lastmile_qr_scan"}, "fusion_lon": 0.0, "lon": -77.00135366666666, "type": "electric_scooter", "fusion_lat": 0.0, "name": "bea61ea589402942220863410a21d358"}, {"lat": 38.8568875, "bike_id": "6e3891ee5940ac1ac056be719a7d1714", "is_reserved": 0, "is_disabled": 0, "rental_uris": {"android": "https://dc.lft.to/lastmile_qr_scan", "ios": "https://dc.lft.to/lastmile_qr_scan"}, "fusion_lon": 0.0, "lon": -76.99593933333334, "type": "electric_scooter", "fusion_lat": 0.0, "name": "6e3891ee5940ac1ac056be719a7d1714"}, {"lat": 38.91944633333333, "bike_id": "fd43311a768285690d9748743d41b191", "is_reserved": 0, "is_disabled": 0, "rental_uris": {"android": "https://dc.lft.to/lastmile_qr_scan", "ios": "https://dc.lft.to/lastmile_qr_scan"}, "fusion_lon": 0.0, "lon": -77.0796955, "type": "electric_scooter", "fusion_lat": 0.0, "name": "fd43311a768285690d9748743d41b191"}, {"lat": 38.9180325, "bike_id": "b7a3338a95fa10c1b2ca7e98ebed56ab", "is_reserved": 0, "is_disabled": 0, "rental_uris": {"android": "https://dc.lft.to/lastmile_qr_scan", "ios": "https://dc.lft.to/lastmile_qr_scan"}, "fusion_lon": 0.0, "lon": -77.03206766666666, "type": "electric_scooter", "fusion_lat": 0.0, "name": "b7a3338a95fa10c1b2ca7e98ebed56ab"}, {"lat": 38.8965215, "bike_id": "fd3d61f1b22e704725ce9743ece81012", "is_reserved": 0, "is_disabled": 0, "rental_uris": {"android": "https://dc.lft.to/lastmile_qr_scan", "ios": "https://dc.lft.to/lastmile_qr_scan"}, "fusion_lon": 0.0, "lon": -77.00925933333333, "type": "electric_scooter", "fusion_lat": 0.0, "name": "fd3d61f1b22e704725ce9743ece81012"}, {"lat": 38.8291725, "bike_id": "e6417ef4896e02e289b55ac027fd3c84", "is_reserved": 0, "is_disabled": 0, "rental_uris": {"android": "https://dc.lft.to/lastmile_qr_scan", "ios": "https://dc.lft.to/lastmile_qr_scan"}, "fusion_lon": 0.0, "lon": -77.00837483333333, "type": "electric_bike", "fusion_lat": 0.0, "name": "e6417ef4896e02e289b55ac027fd3c84"}, {"lat": 38.91921516666667, "bike_id": "e6563d2e2675d6579ccdef55c06629c4", "is_reserved": 0, "is_disabled": 0, "rental_uris": {"android": "https://dc.lft.to/lastmile_qr_scan", "ios": "https://dc.lft.to/lastmile_qr_scan"}, "fusion_lon": 0.0, "lon": -77.02170483333333, "type": "electric_scooter", "fusion_lat": 0.0, "name": "e6563d2e2675d6579ccdef55c06629c4"}, {"lat": 38.93096116666667, "bike_id": "0706a64cc5a200d34211a93528f9a0d6", "is_reserved": 0, "is_disabled": 0, "rental_uris": {"android": "https://dc.lft.to/lastmile_qr_scan", "ios": "https://dc.lft.to/lastmile_qr_scan"}, "fusion_lon": 0.0, "lon": -77.0381385, "type": "electric_scooter", "fusion_lat": 0.0, "name": "0706a64cc5a200d34211a93528f9a0d6"}, {"lat": 38.948031666666665, "bike_id": "e00c25dd15b5e47729e0f3a3d5b86c94", "is_reserved": 0, "is_disabled": 0, "rental_uris": {"android": "https://dc.lft.to/lastmile_qr_scan", "ios": "https://dc.lft.to/lastmile_qr_scan"}, "fusion_lon": 0.0, "lon": -77.07888033333333, "type": "electric_scooter", "fusion_lat": 0.0, "name": "e00c25dd15b5e47729e0f3a3d5b86c94"}, {"lat": 38.903536, "bike_id": "c73b40d088e25b47d2c489587119b138", "is_reserved": 0, "is_disabled": 0, "rental_uris": {"android": "https://dc.lft.to/lastmile_qr_scan", "ios": "https://dc.lft.to/lastmile_qr_scan"}, "fusion_lon": 0.0, "lon": -77.008984, "type": "electric_scooter", "fusion_lat": 0.0, "name": "c73b40d088e25b47d2c489587119b138"}, {"lat": 38.887071, "bike_id": "e7e0e43ed3b0f16d5ebaf69b828868ab", "is_reserved": 0, "is_disabled": 0, "rental_uris": {"android": "https://dc.lft.to/lastmile_qr_scan", "ios": "https://dc.lft.to/lastmile_qr_scan"}, "fusion_lon": 0.0, "lon": -77.0136815, "type": "electric_scooter", "fusion_lat": 0.0, "name": "e7e0e43ed3b0f16d5ebaf69b828868ab"}, {"lat": 38.90986016666667, "bike_id": "9198a23ff04d68bbf49e8676a2307992", "is_reserved": 0, "is_disabled": 0, "rental_uris": {"android": "https://dc.lft.to/lastmile_qr_scan", "ios": "https://dc.lft.to/lastmile_qr_scan"}, "fusion_lon": 0.0, "lon": -77.0090535, "type": "electric_bike", "fusion_lat": 0.0, "name": "9198a23ff04d68bbf49e8676a2307992"}, {"lat": 38.90186766666667, "bike_id": "5138b9b88c69cc74d28cb9e0e4b96a6c", "is_reserved": 0, "is_disabled": 0, "rental_uris": {"android": "https://dc.lft.to/lastmile_qr_scan", "ios": "https://dc.lft.to/lastmile_qr_scan"}, "fusion_lon": 0.0, "lon": -76.979391, "type": "electric_scooter", "fusion_lat": 0.0, "name": "5138b9b88c69cc74d28cb9e0e4b96a6c"}, {"lat": 38.91026016666667, "bike_id": "d2f581c56f107f9bf20a8749ae06f8d0", "is_reserved": 0, "is_disabled": 0, "rental_uris": {"android": "https://dc.lft.to/lastmile_qr_scan", "ios": "https://dc.lft.to/lastmile_qr_scan"}, "fusion_lon": 0.0, "lon": -76.985361, "type": "electric_scooter", "fusion_lat": 0.0, "name": "d2f581c56f107f9bf20a8749ae06f8d0"}, {"lat": 38.993915666666666, "bike_id": "1b4084841fbfc7efda7b6fd52daf3349", "is_reserved": 0, "is_disabled": 0, "rental_uris": {"android": "https://dc.lft.to/lastmile_qr_scan", "ios": "https://dc.lft.to/lastmile_qr_scan"}, "fusion_lon": 0.0, "lon": -77.03101733333334, "type": "electric_scooter", "fusion_lat": 0.0, "name": "1b4084841fbfc7efda7b6fd52daf3349"}, {"lat": 38.844632, "bike_id": "143eca19c348dd56feb3334ac4f2232b", "is_reserved": 0, "is_disabled": 0, "rental_uris": {"android": "https://dc.lft.to/lastmile_qr_scan", "ios": "https://dc.lft.to/lastmile_qr_scan"}, "fusion_lon": 0.0, "lon": -76.98745283333334, "type": "electric_scooter", "fusion_lat": 0.0, "name": "143eca19c348dd56feb3334ac4f2232b"}, {"lat": 38.903785666666664, "bike_id": "fa3e14a31d8ec2096f7dab82ae021c4e", "is_reserved": 0, "is_disabled": 0, "rental_uris": {"android": "https://dc.lft.to/lastmile_qr_scan", "ios": "https://dc.lft.to/lastmile_qr_scan"}, "fusion_lon": 0.0, "lon": -77.03660083333334, "type": "electric_scooter", "fusion_lat": 0.0, "name": "fa3e14a31d8ec2096f7dab82ae021c4e"}, {"lat": 38.923461, "bike_id": "1fe94dd3941e79ee76182c36bf1acbfe", "is_reserved": 0, "is_disabled": 0, "rental_uris": {"android": "https://dc.lft.to/lastmile_qr_scan", "ios": "https://dc.lft.to/lastmile_qr_scan"}, "fusion_lon": 0.0, "lon": -77.0511905, "type": "electric_scooter", "fusion_lat": 0.0, "name": "1fe94dd3941e79ee76182c36bf1acbfe"}, {"lat": 38.91334066666667, "bike_id": "e2b0d1aa81d87482633da50cef9f7be5", "is_reserved": 0, "is_disabled": 0, "rental_uris": {"android": "https://dc.lft.to/lastmile_qr_scan", "ios": "https://dc.lft.to/lastmile_qr_scan"}, "fusion_lon": 0.0, "lon": -77.02884166666666, "type": "electric_scooter", "fusion_lat": 0.0, "name": "e2b0d1aa81d87482633da50cef9f7be5"}, {"lat": 38.9087115, "bike_id": "1833e4250eca3a06e17174b246fce858", "is_reserved": 0, "is_disabled": 0, "rental_uris": {"android": "https://dc.lft.to/lastmile_qr_scan", "ios": "https://dc.lft.to/lastmile_qr_scan"}, "fusion_lon": 0.0, "lon": -77.08593933333333, "type": "electric_scooter", "fusion_lat": 0.0, "name": "1833e4250eca3a06e17174b246fce858"}, {"lat": 38.90004366666667, "bike_id": "fdcf24d43c17c0774d8a54d768812e1e", "is_reserved": 0, "is_disabled": 0, "rental_uris": {"android": "https://dc.lft.to/lastmile_qr_scan", "ios": "https://dc.lft.to/lastmile_qr_scan"}, "fusion_lon": 0.0, "lon": -76.99631116666667, "type": "electric_scooter", "fusion_lat": 0.0, "name": "fdcf24d43c17c0774d8a54d768812e1e"}, {"lat": 38.893017, "bike_id": "2976fd6772d734530a7a76f80e1e8663", "is_reserved": 0, "is_disabled": 0, "rental_uris": {"android": "https://dc.lft.to/lastmile_qr_scan", "ios": "https://dc.lft.to/lastmile_qr_scan"}, "fusion_lon": 0.0, "lon": -77.01799016666666, "type": "electric_scooter", "fusion_lat": 0.0, "name": "2976fd6772d734530a7a76f80e1e8663"}, {"lat": 38.893878, "bike_id": "2f52f393f30e7bd5a7b733d9489efeaa", "is_reserved": 0, "is_disabled": 0, "rental_uris": {"android": "https://dc.lft.to/lastmile_qr_scan", "ios": "https://dc.lft.to/lastmile_qr_scan"}, "fusion_lon": 0.0, "lon": -76.950214, "type": "electric_scooter", "fusion_lat": 0.0, "name": "2f52f393f30e7bd5a7b733d9489efeaa"}, {"lat": 38.9314145, "bike_id": "f0d992e738cabe27ff11980d9f48c754", "is_reserved": 0, "is_disabled": 0, "rental_uris": {"android": "https://dc.lft.to/lastmile_qr_scan", "ios": "https://dc.lft.to/lastmile_qr_scan"}, "fusion_lon": 0.0, "lon": -77.026024, "type": "electric_scooter", "fusion_lat": 0.0, "name": "f0d992e738cabe27ff11980d9f48c754"}, {"lat": 38.91046266666667, "bike_id": "6aac2341d588d313916c326224c81c04", "is_reserved": 0, "is_disabled": 0, "rental_uris": {"android": "https://dc.lft.to/lastmile_qr_scan", "ios": "https://dc.lft.to/lastmile_qr_scan"}, "fusion_lon": 0.0, "lon": -77.043624, "type": "electric_scooter", "fusion_lat": 0.0, "name": "6aac2341d588d313916c326224c81c04"}, {"lat": 38.90267466666667, "bike_id": "6a47af11849eb20f800776b3d4fe8e42", "is_reserved": 0, "is_disabled": 0, "rental_uris": {"android": "https://dc.lft.to/lastmile_qr_scan", "ios": "https://dc.lft.to/lastmile_qr_scan"}, "fusion_lon": 0.0, "lon": -77.04544033333333, "type": "electric_scooter", "fusion_lat": 0.0, "name": "6a47af11849eb20f800776b3d4fe8e42"}, {"lat": 38.908292833333334, "bike_id": "f7788f2f9e580658ac6a9d1a45cecd14", "is_reserved": 0, "is_disabled": 0, "rental_uris": {"android": "https://dc.lft.to/lastmile_qr_scan", "ios": "https://dc.lft.to/lastmile_qr_scan"}, "fusion_lon": 0.0, "lon": -76.996801, "type": "electric_scooter", "fusion_lat": 0.0, "name": "f7788f2f9e580658ac6a9d1a45cecd14"}, {"lat": 38.9488575, "bike_id": "82fb5b72f3d8099eead9df980b51d90b", "is_reserved": 0, "is_disabled": 0, "rental_uris": {"android": "https://dc.lft.to/lastmile_qr_scan", "ios": "https://dc.lft.to/lastmile_qr_scan"}, "fusion_lon": 0.0, "lon": -77.026917, "type": "electric_scooter", "fusion_lat": 0.0, "name": "82fb5b72f3d8099eead9df980b51d90b"}, {"lat": 38.95261, "bike_id": "ba5d6983d607c45244609868ab512aec", "is_reserved": 0, "is_disabled": 0, "rental_uris": {"android": "https://dc.lft.to/lastmile_qr_scan", "ios": "https://dc.lft.to/lastmile_qr_scan"}, "fusion_lon": 0.0, "lon": -77.02541666666667, "type": "electric_scooter", "fusion_lat": 0.0, "name": "ba5d6983d607c45244609868ab512aec"}, {"lat": 38.934465333333335, "bike_id": "da3f7c91c0184c9822fdb6c6a700221f", "is_reserved": 0, "is_disabled": 0, "rental_uris": {"android": "https://dc.lft.to/lastmile_qr_scan", "ios": "https://dc.lft.to/lastmile_qr_scan"}, "fusion_lon": 0.0, "lon": -76.96467183333333, "type": "electric_scooter", "fusion_lat": 0.0, "name": "da3f7c91c0184c9822fdb6c6a700221f"}, {"lat": 38.934816833333336, "bike_id": "a677c4978b38091a92f91660993cdfbe", "is_reserved": 0, "is_disabled": 0, "rental_uris": {"android": "https://dc.lft.to/lastmile_qr_scan", "ios": "https://dc.lft.to/lastmile_qr_scan"}, "fusion_lon": 0.0, "lon": -77.07261166666666, "type": "electric_scooter", "fusion_lat": 0.0, "name": "a677c4978b38091a92f91660993cdfbe"}, {"lat": 38.9757515, "bike_id": "6420d8d0ad6282a9a2bd70e36bf2face", "is_reserved": 0, "is_disabled": 0, "rental_uris": {"android": "https://dc.lft.to/lastmile_qr_scan", "ios": "https://dc.lft.to/lastmile_qr_scan"}, "fusion_lon": 0.0, "lon": -77.019578, "type": "electric_bike", "fusion_lat": 0.0, "name": "6420d8d0ad6282a9a2bd70e36bf2face"}, {"lat": 38.956141833333334, "bike_id": "514cce26a213ae1c4a6d33e082d3ae15", "is_reserved": 0, "is_disabled": 0, "rental_uris": {"android": "https://dc.lft.to/lastmile_qr_scan", "ios": "https://dc.lft.to/lastmile_qr_scan"}, "fusion_lon": 0.0, "lon": -77.0330915, "type": "electric_scooter", "fusion_lat": 0.0, "name": "514cce26a213ae1c4a6d33e082d3ae15"}, {"lat": 38.898436, "bike_id": "9e627f8975baab6ed187f3fc05aaa09f", "is_reserved": 0, "is_disabled": 0, "rental_uris": {"android": "https://dc.lft.to/lastmile_qr_scan", "ios": "https://dc.lft.to/lastmile_qr_scan"}, "fusion_lon": 0.0, "lon": -76.94637533333334, "type": "electric_scooter", "fusion_lat": 0.0, "name": "9e627f8975baab6ed187f3fc05aaa09f"}, {"lat": 38.86529783333334, "bike_id": "32d41771d1eb53ad8c1ea079caae0a0b", "is_reserved": 0, "is_disabled": 0, "rental_uris": {"android": "https://dc.lft.to/lastmile_qr_scan", "ios": "https://dc.lft.to/lastmile_qr_scan"}, "fusion_lon": 0.0, "lon": -76.98607, "type": "electric_scooter", "fusion_lat": 0.0, "name": "32d41771d1eb53ad8c1ea079caae0a0b"}, {"lat": 38.9021305, "bike_id": "f315fc3d2c7866d1965e64fcbe906ea2", "is_reserved": 0, "is_disabled": 0, "rental_uris": {"android": "https://dc.lft.to/lastmile_qr_scan", "ios": "https://dc.lft.to/lastmile_qr_scan"}, "fusion_lon": 0.0, "lon": -77.03472933333333, "type": "electric_scooter", "fusion_lat": 0.0, "name": "f315fc3d2c7866d1965e64fcbe906ea2"}, {"lat": 38.894598, "bike_id": "eaf4d27b237ef5ab76688d55e61c3114", "is_reserved": 0, "is_disabled": 0, "rental_uris": {"android": "https://dc.lft.to/lastmile_qr_scan", "ios": "https://dc.lft.to/lastmile_qr_scan"}, "fusion_lon": 0.0, "lon": -77.0751035, "type": "electric_scooter", "fusion_lat": 0.0, "name": "eaf4d27b237ef5ab76688d55e61c3114"}, {"lat": 38.9110495, "bike_id": "1b7b32823de1cd61d43b828fbf92294a", "is_reserved": 0, "is_disabled": 0, "rental_uris": {"android": "https://dc.lft.to/lastmile_qr_scan", "ios": "https://dc.lft.to/lastmile_qr_scan"}, "fusion_lon": 0.0, "lon": -77.04445916666667, "type": "electric_scooter", "fusion_lat": 0.0, "name": "1b7b32823de1cd61d43b828fbf92294a"}, {"lat": 39.056379166666666, "bike_id": "0f7bf0c59d9fd7524de4406a20dab4c9", "is_reserved": 0, "is_disabled": 0, "rental_uris": {"android": "https://dc.lft.to/lastmile_qr_scan", "ios": "https://dc.lft.to/lastmile_qr_scan"}, "fusion_lon": 0.0, "lon": -77.125252, "type": "electric_bike", "fusion_lat": 0.0, "name": "0f7bf0c59d9fd7524de4406a20dab4c9"}, {"lat": 38.926148833333336, "bike_id": "6ce60789f18f968b469f6b20696cdd93", "is_reserved": 0, "is_disabled": 0, "rental_uris": {"android": "https://dc.lft.to/lastmile_qr_scan", "ios": "https://dc.lft.to/lastmile_qr_scan"}, "fusion_lon": 0.0, "lon": -77.02163633333333, "type": "electric_scooter", "fusion_lat": 0.0, "name": "6ce60789f18f968b469f6b20696cdd93"}, {"lat": 38.90035266666667, "bike_id": "0053f35d6f2cd0504daa4dc86a671971", "is_reserved": 0, "is_disabled": 0, "rental_uris": {"android": "https://dc.lft.to/lastmile_qr_scan", "ios": "https://dc.lft.to/lastmile_qr_scan"}, "fusion_lon": 0.0, "lon": -77.03530733333334, "type": "electric_scooter", "fusion_lat": 0.0, "name": "0053f35d6f2cd0504daa4dc86a671971"}, {"lat": 38.905231666666666, "bike_id": "6fe0b13467f2248e7ffe36a7d9b3f745", "is_reserved": 0, "is_disabled": 0, "rental_uris": {"android": "https://dc.lft.to/lastmile_qr_scan", "ios": "https://dc.lft.to/lastmile_qr_scan"}, "fusion_lon": 0.0, "lon": -77.0477865, "type": "electric_scooter", "fusion_lat": 0.0, "name": "6fe0b13467f2248e7ffe36a7d9b3f745"}, {"lat": 38.92254233333333, "bike_id": "59a1aa28da49e502dba08d1266a707cd", "is_reserved": 0, "is_disabled": 0, "rental_uris": {"android": "https://dc.lft.to/lastmile_qr_scan", "ios": "https://dc.lft.to/lastmile_qr_scan"}, "fusion_lon": 0.0, "lon": -77.034071, "type": "electric_scooter", "fusion_lat": 0.0, "name": "59a1aa28da49e502dba08d1266a707cd"}, {"lat": 38.900402666666665, "bike_id": "10c42f891505a51affe63fabc4c94dae", "is_reserved": 0, "is_disabled": 0, "rental_uris": {"android": "https://dc.lft.to/lastmile_qr_scan", "ios": "https://dc.lft.to/lastmile_qr_scan"}, "fusion_lon": 0.0, "lon": -76.98817933333333, "type": "electric_scooter", "fusion_lat": 0.0, "name": "10c42f891505a51affe63fabc4c94dae"}, {"lat": 38.905746, "bike_id": "45fc178d44da79aa3df5231ee2097b77", "is_reserved": 0, "is_disabled": 0, "rental_uris": {"android": "https://dc.lft.to/lastmile_qr_scan", "ios": "https://dc.lft.to/lastmile_qr_scan"}, "fusion_lon": 0.0, "lon": -76.97630083333334, "type": "electric_scooter", "fusion_lat": 0.0, "name": "45fc178d44da79aa3df5231ee2097b77"}, {"lat": 38.9103235, "bike_id": "f866bfd57fbf603e4f723aa555f40b23", "is_reserved": 0, "is_disabled": 0, "rental_uris": {"android": "https://dc.lft.to/lastmile_qr_scan", "ios": "https://dc.lft.to/lastmile_qr_scan"}, "fusion_lon": 0.0, "lon": -76.98550483333334, "type": "electric_scooter", "fusion_lat": 0.0, "name": "f866bfd57fbf603e4f723aa555f40b23"}, {"lat": 38.916823, "bike_id": "a756dc92466286dca7c37434d1169a29", "is_reserved": 0, "is_disabled": 0, "rental_uris": {"android": "https://dc.lft.to/lastmile_qr_scan", "ios": "https://dc.lft.to/lastmile_qr_scan"}, "fusion_lon": 0.0, "lon": -77.032782, "type": "electric_scooter", "fusion_lat": 0.0, "name": "a756dc92466286dca7c37434d1169a29"}, {"lat": 38.898448, "bike_id": "3e8dc773899158b4eb2fbd54b5612324", "is_reserved": 0, "is_disabled": 0, "rental_uris": {"android": "https://dc.lft.to/lastmile_qr_scan", "ios": "https://dc.lft.to/lastmile_qr_scan"}, "fusion_lon": 0.0, "lon": -77.00733233333334, "type": "electric_scooter", "fusion_lat": 0.0, "name": "3e8dc773899158b4eb2fbd54b5612324"}, {"lat": 38.928853833333335, "bike_id": "977340f7ac2ab9143661c46417cac07c", "is_reserved": 0, "is_disabled": 0, "rental_uris": {"android": "https://dc.lft.to/lastmile_qr_scan", "ios": "https://dc.lft.to/lastmile_qr_scan"}, "fusion_lon": 0.0, "lon": -77.03325466666666, "type": "electric_scooter", "fusion_lat": 0.0, "name": "977340f7ac2ab9143661c46417cac07c"}, {"lat": 38.923439, "bike_id": "980b6c19a64a01647f89b6c50c8bbb36", "is_reserved": 0, "is_disabled": 0, "rental_uris": {"android": "https://dc.lft.to/lastmile_qr_scan", "ios": "https://dc.lft.to/lastmile_qr_scan"}, "fusion_lon": 0.0, "lon": -77.0511645, "type": "electric_scooter", "fusion_lat": 0.0, "name": "980b6c19a64a01647f89b6c50c8bbb36"}, {"lat": 38.90903466666666, "bike_id": "ffc8fee0b561ef9629fb5c264b74b2f3", "is_reserved": 0, "is_disabled": 0, "rental_uris": {"android": "https://dc.lft.to/lastmile_qr_scan", "ios": "https://dc.lft.to/lastmile_qr_scan"}, "fusion_lon": 0.0, "lon": -77.03209283333334, "type": "electric_scooter", "fusion_lat": 0.0, "name": "ffc8fee0b561ef9629fb5c264b74b2f3"}, {"lat": 38.92540533333333, "bike_id": "e78a8dca73cdf97edb68e73a0fc96633", "is_reserved": 0, "is_disabled": 0, "rental_uris": {"android": "https://dc.lft.to/lastmile_qr_scan", "ios": "https://dc.lft.to/lastmile_qr_scan"}, "fusion_lon": 0.0, "lon": -77.03478533333333, "type": "electric_scooter", "fusion_lat": 0.0, "name": "e78a8dca73cdf97edb68e73a0fc96633"}, {"lat": 38.90951916666667, "bike_id": "526aa1050c943f53b5f8709ffa5a45ec", "is_reserved": 0, "is_disabled": 0, "rental_uris": {"android": "https://dc.lft.to/lastmile_qr_scan", "ios": "https://dc.lft.to/lastmile_qr_scan"}, "fusion_lon": 0.0, "lon": -77.02200866666666, "type": "electric_scooter", "fusion_lat": 0.0, "name": "526aa1050c943f53b5f8709ffa5a45ec"}, {"lat": 38.9073785, "bike_id": "b9a7d590e9e1f28499c0920fb90fad00", "is_reserved": 0, "is_disabled": 0, "rental_uris": {"android": "https://dc.lft.to/lastmile_qr_scan", "ios": "https://dc.lft.to/lastmile_qr_scan"}, "fusion_lon": 0.0, "lon": -77.04214683333333, "type": "electric_scooter", "fusion_lat": 0.0, "name": "b9a7d590e9e1f28499c0920fb90fad00"}, {"lat": 38.89744066666667, "bike_id": "2a5f3e4607bd296670a4a18f7f2d5faf", "is_reserved": 0, "is_disabled": 0, "rental_uris": {"android": "https://dc.lft.to/lastmile_qr_scan", "ios": "https://dc.lft.to/lastmile_qr_scan"}, "fusion_lon": 0.0, "lon": -77.02454916666667, "type": "electric_scooter", "fusion_lat": 0.0, "name": "2a5f3e4607bd296670a4a18f7f2d5faf"}, {"lat": 38.89896183333333, "bike_id": "7b1cb789ca33635d9ef3a70c2c30dc28", "is_reserved": 0, "is_disabled": 0, "rental_uris": {"android": "https://dc.lft.to/lastmile_qr_scan", "ios": "https://dc.lft.to/lastmile_qr_scan"}, "fusion_lon": 0.0, "lon": -76.93264333333333, "type": "electric_scooter", "fusion_lat": 0.0, "name": "7b1cb789ca33635d9ef3a70c2c30dc28"}, {"lat": 38.892268, "bike_id": "20725b6f0209757e9dbc4f43ac4e8886", "is_reserved": 0, "is_disabled": 0, "rental_uris": {"android": "https://dc.lft.to/lastmile_qr_scan", "ios": "https://dc.lft.to/lastmile_qr_scan"}, "fusion_lon": 0.0, "lon": -77.043333, "type": "electric_scooter", "fusion_lat": 0.0, "name": "20725b6f0209757e9dbc4f43ac4e8886"}, {"lat": 38.91712, "bike_id": "d6830d63c68584486b5a8d4d96ea480f", "is_reserved": 0, "is_disabled": 0, "rental_uris": {"android": "https://dc.lft.to/lastmile_qr_scan", "ios": "https://dc.lft.to/lastmile_qr_scan"}, "fusion_lon": 0.0, "lon": -77.0361345, "type": "electric_scooter", "fusion_lat": 0.0, "name": "d6830d63c68584486b5a8d4d96ea480f"}, {"lat": 38.8794645, "bike_id": "a8888177f199d8ccec7501af8acf1a40", "is_reserved": 0, "is_disabled": 0, "rental_uris": {"android": "https://dc.lft.to/lastmile_qr_scan", "ios": "https://dc.lft.to/lastmile_qr_scan"}, "fusion_lon": 0.0, "lon": -77.010458, "type": "electric_bike", "fusion_lat": 0.0, "name": "a8888177f199d8ccec7501af8acf1a40"}, {"lat": 38.91619083333333, "bike_id": "57489803aeb8c52bc0e5d274dbd4c3be", "is_reserved": 0, "is_disabled": 0, "rental_uris": {"android": "https://dc.lft.to/lastmile_qr_scan", "ios": "https://dc.lft.to/lastmile_qr_scan"}, "fusion_lon": 0.0, "lon": -77.03636933333334, "type": "electric_scooter", "fusion_lat": 0.0, "name": "57489803aeb8c52bc0e5d274dbd4c3be"}, {"lat": 38.91790316666667, "bike_id": "7da640d56988e4d56f2d797151e4039c", "is_reserved": 0, "is_disabled": 0, "rental_uris": {"android": "https://dc.lft.to/lastmile_qr_scan", "ios": "https://dc.lft.to/lastmile_qr_scan"}, "fusion_lon": 0.0, "lon": -77.03209266666667, "type": "electric_scooter", "fusion_lat": 0.0, "name": "7da640d56988e4d56f2d797151e4039c"}, {"lat": 38.92274166666667, "bike_id": "49d862c04ced13bb86aea6eac96a0a4b", "is_reserved": 0, "is_disabled": 0, "rental_uris": {"android": "https://dc.lft.to/lastmile_qr_scan", "ios": "https://dc.lft.to/lastmile_qr_scan"}, "fusion_lon": 0.0, "lon": -77.01980233333333, "type": "electric_scooter", "fusion_lat": 0.0, "name": "49d862c04ced13bb86aea6eac96a0a4b"}, {"lat": 38.8665345, "bike_id": "ec9dcee300ac671e917848ecba773ee8", "is_reserved": 0, "is_disabled": 0, "rental_uris": {"android": "https://dc.lft.to/lastmile_qr_scan", "ios": "https://dc.lft.to/lastmile_qr_scan"}, "fusion_lon": 0.0, "lon": -76.98535883333334, "type": "electric_scooter", "fusion_lat": 0.0, "name": "ec9dcee300ac671e917848ecba773ee8"}, {"lat": 38.90403116666667, "bike_id": "3f8f798c6de14ad7f8cd62ec6214d154", "is_reserved": 0, "is_disabled": 0, "rental_uris": {"android": "https://dc.lft.to/lastmile_qr_scan", "ios": "https://dc.lft.to/lastmile_qr_scan"}, "fusion_lon": 0.0, "lon": -77.016328, "type": "electric_scooter", "fusion_lat": 0.0, "name": "3f8f798c6de14ad7f8cd62ec6214d154"}, {"lat": 38.884289833333334, "bike_id": "faa170852d0dcefaf6529be2f9256de5", "is_reserved": 0, "is_disabled": 0, "rental_uris": {"android": "https://dc.lft.to/lastmile_qr_scan", "ios": "https://dc.lft.to/lastmile_qr_scan"}, "fusion_lon": 0.0, "lon": -77.0258815, "type": "electric_scooter", "fusion_lat": 0.0, "name": "faa170852d0dcefaf6529be2f9256de5"}, {"lat": 38.9034305, "bike_id": "bf5b1b4298688821672e4fbeeef3e653", "is_reserved": 0, "is_disabled": 0, "rental_uris": {"android": "https://dc.lft.to/lastmile_qr_scan", "ios": "https://dc.lft.to/lastmile_qr_scan"}, "fusion_lon": 0.0, "lon": -77.046561, "type": "electric_scooter", "fusion_lat": 0.0, "name": "bf5b1b4298688821672e4fbeeef3e653"}, {"lat": 38.8987585, "bike_id": "0d34ccf58c8b957943c691cb58ba2db5", "is_reserved": 0, "is_disabled": 0, "rental_uris": {"android": "https://dc.lft.to/lastmile_qr_scan", "ios": "https://dc.lft.to/lastmile_qr_scan"}, "fusion_lon": 0.0, "lon": -77.02691833333333, "type": "electric_scooter", "fusion_lat": 0.0, "name": "0d34ccf58c8b957943c691cb58ba2db5"}, {"lat": 38.904812166666666, "bike_id": "0f75465a7dfbd0dd4d41c1ce398450ab", "is_reserved": 0, "is_disabled": 0, "rental_uris": {"android": "https://dc.lft.to/lastmile_qr_scan", "ios": "https://dc.lft.to/lastmile_qr_scan"}, "fusion_lon": 0.0, "lon": -77.0393975, "type": "electric_scooter", "fusion_lat": 0.0, "name": "0f75465a7dfbd0dd4d41c1ce398450ab"}, {"lat": 38.909909166666665, "bike_id": "fc5322da60a972b44302235ab70dc653", "is_reserved": 0, "is_disabled": 0, "rental_uris": {"android": "https://dc.lft.to/lastmile_qr_scan", "ios": "https://dc.lft.to/lastmile_qr_scan"}, "fusion_lon": 0.0, "lon": -77.04617533333334, "type": "electric_bike", "fusion_lat": 0.0, "name": "fc5322da60a972b44302235ab70dc653"}, {"lat": 38.89994, "bike_id": "cd7ebf5079fc48b2e348eeb0fa0f2a7d", "is_reserved": 0, "is_disabled": 0, "rental_uris": {"android": "https://dc.lft.to/lastmile_qr_scan", "ios": "https://dc.lft.to/lastmile_qr_scan"}, "fusion_lon": 0.0, "lon": -77.00065933333333, "type": "electric_scooter", "fusion_lat": 0.0, "name": "cd7ebf5079fc48b2e348eeb0fa0f2a7d"}, {"lat": 38.87534566666667, "bike_id": "db3e3a8fff654a915125ecc9e95edc62", "is_reserved": 0, "is_disabled": 0, "rental_uris": {"android": "https://dc.lft.to/lastmile_qr_scan", "ios": "https://dc.lft.to/lastmile_qr_scan"}, "fusion_lon": 0.0, "lon": -77.00500033333333, "type": "electric_scooter", "fusion_lat": 0.0, "name": "db3e3a8fff654a915125ecc9e95edc62"}, {"lat": 38.9082645, "bike_id": "f7893f184385f8c7b081a0777009a81a", "is_reserved": 0, "is_disabled": 0, "rental_uris": {"android": "https://dc.lft.to/lastmile_qr_scan", "ios": "https://dc.lft.to/lastmile_qr_scan"}, "fusion_lon": 0.0, "lon": -76.9968945, "type": "electric_bike", "fusion_lat": 0.0, "name": "f7893f184385f8c7b081a0777009a81a"}, {"lat": 38.88563883333333, "bike_id": "b041684d22514e317ba93bd973246200", "is_reserved": 0, "is_disabled": 0, "rental_uris": {"android": "https://dc.lft.to/lastmile_qr_scan", "ios": "https://dc.lft.to/lastmile_qr_scan"}, "fusion_lon": 0.0, "lon": -76.998059, "type": "electric_scooter", "fusion_lat": 0.0, "name": "b041684d22514e317ba93bd973246200"}, {"lat": 38.8962445, "bike_id": "a39f5ef42e8d7b8f769107adc514d33c", "is_reserved": 0, "is_disabled": 0, "rental_uris": {"android": "https://dc.lft.to/lastmile_qr_scan", "ios": "https://dc.lft.to/lastmile_qr_scan"}, "fusion_lon": 0.0, "lon": -77.0093215, "type": "electric_scooter", "fusion_lat": 0.0, "name": "a39f5ef42e8d7b8f769107adc514d33c"}, {"lat": 38.900284, "bike_id": "c506e8a99101690c9d7115d94d6a07d9", "is_reserved": 0, "is_disabled": 0, "rental_uris": {"android": "https://dc.lft.to/lastmile_qr_scan", "ios": "https://dc.lft.to/lastmile_qr_scan"}, "fusion_lon": 0.0, "lon": -76.987645, "type": "electric_scooter", "fusion_lat": 0.0, "name": "c506e8a99101690c9d7115d94d6a07d9"}, {"lat": 38.90251116666666, "bike_id": "39a79c1a5f113ddc98ba1302b34dcf5c", "is_reserved": 0, "is_disabled": 0, "rental_uris": {"android": "https://dc.lft.to/lastmile_qr_scan", "ios": "https://dc.lft.to/lastmile_qr_scan"}, "fusion_lon": 0.0, "lon": -77.01789516666666, "type": "electric_scooter", "fusion_lat": 0.0, "name": "39a79c1a5f113ddc98ba1302b34dcf5c"}, {"lat": 38.91032366666666, "bike_id": "08408e880f97df890266d2350d19e762", "is_reserved": 0, "is_disabled": 0, "rental_uris": {"android": "https://dc.lft.to/lastmile_qr_scan", "ios": "https://dc.lft.to/lastmile_qr_scan"}, "fusion_lon": 0.0, "lon": -77.04812916666667, "type": "electric_scooter", "fusion_lat": 0.0, "name": "08408e880f97df890266d2350d19e762"}, {"lat": 38.974961, "bike_id": "313ac6e1c6b3d74ff740484451e732bc", "is_reserved": 0, "is_disabled": 0, "rental_uris": {"android": "https://dc.lft.to/lastmile_qr_scan", "ios": "https://dc.lft.to/lastmile_qr_scan"}, "fusion_lon": 0.0, "lon": -77.01693616666667, "type": "electric_scooter", "fusion_lat": 0.0, "name": "313ac6e1c6b3d74ff740484451e732bc"}, {"lat": 38.905148833333335, "bike_id": "f637ff057955102cf44221d0a6622fdb", "is_reserved": 0, "is_disabled": 0, "rental_uris": {"android": "https://dc.lft.to/lastmile_qr_scan", "ios": "https://dc.lft.to/lastmile_qr_scan"}, "fusion_lon": 0.0, "lon": -77.05021733333334, "type": "electric_scooter", "fusion_lat": 0.0, "name": "f637ff057955102cf44221d0a6622fdb"}, {"lat": 38.901398666666665, "bike_id": "5aae5fc7dff285b2349b50521cf02c49", "is_reserved": 0, "is_disabled": 0, "rental_uris": {"android": "https://dc.lft.to/lastmile_qr_scan", "ios": "https://dc.lft.to/lastmile_qr_scan"}, "fusion_lon": 0.0, "lon": -76.99827566666667, "type": "electric_scooter", "fusion_lat": 0.0, "name": "5aae5fc7dff285b2349b50521cf02c49"}, {"lat": 38.9264665, "bike_id": "f62ce05a5522309d16b8957b340d2afd", "is_reserved": 0, "is_disabled": 0, "rental_uris": {"android": "https://dc.lft.to/lastmile_qr_scan", "ios": "https://dc.lft.to/lastmile_qr_scan"}, "fusion_lon": 0.0, "lon": -77.04137983333334, "type": "electric_scooter", "fusion_lat": 0.0, "name": "f62ce05a5522309d16b8957b340d2afd"}, {"lat": 38.90716116666667, "bike_id": "e3fbe4664460a828867fdd2351e73726", "is_reserved": 0, "is_disabled": 0, "rental_uris": {"android": "https://dc.lft.to/lastmile_qr_scan", "ios": "https://dc.lft.to/lastmile_qr_scan"}, "fusion_lon": 0.0, "lon": -77.03365416666666, "type": "electric_scooter", "fusion_lat": 0.0, "name": "e3fbe4664460a828867fdd2351e73726"}, {"lat": 38.897444, "bike_id": "06de3434687ee3f05a6300b76bd88a45", "is_reserved": 0, "is_disabled": 0, "rental_uris": {"android": "https://dc.lft.to/lastmile_qr_scan", "ios": "https://dc.lft.to/lastmile_qr_scan"}, "fusion_lon": 0.0, "lon": -77.00869733333333, "type": "electric_scooter", "fusion_lat": 0.0, "name": "06de3434687ee3f05a6300b76bd88a45"}, {"lat": 38.97500016666667, "bike_id": "15f8e1c9cc74cc11cd9d406316a93859", "is_reserved": 0, "is_disabled": 0, "rental_uris": {"android": "https://dc.lft.to/lastmile_qr_scan", "ios": "https://dc.lft.to/lastmile_qr_scan"}, "fusion_lon": 0.0, "lon": -77.01696933333334, "type": "electric_scooter", "fusion_lat": 0.0, "name": "15f8e1c9cc74cc11cd9d406316a93859"}, {"lat": 38.844317333333336, "bike_id": "c153e46aacfc1bed0f4f05428aafab48", "is_reserved": 0, "is_disabled": 0, "rental_uris": {"android": "https://dc.lft.to/lastmile_qr_scan", "ios": "https://dc.lft.to/lastmile_qr_scan"}, "fusion_lon": 0.0, "lon": -76.9970455, "type": "electric_scooter", "fusion_lat": 0.0, "name": "c153e46aacfc1bed0f4f05428aafab48"}, {"lat": 38.911835833333335, "bike_id": "67827c6029ece0e4077b4b6050561bea", "is_reserved": 0, "is_disabled": 0, "rental_uris": {"android": "https://dc.lft.to/lastmile_qr_scan", "ios": "https://dc.lft.to/lastmile_qr_scan"}, "fusion_lon": 0.0, "lon": -77.038442, "type": "electric_scooter", "fusion_lat": 0.0, "name": "67827c6029ece0e4077b4b6050561bea"}, {"lat": 38.923558666666665, "bike_id": "9e098ef9ace7e1dc959639fb58dc912f", "is_reserved": 0, "is_disabled": 0, "rental_uris": {"android": "https://dc.lft.to/lastmile_qr_scan", "ios": "https://dc.lft.to/lastmile_qr_scan"}, "fusion_lon": 0.0, "lon": -77.02049783333334, "type": "electric_scooter", "fusion_lat": 0.0, "name": "9e098ef9ace7e1dc959639fb58dc912f"}, {"lat": 38.895756166666665, "bike_id": "6406f3a4766355f5198d110d17940c51", "is_reserved": 0, "is_disabled": 0, "rental_uris": {"android": "https://dc.lft.to/lastmile_qr_scan", "ios": "https://dc.lft.to/lastmile_qr_scan"}, "fusion_lon": 0.0, "lon": -77.01989833333333, "type": "electric_scooter", "fusion_lat": 0.0, "name": "6406f3a4766355f5198d110d17940c51"}, {"lat": 38.876699333333335, "bike_id": "28ebc00f2435cbc13a16c6c5fd0d6260", "is_reserved": 0, "is_disabled": 0, "rental_uris": {"android": "https://dc.lft.to/lastmile_qr_scan", "ios": "https://dc.lft.to/lastmile_qr_scan"}, "fusion_lon": 0.0, "lon": -77.00451016666666, "type": "electric_scooter", "fusion_lat": 0.0, "name": "28ebc00f2435cbc13a16c6c5fd0d6260"}, {"lat": 38.905236, "bike_id": "3688f06f85aabb6be9126a5dfb02c56e", "is_reserved": 0, "is_disabled": 0, "rental_uris": {"android": "https://dc.lft.to/lastmile_qr_scan", "ios": "https://dc.lft.to/lastmile_qr_scan"}, "fusion_lon": 0.0, "lon": -77.05139016666666, "type": "electric_scooter", "fusion_lat": 0.0, "name": "3688f06f85aabb6be9126a5dfb02c56e"}, {"lat": 38.88991, "bike_id": "e6610b2059c16773250dd3ba6385fe53", "is_reserved": 0, "is_disabled": 0, "rental_uris": {"android": "https://dc.lft.to/lastmile_qr_scan", "ios": "https://dc.lft.to/lastmile_qr_scan"}, "fusion_lon": 0.0, "lon": -77.00337066666667, "type": "electric_scooter", "fusion_lat": 0.0, "name": "e6610b2059c16773250dd3ba6385fe53"}, {"lat": 38.9005365, "bike_id": "3a5bd7f4ca35a58bff3f1cb4a5f1b853", "is_reserved": 0, "is_disabled": 0, "rental_uris": {"android": "https://dc.lft.to/lastmile_qr_scan", "ios": "https://dc.lft.to/lastmile_qr_scan"}, "fusion_lon": 0.0, "lon": -77.0022135, "type": "electric_scooter", "fusion_lat": 0.0, "name": "3a5bd7f4ca35a58bff3f1cb4a5f1b853"}, {"lat": 38.927246833333335, "bike_id": "3ae39995e8c19e33940c0f9da7b4f2a5", "is_reserved": 0, "is_disabled": 0, "rental_uris": {"android": "https://dc.lft.to/lastmile_qr_scan", "ios": "https://dc.lft.to/lastmile_qr_scan"}, "fusion_lon": 0.0, "lon": -77.03666966666667, "type": "electric_scooter", "fusion_lat": 0.0, "name": "3ae39995e8c19e33940c0f9da7b4f2a5"}, {"lat": 38.92507366666667, "bike_id": "fca8b201ab95ef621ab5ccacbcb9411d", "is_reserved": 0, "is_disabled": 0, "rental_uris": {"android": "https://dc.lft.to/lastmile_qr_scan", "ios": "https://dc.lft.to/lastmile_qr_scan"}, "fusion_lon": 0.0, "lon": -77.03813433333333, "type": "electric_scooter", "fusion_lat": 0.0, "name": "fca8b201ab95ef621ab5ccacbcb9411d"}, {"lat": 38.9118415, "bike_id": "0f3abdcc08c22650bf1a5a04430aedb8", "is_reserved": 0, "is_disabled": 0, "rental_uris": {"android": "https://dc.lft.to/lastmile_qr_scan", "ios": "https://dc.lft.to/lastmile_qr_scan"}, "fusion_lon": 0.0, "lon": -77.04458583333333, "type": "electric_scooter", "fusion_lat": 0.0, "name": "0f3abdcc08c22650bf1a5a04430aedb8"}, {"lat": 38.9102205, "bike_id": "282daa6159b350cc106765c242ead040", "is_reserved": 0, "is_disabled": 0, "rental_uris": {"android": "https://dc.lft.to/lastmile_qr_scan", "ios": "https://dc.lft.to/lastmile_qr_scan"}, "fusion_lon": 0.0, "lon": -77.03140233333333, "type": "electric_scooter", "fusion_lat": 0.0, "name": "282daa6159b350cc106765c242ead040"}, {"lat": 38.91071866666667, "bike_id": "32259477e960d3b261abe04f0f8fed28", "is_reserved": 0, "is_disabled": 0, "rental_uris": {"android": "https://dc.lft.to/lastmile_qr_scan", "ios": "https://dc.lft.to/lastmile_qr_scan"}, "fusion_lon": 0.0, "lon": -77.02294383333333, "type": "electric_scooter", "fusion_lat": 0.0, "name": "32259477e960d3b261abe04f0f8fed28"}, {"lat": 38.9138585, "bike_id": "29ddaba5096d0911b9f61a1e5e8a25b7", "is_reserved": 0, "is_disabled": 0, "rental_uris": {"android": "https://dc.lft.to/lastmile_qr_scan", "ios": "https://dc.lft.to/lastmile_qr_scan"}, "fusion_lon": 0.0, "lon": -77.004588, "type": "electric_scooter", "fusion_lat": 0.0, "name": "29ddaba5096d0911b9f61a1e5e8a25b7"}, {"lat": 38.92867366666667, "bike_id": "5c700ee301c2574e767fcfd1c85baa93", "is_reserved": 0, "is_disabled": 0, "rental_uris": {"android": "https://dc.lft.to/lastmile_qr_scan", "ios": "https://dc.lft.to/lastmile_qr_scan"}, "fusion_lon": 0.0, "lon": -77.0332825, "type": "electric_scooter", "fusion_lat": 0.0, "name": "5c700ee301c2574e767fcfd1c85baa93"}, {"lat": 38.8972325, "bike_id": "bb4ebb828203731b98d9ad438a83823f", "is_reserved": 0, "is_disabled": 0, "rental_uris": {"android": "https://dc.lft.to/lastmile_qr_scan", "ios": "https://dc.lft.to/lastmile_qr_scan"}, "fusion_lon": 0.0, "lon": -77.026611, "type": "electric_scooter", "fusion_lat": 0.0, "name": "bb4ebb828203731b98d9ad438a83823f"}, {"lat": 38.90901916666667, "bike_id": "35b62ab67ddc2f4de18805b1d51d99cf", "is_reserved": 0, "is_disabled": 0, "rental_uris": {"android": "https://dc.lft.to/lastmile_qr_scan", "ios": "https://dc.lft.to/lastmile_qr_scan"}, "fusion_lon": 0.0, "lon": -76.9977055, "type": "electric_scooter", "fusion_lat": 0.0, "name": "35b62ab67ddc2f4de18805b1d51d99cf"}, {"lat": 38.89606416666667, "bike_id": "78388ec236651940aefbf7efd93bd9bc", "is_reserved": 0, "is_disabled": 0, "rental_uris": {"android": "https://dc.lft.to/lastmile_qr_scan", "ios": "https://dc.lft.to/lastmile_qr_scan"}, "fusion_lon": 0.0, "lon": -77.03021483333333, "type": "electric_scooter", "fusion_lat": 0.0, "name": "78388ec236651940aefbf7efd93bd9bc"}, {"lat": 38.92876366666667, "bike_id": "b7b749e7483930f0ea10f07a60b36961", "is_reserved": 0, "is_disabled": 0, "rental_uris": {"android": "https://dc.lft.to/lastmile_qr_scan", "ios": "https://dc.lft.to/lastmile_qr_scan"}, "fusion_lon": 0.0, "lon": -77.0333175, "type": "electric_scooter", "fusion_lat": 0.0, "name": "b7b749e7483930f0ea10f07a60b36961"}, {"lat": 38.9496085, "bike_id": "cf9734bfb43f7ea927c8a4e7e6609333", "is_reserved": 0, "is_disabled": 0, "rental_uris": {"android": "https://dc.lft.to/lastmile_qr_scan", "ios": "https://dc.lft.to/lastmile_qr_scan"}, "fusion_lon": 0.0, "lon": -77.02721333333334, "type": "electric_scooter", "fusion_lat": 0.0, "name": "cf9734bfb43f7ea927c8a4e7e6609333"}, {"lat": 38.90266466666667, "bike_id": "6d72a4189067e15b4f937bc9c1fe0dd3", "is_reserved": 0, "is_disabled": 0, "rental_uris": {"android": "https://dc.lft.to/lastmile_qr_scan", "ios": "https://dc.lft.to/lastmile_qr_scan"}, "fusion_lon": 0.0, "lon": -77.00886866666667, "type": "electric_scooter", "fusion_lat": 0.0, "name": "6d72a4189067e15b4f937bc9c1fe0dd3"}, {"lat": 38.93802683333333, "bike_id": "65f0e8a084956e90bc1f4cdb77d59c6b", "is_reserved": 0, "is_disabled": 0, "rental_uris": {"android": "https://dc.lft.to/lastmile_qr_scan", "ios": "https://dc.lft.to/lastmile_qr_scan"}, "fusion_lon": 0.0, "lon": -77.02428316666666, "type": "electric_scooter", "fusion_lat": 0.0, "name": "65f0e8a084956e90bc1f4cdb77d59c6b"}, {"lat": 38.886728166666664, "bike_id": "caff461824b72d62972201483585f70b", "is_reserved": 0, "is_disabled": 0, "rental_uris": {"android": "https://dc.lft.to/lastmile_qr_scan", "ios": "https://dc.lft.to/lastmile_qr_scan"}, "fusion_lon": 0.0, "lon": -76.936114, "type": "electric_scooter", "fusion_lat": 0.0, "name": "caff461824b72d62972201483585f70b"}, {"lat": 38.9072315, "bike_id": "7b5990dd5c9250bacc44213228cf8974", "is_reserved": 0, "is_disabled": 0, "rental_uris": {"android": "https://dc.lft.to/lastmile_qr_scan", "ios": "https://dc.lft.to/lastmile_qr_scan"}, "fusion_lon": 0.0, "lon": -77.04052, "type": "electric_scooter", "fusion_lat": 0.0, "name": "7b5990dd5c9250bacc44213228cf8974"}, {"lat": 38.90015233333333, "bike_id": "f01f0155118f7214154845bafc062c42", "is_reserved": 0, "is_disabled": 0, "rental_uris": {"android": "https://dc.lft.to/lastmile_qr_scan", "ios": "https://dc.lft.to/lastmile_qr_scan"}, "fusion_lon": 0.0, "lon": -77.00041233333333, "type": "electric_scooter", "fusion_lat": 0.0, "name": "f01f0155118f7214154845bafc062c42"}, {"lat": 38.89222766666666, "bike_id": "f1bab86651a504c52fb77c6497eaa275", "is_reserved": 0, "is_disabled": 0, "rental_uris": {"android": "https://dc.lft.to/lastmile_qr_scan", "ios": "https://dc.lft.to/lastmile_qr_scan"}, "fusion_lon": 0.0, "lon": -77.04336, "type": "electric_scooter", "fusion_lat": 0.0, "name": "f1bab86651a504c52fb77c6497eaa275"}, {"lat": 38.91680483333333, "bike_id": "5a6c4a34146440edb45724795df5c423", "is_reserved": 0, "is_disabled": 0, "rental_uris": {"android": "https://dc.lft.to/lastmile_qr_scan", "ios": "https://dc.lft.to/lastmile_qr_scan"}, "fusion_lon": 0.0, "lon": -77.0271495, "type": "electric_scooter", "fusion_lat": 0.0, "name": "5a6c4a34146440edb45724795df5c423"}, {"lat": 38.928417, "bike_id": "723ec044785f6de400940cf5a321585f", "is_reserved": 0, "is_disabled": 0, "rental_uris": {"android": "https://dc.lft.to/lastmile_qr_scan", "ios": "https://dc.lft.to/lastmile_qr_scan"}, "fusion_lon": 0.0, "lon": -76.99364983333334, "type": "electric_scooter", "fusion_lat": 0.0, "name": "723ec044785f6de400940cf5a321585f"}, {"lat": 38.909592833333335, "bike_id": "9ff3951e3f82cb20df5e931ab4cbea0f", "is_reserved": 0, "is_disabled": 0, "rental_uris": {"android": "https://dc.lft.to/lastmile_qr_scan", "ios": "https://dc.lft.to/lastmile_qr_scan"}, "fusion_lon": 0.0, "lon": -77.03305583333334, "type": "electric_scooter", "fusion_lat": 0.0, "name": "9ff3951e3f82cb20df5e931ab4cbea0f"}, {"lat": 38.89493, "bike_id": "0ba0ee9a0cd69d6b4d6c78326896a9c3", "is_reserved": 0, "is_disabled": 0, "rental_uris": {"android": "https://dc.lft.to/lastmile_qr_scan", "ios": "https://dc.lft.to/lastmile_qr_scan"}, "fusion_lon": 0.0, "lon": -77.002962, "type": "electric_scooter", "fusion_lat": 0.0, "name": "0ba0ee9a0cd69d6b4d6c78326896a9c3"}, {"lat": 38.92144116666667, "bike_id": "5ddf13523d2900402499bd85df255882", "is_reserved": 0, "is_disabled": 0, "rental_uris": {"android": "https://dc.lft.to/lastmile_qr_scan", "ios": "https://dc.lft.to/lastmile_qr_scan"}, "fusion_lon": 0.0, "lon": -77.0344795, "type": "electric_scooter", "fusion_lat": 0.0, "name": "5ddf13523d2900402499bd85df255882"}, {"lat": 38.897324, "bike_id": "7e9b37a8ce950f436dcf4e3a6493d257", "is_reserved": 0, "is_disabled": 0, "rental_uris": {"android": "https://dc.lft.to/lastmile_qr_scan", "ios": "https://dc.lft.to/lastmile_qr_scan"}, "fusion_lon": 0.0, "lon": -77.003729, "type": "electric_scooter", "fusion_lat": 0.0, "name": "7e9b37a8ce950f436dcf4e3a6493d257"}, {"lat": 38.907840666666665, "bike_id": "193e5964c7487d0edee08dddf044e6f1", "is_reserved": 0, "is_disabled": 0, "rental_uris": {"android": "https://dc.lft.to/lastmile_qr_scan", "ios": "https://dc.lft.to/lastmile_qr_scan"}, "fusion_lon": 0.0, "lon": -77.031997, "type": "electric_scooter", "fusion_lat": 0.0, "name": "193e5964c7487d0edee08dddf044e6f1"}, {"lat": 38.9433845, "bike_id": "304adb5eb6bbf124e79946e5f79bc360", "is_reserved": 0, "is_disabled": 0, "rental_uris": {"android": "https://dc.lft.to/lastmile_qr_scan", "ios": "https://dc.lft.to/lastmile_qr_scan"}, "fusion_lon": 0.0, "lon": -77.063005, "type": "electric_scooter", "fusion_lat": 0.0, "name": "304adb5eb6bbf124e79946e5f79bc360"}, {"lat": 38.91796733333334, "bike_id": "5b2097fc32e752a5d1bd961290433ee1", "is_reserved": 0, "is_disabled": 0, "rental_uris": {"android": "https://dc.lft.to/lastmile_qr_scan", "ios": "https://dc.lft.to/lastmile_qr_scan"}, "fusion_lon": 0.0, "lon": -77.03208266666667, "type": "electric_scooter", "fusion_lat": 0.0, "name": "5b2097fc32e752a5d1bd961290433ee1"}, {"lat": 38.862669, "bike_id": "0ae1a9a0f47956e3af1d54e8feae2668", "is_reserved": 0, "is_disabled": 0, "rental_uris": {"android": "https://dc.lft.to/lastmile_qr_scan", "ios": "https://dc.lft.to/lastmile_qr_scan"}, "fusion_lon": 0.0, "lon": -76.9868995, "type": "electric_scooter", "fusion_lat": 0.0, "name": "0ae1a9a0f47956e3af1d54e8feae2668"}, {"lat": 38.895417, "bike_id": "d70dada07701504a6ecda14200039a20", "is_reserved": 0, "is_disabled": 0, "rental_uris": {"android": "https://dc.lft.to/lastmile_qr_scan", "ios": "https://dc.lft.to/lastmile_qr_scan"}, "fusion_lon": 0.0, "lon": -77.00198166666667, "type": "electric_scooter", "fusion_lat": 0.0, "name": "d70dada07701504a6ecda14200039a20"}, {"lat": 38.936, "bike_id": "77b9428229418fbbbaef1c321f319b03", "is_reserved": 0, "is_disabled": 0, "rental_uris": {"android": "https://dc.lft.to/lastmile_qr_scan", "ios": "https://dc.lft.to/lastmile_qr_scan"}, "fusion_lon": 0.0, "lon": -77.036507, "type": "electric_scooter", "fusion_lat": 0.0, "name": "77b9428229418fbbbaef1c321f319b03"}, {"lat": 38.904083166666666, "bike_id": "e3f3cbd4680fcec68e5d8e8eb1a6ddcd", "is_reserved": 0, "is_disabled": 0, "rental_uris": {"android": "https://dc.lft.to/lastmile_qr_scan", "ios": "https://dc.lft.to/lastmile_qr_scan"}, "fusion_lon": 0.0, "lon": -76.97330466666666, "type": "electric_scooter", "fusion_lat": 0.0, "name": "e3f3cbd4680fcec68e5d8e8eb1a6ddcd"}, {"lat": 38.9053715, "bike_id": "f591dd078433670be8ce2185651672f1", "is_reserved": 0, "is_disabled": 0, "rental_uris": {"android": "https://dc.lft.to/lastmile_qr_scan", "ios": "https://dc.lft.to/lastmile_qr_scan"}, "fusion_lon": 0.0, "lon": -77.04903683333333, "type": "electric_scooter", "fusion_lat": 0.0, "name": "f591dd078433670be8ce2185651672f1"}, {"lat": 38.9155005, "bike_id": "85a750fc960b2a6b5d502cfce7ffa041", "is_reserved": 0, "is_disabled": 0, "rental_uris": {"android": "https://dc.lft.to/lastmile_qr_scan", "ios": "https://dc.lft.to/lastmile_qr_scan"}, "fusion_lon": 0.0, "lon": -77.029723, "type": "electric_scooter", "fusion_lat": 0.0, "name": "85a750fc960b2a6b5d502cfce7ffa041"}, {"lat": 38.9023945, "bike_id": "cc38ccf628bd8cb390dd6f96931ac714", "is_reserved": 0, "is_disabled": 0, "rental_uris": {"android": "https://dc.lft.to/lastmile_qr_scan", "ios": "https://dc.lft.to/lastmile_qr_scan"}, "fusion_lon": 0.0, "lon": -77.00201633333333, "type": "electric_scooter", "fusion_lat": 0.0, "name": "cc38ccf628bd8cb390dd6f96931ac714"}, {"lat": 38.9110805, "bike_id": "e25c364f56729cc85ac4b31211cfd173", "is_reserved": 0, "is_disabled": 0, "rental_uris": {"android": "https://dc.lft.to/lastmile_qr_scan", "ios": "https://dc.lft.to/lastmile_qr_scan"}, "fusion_lon": 0.0, "lon": -77.04832183333333, "type": "electric_scooter", "fusion_lat": 0.0, "name": "e25c364f56729cc85ac4b31211cfd173"}, {"lat": 38.95719116666667, "bike_id": "717e9dd2dcc26050e336e67e27be232f", "is_reserved": 0, "is_disabled": 0, "rental_uris": {"android": "https://dc.lft.to/lastmile_qr_scan", "ios": "https://dc.lft.to/lastmile_qr_scan"}, "fusion_lon": 0.0, "lon": -77.0023355, "type": "electric_scooter", "fusion_lat": 0.0, "name": "717e9dd2dcc26050e336e67e27be232f"}, {"lat": 38.89501033333333, "bike_id": "0d6f1060c9b88ee6cd21ab45e26f20c4", "is_reserved": 0, "is_disabled": 0, "rental_uris": {"android": "https://dc.lft.to/lastmile_qr_scan", "ios": "https://dc.lft.to/lastmile_qr_scan"}, "fusion_lon": 0.0, "lon": -77.01122916666667, "type": "electric_scooter", "fusion_lat": 0.0, "name": "0d6f1060c9b88ee6cd21ab45e26f20c4"},