{"data": {"bikes": [{"lat": 38.9202625, "fusion_lat": 0.0, "type": "electric_scooter", "bike_id": "97be77e74c8d0417e93d55146630f0b3", "rental_uris": {"ios": "https://dc.lft.to/lastmile_qr_scan", "android": "https://dc.lft.to/lastmile_qr_scan"}, "fusion_lon": 0.0, "lon": -77.01756966666666, "name": "97be77e74c8d0417e93d55146630f0b3", "is_reserved": 0, "is_disabled": 0}, {"lat": 38.920746, "fusion_lat": 0.0, "type": "electric_scooter", "bike_id": "28ac19277a45fc4f9d33c0012be2e1a9", "rental_uris": {"ios": "https://dc.lft.to/lastmile_qr_scan", "android": "https://dc.lft.to/lastmile_qr_scan"}, "fusion_lon": 0.0, "lon": -77.023114, "name": "28ac19277a45fc4f9d33c0012be2e1a9", "is_reserved": 0, "is_disabled": 0}, {"lat": 38.899287, "fusion_lat": 0.0, "type": "electric_scooter", "bike_id": "7a8b784757d4119a2538d10f8505dfff", "rental_uris": {"ios": "https://dc.lft.to/lastmile_qr_scan", "android": "https://dc.lft.to/lastmile_qr_scan"}, "fusion_lon": 0.0, "lon": -77.01270666666667, "name": "7a8b784757d4119a2538d10f8505dfff", "is_reserved": 0, "is_disabled": 0}, {"lat": 38.94416566666666, "fusion_lat": 0.0, "type": "electric_scooter", "bike_id": "1c4a364d06374546c296b2cac156b80b", "rental_uris": {"ios": "https://dc.lft.to/lastmile_qr_scan", "android": "https://dc.lft.to/lastmile_qr_scan"}, "fusion_lon": 0.0, "lon": -77.01780733333334, "name": "1c4a364d06374546c296b2cac156b80b", "is_reserved": 0, "is_disabled": 0}, {"lat": 38.859482, "fusion_lat": 0.0, "type": "electric_scooter", "bike_id": "4efd5cd400183ce33006b1f271c62041", "rental_uris": {"ios": "https://dc.lft.to/lastmile_qr_scan", "android": "https://dc.lft.to/lastmile_qr_scan"}, "fusion_lon": 0.0, "lon": -76.95878183333333, "name": "4efd5cd400183ce33006b1f271c62041", "is_reserved": 0, "is_disabled": 0}, {"lat": 38.897108833333334, "fusion_lat": 0.0, "type": "electric_scooter", "bike_id": "55c32dba62cee5e83a6b0f0851a97d69", "rental_uris": {"ios": "https://dc.lft.to/lastmile_qr_scan", "android": "https://dc.lft.to/lastmile_qr_scan"}, "fusion_lon": 0.0, "lon": -77.02794966666667, "name": "55c32dba62cee5e83a6b0f0851a97d69", "is_reserved": 0, "is_disabled": 0}, {"lat": 38.9160805, "fusion_lat": 0.0, "type": "electric_scooter", "bike_id": "b2c89ab5706ae048e7b5133805f1a344", "rental_uris": {"ios": "https://dc.lft.to/lastmile_qr_scan", "android": "https://dc.lft.to/lastmile_qr_scan"}, "fusion_lon": 0.0, "lon": -77.0318845, "name": "b2c89ab5706ae048e7b5133805f1a344", "is_reserved": 0, "is_disabled": 0}, {"lat": 38.8961705, "fusion_lat": 0.0, "type": "electric_scooter", "bike_id": "db11eeef3f345c8867d2f484bfc04bbd", "rental_uris": {"ios": "https://dc.lft.to/lastmile_qr_scan", "android": "https://dc.lft.to/lastmile_qr_scan"}, "fusion_lon": 0.0, "lon": -77.0295965, "name": "db11eeef3f345c8867d2f484bfc04bbd", "is_reserved": 0, "is_disabled": 0}, {"lat": 38.89704016666666, "fusion_lat": 0.0, "type": "electric_scooter", "bike_id": "445b75e54af330acd15e250924fbf569", "rental_uris": {"ios": "https://dc.lft.to/lastmile_qr_scan", "android": "https://dc.lft.to/lastmile_qr_scan"}, "fusion_lon": 0.0, "lon": -76.93578783333334, "name": "445b75e54af330acd15e250924fbf569", "is_reserved": 0, "is_disabled": 0}, {"lat": 38.96140283333333, "fusion_lat": 0.0, "type": "electric_scooter", "bike_id": "9eefcfb2c9e19a8fae031524ba486d03", "rental_uris": {"ios": "https://dc.lft.to/lastmile_qr_scan", "android": "https://dc.lft.to/lastmile_qr_scan"}, "fusion_lon": 0.0, "lon": -77.0277485, "name": "9eefcfb2c9e19a8fae031524ba486d03", "is_reserved": 0, "is_disabled": 0}, {"lat": 38.98037166666667, "fusion_lat": 0.0, "type": "electric_bike", "bike_id": "4ad88534cddd4dfe1413b142aa271cb6", "rental_uris": {"ios": "https://dc.lft.to/lastmile_qr_scan", "android": "https://dc.lft.to/lastmile_qr_scan"}, "fusion_lon": 0.0, "lon": -76.95791833333334, "name": "4ad88534cddd4dfe1413b142aa271cb6", "is_reserved": 0, "is_disabled": 0}, {"lat": 38.93455816666667, "fusion_lat": 0.0, "type": "electric_scooter", "bike_id": "62a92825b415def5c7a85f6aead37fbb", "rental_uris": {"ios": "https://dc.lft.to/lastmile_qr_scan", "android": "https://dc.lft.to/lastmile_qr_scan"}, "fusion_lon": 0.0, "lon": -77.0291435, "name": "62a92825b415def5c7a85f6aead37fbb", "is_reserved": 0, "is_disabled": 0}, {"lat": 38.94456016666667, "fusion_lat": 0.0, "type": "electric_scooter", "bike_id": "d9668a3f5b67b07ec476a562494e0728", "rental_uris": {"ios": "https://dc.lft.to/lastmile_qr_scan", "android": "https://dc.lft.to/lastmile_qr_scan"}, "fusion_lon": 0.0, "lon": -77.06353683333333, "name": "d9668a3f5b67b07ec476a562494e0728", "is_reserved": 0, "is_disabled": 0}, {"lat": 38.91268866666667, "fusion_lat": 0.0, "type": "electric_scooter", "bike_id": "e5062f1876c6526a513f962cbf035c26", "rental_uris": {"ios": "https://dc.lft.to/lastmile_qr_scan", "android": "https://dc.lft.to/lastmile_qr_scan"}, "fusion_lon": 0.0, "lon": -77.07436566666667, "name": "e5062f1876c6526a513f962cbf035c26", "is_reserved": 0, "is_disabled": 0}, {"lat": 38.9280925, "fusion_lat": 0.0, "type": "electric_scooter", "bike_id": "8ec3d547d60206dd5698ac71cd9a4316", "rental_uris": {"ios": "https://dc.lft.to/lastmile_qr_scan", "android": "https://dc.lft.to/lastmile_qr_scan"}, "fusion_lon": 0.0, "lon": -77.0363455, "name": "8ec3d547d60206dd5698ac71cd9a4316", "is_reserved": 0, "is_disabled": 0}, {"lat": 38.928701, "fusion_lat": 0.0, "type": "electric_scooter", "bike_id": "8d1d3a51cd508279d1add1d2a86f8271", "rental_uris": {"ios": "https://dc.lft.to/lastmile_qr_scan", "android": "https://dc.lft.to/lastmile_qr_scan"}, "fusion_lon": 0.0, "lon": -77.03440766666667, "name": "8d1d3a51cd508279d1add1d2a86f8271", "is_reserved": 0, "is_disabled": 0}, {"lat": 38.920737333333335, "fusion_lat": 0.0, "type": "electric_scooter", "bike_id": "a626891389326a722d746046ea5b3775", "rental_uris": {"ios": "https://dc.lft.to/lastmile_qr_scan", "android": "https://dc.lft.to/lastmile_qr_scan"}, "fusion_lon": 0.0, "lon": -77.02322233333334, "name": "a626891389326a722d746046ea5b3775", "is_reserved": 0, "is_disabled": 0}, {"lat": 38.89759866666667, "fusion_lat": 0.0, "type": "electric_scooter", "bike_id": "d85e343720440f8fa76c72f5219e6c2c", "rental_uris": {"ios": "https://dc.lft.to/lastmile_qr_scan", "android": "https://dc.lft.to/lastmile_qr_scan"}, "fusion_lon": 0.0, "lon": -76.98552533333333, "name": "d85e343720440f8fa76c72f5219e6c2c", "is_reserved": 0, "is_disabled": 0}, {"lat": 38.887357, "fusion_lat": 0.0, "type": "electric_scooter", "bike_id": "bcc7dbf73fc97528d27f31ceba75866f", "rental_uris": {"ios": "https://dc.lft.to/lastmile_qr_scan", "android": "https://dc.lft.to/lastmile_qr_scan"}, "fusion_lon": 0.0, "lon": -77.03185833333333, "name": "bcc7dbf73fc97528d27f31ceba75866f", "is_reserved": 0, "is_disabled": 0}, {"lat": 38.92122033333333, "fusion_lat": 0.0, "type": "electric_scooter", "bike_id": "57263a0347fdb528404a493f981acfc4", "rental_uris": {"ios": "https://dc.lft.to/lastmile_qr_scan", "android": "https://dc.lft.to/lastmile_qr_scan"}, "fusion_lon": 0.0, "lon": -77.0120965, "name": "57263a0347fdb528404a493f981acfc4", "is_reserved": 0, "is_disabled": 0}, {"lat": 38.93577833333333, "fusion_lat": 0.0, "type": "electric_bike", "bike_id": "75844946fca385a1e623981477ccb1ea", "rental_uris": {"ios": "https://dc.lft.to/lastmile_qr_scan", "android": "https://dc.lft.to/lastmile_qr_scan"}, "fusion_lon": 0.0, "lon": -77.021292, "name": "75844946fca385a1e623981477ccb1ea", "is_reserved": 0, "is_disabled": 0}, {"lat": 38.915758, "fusion_lat": 0.0, "type": "electric_bike", "bike_id": "c05be3111f30c3fc7f342bf9955a5a65", "rental_uris": {"ios": "https://dc.lft.to/lastmile_qr_scan", "android": "https://dc.lft.to/lastmile_qr_scan"}, "fusion_lon": 0.0, "lon": -77.050295, "name": "c05be3111f30c3fc7f342bf9955a5a65", "is_reserved": 0, "is_disabled": 0}, {"lat": 38.904841, "fusion_lat": 0.0, "type": "electric_scooter", "bike_id": "6144ae5d2d3d462d377f27aafe0372bb", "rental_uris": {"ios": "https://dc.lft.to/lastmile_qr_scan", "android": "https://dc.lft.to/lastmile_qr_scan"}, "fusion_lon": 0.0, "lon": -77.02930866666667, "name": "6144ae5d2d3d462d377f27aafe0372bb", "is_reserved": 0, "is_disabled": 0}, {"lat": 38.90322183333333, "fusion_lat": 0.0, "type": "electric_scooter", "bike_id": "f229fbebb9cb04b5a002143a677973d5", "rental_uris": {"ios": "https://dc.lft.to/lastmile_qr_scan", "android": "https://dc.lft.to/lastmile_qr_scan"}, "fusion_lon": 0.0, "lon": -77.01641466666666, "name": "f229fbebb9cb04b5a002143a677973d5", "is_reserved": 0, "is_disabled": 0}, {"lat": 38.9147475, "fusion_lat": 0.0, "type": "electric_scooter", "bike_id": "d02d41b1ff18e77896aa9db9d7db6aa4", "rental_uris": {"ios": "https://dc.lft.to/lastmile_qr_scan", "android": "https://dc.lft.to/lastmile_qr_scan"}, "fusion_lon": 0.0, "lon": -77.03814466666667, "name": "d02d41b1ff18e77896aa9db9d7db6aa4", "is_reserved": 0, "is_disabled": 0}, {"lat": 38.88769416666667, "fusion_lat": 0.0, "type": "electric_scooter", "bike_id": "c35e784f86242b68f70bc4d984c826cc", "rental_uris": {"ios": "https://dc.lft.to/lastmile_qr_scan", "android": "https://dc.lft.to/lastmile_qr_scan"}, "fusion_lon": 0.0, "lon": -77.02842066666666, "name": "c35e784f86242b68f70bc4d984c826cc", "is_reserved": 0, "is_disabled": 0}, {"lat": 38.92633933333333, "fusion_lat": 0.0, "type": "electric_scooter", "bike_id": "bc4ca99e84b8ae7f7f09951390819887", "rental_uris": {"ios": "https://dc.lft.to/lastmile_qr_scan", "android": "https://dc.lft.to/lastmile_qr_scan"}, "fusion_lon": 0.0, "lon": -77.02169366666666, "name": "bc4ca99e84b8ae7f7f09951390819887", "is_reserved": 0, "is_disabled": 0}, {"lat": 38.9020945, "fusion_lat": 0.0, "type": "electric_scooter", "bike_id": "988639815bffeeeb7a42db004cd9c739", "rental_uris": {"ios": "https://dc.lft.to/lastmile_qr_scan", "android": "https://dc.lft.to/lastmile_qr_scan"}, "fusion_lon": 0.0, "lon": -77.02367066666666, "name": "988639815bffeeeb7a42db004cd9c739", "is_reserved": 0, "is_disabled": 0}, {"lat": 38.89348533333333, "fusion_lat": 0.0, "type": "electric_bike", "bike_id": "a3dbac8a11c06f51e3910b345528894b", "rental_uris": {"ios": "https://dc.lft.to/lastmile_qr_scan", "android": "https://dc.lft.to/lastmile_qr_scan"}, "fusion_lon": 0.0, "lon": -76.99256566666666, "name": "a3dbac8a11c06f51e3910b345528894b", "is_reserved": 0, "is_disabled": 0}, {"lat": 38.908098, "fusion_lat": 0.0, "type": "electric_scooter", "bike_id": "1f535a057d532857d2d4c5e5eed34df0", "rental_uris": {"ios": "https://dc.lft.to/lastmile_qr_scan", "android": "https://dc.lft.to/lastmile_qr_scan"}, "fusion_lon": 0.0, "lon": -77.043295, "name": "1f535a057d532857d2d4c5e5eed34df0", "is_reserved": 0, "is_disabled": 0}, {"lat": 38.8718815, "fusion_lat": 0.0, "type": "electric_scooter", "bike_id": "d5dab7215c3ca69a3ce68c6280874c97", "rental_uris": {"ios": "https://dc.lft.to/lastmile_qr_scan", "android": "https://dc.lft.to/lastmile_qr_scan"}, "fusion_lon": 0.0, "lon": -77.00642516666667, "name": "d5dab7215c3ca69a3ce68c6280874c97", "is_reserved": 0, "is_disabled": 0}, {"lat": 38.89759166666666, "fusion_lat": 0.0, "type": "electric_scooter", "bike_id": "7f63441b16da27d4d369c1c9e82da6bd", "rental_uris": {"ios": "https://dc.lft.to/lastmile_qr_scan", "android": "https://dc.lft.to/lastmile_qr_scan"}, "fusion_lon": 0.0, "lon": -77.04344583333334, "name": "7f63441b16da27d4d369c1c9e82da6bd", "is_reserved": 0, "is_disabled": 0}, {"lat": 38.842800833333335, "fusion_lat": 0.0, "type": "electric_bike", "bike_id": "ec3a3d7c85e1f1d290c90423fa7f072c", "rental_uris": {"ios": "https://dc.lft.to/lastmile_qr_scan", "android": "https://dc.lft.to/lastmile_qr_scan"}, "fusion_lon": 0.0, "lon": -77.0751995, "name": "ec3a3d7c85e1f1d290c90423fa7f072c", "is_reserved": 0, "is_disabled": 0}, {"lat": 38.89220066666667, "fusion_lat": 0.0, "type": "electric_scooter", "bike_id": "9317868ea9f6b93d070535034ad971e3", "rental_uris": {"ios": "https://dc.lft.to/lastmile_qr_scan", "android": "https://dc.lft.to/lastmile_qr_scan"}, "fusion_lon": 0.0, "lon": -77.04465233333333, "name": "9317868ea9f6b93d070535034ad971e3", "is_reserved": 0, "is_disabled": 0}, {"lat": 38.906568, "fusion_lat": 0.0, "type": "electric_scooter", "bike_id": "c9c601b841fe4b2063ed0334ffe1f01b", "rental_uris": {"ios": "https://dc.lft.to/lastmile_qr_scan", "android": "https://dc.lft.to/lastmile_qr_scan"}, "fusion_lon": 0.0, "lon": -77.0387035, "name": "c9c601b841fe4b2063ed0334ffe1f01b", "is_reserved": 0, "is_disabled": 0}, {"lat": 38.91594333333333, "fusion_lat": 0.0, "type": "electric_scooter", "bike_id": "bfb31ac2d578da8a77f68c2256dec426", "rental_uris": {"ios": "https://dc.lft.to/lastmile_qr_scan", "android": "https://dc.lft.to/lastmile_qr_scan"}, "fusion_lon": 0.0, "lon": -77.0148135, "name": "bfb31ac2d578da8a77f68c2256dec426", "is_reserved": 0, "is_disabled": 0}, {"lat": 38.932136666666665, "fusion_lat": 0.0, "type": "electric_scooter", "bike_id": "227c845b818a27ad1f8e8665254fa42c", "rental_uris": {"ios": "https://dc.lft.to/lastmile_qr_scan", "android": "https://dc.lft.to/lastmile_qr_scan"}, "fusion_lon": 0.0, "lon": -77.03524666666667, "name": "227c845b818a27ad1f8e8665254fa42c", "is_reserved": 0, "is_disabled": 0}, {"lat": 38.887627333333334, "fusion_lat": 0.0, "type": "electric_scooter", "bike_id": "0d3df1a3a8e2034bc398e1810bd355d1", "rental_uris": {"ios": "https://dc.lft.to/lastmile_qr_scan", "android": "https://dc.lft.to/lastmile_qr_scan"}, "fusion_lon": 0.0, "lon": -76.98295366666666, "name": "0d3df1a3a8e2034bc398e1810bd355d1", "is_reserved": 0, "is_disabled": 0}, {"lat": 38.911128833333336, "fusion_lat": 0.0, "type": "electric_scooter", "bike_id": "d26764a6744ae7e2f8b080f1c84ed406", "rental_uris": {"ios": "https://dc.lft.to/lastmile_qr_scan", "android": "https://dc.lft.to/lastmile_qr_scan"}, "fusion_lon": 0.0, "lon": -77.03081483333334, "name": "d26764a6744ae7e2f8b080f1c84ed406", "is_reserved": 0, "is_disabled": 0}, {"lat": 38.91414733333333, "fusion_lat": 0.0, "type": "electric_scooter", "bike_id": "69334077d8cfd01bfe75c5d88050256e", "rental_uris": {"ios": "https://dc.lft.to/lastmile_qr_scan", "android": "https://dc.lft.to/lastmile_qr_scan"}, "fusion_lon": 0.0, "lon": -77.02236283333333, "name": "69334077d8cfd01bfe75c5d88050256e", "is_reserved": 0, "is_disabled": 0}, {"lat": 38.920371, "fusion_lat": 0.0, "type": "electric_scooter", "bike_id": "d3aedc0ada255db21a76fb4c0900773a", "rental_uris": {"ios": "https://dc.lft.to/lastmile_qr_scan", "android": "https://dc.lft.to/lastmile_qr_scan"}, "fusion_lon": 0.0, "lon": -77.012256, "name": "d3aedc0ada255db21a76fb4c0900773a", "is_reserved": 0, "is_disabled": 0}, {"lat": 38.9021055, "fusion_lat": 0.0, "type": "electric_scooter", "bike_id": "1d83a613eeb414a79affeb3b491bfaeb", "rental_uris": {"ios": "https://dc.lft.to/lastmile_qr_scan", "android": "https://dc.lft.to/lastmile_qr_scan"}, "fusion_lon": 0.0, "lon": -76.97431183333333, "name": "1d83a613eeb414a79affeb3b491bfaeb", "is_reserved": 0, "is_disabled": 0}, {"lat": 38.904892, "fusion_lat": 0.0, "type": "electric_scooter", "bike_id": "04d537bfa2435cd3f0f149f7f60843cc", "rental_uris": {"ios": "https://dc.lft.to/lastmile_qr_scan", "android": "https://dc.lft.to/lastmile_qr_scan"}, "fusion_lon": 0.0, "lon": -77.02797916666667, "name": "04d537bfa2435cd3f0f149f7f60843cc", "is_reserved": 0, "is_disabled": 0}, {"lat": 38.898069666666665, "fusion_lat": 0.0, "type": "electric_scooter", "bike_id": "dcca2e498f8f6332acb6c1420a639bf0", "rental_uris": {"ios": "https://dc.lft.to/lastmile_qr_scan", "android": "https://dc.lft.to/lastmile_qr_scan"}, "fusion_lon": 0.0, "lon": -77.04195433333334, "name": "dcca2e498f8f6332acb6c1420a639bf0", "is_reserved": 0, "is_disabled": 0}, {"lat": 38.907116333333335, "fusion_lat": 0.0, "type": "electric_scooter", "bike_id": "43c39cc7872dc3461bc50065f78ecf96", "rental_uris": {"ios": "https://dc.lft.to/lastmile_qr_scan", "android": "https://dc.lft.to/lastmile_qr_scan"}, "fusion_lon": 0.0, "lon": -77.03576083333333, "name": "43c39cc7872dc3461bc50065f78ecf96", "is_reserved": 0, "is_disabled": 0}, {"lat": 38.923310666666666, "fusion_lat": 0.0, "type": "electric_scooter", "bike_id": "6f97b65c44c6285304058fde69baab3a", "rental_uris": {"ios": "https://dc.lft.to/lastmile_qr_scan", "android": "https://dc.lft.to/lastmile_qr_scan"}, "fusion_lon": 0.0, "lon": -77.05682266666666, "name": "6f97b65c44c6285304058fde69baab3a", "is_reserved": 0, "is_disabled": 0}, {"lat": 38.843439000000004, "fusion_lat": 0.0, "type": "electric_scooter", "bike_id": "1bf030a48ca9908513557769473baa99", "rental_uris": {"ios": "https://dc.lft.to/lastmile_qr_scan", "android": "https://dc.lft.to/lastmile_qr_scan"}, "fusion_lon": 0.0, "lon": -76.99918183333334, "name": "1bf030a48ca9908513557769473baa99", "is_reserved": 0, "is_disabled": 0}, {"lat": 38.93576816666667, "fusion_lat": 0.0, "type": "electric_scooter", "bike_id": "faf4d350219acf629bab4aad922fba1b", "rental_uris": {"ios": "https://dc.lft.to/lastmile_qr_scan", "android": "https://dc.lft.to/lastmile_qr_scan"}, "fusion_lon": 0.0, "lon": -77.02130783333334, "name": "faf4d350219acf629bab4aad922fba1b", "is_reserved": 0, "is_disabled": 0}, {"lat": 38.91815583333333, "fusion_lat": 0.0, "type": "electric_scooter", "bike_id": "cbbeeee366f5f5397f0c70833942e56d", "rental_uris": {"ios": "https://dc.lft.to/lastmile_qr_scan", "android": "https://dc.lft.to/lastmile_qr_scan"}, "fusion_lon": 0.0, "lon": -77.02584416666667, "name": "cbbeeee366f5f5397f0c70833942e56d", "is_reserved": 0, "is_disabled": 0}, {"lat": 38.90253883333333, "fusion_lat": 0.0, "type": "electric_scooter", "bike_id": "252a2b95c71f1301c728bb407075c967", "rental_uris": {"ios": "https://dc.lft.to/lastmile_qr_scan", "android": "https://dc.lft.to/lastmile_qr_scan"}, "fusion_lon": 0.0, "lon": -77.0341115, "name": "252a2b95c71f1301c728bb407075c967", "is_reserved": 0, "is_disabled": 0}, {"lat": 38.8834135, "fusion_lat": 0.0, "type": "electric_scooter", "bike_id": "83e821ef4a4ec5dc3de3035309645334", "rental_uris": {"ios": "https://dc.lft.to/lastmile_qr_scan", "android": "https://dc.lft.to/lastmile_qr_scan"}, "fusion_lon": 0.0, "lon": -76.93500033333333, "name": "83e821ef4a4ec5dc3de3035309645334", "is_reserved": 0, "is_disabled": 0}, {"lat": 38.90973133333333, "fusion_lat": 0.0, "type": "electric_scooter", "bike_id": "b3e8fc0ad9e66885ec2547cb41f4afbd", "rental_uris": {"ios": "https://dc.lft.to/lastmile_qr_scan", "android": "https://dc.lft.to/lastmile_qr_scan"}, "fusion_lon": 0.0, "lon": -77.03862383333333, "name": "b3e8fc0ad9e66885ec2547cb41f4afbd", "is_reserved": 0, "is_disabled": 0}, {"lat": 38.904097166666666, "fusion_lat": 0.0, "type": "electric_scooter", "bike_id": "ff88b81b557d2e848165985c0db590d5", "rental_uris": {"ios": "https://dc.lft.to/lastmile_qr_scan", "android": "https://dc.lft.to/lastmile_qr_scan"}, "fusion_lon": 0.0, "lon": -76.973288, "name": "ff88b81b557d2e848165985c0db590d5", "is_reserved": 0, "is_disabled": 0}, {"lat": 38.905497833333335, "fusion_lat": 0.0, "type": "electric_scooter", "bike_id": "373b2b5cfd65edfbaa43f6315b779858", "rental_uris": {"ios": "https://dc.lft.to/lastmile_qr_scan", "android": "https://dc.lft.to/lastmile_qr_scan"}, "fusion_lon": 0.0, "lon": -77.00553233333333, "name": "373b2b5cfd65edfbaa43f6315b779858", "is_reserved": 0, "is_disabled": 0}, {"lat": 38.932941, "fusion_lat": 0.0, "type": "electric_scooter", "bike_id": "5104566874c23ca3276b1a7685bbe3b1", "rental_uris": {"ios": "https://dc.lft.to/lastmile_qr_scan", "android": "https://dc.lft.to/lastmile_qr_scan"}, "fusion_lon": 0.0, "lon": -77.02827483333333, "name": "5104566874c23ca3276b1a7685bbe3b1", "is_reserved": 0, "is_disabled": 0}, {"lat": 38.912562333333334, "fusion_lat": 0.0, "type": "electric_scooter", "bike_id": "20ac2e10addb408b37cf3219a109d7a3", "rental_uris": {"ios": "https://dc.lft.to/lastmile_qr_scan", "android": "https://dc.lft.to/lastmile_qr_scan"}, "fusion_lon": 0.0, "lon": -77.0474115, "name": "20ac2e10addb408b37cf3219a109d7a3", "is_reserved": 0, "is_disabled": 0}, {"lat": 38.917814, "fusion_lat": 0.0, "type": "electric_scooter", "bike_id": "788b31daf234abe624219810d0d7109c", "rental_uris": {"ios": "https://dc.lft.to/lastmile_qr_scan", "android": "https://dc.lft.to/lastmile_qr_scan"}, "fusion_lon": 0.0, "lon": -77.02288083333333, "name": "788b31daf234abe624219810d0d7109c", "is_reserved": 0, "is_disabled": 0}, {"lat": 38.89773016666667, "fusion_lat": 0.0, "type": "electric_scooter", "bike_id": "072fb410d7135954f1212726cc93d3d9", "rental_uris": {"ios": "https://dc.lft.to/lastmile_qr_scan", "android": "https://dc.lft.to/lastmile_qr_scan"}, "fusion_lon": 0.0, "lon": -76.99167716666666, "name": "072fb410d7135954f1212726cc93d3d9", "is_reserved": 0, "is_disabled": 0}, {"lat": 38.9116085, "fusion_lat": 0.0, "type": "electric_scooter", "bike_id": "1d344f86a055fd5ea0bacceb46dffe46", "rental_uris": {"ios": "https://dc.lft.to/lastmile_qr_scan", "android": "https://dc.lft.to/lastmile_qr_scan"}, "fusion_lon": 0.0, "lon": -77.00197966666667, "name": "1d344f86a055fd5ea0bacceb46dffe46", "is_reserved": 0, "is_disabled": 0}, {"lat": 38.905121333333334, "fusion_lat": 0.0, "type": "electric_scooter", "bike_id": "d82eebfc411dacb1c867688c07a094f5", "rental_uris": {"ios": "https://dc.lft.to/lastmile_qr_scan", "android": "https://dc.lft.to/lastmile_qr_scan"}, "fusion_lon": 0.0, "lon": -77.06741216666667, "name": "d82eebfc411dacb1c867688c07a094f5", "is_reserved": 0, "is_disabled": 0}, {"lat": 38.892366833333334, "fusion_lat": 0.0, "type": "electric_scooter", "bike_id": "7f239d14bd8dac4ef9d20e8a88b2ffa1", "rental_uris": {"ios": "https://dc.lft.to/lastmile_qr_scan", "android": "https://dc.lft.to/lastmile_qr_scan"}, "fusion_lon": 0.0, "lon": -77.02176183333333, "name": "7f239d14bd8dac4ef9d20e8a88b2ffa1", "is_reserved": 0, "is_disabled": 0}, {"lat": 38.904675, "fusion_lat": 0.0, "type": "electric_scooter", "bike_id": "e314794ac8491674e7bc2199f5a955d4", "rental_uris": {"ios": "https://dc.lft.to/lastmile_qr_scan", "android": "https://dc.lft.to/lastmile_qr_scan"}, "fusion_lon": 0.0, "lon": -77.05317683333334, "name": "e314794ac8491674e7bc2199f5a955d4", "is_reserved": 0, "is_disabled": 0}, {"lat": 38.923601833333336, "fusion_lat": 0.0, "type": "electric_scooter", "bike_id": "df04f74d6cc9f7b7a9520a4e060526e7", "rental_uris": {"ios": "https://dc.lft.to/lastmile_qr_scan", "android": "https://dc.lft.to/lastmile_qr_scan"}, "fusion_lon": 0.0, "lon": -77.0504575, "name": "df04f74d6cc9f7b7a9520a4e060526e7", "is_reserved": 0, "is_disabled": 0}, {"lat": 38.88729, "fusion_lat": 0.0, "type": "electric_scooter", "bike_id": "3d888fffedbe68edd40810e9b2f7d56d", "rental_uris": {"ios": "https://dc.lft.to/lastmile_qr_scan", "android": "https://dc.lft.to/lastmile_qr_scan"}, "fusion_lon": 0.0, "lon": -76.98361883333334, "name": "3d888fffedbe68edd40810e9b2f7d56d", "is_reserved": 0, "is_disabled": 0}, {"lat": 38.9258545, "fusion_lat": 0.0, "type": "electric_scooter", "bike_id": "9a0af9994314ff35fe68a30cc4dcd853", "rental_uris": {"ios": "https://dc.lft.to/lastmile_qr_scan", "android": "https://dc.lft.to/lastmile_qr_scan"}, "fusion_lon": 0.0, "lon": -77.0320365, "name": "9a0af9994314ff35fe68a30cc4dcd853", "is_reserved": 0, "is_disabled": 0}, {"lat": 38.912699, "fusion_lat": 0.0, "type": "electric_scooter", "bike_id": "a1119fafb5a9c5ae4efcc3431e1976a3", "rental_uris": {"ios": "https://dc.lft.to/lastmile_qr_scan", "android": "https://dc.lft.to/lastmile_qr_scan"}, "fusion_lon": 0.0, "lon": -77.02214066666667, "name": "a1119fafb5a9c5ae4efcc3431e1976a3", "is_reserved": 0, "is_disabled": 0}, {"lat": 38.974723, "fusion_lat": 0.0, "type": "electric_scooter", "bike_id": "8b025af1dc8728e083a247801bace542", "rental_uris": {"ios": "https://dc.lft.to/lastmile_qr_scan", "android": "https://dc.lft.to/lastmile_qr_scan"}, "fusion_lon": 0.0, "lon": -77.01399983333333, "name": "8b025af1dc8728e083a247801bace542", "is_reserved": 0, "is_disabled": 0}, {"lat": 38.94602066666667, "fusion_lat": 0.0, "type": "electric_scooter", "bike_id": "0c4c49f004694f02c1785748fc50f6a7", "rental_uris": {"ios": "https://dc.lft.to/lastmile_qr_scan", "android": "https://dc.lft.to/lastmile_qr_scan"}, "fusion_lon": 0.0, "lon": -77.0267245, "name": "0c4c49f004694f02c1785748fc50f6a7", "is_reserved": 0, "is_disabled": 0}, {"lat": 38.93806333333333, "fusion_lat": 0.0, "type": "electric_scooter", "bike_id": "b968d1eda1715f6ff6e0e3092be39877", "rental_uris": {"ios": "https://dc.lft.to/lastmile_qr_scan", "android": "https://dc.lft.to/lastmile_qr_scan"}, "fusion_lon": 0.0, "lon": -77.02422866666667, "name": "b968d1eda1715f6ff6e0e3092be39877", "is_reserved": 0, "is_disabled": 0}, {"lat": 38.892322166666666, "fusion_lat": 0.0, "type": "electric_scooter", "bike_id": "b737fbeee75db52a9d47132f009a2574", "rental_uris": {"ios": "https://dc.lft.to/lastmile_qr_scan", "android": "https://dc.lft.to/lastmile_qr_scan"}, "fusion_lon": 0.0, "lon": -77.05005766666666, "name": "b737fbeee75db52a9d47132f009a2574", "is_reserved": 0, "is_disabled": 0}, {"lat": 38.9541285, "fusion_lat": 0.0, "type": "electric_scooter", "bike_id": "163e1db926de5d74fbb49494d80e2bb2", "rental_uris": {"ios": "https://dc.lft.to/lastmile_qr_scan", "android": "https://dc.lft.to/lastmile_qr_scan"}, "fusion_lon": 0.0, "lon": -77.02797533333333, "name": "163e1db926de5d74fbb49494d80e2bb2", "is_reserved": 0, "is_disabled": 0}, {"lat": 38.88745133333333, "fusion_lat": 0.0, "type": "electric_scooter", "bike_id": "ab318f26b3debd59e5d20397573ac2fa", "rental_uris": {"ios": "https://dc.lft.to/lastmile_qr_scan", "android": "https://dc.lft.to/lastmile_qr_scan"}, "fusion_lon": 0.0, "lon": -77.0277125, "name": "ab318f26b3debd59e5d20397573ac2fa", "is_reserved": 0, "is_disabled": 0}, {"lat": 38.8843285, "fusion_lat": 0.0, "type": "electric_scooter", "bike_id": "0c576779945bb5d5e696b75a4e95c87e", "rental_uris": {"ios": "https://dc.lft.to/lastmile_qr_scan", "android": "https://dc.lft.to/lastmile_qr_scan"}, "fusion_lon": 0.0, "lon": -76.9576305, "name": "0c576779945bb5d5e696b75a4e95c87e", "is_reserved": 0, "is_disabled": 0}, {"lat": 38.91555183333333, "fusion_lat": 0.0, "type": "electric_bike", "bike_id": "c84f33c735543ecd618c159a153b9860", "rental_uris": {"ios": "https://dc.lft.to/lastmile_qr_scan", "android": "https://dc.lft.to/lastmile_qr_scan"}, "fusion_lon": 0.0, "lon": -77.04032833333333, "name": "c84f33c735543ecd618c159a153b9860", "is_reserved": 0, "is_disabled": 0}, {"lat": 38.90800316666667, "fusion_lat": 0.0, "type": "electric_scooter", "bike_id": "cbe7caec626c865fa8c2f8c8813d09ed", "rental_uris": {"ios": "https://dc.lft.to/lastmile_qr_scan", "android": "https://dc.lft.to/lastmile_qr_scan"}, "fusion_lon": 0.0, "lon": -77.04358633333334, "name": "cbe7caec626c865fa8c2f8c8813d09ed", "is_reserved": 0, "is_disabled": 0}, {"lat": 38.91633783333333, "fusion_lat": 0.0, "type": "electric_scooter", "bike_id": "bbf343f6c57cdcf0a7c1ca26b1b7c98e", "rental_uris": {"ios": "https://dc.lft.to/lastmile_qr_scan", "android": "https://dc.lft.to/lastmile_qr_scan"}, "fusion_lon": 0.0, "lon": -77.05069633333333, "name": "bbf343f6c57cdcf0a7c1ca26b1b7c98e", "is_reserved": 0, "is_disabled": 0}, {"lat": 38.910777833333334, "fusion_lat": 0.0, "type": "electric_scooter", "bike_id": "9dd164b9e50c258989ca726b2380da9d", "rental_uris": {"ios": "https://dc.lft.to/lastmile_qr_scan", "android": "https://dc.lft.to/lastmile_qr_scan"}, "fusion_lon": 0.0, "lon": -77.00149316666666, "name": "9dd164b9e50c258989ca726b2380da9d", "is_reserved": 0, "is_disabled": 0}, {"lat": 38.8997285, "fusion_lat": 0.0, "type": "electric_scooter", "bike_id": "810dce141b1d77b957b23ec55a11889b", "rental_uris": {"ios": "https://dc.lft.to/lastmile_qr_scan", "android": "https://dc.lft.to/lastmile_qr_scan"}, "fusion_lon": 0.0, "lon": -77.024549, "name": "810dce141b1d77b957b23ec55a11889b", "is_reserved": 0, "is_disabled": 0}, {"lat": 38.90856816666667, "fusion_lat": 0.0, "type": "electric_scooter", "bike_id": "decd53f121a3dcb96f991358a45c405d", "rental_uris": {"ios": "https://dc.lft.to/lastmile_qr_scan", "android": "https://dc.lft.to/lastmile_qr_scan"}, "fusion_lon": 0.0, "lon": -77.03835666666667, "name": "decd53f121a3dcb96f991358a45c405d", "is_reserved": 0, "is_disabled": 0}, {"lat": 38.90527083333333, "fusion_lat": 0.0, "type": "electric_scooter", "bike_id": "e3f3e9ee08ae2848ed35243d82f1e7f5", "rental_uris": {"ios": "https://dc.lft.to/lastmile_qr_scan", "android": "https://dc.lft.to/lastmile_qr_scan"}, "fusion_lon": 0.0, "lon": -77.05035866666667, "name": "e3f3e9ee08ae2848ed35243d82f1e7f5", "is_reserved": 0, "is_disabled": 0}, {"lat": 38.899167, "fusion_lat": 0.0, "type": "electric_scooter", "bike_id": "c1f2fcb77635994c37c0b59ca0d3e545", "rental_uris": {"ios": "https://dc.lft.to/lastmile_qr_scan", "android": "https://dc.lft.to/lastmile_qr_scan"}, "fusion_lon": 0.0, "lon": -77.0447105, "name": "c1f2fcb77635994c37c0b59ca0d3e545", "is_reserved": 0, "is_disabled": 0}, {"lat": 38.91023466666667, "fusion_lat": 0.0, "type": "electric_scooter", "bike_id": "df21c675eb75e3f62c21adae24d20b81", "rental_uris": {"ios": "https://dc.lft.to/lastmile_qr_scan", "android": "https://dc.lft.to/lastmile_qr_scan"}, "fusion_lon": 0.0, "lon": -77.029354, "name": "df21c675eb75e3f62c21adae24d20b81", "is_reserved": 0, "is_disabled": 0}, {"lat": 38.940855166666665, "fusion_lat": 0.0, "type": "electric_scooter", "bike_id": "b15ca4a4a4c402464bddaae90d73a099", "rental_uris": {"ios": "https://dc.lft.to/lastmile_qr_scan", "android": "https://dc.lft.to/lastmile_qr_scan"}, "fusion_lon": 0.0, "lon": -77.027236, "name": "b15ca4a4a4c402464bddaae90d73a099", "is_reserved": 0, "is_disabled": 0}, {"lat": 38.9146325, "fusion_lat": 0.0, "type": "electric_scooter", "bike_id": "82a6b5f18a37b4cb070c36ca0cb91b4f", "rental_uris": {"ios": "https://dc.lft.to/lastmile_qr_scan", "android": "https://dc.lft.to/lastmile_qr_scan"}, "fusion_lon": 0.0, "lon": -77.0021805, "name": "82a6b5f18a37b4cb070c36ca0cb91b4f", "is_reserved": 0, "is_disabled": 0}, {"lat": 38.92086883333333, "fusion_lat": 0.0, "type": "electric_scooter", "bike_id": "6e07513003868162121febaf9921c5b5", "rental_uris": {"ios": "https://dc.lft.to/lastmile_qr_scan", "android": "https://dc.lft.to/lastmile_qr_scan"}, "fusion_lon": 0.0, "lon": -77.081969, "name": "6e07513003868162121febaf9921c5b5", "is_reserved": 0, "is_disabled": 0}, {"lat": 38.86506833333333, "fusion_lat": 0.0, "type": "electric_bike", "bike_id": "5511985405db8037a75d5e16ff72aa15", "rental_uris": {"ios": "https://dc.lft.to/lastmile_qr_scan", "android": "https://dc.lft.to/lastmile_qr_scan"}, "fusion_lon": 0.0, "lon": -76.977418, "name": "5511985405db8037a75d5e16ff72aa15", "is_reserved": 0, "is_disabled": 0}, {"lat": 38.900503666666665, "fusion_lat": 0.0, "type": "electric_scooter", "bike_id": "9a86ee94c8326bf3c8c2aff812cd7c25", "rental_uris": {"ios": "https://dc.lft.to/lastmile_qr_scan", "android": "https://dc.lft.to/lastmile_qr_scan"}, "fusion_lon": 0.0, "lon": -77.04870033333333, "name": "9a86ee94c8326bf3c8c2aff812cd7c25", "is_reserved": 0, "is_disabled": 0}, {"lat": 38.900892, "fusion_lat": 0.0, "type": "electric_scooter", "bike_id": "0473bf9a64eedc582530faf5ab6a69f1", "rental_uris": {"ios": "https://dc.lft.to/lastmile_qr_scan", "android": "https://dc.lft.to/lastmile_qr_scan"}, "fusion_lon": 0.0, "lon": -77.0065235, "name": "0473bf9a64eedc582530faf5ab6a69f1", "is_reserved": 0, "is_disabled": 0}, {"lat": 38.90230416666667, "fusion_lat": 0.0, "type": "electric_scooter", "bike_id": "78bd59b15e82418da03c9d47f770d843", "rental_uris": {"ios": "https://dc.lft.to/lastmile_qr_scan", "android": "https://dc.lft.to/lastmile_qr_scan"}, "fusion_lon": 0.0, "lon": -77.033918, "name": "78bd59b15e82418da03c9d47f770d843", "is_reserved": 0, "is_disabled": 0}, {"lat": 38.915553333333335, "fusion_lat": 0.0, "type": "electric_scooter", "bike_id": "c60979660800d926e38d7b273628539b", "rental_uris": {"ios": "https://dc.lft.to/lastmile_qr_scan", "android": "https://dc.lft.to/lastmile_qr_scan"}, "fusion_lon": 0.0, "lon": -77.0069905, "name": "c60979660800d926e38d7b273628539b", "is_reserved": 0, "is_disabled": 0}, {"lat": 38.927942, "fusion_lat": 0.0, "type": "electric_scooter", "bike_id": "a736c65fcbeb11bd41d2fb62e43f5a10", "rental_uris": {"ios": "https://dc.lft.to/lastmile_qr_scan", "android": "https://dc.lft.to/lastmile_qr_scan"}, "fusion_lon": 0.0, "lon": -77.04056266666667, "name": "a736c65fcbeb11bd41d2fb62e43f5a10", "is_reserved": 0, "is_disabled": 0}, {"lat": 38.90035016666667, "fusion_lat": 0.0, "type": "electric_scooter", "bike_id": "48204d4bb4ef06fa975dab05720537d7", "rental_uris": {"ios": "https://dc.lft.to/lastmile_qr_scan", "android": "https://dc.lft.to/lastmile_qr_scan"}, "fusion_lon": 0.0, "lon": -77.02963283333334, "name": "48204d4bb4ef06fa975dab05720537d7", "is_reserved": 0, "is_disabled": 0}, {"lat": 38.931019666666664, "fusion_lat": 0.0, "type": "electric_scooter", "bike_id": "25328fff0fa9cd2dbbc022ad79844551", "rental_uris": {"ios": "https://dc.lft.to/lastmile_qr_scan", "android": "https://dc.lft.to/lastmile_qr_scan"}, "fusion_lon": 0.0, "lon": -77.02459166666667, "name": "25328fff0fa9cd2dbbc022ad79844551", "is_reserved": 0, "is_disabled": 0}, {"lat": 38.9177395, "fusion_lat": 0.0, "type": "electric_scooter", "bike_id": "f32dfb2db1ee3699ba6f1b7a4dda9539", "rental_uris": {"ios": "https://dc.lft.to/lastmile_qr_scan", "android": "https://dc.lft.to/lastmile_qr_scan"}, "fusion_lon": 0.0, "lon": -77.014968, "name": "f32dfb2db1ee3699ba6f1b7a4dda9539", "is_reserved": 0, "is_disabled": 0}, {"lat": 38.899794166666666, "fusion_lat": 0.0, "type": "electric_scooter", "bike_id": "d3a9734780790f2c0989662e5ab3713c", "rental_uris": {"ios": "https://dc.lft.to/lastmile_qr_scan", "android": "https://dc.lft.to/lastmile_qr_scan"}, "fusion_lon": 0.0, "lon": -77.02206416666667, "name": "d3a9734780790f2c0989662e5ab3713c", "is_reserved": 0, "is_disabled": 0}, {"lat": 38.906101666666665, "fusion_lat": 0.0, "type": "electric_scooter", "bike_id": "b4a1441b8fe775c31eae417032e219dd", "rental_uris": {"ios": "https://dc.lft.to/lastmile_qr_scan", "android": "https://dc.lft.to/lastmile_qr_scan"}, "fusion_lon": 0.0, "lon": -77.02179183333334, "name": "b4a1441b8fe775c31eae417032e219dd", "is_reserved": 0, "is_disabled": 0}, {"lat": 38.925281166666664, "fusion_lat": 0.0, "type": "electric_scooter", "bike_id": "fcc0609f55879d781c50d6b12ad71b90", "rental_uris": {"ios": "https://dc.lft.to/lastmile_qr_scan", "android": "https://dc.lft.to/lastmile_qr_scan"}, "fusion_lon": 0.0, "lon": -77.04133, "name": "fcc0609f55879d781c50d6b12ad71b90", "is_reserved": 0, "is_disabled": 0}, {"lat": 38.920684, "fusion_lat": 0.0, "type": "electric_scooter", "bike_id": "cbe90fac683691f68be34753e3c5648a", "rental_uris": {"ios": "https://dc.lft.to/lastmile_qr_scan", "android": "https://dc.lft.to/lastmile_qr_scan"}, "fusion_lon": 0.0, "lon": -77.0240885, "name": "cbe90fac683691f68be34753e3c5648a", "is_reserved": 0, "is_disabled": 0}, {"lat": 38.87247133333334, "fusion_lat": 0.0, "type": "electric_bike", "bike_id": "bfbdf0704962190b015a75445bc6ca62", "rental_uris": {"ios": "https://dc.lft.to/lastmile_qr_scan", "android": "https://dc.lft.to/lastmile_qr_scan"}, "fusion_lon": 0.0, "lon": -76.976746, "name": "bfbdf0704962190b015a75445bc6ca62", "is_reserved": 0, "is_disabled": 0}, {"lat": 38.909560166666665, "fusion_lat": 0.0, "type": "electric_scooter", "bike_id": "b2e73e3fb07d3bfb0d9d13e162616e07", "rental_uris": {"ios": "https://dc.lft.to/lastmile_qr_scan", "android": "https://dc.lft.to/lastmile_qr_scan"}, "fusion_lon": 0.0, "lon": -77.03438483333333, "name": "b2e73e3fb07d3bfb0d9d13e162616e07", "is_reserved": 0, "is_disabled": 0}, {"lat": 38.93049083333333, "fusion_lat": 0.0, "type": "electric_scooter", "bike_id": "4a6c548e13290ca84a20befc55d7df45", "rental_uris": {"ios": "https://dc.lft.to/lastmile_qr_scan", "android": "https://dc.lft.to/lastmile_qr_scan"}, "fusion_lon": 0.0, "lon": -77.0729955, "name": "4a6c548e13290ca84a20befc55d7df45", "is_reserved": 0, "is_disabled": 0}, {"lat": 38.89603366666667, "fusion_lat": 0.0, "type": "electric_scooter", "bike_id": "2c7cb26bcc95b771db666f4059501299", "rental_uris": {"ios": "https://dc.lft.to/lastmile_qr_scan", "android": "https://dc.lft.to/lastmile_qr_scan"}, "fusion_lon": 0.0, "lon": -77.00904283333334, "name": "2c7cb26bcc95b771db666f4059501299", "is_reserved": 0, "is_disabled": 0}, {"lat": 38.9480715, "fusion_lat": 0.0, "type": "electric_bike", "bike_id": "3a4c7f2ea55e3a6f44014459483d6424", "rental_uris": {"ios": "https://dc.lft.to/lastmile_qr_scan", "android": "https://dc.lft.to/lastmile_qr_scan"}, "fusion_lon": 0.0, "lon": -76.959699, "name": "3a4c7f2ea55e3a6f44014459483d6424", "is_reserved": 0, "is_disabled": 0}, {"lat": 38.92395116666667, "fusion_lat": 0.0, "type": "electric_scooter", "bike_id": "b50127fd6cc6ed36f11518aa95d00a79", "rental_uris": {"ios": "https://dc.lft.to/lastmile_qr_scan", "android": "https://dc.lft.to/lastmile_qr_scan"}, "fusion_lon": 0.0, "lon": -77.0505345, "name": "b50127fd6cc6ed36f11518aa95d00a79", "is_reserved": 0, "is_disabled": 0}, {"lat": 38.90963716666667, "fusion_lat": 0.0, "type": "electric_scooter", "bike_id": "a4a9f3b2b37060c7ef575fc846a62669", "rental_uris": {"ios": "https://dc.lft.to/lastmile_qr_scan", "android": "https://dc.lft.to/lastmile_qr_scan"}, "fusion_lon": 0.0, "lon": -77.0332905, "name": "a4a9f3b2b37060c7ef575fc846a62669", "is_reserved": 0, "is_disabled": 0}, {"lat": 38.92382833333333, "fusion_lat": 0.0, "type": "electric_scooter", "bike_id": "0e88adef1d297a4e72b0ce91143e9e14", "rental_uris": {"ios": "https://dc.lft.to/lastmile_qr_scan", "android": "https://dc.lft.to/lastmile_qr_scan"}, "fusion_lon": 0.0, "lon": -77.04081716666667, "name": "0e88adef1d297a4e72b0ce91143e9e14", "is_reserved": 0, "is_disabled": 0}, {"lat": 38.9222135, "fusion_lat": 0.0, "type": "electric_scooter", "bike_id": "25259fa2e863629d22646501dabfb38f", "rental_uris": {"ios": "https://dc.lft.to/lastmile_qr_scan", "android": "https://dc.lft.to/lastmile_qr_scan"}, "fusion_lon": 0.0, "lon": -77.04401533333333, "name": "25259fa2e863629d22646501dabfb38f", "is_reserved": 0, "is_disabled": 0}, {"lat": 38.92026033333333, "fusion_lat": 0.0, "type": "electric_scooter", "bike_id": "85bd0f1217c48248197e0bd0f9a8f8ae", "rental_uris": {"ios": "https://dc.lft.to/lastmile_qr_scan", "android": "https://dc.lft.to/lastmile_qr_scan"}, "fusion_lon": 0.0, "lon": -77.07166283333333, "name": "85bd0f1217c48248197e0bd0f9a8f8ae", "is_reserved": 0, "is_disabled": 0}, {"lat": 38.885592333333335, "fusion_lat": 0.0, "type": "electric_scooter", "bike_id": "3f906f0cfb8acbbdbd9026144019082d", "rental_uris": {"ios": "https://dc.lft.to/lastmile_qr_scan", "android": "https://dc.lft.to/lastmile_qr_scan"}, "fusion_lon": 0.0, "lon": -76.9979685, "name": "3f906f0cfb8acbbdbd9026144019082d", "is_reserved": 0, "is_disabled": 0}, {"lat": 38.8922975, "fusion_lat": 0.0, "type": "electric_scooter", "bike_id": "54944fedb7f0a6de96b94d30af035d37", "rental_uris": {"ios": "https://dc.lft.to/lastmile_qr_scan", "android": "https://dc.lft.to/lastmile_qr_scan"}, "fusion_lon": 0.0, "lon": -77.02799616666667, "name": "54944fedb7f0a6de96b94d30af035d37", "is_reserved": 0, "is_disabled": 0}, {"lat": 38.89879, "fusion_lat": 0.0, "type": "electric_scooter", "bike_id": "1077c41dc8b2a360b0419237b6aa9bcb", "rental_uris": {"ios": "https://dc.lft.to/lastmile_qr_scan", "android": "https://dc.lft.to/lastmile_qr_scan"}, "fusion_lon": 0.0, "lon": -77.008227, "name": "1077c41dc8b2a360b0419237b6aa9bcb", "is_reserved": 0, "is_disabled": 0}, {"lat": 38.8923615, "fusion_lat": 0.0, "type": "electric_scooter", "bike_id": "580d4c8a6516fbbd64cc70a410cf24e0", "rental_uris": {"ios": "https://dc.lft.to/lastmile_qr_scan", "android": "https://dc.lft.to/lastmile_qr_scan"}, "fusion_lon": 0.0, "lon": -77.04162133333334, "name": "580d4c8a6516fbbd64cc70a410cf24e0", "is_reserved": 0, "is_disabled": 0}, {"lat": 38.90463366666667, "fusion_lat": 0.0, "type": "electric_scooter", "bike_id": "1e2781e0c551598b4bf046b7fecd49b2", "rental_uris": {"ios": "https://dc.lft.to/lastmile_qr_scan", "android": "https://dc.lft.to/lastmile_qr_scan"}, "fusion_lon": 0.0, "lon": -77.02948183333334, "name": "1e2781e0c551598b4bf046b7fecd49b2", "is_reserved": 0, "is_disabled": 0}, {"lat": 38.92997166666667, "fusion_lat": 0.0, "type": "electric_scooter", "bike_id": "8a65de660467007dcc35f1a0b97d66ba", "rental_uris": {"ios": "https://dc.lft.to/lastmile_qr_scan", "android": "https://dc.lft.to/lastmile_qr_scan"}, "fusion_lon": 0.0, "lon": -77.0234735, "name": "8a65de660467007dcc35f1a0b97d66ba", "is_reserved": 0, "is_disabled": 0}, {"lat": 38.92848883333333, "fusion_lat": 0.0, "type": "electric_scooter", "bike_id": "4bc23c8539bb4f2e7971cf75e5579e9b", "rental_uris": {"ios": "https://dc.lft.to/lastmile_qr_scan", "android": "https://dc.lft.to/lastmile_qr_scan"}, "fusion_lon": 0.0, "lon": -77.055801, "name": "4bc23c8539bb4f2e7971cf75e5579e9b", "is_reserved": 0, "is_disabled": 0}, {"lat": 38.874108166666666, "fusion_lat": 0.0, "type": "electric_scooter", "bike_id": "84951ade7aa6970149ca86b942e8f9b6", "rental_uris": {"ios": "https://dc.lft.to/lastmile_qr_scan", "android": "https://dc.lft.to/lastmile_qr_scan"}, "fusion_lon": 0.0, "lon": -77.00204133333334, "name": "84951ade7aa6970149ca86b942e8f9b6", "is_reserved": 0, "is_disabled": 0}, {"lat": 38.831595, "fusion_lat": 0.0, "type": "electric_bike", "bike_id": "9e5c3b2cf8c0e0eea5969bad3bbb7fde", "rental_uris": {"ios": "https://dc.lft.to/lastmile_qr_scan", "android": "https://dc.lft.to/lastmile_qr_scan"}, "fusion_lon": 0.0, "lon": -76.99574666666666, "name": "9e5c3b2cf8c0e0eea5969bad3bbb7fde", "is_reserved": 0, "is_disabled": 0}, {"lat": 38.91600116666667, "fusion_lat": 0.0, "type": "electric_scooter", "bike_id": "406c05e7bb43d94f2e117efd0a84ed07", "rental_uris": {"ios": "https://dc.lft.to/lastmile_qr_scan", "android": "https://dc.lft.to/lastmile_qr_scan"}, "fusion_lon": 0.0, "lon": -77.04904466666666, "name": "406c05e7bb43d94f2e117efd0a84ed07", "is_reserved": 0, "is_disabled": 0}, {"lat": 38.92345066666667, "fusion_lat": 0.0, "type": "electric_scooter", "bike_id": "07f61eca71260f012abe04bb4401a671", "rental_uris": {"ios": "https://dc.lft.to/lastmile_qr_scan", "android": "https://dc.lft.to/lastmile_qr_scan"}, "fusion_lon": 0.0, "lon": -77.05170166666667, "name": "07f61eca71260f012abe04bb4401a671", "is_reserved": 0, "is_disabled": 0}, {"lat": 38.9219295, "fusion_lat": 0.0, "type": "electric_scooter", "bike_id": "c7ad7b100a7189b2180a7030b28a1ad5", "rental_uris": {"ios": "https://dc.lft.to/lastmile_qr_scan", "android": "https://dc.lft.to/lastmile_qr_scan"}, "fusion_lon": 0.0, "lon": -77.01962633333333, "name": "c7ad7b100a7189b2180a7030b28a1ad5", "is_reserved": 0, "is_disabled": 0}, {"lat": 38.90082533333333, "fusion_lat": 0.0, "type": "electric_scooter", "bike_id": "eae0959e78842c5f52eeb25a51fda440", "rental_uris": {"ios": "https://dc.lft.to/lastmile_qr_scan", "android": "https://dc.lft.to/lastmile_qr_scan"}, "fusion_lon": 0.0, "lon": -77.01812516666666, "name": "eae0959e78842c5f52eeb25a51fda440", "is_reserved": 0, "is_disabled": 0}, {"lat": 38.90034716666667, "fusion_lat": 0.0, "type": "electric_scooter", "bike_id": "db49ee424ee94174e89031fe665eb6dd", "rental_uris": {"ios": "https://dc.lft.to/lastmile_qr_scan", "android": "https://dc.lft.to/lastmile_qr_scan"}, "fusion_lon": 0.0, "lon": -77.00211316666666, "name": "db49ee424ee94174e89031fe665eb6dd", "is_reserved": 0, "is_disabled": 0}, {"lat": 38.9215595, "fusion_lat": 0.0, "type": "electric_scooter", "bike_id": "e4e42d9b9469169672c51303dccf87f1", "rental_uris": {"ios": "https://dc.lft.to/lastmile_qr_scan", "android": "https://dc.lft.to/lastmile_qr_scan"}, "fusion_lon": 0.0, "lon": -77.08191166666667, "name": "e4e42d9b9469169672c51303dccf87f1", "is_reserved": 0, "is_disabled": 0}, {"lat": 38.91684716666666, "fusion_lat": 0.0, "type": "electric_scooter", "bike_id": "30556cb200c42e0f72281ed755573e08", "rental_uris": {"ios": "https://dc.lft.to/lastmile_qr_scan", "android": "https://dc.lft.to/lastmile_qr_scan"}, "fusion_lon": 0.0, "lon": -77.02966933333333, "name": "30556cb200c42e0f72281ed755573e08", "is_reserved": 0, "is_disabled": 0}, {"lat": 38.870833, "fusion_lat": 0.0, "type": "electric_scooter", "bike_id": "beb219427522addb5bac4295109fc9b3", "rental_uris": {"ios": "https://dc.lft.to/lastmile_qr_scan", "android": "https://dc.lft.to/lastmile_qr_scan"}, "fusion_lon": 0.0, "lon": -76.9656725, "name": "beb219427522addb5bac4295109fc9b3", "is_reserved": 0, "is_disabled": 0}, {"lat": 38.92871933333333, "fusion_lat": 0.0, "type": "electric_scooter", "bike_id": "3126a15607526a31e47c7f497fcf9c63", "rental_uris": {"ios": "https://dc.lft.to/lastmile_qr_scan", "android": "https://dc.lft.to/lastmile_qr_scan"}, "fusion_lon": 0.0, "lon": -77.03913716666666, "name": "3126a15607526a31e47c7f497fcf9c63", "is_reserved": 0, "is_disabled": 0}, {"lat": 38.94921133333333, "fusion_lat": 0.0, "type": "electric_bike", "bike_id": "f6b583496f637134a77f1d9e80b96ba8", "rental_uris": {"ios": "https://dc.lft.to/lastmile_qr_scan", "android": "https://dc.lft.to/lastmile_qr_scan"}, "fusion_lon": 0.0, "lon": -77.00802783333333, "name": "f6b583496f637134a77f1d9e80b96ba8", "is_reserved": 0, "is_disabled": 0}, {"lat": 38.88718766666667, "fusion_lat": 0.0, "type": "electric_scooter", "bike_id": "8d0aae0fac64c30f1a8901f0bf96a637", "rental_uris": {"ios": "https://dc.lft.to/lastmile_qr_scan", "android": "https://dc.lft.to/lastmile_qr_scan"}, "fusion_lon": 0.0, "lon": -77.0283475, "name": "8d0aae0fac64c30f1a8901f0bf96a637", "is_reserved": 0, "is_disabled": 0}, {"lat": 38.905095333333335, "fusion_lat": 0.0, "type": "electric_scooter", "bike_id": "96fe032920805daf5121c2486fdb45a8", "rental_uris": {"ios": "https://dc.lft.to/lastmile_qr_scan", "android": "https://dc.lft.to/lastmile_qr_scan"}, "fusion_lon": 0.0, "lon": -77.0637795, "name": "96fe032920805daf5121c2486fdb45a8", "is_reserved": 0, "is_disabled": 0}, {"lat": 38.92177866666667, "fusion_lat": 0.0, "type": "electric_scooter", "bike_id": "726952ffc7847d4d7be1c283a1e62b15", "rental_uris": {"ios": "https://dc.lft.to/lastmile_qr_scan", "android": "https://dc.lft.to/lastmile_qr_scan"}, "fusion_lon": 0.0, "lon": -77.02660833333333, "name": "726952ffc7847d4d7be1c283a1e62b15", "is_reserved": 0, "is_disabled": 0}, {"lat": 38.91113216666667, "fusion_lat": 0.0, "type": "electric_scooter", "bike_id": "ac75223410f60eca20f9bafa3b5073e6", "rental_uris": {"ios": "https://dc.lft.to/lastmile_qr_scan", "android": "https://dc.lft.to/lastmile_qr_scan"}, "fusion_lon": 0.0, "lon": -77.0449475, "name": "ac75223410f60eca20f9bafa3b5073e6", "is_reserved": 0, "is_disabled": 0}, {"lat": 38.88682033333333, "fusion_lat": 0.0, "type": "electric_scooter", "bike_id": "1228e5126475d65c38d1863fa38d5ff0", "rental_uris": {"ios": "https://dc.lft.to/lastmile_qr_scan", "android": "https://dc.lft.to/lastmile_qr_scan"}, "fusion_lon": 0.0, "lon": -77.00199533333333, "name": "1228e5126475d65c38d1863fa38d5ff0", "is_reserved": 0, "is_disabled": 0}, {"lat": 38.89967933333333, "fusion_lat": 0.0, "type": "electric_scooter", "bike_id": "e8a0c9b70e3467ec874d754de7749831", "rental_uris": {"ios": "https://dc.lft.to/lastmile_qr_scan", "android": "https://dc.lft.to/lastmile_qr_scan"}, "fusion_lon": 0.0, "lon": -77.02213983333333, "name": "e8a0c9b70e3467ec874d754de7749831", "is_reserved": 0, "is_disabled": 0}, {"lat": 38.902455, "fusion_lat": 0.0, "type": "electric_scooter", "bike_id": "2a1fc7854ebbb3641e24a413d5037029", "rental_uris": {"ios": "https://dc.lft.to/lastmile_qr_scan", "android": "https://dc.lft.to/lastmile_qr_scan"}, "fusion_lon": 0.0, "lon": -77.01630733333333, "name": "2a1fc7854ebbb3641e24a413d5037029", "is_reserved": 0, "is_disabled": 0}, {"lat": 38.9347325, "fusion_lat": 0.0, "type": "electric_scooter", "bike_id": "f7da430539c63ef04116ca3659780e41", "rental_uris": {"ios": "https://dc.lft.to/lastmile_qr_scan", "android": "https://dc.lft.to/lastmile_qr_scan"}, "fusion_lon": 0.0, "lon": -77.073505, "name": "f7da430539c63ef04116ca3659780e41", "is_reserved": 0, "is_disabled": 0}, {"lat": 38.927199333333334, "fusion_lat": 0.0, "type": "electric_scooter", "bike_id": "25ee3b5ae71d57e9d96d38ce83dae642", "rental_uris": {"ios": "https://dc.lft.to/lastmile_qr_scan", "android": "https://dc.lft.to/lastmile_qr_scan"}, "fusion_lon": 0.0, "lon": -77.042043, "name": "25ee3b5ae71d57e9d96d38ce83dae642", "is_reserved": 0, "is_disabled": 0}, {"lat": 38.920578666666664, "fusion_lat": 0.0, "type": "electric_scooter", "bike_id": "473e40ab87e956d6f1201e9936ff36ef", "rental_uris": {"ios": "https://dc.lft.to/lastmile_qr_scan", "android": "https://dc.lft.to/lastmile_qr_scan"}, "fusion_lon": 0.0, "lon": -77.02366683333334, "name": "473e40ab87e956d6f1201e9936ff36ef", "is_reserved": 0, "is_disabled": 0}, {"lat": 38.924581333333336, "fusion_lat": 0.0, "type": "electric_scooter", "bike_id": "0cb79d8510453a9e40bbb3581f865b20", "rental_uris": {"ios": "https://dc.lft.to/lastmile_qr_scan", "android": "https://dc.lft.to/lastmile_qr_scan"}, "fusion_lon": 0.0, "lon": -77.0215945, "name": "0cb79d8510453a9e40bbb3581f865b20", "is_reserved": 0, "is_disabled": 0}, {"lat": 38.88369333333333, "fusion_lat": 0.0, "type": "electric_scooter", "bike_id": "eaefce1028ced3e882caddfeb3f50137", "rental_uris": {"ios": "https://dc.lft.to/lastmile_qr_scan", "android": "https://dc.lft.to/lastmile_qr_scan"}, "fusion_lon": 0.0, "lon": -76.9950925, "name": "eaefce1028ced3e882caddfeb3f50137", "is_reserved": 0, "is_disabled": 0}, {"lat": 38.91458316666667, "fusion_lat": 0.0, "type": "electric_bike", "bike_id": "ce309b7781da21cf66ef2a5d919fb4d2", "rental_uris": {"ios": "https://dc.lft.to/lastmile_qr_scan", "android": "https://dc.lft.to/lastmile_qr_scan"}, "fusion_lon": 0.0, "lon": -76.97245833333334, "name": "ce309b7781da21cf66ef2a5d919fb4d2", "is_reserved": 0, "is_disabled": 0}, {"lat": 38.90565933333333, "fusion_lat": 0.0, "type": "electric_scooter", "bike_id": "2ceb79124d0433bfc336929f0284f2c2", "rental_uris": {"ios": "https://dc.lft.to/lastmile_qr_scan", "android": "https://dc.lft.to/lastmile_qr_scan"}, "fusion_lon": 0.0, "lon": -77.03454916666666, "name": "2ceb79124d0433bfc336929f0284f2c2", "is_reserved": 0, "is_disabled": 0}, {"lat": 38.883658833333335, "fusion_lat": 0.0, "type": "electric_scooter", "bike_id": "5d5b6725bb6351b2955caba0863e8bc1", "rental_uris": {"ios": "https://dc.lft.to/lastmile_qr_scan", "android": "https://dc.lft.to/lastmile_qr_scan"}, "fusion_lon": 0.0, "lon": -76.99507866666667, "name": "5d5b6725bb6351b2955caba0863e8bc1", "is_reserved": 0, "is_disabled": 0}, {"lat": 38.907706166666664, "fusion_lat": 0.0, "type": "electric_scooter", "bike_id": "9bc05abb0ad58e9c5a1545b147999833", "rental_uris": {"ios": "https://dc.lft.to/lastmile_qr_scan", "android": "https://dc.lft.to/lastmile_qr_scan"}, "fusion_lon": 0.0, "lon": -77.03857566666667, "name": "9bc05abb0ad58e9c5a1545b147999833", "is_reserved": 0, "is_disabled": 0}, {"lat": 38.96610583333333, "fusion_lat": 0.0, "type": "electric_scooter", "bike_id": "1232ed42d2c0c89f457c2ed4899b2cef", "rental_uris": {"ios": "https://dc.lft.to/lastmile_qr_scan", "android": "https://dc.lft.to/lastmile_qr_scan"}, "fusion_lon": 0.0, "lon": -77.02007966666666, "name": "1232ed42d2c0c89f457c2ed4899b2cef", "is_reserved": 0, "is_disabled": 0}, {"lat": 38.930646, "fusion_lat": 0.0, "type": "electric_scooter", "bike_id": "3c298968f3be9c18adf687f3959aa4be", "rental_uris": {"ios": "https://dc.lft.to/lastmile_qr_scan", "android": "https://dc.lft.to/lastmile_qr_scan"}, "fusion_lon": 0.0, "lon": -77.03941066666667, "name": "3c298968f3be9c18adf687f3959aa4be", "is_reserved": 0, "is_disabled": 0}, {"lat": 38.92145466666667, "fusion_lat": 0.0, "type": "electric_scooter", "bike_id": "79e5fad7de379c78acd5496831f87396", "rental_uris": {"ios": "https://dc.lft.to/lastmile_qr_scan", "android": "https://dc.lft.to/lastmile_qr_scan"}, "fusion_lon": 0.0, "lon": -77.04350516666666, "name": "79e5fad7de379c78acd5496831f87396", "is_reserved": 0, "is_disabled": 0}, {"lat": 38.93462616666667, "fusion_lat": 0.0, "type": "electric_scooter", "bike_id": "5169ba8131385f39b5d4281b1eee23e5", "rental_uris": {"ios": "https://dc.lft.to/lastmile_qr_scan", "android": "https://dc.lft.to/lastmile_qr_scan"}, "fusion_lon": 0.0, "lon": -77.0277635, "name": "5169ba8131385f39b5d4281b1eee23e5", "is_reserved": 0, "is_disabled": 0}, {"lat": 38.90834, "fusion_lat": 0.0, "type": "electric_scooter", "bike_id": "472a16f365972afe7f580f551c077138", "rental_uris": {"ios": "https://dc.lft.to/lastmile_qr_scan", "android": "https://dc.lft.to/lastmile_qr_scan"}, "fusion_lon": 0.0, "lon": -77.03453833333333, "name": "472a16f365972afe7f580f551c077138", "is_reserved": 0, "is_disabled": 0}, {"lat": 38.887433333333334, "fusion_lat": 0.0, "type": "electric_scooter", "bike_id": "9d3e659b6297eb9ca11a34a59d30a4f1", "rental_uris": {"ios": "https://dc.lft.to/lastmile_qr_scan", "android": "https://dc.lft.to/lastmile_qr_scan"}, "fusion_lon": 0.0, "lon": -77.02566383333334, "name": "9d3e659b6297eb9ca11a34a59d30a4f1", "is_reserved": 0, "is_disabled": 0}, {"lat": 38.83631483333333, "fusion_lat": 0.0, "type": "electric_bike", "bike_id": "57eab9940e0610fd24eef028e0ee84af", "rental_uris": {"ios": "https://dc.lft.to/lastmile_qr_scan", "android": "https://dc.lft.to/lastmile_qr_scan"}, "fusion_lon": 0.0, "lon": -77.0694075, "name": "57eab9940e0610fd24eef028e0ee84af", "is_reserved": 0, "is_disabled": 0}, {"lat": 38.89927816666667, "fusion_lat": 0.0, "type": "electric_scooter", "bike_id": "7ecef7446963a18b3adc70055c5dce19", "rental_uris": {"ios": "https://dc.lft.to/lastmile_qr_scan", "android": "https://dc.lft.to/lastmile_qr_scan"}, "fusion_lon": 0.0, "lon": -77.01271916666667, "name": "7ecef7446963a18b3adc70055c5dce19", "is_reserved": 0, "is_disabled": 0}, {"lat": 38.93103116666666, "fusion_lat": 0.0, "type": "electric_scooter", "bike_id": "f054a4d2a6dfbe0d7a21980bcd960004", "rental_uris": {"ios": "https://dc.lft.to/lastmile_qr_scan", "android": "https://dc.lft.to/lastmile_qr_scan"}, "fusion_lon": 0.0, "lon": -77.03024133333334, "name": "f054a4d2a6dfbe0d7a21980bcd960004", "is_reserved": 0, "is_disabled": 0}, {"lat": 38.891890333333336, "fusion_lat": 0.0, "type": "electric_scooter", "bike_id": "df09643cfadf4f0b50c851aa532bd51d", "rental_uris": {"ios": "https://dc.lft.to/lastmile_qr_scan", "android": "https://dc.lft.to/lastmile_qr_scan"}, "fusion_lon": 0.0, "lon": -77.03183283333334, "name": "df09643cfadf4f0b50c851aa532bd51d", "is_reserved": 0, "is_disabled": 0}, {"lat": 38.90006983333333, "fusion_lat": 0.0, "type": "electric_scooter", "bike_id": "69661be49ca0defe6a9f4dac92cfb642", "rental_uris": {"ios": "https://dc.lft.to/lastmile_qr_scan", "android": "https://dc.lft.to/lastmile_qr_scan"}, "fusion_lon": 0.0, "lon": -76.98856616666667, "name": "69661be49ca0defe6a9f4dac92cfb642", "is_reserved": 0, "is_disabled": 0}, {"lat": 38.909501, "fusion_lat": 0.0, "type": "electric_scooter", "bike_id": "191cdd0cd7f2aaaba91012b016b6beec", "rental_uris": {"ios": "https://dc.lft.to/lastmile_qr_scan", "android": "https://dc.lft.to/lastmile_qr_scan"}, "fusion_lon": 0.0, "lon": -77.04702983333334, "name": "191cdd0cd7f2aaaba91012b016b6beec", "is_reserved": 0, "is_disabled": 0}, {"lat": 38.905708, "fusion_lat": 0.0, "type": "electric_scooter", "bike_id": "c86cafb927bc256877d2b886a34a6470", "rental_uris": {"ios": "https://dc.lft.to/lastmile_qr_scan", "android": "https://dc.lft.to/lastmile_qr_scan"}, "fusion_lon": 0.0, "lon": -77.0059125, "name": "c86cafb927bc256877d2b886a34a6470", "is_reserved": 0, "is_disabled": 0}, {"lat": 38.9279185, "fusion_lat": 0.0, "type": "electric_scooter", "bike_id": "9b7301a9749f5126df82e9faa3e76b11", "rental_uris": {"ios": "https://dc.lft.to/lastmile_qr_scan", "android": "https://dc.lft.to/lastmile_qr_scan"}, "fusion_lon": 0.0, "lon": -77.02719733333333, "name": "9b7301a9749f5126df82e9faa3e76b11", "is_reserved": 0, "is_disabled": 0}, {"lat": 38.904847333333336, "fusion_lat": 0.0, "type": "electric_scooter", "bike_id": "089146ebbcb38b797e6fdf3d7f8026c2", "rental_uris": {"ios": "https://dc.lft.to/lastmile_qr_scan", "android": "https://dc.lft.to/lastmile_qr_scan"}, "fusion_lon": 0.0, "lon": -77.0211215, "name": "089146ebbcb38b797e6fdf3d7f8026c2", "is_reserved": 0, "is_disabled": 0}, {"lat": 38.908242, "fusion_lat": 0.0, "type": "electric_scooter", "bike_id": "a20704261a764ce7a3acdd7158b7a0fe", "rental_uris": {"ios": "https://dc.lft.to/lastmile_qr_scan", "android": "https://dc.lft.to/lastmile_qr_scan"}, "fusion_lon": 0.0, "lon": -77.034674, "name": "a20704261a764ce7a3acdd7158b7a0fe", "is_reserved": 0, "is_disabled": 0}, {"lat": 38.93434083333333, "fusion_lat": 0.0, "type": "electric_scooter", "bike_id": "ac7b04f80077611be3f69a8a39c4cc12", "rental_uris": {"ios": "https://dc.lft.to/lastmile_qr_scan", "android": "https://dc.lft.to/lastmile_qr_scan"}, "fusion_lon": 0.0, "lon": -76.9971955, "name": "ac7b04f80077611be3f69a8a39c4cc12", "is_reserved": 0, "is_disabled": 0}, {"lat": 38.905615166666664, "fusion_lat": 0.0, "type": "electric_scooter", "bike_id": "8a41bca5236a06c4090bf49a23a0f8a6", "rental_uris": {"ios": "https://dc.lft.to/lastmile_qr_scan", "android": "https://dc.lft.to/lastmile_qr_scan"}, "fusion_lon": 0.0, "lon": -77.03461166666666, "name": "8a41bca5236a06c4090bf49a23a0f8a6", "is_reserved": 0, "is_disabled": 0}, {"lat": 38.91691816666667, "fusion_lat": 0.0, "type": "electric_scooter", "bike_id": "48c2e31d538b47cb49482023a5a2a26d", "rental_uris": {"ios": "https://dc.lft.to/lastmile_qr_scan", "android": "https://dc.lft.to/lastmile_qr_scan"}, "fusion_lon": 0.0, "lon": -77.0304035, "name": "48c2e31d538b47cb49482023a5a2a26d", "is_reserved": 0, "is_disabled": 0}, {"lat": 38.941995, "fusion_lat": 0.0, "type": "electric_scooter", "bike_id": "ac14723c2731bbdc0c08765951c25b89", "rental_uris": {"ios": "https://dc.lft.to/lastmile_qr_scan", "android": "https://dc.lft.to/lastmile_qr_scan"}, "fusion_lon": 0.0, "lon": -77.0259205, "name": "ac14723c2731bbdc0c08765951c25b89", "is_reserved": 0, "is_disabled": 0}, {"lat": 38.87396433333333, "fusion_lat": 0.0, "type": "electric_scooter", "bike_id": "db715086da4e8cd1e0ec48887d4b8eac", "rental_uris": {"ios": "https://dc.lft.to/lastmile_qr_scan", "android": "https://dc.lft.to/lastmile_qr_scan"}, "fusion_lon": 0.0, "lon": -77.00118433333333, "name": "db715086da4e8cd1e0ec48887d4b8eac", "is_reserved": 0, "is_disabled": 0}, {"lat": 38.9246165, "fusion_lat": 0.0, "type": "electric_scooter", "bike_id": "c8cfd0447a904ff9d06fdd791e6b86df", "rental_uris": {"ios": "https://dc.lft.to/lastmile_qr_scan", "android": "https://dc.lft.to/lastmile_qr_scan"}, "fusion_lon": 0.0, "lon": -77.04038633333333, "name": "c8cfd0447a904ff9d06fdd791e6b86df", "is_reserved": 0, "is_disabled": 0}, {"lat": 38.89236116666667, "fusion_lat": 0.0, "type": "electric_scooter", "bike_id": "abecb9039ce644e743c30b49db048a96", "rental_uris": {"ios": "https://dc.lft.to/lastmile_qr_scan", "android": "https://dc.lft.to/lastmile_qr_scan"}, "fusion_lon": 0.0, "lon": -77.04162583333333, "name": "abecb9039ce644e743c30b49db048a96", "is_reserved": 0, "is_disabled": 0}, {"lat": 38.9203385, "fusion_lat": 0.0, "type": "electric_scooter", "bike_id": "a60b8d7c5457b5a15d2d5bbf59333d41", "rental_uris": {"ios": "https://dc.lft.to/lastmile_qr_scan", "android": "https://dc.lft.to/lastmile_qr_scan"}, "fusion_lon": 0.0, "lon": -77.07136566666667, "name": "a60b8d7c5457b5a15d2d5bbf59333d41", "is_reserved": 0, "is_disabled": 0}, {"lat": 38.943123166666666, "fusion_lat": 0.0, "type": "electric_scooter", "bike_id": "a9d34869eb18de13e96caba042409b3f", "rental_uris": {"ios": "https://dc.lft.to/lastmile_qr_scan", "android": "https://dc.lft.to/lastmile_qr_scan"}, "fusion_lon": 0.0, "lon": -77.02493766666667, "name": "a9d34869eb18de13e96caba042409b3f", "is_reserved": 0, "is_disabled": 0}, {"lat": 38.922618666666665, "fusion_lat": 0.0, "type": "electric_scooter", "bike_id": "fd1a9bf228b4f34a62cec896b57ab759", "rental_uris": {"ios": "https://dc.lft.to/lastmile_qr_scan", "android": "https://dc.lft.to/lastmile_qr_scan"}, "fusion_lon": 0.0, "lon": -77.0368325, "name": "fd1a9bf228b4f34a62cec896b57ab759", "is_reserved": 0, "is_disabled": 0}, {"lat": 38.961842833333336, "fusion_lat": 0.0, "type": "electric_bike", "bike_id": "db48d7a5c1c2f1321c1fde45de0333af", "rental_uris": {"ios": "https://dc.lft.to/lastmile_qr_scan", "android": "https://dc.lft.to/lastmile_qr_scan"}, "fusion_lon": 0.0, "lon": -77.05267116666667, "name": "db48d7a5c1c2f1321c1fde45de0333af", "is_reserved": 0, "is_disabled": 0}, {"lat": 38.884901166666666, "fusion_lat": 0.0, "type": "electric_scooter", "bike_id": "c7af100b4ff5214a2f12489891adae8f", "rental_uris": {"ios": "https://dc.lft.to/lastmile_qr_scan", "android": "https://dc.lft.to/lastmile_qr_scan"}, "fusion_lon": 0.0, "lon": -76.98055416666666, "name": "c7af100b4ff5214a2f12489891adae8f", "is_reserved": 0, "is_disabled": 0}, {"lat": 38.9180395, "fusion_lat": 0.0, "type": "electric_scooter", "bike_id": "881e368ecdc29c5384cc2767459f99c2", "rental_uris": {"ios": "https://dc.lft.to/lastmile_qr_scan", "android": "https://dc.lft.to/lastmile_qr_scan"}, "fusion_lon": 0.0, "lon": -77.03451883333334, "name": "881e368ecdc29c5384cc2767459f99c2", "is_reserved": 0, "is_disabled": 0}, {"lat": 38.930609833333335, "fusion_lat": 0.0, "type": "electric_scooter", "bike_id": "eff8c2f95d470ed05345e44329abc15c", "rental_uris": {"ios": "https://dc.lft.to/lastmile_qr_scan", "android": "https://dc.lft.to/lastmile_qr_scan"}, "fusion_lon": 0.0, "lon": -77.03815633333333, "name": "eff8c2f95d470ed05345e44329abc15c", "is_reserved": 0, "is_disabled": 0}, {"lat": 38.92405266666667, "fusion_lat": 0.0, "type": "electric_scooter", "bike_id": "ed98f8be441c8221d13395145409ac3a", "rental_uris": {"ios": "https://dc.lft.to/lastmile_qr_scan", "android": "https://dc.lft.to/lastmile_qr_scan"}, "fusion_lon": 0.0, "lon": -77.05174866666667, "name": "ed98f8be441c8221d13395145409ac3a", "is_reserved": 0, "is_disabled": 0}, {"lat": 38.8818335, "fusion_lat": 0.0, "type": "electric_scooter", "bike_id": "2521259c3394003da528bc3bf34d1680", "rental_uris": {"ios": "https://dc.lft.to/lastmile_qr_scan", "android": "https://dc.lft.to/lastmile_qr_scan"}, "fusion_lon": 0.0, "lon": -76.992673, "name": "2521259c3394003da528bc3bf34d1680", "is_reserved": 0, "is_disabled": 0}, {"lat": 38.903999, "fusion_lat": 0.0, "type": "electric_scooter", "bike_id": "6b47588a0d9d79d0c3c6d7417e2a76d9", "rental_uris": {"ios": "https://dc.lft.to/lastmile_qr_scan", "android": "https://dc.lft.to/lastmile_qr_scan"}, "fusion_lon": 0.0, "lon": -77.02022816666667, "name": "6b47588a0d9d79d0c3c6d7417e2a76d9", "is_reserved": 0, "is_disabled": 0}, {"lat": 38.927038333333336, "fusion_lat": 0.0, "type": "electric_scooter", "bike_id": "8d2c59165420f5450b17e6440f12fe3d", "rental_uris": {"ios": "https://dc.lft.to/lastmile_qr_scan", "android": "https://dc.lft.to/lastmile_qr_scan"}, "fusion_lon": 0.0, "lon": -77.038194, "name": "8d2c59165420f5450b17e6440f12fe3d", "is_reserved": 0, "is_disabled": 0}, {"lat": 38.898467833333335, "fusion_lat": 0.0, "type": "electric_scooter", "bike_id": "5098a5d841ecf177fd36620a24d2d12e", "rental_uris": {"ios": "https://dc.lft.to/lastmile_qr_scan", "android": "https://dc.lft.to/lastmile_qr_scan"}, "fusion_lon": 0.0, "lon": -76.9425655, "name": "5098a5d841ecf177fd36620a24d2d12e", "is_reserved": 0, "is_disabled": 0}, {"lat": 38.807589666666665, "fusion_lat": 0.0, "type": "electric_bike", "bike_id": "d7c16b776086d66544163b0883a2c380", "rental_uris": {"ios": "https://dc.lft.to/lastmile_qr_scan", "android": "https://dc.lft.to/lastmile_qr_scan"}, "fusion_lon": 0.0, "lon": -77.129908, "name": "d7c16b776086d66544163b0883a2c380", "is_reserved": 0, "is_disabled": 0}, {"lat": 38.860341166666664, "fusion_lat": 0.0, "type": "electric_bike", "bike_id": "1747671366df32ddb0eec520f382f931", "rental_uris": {"ios": "https://dc.lft.to/lastmile_qr_scan", "android": "https://dc.lft.to/lastmile_qr_scan"}, "fusion_lon": 0.0, "lon": -77.09374683333333, "name": "1747671366df32ddb0eec520f382f931", "is_reserved": 0, "is_disabled": 0}, {"lat": 38.908260166666665, "fusion_lat": 0.0, "type": "electric_scooter", "bike_id": "9d5a4ec2d8978062ac9629428bd1bb3a", "rental_uris": {"ios": "https://dc.lft.to/lastmile_qr_scan", "android": "https://dc.lft.to/lastmile_qr_scan"}, "fusion_lon": 0.0, "lon": -77.04324333333334, "name": "9d5a4ec2d8978062ac9629428bd1bb3a", "is_reserved": 0, "is_disabled": 0}, {"lat": 38.903728666666666, "fusion_lat": 0.0, "type": "electric_scooter", "bike_id": "23a4e779faa573f5f806d7b97b4c01c1", "rental_uris": {"ios": "https://dc.lft.to/lastmile_qr_scan", "android": "https://dc.lft.to/lastmile_qr_scan"}, "fusion_lon": 0.0, "lon": -77.04483333333333, "name": "23a4e779faa573f5f806d7b97b4c01c1", "is_reserved": 0, "is_disabled": 0}, {"lat": 38.904067166666664, "fusion_lat": 0.0, "type": "electric_scooter", "bike_id": "e5228d938b4529c887d962c1af42d99e", "rental_uris": {"ios": "https://dc.lft.to/lastmile_qr_scan", "android": "https://dc.lft.to/lastmile_qr_scan"}, "fusion_lon": 0.0, "lon": -77.029496, "name": "e5228d938b4529c887d962c1af42d99e", "is_reserved": 0, "is_disabled": 0}, {"lat": 38.911047333333336, "fusion_lat": 0.0, "type": "electric_scooter", "bike_id": "2f146cd9f52d9d58b41d11fc7fb0cca8", "rental_uris": {"ios": "https://dc.lft.to/lastmile_qr_scan", "android": "https://dc.lft.to/lastmile_qr_scan"}, "fusion_lon": 0.0, "lon": -77.04529333333333, "name": "2f146cd9f52d9d58b41d11fc7fb0cca8", "is_reserved": 0, "is_disabled": 0}, {"lat": 38.87535116666667, "fusion_lat": 0.0, "type": "electric_scooter", "bike_id": "d84e9bf4b41d7449bb84abf5de4110cf", "rental_uris": {"ios": "https://dc.lft.to/lastmile_qr_scan", "android": "https://dc.lft.to/lastmile_qr_scan"}, "fusion_lon": 0.0, "lon": -77.00507716666667, "name": "d84e9bf4b41d7449bb84abf5de4110cf", "is_reserved": 0, "is_disabled": 0}, {"lat": 38.909434166666664, "fusion_lat": 0.0, "type": "electric_scooter", "bike_id": "519694854a8f6a24a375e760684047c0", "rental_uris": {"ios": "https://dc.lft.to/lastmile_qr_scan", "android": "https://dc.lft.to/lastmile_qr_scan"}, "fusion_lon": 0.0, "lon": -77.031869, "name": "519694854a8f6a24a375e760684047c0", "is_reserved": 0, "is_disabled": 0}, {"lat": 38.89223166666667, "fusion_lat": 0.0, "type": "electric_scooter", "bike_id": "f0085f7e6dd3711b5ce07975de1af83d", "rental_uris": {"ios": "https://dc.lft.to/lastmile_qr_scan", "android": "https://dc.lft.to/lastmile_qr_scan"}, "fusion_lon": 0.0, "lon": -77.04200116666667, "name": "f0085f7e6dd3711b5ce07975de1af83d", "is_reserved": 0, "is_disabled": 0}, {"lat": 38.8956315, "fusion_lat": 0.0, "type": "electric_scooter", "bike_id": "307922b412ce48a673acae1a6900e45d", "rental_uris": {"ios": "https://dc.lft.to/lastmile_qr_scan", "android": "https://dc.lft.to/lastmile_qr_scan"}, "fusion_lon": 0.0, "lon": -76.94877783333334, "name": "307922b412ce48a673acae1a6900e45d", "is_reserved": 0, "is_disabled": 0}, {"lat": 38.929816833333334, "fusion_lat": 0.0, "type": "electric_scooter", "bike_id": "287871528350c8bfcebfb9b5d8ee727c", "rental_uris": {"ios": "https://dc.lft.to/lastmile_qr_scan", "android": "https://dc.lft.to/lastmile_qr_scan"}, "fusion_lon": 0.0, "lon": -77.03661683333333, "name": "287871528350c8bfcebfb9b5d8ee727c", "is_reserved": 0, "is_disabled": 0}, {"lat": 38.922875833333336, "fusion_lat": 0.0, "type": "electric_scooter", "bike_id": "7d08de7876e94b860621559e5b74e4b4", "rental_uris": {"ios": "https://dc.lft.to/lastmile_qr_scan", "android": "https://dc.lft.to/lastmile_qr_scan"}, "fusion_lon": 0.0, "lon": -77.0224265, "name": "7d08de7876e94b860621559e5b74e4b4", "is_reserved": 0, "is_disabled": 0}, {"lat": 38.90823183333333, "fusion_lat": 0.0, "type": "electric_scooter", "bike_id": "e2a4f9309f3f95bad941a87079553bcb", "rental_uris": {"ios": "https://dc.lft.to/lastmile_qr_scan", "android": "https://dc.lft.to/lastmile_qr_scan"}, "fusion_lon": 0.0, "lon": -77.03553133333334, "name": "e2a4f9309f3f95bad941a87079553bcb", "is_reserved": 0, "is_disabled": 0}, {"lat": 38.90714766666667, "fusion_lat": 0.0, "type": "electric_scooter", "bike_id": "2d9c3b714ba011e96432581544b66778", "rental_uris": {"ios": "https://dc.lft.to/lastmile_qr_scan", "android": "https://dc.lft.to/lastmile_qr_scan"}, "fusion_lon": 0.0, "lon": -77.02978716666667, "name": "2d9c3b714ba011e96432581544b66778", "is_reserved": 0, "is_disabled": 0}, {"lat": 38.91186783333333, "fusion_lat": 0.0, "type": "electric_scooter", "bike_id": "1e6cd499b5e8895c79dc76629a79b7ca", "rental_uris": {"ios": "https://dc.lft.to/lastmile_qr_scan", "android": "https://dc.lft.to/lastmile_qr_scan"}, "fusion_lon": 0.0, "lon": -77.020015, "name": "1e6cd499b5e8895c79dc76629a79b7ca", "is_reserved": 0, "is_disabled": 0}, {"lat": 38.9082445, "fusion_lat": 0.0, "type": "electric_scooter", "bike_id": "a63f20753a068e88714feacbcf477500", "rental_uris": {"ios": "https://dc.lft.to/lastmile_qr_scan", "android": "https://dc.lft.to/lastmile_qr_scan"}, "fusion_lon": 0.0, "lon": -77.03622866666667, "name": "a63f20753a068e88714feacbcf477500", "is_reserved": 0, "is_disabled": 0}, {"lat": 38.92880516666666, "fusion_lat": 0.0, "type": "electric_scooter", "bike_id": "cb35e7e3ff9db4b9aa4a17936b36654c", "rental_uris": {"ios": "https://dc.lft.to/lastmile_qr_scan", "android": "https://dc.lft.to/lastmile_qr_scan"}, "fusion_lon": 0.0, "lon": -77.0330025, "name": "cb35e7e3ff9db4b9aa4a17936b36654c", "is_reserved": 0, "is_disabled": 0}, {"lat": 38.89547916666667, "fusion_lat": 0.0, "type": "electric_scooter", "bike_id": "13392ac4c901bd02df93d2f50f60348f", "rental_uris": {"ios": "https://dc.lft.to/lastmile_qr_scan", "android": "https://dc.lft.to/lastmile_qr_scan"}, "fusion_lon": 0.0, "lon": -76.94947666666667, "name": "13392ac4c901bd02df93d2f50f60348f", "is_reserved": 0, "is_disabled": 0}, {"lat": 38.881244333333335, "fusion_lat": 0.0, "type": "electric_scooter", "bike_id": "aec7115ba42c9c2580cd7466f2c8abbd", "rental_uris": {"ios": "https://dc.lft.to/lastmile_qr_scan", "android": "https://dc.lft.to/lastmile_qr_scan"}, "fusion_lon": 0.0, "lon": -77.01662883333333, "name": "aec7115ba42c9c2580cd7466f2c8abbd", "is_reserved": 0, "is_disabled": 0}, {"lat": 38.908691833333336, "fusion_lat": 0.0, "type": "electric_scooter", "bike_id": "8e58f08d3b6b75dd2489e1e02b4e282c", "rental_uris": {"ios": "https://dc.lft.to/lastmile_qr_scan", "android": "https://dc.lft.to/lastmile_qr_scan"}, "fusion_lon": 0.0, "lon": -77.02378333333333, "name": "8e58f08d3b6b75dd2489e1e02b4e282c", "is_reserved": 0, "is_disabled": 0}, {"lat": 38.8957435, "fusion_lat": 0.0, "type": "electric_scooter", "bike_id": "e805405d30b580f22ae0bfb5ac83cede", "rental_uris": {"ios": "https://dc.lft.to/lastmile_qr_scan", "android": "https://dc.lft.to/lastmile_qr_scan"}, "fusion_lon": 0.0, "lon": -76.98320033333333, "name": "e805405d30b580f22ae0bfb5ac83cede", "is_reserved": 0, "is_disabled": 0}, {"lat": 38.90952683333333, "fusion_lat": 0.0, "type": "electric_scooter", "bike_id": "090ef058f54f5638b981d2def49eb3de", "rental_uris": {"ios": "https://dc.lft.to/lastmile_qr_scan", "android": "https://dc.lft.to/lastmile_qr_scan"}, "fusion_lon": 0.0, "lon": -77.04446166666666, "name": "090ef058f54f5638b981d2def49eb3de", "is_reserved": 0, "is_disabled": 0}, {"lat": 38.915269, "fusion_lat": 0.0, "type": "electric_scooter", "bike_id": "fee96146f7f5c70202b19ca5b62d2711", "rental_uris": {"ios": "https://dc.lft.to/lastmile_qr_scan", "android": "https://dc.lft.to/lastmile_qr_scan"}, "fusion_lon": 0.0, "lon": -77.03187816666667, "name": "fee96146f7f5c70202b19ca5b62d2711", "is_reserved": 0, "is_disabled": 0}, {"lat": 38.90240416666666, "fusion_lat": 0.0, "type": "electric_scooter", "bike_id": "8326ebf3e63dfe8d32415ff8b1af13d9", "rental_uris": {"ios": "https://dc.lft.to/lastmile_qr_scan", "android": "https://dc.lft.to/lastmile_qr_scan"}, "fusion_lon": 0.0, "lon": -77.002066, "name": "8326ebf3e63dfe8d32415ff8b1af13d9", "is_reserved": 0, "is_disabled": 0}, {"lat": 38.93711316666667, "fusion_lat": 0.0, "type": "electric_scooter", "bike_id": "5d14620b7172c07252b643b187b4e175", "rental_uris": {"ios": "https://dc.lft.to/lastmile_qr_scan", "android": "https://dc.lft.to/lastmile_qr_scan"}, "fusion_lon": 0.0, "lon": -77.03519916666667, "name": "5d14620b7172c07252b643b187b4e175", "is_reserved": 0, "is_disabled": 0}, {"lat": 38.934236166666665, "fusion_lat": 0.0, "type": "electric_scooter", "bike_id": "bf3b7b9b3c6370a272642ca42ec4d875", "rental_uris": {"ios": "https://dc.lft.to/lastmile_qr_scan", "android": "https://dc.lft.to/lastmile_qr_scan"}, "fusion_lon": 0.0, "lon": -77.0428185, "name": "bf3b7b9b3c6370a272642ca42ec4d875", "is_reserved": 0, "is_disabled": 0}, {"lat": 38.93792216666667, "fusion_lat": 0.0, "type": "electric_scooter", "bike_id": "7a9c115b62e0670eab4319fde8e9e5fb", "rental_uris": {"ios": "https://dc.lft.to/lastmile_qr_scan", "android": "https://dc.lft.to/lastmile_qr_scan"}, "fusion_lon": 0.0, "lon": -77.03283616666667, "name": "7a9c115b62e0670eab4319fde8e9e5fb", "is_reserved": 0, "is_disabled": 0}, {"lat": 38.91624916666667, "fusion_lat": 0.0, "type": "electric_scooter", "bike_id": "304640105050d0f48160e1497202766d", "rental_uris": {"ios": "https://dc.lft.to/lastmile_qr_scan", "android": "https://dc.lft.to/lastmile_qr_scan"}, "fusion_lon": 0.0, "lon": -77.040107, "name": "304640105050d0f48160e1497202766d", "is_reserved": 0, "is_disabled": 0}, {"lat": 38.891768166666665, "fusion_lat": 0.0, "type": "electric_scooter", "bike_id": "7c6e329d0ea9e724e6809a5550c3fdf7", "rental_uris": {"ios": "https://dc.lft.to/lastmile_qr_scan", "android": "https://dc.lft.to/lastmile_qr_scan"}, "fusion_lon": 0.0, "lon": -76.99542883333334, "name": "7c6e329d0ea9e724e6809a5550c3fdf7", "is_reserved": 0, "is_disabled": 0}, {"lat": 38.90158533333334, "fusion_lat": 0.0, "type": "electric_scooter", "bike_id": "1fa7a18bd7accae6aa984e90e6f6037c", "rental_uris": {"ios": "https://dc.lft.to/lastmile_qr_scan", "android": "https://dc.lft.to/lastmile_qr_scan"}, "fusion_lon": 0.0, "lon": -77.0394035, "name": "1fa7a18bd7accae6aa984e90e6f6037c", "is_reserved": 0, "is_disabled": 0}, {"lat": 38.93229383333333, "fusion_lat": 0.0, "type": "electric_scooter", "bike_id": "5c18d8c31418065aecdb29c3a1939782", "rental_uris": {"ios": "https://dc.lft.to/lastmile_qr_scan", "android": "https://dc.lft.to/lastmile_qr_scan"}, "fusion_lon": 0.0, "lon": -77.02985333333334, "name": "5c18d8c31418065aecdb29c3a1939782", "is_reserved": 0, "is_disabled": 0}, {"lat": 38.91519983333333, "fusion_lat": 0.0, "type": "electric_scooter", "bike_id": "3bf774ec227f77e51ae800596d78e700", "rental_uris": {"ios": "https://dc.lft.to/lastmile_qr_scan", "android": "https://dc.lft.to/lastmile_qr_scan"}, "fusion_lon": 0.0, "lon": -77.0198745, "name": "3bf774ec227f77e51ae800596d78e700", "is_reserved": 0, "is_disabled": 0}, {"lat": 38.93243533333333, "fusion_lat": 0.0, "type": "electric_scooter", "bike_id": "1f0afc558a719d98b386dbbe9bc68483", "rental_uris": {"ios": "https://dc.lft.to/lastmile_qr_scan", "android": "https://dc.lft.to/lastmile_qr_scan"}, "fusion_lon": 0.0, "lon": -77.032759, "name": "1f0afc558a719d98b386dbbe9bc68483", "is_reserved": 0, "is_disabled": 0}, {"lat": 38.92101016666667, "fusion_lat": 0.0, "type": "electric_scooter", "bike_id": "bd5656e57c12c990e160de37bc10277e", "rental_uris": {"ios": "https://dc.lft.to/lastmile_qr_scan", "android": "https://dc.lft.to/lastmile_qr_scan"}, "fusion_lon": 0.0, "lon": -77.03661616666666, "name": "bd5656e57c12c990e160de37bc10277e", "is_reserved": 0, "is_disabled": 0}, {"lat": 39.01414283333333, "fusion_lat": 0.0, "type": "electric_bike", "bike_id": "df2f27d8c39d43fcc9e4ef616a8c885d", "rental_uris": {"ios": "https://dc.lft.to/lastmile_qr_scan", "android": "https://dc.lft.to/lastmile_qr_scan"}, "fusion_lon": 0.0, "lon": -77.044978, "name": "df2f27d8c39d43fcc9e4ef616a8c885d", "is_reserved": 0, "is_disabled": 0}, {"lat": 38.8833215, "fusion_lat": 0.0, "type": "electric_scooter", "bike_id": "2502ae1b594f72e7a6da1375cc5d0998", "rental_uris": {"ios": "https://dc.lft.to/lastmile_qr_scan", "android": "https://dc.lft.to/lastmile_qr_scan"}, "fusion_lon": 0.0, "lon": -77.01144866666667, "name": "2502ae1b594f72e7a6da1375cc5d0998", "is_reserved": 0, "is_disabled": 0}, {"lat": 38.909493166666664, "fusion_lat": 0.0, "type": "electric_scooter", "bike_id": "13ff4ef0268cd5b7256ae37e3959c7a3", "rental_uris": {"ios": "https://dc.lft.to/lastmile_qr_scan", "android": "https://dc.lft.to/lastmile_qr_scan"}, "fusion_lon": 0.0, "lon": -77.02263133333334, "name": "13ff4ef0268cd5b7256ae37e3959c7a3", "is_reserved": 0, "is_disabled": 0}, {"lat": 38.91691183333333, "fusion_lat": 0.0, "type": "electric_scooter", "bike_id": "91a85323bfc8be18cb4e03eaea72b851", "rental_uris": {"ios": "https://dc.lft.to/lastmile_qr_scan", "android": "https://dc.lft.to/lastmile_qr_scan"}, "fusion_lon": 0.0, "lon": -77.03908316666667, "name": "91a85323bfc8be18cb4e03eaea72b851", "is_reserved": 0, "is_disabled": 0}, {"lat": 38.87640733333333, "fusion_lat": 0.0, "type": "electric_scooter", "bike_id": "b51eec08eee7c55db43c479116bfb694", "rental_uris": {"ios": "https://dc.lft.to/lastmile_qr_scan", "android": "https://dc.lft.to/lastmile_qr_scan"}, "fusion_lon": 0.0, "lon": -77.01568883333333, "name": "b51eec08eee7c55db43c479116bfb694", "is_reserved": 0, "is_disabled": 0}, {"lat": 38.92501583333333, "fusion_lat": 0.0, "type": "electric_scooter", "bike_id": "400f793c8b2bb0f9fa749d590e3f048c", "rental_uris": {"ios": "https://dc.lft.to/lastmile_qr_scan", "android": "https://dc.lft.to/lastmile_qr_scan"}, "fusion_lon": 0.0, "lon": -77.039206, "name": "400f793c8b2bb0f9fa749d590e3f048c", "is_reserved": 0, "is_disabled": 0}, {"lat": 38.9232565, "fusion_lat": 0.0, "type": "electric_scooter", "bike_id": "29160d14f1f6b4484852df50ed4e33d9", "rental_uris": {"ios": "https://dc.lft.to/lastmile_qr_scan", "android": "https://dc.lft.to/lastmile_qr_scan"}, "fusion_lon": 0.0, "lon": -77.03860983333334, "name": "29160d14f1f6b4484852df50ed4e33d9", "is_reserved": 0, "is_disabled": 0}, {"lat": 38.90148633333333, "fusion_lat": 0.0, "type": "electric_scooter", "bike_id": "9854c1e3fff4a9b51b2bbdce78c4eefc", "rental_uris": {"ios": "https://dc.lft.to/lastmile_qr_scan", "android": "https://dc.lft.to/lastmile_qr_scan"}, "fusion_lon": 0.0, "lon": -77.03963016666667, "name": "9854c1e3fff4a9b51b2bbdce78c4eefc", "is_reserved": 0, "is_disabled": 0}, {"lat": 38.873760833333336, "fusion_lat": 0.0, "type": "electric_scooter", "bike_id": "858051508793780f4305675931396033", "rental_uris": {"ios": "https://dc.lft.to/lastmile_qr_scan", "android": "https://dc.lft.to/lastmile_qr_scan"}, "fusion_lon": 0.0, "lon": -77.00168316666667, "name": "858051508793780f4305675931396033", "is_reserved": 0, "is_disabled": 0}, {"lat": 38.87824116666667, "fusion_lat": 0.0, "type": "electric_scooter", "bike_id": "6d83d132ed5d363f35d01e329f4972d1", "rental_uris": {"ios": "https://dc.lft.to/lastmile_qr_scan", "android": "https://dc.lft.to/lastmile_qr_scan"}, "fusion_lon": 0.0, "lon": -77.007302, "name": "6d83d132ed5d363f35d01e329f4972d1", "is_reserved": 0, "is_disabled": 0}, {"lat": 38.9021005, "fusion_lat": 0.0, "type": "electric_scooter", "bike_id": "c4ea912f79aeb2937cbb2528197f454f", "rental_uris": {"ios": "https://dc.lft.to/lastmile_qr_scan", "android": "https://dc.lft.to/lastmile_qr_scan"}, "fusion_lon": 0.0, "lon": -77.02186033333334, "name": "c4ea912f79aeb2937cbb2528197f454f", "is_reserved": 0, "is_disabled": 0}, {"lat": 38.86824433333334, "fusion_lat": 0.0, "type": "electric_scooter", "bike_id": "f2534a77c23791f46d6a04269d398c69", "rental_uris": {"ios": "https://dc.lft.to/lastmile_qr_scan", "android": "https://dc.lft.to/lastmile_qr_scan"}, "fusion_lon": 0.0, "lon": -77.0097945, "name": "f2534a77c23791f46d6a04269d398c69", "is_reserved": 0, "is_disabled": 0}, {"lat": 38.9145185, "fusion_lat": 0.0, "type": "electric_scooter", "bike_id": "a4d265a0eea3ba25e7b2164534d646d8", "rental_uris": {"ios": "https://dc.lft.to/lastmile_qr_scan", "android": "https://dc.lft.to/lastmile_qr_scan"}, "fusion_lon": 0.0, "lon": -77.02189216666666, "name": "a4d265a0eea3ba25e7b2164534d646d8", "is_reserved": 0, "is_disabled": 0}, {"lat": 38.914143833333334, "fusion_lat": 0.0, "type": "electric_scooter", "bike_id": "6dc8b4460a27323a5ba15766612faf3d", "rental_uris": {"ios": "https://dc.lft.to/lastmile_qr_scan", "android": "https://dc.lft.to/lastmile_qr_scan"}, "fusion_lon": 0.0, "lon": -77.03171216666667, "name": "6dc8b4460a27323a5ba15766612faf3d", "is_reserved": 0, "is_disabled": 0}, {"lat": 38.915236166666666, "fusion_lat": 0.0, "type": "electric_scooter", "bike_id": "c8ad43a0f4f58f06149eceba689730f4", "rental_uris": {"ios": "https://dc.lft.to/lastmile_qr_scan", "android": "https://dc.lft.to/lastmile_qr_scan"}, "fusion_lon": 0.0, "lon": -77.0122275, "name": "c8ad43a0f4f58f06149eceba689730f4", "is_reserved": 0, "is_disabled": 0}, {"lat": 38.9428235, "fusion_lat": 0.0, "type": "electric_scooter", "bike_id": "72e3675b101d8744505fb3c910cd352e", "rental_uris": {"ios": "https://dc.lft.to/lastmile_qr_scan", "android": "https://dc.lft.to/lastmile_qr_scan"}, "fusion_lon": 0.0, "lon": -77.07702183333333, "name": "72e3675b101d8744505fb3c910cd352e", "is_reserved": 0, "is_disabled": 0}, {"lat": 38.935227, "fusion_lat": 0.0, "type": "electric_scooter", "bike_id": "c94e845679e0f72c1203644273c0737b", "rental_uris": {"ios": "https://dc.lft.to/lastmile_qr_scan", "android": "https://dc.lft.to/lastmile_qr_scan"}, "fusion_lon": 0.0, "lon": -77.03258733333334, "name": "c94e845679e0f72c1203644273c0737b", "is_reserved": 0, "is_disabled": 0}, {"lat": 38.907781, "fusion_lat": 0.0, "type": "electric_scooter", "bike_id": "1191648ecb867cd5426e08042a31751e", "rental_uris": {"ios": "https://dc.lft.to/lastmile_qr_scan", "android": "https://dc.lft.to/lastmile_qr_scan"}, "fusion_lon": 0.0, "lon": -77.038347, "name": "1191648ecb867cd5426e08042a31751e", "is_reserved": 0, "is_disabled": 0}, {"lat": 38.909934, "fusion_lat": 0.0, "type": "electric_scooter", "bike_id": "d74b801f6f6e32bdf28d4c188265c6ab", "rental_uris": {"ios": "https://dc.lft.to/lastmile_qr_scan", "android": "https://dc.lft.to/lastmile_qr_scan"}, "fusion_lon": 0.0, "lon": -77.03223733333333, "name": "d74b801f6f6e32bdf28d4c188265c6ab", "is_reserved": 0, "is_disabled": 0}, {"lat": 38.964466333333334, "fusion_lat": 0.0, "type": "electric_bike", "bike_id": "e1916fb9b930a70706530ea56381da4f", "rental_uris": {"ios": "https://dc.lft.to/lastmile_qr_scan", "android": "https://dc.lft.to/lastmile_qr_scan"}, "fusion_lon": 0.0, "lon": -77.0224185, "name": "e1916fb9b930a70706530ea56381da4f", "is_reserved": 0, "is_disabled": 0}, {"lat": 38.9241785, "fusion_lat": 0.0, "type": "electric_scooter", "bike_id": "bc3da42e10fa4df9dfdd1cadb4390d73", "rental_uris": {"ios": "https://dc.lft.to/lastmile_qr_scan", "android": "https://dc.lft.to/lastmile_qr_scan"}, "fusion_lon": 0.0, "lon": -77.06522533333333, "name": "bc3da42e10fa4df9dfdd1cadb4390d73", "is_reserved": 0, "is_disabled": 0}, {"lat": 38.925856, "fusion_lat": 0.0, "type": "electric_scooter", "bike_id": "2ff3628342bf913f23f54bc4a0dc8697", "rental_uris": {"ios": "https://dc.lft.to/lastmile_qr_scan", "android": "https://dc.lft.to/lastmile_qr_scan"}, "fusion_lon": 0.0, "lon": -77.09682783333334, "name": "2ff3628342bf913f23f54bc4a0dc8697", "is_reserved": 0, "is_disabled": 0}, {"lat": 38.881211, "fusion_lat": 0.0, "type": "electric_bike", "bike_id": "7b2e7a5581a7726d37c04e3623c57bb9", "rental_uris": {"ios": "https://dc.lft.to/lastmile_qr_scan", "android": "https://dc.lft.to/lastmile_qr_scan"}, "fusion_lon": 0.0, "lon": -77.0164875, "name": "7b2e7a5581a7726d37c04e3623c57bb9", "is_reserved": 0, "is_disabled": 0}, {"lat": 38.917238166666664, "fusion_lat": 0.0, "type": "electric_scooter", "bike_id": "afeec7d83630071ba5c1e2b70e4d8ae1", "rental_uris": {"ios": "https://dc.lft.to/lastmile_qr_scan", "android": "https://dc.lft.to/lastmile_qr_scan"}, "fusion_lon": 0.0, "lon": -77.02592616666666, "name": "afeec7d83630071ba5c1e2b70e4d8ae1", "is_reserved": 0, "is_disabled": 0}, {"lat": 38.8758205, "fusion_lat": 0.0, "type": "electric_bike", "bike_id": "38c02714c1cb81469d0e40daab765559", "rental_uris": {"ios": "https://dc.lft.to/lastmile_qr_scan", "android": "https://dc.lft.to/lastmile_qr_scan"}, "fusion_lon": 0.0, "lon": -77.23412933333333, "name": "38c02714c1cb81469d0e40daab765559", "is_reserved": 0, "is_disabled": 0}, {"lat": 38.89902083333333, "fusion_lat": 0.0, "type": "electric_scooter", "bike_id": "506ba508a043ffccb60191b9486c8165", "rental_uris": {"ios": "https://dc.lft.to/lastmile_qr_scan", "android": "https://dc.lft.to/lastmile_qr_scan"}, "fusion_lon": 0.0, "lon": -76.99966666666667, "name": "506ba508a043ffccb60191b9486c8165", "is_reserved": 0, "is_disabled": 0}, {"lat": 38.93445083333334, "fusion_lat": 0.0, "type": "electric_scooter", "bike_id": "0d49681e72917167e1296465bdd2b512", "rental_uris": {"ios": "https://dc.lft.to/lastmile_qr_scan", "android": "https://dc.lft.to/lastmile_qr_scan"}, "fusion_lon": 0.0, "lon": -77.09060033333333, "name": "0d49681e72917167e1296465bdd2b512", "is_reserved": 0, "is_disabled": 0}, {"lat": 38.96164816666667, "fusion_lat": 0.0, "type": "electric_scooter", "bike_id": "abb8bec1deaa9b206c1787ac17ccb6c2", "rental_uris": {"ios": "https://dc.lft.to/lastmile_qr_scan", "android": "https://dc.lft.to/lastmile_qr_scan"}, "fusion_lon": 0.0, "lon": -77.07385766666667, "name": "abb8bec1deaa9b206c1787ac17ccb6c2", "is_reserved": 0, "is_disabled": 0}, {"lat": 38.8968705, "fusion_lat": 0.0, "type": "electric_scooter", "bike_id": "bb48a4652e7c50da1574c2c502ca7b78", "rental_uris": {"ios": "https://dc.lft.to/lastmile_qr_scan", "android": "https://dc.lft.to/lastmile_qr_scan"}, "fusion_lon": 0.0, "lon": -76.93714733333333, "name": "bb48a4652e7c50da1574c2c502ca7b78", "is_reserved": 0, "is_disabled": 0}, {"lat": 38.91800416666667, "fusion_lat": 0.0, "type": "electric_scooter", "bike_id": "bd2e5dd28fa47b885f225eaf3d530cb0", "rental_uris": {"ios": "https://dc.lft.to/lastmile_qr_scan", "android": "https://dc.lft.to/lastmile_qr_scan"}, "fusion_lon": 0.0, "lon": -77.02486616666667, "name": "bd2e5dd28fa47b885f225eaf3d530cb0", "is_reserved": 0, "is_disabled": 0}, {"lat": 38.899495333333334, "fusion_lat": 0.0, "type": "electric_scooter", "bike_id": "cf8276faca71cbeaea9b2ff6c62eacd4", "rental_uris": {"ios": "https://dc.lft.to/lastmile_qr_scan", "android": "https://dc.lft.to/lastmile_qr_scan"}, "fusion_lon": 0.0, "lon": -77.04150066666666, "name": "cf8276faca71cbeaea9b2ff6c62eacd4", "is_reserved": 0, "is_disabled": 0}, {"lat": 38.8923, "fusion_lat": 0.0, "type": "electric_scooter", "bike_id": "3589145ba54e1358880e5e25d73d759d", "rental_uris": {"ios": "https://dc.lft.to/lastmile_qr_scan", "android": "https://dc.lft.to/lastmile_qr_scan"}, "fusion_lon": 0.0, "lon": -77.02802316666667, "name": "3589145ba54e1358880e5e25d73d759d", "is_reserved": 0, "is_disabled": 0}, {"lat": 38.910608333333336, "fusion_lat": 0.0, "type": "electric_scooter", "bike_id": "66495f7493aeaee0650176e96495cdc1", "rental_uris": {"ios": "https://dc.lft.to/lastmile_qr_scan", "android": "https://dc.lft.to/lastmile_qr_scan"}, "fusion_lon": 0.0, "lon": -77.053812, "name": "66495f7493aeaee0650176e96495cdc1", "is_reserved": 0, "is_disabled": 0}, {"lat": 38.892436333333336, "fusion_lat": 0.0, "type": "electric_scooter", "bike_id": "6527ffa42f02494de9fadc87c65592ba", "rental_uris": {"ios": "https://dc.lft.to/lastmile_qr_scan", "android": "https://dc.lft.to/lastmile_qr_scan"}, "fusion_lon": 0.0, "lon": -77.050269, "name": "6527ffa42f02494de9fadc87c65592ba", "is_reserved": 0, "is_disabled": 0}, {"lat": 38.91717283333333, "fusion_lat": 0.0, "type": "electric_scooter", "bike_id": "ca2245bc5dd9ac99ae32891753013eb8", "rental_uris": {"ios": "https://dc.lft.to/lastmile_qr_scan", "android": "https://dc.lft.to/lastmile_qr_scan"}, "fusion_lon": 0.0, "lon": -77.03629316666667, "name": "ca2245bc5dd9ac99ae32891753013eb8", "is_reserved": 0, "is_disabled": 0}, {"lat": 38.900733, "fusion_lat": 0.0, "type": "electric_scooter", "bike_id": "f732da8ac4d831656ca992d46148fae1", "rental_uris": {"ios": "https://dc.lft.to/lastmile_qr_scan", "android": "https://dc.lft.to/lastmile_qr_scan"}, "fusion_lon": 0.0, "lon": -77.050489, "name": "f732da8ac4d831656ca992d46148fae1", "is_reserved": 0, "is_disabled": 0}, {"lat": 38.923536666666664, "fusion_lat": 0.0, "type": "electric_scooter", "bike_id": "df3fb5e9e890b08fceea34bce3c93697", "rental_uris": {"ios": "https://dc.lft.to/lastmile_qr_scan", "android": "https://dc.lft.to/lastmile_qr_scan"}, "fusion_lon": 0.0, "lon": -77.00334133333334, "name": "df3fb5e9e890b08fceea34bce3c93697", "is_reserved": 0, "is_disabled": 0}, {"lat": 38.91519683333333, "fusion_lat": 0.0, "type": "electric_scooter", "bike_id": "fd0ef524a60b028f509e9b33defff4f7", "rental_uris": {"ios": "https://dc.lft.to/lastmile_qr_scan", "android": "https://dc.lft.to/lastmile_qr_scan"}, "fusion_lon": 0.0, "lon": -77.04869333333333, "name": "fd0ef524a60b028f509e9b33defff4f7", "is_reserved": 0, "is_disabled": 0}, {"lat": 38.931945, "fusion_lat": 0.0, "type": "electric_scooter", "bike_id": "62a78c614e725607b123d6e1476187a7", "rental_uris": {"ios": "https://dc.lft.to/lastmile_qr_scan", "android": "https://dc.lft.to/lastmile_qr_scan"}, "fusion_lon": 0.0, "lon": -77.01987883333334, "name": "62a78c614e725607b123d6e1476187a7", "is_reserved": 0, "is_disabled": 0}, {"lat": 38.837426, "fusion_lat": 0.0, "type": "electric_bike", "bike_id": "cf531a59a491dfd2879c37d6286303a3", "rental_uris": {"ios": "https://dc.lft.to/lastmile_qr_scan", "android": "https://dc.lft.to/lastmile_qr_scan"}, "fusion_lon": 0.0, "lon": -76.998174, "name": "cf531a59a491dfd2879c37d6286303a3", "is_reserved": 0, "is_disabled": 0}, {"lat": 38.905720333333335, "fusion_lat": 0.0, "type": "electric_scooter", "bike_id": "d05b24d2b866a86437950f06ebe61d03", "rental_uris": {"ios": "https://dc.lft.to/lastmile_qr_scan", "android": "https://dc.lft.to/lastmile_qr_scan"}, "fusion_lon": 0.0, "lon": -77.005815, "name": "d05b24d2b866a86437950f06ebe61d03", "is_reserved": 0, "is_disabled": 0}, {"lat": 38.959602333333336, "fusion_lat": 0.0, "type": "electric_bike", "bike_id": "12db94c444396e171b9265fee127242b", "rental_uris": {"ios": "https://dc.lft.to/lastmile_qr_scan", "android": "https://dc.lft.to/lastmile_qr_scan"}, "fusion_lon": 0.0, "lon": -77.030557, "name": "12db94c444396e171b9265fee127242b", "is_reserved": 0, "is_disabled": 0}, {"lat": 38.90084366666667, "fusion_lat": 0.0, "type": "electric_scooter", "bike_id": "23eff2f4e5a3240e4233e3b9cb317c87", "rental_uris": {"ios": "https://dc.lft.to/lastmile_qr_scan", "android": "https://dc.lft.to/lastmile_qr_scan"}, "fusion_lon": 0.0, "lon": -76.92964233333333, "name": "23eff2f4e5a3240e4233e3b9cb317c87", "is_reserved": 0, "is_disabled": 0}, {"lat": 38.967997, "fusion_lat": 0.0, "type": "electric_scooter", "bike_id": "b35443aa93bc3e5fb870033e22242611", "rental_uris": {"ios": "https://dc.lft.to/lastmile_qr_scan", "android": "https://dc.lft.to/lastmile_qr_scan"}, "fusion_lon": 0.0, "lon": -77.02422916666667, "name": "b35443aa93bc3e5fb870033e22242611", "is_reserved": 0, "is_disabled": 0}, {"lat": 38.884107666666665, "fusion_lat": 0.0, "type": "electric_scooter", "bike_id": "ca17c341d43fffac7479f1b052a5f0e2", "rental_uris": {"ios": "https://dc.lft.to/lastmile_qr_scan", "android": "https://dc.lft.to/lastmile_qr_scan"}, "fusion_lon": 0.0, "lon": -77.03190683333334, "name": "ca17c341d43fffac7479f1b052a5f0e2", "is_reserved": 0, "is_disabled": 0}, {"lat": 38.898826, "fusion_lat": 0.0, "type": "electric_scooter", "bike_id": "b06ee35f9b072470790a53bd559d6c36", "rental_uris": {"ios": "https://dc.lft.to/lastmile_qr_scan", "android": "https://dc.lft.to/lastmile_qr_scan"}, "fusion_lon": 0.0, "lon": -77.03317866666667, "name": "b06ee35f9b072470790a53bd559d6c36", "is_reserved": 0, "is_disabled": 0}, {"lat": 38.91612683333334, "fusion_lat": 0.0, "type": "electric_scooter", "bike_id": "2740cd9fcac639fd133bb7439a0c353b", "rental_uris": {"ios": "https://dc.lft.to/lastmile_qr_scan", "android": "https://dc.lft.to/lastmile_qr_scan"}, "fusion_lon": 0.0, "lon": -77.02306616666667, "name": "2740cd9fcac639fd133bb7439a0c353b", "is_reserved": 0, "is_disabled": 0}, {"lat": 38.88430316666667, "fusion_lat": 0.0, "type": "electric_scooter", "bike_id": "c9fea6e5c143815feb0b96844a07ca2a", "rental_uris": {"ios": "https://dc.lft.to/lastmile_qr_scan", "android": "https://dc.lft.to/lastmile_qr_scan"}, "fusion_lon": 0.0, "lon": -76.95751083333333, "name": "c9fea6e5c143815feb0b96844a07ca2a", "is_reserved": 0, "is_disabled": 0}, {"lat": 38.93632, "fusion_lat": 0.0, "type": "electric_scooter", "bike_id": "00415446e467ac06cf44a590d2da6efb", "rental_uris": {"ios": "https://dc.lft.to/lastmile_qr_scan", "android": "https://dc.lft.to/lastmile_qr_scan"}, "fusion_lon": 0.0, "lon": -77.02110183333333, "name": "00415446e467ac06cf44a590d2da6efb", "is_reserved": 0, "is_disabled": 0}, {"lat": 38.953322166666666, "fusion_lat": 0.0, "type": "electric_bike", "bike_id": "cfa5c624b6e30d974b4e574998a61384", "rental_uris": {"ios": "https://dc.lft.to/lastmile_qr_scan", "android": "https://dc.lft.to/lastmile_qr_scan"}, "fusion_lon": 0.0, "lon": -76.98252616666667, "name": "cfa5c624b6e30d974b4e574998a61384", "is_reserved": 0, "is_disabled": 0}, {"lat": 38.895466166666665, "fusion_lat": 0.0, "type": "electric_scooter", "bike_id": "67cef2fa86f22c76e81c3a10b2ae047f", "rental_uris": {"ios": "https://dc.lft.to/lastmile_qr_scan", "android": "https://dc.lft.to/lastmile_qr_scan"}, "fusion_lon": 0.0, "lon": -76.98339983333334, "name": "67cef2fa86f22c76e81c3a10b2ae047f", "is_reserved": 0, "is_disabled": 0}, {"lat": 38.89727416666667, "fusion_lat": 0.0, "type": "electric_scooter", "bike_id": "de5f76db0e70941d13567989086209d3", "rental_uris": {"ios": "https://dc.lft.to/lastmile_qr_scan", "android": "https://dc.lft.to/lastmile_qr_scan"}, "fusion_lon": 0.0, "lon": -77.04369083333333, "name": "de5f76db0e70941d13567989086209d3", "is_reserved": 0, "is_disabled": 0}, {"lat": 38.9320025, "fusion_lat": 0.0, "type": "electric_scooter", "bike_id": "519cef76952c5848f751672108788756", "rental_uris": {"ios": "https://dc.lft.to/lastmile_qr_scan", "android": "https://dc.lft.to/lastmile_qr_scan"}, "fusion_lon": 0.0, "lon": -77.0365835, "name": "519cef76952c5848f751672108788756", "is_reserved": 0, "is_disabled": 0}, {"lat": 38.905735666666665, "fusion_lat": 0.0, "type": "electric_scooter", "bike_id": "bc6824b41e406eebcfaa82a5e039dde0", "rental_uris": {"ios": "https://dc.lft.to/lastmile_qr_scan", "android": "https://dc.lft.to/lastmile_qr_scan"}, "fusion_lon": 0.0, "lon": -77.0058665, "name": "bc6824b41e406eebcfaa82a5e039dde0", "is_reserved": 0, "is_disabled": 0}, {"lat": 38.876842, "fusion_lat": 0.0, "type": "electric_scooter", "bike_id": "2ba256d654126ea2d70db0b6fda8d68e", "rental_uris": {"ios": "https://dc.lft.to/lastmile_qr_scan", "android": "https://dc.lft.to/lastmile_qr_scan"}, "fusion_lon": 0.0, "lon": -77.006604, "name": "2ba256d654126ea2d70db0b6fda8d68e", "is_reserved": 0, "is_disabled": 0}, {"lat": 38.9229095, "fusion_lat": 0.0, "type": "electric_scooter", "bike_id": "31a883d35e47d45fd4497999ac776f54", "rental_uris": {"ios": "https://dc.lft.to/lastmile_qr_scan", "android": "https://dc.lft.to/lastmile_qr_scan"}, "fusion_lon": 0.0, "lon": -77.02954183333334, "name": "31a883d35e47d45fd4497999ac776f54", "is_reserved": 0, "is_disabled": 0}, {"lat": 38.917961, "fusion_lat": 0.0, "type": "electric_scooter", "bike_id": "0a0c3817c8e6c9c4e3ce4ee3bb66122d", "rental_uris": {"ios": "https://dc.lft.to/lastmile_qr_scan", "android": "https://dc.lft.to/lastmile_qr_scan"}, "fusion_lon": 0.0, "lon": -77.04013066666667, "name": "0a0c3817c8e6c9c4e3ce4ee3bb66122d", "is_reserved": 0, "is_disabled": 0}, {"lat": 38.91500716666667, "fusion_lat": 0.0, "type": "electric_scooter", "bike_id": "ab4aa1444e9978e7be65bd267a2df436", "rental_uris": {"ios": "https://dc.lft.to/lastmile_qr_scan", "android": "https://dc.lft.to/lastmile_qr_scan"}, "fusion_lon": 0.0, "lon": -76.98390733333333, "name": "ab4aa1444e9978e7be65bd267a2df436", "is_reserved": 0, "is_disabled": 0}, {"lat": 38.8814425, "fusion_lat": 0.0, "type": "electric_bike", "bike_id": "377a140a42394882e0802bb86eeb1030", "rental_uris": {"ios": "https://dc.lft.to/lastmile_qr_scan", "android": "https://dc.lft.to/lastmile_qr_scan"}, "fusion_lon": 0.0, "lon": -77.01630533333334, "name": "377a140a42394882e0802bb86eeb1030", "is_reserved": 0, "is_disabled": 0}, {"lat": 38.9303115, "fusion_lat": 0.0, "type": "electric_scooter", "bike_id": "11273440fcda62f1f54db578a5212b5c", "rental_uris": {"ios": "https://dc.lft.to/lastmile_qr_scan", "android": "https://dc.lft.to/lastmile_qr_scan"}, "fusion_lon": 0.0, "lon": -77.05567566666667, "name": "11273440fcda62f1f54db578a5212b5c", "is_reserved": 0, "is_disabled": 0}, {"lat": 38.96138033333333, "fusion_lat": 0.0, "type": "electric_bike", "bike_id": "49a247317e8340a19496828f6fd49e8b", "rental_uris": {"ios": "https://dc.lft.to/lastmile_qr_scan", "android": "https://dc.lft.to/lastmile_qr_scan"}, "fusion_lon": 0.0, "lon": -77.0332965, "name": "49a247317e8340a19496828f6fd49e8b", "is_reserved": 0, "is_disabled": 0}, {"lat": 38.90576266666667, "fusion_lat": 0.0, "type": "electric_scooter", "bike_id": "7764e7023f5fc81bd2b515aa18505119", "rental_uris": {"ios": "https://dc.lft.to/lastmile_qr_scan", "android": "https://dc.lft.to/lastmile_qr_scan"}, "fusion_lon": 0.0, "lon": -77.0488625, "name": "7764e7023f5fc81bd2b515aa18505119", "is_reserved": 0, "is_disabled": 0}, {"lat": 38.88118333333333, "fusion_lat": 0.0, "type": "electric_scooter", "bike_id": "f76f0cb492abab3f17f90767452be711", "rental_uris": {"ios": "https://dc.lft.to/lastmile_qr_scan", "android": "https://dc.lft.to/lastmile_qr_scan"}, "fusion_lon": 0.0, "lon": -77.01743966666666, "name": "f76f0cb492abab3f17f90767452be711", "is_reserved": 0, "is_disabled": 0}, {"lat": 38.89338033333333, "fusion_lat": 0.0, "type": "electric_scooter", "bike_id": "2dd63f666b0bc5b9388e1d09cf6e09e3", "rental_uris": {"ios": "https://dc.lft.to/lastmile_qr_scan", "android": "https://dc.lft.to/lastmile_qr_scan"}, "fusion_lon": 0.0, "lon": -76.99382783333333, "name": "2dd63f666b0bc5b9388e1d09cf6e09e3", "is_reserved": 0, "is_disabled": 0}, {"lat": 38.887668, "fusion_lat": 0.0, "type": "electric_scooter", "bike_id": "ba929b1e99e6f01ccadcb837e67d8a84", "rental_uris": {"ios": "https://dc.lft.to/lastmile_qr_scan", "android": "https://dc.lft.to/lastmile_qr_scan"}, "fusion_lon": 0.0, "lon": -77.02236116666667, "name": "ba929b1e99e6f01ccadcb837e67d8a84", "is_reserved": 0, "is_disabled": 0}, {"lat": 38.90775, "fusion_lat": 0.0, "type": "electric_scooter", "bike_id": "fa6cf1d5fa171c2be6a24692014faadf", "rental_uris": {"ios": "https://dc.lft.to/lastmile_qr_scan", "android": "https://dc.lft.to/lastmile_qr_scan"}, "fusion_lon": 0.0, "lon": -77.03829733333333, "name": "fa6cf1d5fa171c2be6a24692014faadf", "is_reserved": 0, "is_disabled": 0}, {"lat": 38.920714833333335, "fusion_lat": 0.0, "type": "electric_scooter", "bike_id": "8e313f43f635143a74f65efc6d4aa8f5", "rental_uris": {"ios": "https://dc.lft.to/lastmile_qr_scan", "android": "https://dc.lft.to/lastmile_qr_scan"}, "fusion_lon": 0.0, "lon": -77.02409083333333, "name": "8e313f43f635143a74f65efc6d4aa8f5", "is_reserved": 0, "is_disabled": 0}, {"lat": 38.9248245, "fusion_lat": 0.0, "type": "electric_scooter", "bike_id": "7f7f19cb167129aaa84d6e6fbc51b0e9", "rental_uris": {"ios": "https://dc.lft.to/lastmile_qr_scan", "android": "https://dc.lft.to/lastmile_qr_scan"}, "fusion_lon": 0.0, "lon": -77.052219, "name": "7f7f19cb167129aaa84d6e6fbc51b0e9", "is_reserved": 0, "is_disabled": 0}, {"lat": 38.819108, "fusion_lat": 0.0, "type": "electric_bike", "bike_id": "40bda35dddf880c96cee634f889ad492", "rental_uris": {"ios": "https://dc.lft.to/lastmile_qr_scan", "android": "https://dc.lft.to/lastmile_qr_scan"}, "fusion_lon": 0.0, "lon": -77.12653233333333, "name": "40bda35dddf880c96cee634f889ad492", "is_reserved": 0, "is_disabled": 0}, {"lat": 38.93706533333334, "fusion_lat": 0.0, "type": "electric_scooter", "bike_id": "0fe4e2c7f72d2f7623188877debafa88", "rental_uris": {"ios": "https://dc.lft.to/lastmile_qr_scan", "android": "https://dc.lft.to/lastmile_qr_scan"}, "fusion_lon": 0.0, "lon": -77.08981533333333, "name": "0fe4e2c7f72d2f7623188877debafa88", "is_reserved": 0, "is_disabled": 0},