{"data": {"bikes": [{"type": "electric_scooter", "rental_uris": {"ios": "https://dc.lft.to/lastmile_qr_scan", "android": "https://dc.lft.to/lastmile_qr_scan"}, "lon": -77.04032616666667, "fusion_lon": 0.0, "is_disabled": 0, "lat": 38.91806783333333, "bike_id": "0f9cf80c72ca655c868e3116e2b78aaf", "name": "0f9cf80c72ca655c868e3116e2b78aaf", "is_reserved": 0, "fusion_lat": 0.0}, {"type": "electric_scooter", "rental_uris": {"ios": "https://dc.lft.to/lastmile_qr_scan", "android": "https://dc.lft.to/lastmile_qr_scan"}, "lon": -77.03155833333334, "fusion_lon": 0.0, "is_disabled": 0, "lat": 38.91562966666667, "bike_id": "421ba0a58d5e0a45933d745f909306bb", "name": "421ba0a58d5e0a45933d745f909306bb", "is_reserved": 0, "fusion_lat": 0.0}, {"type": "electric_scooter", "rental_uris": {"ios": "https://dc.lft.to/lastmile_qr_scan", "android": "https://dc.lft.to/lastmile_qr_scan"}, "lon": -77.03201166666666, "fusion_lon": 0.0, "is_disabled": 0, "lat": 38.90772583333333, "bike_id": "5bbacc3ceb3b026b5d61f8b2e61ed860", "name": "5bbacc3ceb3b026b5d61f8b2e61ed860", "is_reserved": 0, "fusion_lat": 0.0}, {"type": "electric_scooter", "rental_uris": {"ios": "https://dc.lft.to/lastmile_qr_scan", "android": "https://dc.lft.to/lastmile_qr_scan"}, "lon": -77.02356866666666, "fusion_lon": 0.0, "is_disabled": 0, "lat": 38.91781616666667, "bike_id": "31b325ef856c721952539f9346c44039", "name": "31b325ef856c721952539f9346c44039", "is_reserved": 0, "fusion_lat": 0.0}, {"type": "electric_bike", "rental_uris": {"ios": "https://dc.lft.to/lastmile_qr_scan", "android": "https://dc.lft.to/lastmile_qr_scan"}, "lon": -76.96907383333334, "fusion_lon": 0.0, "is_disabled": 0, "lat": 38.84606383333333, "bike_id": "fee6132a0554f9d144bf0a91bdf6287a", "name": "fee6132a0554f9d144bf0a91bdf6287a", "is_reserved": 0, "fusion_lat": 0.0}, {"type": "electric_scooter", "rental_uris": {"ios": "https://dc.lft.to/lastmile_qr_scan", "android": "https://dc.lft.to/lastmile_qr_scan"}, "lon": -77.03855683333333, "fusion_lon": 0.0, "is_disabled": 0, "lat": 38.9023735, "bike_id": "969288308dce06004cfec1b43bfa1c62", "name": "969288308dce06004cfec1b43bfa1c62", "is_reserved": 0, "fusion_lat": 0.0}, {"type": "electric_scooter", "rental_uris": {"ios": "https://dc.lft.to/lastmile_qr_scan", "android": "https://dc.lft.to/lastmile_qr_scan"}, "lon": -77.03719733333334, "fusion_lon": 0.0, "is_disabled": 0, "lat": 38.92861383333333, "bike_id": "ad410c21459b50dd3b7a9bac7fdef494", "name": "ad410c21459b50dd3b7a9bac7fdef494", "is_reserved": 0, "fusion_lat": 0.0}, {"type": "electric_scooter", "rental_uris": {"ios": "https://dc.lft.to/lastmile_qr_scan", "android": "https://dc.lft.to/lastmile_qr_scan"}, "lon": -76.9766325, "fusion_lon": 0.0, "is_disabled": 0, "lat": 38.898546833333334, "bike_id": "f74891b4c3b8a41f61fd5476f699bac3", "name": "f74891b4c3b8a41f61fd5476f699bac3", "is_reserved": 0, "fusion_lat": 0.0}, {"type": "electric_bike", "rental_uris": {"ios": "https://dc.lft.to/lastmile_qr_scan", "android": "https://dc.lft.to/lastmile_qr_scan"}, "lon": -77.12018916666666, "fusion_lon": 0.0, "is_disabled": 0, "lat": 38.855163, "bike_id": "f3e0232140011c63fd2b75a2145b3abd", "name": "f3e0232140011c63fd2b75a2145b3abd", "is_reserved": 0, "fusion_lat": 0.0}, {"type": "electric_scooter", "rental_uris": {"ios": "https://dc.lft.to/lastmile_qr_scan", "android": "https://dc.lft.to/lastmile_qr_scan"}, "lon": -77.01947483333333, "fusion_lon": 0.0, "is_disabled": 0, "lat": 38.949293833333336, "bike_id": "5d341cc5d6d14af5c1c770318b20aed9", "name": "5d341cc5d6d14af5c1c770318b20aed9", "is_reserved": 0, "fusion_lat": 0.0}, {"type": "electric_scooter", "rental_uris": {"ios": "https://dc.lft.to/lastmile_qr_scan", "android": "https://dc.lft.to/lastmile_qr_scan"}, "lon": -76.9419185, "fusion_lon": 0.0, "is_disabled": 0, "lat": 38.89750983333333, "bike_id": "ddd54dd2999da5241838329b0aeacd8c", "name": "ddd54dd2999da5241838329b0aeacd8c", "is_reserved": 0, "fusion_lat": 0.0}, {"type": "electric_scooter", "rental_uris": {"ios": "https://dc.lft.to/lastmile_qr_scan", "android": "https://dc.lft.to/lastmile_qr_scan"}, "lon": -77.02598916666666, "fusion_lon": 0.0, "is_disabled": 0, "lat": 38.916925166666665, "bike_id": "8b3e0cca19721479f1673a3d24b5d413", "name": "8b3e0cca19721479f1673a3d24b5d413", "is_reserved": 0, "fusion_lat": 0.0}, {"type": "electric_scooter", "rental_uris": {"ios": "https://dc.lft.to/lastmile_qr_scan", "android": "https://dc.lft.to/lastmile_qr_scan"}, "lon": -77.03420883333334, "fusion_lon": 0.0, "is_disabled": 0, "lat": 38.92255766666667, "bike_id": "02969a1f642efee6eca91ca5360982a5", "name": "02969a1f642efee6eca91ca5360982a5", "is_reserved": 0, "fusion_lat": 0.0}, {"type": "electric_scooter", "rental_uris": {"ios": "https://dc.lft.to/lastmile_qr_scan", "android": "https://dc.lft.to/lastmile_qr_scan"}, "lon": -77.0258335, "fusion_lon": 0.0, "is_disabled": 0, "lat": 38.9096065, "bike_id": "746d730af2929cfc322dd88255b6be53", "name": "746d730af2929cfc322dd88255b6be53", "is_reserved": 0, "fusion_lat": 0.0}, {"type": "electric_scooter", "rental_uris": {"ios": "https://dc.lft.to/lastmile_qr_scan", "android": "https://dc.lft.to/lastmile_qr_scan"}, "lon": -77.034424, "fusion_lon": 0.0, "is_disabled": 0, "lat": 38.907231833333334, "bike_id": "950c2641ecca6536ac9fdc5e622e9a6c", "name": "950c2641ecca6536ac9fdc5e622e9a6c", "is_reserved": 0, "fusion_lat": 0.0}, {"type": "electric_scooter", "rental_uris": {"ios": "https://dc.lft.to/lastmile_qr_scan", "android": "https://dc.lft.to/lastmile_qr_scan"}, "lon": -77.023119, "fusion_lon": 0.0, "is_disabled": 0, "lat": 38.917492333333335, "bike_id": "cde4927981686779d8d821b1ed58ede9", "name": "cde4927981686779d8d821b1ed58ede9", "is_reserved": 0, "fusion_lat": 0.0}, {"type": "electric_scooter", "rental_uris": {"ios": "https://dc.lft.to/lastmile_qr_scan", "android": "https://dc.lft.to/lastmile_qr_scan"}, "lon": -77.0218535, "fusion_lon": 0.0, "is_disabled": 0, "lat": 38.909801333333334, "bike_id": "78cdc8cda80a021d6fd294ebb7df673f", "name": "78cdc8cda80a021d6fd294ebb7df673f", "is_reserved": 0, "fusion_lat": 0.0}, {"type": "electric_scooter", "rental_uris": {"ios": "https://dc.lft.to/lastmile_qr_scan", "android": "https://dc.lft.to/lastmile_qr_scan"}, "lon": -77.038654, "fusion_lon": 0.0, "is_disabled": 0, "lat": 38.91553833333333, "bike_id": "964e6e6a492182724d75b77f3664f50d", "name": "964e6e6a492182724d75b77f3664f50d", "is_reserved": 0, "fusion_lat": 0.0}, {"type": "electric_scooter", "rental_uris": {"ios": "https://dc.lft.to/lastmile_qr_scan", "android": "https://dc.lft.to/lastmile_qr_scan"}, "lon": -77.03732316666667, "fusion_lon": 0.0, "is_disabled": 0, "lat": 38.91712733333333, "bike_id": "2c9bd0c8a3283c67c5b9bd869dda93f7", "name": "2c9bd0c8a3283c67c5b9bd869dda93f7", "is_reserved": 0, "fusion_lat": 0.0}, {"type": "electric_scooter", "rental_uris": {"ios": "https://dc.lft.to/lastmile_qr_scan", "android": "https://dc.lft.to/lastmile_qr_scan"}, "lon": -77.0334695, "fusion_lon": 0.0, "is_disabled": 0, "lat": 38.89224683333333, "bike_id": "c735df7cc5045506748b1fb3e73b2fae", "name": "c735df7cc5045506748b1fb3e73b2fae", "is_reserved": 0, "fusion_lat": 0.0}, {"type": "electric_scooter", "rental_uris": {"ios": "https://dc.lft.to/lastmile_qr_scan", "android": "https://dc.lft.to/lastmile_qr_scan"}, "lon": -77.022239, "fusion_lon": 0.0, "is_disabled": 0, "lat": 38.9127975, "bike_id": "5c515e4aba8aa96a8eb9fcec32ed1520", "name": "5c515e4aba8aa96a8eb9fcec32ed1520", "is_reserved": 0, "fusion_lat": 0.0}, {"type": "electric_scooter", "rental_uris": {"ios": "https://dc.lft.to/lastmile_qr_scan", "android": "https://dc.lft.to/lastmile_qr_scan"}, "lon": -77.0353975, "fusion_lon": 0.0, "is_disabled": 0, "lat": 38.92645533333334, "bike_id": "19900470f0a2f7d3c29601bcf49a3149", "name": "19900470f0a2f7d3c29601bcf49a3149", "is_reserved": 0, "fusion_lat": 0.0}, {"type": "electric_scooter", "rental_uris": {"ios": "https://dc.lft.to/lastmile_qr_scan", "android": "https://dc.lft.to/lastmile_qr_scan"}, "lon": -77.02806533333333, "fusion_lon": 0.0, "is_disabled": 0, "lat": 38.892316, "bike_id": "c48413284075e61f836224fadc6a9502", "name": "c48413284075e61f836224fadc6a9502", "is_reserved": 0, "fusion_lat": 0.0}, {"type": "electric_scooter", "rental_uris": {"ios": "https://dc.lft.to/lastmile_qr_scan", "android": "https://dc.lft.to/lastmile_qr_scan"}, "lon": -77.02713166666666, "fusion_lon": 0.0, "is_disabled": 0, "lat": 38.9073685, "bike_id": "63435030be60109dced5b8e7baa28e68", "name": "63435030be60109dced5b8e7baa28e68", "is_reserved": 0, "fusion_lat": 0.0}, {"type": "electric_scooter", "rental_uris": {"ios": "https://dc.lft.to/lastmile_qr_scan", "android": "https://dc.lft.to/lastmile_qr_scan"}, "lon": -77.02768683333333, "fusion_lon": 0.0, "is_disabled": 0, "lat": 38.89727383333334, "bike_id": "ae23293d75131709e8061732e2d35b50", "name": "ae23293d75131709e8061732e2d35b50", "is_reserved": 0, "fusion_lat": 0.0}, {"type": "electric_scooter", "rental_uris": {"ios": "https://dc.lft.to/lastmile_qr_scan", "android": "https://dc.lft.to/lastmile_qr_scan"}, "lon": -77.04331366666666, "fusion_lon": 0.0, "is_disabled": 0, "lat": 38.8922515, "bike_id": "e2978e19867a0212468e168e944f125e", "name": "e2978e19867a0212468e168e944f125e", "is_reserved": 0, "fusion_lat": 0.0}, {"type": "electric_scooter", "rental_uris": {"ios": "https://dc.lft.to/lastmile_qr_scan", "android": "https://dc.lft.to/lastmile_qr_scan"}, "lon": -77.01372483333333, "fusion_lon": 0.0, "is_disabled": 0, "lat": 38.892237333333334, "bike_id": "aa180ef329ad80e62145c40a15887c00", "name": "aa180ef329ad80e62145c40a15887c00", "is_reserved": 0, "fusion_lat": 0.0}, {"type": "electric_scooter", "rental_uris": {"ios": "https://dc.lft.to/lastmile_qr_scan", "android": "https://dc.lft.to/lastmile_qr_scan"}, "lon": -77.02491066666667, "fusion_lon": 0.0, "is_disabled": 0, "lat": 38.919062833333335, "bike_id": "bcd90c542ad4d38df1673acd53774201", "name": "bcd90c542ad4d38df1673acd53774201", "is_reserved": 0, "fusion_lat": 0.0}, {"type": "electric_scooter", "rental_uris": {"ios": "https://dc.lft.to/lastmile_qr_scan", "android": "https://dc.lft.to/lastmile_qr_scan"}, "lon": -76.9892615, "fusion_lon": 0.0, "is_disabled": 0, "lat": 38.840756666666664, "bike_id": "b801c7b161091208a6e54783f9698693", "name": "b801c7b161091208a6e54783f9698693", "is_reserved": 0, "fusion_lat": 0.0}, {"type": "electric_bike", "rental_uris": {"ios": "https://dc.lft.to/lastmile_qr_scan", "android": "https://dc.lft.to/lastmile_qr_scan"}, "lon": -77.03448666666667, "fusion_lon": 0.0, "is_disabled": 0, "lat": 38.924797833333336, "bike_id": "468e1c113f81a9a2181c66445fafe151", "name": "468e1c113f81a9a2181c66445fafe151", "is_reserved": 0, "fusion_lat": 0.0}, {"type": "electric_scooter", "rental_uris": {"ios": "https://dc.lft.to/lastmile_qr_scan", "android": "https://dc.lft.to/lastmile_qr_scan"}, "lon": -77.046452, "fusion_lon": 0.0, "is_disabled": 0, "lat": 38.8965405, "bike_id": "e1196174ccd6c1249731c71184a1c85d", "name": "e1196174ccd6c1249731c71184a1c85d", "is_reserved": 0, "fusion_lat": 0.0}, {"type": "electric_scooter", "rental_uris": {"ios": "https://dc.lft.to/lastmile_qr_scan", "android": "https://dc.lft.to/lastmile_qr_scan"}, "lon": -77.04, "fusion_lon": 0.0, "is_disabled": 0, "lat": 38.91414316666667, "bike_id": "39fb22262e794675e3bfdc4407021c47", "name": "39fb22262e794675e3bfdc4407021c47", "is_reserved": 0, "fusion_lat": 0.0}, {"type": "electric_scooter", "rental_uris": {"ios": "https://dc.lft.to/lastmile_qr_scan", "android": "https://dc.lft.to/lastmile_qr_scan"}, "lon": -77.04654116666667, "fusion_lon": 0.0, "is_disabled": 0, "lat": 38.905558, "bike_id": "04f84d6e046ec0a7402ade9893e5ab55", "name": "04f84d6e046ec0a7402ade9893e5ab55", "is_reserved": 0, "fusion_lat": 0.0}, {"type": "electric_scooter", "rental_uris": {"ios": "https://dc.lft.to/lastmile_qr_scan", "android": "https://dc.lft.to/lastmile_qr_scan"}, "lon": -77.0466435, "fusion_lon": 0.0, "is_disabled": 0, "lat": 38.892425, "bike_id": "ef14ad3a13b054a7226a640737db4714", "name": "ef14ad3a13b054a7226a640737db4714", "is_reserved": 0, "fusion_lat": 0.0}, {"type": "electric_scooter", "rental_uris": {"ios": "https://dc.lft.to/lastmile_qr_scan", "android": "https://dc.lft.to/lastmile_qr_scan"}, "lon": -77.03973733333333, "fusion_lon": 0.0, "is_disabled": 0, "lat": 38.8988955, "bike_id": "c2b47a768190ac41501a16ce0efdabe9", "name": "c2b47a768190ac41501a16ce0efdabe9", "is_reserved": 0, "fusion_lat": 0.0}, {"type": "electric_scooter", "rental_uris": {"ios": "https://dc.lft.to/lastmile_qr_scan", "android": "https://dc.lft.to/lastmile_qr_scan"}, "lon": -77.04644483333334, "fusion_lon": 0.0, "is_disabled": 0, "lat": 38.89221933333334, "bike_id": "ea6414b186e584c0837c8dcc8e3cf534", "name": "ea6414b186e584c0837c8dcc8e3cf534", "is_reserved": 0, "fusion_lat": 0.0}, {"type": "electric_scooter", "rental_uris": {"ios": "https://dc.lft.to/lastmile_qr_scan", "android": "https://dc.lft.to/lastmile_qr_scan"}, "lon": -77.0265245, "fusion_lon": 0.0, "is_disabled": 0, "lat": 38.9247605, "bike_id": "ff9669043026f3e4a914952e5c03d265", "name": "ff9669043026f3e4a914952e5c03d265", "is_reserved": 0, "fusion_lat": 0.0}, {"type": "electric_scooter", "rental_uris": {"ios": "https://dc.lft.to/lastmile_qr_scan", "android": "https://dc.lft.to/lastmile_qr_scan"}, "lon": -76.986966, "fusion_lon": 0.0, "is_disabled": 0, "lat": 38.86717216666667, "bike_id": "44d66125ceb7fd8f0ffb5816abeab2c8", "name": "44d66125ceb7fd8f0ffb5816abeab2c8", "is_reserved": 0, "fusion_lat": 0.0}, {"type": "electric_bike", "rental_uris": {"ios": "https://dc.lft.to/lastmile_qr_scan", "android": "https://dc.lft.to/lastmile_qr_scan"}, "lon": -76.94619666666667, "fusion_lon": 0.0, "is_disabled": 0, "lat": 38.8323185, "bike_id": "962f8de55e01fa493ae810783ee991a1", "name": "962f8de55e01fa493ae810783ee991a1", "is_reserved": 0, "fusion_lat": 0.0}, {"type": "electric_scooter", "rental_uris": {"ios": "https://dc.lft.to/lastmile_qr_scan", "android": "https://dc.lft.to/lastmile_qr_scan"}, "lon": -77.0394115, "fusion_lon": 0.0, "is_disabled": 0, "lat": 38.91574416666667, "bike_id": "d5433c34ac30e4db9a8e19ebe69828e2", "name": "d5433c34ac30e4db9a8e19ebe69828e2", "is_reserved": 0, "fusion_lat": 0.0}, {"type": "electric_scooter", "rental_uris": {"ios": "https://dc.lft.to/lastmile_qr_scan", "android": "https://dc.lft.to/lastmile_qr_scan"}, "lon": -77.03170983333334, "fusion_lon": 0.0, "is_disabled": 0, "lat": 38.897900166666666, "bike_id": "e60d2ae13ed2a211c3d9398edc8d27d2", "name": "e60d2ae13ed2a211c3d9398edc8d27d2", "is_reserved": 0, "fusion_lat": 0.0}, {"type": "electric_scooter", "rental_uris": {"ios": "https://dc.lft.to/lastmile_qr_scan", "android": "https://dc.lft.to/lastmile_qr_scan"}, "lon": -76.97739633333333, "fusion_lon": 0.0, "is_disabled": 0, "lat": 38.868323333333336, "bike_id": "e47dfcace97dcd7ec7b7cef2bf9a0999", "name": "e47dfcace97dcd7ec7b7cef2bf9a0999", "is_reserved": 0, "fusion_lat": 0.0}, {"type": "electric_scooter", "rental_uris": {"ios": "https://dc.lft.to/lastmile_qr_scan", "android": "https://dc.lft.to/lastmile_qr_scan"}, "lon": -77.01764183333333, "fusion_lon": 0.0, "is_disabled": 0, "lat": 38.87674883333333, "bike_id": "cc8c7e4ff667a8e1bda778f77809728c", "name": "cc8c7e4ff667a8e1bda778f77809728c", "is_reserved": 0, "fusion_lat": 0.0}, {"type": "electric_scooter", "rental_uris": {"ios": "https://dc.lft.to/lastmile_qr_scan", "android": "https://dc.lft.to/lastmile_qr_scan"}, "lon": -77.03165466666667, "fusion_lon": 0.0, "is_disabled": 0, "lat": 38.89225033333334, "bike_id": "509876ddb7b92efa82a810002970ca12", "name": "509876ddb7b92efa82a810002970ca12", "is_reserved": 0, "fusion_lat": 0.0}, {"type": "electric_scooter", "rental_uris": {"ios": "https://dc.lft.to/lastmile_qr_scan", "android": "https://dc.lft.to/lastmile_qr_scan"}, "lon": -77.0363715, "fusion_lon": 0.0, "is_disabled": 0, "lat": 38.9374075, "bike_id": "125ba8d2109ee496e945591a428deb33", "name": "125ba8d2109ee496e945591a428deb33", "is_reserved": 0, "fusion_lat": 0.0}, {"type": "electric_scooter", "rental_uris": {"ios": "https://dc.lft.to/lastmile_qr_scan", "android": "https://dc.lft.to/lastmile_qr_scan"}, "lon": -77.05309583333333, "fusion_lon": 0.0, "is_disabled": 0, "lat": 38.900745666666666, "bike_id": "495e8aa0ab9851d3f0dff0242d88d0f1", "name": "495e8aa0ab9851d3f0dff0242d88d0f1", "is_reserved": 0, "fusion_lat": 0.0}, {"type": "electric_bike", "rental_uris": {"ios": "https://dc.lft.to/lastmile_qr_scan", "android": "https://dc.lft.to/lastmile_qr_scan"}, "lon": -77.03645266666666, "fusion_lon": 0.0, "is_disabled": 0, "lat": 38.9280255, "bike_id": "0cf229493f3bdf721e94d45ca2929e77", "name": "0cf229493f3bdf721e94d45ca2929e77", "is_reserved": 0, "fusion_lat": 0.0}, {"type": "electric_scooter", "rental_uris": {"ios": "https://dc.lft.to/lastmile_qr_scan", "android": "https://dc.lft.to/lastmile_qr_scan"}, "lon": -77.03256866666666, "fusion_lon": 0.0, "is_disabled": 0, "lat": 38.939720333333334, "bike_id": "e5f85b5c10402b0214e76ddc10ec8017", "name": "e5f85b5c10402b0214e76ddc10ec8017", "is_reserved": 0, "fusion_lat": 0.0}, {"type": "electric_scooter", "rental_uris": {"ios": "https://dc.lft.to/lastmile_qr_scan", "android": "https://dc.lft.to/lastmile_qr_scan"}, "lon": -77.018741, "fusion_lon": 0.0, "is_disabled": 0, "lat": 38.931476, "bike_id": "dcc48bf5b5496770d891313e51833efe", "name": "dcc48bf5b5496770d891313e51833efe", "is_reserved": 0, "fusion_lat": 0.0}, {"type": "electric_scooter", "rental_uris": {"ios": "https://dc.lft.to/lastmile_qr_scan", "android": "https://dc.lft.to/lastmile_qr_scan"}, "lon": -76.996953, "fusion_lon": 0.0, "is_disabled": 0, "lat": 38.908390833333335, "bike_id": "f32b1c80a6c9b66cc950f30de2ac5c61", "name": "f32b1c80a6c9b66cc950f30de2ac5c61", "is_reserved": 0, "fusion_lat": 0.0}, {"type": "electric_scooter", "rental_uris": {"ios": "https://dc.lft.to/lastmile_qr_scan", "android": "https://dc.lft.to/lastmile_qr_scan"}, "lon": -77.01947766666666, "fusion_lon": 0.0, "is_disabled": 0, "lat": 38.92907616666667, "bike_id": "0c3dd44ad6d577cb866cdc1fe8d152e0", "name": "0c3dd44ad6d577cb866cdc1fe8d152e0", "is_reserved": 0, "fusion_lat": 0.0}, {"type": "electric_scooter", "rental_uris": {"ios": "https://dc.lft.to/lastmile_qr_scan", "android": "https://dc.lft.to/lastmile_qr_scan"}, "lon": -77.00311483333333, "fusion_lon": 0.0, "is_disabled": 0, "lat": 38.82598733333333, "bike_id": "c178f3a4884af8067c9d646bfaba9280", "name": "c178f3a4884af8067c9d646bfaba9280", "is_reserved": 0, "fusion_lat": 0.0}, {"type": "electric_scooter", "rental_uris": {"ios": "https://dc.lft.to/lastmile_qr_scan", "android": "https://dc.lft.to/lastmile_qr_scan"}, "lon": -77.02821633333333, "fusion_lon": 0.0, "is_disabled": 0, "lat": 38.90268, "bike_id": "7598f6664cd5f1117e1e10d5e8f9d9b7", "name": "7598f6664cd5f1117e1e10d5e8f9d9b7", "is_reserved": 0, "fusion_lat": 0.0}, {"type": "electric_bike", "rental_uris": {"ios": "https://dc.lft.to/lastmile_qr_scan", "android": "https://dc.lft.to/lastmile_qr_scan"}, "lon": -76.99343416666666, "fusion_lon": 0.0, "is_disabled": 0, "lat": 38.972311, "bike_id": "364041dfda893214f7ab19f513b744f7", "name": "364041dfda893214f7ab19f513b744f7", "is_reserved": 0, "fusion_lat": 0.0}, {"type": "electric_scooter", "rental_uris": {"ios": "https://dc.lft.to/lastmile_qr_scan", "android": "https://dc.lft.to/lastmile_qr_scan"}, "lon": -77.04370816666666, "fusion_lon": 0.0, "is_disabled": 0, "lat": 38.89222133333333, "bike_id": "67f956f166bea007fb2e9527e692c720", "name": "67f956f166bea007fb2e9527e692c720", "is_reserved": 0, "fusion_lat": 0.0}, {"type": "electric_scooter", "rental_uris": {"ios": "https://dc.lft.to/lastmile_qr_scan", "android": "https://dc.lft.to/lastmile_qr_scan"}, "lon": -76.99512966666667, "fusion_lon": 0.0, "is_disabled": 0, "lat": 38.88363733333333, "bike_id": "29f52b403321afd494408254d1f77699", "name": "29f52b403321afd494408254d1f77699", "is_reserved": 0, "fusion_lat": 0.0}, {"type": "electric_scooter", "rental_uris": {"ios": "https://dc.lft.to/lastmile_qr_scan", "android": "https://dc.lft.to/lastmile_qr_scan"}, "lon": -77.036741, "fusion_lon": 0.0, "is_disabled": 0, "lat": 38.917081333333336, "bike_id": "131c0ac7badd545ae3d5286b8b0da266", "name": "131c0ac7badd545ae3d5286b8b0da266", "is_reserved": 0, "fusion_lat": 0.0}, {"type": "electric_scooter", "rental_uris": {"ios": "https://dc.lft.to/lastmile_qr_scan", "android": "https://dc.lft.to/lastmile_qr_scan"}, "lon": -76.9330945, "fusion_lon": 0.0, "is_disabled": 0, "lat": 38.881310166666665, "bike_id": "32db6c908ba009b3d0c5ad086674d897", "name": "32db6c908ba009b3d0c5ad086674d897", "is_reserved": 0, "fusion_lat": 0.0}, {"type": "electric_scooter", "rental_uris": {"ios": "https://dc.lft.to/lastmile_qr_scan", "android": "https://dc.lft.to/lastmile_qr_scan"}, "lon": -77.031871, "fusion_lon": 0.0, "is_disabled": 0, "lat": 38.91328133333333, "bike_id": "7c01af7db32e87922f7771b4cee6027d", "name": "7c01af7db32e87922f7771b4cee6027d", "is_reserved": 0, "fusion_lat": 0.0}, {"type": "electric_bike", "rental_uris": {"ios": "https://dc.lft.to/lastmile_qr_scan", "android": "https://dc.lft.to/lastmile_qr_scan"}, "lon": -77.06334083333333, "fusion_lon": 0.0, "is_disabled": 0, "lat": 38.92106033333334, "bike_id": "7ca43c1727ebe8b9a0d911c587920761", "name": "7ca43c1727ebe8b9a0d911c587920761", "is_reserved": 0, "fusion_lat": 0.0}, {"type": "electric_scooter", "rental_uris": {"ios": "https://dc.lft.to/lastmile_qr_scan", "android": "https://dc.lft.to/lastmile_qr_scan"}, "lon": -77.04090333333333, "fusion_lon": 0.0, "is_disabled": 0, "lat": 38.91699166666667, "bike_id": "8d88383c1303bea733c64e57979371be", "name": "8d88383c1303bea733c64e57979371be", "is_reserved": 0, "fusion_lat": 0.0}, {"type": "electric_scooter", "rental_uris": {"ios": "https://dc.lft.to/lastmile_qr_scan", "android": "https://dc.lft.to/lastmile_qr_scan"}, "lon": -76.9888585, "fusion_lon": 0.0, "is_disabled": 0, "lat": 38.86647216666667, "bike_id": "6896362fce4227d24bdd2116b70b89d3", "name": "6896362fce4227d24bdd2116b70b89d3", "is_reserved": 0, "fusion_lat": 0.0}, {"type": "electric_scooter", "rental_uris": {"ios": "https://dc.lft.to/lastmile_qr_scan", "android": "https://dc.lft.to/lastmile_qr_scan"}, "lon": -76.99633233333333, "fusion_lon": 0.0, "is_disabled": 0, "lat": 38.89998283333333, "bike_id": "c0272baff0e1a5cad3100d3a6e29be68", "name": "c0272baff0e1a5cad3100d3a6e29be68", "is_reserved": 0, "fusion_lat": 0.0}, {"type": "electric_scooter", "rental_uris": {"ios": "https://dc.lft.to/lastmile_qr_scan", "android": "https://dc.lft.to/lastmile_qr_scan"}, "lon": -77.02055216666666, "fusion_lon": 0.0, "is_disabled": 0, "lat": 38.908461833333334, "bike_id": "c0a36ed3046803bae46b54daa3b8f549", "name": "c0a36ed3046803bae46b54daa3b8f549", "is_reserved": 0, "fusion_lat": 0.0}, {"type": "electric_scooter", "rental_uris": {"ios": "https://dc.lft.to/lastmile_qr_scan", "android": "https://dc.lft.to/lastmile_qr_scan"}, "lon": -76.94877483333333, "fusion_lon": 0.0, "is_disabled": 0, "lat": 38.895012666666666, "bike_id": "b83380c95255efa0e99b62bf5c47c829", "name": "b83380c95255efa0e99b62bf5c47c829", "is_reserved": 0, "fusion_lat": 0.0}, {"type": "electric_scooter", "rental_uris": {"ios": "https://dc.lft.to/lastmile_qr_scan", "android": "https://dc.lft.to/lastmile_qr_scan"}, "lon": -77.02501216666667, "fusion_lon": 0.0, "is_disabled": 0, "lat": 38.91950333333333, "bike_id": "2b3d100457fca3e37080e17fdb0df731", "name": "2b3d100457fca3e37080e17fdb0df731", "is_reserved": 0, "fusion_lat": 0.0}, {"type": "electric_scooter", "rental_uris": {"ios": "https://dc.lft.to/lastmile_qr_scan", "android": "https://dc.lft.to/lastmile_qr_scan"}, "lon": -76.99911566666667, "fusion_lon": 0.0, "is_disabled": 0, "lat": 38.89890916666667, "bike_id": "1bcf918814cd6a7ba742c82e90850a91", "name": "1bcf918814cd6a7ba742c82e90850a91", "is_reserved": 0, "fusion_lat": 0.0}, {"type": "electric_bike", "rental_uris": {"ios": "https://dc.lft.to/lastmile_qr_scan", "android": "https://dc.lft.to/lastmile_qr_scan"}, "lon": -77.07112783333334, "fusion_lon": 0.0, "is_disabled": 0, "lat": 38.80054666666667, "bike_id": "573297a7d870e54aaf3f4ac850cb5ea9", "name": "573297a7d870e54aaf3f4ac850cb5ea9", "is_reserved": 0, "fusion_lat": 0.0}, {"type": "electric_scooter", "rental_uris": {"ios": "https://dc.lft.to/lastmile_qr_scan", "android": "https://dc.lft.to/lastmile_qr_scan"}, "lon": -77.049194, "fusion_lon": 0.0, "is_disabled": 0, "lat": 38.900892666666664, "bike_id": "9dbc06acd5c6a41498cc975aceb19025", "name": "9dbc06acd5c6a41498cc975aceb19025", "is_reserved": 0, "fusion_lat": 0.0}, {"type": "electric_scooter", "rental_uris": {"ios": "https://dc.lft.to/lastmile_qr_scan", "android": "https://dc.lft.to/lastmile_qr_scan"}, "lon": -77.03200316666667, "fusion_lon": 0.0, "is_disabled": 0, "lat": 38.918583, "bike_id": "bc63ad68cb9110ca4f31937cd550c15c", "name": "bc63ad68cb9110ca4f31937cd550c15c", "is_reserved": 0, "fusion_lat": 0.0}, {"type": "electric_bike", "rental_uris": {"ios": "https://dc.lft.to/lastmile_qr_scan", "android": "https://dc.lft.to/lastmile_qr_scan"}, "lon": -77.024698, "fusion_lon": 0.0, "is_disabled": 0, "lat": 38.9529525, "bike_id": "0cac86107ecfb00c27ac26bdac8affe8", "name": "0cac86107ecfb00c27ac26bdac8affe8", "is_reserved": 0, "fusion_lat": 0.0}, {"type": "electric_scooter", "rental_uris": {"ios": "https://dc.lft.to/lastmile_qr_scan", "android": "https://dc.lft.to/lastmile_qr_scan"}, "lon": -77.04027883333333, "fusion_lon": 0.0, "is_disabled": 0, "lat": 38.930654833333335, "bike_id": "1f61b97b578d76054f7b8ab305b5f0a2", "name": "1f61b97b578d76054f7b8ab305b5f0a2", "is_reserved": 0, "fusion_lat": 0.0}, {"type": "electric_scooter", "rental_uris": {"ios": "https://dc.lft.to/lastmile_qr_scan", "android": "https://dc.lft.to/lastmile_qr_scan"}, "lon": -77.01059233333334, "fusion_lon": 0.0, "is_disabled": 0, "lat": 38.8666605, "bike_id": "b51c6b3710c763c26dea73ace993e893", "name": "b51c6b3710c763c26dea73ace993e893", "is_reserved": 0, "fusion_lat": 0.0}, {"type": "electric_scooter", "rental_uris": {"ios": "https://dc.lft.to/lastmile_qr_scan", "android": "https://dc.lft.to/lastmile_qr_scan"}, "lon": -77.02425183333334, "fusion_lon": 0.0, "is_disabled": 0, "lat": 38.91893066666667, "bike_id": "f98a5bbcc7363712b8603626bbb3ff53", "name": "f98a5bbcc7363712b8603626bbb3ff53", "is_reserved": 0, "fusion_lat": 0.0}, {"type": "electric_scooter", "rental_uris": {"ios": "https://dc.lft.to/lastmile_qr_scan", "android": "https://dc.lft.to/lastmile_qr_scan"}, "lon": -77.02987533333334, "fusion_lon": 0.0, "is_disabled": 0, "lat": 38.90509483333334, "bike_id": "9dd1054d212aac3f66d7a6c74e66a16b", "name": "9dd1054d212aac3f66d7a6c74e66a16b", "is_reserved": 0, "fusion_lat": 0.0}, {"type": "electric_scooter", "rental_uris": {"ios": "https://dc.lft.to/lastmile_qr_scan", "android": "https://dc.lft.to/lastmile_qr_scan"}, "lon": -77.02298883333333, "fusion_lon": 0.0, "is_disabled": 0, "lat": 38.9161265, "bike_id": "df66a11e7888bd4206326d6b34916f62", "name": "df66a11e7888bd4206326d6b34916f62", "is_reserved": 0, "fusion_lat": 0.0}, {"type": "electric_scooter", "rental_uris": {"ios": "https://dc.lft.to/lastmile_qr_scan", "android": "https://dc.lft.to/lastmile_qr_scan"}, "lon": -77.02296133333333, "fusion_lon": 0.0, "is_disabled": 0, "lat": 38.916045833333335, "bike_id": "5f0cae11c32eb30bf9a1aeb548421beb", "name": "5f0cae11c32eb30bf9a1aeb548421beb", "is_reserved": 0, "fusion_lat": 0.0}, {"type": "electric_scooter", "rental_uris": {"ios": "https://dc.lft.to/lastmile_qr_scan", "android": "https://dc.lft.to/lastmile_qr_scan"}, "lon": -77.04277566666667, "fusion_lon": 0.0, "is_disabled": 0, "lat": 38.923055166666664, "bike_id": "d55ce1ab2a99a0900c3e0c4a409e388b", "name": "d55ce1ab2a99a0900c3e0c4a409e388b", "is_reserved": 0, "fusion_lat": 0.0}, {"type": "electric_scooter", "rental_uris": {"ios": "https://dc.lft.to/lastmile_qr_scan", "android": "https://dc.lft.to/lastmile_qr_scan"}, "lon": -77.0337685, "fusion_lon": 0.0, "is_disabled": 0, "lat": 38.899188333333335, "bike_id": "df9b05e4ef053748a20b66bb3c3a46ac", "name": "df9b05e4ef053748a20b66bb3c3a46ac", "is_reserved": 0, "fusion_lat": 0.0}, {"type": "electric_scooter", "rental_uris": {"ios": "https://dc.lft.to/lastmile_qr_scan", "android": "https://dc.lft.to/lastmile_qr_scan"}, "lon": -76.98686333333333, "fusion_lon": 0.0, "is_disabled": 0, "lat": 38.8672335, "bike_id": "2e81f097941e31b4a69ec2dd8c9deeb0", "name": "2e81f097941e31b4a69ec2dd8c9deeb0", "is_reserved": 0, "fusion_lat": 0.0}, {"type": "electric_scooter", "rental_uris": {"ios": "https://dc.lft.to/lastmile_qr_scan", "android": "https://dc.lft.to/lastmile_qr_scan"}, "lon": -77.0318115, "fusion_lon": 0.0, "is_disabled": 0, "lat": 38.90980783333333, "bike_id": "0d604bc3e89a70fe074797fc336377b0", "name": "0d604bc3e89a70fe074797fc336377b0", "is_reserved": 0, "fusion_lat": 0.0}, {"type": "electric_scooter", "rental_uris": {"ios": "https://dc.lft.to/lastmile_qr_scan", "android": "https://dc.lft.to/lastmile_qr_scan"}, "lon": -76.99506316666667, "fusion_lon": 0.0, "is_disabled": 0, "lat": 38.89487583333333, "bike_id": "967ec873651dd2579f371ce5d92debe0", "name": "967ec873651dd2579f371ce5d92debe0", "is_reserved": 0, "fusion_lat": 0.0}, {"type": "electric_scooter", "rental_uris": {"ios": "https://dc.lft.to/lastmile_qr_scan", "android": "https://dc.lft.to/lastmile_qr_scan"}, "lon": -77.033625, "fusion_lon": 0.0, "is_disabled": 0, "lat": 38.88753883333333, "bike_id": "1e77da58a6237efaa26ea39cac983da2", "name": "1e77da58a6237efaa26ea39cac983da2", "is_reserved": 0, "fusion_lat": 0.0}, {"type": "electric_scooter", "rental_uris": {"ios": "https://dc.lft.to/lastmile_qr_scan", "android": "https://dc.lft.to/lastmile_qr_scan"}, "lon": -76.96601916666667, "fusion_lon": 0.0, "is_disabled": 0, "lat": 38.8739195, "bike_id": "6e164a4448f093eb2367737a96a7e333", "name": "6e164a4448f093eb2367737a96a7e333", "is_reserved": 0, "fusion_lat": 0.0}, {"type": "electric_scooter", "rental_uris": {"ios": "https://dc.lft.to/lastmile_qr_scan", "android": "https://dc.lft.to/lastmile_qr_scan"}, "lon": -77.037951, "fusion_lon": 0.0, "is_disabled": 0, "lat": 38.9262475, "bike_id": "13f5a3bb391761330845b6d7d565683f", "name": "13f5a3bb391761330845b6d7d565683f", "is_reserved": 0, "fusion_lat": 0.0}, {"type": "electric_scooter", "rental_uris": {"ios": "https://dc.lft.to/lastmile_qr_scan", "android": "https://dc.lft.to/lastmile_qr_scan"}, "lon": -77.02774716666667, "fusion_lon": 0.0, "is_disabled": 0, "lat": 38.89221283333333, "bike_id": "b4202c5fe612aead369ba5f151f7cd09", "name": "b4202c5fe612aead369ba5f151f7cd09", "is_reserved": 0, "fusion_lat": 0.0}, {"type": "electric_scooter", "rental_uris": {"ios": "https://dc.lft.to/lastmile_qr_scan", "android": "https://dc.lft.to/lastmile_qr_scan"}, "lon": -77.043835, "fusion_lon": 0.0, "is_disabled": 0, "lat": 38.921209833333336, "bike_id": "52b63c236459714f902224b30b2c798d", "name": "52b63c236459714f902224b30b2c798d", "is_reserved": 0, "fusion_lat": 0.0}, {"type": "electric_scooter", "rental_uris": {"ios": "https://dc.lft.to/lastmile_qr_scan", "android": "https://dc.lft.to/lastmile_qr_scan"}, "lon": -77.03847233333333, "fusion_lon": 0.0, "is_disabled": 0, "lat": 38.93254966666667, "bike_id": "aa703c925bf9ec44f416ed8dbb31fc76", "name": "aa703c925bf9ec44f416ed8dbb31fc76", "is_reserved": 0, "fusion_lat": 0.0}, {"type": "electric_scooter", "rental_uris": {"ios": "https://dc.lft.to/lastmile_qr_scan", "android": "https://dc.lft.to/lastmile_qr_scan"}, "lon": -77.03186166666667, "fusion_lon": 0.0, "is_disabled": 0, "lat": 38.907903, "bike_id": "c56865279642fc3675a4d10632dd416a", "name": "c56865279642fc3675a4d10632dd416a", "is_reserved": 0, "fusion_lat": 0.0}, {"type": "electric_scooter", "rental_uris": {"ios": "https://dc.lft.to/lastmile_qr_scan", "android": "https://dc.lft.to/lastmile_qr_scan"}, "lon": -77.02964116666666, "fusion_lon": 0.0, "is_disabled": 0, "lat": 38.9167555, "bike_id": "2bf4cc1a7e6604f253a415b8b2e9d677", "name": "2bf4cc1a7e6604f253a415b8b2e9d677", "is_reserved": 0, "fusion_lat": 0.0}, {"type": "electric_scooter", "rental_uris": {"ios": "https://dc.lft.to/lastmile_qr_scan", "android": "https://dc.lft.to/lastmile_qr_scan"}, "lon": -76.974423, "fusion_lon": 0.0, "is_disabled": 0, "lat": 38.86393866666667, "bike_id": "bc0de4126348f3ba642a79aa015eb1ed", "name": "bc0de4126348f3ba642a79aa015eb1ed", "is_reserved": 0, "fusion_lat": 0.0}, {"type": "electric_scooter", "rental_uris": {"ios": "https://dc.lft.to/lastmile_qr_scan", "android": "https://dc.lft.to/lastmile_qr_scan"}, "lon": -77.002287, "fusion_lon": 0.0, "is_disabled": 0, "lat": 38.925109, "bike_id": "d6d7dc77883146d98ae042fac027a4c3", "name": "d6d7dc77883146d98ae042fac027a4c3", "is_reserved": 0, "fusion_lat": 0.0}, {"type": "electric_bike", "rental_uris": {"ios": "https://dc.lft.to/lastmile_qr_scan", "android": "https://dc.lft.to/lastmile_qr_scan"}, "lon": -76.9364985, "fusion_lon": 0.0, "is_disabled": 0, "lat": 38.871542, "bike_id": "b2a7ce33e08a5915af5e0f0ea325f5e4", "name": "b2a7ce33e08a5915af5e0f0ea325f5e4", "is_reserved": 0, "fusion_lat": 0.0}, {"type": "electric_scooter", "rental_uris": {"ios": "https://dc.lft.to/lastmile_qr_scan", "android": "https://dc.lft.to/lastmile_qr_scan"}, "lon": -77.03443416666667, "fusion_lon": 0.0, "is_disabled": 0, "lat": 38.90414716666667, "bike_id": "6b18472224f206b8c3b1d211ec8e6c78", "name": "6b18472224f206b8c3b1d211ec8e6c78", "is_reserved": 0, "fusion_lat": 0.0}, {"type": "electric_scooter", "rental_uris": {"ios": "https://dc.lft.to/lastmile_qr_scan", "android": "https://dc.lft.to/lastmile_qr_scan"}, "lon": -76.926214, "fusion_lon": 0.0, "is_disabled": 0, "lat": 38.884591, "bike_id": "9bc9b9a50f1c05d4cfa93e0ef41362f6", "name": "9bc9b9a50f1c05d4cfa93e0ef41362f6", "is_reserved": 0, "fusion_lat": 0.0}, {"type": "electric_scooter", "rental_uris": {"ios": "https://dc.lft.to/lastmile_qr_scan", "android": "https://dc.lft.to/lastmile_qr_scan"}, "lon": -77.026611, "fusion_lon": 0.0, "is_disabled": 0, "lat": 38.89223466666667, "bike_id": "9eeb4076762da2833b9a9b02b584cc34", "name": "9eeb4076762da2833b9a9b02b584cc34", "is_reserved": 0, "fusion_lat": 0.0}, {"type": "electric_scooter", "rental_uris": {"ios": "https://dc.lft.to/lastmile_qr_scan", "android": "https://dc.lft.to/lastmile_qr_scan"}, "lon": -77.04661133333333, "fusion_lon": 0.0, "is_disabled": 0, "lat": 38.8924295, "bike_id": "7efe02543b5c7eaf186b426f03e66327", "name": "7efe02543b5c7eaf186b426f03e66327", "is_reserved": 0, "fusion_lat": 0.0}, {"type": "electric_scooter", "rental_uris": {"ios": "https://dc.lft.to/lastmile_qr_scan", "android": "https://dc.lft.to/lastmile_qr_scan"}, "lon": -77.02341266666667, "fusion_lon": 0.0, "is_disabled": 0, "lat": 38.91671783333334, "bike_id": "b43a7d71ae853ea95757b2e3176f172f", "name": "b43a7d71ae853ea95757b2e3176f172f", "is_reserved": 0, "fusion_lat": 0.0}, {"type": "electric_scooter", "rental_uris": {"ios": "https://dc.lft.to/lastmile_qr_scan", "android": "https://dc.lft.to/lastmile_qr_scan"}, "lon": -77.04531383333334, "fusion_lon": 0.0, "is_disabled": 0, "lat": 38.91826433333333, "bike_id": "e5c9687e9f8277884075912a4aaa418c", "name": "e5c9687e9f8277884075912a4aaa418c", "is_reserved": 0, "fusion_lat": 0.0}, {"type": "electric_scooter", "rental_uris": {"ios": "https://dc.lft.to/lastmile_qr_scan", "android": "https://dc.lft.to/lastmile_qr_scan"}, "lon": -77.04015083333333, "fusion_lon": 0.0, "is_disabled": 0, "lat": 38.92168866666667, "bike_id": "f26ae7c2fea536b54359b6b70f081689", "name": "f26ae7c2fea536b54359b6b70f081689", "is_reserved": 0, "fusion_lat": 0.0}, {"type": "electric_scooter", "rental_uris": {"ios": "https://dc.lft.to/lastmile_qr_scan", "android": "https://dc.lft.to/lastmile_qr_scan"}, "lon": -76.96873366666667, "fusion_lon": 0.0, "is_disabled": 0, "lat": 38.870942666666664, "bike_id": "18982328dd6cea2b1a1e9d33b4c0c991", "name": "18982328dd6cea2b1a1e9d33b4c0c991", "is_reserved": 0, "fusion_lat": 0.0}, {"type": "electric_scooter", "rental_uris": {"ios": "https://dc.lft.to/lastmile_qr_scan", "android": "https://dc.lft.to/lastmile_qr_scan"}, "lon": -77.04509733333333, "fusion_lon": 0.0, "is_disabled": 0, "lat": 38.892249166666666, "bike_id": "2dbc9cba828961c9a74b616a8a9ca3e2", "name": "2dbc9cba828961c9a74b616a8a9ca3e2", "is_reserved": 0, "fusion_lat": 0.0}, {"type": "electric_scooter", "rental_uris": {"ios": "https://dc.lft.to/lastmile_qr_scan", "android": "https://dc.lft.to/lastmile_qr_scan"}, "lon": -77.03676216666666, "fusion_lon": 0.0, "is_disabled": 0, "lat": 38.918720666666665, "bike_id": "985b8a0bedb7699fbbe142ff36fceff2", "name": "985b8a0bedb7699fbbe142ff36fceff2", "is_reserved": 0, "fusion_lat": 0.0}, {"type": "electric_scooter", "rental_uris": {"ios": "https://dc.lft.to/lastmile_qr_scan", "android": "https://dc.lft.to/lastmile_qr_scan"}, "lon": -77.03604333333334, "fusion_lon": 0.0, "is_disabled": 0, "lat": 38.9075905, "bike_id": "b3f41c29111e2276a12fa62e989f67ad", "name": "b3f41c29111e2276a12fa62e989f67ad", "is_reserved": 0, "fusion_lat": 0.0}, {"type": "electric_scooter", "rental_uris": {"ios": "https://dc.lft.to/lastmile_qr_scan", "android": "https://dc.lft.to/lastmile_qr_scan"}, "lon": -77.0412665, "fusion_lon": 0.0, "is_disabled": 0, "lat": 38.9170985, "bike_id": "e9d1f05c4b7a9f34002b7e78eccb7b8c", "name": "e9d1f05c4b7a9f34002b7e78eccb7b8c", "is_reserved": 0, "fusion_lat": 0.0}, {"type": "electric_scooter", "rental_uris": {"ios": "https://dc.lft.to/lastmile_qr_scan", "android": "https://dc.lft.to/lastmile_qr_scan"}, "lon": -76.9951625, "fusion_lon": 0.0, "is_disabled": 0, "lat": 38.862564, "bike_id": "7af25c2517f95afb49811c5989d81c72", "name": "7af25c2517f95afb49811c5989d81c72", "is_reserved": 0, "fusion_lat": 0.0}, {"type": "electric_scooter", "rental_uris": {"ios": "https://dc.lft.to/lastmile_qr_scan", "android": "https://dc.lft.to/lastmile_qr_scan"}, "lon": -77.02808383333333, "fusion_lon": 0.0, "is_disabled": 0, "lat": 38.9073455, "bike_id": "5f497d9c331c692e1424bf85dd0777e1", "name": "5f497d9c331c692e1424bf85dd0777e1", "is_reserved": 0, "fusion_lat": 0.0}, {"type": "electric_scooter", "rental_uris": {"ios": "https://dc.lft.to/lastmile_qr_scan", "android": "https://dc.lft.to/lastmile_qr_scan"}, "lon": -77.03419083333333, "fusion_lon": 0.0, "is_disabled": 0, "lat": 38.90797366666666, "bike_id": "8a860a687e759ec3420f31a4609abc47", "name": "8a860a687e759ec3420f31a4609abc47", "is_reserved": 0, "fusion_lat": 0.0}, {"type": "electric_scooter", "rental_uris": {"ios": "https://dc.lft.to/lastmile_qr_scan", "android": "https://dc.lft.to/lastmile_qr_scan"}, "lon": -77.03178066666666, "fusion_lon": 0.0, "is_disabled": 0, "lat": 38.89232066666667, "bike_id": "5a6b1a944d525d70d68d4811aa53dbea", "name": "5a6b1a944d525d70d68d4811aa53dbea", "is_reserved": 0, "fusion_lat": 0.0}, {"type": "electric_scooter", "rental_uris": {"ios": "https://dc.lft.to/lastmile_qr_scan", "android": "https://dc.lft.to/lastmile_qr_scan"}, "lon": -77.03851916666666, "fusion_lon": 0.0, "is_disabled": 0, "lat": 38.91546266666667, "bike_id": "a1bdc67c1af35f91799e4e118c2bc22b", "name": "a1bdc67c1af35f91799e4e118c2bc22b", "is_reserved": 0, "fusion_lat": 0.0}, {"type": "electric_scooter", "rental_uris": {"ios": "https://dc.lft.to/lastmile_qr_scan", "android": "https://dc.lft.to/lastmile_qr_scan"}, "lon": -77.0316935, "fusion_lon": 0.0, "is_disabled": 0, "lat": 38.89221833333333, "bike_id": "ca35b10e315c103daf7fafc15f6c683f", "name": "ca35b10e315c103daf7fafc15f6c683f", "is_reserved": 0, "fusion_lat": 0.0}, {"type": "electric_scooter", "rental_uris": {"ios": "https://dc.lft.to/lastmile_qr_scan", "android": "https://dc.lft.to/lastmile_qr_scan"}, "lon": -77.02820366666667, "fusion_lon": 0.0, "is_disabled": 0, "lat": 38.898544, "bike_id": "25657635ae5acecfeece4652006ae3df", "name": "25657635ae5acecfeece4652006ae3df", "is_reserved": 0, "fusion_lat": 0.0}, {"type": "electric_scooter", "rental_uris": {"ios": "https://dc.lft.to/lastmile_qr_scan", "android": "https://dc.lft.to/lastmile_qr_scan"}, "lon": -76.99496716666667, "fusion_lon": 0.0, "is_disabled": 0, "lat": 38.86242266666667, "bike_id": "dd1c985572a5c44b43245878b511c094", "name": "dd1c985572a5c44b43245878b511c094", "is_reserved": 0, "fusion_lat": 0.0}, {"type": "electric_scooter", "rental_uris": {"ios": "https://dc.lft.to/lastmile_qr_scan", "android": "https://dc.lft.to/lastmile_qr_scan"}, "lon": -77.05128633333334, "fusion_lon": 0.0, "is_disabled": 0, "lat": 38.923611, "bike_id": "8dc0ae23d7b9bc19be6d44cdd4627b78", "name": "8dc0ae23d7b9bc19be6d44cdd4627b78", "is_reserved": 0, "fusion_lat": 0.0}, {"type": "electric_scooter", "rental_uris": {"ios": "https://dc.lft.to/lastmile_qr_scan", "android": "https://dc.lft.to/lastmile_qr_scan"}, "lon": -77.0383205, "fusion_lon": 0.0, "is_disabled": 0, "lat": 38.911213833333335, "bike_id": "bf92d77f942979b7686e89e21ccff8a9", "name": "bf92d77f942979b7686e89e21ccff8a9", "is_reserved": 0, "fusion_lat": 0.0}, {"type": "electric_scooter", "rental_uris": {"ios": "https://dc.lft.to/lastmile_qr_scan", "android": "https://dc.lft.to/lastmile_qr_scan"}, "lon": -77.02511166666666, "fusion_lon": 0.0, "is_disabled": 0, "lat": 38.937553666666666, "bike_id": "fb912cc4d4aa89b8e4ae015bf7ed9710", "name": "fb912cc4d4aa89b8e4ae015bf7ed9710", "is_reserved": 0, "fusion_lat": 0.0}, {"type": "electric_scooter", "rental_uris": {"ios": "https://dc.lft.to/lastmile_qr_scan", "android": "https://dc.lft.to/lastmile_qr_scan"}, "lon": -77.01856433333333, "fusion_lon": 0.0, "is_disabled": 0, "lat": 38.973655666666666, "bike_id": "9cbf4f9417075908c1bd4d0478ebf79d", "name": "9cbf4f9417075908c1bd4d0478ebf79d", "is_reserved": 0, "fusion_lat": 0.0}, {"type": "electric_scooter", "rental_uris": {"ios": "https://dc.lft.to/lastmile_qr_scan", "android": "https://dc.lft.to/lastmile_qr_scan"}, "lon": -77.02715316666666, "fusion_lon": 0.0, "is_disabled": 0, "lat": 38.90678, "bike_id": "7ad8bb5a36b3bd607fb7cbb6bea8a601", "name": "7ad8bb5a36b3bd607fb7cbb6bea8a601", "is_reserved": 0, "fusion_lat": 0.0}, {"type": "electric_bike", "rental_uris": {"ios": "https://dc.lft.to/lastmile_qr_scan", "android": "https://dc.lft.to/lastmile_qr_scan"}, "lon": -77.0305935, "fusion_lon": 0.0, "is_disabled": 0, "lat": 38.95959083333333, "bike_id": "1c6c4610aa4e4a580e84a52f95adb6bd", "name": "1c6c4610aa4e4a580e84a52f95adb6bd", "is_reserved": 0, "fusion_lat": 0.0}, {"type": "electric_scooter", "rental_uris": {"ios": "https://dc.lft.to/lastmile_qr_scan", "android": "https://dc.lft.to/lastmile_qr_scan"}, "lon": -77.02967516666666, "fusion_lon": 0.0, "is_disabled": 0, "lat": 38.9227395, "bike_id": "ba2e71b335f50480cbf3b6f796fc3909", "name": "ba2e71b335f50480cbf3b6f796fc3909", "is_reserved": 0, "fusion_lat": 0.0}, {"type": "electric_scooter", "rental_uris": {"ios": "https://dc.lft.to/lastmile_qr_scan", "android": "https://dc.lft.to/lastmile_qr_scan"}, "lon": -77.031509, "fusion_lon": 0.0, "is_disabled": 0, "lat": 38.88740333333333, "bike_id": "95a9a88154a1bdec8467a40c3b5a0f7e", "name": "95a9a88154a1bdec8467a40c3b5a0f7e", "is_reserved": 0, "fusion_lat": 0.0}, {"type": "electric_scooter", "rental_uris": {"ios": "https://dc.lft.to/lastmile_qr_scan", "android": "https://dc.lft.to/lastmile_qr_scan"}, "lon": -77.03439233333333, "fusion_lon": 0.0, "is_disabled": 0, "lat": 38.91847716666667, "bike_id": "d4bc043fca73df0b1d811890956cf45c", "name": "d4bc043fca73df0b1d811890956cf45c", "is_reserved": 0, "fusion_lat": 0.0}, {"type": "electric_scooter", "rental_uris": {"ios": "https://dc.lft.to/lastmile_qr_scan", "android": "https://dc.lft.to/lastmile_qr_scan"}, "lon": -77.01775966666666, "fusion_lon": 0.0, "is_disabled": 0, "lat": 38.88718716666666, "bike_id": "f9bbcf9b5dbdc2947301c4529fdac445", "name": "f9bbcf9b5dbdc2947301c4529fdac445", "is_reserved": 0, "fusion_lat": 0.0}, {"type": "electric_bike", "rental_uris": {"ios": "https://dc.lft.to/lastmile_qr_scan", "android": "https://dc.lft.to/lastmile_qr_scan"}, "lon": -77.021785, "fusion_lon": 0.0, "is_disabled": 0, "lat": 38.957481333333334, "bike_id": "949cf1e4639a4090b93f96661c8be6ac", "name": "949cf1e4639a4090b93f96661c8be6ac", "is_reserved": 0, "fusion_lat": 0.0}, {"type": "electric_bike", "rental_uris": {"ios": "https://dc.lft.to/lastmile_qr_scan", "android": "https://dc.lft.to/lastmile_qr_scan"}, "lon": -76.93543433333333, "fusion_lon": 0.0, "is_disabled": 0, "lat": 38.955565666666665, "bike_id": "a53e3716b1619594323df03ca86d94e9", "name": "a53e3716b1619594323df03ca86d94e9", "is_reserved": 0, "fusion_lat": 0.0}, {"type": "electric_scooter", "rental_uris": {"ios": "https://dc.lft.to/lastmile_qr_scan", "android": "https://dc.lft.to/lastmile_qr_scan"}, "lon": -77.03183033333333, "fusion_lon": 0.0, "is_disabled": 0, "lat": 38.913279333333335, "bike_id": "01ffcb883bfc7f3d86977ea4ad6b87af", "name": "01ffcb883bfc7f3d86977ea4ad6b87af", "is_reserved": 0, "fusion_lat": 0.0}, {"type": "electric_scooter", "rental_uris": {"ios": "https://dc.lft.to/lastmile_qr_scan", "android": "https://dc.lft.to/lastmile_qr_scan"}, "lon": -77.0279795, "fusion_lon": 0.0, "is_disabled": 0, "lat": 38.91715633333333, "bike_id": "6601c2e63fca1f58400024bc96fa039e", "name": "6601c2e63fca1f58400024bc96fa039e", "is_reserved": 0, "fusion_lat": 0.0}, {"type": "electric_scooter", "rental_uris": {"ios": "https://dc.lft.to/lastmile_qr_scan", "android": "https://dc.lft.to/lastmile_qr_scan"}, "lon": -77.07336716666667, "fusion_lon": 0.0, "is_disabled": 0, "lat": 38.924898166666665, "bike_id": "58871b29df5da325f91bccf2e2f20a71", "name": "58871b29df5da325f91bccf2e2f20a71", "is_reserved": 0, "fusion_lat": 0.0}, {"type": "electric_scooter", "rental_uris": {"ios": "https://dc.lft.to/lastmile_qr_scan", "android": "https://dc.lft.to/lastmile_qr_scan"}, "lon": -77.039417, "fusion_lon": 0.0, "is_disabled": 0, "lat": 38.91555133333333, "bike_id": "9a26891868f45c1f55cf298ad8780292", "name": "9a26891868f45c1f55cf298ad8780292", "is_reserved": 0, "fusion_lat": 0.0}, {"type": "electric_scooter", "rental_uris": {"ios": "https://dc.lft.to/lastmile_qr_scan", "android": "https://dc.lft.to/lastmile_qr_scan"}, "lon": -77.03660416666666, "fusion_lon": 0.0, "is_disabled": 0, "lat": 38.917224833333336, "bike_id": "897593c9acd62c67fb42f2c2ed594130", "name": "897593c9acd62c67fb42f2c2ed594130", "is_reserved": 0, "fusion_lat": 0.0}, {"type": "electric_scooter", "rental_uris": {"ios": "https://dc.lft.to/lastmile_qr_scan", "android": "https://dc.lft.to/lastmile_qr_scan"}, "lon": -77.04065616666666, "fusion_lon": 0.0, "is_disabled": 0, "lat": 38.899290666666666, "bike_id": "8660790c35aeaea9037de4d20a4280d3", "name": "8660790c35aeaea9037de4d20a4280d3", "is_reserved": 0, "fusion_lat": 0.0}, {"type": "electric_scooter", "rental_uris": {"ios": "https://dc.lft.to/lastmile_qr_scan", "android": "https://dc.lft.to/lastmile_qr_scan"}, "lon": -77.00340683333333, "fusion_lon": 0.0, "is_disabled": 0, "lat": 38.887431, "bike_id": "118120405a73c1b45c56be3d1c0543ef", "name": "118120405a73c1b45c56be3d1c0543ef", "is_reserved": 0, "fusion_lat": 0.0}, {"type": "electric_scooter", "rental_uris": {"ios": "https://dc.lft.to/lastmile_qr_scan", "android": "https://dc.lft.to/lastmile_qr_scan"}, "lon": -77.02723, "fusion_lon": 0.0, "is_disabled": 0, "lat": 38.95186966666667, "bike_id": "0746da4117c5653906b9b01058359cb3", "name": "0746da4117c5653906b9b01058359cb3", "is_reserved": 0, "fusion_lat": 0.0}, {"type": "electric_scooter", "rental_uris": {"ios": "https://dc.lft.to/lastmile_qr_scan", "android": "https://dc.lft.to/lastmile_qr_scan"}, "lon": -77.036699, "fusion_lon": 0.0, "is_disabled": 0, "lat": 38.902875333333334, "bike_id": "b0ba2d58a04e92926376c8f2ca2781fe", "name": "b0ba2d58a04e92926376c8f2ca2781fe", "is_reserved": 0, "fusion_lat": 0.0}, {"type": "electric_bike", "rental_uris": {"ios": "https://dc.lft.to/lastmile_qr_scan", "android": "https://dc.lft.to/lastmile_qr_scan"}, "lon": -77.09963816666667, "fusion_lon": 0.0, "is_disabled": 0, "lat": 38.9335535, "bike_id": "c7cd0f877688625ac264b7c6ba6dccc1", "name": "c7cd0f877688625ac264b7c6ba6dccc1", "is_reserved": 0, "fusion_lat": 0.0}, {"type": "electric_scooter", "rental_uris": {"ios": "https://dc.lft.to/lastmile_qr_scan", "android": "https://dc.lft.to/lastmile_qr_scan"}, "lon": -77.02831216666667, "fusion_lon": 0.0, "is_disabled": 0, "lat": 38.931924, "bike_id": "0dd9ee4969ea4aaf94bfa536b62c27ea", "name": "0dd9ee4969ea4aaf94bfa536b62c27ea", "is_reserved": 0, "fusion_lat": 0.0}, {"type": "electric_scooter", "rental_uris": {"ios": "https://dc.lft.to/lastmile_qr_scan", "android": "https://dc.lft.to/lastmile_qr_scan"}, "lon": -77.04148283333333, "fusion_lon": 0.0, "is_disabled": 0, "lat": 38.91210483333333, "bike_id": "667381cc162588682a367d07c38fdadd", "name": "667381cc162588682a367d07c38fdadd", "is_reserved": 0, "fusion_lat": 0.0}, {"type": "electric_scooter", "rental_uris": {"ios": "https://dc.lft.to/lastmile_qr_scan", "android": "https://dc.lft.to/lastmile_qr_scan"}, "lon": -77.038073, "fusion_lon": 0.0, "is_disabled": 0, "lat": 38.9206515, "bike_id": "f30d4cea68a3f8c357b96ca2c54c374c", "name": "f30d4cea68a3f8c357b96ca2c54c374c", "is_reserved": 0, "fusion_lat": 0.0}, {"type": "electric_scooter", "rental_uris": {"ios": "https://dc.lft.to/lastmile_qr_scan", "android": "https://dc.lft.to/lastmile_qr_scan"}, "lon": -77.03805183333333, "fusion_lon": 0.0, "is_disabled": 0, "lat": 38.912663333333334, "bike_id": "215f3b58b2d01d7f1ad49ea89c550d30", "name": "215f3b58b2d01d7f1ad49ea89c550d30", "is_reserved": 0, "fusion_lat": 0.0}, {"type": "electric_scooter", "rental_uris": {"ios": "https://dc.lft.to/lastmile_qr_scan", "android": "https://dc.lft.to/lastmile_qr_scan"}, "lon": -77.03156283333334, "fusion_lon": 0.0, "is_disabled": 0, "lat": 38.91560533333333, "bike_id": "c2021e853a783fb7b265a88a5f441aa1", "name": "c2021e853a783fb7b265a88a5f441aa1", "is_reserved": 0, "fusion_lat": 0.0}, {"type": "electric_scooter", "rental_uris": {"ios": "https://dc.lft.to/lastmile_qr_scan", "android": "https://dc.lft.to/lastmile_qr_scan"}, "lon": -77.032062, "fusion_lon": 0.0, "is_disabled": 0, "lat": 38.91572683333333, "bike_id": "3afdb451e31c36b8918ae01985f0193e", "name": "3afdb451e31c36b8918ae01985f0193e", "is_reserved": 0, "fusion_lat": 0.0}, {"type": "electric_bike", "rental_uris": {"ios": "https://dc.lft.to/lastmile_qr_scan", "android": "https://dc.lft.to/lastmile_qr_scan"}, "lon": -77.02389, "fusion_lon": 0.0, "is_disabled": 0, "lat": 38.962752, "bike_id": "5b1c11759594432e2f1546edefdf1f43", "name": "5b1c11759594432e2f1546edefdf1f43", "is_reserved": 0, "fusion_lat": 0.0}, {"type": "electric_scooter", "rental_uris": {"ios": "https://dc.lft.to/lastmile_qr_scan", "android": "https://dc.lft.to/lastmile_qr_scan"}, "lon": -77.03297366666666, "fusion_lon": 0.0, "is_disabled": 0, "lat": 38.95639083333333, "bike_id": "895f89e41870ad0fe5ebd2734fbcd8d6", "name": "895f89e41870ad0fe5ebd2734fbcd8d6", "is_reserved": 0, "fusion_lat": 0.0}, {"type": "electric_bike", "rental_uris": {"ios": "https://dc.lft.to/lastmile_qr_scan", "android": "https://dc.lft.to/lastmile_qr_scan"}, "lon": -77.00795233333334, "fusion_lon": 0.0, "is_disabled": 0, "lat": 38.949246333333335, "bike_id": "0c2b75678cd9f17f355b3923961ba08d", "name": "0c2b75678cd9f17f355b3923961ba08d", "is_reserved": 0, "fusion_lat": 0.0}, {"type": "electric_scooter", "rental_uris": {"ios": "https://dc.lft.to/lastmile_qr_scan", "android": "https://dc.lft.to/lastmile_qr_scan"}, "lon": -77.05144016666667, "fusion_lon": 0.0, "is_disabled": 0, "lat": 38.9059155, "bike_id": "81919c389538a5aaea57179ea28340f6", "name": "81919c389538a5aaea57179ea28340f6", "is_reserved": 0, "fusion_lat": 0.0}, {"type": "electric_bike", "rental_uris": {"ios": "https://dc.lft.to/lastmile_qr_scan", "android": "https://dc.lft.to/lastmile_qr_scan"}, "lon": -77.11490016666667, "fusion_lon": 0.0, "is_disabled": 0, "lat": 39.06923883333333, "bike_id": "5f1284397ca22e547ba21e230b52ca74", "name": "5f1284397ca22e547ba21e230b52ca74", "is_reserved": 0, "fusion_lat": 0.0}, {"type": "electric_scooter", "rental_uris": {"ios": "https://dc.lft.to/lastmile_qr_scan", "android": "https://dc.lft.to/lastmile_qr_scan"}, "lon": -77.024055, "fusion_lon": 0.0, "is_disabled": 0, "lat": 38.929008, "bike_id": "51a710f92010c2cabed4ec3c75a29d50", "name": "51a710f92010c2cabed4ec3c75a29d50", "is_reserved": 0, "fusion_lat": 0.0}, {"type": "electric_scooter", "rental_uris": {"ios": "https://dc.lft.to/lastmile_qr_scan", "android": "https://dc.lft.to/lastmile_qr_scan"}, "lon": -77.04161133333334, "fusion_lon": 0.0, "is_disabled": 0, "lat": 38.927957666666664, "bike_id": "d6cca6384dce8e26405909799b5004f4", "name": "d6cca6384dce8e26405909799b5004f4", "is_reserved": 0, "fusion_lat": 0.0}, {"type": "electric_scooter", "rental_uris": {"ios": "https://dc.lft.to/lastmile_qr_scan", "android": "https://dc.lft.to/lastmile_qr_scan"}, "lon": -77.04019383333333, "fusion_lon": 0.0, "is_disabled": 0, "lat": 38.92177016666667, "bike_id": "688b53893766d4db5e6fbc41bf234e2a", "name": "688b53893766d4db5e6fbc41bf234e2a", "is_reserved": 0, "fusion_lat": 0.0}, {"type": "electric_scooter", "rental_uris": {"ios": "https://dc.lft.to/lastmile_qr_scan", "android": "https://dc.lft.to/lastmile_qr_scan"}, "lon": -77.04422566666666, "fusion_lon": 0.0, "is_disabled": 0, "lat": 38.91007916666667, "bike_id": "9adc3b203176da30f3775bc9caee5abe", "name": "9adc3b203176da30f3775bc9caee5abe", "is_reserved": 0, "fusion_lat": 0.0}, {"type": "electric_scooter", "rental_uris": {"ios": "https://dc.lft.to/lastmile_qr_scan", "android": "https://dc.lft.to/lastmile_qr_scan"}, "lon": -77.03160766666667, "fusion_lon": 0.0, "is_disabled": 0, "lat": 38.923750166666665, "bike_id": "19c19359baa5bac72fc7687c39d89c07", "name": "19c19359baa5bac72fc7687c39d89c07", "is_reserved": 0, "fusion_lat": 0.0}, {"type": "electric_scooter", "rental_uris": {"ios": "https://dc.lft.to/lastmile_qr_scan", "android": "https://dc.lft.to/lastmile_qr_scan"}, "lon": -77.02412083333333, "fusion_lon": 0.0, "is_disabled": 0, "lat": 38.933624333333334, "bike_id": "dbd450b4a71d98e38efe6794b41a7dcc", "name": "dbd450b4a71d98e38efe6794b41a7dcc", "is_reserved": 0, "fusion_lat": 0.0}, {"type": "electric_scooter", "rental_uris": {"ios": "https://dc.lft.to/lastmile_qr_scan", "android": "https://dc.lft.to/lastmile_qr_scan"}, "lon": -77.03240966666667, "fusion_lon": 0.0, "is_disabled": 0, "lat": 38.920187166666665, "bike_id": "4f8a2a33b412e3200cca671b7c3758ea", "name": "4f8a2a33b412e3200cca671b7c3758ea", "is_reserved": 0, "fusion_lat": 0.0}, {"type": "electric_bike", "rental_uris": {"ios": "https://dc.lft.to/lastmile_qr_scan", "android": "https://dc.lft.to/lastmile_qr_scan"}, "lon": -76.93615083333333, "fusion_lon": 0.0, "is_disabled": 0, "lat": 38.9705765, "bike_id": "46a2033f7f54f5aa6a9bae74e351c8df", "name": "46a2033f7f54f5aa6a9bae74e351c8df", "is_reserved": 0, "fusion_lat": 0.0}, {"type": "electric_scooter", "rental_uris": {"ios": "https://dc.lft.to/lastmile_qr_scan", "android": "https://dc.lft.to/lastmile_qr_scan"}, "lon": -77.02590116666667, "fusion_lon": 0.0, "is_disabled": 0, "lat": 38.90411266666667, "bike_id": "e478021cc81c0b82691a83cd4f044e38", "name": "e478021cc81c0b82691a83cd4f044e38", "is_reserved": 0, "fusion_lat": 0.0}, {"type": "electric_scooter", "rental_uris": {"ios": "https://dc.lft.to/lastmile_qr_scan", "android": "https://dc.lft.to/lastmile_qr_scan"}, "lon": -77.07255133333334, "fusion_lon": 0.0, "is_disabled": 0, "lat": 38.912644666666665, "bike_id": "7f8f2927169f04bfd2f8740d01e8bb56", "name": "7f8f2927169f04bfd2f8740d01e8bb56", "is_reserved": 0, "fusion_lat": 0.0}, {"type": "electric_scooter", "rental_uris": {"ios": "https://dc.lft.to/lastmile_qr_scan", "android": "https://dc.lft.to/lastmile_qr_scan"}, "lon": -77.03264433333334, "fusion_lon": 0.0, "is_disabled": 0, "lat": 38.93521116666667, "bike_id": "f484ab231f8d43ae2df853880ac6bbcd", "name": "f484ab231f8d43ae2df853880ac6bbcd", "is_reserved": 0, "fusion_lat": 0.0}, {"type": "electric_bike", "rental_uris": {"ios": "https://dc.lft.to/lastmile_qr_scan", "android": "https://dc.lft.to/lastmile_qr_scan"}, "lon": -76.98553283333334, "fusion_lon": 0.0, "is_disabled": 0, "lat": 38.85207166666667, "bike_id": "9edb09a88aaccab45b84aeff7d65cae1", "name": "9edb09a88aaccab45b84aeff7d65cae1", "is_reserved": 0, "fusion_lat": 0.0}, {"type": "electric_scooter", "rental_uris": {"ios": "https://dc.lft.to/lastmile_qr_scan", "android": "https://dc.lft.to/lastmile_qr_scan"}, "lon": -77.05755483333333, "fusion_lon": 0.0, "is_disabled": 0, "lat": 38.925691666666665, "bike_id": "d92acdb225a55eb1e1a149a43748a3e5", "name": "d92acdb225a55eb1e1a149a43748a3e5", "is_reserved": 0, "fusion_lat": 0.0}, {"type": "electric_scooter", "rental_uris": {"ios": "https://dc.lft.to/lastmile_qr_scan", "android": "https://dc.lft.to/lastmile_qr_scan"}, "lon": -77.02184083333333, "fusion_lon": 0.0, "is_disabled": 0, "lat": 38.893007, "bike_id": "ce3f30519125ca3e261cbd6487524573", "name": "ce3f30519125ca3e261cbd6487524573", "is_reserved": 0, "fusion_lat": 0.0}, {"type": "electric_bike", "rental_uris": {"ios": "https://dc.lft.to/lastmile_qr_scan", "android": "https://dc.lft.to/lastmile_qr_scan"}, "lon": -76.90440100000001, "fusion_lon": 0.0, "is_disabled": 0, "lat": 38.89791666666667, "bike_id": "e48c0bb89acae9fe8f951f7b16cc258f", "name": "e48c0bb89acae9fe8f951f7b16cc258f", "is_reserved": 0, "fusion_lat": 0.0}, {"type": "electric_scooter", "rental_uris": {"ios": "https://dc.lft.to/lastmile_qr_scan", "android": "https://dc.lft.to/lastmile_qr_scan"}, "lon": -77.03855616666667, "fusion_lon": 0.0, "is_disabled": 0, "lat": 38.916371833333336, "bike_id": "0ba182d9ce23e38b4db225fbcf775bbd", "name": "0ba182d9ce23e38b4db225fbcf775bbd", "is_reserved": 0, "fusion_lat": 0.0}, {"type": "electric_scooter", "rental_uris": {"ios": "https://dc.lft.to/lastmile_qr_scan", "android": "https://dc.lft.to/lastmile_qr_scan"}, "lon": -77.03165116666666, "fusion_lon": 0.0, "is_disabled": 0, "lat": 38.892247166666664, "bike_id": "a1f6cca2cd2d9811e9df326da59d5a0a", "name": "a1f6cca2cd2d9811e9df326da59d5a0a", "is_reserved": 0, "fusion_lat": 0.0}, {"type": "electric_scooter", "rental_uris": {"ios": "https://dc.lft.to/lastmile_qr_scan", "android": "https://dc.lft.to/lastmile_qr_scan"}, "lon": -77.02220733333333, "fusion_lon": 0.0, "is_disabled": 0, "lat": 38.89222983333333, "bike_id": "1e3899595cf3b08f27b9bea6190998db", "name": "1e3899595cf3b08f27b9bea6190998db", "is_reserved": 0, "fusion_lat": 0.0}, {"type": "electric_scooter", "rental_uris": {"ios": "https://dc.lft.to/lastmile_qr_scan", "android": "https://dc.lft.to/lastmile_qr_scan"}, "lon": -77.041678, "fusion_lon": 0.0, "is_disabled": 0, "lat": 38.918331333333334, "bike_id": "f28c2aa386bf149a78986f73437eac4d", "name": "f28c2aa386bf149a78986f73437eac4d", "is_reserved": 0, "fusion_lat": 0.0}, {"type": "electric_scooter", "rental_uris": {"ios": "https://dc.lft.to/lastmile_qr_scan", "android": "https://dc.lft.to/lastmile_qr_scan"}, "lon": -77.024905, "fusion_lon": 0.0, "is_disabled": 0, "lat": 38.919465833333334, "bike_id": "3e109437bc5a0348b50cae2337c05ee2", "name": "3e109437bc5a0348b50cae2337c05ee2", "is_reserved": 0, "fusion_lat": 0.0}, {"type": "electric_scooter", "rental_uris": {"ios": "https://dc.lft.to/lastmile_qr_scan", "android": "https://dc.lft.to/lastmile_qr_scan"}, "lon": -77.02434166666667, "fusion_lon": 0.0, "is_disabled": 0, "lat": 38.90246916666667, "bike_id": "fbb19fa19d34cb6b2ab9b2faac89f003", "name": "fbb19fa19d34cb6b2ab9b2faac89f003", "is_reserved": 0, "fusion_lat": 0.0}, {"type": "electric_scooter", "rental_uris": {"ios": "https://dc.lft.to/lastmile_qr_scan", "android": "https://dc.lft.to/lastmile_qr_scan"}, "lon": -77.03350233333333, "fusion_lon": 0.0, "is_disabled": 0, "lat": 38.917224166666664, "bike_id": "b521767642f2e52e20071fe3ea8d533f", "name": "b521767642f2e52e20071fe3ea8d533f", "is_reserved": 0, "fusion_lat": 0.0}, {"type": "electric_scooter", "rental_uris": {"ios": "https://dc.lft.to/lastmile_qr_scan", "android": "https://dc.lft.to/lastmile_qr_scan"}, "lon": -77.00476766666667, "fusion_lon": 0.0, "is_disabled": 0, "lat": 38.877987, "bike_id": "a0ca40b0eec724d46c65d370a7efe2ab", "name": "a0ca40b0eec724d46c65d370a7efe2ab", "is_reserved": 0, "fusion_lat": 0.0}, {"type": "electric_bike", "rental_uris": {"ios": "https://dc.lft.to/lastmile_qr_scan", "android": "https://dc.lft.to/lastmile_qr_scan"}, "lon": -77.12655483333333, "fusion_lon": 0.0, "is_disabled": 0, "lat": 38.8151405, "bike_id": "4a493ad2ab499d8b1950c44d9e07f6df", "name": "4a493ad2ab499d8b1950c44d9e07f6df", "is_reserved": 0, "fusion_lat": 0.0}, {"type": "electric_scooter", "rental_uris": {"ios": "https://dc.lft.to/lastmile_qr_scan", "android": "https://dc.lft.to/lastmile_qr_scan"}, "lon": -77.0244085, "fusion_lon": 0.0, "is_disabled": 0, "lat": 38.92257883333333, "bike_id": "e4d75ec58267cd28b81bbef2c5cd39f5", "name": "e4d75ec58267cd28b81bbef2c5cd39f5", "is_reserved": 0, "fusion_lat": 0.0}, {"type": "electric_bike", "rental_uris": {"ios": "https://dc.lft.to/lastmile_qr_scan", "android": "https://dc.lft.to/lastmile_qr_scan"}, "lon": -77.11294833333334, "fusion_lon": 0.0, "is_disabled": 0, "lat": 38.83171016666667, "bike_id": "52974f878696320164b4b89a7b3db7a7", "name": "52974f878696320164b4b89a7b3db7a7", "is_reserved": 0, "fusion_lat": 0.0}, {"type": "electric_scooter", "rental_uris": {"ios": "https://dc.lft.to/lastmile_qr_scan", "android": "https://dc.lft.to/lastmile_qr_scan"}, "lon": -77.04063416666666, "fusion_lon": 0.0, "is_disabled": 0, "lat": 38.912814833333336, "bike_id": "6e212c7a1bab4ddef49703d3f3673cc6", "name": "6e212c7a1bab4ddef49703d3f3673cc6", "is_reserved": 0, "fusion_lat": 0.0}, {"type": "electric_scooter", "rental_uris": {"ios": "https://dc.lft.to/lastmile_qr_scan", "android": "https://dc.lft.to/lastmile_qr_scan"}, "lon": -77.03452233333333, "fusion_lon": 0.0, "is_disabled": 0, "lat": 38.90813283333333, "bike_id": "53605ef3813ae2cd76e78d0a2d6350f3", "name": "53605ef3813ae2cd76e78d0a2d6350f3", "is_reserved": 0, "fusion_lat": 0.0}, {"type": "electric_scooter", "rental_uris": {"ios": "https://dc.lft.to/lastmile_qr_scan", "android": "https://dc.lft.to/lastmile_qr_scan"}, "lon": -76.99703166666667, "fusion_lon": 0.0, "is_disabled": 0, "lat": 38.908306833333334, "bike_id": "07de5434bf1db6affe3acb40960293f8", "name": "07de5434bf1db6affe3acb40960293f8", "is_reserved": 0, "fusion_lat": 0.0}, {"type": "electric_scooter", "rental_uris": {"ios": "https://dc.lft.to/lastmile_qr_scan", "android": "https://dc.lft.to/lastmile_qr_scan"}, "lon": -77.02128833333333, "fusion_lon": 0.0, "is_disabled": 0, "lat": 38.887449, "bike_id": "64ebd3a9e5b15d9e99659df462a56eee", "name": "64ebd3a9e5b15d9e99659df462a56eee", "is_reserved": 0, "fusion_lat": 0.0}, {"type": "electric_scooter", "rental_uris": {"ios": "https://dc.lft.to/lastmile_qr_scan", "android": "https://dc.lft.to/lastmile_qr_scan"}, "lon": -77.02321216666667, "fusion_lon": 0.0, "is_disabled": 0, "lat": 38.892263166666666, "bike_id": "844cd974ab71b1737ed75fac70eb97b2", "name": "844cd974ab71b1737ed75fac70eb97b2", "is_reserved": 0, "fusion_lat": 0.0}, {"type": "electric_scooter", "rental_uris": {"ios": "https://dc.lft.to/lastmile_qr_scan", "android": "https://dc.lft.to/lastmile_qr_scan"}, "lon": -77.032403, "fusion_lon": 0.0, "is_disabled": 0, "lat": 38.921776666666666, "bike_id": "ecca6917293518d2dfa1b2d68bcd01ce", "name": "ecca6917293518d2dfa1b2d68bcd01ce", "is_reserved": 0, "fusion_lat": 0.0}, {"type": "electric_scooter", "rental_uris": {"ios": "https://dc.lft.to/lastmile_qr_scan", "android": "https://dc.lft.to/lastmile_qr_scan"}, "lon": -77.03906916666666, "fusion_lon": 0.0, "is_disabled": 0, "lat": 38.902465, "bike_id": "26b8cb129657e552a4929d4314a97bb8", "name": "26b8cb129657e552a4929d4314a97bb8", "is_reserved": 0, "fusion_lat": 0.0}, {"type": "electric_bike", "rental_uris": {"ios": "https://dc.lft.to/lastmile_qr_scan", "android": "https://dc.lft.to/lastmile_qr_scan"}, "lon": -77.20838333333333, "fusion_lon": 0.0, "is_disabled": 0, "lat": 38.92456716666667, "bike_id": "090340a755bd6a0c0a0b24d331289585", "name": "090340a755bd6a0c0a0b24d331289585", "is_reserved": 0, "fusion_lat": 0.0}, {"type": "electric_scooter", "rental_uris": {"ios": "https://dc.lft.to/lastmile_qr_scan", "android": "https://dc.lft.to/lastmile_qr_scan"}, "lon": -77.0061435, "fusion_lon": 0.0, "is_disabled": 0, "lat": 38.87181733333333, "bike_id": "b1942549dbab50b3fde69a601742cc0c", "name": "b1942549dbab50b3fde69a601742cc0c", "is_reserved": 0, "fusion_lat": 0.0}, {"type": "electric_scooter", "rental_uris": {"ios": "https://dc.lft.to/lastmile_qr_scan", "android": "https://dc.lft.to/lastmile_qr_scan"}, "lon": -77.03665583333333, "fusion_lon": 0.0, "is_disabled": 0, "lat": 38.9224905, "bike_id": "6e3abbeb74cec98ede83e1799a24a59a", "name": "6e3abbeb74cec98ede83e1799a24a59a", "is_reserved": 0, "fusion_lat": 0.0}, {"type": "electric_scooter", "rental_uris": {"ios": "https://dc.lft.to/lastmile_qr_scan", "android": "https://dc.lft.to/lastmile_qr_scan"}, "lon": -77.02205316666667, "fusion_lon": 0.0, "is_disabled": 0, "lat": 38.91094916666667, "bike_id": "d290d481e3cbba251ad3d10e7e74ff29", "name": "d290d481e3cbba251ad3d10e7e74ff29", "is_reserved": 0, "fusion_lat": 0.0}, {"type": "electric_scooter", "rental_uris": {"ios": "https://dc.lft.to/lastmile_qr_scan", "android": "https://dc.lft.to/lastmile_qr_scan"}, "lon": -77.0390655, "fusion_lon": 0.0, "is_disabled": 0, "lat": 38.91700866666667, "bike_id": "40f3ac95a133625fedd3d087b498e0f4", "name": "40f3ac95a133625fedd3d087b498e0f4", "is_reserved": 0, "fusion_lat": 0.0}, {"type": "electric_scooter", "rental_uris": {"ios": "https://dc.lft.to/lastmile_qr_scan", "android": "https://dc.lft.to/lastmile_qr_scan"}, "lon": -77.040128, "fusion_lon": 0.0, "is_disabled": 0, "lat": 38.91564133333333, "bike_id": "b56a0a35cb7882d72caab698e87510a6", "name": "b56a0a35cb7882d72caab698e87510a6", "is_reserved": 0, "fusion_lat": 0.0}, {"type": "electric_scooter", "rental_uris": {"ios": "https://dc.lft.to/lastmile_qr_scan", "android": "https://dc.lft.to/lastmile_qr_scan"}, "lon": -77.0325045, "fusion_lon": 0.0, "is_disabled": 0, "lat": 38.917090333333334, "bike_id": "7b101690ffb61d4bd76d6f56899c4490", "name": "7b101690ffb61d4bd76d6f56899c4490", "is_reserved": 0, "fusion_lat": 0.0}, {"type": "electric_scooter", "rental_uris": {"ios": "https://dc.lft.to/lastmile_qr_scan", "android": "https://dc.lft.to/lastmile_qr_scan"}, "lon": -77.03099166666667, "fusion_lon": 0.0, "is_disabled": 0, "lat": 38.928571833333336, "bike_id": "78e32a35f4cf0b200c19516007238736", "name": "78e32a35f4cf0b200c19516007238736", "is_reserved": 0, "fusion_lat": 0.0}, {"type": "electric_bike", "rental_uris": {"ios": "https://dc.lft.to/lastmile_qr_scan", "android": "https://dc.lft.to/lastmile_qr_scan"}, "lon": -77.0066095, "fusion_lon": 0.0, "is_disabled": 0, "lat": 38.9083175, "bike_id": "d9be3c5d23d51a4fcb8169ced4b4818f", "name": "d9be3c5d23d51a4fcb8169ced4b4818f", "is_reserved": 0, "fusion_lat": 0.0}, {"type": "electric_scooter", "rental_uris": {"ios": "https://dc.lft.to/lastmile_qr_scan", "android": "https://dc.lft.to/lastmile_qr_scan"}, "lon": -77.02721216666667, "fusion_lon": 0.0, "is_disabled": 0, "lat": 38.91707483333333, "bike_id": "caa16d6bacb23fe07838b784e91a0e91", "name": "caa16d6bacb23fe07838b784e91a0e91", "is_reserved": 0, "fusion_lat": 0.0}, {"type": "electric_scooter", "rental_uris": {"ios": "https://dc.lft.to/lastmile_qr_scan", "android": "https://dc.lft.to/lastmile_qr_scan"}, "lon": -77.0353405, "fusion_lon": 0.0, "is_disabled": 0, "lat": 38.9184755, "bike_id": "6a23518c44b48614c13208600a5f53a0", "name": "6a23518c44b48614c13208600a5f53a0", "is_reserved": 0, "fusion_lat": 0.0}, {"type": "electric_scooter", "rental_uris": {"ios": "https://dc.lft.to/lastmile_qr_scan", "android": "https://dc.lft.to/lastmile_qr_scan"}, "lon": -77.04065366666667, "fusion_lon": 0.0, "is_disabled": 0, "lat": 38.9127145, "bike_id": "96749982359b4c85ca4ca0c64e738c61", "name": "96749982359b4c85ca4ca0c64e738c61", "is_reserved": 0, "fusion_lat": 0.0}, {"type": "electric_scooter", "rental_uris": {"ios": "https://dc.lft.to/lastmile_qr_scan", "android": "https://dc.lft.to/lastmile_qr_scan"}, "lon": -76.931761, "fusion_lon": 0.0, "is_disabled": 0, "lat": 38.898812, "bike_id": "1518d5780d7e8ba780c20e2a586f72fa", "name": "1518d5780d7e8ba780c20e2a586f72fa", "is_reserved": 0, "fusion_lat": 0.0}, {"type": "electric_scooter", "rental_uris": {"ios": "https://dc.lft.to/lastmile_qr_scan", "android": "https://dc.lft.to/lastmile_qr_scan"}, "lon": -76.99882016666666, "fusion_lon": 0.0, "is_disabled": 0, "lat": 38.90749683333333, "bike_id": "33dec51273c6fb2aaed377170ac01759", "name": "33dec51273c6fb2aaed377170ac01759", "is_reserved": 0, "fusion_lat": 0.0}, {"type": "electric_scooter", "rental_uris": {"ios": "https://dc.lft.to/lastmile_qr_scan", "android": "https://dc.lft.to/lastmile_qr_scan"}, "lon": -77.02174683333334, "fusion_lon": 0.0, "is_disabled": 0, "lat": 38.897076, "bike_id": "f50fc3a606136a161e6e3f848cdfc285", "name": "f50fc3a606136a161e6e3f848cdfc285", "is_reserved": 0, "fusion_lat": 0.0}, {"type": "electric_scooter", "rental_uris": {"ios": "https://dc.lft.to/lastmile_qr_scan", "android": "https://dc.lft.to/lastmile_qr_scan"}, "lon": -76.9854345, "fusion_lon": 0.0, "is_disabled": 0, "lat": 38.8667615, "bike_id": "3e02fbab8754896977500d8bb1be7cff", "name": "3e02fbab8754896977500d8bb1be7cff", "is_reserved": 0, "fusion_lat": 0.0}, {"type": "electric_scooter", "rental_uris": {"ios": "https://dc.lft.to/lastmile_qr_scan", "android": "https://dc.lft.to/lastmile_qr_scan"}, "lon": -77.050077, "fusion_lon": 0.0, "is_disabled": 0, "lat": 38.8922875, "bike_id": "b4072bf3930cab70ca453b3d15722244", "name": "b4072bf3930cab70ca453b3d15722244", "is_reserved": 0, "fusion_lat": 0.0}, {"type": "electric_scooter", "rental_uris": {"ios": "https://dc.lft.to/lastmile_qr_scan", "android": "https://dc.lft.to/lastmile_qr_scan"}, "lon": -77.02875033333333, "fusion_lon": 0.0, "is_disabled": 0, "lat": 38.9281445, "bike_id": "d0d12aea098c7658bdc6e8dc81e446c3", "name": "d0d12aea098c7658bdc6e8dc81e446c3", "is_reserved": 0, "fusion_lat": 0.0}, {"type": "electric_bike", "rental_uris": {"ios": "https://dc.lft.to/lastmile_qr_scan", "android": "https://dc.lft.to/lastmile_qr_scan"}, "lon": -76.99780416666667, "fusion_lon": 0.0, "is_disabled": 0, "lat": 38.862095333333336, "bike_id": "2781157c22f1a38267d912d861901c13", "name": "2781157c22f1a38267d912d861901c13", "is_reserved": 0, "fusion_lat": 0.0}, {"type": "electric_scooter", "rental_uris": {"ios": "https://dc.lft.to/lastmile_qr_scan", "android": "https://dc.lft.to/lastmile_qr_scan"}, "lon": -77.0008385, "fusion_lon": 0.0, "is_disabled": 0, "lat": 38.907580333333335, "bike_id": "11d4f1157c02120b61edac2221d3f9cc", "name": "11d4f1157c02120b61edac2221d3f9cc", "is_reserved": 0, "fusion_lat": 0.0}, {"type": "electric_scooter", "rental_uris": {"ios": "https://dc.lft.to/lastmile_qr_scan", "android": "https://dc.lft.to/lastmile_qr_scan"}, "lon": -77.03181716666667, "fusion_lon": 0.0, "is_disabled": 0, "lat": 38.92103483333333, "bike_id": "5757bbdc9610565620e6a33093a4e1c4", "name": "5757bbdc9610565620e6a33093a4e1c4", "is_reserved": 0, "fusion_lat": 0.0}, {"type": "electric_scooter", "rental_uris": {"ios": "https://dc.lft.to/lastmile_qr_scan", "android": "https://dc.lft.to/lastmile_qr_scan"}, "lon": -77.04646783333334, "fusion_lon": 0.0, "is_disabled": 0, "lat": 38.892219833333336, "bike_id": "169c5c760cd654ce7620222e0c623780", "name": "169c5c760cd654ce7620222e0c623780", "is_reserved": 0, "fusion_lat": 0.0}, {"type": "electric_bike", "rental_uris": {"ios": "https://dc.lft.to/lastmile_qr_scan", "android": "https://dc.lft.to/lastmile_qr_scan"}, "lon": -76.9457995, "fusion_lon": 0.0, "is_disabled": 0, "lat": 38.95333183333334, "bike_id": "8a5894f2dcdbf34440b32e06426b22d1", "name": "8a5894f2dcdbf34440b32e06426b22d1", "is_reserved": 0, "fusion_lat": 0.0}, {"type": "electric_scooter", "rental_uris": {"ios": "https://dc.lft.to/lastmile_qr_scan", "android": "https://dc.lft.to/lastmile_qr_scan"}, "lon": -76.95144316666666, "fusion_lon": 0.0, "is_disabled": 0, "lat": 38.89039533333333, "bike_id": "bef345ad69f1e5a20bbe0e68a6cd9ec2", "name": "bef345ad69f1e5a20bbe0e68a6cd9ec2", "is_reserved": 0, "fusion_lat": 0.0}, {"type": "electric_scooter", "rental_uris": {"ios": "https://dc.lft.to/lastmile_qr_scan", "android": "https://dc.lft.to/lastmile_qr_scan"}, "lon": -77.032905, "fusion_lon": 0.0, "is_disabled": 0, "lat": 38.92744583333333, "bike_id": "2002fc58ea17434ca5accad36f5d4c59", "name": "2002fc58ea17434ca5accad36f5d4c59", "is_reserved": 0, "fusion_lat": 0.0}, {"type": "electric_bike", "rental_uris": {"ios": "https://dc.lft.to/lastmile_qr_scan", "android": "https://dc.lft.to/lastmile_qr_scan"}, "lon": -76.99003383333333, "fusion_lon": 0.0, "is_disabled": 0, "lat": 38.95488433333333, "bike_id": "07331f6344af3894aa26c16d590523d0", "name": "07331f6344af3894aa26c16d590523d0", "is_reserved": 0, "fusion_lat": 0.0}, {"type": "electric_scooter", "rental_uris": {"ios": "https://dc.lft.to/lastmile_qr_scan", "android": "https://dc.lft.to/lastmile_qr_scan"}, "lon": -77.03150816666667, "fusion_lon": 0.0, "is_disabled": 0, "lat": 38.920817666666665, "bike_id": "6f609e59ccb2c33159ac6c39a3a27918", "name": "6f609e59ccb2c33159ac6c39a3a27918", "is_reserved": 0, "fusion_lat": 0.0}, {"type": "electric_scooter", "rental_uris": {"ios": "https://dc.lft.to/lastmile_qr_scan", "android": "https://dc.lft.to/lastmile_qr_scan"}, "lon": -77.0377975, "fusion_lon": 0.0, "is_disabled": 0, "lat": 38.92581333333333, "bike_id": "c8e57307d0f8047ed8d8658b9e9daa1c", "name": "c8e57307d0f8047ed8d8658b9e9daa1c", "is_reserved": 0, "fusion_lat": 0.0}, {"type": "electric_scooter", "rental_uris": {"ios": "https://dc.lft.to/lastmile_qr_scan", "android": "https://dc.lft.to/lastmile_qr_scan"}, "lon": -77.03161016666667, "fusion_lon": 0.0, "is_disabled": 0, "lat": 38.897615, "bike_id": "5db09360157d03020fd782fa540eae99", "name": "5db09360157d03020fd782fa540eae99", "is_reserved": 0, "fusion_lat": 0.0}, {"type": "electric_scooter", "rental_uris": {"ios": "https://dc.lft.to/lastmile_qr_scan", "android": "https://dc.lft.to/lastmile_qr_scan"}, "lon": -76.93046483333333, "fusion_lon": 0.0, "is_disabled": 0, "lat": 38.895727666666666, "bike_id": "f0b6ea338f6c9c9b1e9dfb16e5ffc69f", "name": "f0b6ea338f6c9c9b1e9dfb16e5ffc69f", "is_reserved": 0, "fusion_lat": 0.0}, {"type": "electric_scooter", "rental_uris": {"ios": "https://dc.lft.to/lastmile_qr_scan", "android": "https://dc.lft.to/lastmile_qr_scan"}, "lon": -77.02187, "fusion_lon": 0.0, "is_disabled": 0, "lat": 38.9098005, "bike_id": "e6ecbad0623ae68e0404a8c1e010405d", "name": "e6ecbad0623ae68e0404a8c1e010405d", "is_reserved": 0, "fusion_lat": 0.0}, {"type": "electric_scooter", "rental_uris": {"ios": "https://dc.lft.to/lastmile_qr_scan", "android": "https://dc.lft.to/lastmile_qr_scan"}, "lon": -76.93175433333333, "fusion_lon": 0.0, "is_disabled": 0, "lat": 38.8988625, "bike_id": "f96c87727e0a30c0d838e5e524e68701", "name": "f96c87727e0a30c0d838e5e524e68701", "is_reserved": 0, "fusion_lat": 0.0}, {"type": "electric_scooter", "rental_uris": {"ios": "https://dc.lft.to/lastmile_qr_scan", "android": "https://dc.lft.to/lastmile_qr_scan"}, "lon": -77.05726633333333, "fusion_lon": 0.0, "is_disabled": 0, "lat": 38.93364666666667, "bike_id": "524904215be59e69526f1321bc6bde43", "name": "524904215be59e69526f1321bc6bde43", "is_reserved": 0, "fusion_lat": 0.0}, {"type": "electric_scooter", "rental_uris": {"ios": "https://dc.lft.to/lastmile_qr_scan", "android": "https://dc.lft.to/lastmile_qr_scan"}, "lon": -77.03768816666667, "fusion_lon": 0.0, "is_disabled": 0, "lat": 38.9297075, "bike_id": "66f3025fccb4148daf19f06d2b205273", "name": "66f3025fccb4148daf19f06d2b205273", "is_reserved": 0, "fusion_lat": 0.0}, {"type": "electric_scooter", "rental_uris": {"ios": "https://dc.lft.to/lastmile_qr_scan", "android": "https://dc.lft.to/lastmile_qr_scan"}, "lon": -77.02973033333333, "fusion_lon": 0.0, "is_disabled": 0, "lat": 38.90772416666667, "bike_id": "661a68a8b8342721e88357168cefd105", "name": "661a68a8b8342721e88357168cefd105", "is_reserved": 0, "fusion_lat": 0.0}, {"type": "electric_bike", "rental_uris": {"ios": "https://dc.lft.to/lastmile_qr_scan", "android": "https://dc.lft.to/lastmile_qr_scan"}, "lon": -77.02625133333333, "fusion_lon": 0.0, "is_disabled": 0, "lat": 38.96227316666667, "bike_id": "4a8d054df54cf5b23242b11d18eb25fb", "name": "4a8d054df54cf5b23242b11d18eb25fb", "is_reserved": 0, "fusion_lat": 0.0}, {"type": "electric_scooter", "rental_uris": {"ios": "https://dc.lft.to/lastmile_qr_scan", "android": "https://dc.lft.to/lastmile_qr_scan"}, "lon": -77.049344, "fusion_lon": 0.0, "is_disabled": 0, "lat": 38.90089, "bike_id": "8d624e140eb7c131b9f40db5de321bac", "name": "8d624e140eb7c131b9f40db5de321bac", "is_reserved": 0, "fusion_lat": 0.0}, {"type": "electric_bike", "rental_uris": {"ios": "https://dc.lft.to/lastmile_qr_scan", "android": "https://dc.lft.to/lastmile_qr_scan"}, "lon": -77.36097766666667, "fusion_lon": 0.0, "is_disabled": 0, "lat": 38.939565333333334, "bike_id": "e8af42837eafff2283e4dd6887b69618", "name": "e8af42837eafff2283e4dd6887b69618", "is_reserved": 0, "fusion_lat": 0.0}, {"type": "electric_bike", "rental_uris": {"ios": "https://dc.lft.to/lastmile_qr_scan", "android": "https://dc.lft.to/lastmile_qr_scan"}, "lon": -77.0737865, "fusion_lon": 0.0, "is_disabled": 0, "lat": 38.961750333333335, "bike_id": "c13ca11a6d119bd449f582bd3f22486b", "name": "c13ca11a6d119bd449f582bd3f22486b", "is_reserved": 0, "fusion_lat": 0.0}, {"type": "electric_bike", "rental_uris": {"ios": "https://dc.lft.to/lastmile_qr_scan", "android": "https://dc.lft.to/lastmile_qr_scan"}, "lon": -76.88373033333333, "fusion_lon": 0.0, "is_disabled": 0, "lat": 38.9981585, "bike_id": "fe20ddc7f1ad450b8d5a8c9f1c8c87dc", "name": "fe20ddc7f1ad450b8d5a8c9f1c8c87dc", "is_reserved": 0, "fusion_lat": 0.0}, {"type": "electric_scooter", "rental_uris": {"ios": "https://dc.lft.to/lastmile_qr_scan", "android": "https://dc.lft.to/lastmile_qr_scan"}, "lon": -77.0344575, "fusion_lon": 0.0, "is_disabled": 0, "lat": 38.91840333333333, "bike_id": "adf2546d1e8a8211156d7525e78a048d", "name": "adf2546d1e8a8211156d7525e78a048d", "is_reserved": 0, "fusion_lat": 0.0}, {"type": "electric_scooter", "rental_uris": {"ios": "https://dc.lft.to/lastmile_qr_scan", "android": "https://dc.lft.to/lastmile_qr_scan"}, "lon": -77.0344265, "fusion_lon": 0.0, "is_disabled": 0, "lat": 38.907412, "bike_id": "475980598ddf46f74346ebbb28f42a9b", "name": "475980598ddf46f74346ebbb28f42a9b", "is_reserved": 0, "fusion_lat": 0.0}, {"type": "electric_scooter", "rental_uris": {"ios": "https://dc.lft.to/lastmile_qr_scan", "android": "https://dc.lft.to/lastmile_qr_scan"}, "lon": -77.04484066666667, "fusion_lon": 0.0, "is_disabled": 0, "lat": 38.900114333333335, "bike_id": "247007cf0f2ebc92adf15685796ddb89", "name": "247007cf0f2ebc92adf15685796ddb89", "is_reserved": 0, "fusion_lat": 0.0}, {"type": "electric_bike", "rental_uris": {"ios": "https://dc.lft.to/lastmile_qr_scan", "android": "https://dc.lft.to/lastmile_qr_scan"}, "lon": -77.02725083333333, "fusion_lon": 0.0, "is_disabled": 0, "lat": 38.94550483333333, "bike_id": "8b6d295c6c91cff602538f6b30435c0a", "name": "8b6d295c6c91cff602538f6b30435c0a", "is_reserved": 0, "fusion_lat": 0.0}, {"type": "electric_scooter", "rental_uris": {"ios": "https://dc.lft.to/lastmile_qr_scan", "android": "https://dc.lft.to/lastmile_qr_scan"}, "lon": -77.0239765, "fusion_lon": 0.0, "is_disabled": 0, "lat": 38.91741966666667, "bike_id": "5e0db5cdab2d2486fcab1458377a862e", "name": "5e0db5cdab2d2486fcab1458377a862e", "is_reserved": 0, "fusion_lat": 0.0}, {"type": "electric_bike", "rental_uris": {"ios": "https://dc.lft.to/lastmile_qr_scan", "android": "https://dc.lft.to/lastmile_qr_scan"}, "lon": -76.923761, "fusion_lon": 0.0, "is_disabled": 0, "lat": 38.8837475, "bike_id": "2a244f09920e3fa5c689f88b18eecbc3", "name": "2a244f09920e3fa5c689f88b18eecbc3", "is_reserved": 0, "fusion_lat": 0.0}, {"type": "electric_scooter", "rental_uris": {"ios": "https://dc.lft.to/lastmile_qr_scan", "android": "https://dc.lft.to/lastmile_qr_scan"}, "lon": -76.98778516666667, "fusion_lon": 0.0, "is_disabled": 0, "lat": 38.898309833333336, "bike_id": "0b49a07f2d23274dc70373c4b0c00af9", "name": "0b49a07f2d23274dc70373c4b0c00af9", "is_reserved": 0, "fusion_lat": 0.0}, {"type": "electric_bike", "rental_uris": {"ios": "https://dc.lft.to/lastmile_qr_scan", "android": "https://dc.lft.to/lastmile_qr_scan"}, "lon": -76.92330466666667, "fusion_lon": 0.0, "is_disabled": 0, "lat": 38.871077, "bike_id": "b46bd78b4c6b3d7d9dc4e6a30553f5c0", "name": "b46bd78b4c6b3d7d9dc4e6a30553f5c0", "is_reserved": 0, "fusion_lat": 0.0}, {"type": "electric_bike", "rental_uris": {"ios": "https://dc.lft.to/lastmile_qr_scan", "android": "https://dc.lft.to/lastmile_qr_scan"}, "lon": -77.099687, "fusion_lon": 0.0, "is_disabled": 0, "lat": 38.93356816666667, "bike_id": "84c96f72b90e83b772998c36adcfa68d", "name": "84c96f72b90e83b772998c36adcfa68d", "is_reserved": 0, "fusion_lat": 0.0}, {"type": "electric_scooter", "rental_uris": {"ios": "https://dc.lft.to/lastmile_qr_scan", "android": "https://dc.lft.to/lastmile_qr_scan"}, "lon": -77.042534, "fusion_lon": 0.0, "is_disabled": 0, "lat": 38.92197566666667, "bike_id": "ef6415e88c8cceaa2467c1f0a11d0fa5", "name": "ef6415e88c8cceaa2467c1f0a11d0fa5", "is_reserved": 0, "fusion_lat": 0.0}, {"type": "electric_scooter", "rental_uris": {"ios": "https://dc.lft.to/lastmile_qr_scan", "android": "https://dc.lft.to/lastmile_qr_scan"}, "lon": -77.051324, "fusion_lon": 0.0, "is_disabled": 0, "lat": 38.92363183333333, "bike_id": "138f872fa8b116600643ea3e10f63b88", "name": "138f872fa8b116600643ea3e10f63b88", "is_reserved": 0, "fusion_lat": 0.0}, {"type": "electric_scooter", "rental_uris": {"ios": "https://dc.lft.to/lastmile_qr_scan", "android": "https://dc.lft.to/lastmile_qr_scan"}, "lon": -77.0348605, "fusion_lon": 0.0, "is_disabled": 0, "lat": 38.93270916666667, "bike_id": "a8eec3a8d918ec7ca9ab51efd6cac42a", "name": "a8eec3a8d918ec7ca9ab51efd6cac42a", "is_reserved": 0, "fusion_lat": 0.0}, {"type": "electric_scooter", "rental_uris": {"ios": "https://dc.lft.to/lastmile_qr_scan", "android": "https://dc.lft.to/lastmile_qr_scan"}, "lon": -77.04145866666667, "fusion_lon": 0.0, "is_disabled": 0, "lat": 38.9265025, "bike_id": "1043b5d1a43a1b12e467add47273b37c", "name": "1043b5d1a43a1b12e467add47273b37c", "is_reserved": 0, "fusion_lat": 0.0}, {"type": "electric_scooter", "rental_uris": {"ios": "https://dc.lft.to/lastmile_qr_scan", "android": "https://dc.lft.to/lastmile_qr_scan"}, "lon": -77.01205916666666, "fusion_lon": 0.0, "is_disabled": 0, "lat": 38.8932815, "bike_id": "2b20d3d55c2f0055f24809d7065ec40b", "name": "2b20d3d55c2f0055f24809d7065ec40b", "is_reserved": 0, "fusion_lat": 0.0}, {"type": "electric_scooter", "rental_uris": {"ios": "https://dc.lft.to/lastmile_qr_scan", "android": "https://dc.lft.to/lastmile_qr_scan"}, "lon": -77.03214866666667, "fusion_lon": 0.0, "is_disabled": 0, "lat": 38.8922285, "bike_id": "99b0154d2032112c1719a781ef507133", "name": "99b0154d2032112c1719a781ef507133", "is_reserved": 0, "fusion_lat": 0.0}, {"type": "electric_scooter", "rental_uris": {"ios": "https://dc.lft.to/lastmile_qr_scan", "android": "https://dc.lft.to/lastmile_qr_scan"}, "lon": -77.040124, "fusion_lon": 0.0, "is_disabled": 0, "lat": 38.92432433333333, "bike_id": "566eba70809efa6b69dd73a2b01386c5", "name": "566eba70809efa6b69dd73a2b01386c5", "is_reserved": 0, "fusion_lat": 0.0}, {"type": "electric_bike", "rental_uris": {"ios": "https://dc.lft.to/lastmile_qr_scan", "android": "https://dc.lft.to/lastmile_qr_scan"}, "lon": -76.91606516666667, "fusion_lon": 0.0, "is_disabled": 0, "lat": 38.879729, "bike_id": "0da98cb8c9032f035c0aefa0f47efe9e", "name": "0da98cb8c9032f035c0aefa0f47efe9e", "is_reserved": 0, "fusion_lat": 0.0}, {"type": "electric_scooter", "rental_uris": {"ios": "https://dc.lft.to/lastmile_qr_scan", "android": "https://dc.lft.to/lastmile_qr_scan"}, "lon": -76.980083, "fusion_lon": 0.0, "is_disabled": 0, "lat": 38.901073, "bike_id": "182b6dde311595ee0c625361f2a8f1ba", "name": "182b6dde311595ee0c625361f2a8f1ba", "is_reserved": 0, "fusion_lat": 0.0}, {"type": "electric_bike", "rental_uris": {"ios": "https://dc.lft.to/lastmile_qr_scan", "android": "https://dc.lft.to/lastmile_qr_scan"}, "lon": -77.01207983333333, "fusion_lon": 0.0, "is_disabled": 0, "lat": 38.87093566666667, "bike_id": "4560eaf6a52da9f0a9936483517f914c", "name": "4560eaf6a52da9f0a9936483517f914c", "is_reserved": 0, "fusion_lat": 0.0}, {"type": "electric_scooter", "rental_uris": {"ios": "https://dc.lft.to/lastmile_qr_scan", "android": "https://dc.lft.to/lastmile_qr_scan"}, "lon": -77.05585116666667, "fusion_lon": 0.0, "is_disabled": 0, "lat": 38.900006166666664, "bike_id": "fbf3aaf326dd2588ca98f90b4ecb0c44", "name": "fbf3aaf326dd2588ca98f90b4ecb0c44", "is_reserved": 0, "fusion_lat": 0.0}, {"type": "electric_scooter", "rental_uris": {"ios": "https://dc.lft.to/lastmile_qr_scan", "android": "https://dc.lft.to/lastmile_qr_scan"}, "lon": -77.03646933333333, "fusion_lon": 0.0, "is_disabled": 0, "lat": 38.913064166666665, "bike_id": "732c195c2e4e4248726ca7f7f910b146", "name": "732c195c2e4e4248726ca7f7f910b146", "is_reserved": 0, "fusion_lat": 0.0}, {"type": "electric_scooter", "rental_uris": {"ios": "https://dc.lft.to/lastmile_qr_scan", "android": "https://dc.lft.to/lastmile_qr_scan"}, "lon": -77.031907, "fusion_lon": 0.0, "is_disabled": 0, "lat": 38.90971183333333, "bike_id": "a7ce033b0c9748fb532de3d18d0253c0", "name": "a7ce033b0c9748fb532de3d18d0253c0", "is_reserved": 0, "fusion_lat": 0.0}, {"type": "electric_scooter", "rental_uris": {"ios": "https://dc.lft.to/lastmile_qr_scan", "android": "https://dc.lft.to/lastmile_qr_scan"}, "lon": -77.004657, "fusion_lon": 0.0, "is_disabled": 0, "lat": 38.87661083333333, "bike_id": "d31c1e6dfe8d864f77fec5bfd6fbc61d", "name": "d31c1e6dfe8d864f77fec5bfd6fbc61d", "is_reserved": 0, "fusion_lat": 0.0}, {"type": "electric_scooter", "rental_uris": {"ios": "https://dc.lft.to/lastmile_qr_scan", "android": "https://dc.lft.to/lastmile_qr_scan"}, "lon": -77.027014, "fusion_lon": 0.0, "is_disabled": 0, "lat": 38.92565833333333, "bike_id": "ee0bcf7b932fd003dd62be0cdf280c02", "name": "ee0bcf7b932fd003dd62be0cdf280c02", "is_reserved": 0, "fusion_lat": 0.0}, {"type": "electric_scooter", "rental_uris": {"ios": "https://dc.lft.to/lastmile_qr_scan", "android": "https://dc.lft.to/lastmile_qr_scan"}, "lon": -77.03197316666666, "fusion_lon": 0.0, "is_disabled": 0, "lat": 38.918504166666665, "bike_id": "c10f75d5e8ff987794617e6bcca2411f", "name": "c10f75d5e8ff987794617e6bcca2411f", "is_reserved": 0, "fusion_lat": 0.0}, {"type": "electric_bike", "rental_uris": {"ios": "https://dc.lft.to/lastmile_qr_scan", "android": "https://dc.lft.to/lastmile_qr_scan"}, "lon": -77.08125583333333, "fusion_lon": 0.0, "is_disabled": 0, "lat": 38.80678666666667, "bike_id": "efce6897138d25d4a433dac75c396614", "name": "efce6897138d25d4a433dac75c396614", "is_reserved": 0, "fusion_lat": 0.0}, {"type": "electric_scooter", "rental_uris": {"ios": "https://dc.lft.to/lastmile_qr_scan", "android": "https://dc.lft.to/lastmile_qr_scan"}, "lon": -77.04896783333334, "fusion_lon": 0.0, "is_disabled": 0, "lat": 38.892242333333336, "bike_id": "8a7139631029515d9a4d3bb44e4b7f09", "name": "8a7139631029515d9a4d3bb44e4b7f09", "is_reserved": 0, "fusion_lat": 0.0}, {"type": "electric_scooter", "rental_uris": {"ios": "https://dc.lft.to/lastmile_qr_scan", "android": "https://dc.lft.to/lastmile_qr_scan"}, "lon": -77.0235225, "fusion_lon": 0.0, "is_disabled": 0, "lat": 38.91776983333333, "bike_id": "b7caa3ad778adce2b61f8d513156471f", "name": "b7caa3ad778adce2b61f8d513156471f", "is_reserved": 0, "fusion_lat": 0.0}, {"type": "electric_scooter", "rental_uris": {"ios": "https://dc.lft.to/lastmile_qr_scan", "android": "https://dc.lft.to/lastmile_qr_scan"}, "lon": -77.03663183333333, "fusion_lon": 0.0, "is_disabled": 0, "lat": 38.92599583333333, "bike_id": "512980eac2c03b65fb314fe1709c0e72", "name": "512980eac2c03b65fb314fe1709c0e72", "is_reserved": 0, "fusion_lat": 0.0}, {"type": "electric_scooter", "rental_uris": {"ios": "https://dc.lft.to/lastmile_qr_scan", "android": "https://dc.lft.to/lastmile_qr_scan"}, "lon": -77.04436416666667, "fusion_lon": 0.0, "is_disabled": 0, "lat": 38.9212545, "bike_id": "171d9f98b55f92ae2df207e3bac1c2dc", "name": "171d9f98b55f92ae2df207e3bac1c2dc", "is_reserved": 0, "fusion_lat": 0.0}, {"type": "electric_scooter", "rental_uris": {"ios": "https://dc.lft.to/lastmile_qr_scan", "android": "https://dc.lft.to/lastmile_qr_scan"}, "lon": -77.04353233333333, "fusion_lon": 0.0, "is_disabled": 0, "lat": 38.91346216666667, "bike_id": "5402ee8ac1380f6b08462ed6a23f1b23", "name": "5402ee8ac1380f6b08462ed6a23f1b23", "is_reserved": 0, "fusion_lat": 0.0}, {"type": "electric_scooter", "rental_uris": {"ios": "https://dc.lft.to/lastmile_qr_scan", "android": "https://dc.lft.to/lastmile_qr_scan"}, "lon": -76.99829216666667, "fusion_lon": 0.0, "is_disabled": 0, "lat": 38.9001745, "bike_id": "e51ec2d9bd0999b56ca6698b6ce39523", "name": "e51ec2d9bd0999b56ca6698b6ce39523", "is_reserved": 0, "fusion_lat": 0.0}, {"type": "electric_scooter", "rental_uris": {"ios": "https://dc.lft.to/lastmile_qr_scan", "android": "https://dc.lft.to/lastmile_qr_scan"}, "lon": -77.03888016666667, "fusion_lon": 0.0, "is_disabled": 0, "lat": 38.90252983333333, "bike_id": "e127944f43aca5cfc0f8126d9245863f", "name": "e127944f43aca5cfc0f8126d9245863f", "is_reserved": 0, "fusion_lat": 0.0}, {"type": "electric_scooter", "rental_uris": {"ios": "https://dc.lft.to/lastmile_qr_scan", "android": "https://dc.lft.to/lastmile_qr_scan"}, "lon": -77.03866366666666, "fusion_lon": 0.0, "is_disabled": 0, "lat": 38.9097505, "bike_id": "b0426e9240edf48a6b95ba09c896ccd4", "name": "b0426e9240edf48a6b95ba09c896ccd4", "is_reserved": 0, "fusion_lat": 0.0}, {"type": "electric_scooter", "rental_uris": {"ios": "https://dc.lft.to/lastmile_qr_scan", "android": "https://dc.lft.to/lastmile_qr_scan"}, "lon": -77.03508766666667, "fusion_lon": 0.0, "is_disabled": 0, "lat": 38.921529666666665, "bike_id": "3e6c3345acf18b0416d32b6d8404ebed", "name": "3e6c3345acf18b0416d32b6d8404ebed", "is_reserved": 0, "fusion_lat": 0.0}, {"type": "electric_scooter", "rental_uris": {"ios": "https://dc.lft.to/lastmile_qr_scan", "android": "https://dc.lft.to/lastmile_qr_scan"}, "lon": -77.07712233333334, "fusion_lon": 0.0, "is_disabled": 0, "lat": 38.9438535, "bike_id": "18d3b92b5cc7e1095dfb91264c7cb86d", "name": "18d3b92b5cc7e1095dfb91264c7cb86d", "is_reserved": 0, "fusion_lat": 0.0}, {"type": "electric_bike", "rental_uris": {"ios": "https://dc.lft.to/lastmile_qr_scan", "android": "https://dc.lft.to/lastmile_qr_scan"}, "lon": -77.039034, "fusion_lon": 0.0, "is_disabled": 0, "lat": 38.92222666666667, "bike_id": "5558445388bdf1968d56d90d4cf703dc", "name": "5558445388bdf1968d56d90d4cf703dc", "is_reserved": 0, "fusion_lat": 0.0}, {"type": "electric_scooter", "rental_uris": {"ios": "https://dc.lft.to/lastmile_qr_scan", "android": "https://dc.lft.to/lastmile_qr_scan"}, "lon": -77.02694633333333, "fusion_lon": 0.0, "is_disabled": 0, "lat": 38.90604183333333, "bike_id": "454a8db69c0841f6d19820cc01555327", "name": "454a8db69c0841f6d19820cc01555327", "is_reserved": 0, "fusion_lat": 0.0}, {"type": "electric_bike", "rental_uris": {"ios": "https://dc.lft.to/lastmile_qr_scan", "android": "https://dc.lft.to/lastmile_qr_scan"}, "lon": -77.049252, "fusion_lon": 0.0, "is_disabled": 0, "lat": 39.02931816666667, "bike_id": "d4766e46491e1357ce9ce6be53cbc400", "name": "d4766e46491e1357ce9ce6be53cbc400", "is_reserved": 0, "fusion_lat": 0.0}, {"type": "electric_scooter", "rental_uris": {"ios": "https://dc.lft.to/lastmile_qr_scan", "android": "https://dc.lft.to/lastmile_qr_scan"}, "lon": -77.02089183333334, "fusion_lon": 0.0, "is_disabled": 0, "lat": 38.931169833333335, "bike_id": "21b09782d8b347664de1040888363a69", "name": "21b09782d8b347664de1040888363a69", "is_reserved": 0, "fusion_lat": 0.0}, {"type": "electric_scooter", "rental_uris": {"ios": "https://dc.lft.to/lastmile_qr_scan", "android": "https://dc.lft.to/lastmile_qr_scan"}, "lon": -77.03242683333333, "fusion_lon": 0.0, "is_disabled": 0, "lat": 38.9293585, "bike_id": "b478a09837e1cbfb355d20e3ceda99df", "name": "b478a09837e1cbfb355d20e3ceda99df", "is_reserved": 0, "fusion_lat": 0.0}, {"type": "electric_scooter", "rental_uris": {"ios": "https://dc.lft.to/lastmile_qr_scan", "android": "https://dc.lft.to/lastmile_qr_scan"}, "lon": -77.03186816666667, "fusion_lon": 0.0, "is_disabled": 0, "lat": 38.917449, "bike_id": "8fedd955e67717a2a9a9de3e7b837134", "name": "8fedd955e67717a2a9a9de3e7b837134", "is_reserved": 0, "fusion_lat": 0.0}, {"type": "electric_scooter", "rental_uris": {"ios": "https://dc.lft.to/lastmile_qr_scan", "android": "https://dc.lft.to/lastmile_qr_scan"}, "lon": -77.036894, "fusion_lon": 0.0, "is_disabled": 0, "lat": 38.9167725, "bike_id": "cd9d81f8398408b883819515a5a00ec4", "name": "cd9d81f8398408b883819515a5a00ec4", "is_reserved": 0, "fusion_lat": 0.0}, {"type": "electric_scooter", "rental_uris": {"ios": "https://dc.lft.to/lastmile_qr_scan", "android": "https://dc.lft.to/lastmile_qr_scan"}, "lon": -77.042465, "fusion_lon": 0.0, "is_disabled": 0, "lat": 38.922216666666664, "bike_id": "9dce4e58ec657337bbae0aca83e244a8", "name": "9dce4e58ec657337bbae0aca83e244a8", "is_reserved": 0, "fusion_lat": 0.0}, {"type": "electric_scooter", "rental_uris": {"ios": "https://dc.lft.to/lastmile_qr_scan", "android": "https://dc.lft.to/lastmile_qr_scan"}, "lon": -76.9872655, "fusion_lon": 0.0, "is_disabled": 0, "lat": 38.867109, "bike_id": "288ce941a481cf36d32743f3b95937d4", "name": "288ce941a481cf36d32743f3b95937d4", "is_reserved": 0, "fusion_lat": 0.0}, {"type": "electric_scooter", "rental_uris": {"ios": "https://dc.lft.to/lastmile_qr_scan", "android": "https://dc.lft.to/lastmile_qr_scan"}, "lon": -77.02671866666667, "fusion_lon": 0.0, "is_disabled": 0, "lat": 38.917050333333336, "bike_id": "8e35f8532276443218eb0a065eaea3d0", "name": "8e35f8532276443218eb0a065eaea3d0", "is_reserved": 0, "fusion_lat": 0.0}, {"type": "electric_scooter", "rental_uris": {"ios": "https://dc.lft.to/lastmile_qr_scan", "android": "https://dc.lft.to/lastmile_qr_scan"}, "lon": -77.03161183333333, "fusion_lon": 0.0, "is_disabled": 0, "lat": 38.89768483333334, "bike_id": "778ab0c4ed01f9025a64f6a98b5b457f", "name": "778ab0c4ed01f9025a64f6a98b5b457f", "is_reserved": 0, "fusion_lat": 0.0}, {"type": "electric_scooter", "rental_uris": {"ios": "https://dc.lft.to/lastmile_qr_scan", "android": "https://dc.lft.to/lastmile_qr_scan"}, "lon": -77.03625466666666, "fusion_lon": 0.0, "is_disabled": 0, "lat": 38.9368395, "bike_id": "444c20589b64eeebe289f70ee276743a", "name": "444c20589b64eeebe289f70ee276743a", "is_reserved": 0, "fusion_lat": 0.0}, {"type": "electric_scooter", "rental_uris": {"ios": "https://dc.lft.to/lastmile_qr_scan", "android": "https://dc.lft.to/lastmile_qr_scan"}, "lon": -77.041952, "fusion_lon": 0.0, "is_disabled": 0, "lat": 38.9204685, "bike_id": "c6060cdb51b46f1fb2cf60d26c2126c8", "name": "c6060cdb51b46f1fb2cf60d26c2126c8", "is_reserved": 0, "fusion_lat": 0.0}, {"type": "electric_scooter", "rental_uris": {"ios": "https://dc.lft.to/lastmile_qr_scan", "android": "https://dc.lft.to/lastmile_qr_scan"}, "lon": -77.03171416666666, "fusion_lon": 0.0, "is_disabled": 0, "lat": 38.918698666666664, "bike_id": "0ea3e1edf8110ebd7d3556d0c4b6e8ca", "name": "0ea3e1edf8110ebd7d3556d0c4b6e8ca", "is_reserved": 0, "fusion_lat": 0.0}, {"type": "electric_scooter", "rental_uris": {"ios": "https://dc.lft.to/lastmile_qr_scan", "android": "https://dc.lft.to/lastmile_qr_scan"}, "lon": -77.03222433333333, "fusion_lon": 0.0, "is_disabled": 0, "lat": 38.892291, "bike_id": "d22ee93cb15c8e58ca4d76a3b93099a4", "name": "d22ee93cb15c8e58ca4d76a3b93099a4", "is_reserved": 0, "fusion_lat": 0.0}, {"type": "electric_scooter", "rental_uris": {"ios": "https://dc.lft.to/lastmile_qr_scan", "android": "https://dc.lft.to/lastmile_qr_scan"}, "lon": -77.031811, "fusion_lon": 0.0, "is_disabled": 0, "lat": 38.92121933333333, "bike_id": "e62b36b65cb3221f6ae691a20b60a69c", "name": "e62b36b65cb3221f6ae691a20b60a69c", "is_reserved": 0, "fusion_lat": 0.0}, {"type": "electric_scooter", "rental_uris": {"ios": "https://dc.lft.to/lastmile_qr_scan", "android": "https://dc.lft.to/lastmile_qr_scan"}, "lon": -77.03839583333334, "fusion_lon": 0.0, "is_disabled": 0, "lat": 38.911209, "bike_id": "49183dd115ff560165c12195be3f1298", "name": "49183dd115ff560165c12195be3f1298", "is_reserved": 0, "fusion_lat": 0.0}, {"type": "electric_scooter", "rental_uris": {"ios": "https://dc.lft.to/lastmile_qr_scan", "android": "https://dc.lft.to/lastmile_qr_scan"}, "lon": -77.03224666666667, "fusion_lon": 0.0, "is_disabled": 0, "lat": 38.89222016666667, "bike_id": "b6970dfc8fc1ca09a3370f7a1edf0230", "name": "b6970dfc8fc1ca09a3370f7a1edf0230", "is_reserved": 0, "fusion_lat": 0.0}, {"type": "electric_scooter", "rental_uris": {"ios": "https://dc.lft.to/lastmile_qr_scan", "android": "https://dc.lft.to/lastmile_qr_scan"}, "lon": -77.03167466666666, "fusion_lon": 0.0, "is_disabled": 0, "lat": 38.8922485, "bike_id": "e7537809e37ebc351eb86aa1b838a9c6", "name": "e7537809e37ebc351eb86aa1b838a9c6", "is_reserved": 0, "fusion_lat": 0.0}, {"type": "electric_scooter", "rental_uris": {"ios": "https://dc.lft.to/lastmile_qr_scan", "android": "https://dc.lft.to/lastmile_qr_scan"}, "lon": -77.04494733333334, "fusion_lon": 0.0, "is_disabled": 0, "lat": 38.907798166666666, "bike_id": "fe678562c93029da30a8ee19096d1fad", "name": "fe678562c93029da30a8ee19096d1fad", "is_reserved": 0, "fusion_lat": 0.0}, {"type": "electric_scooter", "rental_uris": {"ios": "https://dc.lft.to/lastmile_qr_scan", "android": "https://dc.lft.to/lastmile_qr_scan"}, "lon": -77.03414483333333, "fusion_lon": 0.0, "is_disabled": 0, "lat": 38.92743633333333, "bike_id": "2b7edc35365196db8c2dcc4a107673a2", "name": "2b7edc35365196db8c2dcc4a107673a2", "is_reserved": 0, "fusion_lat": 0.0}, {"type": "electric_scooter", "rental_uris": {"ios": "https://dc.lft.to/lastmile_qr_scan", "android": "https://dc.lft.to/lastmile_qr_scan"}, "lon": -76.99361816666666, "fusion_lon": 0.0, "is_disabled": 0, "lat": 38.9283765, "bike_id": "867a7cbcd9d15963007c8c5b770e3155", "name": "867a7cbcd9d15963007c8c5b770e3155", "is_reserved": 0, "fusion_lat": 0.0}, {"type": "electric_scooter", "rental_uris": {"ios": "https://dc.lft.to/lastmile_qr_scan", "android": "https://dc.lft.to/lastmile_qr_scan"}, "lon": -76.9793105, "fusion_lon": 0.0, "is_disabled": 0, "lat": 38.90495466666667, "bike_id": "79bb6252a81189fc72d1a49f51c24200", "name": "79bb6252a81189fc72d1a49f51c24200", "is_reserved": 0, "fusion_lat": 0.0}, {"type": "electric_scooter", "rental_uris": {"ios": "https://dc.lft.to/lastmile_qr_scan", "android": "https://dc.lft.to/lastmile_qr_scan"}, "lon": -77.013736, "fusion_lon": 0.0, "is_disabled": 0, "lat": 38.892244166666664, "bike_id": "37fec9e071ea92d56e38b3f00cf91bfd", "name": "37fec9e071ea92d56e38b3f00cf91bfd", "is_reserved": 0, "fusion_lat": 0.0}, {"type": "electric_scooter", "rental_uris": {"ios": "https://dc.lft.to/lastmile_qr_scan", "android": "https://dc.lft.to/lastmile_qr_scan"}, "lon": -77.0362575, "fusion_lon": 0.0, "is_disabled": 0, "lat": 38.93682066666667, "bike_id": "8da3b9f009cee6a20871ac87c7de3b37", "name": "8da3b9f009cee6a20871ac87c7de3b37", "is_reserved": 0, "fusion_lat": 0.0}, {"type": "electric_scooter", "rental_uris": {"ios": "https://dc.lft.to/lastmile_qr_scan", "android": "https://dc.lft.to/lastmile_qr_scan"}, "lon": -76.97020433333333, "fusion_lon": 0.0, "is_disabled": 0, "lat": 38.9203325, "bike_id": "7766ed48020fc48af6ef81a85727e9b5", "name": "7766ed48020fc48af6ef81a85727e9b5", "is_reserved": 0, "fusion_lat": 0.0}, {"type": "electric_scooter", "rental_uris": {"ios": "https://dc.lft.to/lastmile_qr_scan", "android": "https://dc.lft.to/lastmile_qr_scan"}, "lon": -77.0222325, "fusion_lon": 0.0, "is_disabled": 0, "lat": 38.89224466666667, "bike_id": "f0e8f2e2554049c80d145bf41dee0eb8", "name": "f0e8f2e2554049c80d145bf41dee0eb8", "is_reserved": 0, "fusion_lat": 0.0}, {"type": "electric_scooter", "rental_uris": {"ios": "https://dc.lft.to/lastmile_qr_scan", "android": "https://dc.lft.to/lastmile_qr_scan"},