{"data": {"bikes": [{"bike_id": "7f248f28cb4b011766bbe5a835c0ea24", "type": "electric_scooter", "is_disabled": 0, "lat": 38.9020055, "rental_uris": {"ios": "https://dc.lft.to/lastmile_qr_scan", "android": "https://dc.lft.to/lastmile_qr_scan"}, "is_reserved": 0, "fusion_lon": 0.0, "fusion_lat": 0.0, "lon": -77.01310083333334, "name": "7f248f28cb4b011766bbe5a835c0ea24"}, {"bike_id": "ff245e0534e7c61804e58c9b198f4ac1", "type": "electric_scooter", "is_disabled": 0, "lat": 38.900522, "rental_uris": {"ios": "https://dc.lft.to/lastmile_qr_scan", "android": "https://dc.lft.to/lastmile_qr_scan"}, "is_reserved": 0, "fusion_lon": 0.0, "fusion_lat": 0.0, "lon": -77.01785766666667, "name": "ff245e0534e7c61804e58c9b198f4ac1"}, {"bike_id": "d7d75074084f79f73fdc7ddab83ceda9", "type": "electric_scooter", "is_disabled": 0, "lat": 38.905125, "rental_uris": {"ios": "https://dc.lft.to/lastmile_qr_scan", "android": "https://dc.lft.to/lastmile_qr_scan"}, "is_reserved": 0, "fusion_lon": 0.0, "fusion_lat": 0.0, "lon": -77.02977366666667, "name": "d7d75074084f79f73fdc7ddab83ceda9"}, {"bike_id": "86c5e4e70bdc0d78cc1bcda16f5ac2e5", "type": "electric_scooter", "is_disabled": 0, "lat": 38.93081333333333, "rental_uris": {"ios": "https://dc.lft.to/lastmile_qr_scan", "android": "https://dc.lft.to/lastmile_qr_scan"}, "is_reserved": 0, "fusion_lon": 0.0, "fusion_lat": 0.0, "lon": -77.0279615, "name": "86c5e4e70bdc0d78cc1bcda16f5ac2e5"}, {"bike_id": "bd36a537adc5a4ce47af73b35d2f4063", "type": "electric_scooter", "is_disabled": 0, "lat": 38.918858666666665, "rental_uris": {"ios": "https://dc.lft.to/lastmile_qr_scan", "android": "https://dc.lft.to/lastmile_qr_scan"}, "is_reserved": 0, "fusion_lon": 0.0, "fusion_lat": 0.0, "lon": -77.01453816666667, "name": "bd36a537adc5a4ce47af73b35d2f4063"}, {"bike_id": "33b766e4aabab167177179ef481330c6", "type": "electric_bike", "is_disabled": 0, "lat": 39.01477283333333, "rental_uris": {"ios": "https://dc.lft.to/lastmile_qr_scan", "android": "https://dc.lft.to/lastmile_qr_scan"}, "is_reserved": 0, "fusion_lon": 0.0, "fusion_lat": 0.0, "lon": -77.05495133333334, "name": "33b766e4aabab167177179ef481330c6"}, {"bike_id": "ff8bfd31d0d5057d35bbeb7a9d97253e", "type": "electric_scooter", "is_disabled": 0, "lat": 38.910813833333336, "rental_uris": {"ios": "https://dc.lft.to/lastmile_qr_scan", "android": "https://dc.lft.to/lastmile_qr_scan"}, "is_reserved": 0, "fusion_lon": 0.0, "fusion_lat": 0.0, "lon": -77.01511933333333, "name": "ff8bfd31d0d5057d35bbeb7a9d97253e"}, {"bike_id": "8e85594e1fa15f743994b61aaf3c38e8", "type": "electric_scooter", "is_disabled": 0, "lat": 38.928747333333334, "rental_uris": {"ios": "https://dc.lft.to/lastmile_qr_scan", "android": "https://dc.lft.to/lastmile_qr_scan"}, "is_reserved": 0, "fusion_lon": 0.0, "fusion_lat": 0.0, "lon": -77.012315, "name": "8e85594e1fa15f743994b61aaf3c38e8"}, {"bike_id": "f5e8485bbba8b3e06a707bbedc3d88d0", "type": "electric_scooter", "is_disabled": 0, "lat": 38.90276, "rental_uris": {"ios": "https://dc.lft.to/lastmile_qr_scan", "android": "https://dc.lft.to/lastmile_qr_scan"}, "is_reserved": 0, "fusion_lon": 0.0, "fusion_lat": 0.0, "lon": -77.0384785, "name": "f5e8485bbba8b3e06a707bbedc3d88d0"}, {"bike_id": "4b2e375f84f66c0c431c6eff55faaf56", "type": "electric_scooter", "is_disabled": 0, "lat": 38.89253383333333, "rental_uris": {"ios": "https://dc.lft.to/lastmile_qr_scan", "android": "https://dc.lft.to/lastmile_qr_scan"}, "is_reserved": 0, "fusion_lon": 0.0, "fusion_lat": 0.0, "lon": -77.0466915, "name": "4b2e375f84f66c0c431c6eff55faaf56"}, {"bike_id": "6766de8e516d786facd1abeef19d48d5", "type": "electric_bike", "is_disabled": 0, "lat": 38.948066, "rental_uris": {"ios": "https://dc.lft.to/lastmile_qr_scan", "android": "https://dc.lft.to/lastmile_qr_scan"}, "is_reserved": 0, "fusion_lon": 0.0, "fusion_lat": 0.0, "lon": -76.9611065, "name": "6766de8e516d786facd1abeef19d48d5"}, {"bike_id": "a1c2fb46e41d3561b531f72c87993e50", "type": "electric_scooter", "is_disabled": 0, "lat": 38.9060375, "rental_uris": {"ios": "https://dc.lft.to/lastmile_qr_scan", "android": "https://dc.lft.to/lastmile_qr_scan"}, "is_reserved": 0, "fusion_lon": 0.0, "fusion_lat": 0.0, "lon": -77.04123833333334, "name": "a1c2fb46e41d3561b531f72c87993e50"}, {"bike_id": "4d299bd6fa4ec33b5dd6765ce21b4d26", "type": "electric_scooter", "is_disabled": 0, "lat": 38.9003485, "rental_uris": {"ios": "https://dc.lft.to/lastmile_qr_scan", "android": "https://dc.lft.to/lastmile_qr_scan"}, "is_reserved": 0, "fusion_lon": 0.0, "fusion_lat": 0.0, "lon": -77.03515533333334, "name": "4d299bd6fa4ec33b5dd6765ce21b4d26"}, {"bike_id": "3fe43653dbb37698cb0e0d6c6eb71ee3", "type": "electric_scooter", "is_disabled": 0, "lat": 38.9220055, "rental_uris": {"ios": "https://dc.lft.to/lastmile_qr_scan", "android": "https://dc.lft.to/lastmile_qr_scan"}, "is_reserved": 0, "fusion_lon": 0.0, "fusion_lat": 0.0, "lon": -77.03895533333333, "name": "3fe43653dbb37698cb0e0d6c6eb71ee3"}, {"bike_id": "850e77879cea3ae217e86786b4979262", "type": "electric_scooter", "is_disabled": 0, "lat": 38.901736, "rental_uris": {"ios": "https://dc.lft.to/lastmile_qr_scan", "android": "https://dc.lft.to/lastmile_qr_scan"}, "is_reserved": 0, "fusion_lon": 0.0, "fusion_lat": 0.0, "lon": -77.02478033333334, "name": "850e77879cea3ae217e86786b4979262"}, {"bike_id": "85306c761567573c45dda0f1a51fe0c9", "type": "electric_scooter", "is_disabled": 0, "lat": 38.929711833333336, "rental_uris": {"ios": "https://dc.lft.to/lastmile_qr_scan", "android": "https://dc.lft.to/lastmile_qr_scan"}, "is_reserved": 0, "fusion_lon": 0.0, "fusion_lat": 0.0, "lon": -77.01687316666667, "name": "85306c761567573c45dda0f1a51fe0c9"}, {"bike_id": "42b68a45282754a5a6c68d6c3b2d443c", "type": "electric_scooter", "is_disabled": 0, "lat": 38.905778833333336, "rental_uris": {"ios": "https://dc.lft.to/lastmile_qr_scan", "android": "https://dc.lft.to/lastmile_qr_scan"}, "is_reserved": 0, "fusion_lon": 0.0, "fusion_lat": 0.0, "lon": -77.03028516666667, "name": "42b68a45282754a5a6c68d6c3b2d443c"}, {"bike_id": "ee7a9b093716a6c2fe2a125ce274f592", "type": "electric_scooter", "is_disabled": 0, "lat": 38.932317833333336, "rental_uris": {"ios": "https://dc.lft.to/lastmile_qr_scan", "android": "https://dc.lft.to/lastmile_qr_scan"}, "is_reserved": 0, "fusion_lon": 0.0, "fusion_lat": 0.0, "lon": -77.03392666666667, "name": "ee7a9b093716a6c2fe2a125ce274f592"}, {"bike_id": "18791a2d59cec48cc8a9bf3bf42874f3", "type": "electric_scooter", "is_disabled": 0, "lat": 38.910383, "rental_uris": {"ios": "https://dc.lft.to/lastmile_qr_scan", "android": "https://dc.lft.to/lastmile_qr_scan"}, "is_reserved": 0, "fusion_lon": 0.0, "fusion_lat": 0.0, "lon": -77.03824783333333, "name": "18791a2d59cec48cc8a9bf3bf42874f3"}, {"bike_id": "0128c82b54aeb72e7d55c97632b37642", "type": "electric_scooter", "is_disabled": 0, "lat": 38.934607166666666, "rental_uris": {"ios": "https://dc.lft.to/lastmile_qr_scan", "android": "https://dc.lft.to/lastmile_qr_scan"}, "is_reserved": 0, "fusion_lon": 0.0, "fusion_lat": 0.0, "lon": -77.03040733333333, "name": "0128c82b54aeb72e7d55c97632b37642"}, {"bike_id": "ecc90a10fb13eb2138769c47170d43ce", "type": "electric_scooter", "is_disabled": 0, "lat": 38.935315333333335, "rental_uris": {"ios": "https://dc.lft.to/lastmile_qr_scan", "android": "https://dc.lft.to/lastmile_qr_scan"}, "is_reserved": 0, "fusion_lon": 0.0, "fusion_lat": 0.0, "lon": -77.02352933333333, "name": "ecc90a10fb13eb2138769c47170d43ce"}, {"bike_id": "5a9abb32d7d6ddb07df4e49719d52add", "type": "electric_scooter", "is_disabled": 0, "lat": 38.920548, "rental_uris": {"ios": "https://dc.lft.to/lastmile_qr_scan", "android": "https://dc.lft.to/lastmile_qr_scan"}, "is_reserved": 0, "fusion_lon": 0.0, "fusion_lat": 0.0, "lon": -77.03464433333333, "name": "5a9abb32d7d6ddb07df4e49719d52add"}, {"bike_id": "4f241496a27f3f2b4ec78d5c58e430cd", "type": "electric_scooter", "is_disabled": 0, "lat": 38.8966605, "rental_uris": {"ios": "https://dc.lft.to/lastmile_qr_scan", "android": "https://dc.lft.to/lastmile_qr_scan"}, "is_reserved": 0, "fusion_lon": 0.0, "fusion_lat": 0.0, "lon": -76.9881105, "name": "4f241496a27f3f2b4ec78d5c58e430cd"}, {"bike_id": "a8b0d98d116337c55ed6dfe91a4accf9", "type": "electric_scooter", "is_disabled": 0, "lat": 38.92055783333333, "rental_uris": {"ios": "https://dc.lft.to/lastmile_qr_scan", "android": "https://dc.lft.to/lastmile_qr_scan"}, "is_reserved": 0, "fusion_lon": 0.0, "fusion_lat": 0.0, "lon": -77.0237575, "name": "a8b0d98d116337c55ed6dfe91a4accf9"}, {"bike_id": "344d3694bc3b968f14554dc5ba11e8b2", "type": "electric_scooter", "is_disabled": 0, "lat": 38.91283283333333, "rental_uris": {"ios": "https://dc.lft.to/lastmile_qr_scan", "android": "https://dc.lft.to/lastmile_qr_scan"}, "is_reserved": 0, "fusion_lon": 0.0, "fusion_lat": 0.0, "lon": -77.02714283333333, "name": "344d3694bc3b968f14554dc5ba11e8b2"}, {"bike_id": "157a998bca392de0637202b2b5ca5572", "type": "electric_scooter", "is_disabled": 0, "lat": 38.913608333333336, "rental_uris": {"ios": "https://dc.lft.to/lastmile_qr_scan", "android": "https://dc.lft.to/lastmile_qr_scan"}, "is_reserved": 0, "fusion_lon": 0.0, "fusion_lat": 0.0, "lon": -77.04491716666666, "name": "157a998bca392de0637202b2b5ca5572"}, {"bike_id": "06663cd65f8c96f8d8fd99d4b43d94d8", "type": "electric_scooter", "is_disabled": 0, "lat": 38.897327, "rental_uris": {"ios": "https://dc.lft.to/lastmile_qr_scan", "android": "https://dc.lft.to/lastmile_qr_scan"}, "is_reserved": 0, "fusion_lon": 0.0, "fusion_lat": 0.0, "lon": -77.03358883333334, "name": "06663cd65f8c96f8d8fd99d4b43d94d8"}, {"bike_id": "70855ed31f2009ff1ffae14eb87fc7fa", "type": "electric_scooter", "is_disabled": 0, "lat": 38.8812135, "rental_uris": {"ios": "https://dc.lft.to/lastmile_qr_scan", "android": "https://dc.lft.to/lastmile_qr_scan"}, "is_reserved": 0, "fusion_lon": 0.0, "fusion_lat": 0.0, "lon": -77.01661133333333, "name": "70855ed31f2009ff1ffae14eb87fc7fa"}, {"bike_id": "65ff21588474f80994a1d5df1c1eeb87", "type": "electric_scooter", "is_disabled": 0, "lat": 38.87073933333333, "rental_uris": {"ios": "https://dc.lft.to/lastmile_qr_scan", "android": "https://dc.lft.to/lastmile_qr_scan"}, "is_reserved": 0, "fusion_lon": 0.0, "fusion_lat": 0.0, "lon": -76.98910566666666, "name": "65ff21588474f80994a1d5df1c1eeb87"}, {"bike_id": "3bcaa0d5a4b522504c34de67dfe19e81", "type": "electric_scooter", "is_disabled": 0, "lat": 38.92089333333333, "rental_uris": {"ios": "https://dc.lft.to/lastmile_qr_scan", "android": "https://dc.lft.to/lastmile_qr_scan"}, "is_reserved": 0, "fusion_lon": 0.0, "fusion_lat": 0.0, "lon": -77.02534116666666, "name": "3bcaa0d5a4b522504c34de67dfe19e81"}, {"bike_id": "5274eb37ec5d6a45ba16cf7a9795816f", "type": "electric_scooter", "is_disabled": 0, "lat": 38.91646683333333, "rental_uris": {"ios": "https://dc.lft.to/lastmile_qr_scan", "android": "https://dc.lft.to/lastmile_qr_scan"}, "is_reserved": 0, "fusion_lon": 0.0, "fusion_lat": 0.0, "lon": -77.04657216666666, "name": "5274eb37ec5d6a45ba16cf7a9795816f"}, {"bike_id": "e7986a1c3355cf196a0ab12883da820b", "type": "electric_scooter", "is_disabled": 0, "lat": 38.90680116666667, "rental_uris": {"ios": "https://dc.lft.to/lastmile_qr_scan", "android": "https://dc.lft.to/lastmile_qr_scan"}, "is_reserved": 0, "fusion_lon": 0.0, "fusion_lat": 0.0, "lon": -77.07158433333333, "name": "e7986a1c3355cf196a0ab12883da820b"}, {"bike_id": "d4d6e829cc1170298eca7e2315d35375", "type": "electric_scooter", "is_disabled": 0, "lat": 38.900360666666664, "rental_uris": {"ios": "https://dc.lft.to/lastmile_qr_scan", "android": "https://dc.lft.to/lastmile_qr_scan"}, "is_reserved": 0, "fusion_lon": 0.0, "fusion_lat": 0.0, "lon": -77.00099333333333, "name": "d4d6e829cc1170298eca7e2315d35375"}, {"bike_id": "d9e00f9094e88c3255b3d22fc1acfd12", "type": "electric_scooter", "is_disabled": 0, "lat": 38.907315, "rental_uris": {"ios": "https://dc.lft.to/lastmile_qr_scan", "android": "https://dc.lft.to/lastmile_qr_scan"}, "is_reserved": 0, "fusion_lon": 0.0, "fusion_lat": 0.0, "lon": -77.0451055, "name": "d9e00f9094e88c3255b3d22fc1acfd12"}, {"bike_id": "1edee42459d29a636bf3e71eb6f2a949", "type": "electric_scooter", "is_disabled": 0, "lat": 38.90304416666667, "rental_uris": {"ios": "https://dc.lft.to/lastmile_qr_scan", "android": "https://dc.lft.to/lastmile_qr_scan"}, "is_reserved": 0, "fusion_lon": 0.0, "fusion_lat": 0.0, "lon": -76.9835655, "name": "1edee42459d29a636bf3e71eb6f2a949"}, {"bike_id": "9355e5a3ab0a5396c7c53d12101f08c4", "type": "electric_scooter", "is_disabled": 0, "lat": 38.888831333333336, "rental_uris": {"ios": "https://dc.lft.to/lastmile_qr_scan", "android": "https://dc.lft.to/lastmile_qr_scan"}, "is_reserved": 0, "fusion_lon": 0.0, "fusion_lat": 0.0, "lon": -76.94778716666667, "name": "9355e5a3ab0a5396c7c53d12101f08c4"}, {"bike_id": "facde7865f0e754d0f478eb179cbd6c3", "type": "electric_scooter", "is_disabled": 0, "lat": 38.90494116666667, "rental_uris": {"ios": "https://dc.lft.to/lastmile_qr_scan", "android": "https://dc.lft.to/lastmile_qr_scan"}, "is_reserved": 0, "fusion_lon": 0.0, "fusion_lat": 0.0, "lon": -77.02586333333333, "name": "facde7865f0e754d0f478eb179cbd6c3"}, {"bike_id": "4ebb3350029bf3a3b364df24545ea9d4", "type": "electric_scooter", "is_disabled": 0, "lat": 38.9057305, "rental_uris": {"ios": "https://dc.lft.to/lastmile_qr_scan", "android": "https://dc.lft.to/lastmile_qr_scan"}, "is_reserved": 0, "fusion_lon": 0.0, "fusion_lat": 0.0, "lon": -77.016371, "name": "4ebb3350029bf3a3b364df24545ea9d4"}, {"bike_id": "45d72ca4fcd4e502b9f26e0d2b6a4b1f", "type": "electric_scooter", "is_disabled": 0, "lat": 38.88392066666667, "rental_uris": {"ios": "https://dc.lft.to/lastmile_qr_scan", "android": "https://dc.lft.to/lastmile_qr_scan"}, "is_reserved": 0, "fusion_lon": 0.0, "fusion_lat": 0.0, "lon": -76.95451133333333, "name": "45d72ca4fcd4e502b9f26e0d2b6a4b1f"}, {"bike_id": "cc5628642e9fdfd104d9a2b072fd31a1", "type": "electric_scooter", "is_disabled": 0, "lat": 38.9000745, "rental_uris": {"ios": "https://dc.lft.to/lastmile_qr_scan", "android": "https://dc.lft.to/lastmile_qr_scan"}, "is_reserved": 0, "fusion_lon": 0.0, "fusion_lat": 0.0, "lon": -77.011959, "name": "cc5628642e9fdfd104d9a2b072fd31a1"}, {"bike_id": "2fba0b2658381a50fc9cf244da16548d", "type": "electric_scooter", "is_disabled": 0, "lat": 38.90357916666667, "rental_uris": {"ios": "https://dc.lft.to/lastmile_qr_scan", "android": "https://dc.lft.to/lastmile_qr_scan"}, "is_reserved": 0, "fusion_lon": 0.0, "fusion_lat": 0.0, "lon": -77.02714133333333, "name": "2fba0b2658381a50fc9cf244da16548d"}, {"bike_id": "05df8f9a0a917af8394a62712afdc4fc", "type": "electric_scooter", "is_disabled": 0, "lat": 38.924561833333335, "rental_uris": {"ios": "https://dc.lft.to/lastmile_qr_scan", "android": "https://dc.lft.to/lastmile_qr_scan"}, "is_reserved": 0, "fusion_lon": 0.0, "fusion_lat": 0.0, "lon": -77.03342683333334, "name": "05df8f9a0a917af8394a62712afdc4fc"}, {"bike_id": "32d12648b3a701c24c30941a0a5f3a02", "type": "electric_bike", "is_disabled": 0, "lat": 38.79606183333333, "rental_uris": {"ios": "https://dc.lft.to/lastmile_qr_scan", "android": "https://dc.lft.to/lastmile_qr_scan"}, "is_reserved": 0, "fusion_lon": 0.0, "fusion_lat": 0.0, "lon": -76.99738933333333, "name": "32d12648b3a701c24c30941a0a5f3a02"}, {"bike_id": "31f83fd985e5385609918d07a66bcfc9", "type": "electric_scooter", "is_disabled": 0, "lat": 38.88679033333333, "rental_uris": {"ios": "https://dc.lft.to/lastmile_qr_scan", "android": "https://dc.lft.to/lastmile_qr_scan"}, "is_reserved": 0, "fusion_lon": 0.0, "fusion_lat": 0.0, "lon": -76.991471, "name": "31f83fd985e5385609918d07a66bcfc9"}, {"bike_id": "866eda8b903987aa129780e363508130", "type": "electric_scooter", "is_disabled": 0, "lat": 38.927528833333334, "rental_uris": {"ios": "https://dc.lft.to/lastmile_qr_scan", "android": "https://dc.lft.to/lastmile_qr_scan"}, "is_reserved": 0, "fusion_lon": 0.0, "fusion_lat": 0.0, "lon": -77.032714, "name": "866eda8b903987aa129780e363508130"}, {"bike_id": "950d11301f2ac72cc3c631e4ec01ce31", "type": "electric_scooter", "is_disabled": 0, "lat": 38.921021, "rental_uris": {"ios": "https://dc.lft.to/lastmile_qr_scan", "android": "https://dc.lft.to/lastmile_qr_scan"}, "is_reserved": 0, "fusion_lon": 0.0, "fusion_lat": 0.0, "lon": -77.02699, "name": "950d11301f2ac72cc3c631e4ec01ce31"}, {"bike_id": "f9fdf959f10a57abc66a931c3b353bdc", "type": "electric_scooter", "is_disabled": 0, "lat": 38.884954666666665, "rental_uris": {"ios": "https://dc.lft.to/lastmile_qr_scan", "android": "https://dc.lft.to/lastmile_qr_scan"}, "is_reserved": 0, "fusion_lon": 0.0, "fusion_lat": 0.0, "lon": -77.01718333333334, "name": "f9fdf959f10a57abc66a931c3b353bdc"}, {"bike_id": "3394229e04cde274bd9bdff7e3d755a1", "type": "electric_scooter", "is_disabled": 0, "lat": 38.8898815, "rental_uris": {"ios": "https://dc.lft.to/lastmile_qr_scan", "android": "https://dc.lft.to/lastmile_qr_scan"}, "is_reserved": 0, "fusion_lon": 0.0, "fusion_lat": 0.0, "lon": -77.0003315, "name": "3394229e04cde274bd9bdff7e3d755a1"}, {"bike_id": "5ddd6a449e99927bf301904f7a027c59", "type": "electric_bike", "is_disabled": 0, "lat": 38.853523833333334, "rental_uris": {"ios": "https://dc.lft.to/lastmile_qr_scan", "android": "https://dc.lft.to/lastmile_qr_scan"}, "is_reserved": 0, "fusion_lon": 0.0, "fusion_lat": 0.0, "lon": -77.08688483333333, "name": "5ddd6a449e99927bf301904f7a027c59"}, {"bike_id": "f0e0c1b6f9e09d6f95cafc87bd2ed9d3", "type": "electric_bike", "is_disabled": 0, "lat": 38.965049, "rental_uris": {"ios": "https://dc.lft.to/lastmile_qr_scan", "android": "https://dc.lft.to/lastmile_qr_scan"}, "is_reserved": 0, "fusion_lon": 0.0, "fusion_lat": 0.0, "lon": -77.02821933333334, "name": "f0e0c1b6f9e09d6f95cafc87bd2ed9d3"}, {"bike_id": "9c21cc2b8db61d8ce06882d027a4344b", "type": "electric_scooter", "is_disabled": 0, "lat": 38.91914, "rental_uris": {"ios": "https://dc.lft.to/lastmile_qr_scan", "android": "https://dc.lft.to/lastmile_qr_scan"}, "is_reserved": 0, "fusion_lon": 0.0, "fusion_lat": 0.0, "lon": -77.03419566666666, "name": "9c21cc2b8db61d8ce06882d027a4344b"}, {"bike_id": "033612ad275b6109fe8a8d028f962aba", "type": "electric_scooter", "is_disabled": 0, "lat": 38.8986975, "rental_uris": {"ios": "https://dc.lft.to/lastmile_qr_scan", "android": "https://dc.lft.to/lastmile_qr_scan"}, "is_reserved": 0, "fusion_lon": 0.0, "fusion_lat": 0.0, "lon": -76.946633, "name": "033612ad275b6109fe8a8d028f962aba"}, {"bike_id": "f817609a7952756978bc54a23918083d", "type": "electric_scooter", "is_disabled": 0, "lat": 38.86506583333333, "rental_uris": {"ios": "https://dc.lft.to/lastmile_qr_scan", "android": "https://dc.lft.to/lastmile_qr_scan"}, "is_reserved": 0, "fusion_lon": 0.0, "fusion_lat": 0.0, "lon": -76.99004483333333, "name": "f817609a7952756978bc54a23918083d"}, {"bike_id": "791a6f70a78c202a1e6df7efef6425b4", "type": "electric_scooter", "is_disabled": 0, "lat": 38.9104715, "rental_uris": {"ios": "https://dc.lft.to/lastmile_qr_scan", "android": "https://dc.lft.to/lastmile_qr_scan"}, "is_reserved": 0, "fusion_lon": 0.0, "fusion_lat": 0.0, "lon": -77.02185733333333, "name": "791a6f70a78c202a1e6df7efef6425b4"}, {"bike_id": "46f5d98af5a47201b427d72b4a62f912", "type": "electric_scooter", "is_disabled": 0, "lat": 38.915668, "rental_uris": {"ios": "https://dc.lft.to/lastmile_qr_scan", "android": "https://dc.lft.to/lastmile_qr_scan"}, "is_reserved": 0, "fusion_lon": 0.0, "fusion_lat": 0.0, "lon": -77.0314005, "name": "46f5d98af5a47201b427d72b4a62f912"}, {"bike_id": "cf4e4d05b1640381eefcce68aa98c1fb", "type": "electric_scooter", "is_disabled": 0, "lat": 38.92392733333333, "rental_uris": {"ios": "https://dc.lft.to/lastmile_qr_scan", "android": "https://dc.lft.to/lastmile_qr_scan"}, "is_reserved": 0, "fusion_lon": 0.0, "fusion_lat": 0.0, "lon": -77.02494066666667, "name": "cf4e4d05b1640381eefcce68aa98c1fb"}, {"bike_id": "71926bde2ec2d0f64cf3ce35e5a3a42e", "type": "electric_scooter", "is_disabled": 0, "lat": 38.90734583333333, "rental_uris": {"ios": "https://dc.lft.to/lastmile_qr_scan", "android": "https://dc.lft.to/lastmile_qr_scan"}, "is_reserved": 0, "fusion_lon": 0.0, "fusion_lat": 0.0, "lon": -76.97968983333334, "name": "71926bde2ec2d0f64cf3ce35e5a3a42e"}, {"bike_id": "b93f380b40cadd29e32f4cfafa5052e2", "type": "electric_scooter", "is_disabled": 0, "lat": 38.831547, "rental_uris": {"ios": "https://dc.lft.to/lastmile_qr_scan", "android": "https://dc.lft.to/lastmile_qr_scan"}, "is_reserved": 0, "fusion_lon": 0.0, "fusion_lat": 0.0, "lon": -77.05128116666667, "name": "b93f380b40cadd29e32f4cfafa5052e2"}, {"bike_id": "5e40f78af9e0e098596d7ada63d0522c", "type": "electric_scooter", "is_disabled": 0, "lat": 38.917855333333335, "rental_uris": {"ios": "https://dc.lft.to/lastmile_qr_scan", "android": "https://dc.lft.to/lastmile_qr_scan"}, "is_reserved": 0, "fusion_lon": 0.0, "fusion_lat": 0.0, "lon": -77.02307383333333, "name": "5e40f78af9e0e098596d7ada63d0522c"}, {"bike_id": "9db6e091774b3152a2017d55e9baac97", "type": "electric_scooter", "is_disabled": 0, "lat": 38.907523166666664, "rental_uris": {"ios": "https://dc.lft.to/lastmile_qr_scan", "android": "https://dc.lft.to/lastmile_qr_scan"}, "is_reserved": 0, "fusion_lon": 0.0, "fusion_lat": 0.0, "lon": -77.031963, "name": "9db6e091774b3152a2017d55e9baac97"}, {"bike_id": "82fa0ca52d91b43a177ec9d13ae84673", "type": "electric_scooter", "is_disabled": 0, "lat": 38.917546333333334, "rental_uris": {"ios": "https://dc.lft.to/lastmile_qr_scan", "android": "https://dc.lft.to/lastmile_qr_scan"}, "is_reserved": 0, "fusion_lon": 0.0, "fusion_lat": 0.0, "lon": -77.0343795, "name": "82fa0ca52d91b43a177ec9d13ae84673"}, {"bike_id": "5c1ffffb79ebd5c4b559f819d20aeac7", "type": "electric_scooter", "is_disabled": 0, "lat": 38.906988, "rental_uris": {"ios": "https://dc.lft.to/lastmile_qr_scan", "android": "https://dc.lft.to/lastmile_qr_scan"}, "is_reserved": 0, "fusion_lon": 0.0, "fusion_lat": 0.0, "lon": -77.034509, "name": "5c1ffffb79ebd5c4b559f819d20aeac7"}, {"bike_id": "44a63424bff987eee9a81e006721266e", "type": "electric_bike", "is_disabled": 0, "lat": 38.80118933333333, "rental_uris": {"ios": "https://dc.lft.to/lastmile_qr_scan", "android": "https://dc.lft.to/lastmile_qr_scan"}, "is_reserved": 0, "fusion_lon": 0.0, "fusion_lat": 0.0, "lon": -77.0704805, "name": "44a63424bff987eee9a81e006721266e"}, {"bike_id": "e1dcf35373bea73b61eaa79d3a25ad9d", "type": "electric_scooter", "is_disabled": 0, "lat": 38.867298, "rental_uris": {"ios": "https://dc.lft.to/lastmile_qr_scan", "android": "https://dc.lft.to/lastmile_qr_scan"}, "is_reserved": 0, "fusion_lon": 0.0, "fusion_lat": 0.0, "lon": -76.978606, "name": "e1dcf35373bea73b61eaa79d3a25ad9d"}, {"bike_id": "c7a775b4dbe9a425b011b26d4aa4ea87", "type": "electric_scooter", "is_disabled": 0, "lat": 38.9565925, "rental_uris": {"ios": "https://dc.lft.to/lastmile_qr_scan", "android": "https://dc.lft.to/lastmile_qr_scan"}, "is_reserved": 0, "fusion_lon": 0.0, "fusion_lat": 0.0, "lon": -77.0240275, "name": "c7a775b4dbe9a425b011b26d4aa4ea87"}, {"bike_id": "e6362ca22a637f6d8d731d5abdbba47e", "type": "electric_scooter", "is_disabled": 0, "lat": 38.90538133333333, "rental_uris": {"ios": "https://dc.lft.to/lastmile_qr_scan", "android": "https://dc.lft.to/lastmile_qr_scan"}, "is_reserved": 0, "fusion_lon": 0.0, "fusion_lat": 0.0, "lon": -76.98111933333334, "name": "e6362ca22a637f6d8d731d5abdbba47e"}, {"bike_id": "472fce0a67199cae2ca89c09608debfa", "type": "electric_scooter", "is_disabled": 0, "lat": 38.89766266666667, "rental_uris": {"ios": "https://dc.lft.to/lastmile_qr_scan", "android": "https://dc.lft.to/lastmile_qr_scan"}, "is_reserved": 0, "fusion_lon": 0.0, "fusion_lat": 0.0, "lon": -76.9257575, "name": "472fce0a67199cae2ca89c09608debfa"}, {"bike_id": "83730a30a8b3e8924da726a8e06a05ad", "type": "electric_scooter", "is_disabled": 0, "lat": 38.867737166666664, "rental_uris": {"ios": "https://dc.lft.to/lastmile_qr_scan", "android": "https://dc.lft.to/lastmile_qr_scan"}, "is_reserved": 0, "fusion_lon": 0.0, "fusion_lat": 0.0, "lon": -76.988438, "name": "83730a30a8b3e8924da726a8e06a05ad"}, {"bike_id": "28959945050e7766e16c7fa6d5349f2e", "type": "electric_scooter", "is_disabled": 0, "lat": 38.8624195, "rental_uris": {"ios": "https://dc.lft.to/lastmile_qr_scan", "android": "https://dc.lft.to/lastmile_qr_scan"}, "is_reserved": 0, "fusion_lon": 0.0, "fusion_lat": 0.0, "lon": -76.994916, "name": "28959945050e7766e16c7fa6d5349f2e"}, {"bike_id": "00924b2ebbe0b54a37a6086bd496b277", "type": "electric_scooter", "is_disabled": 0, "lat": 38.90715766666667, "rental_uris": {"ios": "https://dc.lft.to/lastmile_qr_scan", "android": "https://dc.lft.to/lastmile_qr_scan"}, "is_reserved": 0, "fusion_lon": 0.0, "fusion_lat": 0.0, "lon": -77.04800316666666, "name": "00924b2ebbe0b54a37a6086bd496b277"}, {"bike_id": "7997c947ccd7b0d63db0dc216ea94eba", "type": "electric_scooter", "is_disabled": 0, "lat": 38.89259966666667, "rental_uris": {"ios": "https://dc.lft.to/lastmile_qr_scan", "android": "https://dc.lft.to/lastmile_qr_scan"}, "is_reserved": 0, "fusion_lon": 0.0, "fusion_lat": 0.0, "lon": -77.00347183333334, "name": "7997c947ccd7b0d63db0dc216ea94eba"}, {"bike_id": "8901369097bab6b415a7f7b2b26ff869", "type": "electric_scooter", "is_disabled": 0, "lat": 38.9141615, "rental_uris": {"ios": "https://dc.lft.to/lastmile_qr_scan", "android": "https://dc.lft.to/lastmile_qr_scan"}, "is_reserved": 0, "fusion_lon": 0.0, "fusion_lat": 0.0, "lon": -77.02425783333334, "name": "8901369097bab6b415a7f7b2b26ff869"}, {"bike_id": "f9499d83528739d883b565232d9aca72", "type": "electric_scooter", "is_disabled": 0, "lat": 38.90126716666666, "rental_uris": {"ios": "https://dc.lft.to/lastmile_qr_scan", "android": "https://dc.lft.to/lastmile_qr_scan"}, "is_reserved": 0, "fusion_lon": 0.0, "fusion_lat": 0.0, "lon": -77.01837133333333, "name": "f9499d83528739d883b565232d9aca72"}, {"bike_id": "ed86514dc78b28b19b0caafb84e86ec4", "type": "electric_scooter", "is_disabled": 0, "lat": 38.90440616666667, "rental_uris": {"ios": "https://dc.lft.to/lastmile_qr_scan", "android": "https://dc.lft.to/lastmile_qr_scan"}, "is_reserved": 0, "fusion_lon": 0.0, "fusion_lat": 0.0, "lon": -77.03467616666667, "name": "ed86514dc78b28b19b0caafb84e86ec4"}, {"bike_id": "7521fd6d36c44ce5a6ffaa23f4ef2c20", "type": "electric_scooter", "is_disabled": 0, "lat": 38.92731633333333, "rental_uris": {"ios": "https://dc.lft.to/lastmile_qr_scan", "android": "https://dc.lft.to/lastmile_qr_scan"}, "is_reserved": 0, "fusion_lon": 0.0, "fusion_lat": 0.0, "lon": -77.03499183333334, "name": "7521fd6d36c44ce5a6ffaa23f4ef2c20"}, {"bike_id": "416e775e5f8ab8dfc9686c8772325c17", "type": "electric_scooter", "is_disabled": 0, "lat": 38.902299666666664, "rental_uris": {"ios": "https://dc.lft.to/lastmile_qr_scan", "android": "https://dc.lft.to/lastmile_qr_scan"}, "is_reserved": 0, "fusion_lon": 0.0, "fusion_lat": 0.0, "lon": -77.01811, "name": "416e775e5f8ab8dfc9686c8772325c17"}, {"bike_id": "2c0c3ad07e3334032a7ffc746c1ad129", "type": "electric_scooter", "is_disabled": 0, "lat": 38.9231785, "rental_uris": {"ios": "https://dc.lft.to/lastmile_qr_scan", "android": "https://dc.lft.to/lastmile_qr_scan"}, "is_reserved": 0, "fusion_lon": 0.0, "fusion_lat": 0.0, "lon": -77.03913316666667, "name": "2c0c3ad07e3334032a7ffc746c1ad129"}, {"bike_id": "2c0d002adce29b1c8b4d2ff94aedc93f", "type": "electric_scooter", "is_disabled": 0, "lat": 38.911093666666666, "rental_uris": {"ios": "https://dc.lft.to/lastmile_qr_scan", "android": "https://dc.lft.to/lastmile_qr_scan"}, "is_reserved": 0, "fusion_lon": 0.0, "fusion_lat": 0.0, "lon": -77.0213805, "name": "2c0d002adce29b1c8b4d2ff94aedc93f"}, {"bike_id": "7fcc39e11859965851af8110befb4ce0", "type": "electric_scooter", "is_disabled": 0, "lat": 38.878826833333335, "rental_uris": {"ios": "https://dc.lft.to/lastmile_qr_scan", "android": "https://dc.lft.to/lastmile_qr_scan"}, "is_reserved": 0, "fusion_lon": 0.0, "fusion_lat": 0.0, "lon": -77.023208, "name": "7fcc39e11859965851af8110befb4ce0"}, {"bike_id": "33f59d7b232a48d253f7bc27fb8524a0", "type": "electric_scooter", "is_disabled": 0, "lat": 38.8861875, "rental_uris": {"ios": "https://dc.lft.to/lastmile_qr_scan", "android": "https://dc.lft.to/lastmile_qr_scan"}, "is_reserved": 0, "fusion_lon": 0.0, "fusion_lat": 0.0, "lon": -76.99606766666666, "name": "33f59d7b232a48d253f7bc27fb8524a0"}, {"bike_id": "dae5a77992184da083e0d5cc3ca24877", "type": "electric_scooter", "is_disabled": 0, "lat": 38.933190833333335, "rental_uris": {"ios": "https://dc.lft.to/lastmile_qr_scan", "android": "https://dc.lft.to/lastmile_qr_scan"}, "is_reserved": 0, "fusion_lon": 0.0, "fusion_lat": 0.0, "lon": -77.03432033333333, "name": "dae5a77992184da083e0d5cc3ca24877"}, {"bike_id": "d173fe6c74b13340b15e9bc9f6c8cf00", "type": "electric_scooter", "is_disabled": 0, "lat": 38.91930816666667, "rental_uris": {"ios": "https://dc.lft.to/lastmile_qr_scan", "android": "https://dc.lft.to/lastmile_qr_scan"}, "is_reserved": 0, "fusion_lon": 0.0, "fusion_lat": 0.0, "lon": -77.073859, "name": "d173fe6c74b13340b15e9bc9f6c8cf00"}, {"bike_id": "5836ee0781729ad73dbd52cc7172026e", "type": "electric_scooter", "is_disabled": 0, "lat": 38.91554133333333, "rental_uris": {"ios": "https://dc.lft.to/lastmile_qr_scan", "android": "https://dc.lft.to/lastmile_qr_scan"}, "is_reserved": 0, "fusion_lon": 0.0, "fusion_lat": 0.0, "lon": -77.02337616666667, "name": "5836ee0781729ad73dbd52cc7172026e"}, {"bike_id": "6632e249c78061dcf98e0902a748f052", "type": "electric_scooter", "is_disabled": 0, "lat": 38.91619516666667, "rental_uris": {"ios": "https://dc.lft.to/lastmile_qr_scan", "android": "https://dc.lft.to/lastmile_qr_scan"}, "is_reserved": 0, "fusion_lon": 0.0, "fusion_lat": 0.0, "lon": -77.03191283333334, "name": "6632e249c78061dcf98e0902a748f052"}, {"bike_id": "f2b3bb7837e758d19a54d50fe2e60838", "type": "electric_scooter", "is_disabled": 0, "lat": 38.92678983333333, "rental_uris": {"ios": "https://dc.lft.to/lastmile_qr_scan", "android": "https://dc.lft.to/lastmile_qr_scan"}, "is_reserved": 0, "fusion_lon": 0.0, "fusion_lat": 0.0, "lon": -77.02783816666667, "name": "f2b3bb7837e758d19a54d50fe2e60838"}, {"bike_id": "95eb8cf59f8f3f4c5e8cec8fa7614f2b", "type": "electric_scooter", "is_disabled": 0, "lat": 38.88430366666667, "rental_uris": {"ios": "https://dc.lft.to/lastmile_qr_scan", "android": "https://dc.lft.to/lastmile_qr_scan"}, "is_reserved": 0, "fusion_lon": 0.0, "fusion_lat": 0.0, "lon": -76.9574505, "name": "95eb8cf59f8f3f4c5e8cec8fa7614f2b"}, {"bike_id": "86fbf8b5ebb56d9fbbaec3b59d1f89bc", "type": "electric_bike", "is_disabled": 0, "lat": 38.869376, "rental_uris": {"ios": "https://dc.lft.to/lastmile_qr_scan", "android": "https://dc.lft.to/lastmile_qr_scan"}, "is_reserved": 0, "fusion_lon": 0.0, "fusion_lat": 0.0, "lon": -77.09463916666667, "name": "86fbf8b5ebb56d9fbbaec3b59d1f89bc"}, {"bike_id": "3cbaade528d88fd37feb55e0e620690d", "type": "electric_scooter", "is_disabled": 0, "lat": 38.91408033333333, "rental_uris": {"ios": "https://dc.lft.to/lastmile_qr_scan", "android": "https://dc.lft.to/lastmile_qr_scan"}, "is_reserved": 0, "fusion_lon": 0.0, "fusion_lat": 0.0, "lon": -77.04462183333334, "name": "3cbaade528d88fd37feb55e0e620690d"}, {"bike_id": "fcc858da7cee3e1570fcd80d5589f94a", "type": "electric_scooter", "is_disabled": 0, "lat": 38.9100525, "rental_uris": {"ios": "https://dc.lft.to/lastmile_qr_scan", "android": "https://dc.lft.to/lastmile_qr_scan"}, "is_reserved": 0, "fusion_lon": 0.0, "fusion_lat": 0.0, "lon": -77.03446966666667, "name": "fcc858da7cee3e1570fcd80d5589f94a"}, {"bike_id": "56a6ad7a71872c6db47f0744c163f7a0", "type": "electric_scooter", "is_disabled": 0, "lat": 38.95737833333333, "rental_uris": {"ios": "https://dc.lft.to/lastmile_qr_scan", "android": "https://dc.lft.to/lastmile_qr_scan"}, "is_reserved": 0, "fusion_lon": 0.0, "fusion_lat": 0.0, "lon": -77.02421783333334, "name": "56a6ad7a71872c6db47f0744c163f7a0"}, {"bike_id": "4ad7095467462a1ffb75dc03ecc553c8", "type": "electric_scooter", "is_disabled": 0, "lat": 38.931185166666666, "rental_uris": {"ios": "https://dc.lft.to/lastmile_qr_scan", "android": "https://dc.lft.to/lastmile_qr_scan"}, "is_reserved": 0, "fusion_lon": 0.0, "fusion_lat": 0.0, "lon": -77.03806166666666, "name": "4ad7095467462a1ffb75dc03ecc553c8"}, {"bike_id": "3be21cbb8ef71d15ad203beef121e5e1", "type": "electric_scooter", "is_disabled": 0, "lat": 38.93651833333333, "rental_uris": {"ios": "https://dc.lft.to/lastmile_qr_scan", "android": "https://dc.lft.to/lastmile_qr_scan"}, "is_reserved": 0, "fusion_lon": 0.0, "fusion_lat": 0.0, "lon": -77.02636333333334, "name": "3be21cbb8ef71d15ad203beef121e5e1"}, {"bike_id": "d91ec05b334fa5cd4fd3c5744d98f7f1", "type": "electric_scooter", "is_disabled": 0, "lat": 38.9169035, "rental_uris": {"ios": "https://dc.lft.to/lastmile_qr_scan", "android": "https://dc.lft.to/lastmile_qr_scan"}, "is_reserved": 0, "fusion_lon": 0.0, "fusion_lat": 0.0, "lon": -77.0321405, "name": "d91ec05b334fa5cd4fd3c5744d98f7f1"}, {"bike_id": "6b1500ef4a78b148ffe6751544dbd16b", "type": "electric_scooter", "is_disabled": 0, "lat": 38.914424, "rental_uris": {"ios": "https://dc.lft.to/lastmile_qr_scan", "android": "https://dc.lft.to/lastmile_qr_scan"}, "is_reserved": 0, "fusion_lon": 0.0, "fusion_lat": 0.0, "lon": -77.02291416666667, "name": "6b1500ef4a78b148ffe6751544dbd16b"}, {"bike_id": "62fe48e9aa2ca0a35a650a52b07d4d4e", "type": "electric_scooter", "is_disabled": 0, "lat": 38.93065716666667, "rental_uris": {"ios": "https://dc.lft.to/lastmile_qr_scan", "android": "https://dc.lft.to/lastmile_qr_scan"}, "is_reserved": 0, "fusion_lon": 0.0, "fusion_lat": 0.0, "lon": -77.0297955, "name": "62fe48e9aa2ca0a35a650a52b07d4d4e"}, {"bike_id": "ecc528799122bee53b80749338cb2c97", "type": "electric_scooter", "is_disabled": 0, "lat": 38.888486, "rental_uris": {"ios": "https://dc.lft.to/lastmile_qr_scan", "android": "https://dc.lft.to/lastmile_qr_scan"}, "is_reserved": 0, "fusion_lon": 0.0, "fusion_lat": 0.0, "lon": -76.926822, "name": "ecc528799122bee53b80749338cb2c97"}, {"bike_id": "8af119b470271e7e267c7b8cbdbb9b16", "type": "electric_scooter", "is_disabled": 0, "lat": 38.93318216666667, "rental_uris": {"ios": "https://dc.lft.to/lastmile_qr_scan", "android": "https://dc.lft.to/lastmile_qr_scan"}, "is_reserved": 0, "fusion_lon": 0.0, "fusion_lat": 0.0, "lon": -77.07231083333333, "name": "8af119b470271e7e267c7b8cbdbb9b16"}, {"bike_id": "d071aadd629e70156d09146f8be8e6a6", "type": "electric_scooter", "is_disabled": 0, "lat": 38.927186, "rental_uris": {"ios": "https://dc.lft.to/lastmile_qr_scan", "android": "https://dc.lft.to/lastmile_qr_scan"}, "is_reserved": 0, "fusion_lon": 0.0, "fusion_lat": 0.0, "lon": -77.02723933333333, "name": "d071aadd629e70156d09146f8be8e6a6"}, {"bike_id": "3cb93c9039a54e7836ad1ba7dc1ac980", "type": "electric_scooter", "is_disabled": 0, "lat": 38.93400283333333, "rental_uris": {"ios": "https://dc.lft.to/lastmile_qr_scan", "android": "https://dc.lft.to/lastmile_qr_scan"}, "is_reserved": 0, "fusion_lon": 0.0, "fusion_lat": 0.0, "lon": -77.03991966666666, "name": "3cb93c9039a54e7836ad1ba7dc1ac980"}, {"bike_id": "3967f4d37a31d369273f3ef9df32d8dc", "type": "electric_bike", "is_disabled": 0, "lat": 39.0550175, "rental_uris": {"ios": "https://dc.lft.to/lastmile_qr_scan", "android": "https://dc.lft.to/lastmile_qr_scan"}, "is_reserved": 0, "fusion_lon": 0.0, "fusion_lat": 0.0, "lon": -77.04652033333333, "name": "3967f4d37a31d369273f3ef9df32d8dc"}, {"bike_id": "cd134271319e294986bc9a1bd66390bf", "type": "electric_scooter", "is_disabled": 0, "lat": 38.939544833333336, "rental_uris": {"ios": "https://dc.lft.to/lastmile_qr_scan", "android": "https://dc.lft.to/lastmile_qr_scan"}, "is_reserved": 0, "fusion_lon": 0.0, "fusion_lat": 0.0, "lon": -77.03667083333333, "name": "cd134271319e294986bc9a1bd66390bf"}, {"bike_id": "c1e0ac7284100c0ed84507f54c30bcf5", "type": "electric_scooter", "is_disabled": 0, "lat": 38.92614583333334, "rental_uris": {"ios": "https://dc.lft.to/lastmile_qr_scan", "android": "https://dc.lft.to/lastmile_qr_scan"}, "is_reserved": 0, "fusion_lon": 0.0, "fusion_lat": 0.0, "lon": -77.0216095, "name": "c1e0ac7284100c0ed84507f54c30bcf5"}, {"bike_id": "bc0b5a55adaaf6ab7ee1e4e7937395e5", "type": "electric_scooter", "is_disabled": 0, "lat": 38.893709, "rental_uris": {"ios": "https://dc.lft.to/lastmile_qr_scan", "android": "https://dc.lft.to/lastmile_qr_scan"}, "is_reserved": 0, "fusion_lon": 0.0, "fusion_lat": 0.0, "lon": -76.98554683333333, "name": "bc0b5a55adaaf6ab7ee1e4e7937395e5"}, {"bike_id": "1dcc77eb51bc0e0ab67375ce974836c5", "type": "electric_bike", "is_disabled": 0, "lat": 38.92965516666667, "rental_uris": {"ios": "https://dc.lft.to/lastmile_qr_scan", "android": "https://dc.lft.to/lastmile_qr_scan"}, "is_reserved": 0, "fusion_lon": 0.0, "fusion_lat": 0.0, "lon": -77.18560366666667, "name": "1dcc77eb51bc0e0ab67375ce974836c5"}, {"bike_id": "e263cf765778e4afb8a235693197209f", "type": "electric_scooter", "is_disabled": 0, "lat": 38.90263383333333, "rental_uris": {"ios": "https://dc.lft.to/lastmile_qr_scan", "android": "https://dc.lft.to/lastmile_qr_scan"}, "is_reserved": 0, "fusion_lon": 0.0, "fusion_lat": 0.0, "lon": -77.03386666666667, "name": "e263cf765778e4afb8a235693197209f"}, {"bike_id": "5a1b6b4f26fe9ae818a26872a7e9409a", "type": "electric_scooter", "is_disabled": 0, "lat": 38.917956, "rental_uris": {"ios": "https://dc.lft.to/lastmile_qr_scan", "android": "https://dc.lft.to/lastmile_qr_scan"}, "is_reserved": 0, "fusion_lon": 0.0, "fusion_lat": 0.0, "lon": -77.04156666666667, "name": "5a1b6b4f26fe9ae818a26872a7e9409a"}, {"bike_id": "aaa50a8f224a541e33bb63a4dea89657", "type": "electric_scooter", "is_disabled": 0, "lat": 38.902868833333336, "rental_uris": {"ios": "https://dc.lft.to/lastmile_qr_scan", "android": "https://dc.lft.to/lastmile_qr_scan"}, "is_reserved": 0, "fusion_lon": 0.0, "fusion_lat": 0.0, "lon": -77.05811233333333, "name": "aaa50a8f224a541e33bb63a4dea89657"}, {"bike_id": "d1cb65ca5c7a56b46b5cb2e1bb35c0ed", "type": "electric_scooter", "is_disabled": 0, "lat": 38.87069566666667, "rental_uris": {"ios": "https://dc.lft.to/lastmile_qr_scan", "android": "https://dc.lft.to/lastmile_qr_scan"}, "is_reserved": 0, "fusion_lon": 0.0, "fusion_lat": 0.0, "lon": -76.98131233333334, "name": "d1cb65ca5c7a56b46b5cb2e1bb35c0ed"}, {"bike_id": "88bcc71daefdd4699ba7dcb8112cf94c", "type": "electric_scooter", "is_disabled": 0, "lat": 38.92151466666667, "rental_uris": {"ios": "https://dc.lft.to/lastmile_qr_scan", "android": "https://dc.lft.to/lastmile_qr_scan"}, "is_reserved": 0, "fusion_lon": 0.0, "fusion_lat": 0.0, "lon": -77.0386815, "name": "88bcc71daefdd4699ba7dcb8112cf94c"}, {"bike_id": "bccc8cdaf4b0691afcf82c6bc64c6ba9", "type": "electric_scooter", "is_disabled": 0, "lat": 38.911556, "rental_uris": {"ios": "https://dc.lft.to/lastmile_qr_scan", "android": "https://dc.lft.to/lastmile_qr_scan"}, "is_reserved": 0, "fusion_lon": 0.0, "fusion_lat": 0.0, "lon": -77.02286383333333, "name": "bccc8cdaf4b0691afcf82c6bc64c6ba9"}, {"bike_id": "42102dc90f8c691b61b79663915428f1", "type": "electric_scooter", "is_disabled": 0, "lat": 38.90063983333334, "rental_uris": {"ios": "https://dc.lft.to/lastmile_qr_scan", "android": "https://dc.lft.to/lastmile_qr_scan"}, "is_reserved": 0, "fusion_lon": 0.0, "fusion_lat": 0.0, "lon": -76.92747333333334, "name": "42102dc90f8c691b61b79663915428f1"}, {"bike_id": "6243912aaada17af63148d5c4b1fac3d", "type": "electric_scooter", "is_disabled": 0, "lat": 38.964113, "rental_uris": {"ios": "https://dc.lft.to/lastmile_qr_scan", "android": "https://dc.lft.to/lastmile_qr_scan"}, "is_reserved": 0, "fusion_lon": 0.0, "fusion_lat": 0.0, "lon": -77.0276355, "name": "6243912aaada17af63148d5c4b1fac3d"}, {"bike_id": "3627f45d9b18d6fb8bc8e3435ac511f5", "type": "electric_bike", "is_disabled": 0, "lat": 38.9662335, "rental_uris": {"ios": "https://dc.lft.to/lastmile_qr_scan", "android": "https://dc.lft.to/lastmile_qr_scan"}, "is_reserved": 0, "fusion_lon": 0.0, "fusion_lat": 0.0, "lon": -77.03428483333333, "name": "3627f45d9b18d6fb8bc8e3435ac511f5"}, {"bike_id": "8c249a89e7a0e44bda76a081f40acd12", "type": "electric_scooter", "is_disabled": 0, "lat": 38.90020716666667, "rental_uris": {"ios": "https://dc.lft.to/lastmile_qr_scan", "android": "https://dc.lft.to/lastmile_qr_scan"}, "is_reserved": 0, "fusion_lon": 0.0, "fusion_lat": 0.0, "lon": -77.02408183333333, "name": "8c249a89e7a0e44bda76a081f40acd12"}, {"bike_id": "c5e3d8543ff55281843894831191ea69", "type": "electric_scooter", "is_disabled": 0, "lat": 38.91417216666667, "rental_uris": {"ios": "https://dc.lft.to/lastmile_qr_scan", "android": "https://dc.lft.to/lastmile_qr_scan"}, "is_reserved": 0, "fusion_lon": 0.0, "fusion_lat": 0.0, "lon": -77.02290316666667, "name": "c5e3d8543ff55281843894831191ea69"}, {"bike_id": "a5bae2b52dc6b1cf1db3666fad354a7b", "type": "electric_scooter", "is_disabled": 0, "lat": 38.905115333333335, "rental_uris": {"ios": "https://dc.lft.to/lastmile_qr_scan", "android": "https://dc.lft.to/lastmile_qr_scan"}, "is_reserved": 0, "fusion_lon": 0.0, "fusion_lat": 0.0, "lon": -77.02970066666667, "name": "a5bae2b52dc6b1cf1db3666fad354a7b"}, {"bike_id": "5240e90d08ccccce0823df0761b0a0f7", "type": "electric_scooter", "is_disabled": 0, "lat": 38.911432833333336, "rental_uris": {"ios": "https://dc.lft.to/lastmile_qr_scan", "android": "https://dc.lft.to/lastmile_qr_scan"}, "is_reserved": 0, "fusion_lon": 0.0, "fusion_lat": 0.0, "lon": -77.02799616666667, "name": "5240e90d08ccccce0823df0761b0a0f7"}, {"bike_id": "568b8b410b7bc6c6c735331f1797eec2", "type": "electric_scooter", "is_disabled": 0, "lat": 38.918073166666666, "rental_uris": {"ios": "https://dc.lft.to/lastmile_qr_scan", "android": "https://dc.lft.to/lastmile_qr_scan"}, "is_reserved": 0, "fusion_lon": 0.0, "fusion_lat": 0.0, "lon": -77.03258016666666, "name": "568b8b410b7bc6c6c735331f1797eec2"}, {"bike_id": "8bf8e72e99e95b55384730e6f01141d8", "type": "electric_scooter", "is_disabled": 0, "lat": 38.906456166666665, "rental_uris": {"ios": "https://dc.lft.to/lastmile_qr_scan", "android": "https://dc.lft.to/lastmile_qr_scan"}, "is_reserved": 0, "fusion_lon": 0.0, "fusion_lat": 0.0, "lon": -77.01415066666667, "name": "8bf8e72e99e95b55384730e6f01141d8"}, {"bike_id": "12c130846bf1e6246bce1502fc7dc02d", "type": "electric_scooter", "is_disabled": 0, "lat": 38.926110666666666, "rental_uris": {"ios": "https://dc.lft.to/lastmile_qr_scan", "android": "https://dc.lft.to/lastmile_qr_scan"}, "is_reserved": 0, "fusion_lon": 0.0, "fusion_lat": 0.0, "lon": -77.04309816666667, "name": "12c130846bf1e6246bce1502fc7dc02d"}, {"bike_id": "985937179653803fbbe7e60038dded77", "type": "electric_bike", "is_disabled": 0, "lat": 38.94650633333333, "rental_uris": {"ios": "https://dc.lft.to/lastmile_qr_scan", "android": "https://dc.lft.to/lastmile_qr_scan"}, "is_reserved": 0, "fusion_lon": 0.0, "fusion_lat": 0.0, "lon": -76.99493733333334, "name": "985937179653803fbbe7e60038dded77"}, {"bike_id": "e412139ffba543ce486364ff0735b240", "type": "electric_scooter", "is_disabled": 0, "lat": 38.935379166666664, "rental_uris": {"ios": "https://dc.lft.to/lastmile_qr_scan", "android": "https://dc.lft.to/lastmile_qr_scan"}, "is_reserved": 0, "fusion_lon": 0.0, "fusion_lat": 0.0, "lon": -77.03887033333334, "name": "e412139ffba543ce486364ff0735b240"}, {"bike_id": "862044b3eb843f5a0027fbe929cef918", "type": "electric_scooter", "is_disabled": 0, "lat": 38.90003733333333, "rental_uris": {"ios": "https://dc.lft.to/lastmile_qr_scan", "android": "https://dc.lft.to/lastmile_qr_scan"}, "is_reserved": 0, "fusion_lon": 0.0, "fusion_lat": 0.0, "lon": -77.0020535, "name": "862044b3eb843f5a0027fbe929cef918"}, {"bike_id": "cca34f6f880d49bc2b1dbbd6b9d74c49", "type": "electric_scooter", "is_disabled": 0, "lat": 38.907951833333335, "rental_uris": {"ios": "https://dc.lft.to/lastmile_qr_scan", "android": "https://dc.lft.to/lastmile_qr_scan"}, "is_reserved": 0, "fusion_lon": 0.0, "fusion_lat": 0.0, "lon": -77.031222, "name": "cca34f6f880d49bc2b1dbbd6b9d74c49"}, {"bike_id": "ebd0947ac6c1e7a91728f8aa4b48b9c5", "type": "electric_scooter", "is_disabled": 0, "lat": 38.91011533333333, "rental_uris": {"ios": "https://dc.lft.to/lastmile_qr_scan", "android": "https://dc.lft.to/lastmile_qr_scan"}, "is_reserved": 0, "fusion_lon": 0.0, "fusion_lat": 0.0, "lon": -77.0162205, "name": "ebd0947ac6c1e7a91728f8aa4b48b9c5"}, {"bike_id": "089c113b49765a605d191302d8d2775c", "type": "electric_scooter", "is_disabled": 0, "lat": 38.920122666666664, "rental_uris": {"ios": "https://dc.lft.to/lastmile_qr_scan", "android": "https://dc.lft.to/lastmile_qr_scan"}, "is_reserved": 0, "fusion_lon": 0.0, "fusion_lat": 0.0, "lon": -77.018249, "name": "089c113b49765a605d191302d8d2775c"}, {"bike_id": "262c6b887e31d8046cd8d5547c53629d", "type": "electric_scooter", "is_disabled": 0, "lat": 38.900624, "rental_uris": {"ios": "https://dc.lft.to/lastmile_qr_scan", "android": "https://dc.lft.to/lastmile_qr_scan"}, "is_reserved": 0, "fusion_lon": 0.0, "fusion_lat": 0.0, "lon": -77.04995133333334, "name": "262c6b887e31d8046cd8d5547c53629d"}, {"bike_id": "3391b364a263f2886781786a51406ebd", "type": "electric_scooter", "is_disabled": 0, "lat": 38.907550666666666, "rental_uris": {"ios": "https://dc.lft.to/lastmile_qr_scan", "android": "https://dc.lft.to/lastmile_qr_scan"}, "is_reserved": 0, "fusion_lon": 0.0, "fusion_lat": 0.0, "lon": -77.03081833333333, "name": "3391b364a263f2886781786a51406ebd"}, {"bike_id": "758cd51ba5c27c079ced0cb06f8195f4", "type": "electric_scooter", "is_disabled": 0, "lat": 38.9348995, "rental_uris": {"ios": "https://dc.lft.to/lastmile_qr_scan", "android": "https://dc.lft.to/lastmile_qr_scan"}, "is_reserved": 0, "fusion_lon": 0.0, "fusion_lat": 0.0, "lon": -77.03283916666666, "name": "758cd51ba5c27c079ced0cb06f8195f4"}, {"bike_id": "e877cd297fa88d4cf641f36086c594a2", "type": "electric_scooter", "is_disabled": 0, "lat": 38.923266, "rental_uris": {"ios": "https://dc.lft.to/lastmile_qr_scan", "android": "https://dc.lft.to/lastmile_qr_scan"}, "is_reserved": 0, "fusion_lon": 0.0, "fusion_lat": 0.0, "lon": -77.04623633333334, "name": "e877cd297fa88d4cf641f36086c594a2"}, {"bike_id": "73d7fc265972677d7d94389ec1e978c9", "type": "electric_scooter", "is_disabled": 0, "lat": 38.925419166666664, "rental_uris": {"ios": "https://dc.lft.to/lastmile_qr_scan", "android": "https://dc.lft.to/lastmile_qr_scan"}, "is_reserved": 0, "fusion_lon": 0.0, "fusion_lat": 0.0, "lon": -77.02959083333333, "name": "73d7fc265972677d7d94389ec1e978c9"}, {"bike_id": "59633217d831223fa20513eda17e6a36", "type": "electric_scooter", "is_disabled": 0, "lat": 38.9097775, "rental_uris": {"ios": "https://dc.lft.to/lastmile_qr_scan", "android": "https://dc.lft.to/lastmile_qr_scan"}, "is_reserved": 0, "fusion_lon": 0.0, "fusion_lat": 0.0, "lon": -77.031834, "name": "59633217d831223fa20513eda17e6a36"}, {"bike_id": "0397a1350f51dc0ba8bf442550ec78ce", "type": "electric_scooter", "is_disabled": 0, "lat": 38.9234445, "rental_uris": {"ios": "https://dc.lft.to/lastmile_qr_scan", "android": "https://dc.lft.to/lastmile_qr_scan"}, "is_reserved": 0, "fusion_lon": 0.0, "fusion_lat": 0.0, "lon": -77.02446233333333, "name": "0397a1350f51dc0ba8bf442550ec78ce"}, {"bike_id": "dd2ca35bc8c33b183c7ca1f380a8e853", "type": "electric_scooter", "is_disabled": 0, "lat": 38.88913933333333, "rental_uris": {"ios": "https://dc.lft.to/lastmile_qr_scan", "android": "https://dc.lft.to/lastmile_qr_scan"}, "is_reserved": 0, "fusion_lon": 0.0, "fusion_lat": 0.0, "lon": -76.99129, "name": "dd2ca35bc8c33b183c7ca1f380a8e853"}, {"bike_id": "1a648f18251d84fb3f9a6403a90b7ad9", "type": "electric_scooter", "is_disabled": 0, "lat": 38.928761333333334, "rental_uris": {"ios": "https://dc.lft.to/lastmile_qr_scan", "android": "https://dc.lft.to/lastmile_qr_scan"}, "is_reserved": 0, "fusion_lon": 0.0, "fusion_lat": 0.0, "lon": -77.032154, "name": "1a648f18251d84fb3f9a6403a90b7ad9"}, {"bike_id": "9737178201396939b4a464b888963d72", "type": "electric_scooter", "is_disabled": 0, "lat": 38.92536466666667, "rental_uris": {"ios": "https://dc.lft.to/lastmile_qr_scan", "android": "https://dc.lft.to/lastmile_qr_scan"}, "is_reserved": 0, "fusion_lon": 0.0, "fusion_lat": 0.0, "lon": -77.04133183333333, "name": "9737178201396939b4a464b888963d72"}, {"bike_id": "e61d0eed9c95e187ea4c803740e4cd7a", "type": "electric_scooter", "is_disabled": 0, "lat": 38.8988105, "rental_uris": {"ios": "https://dc.lft.to/lastmile_qr_scan", "android": "https://dc.lft.to/lastmile_qr_scan"}, "is_reserved": 0, "fusion_lon": 0.0, "fusion_lat": 0.0, "lon": -76.976942, "name": "e61d0eed9c95e187ea4c803740e4cd7a"}, {"bike_id": "bb607958f88b4bad49f075e903d70506", "type": "electric_scooter", "is_disabled": 0, "lat": 38.906039, "rental_uris": {"ios": "https://dc.lft.to/lastmile_qr_scan", "android": "https://dc.lft.to/lastmile_qr_scan"}, "is_reserved": 0, "fusion_lon": 0.0, "fusion_lat": 0.0, "lon": -77.02107266666667, "name": "bb607958f88b4bad49f075e903d70506"}, {"bike_id": "c9fb34681cf09316be4a285516f0be54", "type": "electric_bike", "is_disabled": 0, "lat": 38.83546966666667, "rental_uris": {"ios": "https://dc.lft.to/lastmile_qr_scan", "android": "https://dc.lft.to/lastmile_qr_scan"}, "is_reserved": 0, "fusion_lon": 0.0, "fusion_lat": 0.0, "lon": -76.98730033333334, "name": "c9fb34681cf09316be4a285516f0be54"}, {"bike_id": "505af1ee598396a8c9ac8253c0101ab1", "type": "electric_scooter", "is_disabled": 0, "lat": 38.9086695, "rental_uris": {"ios": "https://dc.lft.to/lastmile_qr_scan", "android": "https://dc.lft.to/lastmile_qr_scan"}, "is_reserved": 0, "fusion_lon": 0.0, "fusion_lat": 0.0, "lon": -77.04401566666667, "name": "505af1ee598396a8c9ac8253c0101ab1"}, {"bike_id": "00494719c597d7438f1fffbe45b92661", "type": "electric_bike", "is_disabled": 0, "lat": 38.95352533333333, "rental_uris": {"ios": "https://dc.lft.to/lastmile_qr_scan", "android": "https://dc.lft.to/lastmile_qr_scan"}, "is_reserved": 0, "fusion_lon": 0.0, "fusion_lat": 0.0, "lon": -76.98089683333333, "name": "00494719c597d7438f1fffbe45b92661"}, {"bike_id": "fbe1a704bbcacf785ade3896f9b72d53", "type": "electric_scooter", "is_disabled": 0, "lat": 38.913305333333334, "rental_uris": {"ios": "https://dc.lft.to/lastmile_qr_scan", "android": "https://dc.lft.to/lastmile_qr_scan"}, "is_reserved": 0, "fusion_lon": 0.0, "fusion_lat": 0.0, "lon": -77.03176466666666, "name": "fbe1a704bbcacf785ade3896f9b72d53"}, {"bike_id": "8525ed7a789b201c323c2d1117645cc8", "type": "electric_scooter", "is_disabled": 0, "lat": 38.93493983333333, "rental_uris": {"ios": "https://dc.lft.to/lastmile_qr_scan", "android": "https://dc.lft.to/lastmile_qr_scan"}, "is_reserved": 0, "fusion_lon": 0.0, "fusion_lat": 0.0, "lon": -77.03520316666666, "name": "8525ed7a789b201c323c2d1117645cc8"}, {"bike_id": "e223d5f03702e8a96542a90451af2fef", "type": "electric_scooter", "is_disabled": 0, "lat": 38.93241783333333, "rental_uris": {"ios": "https://dc.lft.to/lastmile_qr_scan", "android": "https://dc.lft.to/lastmile_qr_scan"}, "is_reserved": 0, "fusion_lon": 0.0, "fusion_lat": 0.0, "lon": -77.03852133333334, "name": "e223d5f03702e8a96542a90451af2fef"}, {"bike_id": "233085d42dc189b6b3cdecea8f80c4cb", "type": "electric_scooter", "is_disabled": 0, "lat": 38.905783, "rental_uris": {"ios": "https://dc.lft.to/lastmile_qr_scan", "android": "https://dc.lft.to/lastmile_qr_scan"}, "is_reserved": 0, "fusion_lon": 0.0, "fusion_lat": 0.0, "lon": -77.026072, "name": "233085d42dc189b6b3cdecea8f80c4cb"}, {"bike_id": "6f592cb77498c1e0add748beff161f7d", "type": "electric_scooter", "is_disabled": 0, "lat": 38.91477883333334, "rental_uris": {"ios": "https://dc.lft.to/lastmile_qr_scan", "android": "https://dc.lft.to/lastmile_qr_scan"}, "is_reserved": 0, "fusion_lon": 0.0, "fusion_lat": 0.0, "lon": -77.03190466666666, "name": "6f592cb77498c1e0add748beff161f7d"}, {"bike_id": "eb221186f1c4d86839b107cd91373f3c", "type": "electric_scooter", "is_disabled": 0, "lat": 38.915675, "rental_uris": {"ios": "https://dc.lft.to/lastmile_qr_scan", "android": "https://dc.lft.to/lastmile_qr_scan"}, "is_reserved": 0, "fusion_lon": 0.0, "fusion_lat": 0.0, "lon": -77.02292516666667, "name": "eb221186f1c4d86839b107cd91373f3c"}, {"bike_id": "5c288a2ca58de6a043a72ad03a8feef7", "type": "electric_bike", "is_disabled": 0, "lat": 38.8814895, "rental_uris": {"ios": "https://dc.lft.to/lastmile_qr_scan", "android": "https://dc.lft.to/lastmile_qr_scan"}, "is_reserved": 0, "fusion_lon": 0.0, "fusion_lat": 0.0, "lon": -77.1143805, "name": "5c288a2ca58de6a043a72ad03a8feef7"}, {"bike_id": "663a8956527c6a38784500e97f9532ab", "type": "electric_bike", "is_disabled": 0, "lat": 38.924468166666664, "rental_uris": {"ios": "https://dc.lft.to/lastmile_qr_scan", "android": "https://dc.lft.to/lastmile_qr_scan"}, "is_reserved": 0, "fusion_lon": 0.0, "fusion_lat": 0.0, "lon": -77.22548133333333, "name": "663a8956527c6a38784500e97f9532ab"}, {"bike_id": "3e3b1952c219555c039901cfd6e50772", "type": "electric_scooter", "is_disabled": 0, "lat": 38.91879483333334, "rental_uris": {"ios": "https://dc.lft.to/lastmile_qr_scan", "android": "https://dc.lft.to/lastmile_qr_scan"}, "is_reserved": 0, "fusion_lon": 0.0, "fusion_lat": 0.0, "lon": -77.02952816666667, "name": "3e3b1952c219555c039901cfd6e50772"}, {"bike_id": "ef473c2ef73dbff7fc7e21dc8d86a8ca", "type": "electric_scooter", "is_disabled": 0, "lat": 38.907368166666664, "rental_uris": {"ios": "https://dc.lft.to/lastmile_qr_scan", "android": "https://dc.lft.to/lastmile_qr_scan"}, "is_reserved": 0, "fusion_lon": 0.0, "fusion_lat": 0.0, "lon": -77.0297825, "name": "ef473c2ef73dbff7fc7e21dc8d86a8ca"}, {"bike_id": "87a212c9a5432d0aea0b52b0c787f10b", "type": "electric_scooter", "is_disabled": 0, "lat": 38.90427533333333, "rental_uris": {"ios": "https://dc.lft.to/lastmile_qr_scan", "android": "https://dc.lft.to/lastmile_qr_scan"}, "is_reserved": 0, "fusion_lon": 0.0, "fusion_lat": 0.0, "lon": -77.03446616666666, "name": "87a212c9a5432d0aea0b52b0c787f10b"}, {"bike_id": "e761ca1ed1995d32f9c5e9c8a81c2a89", "type": "electric_bike", "is_disabled": 0, "lat": 38.836723666666664, "rental_uris": {"ios": "https://dc.lft.to/lastmile_qr_scan", "android": "https://dc.lft.to/lastmile_qr_scan"}, "is_reserved": 0, "fusion_lon": 0.0, "fusion_lat": 0.0, "lon": -76.99361133333333, "name": "e761ca1ed1995d32f9c5e9c8a81c2a89"}, {"bike_id": "1be3850c7943cf69c88bf601308180c6", "type": "electric_scooter", "is_disabled": 0, "lat": 38.924619166666666, "rental_uris": {"ios": "https://dc.lft.to/lastmile_qr_scan", "android": "https://dc.lft.to/lastmile_qr_scan"}, "is_reserved": 0, "fusion_lon": 0.0, "fusion_lat": 0.0, "lon": -77.02964866666667, "name": "1be3850c7943cf69c88bf601308180c6"}, {"bike_id": "45596861dd98755e3f6af7c464b0d2b2", "type": "electric_scooter", "is_disabled": 0, "lat": 38.934731666666664, "rental_uris": {"ios": "https://dc.lft.to/lastmile_qr_scan", "android": "https://dc.lft.to/lastmile_qr_scan"}, "is_reserved": 0, "fusion_lon": 0.0, "fusion_lat": 0.0, "lon": -77.026083, "name": "45596861dd98755e3f6af7c464b0d2b2"}, {"bike_id": "43d7ce1e1e6d5f96c28aa6b598602448", "type": "electric_scooter", "is_disabled": 0, "lat": 38.935366, "rental_uris": {"ios": "https://dc.lft.to/lastmile_qr_scan", "android": "https://dc.lft.to/lastmile_qr_scan"}, "is_reserved": 0, "fusion_lon": 0.0, "fusion_lat": 0.0, "lon": -77.05828533333333, "name": "43d7ce1e1e6d5f96c28aa6b598602448"}, {"bike_id": "ef1af65855bcceded8da74d533f9a077", "type": "electric_scooter", "is_disabled": 0, "lat": 38.906459166666664, "rental_uris": {"ios": "https://dc.lft.to/lastmile_qr_scan", "android": "https://dc.lft.to/lastmile_qr_scan"}, "is_reserved": 0, "fusion_lon": 0.0, "fusion_lat": 0.0, "lon": -77.01730933333333, "name": "ef1af65855bcceded8da74d533f9a077"}, {"bike_id": "16c034c7de78a5569abf10f997d9cfbc", "type": "electric_scooter", "is_disabled": 0, "lat": 38.912482833333335, "rental_uris": {"ios": "https://dc.lft.to/lastmile_qr_scan", "android": "https://dc.lft.to/lastmile_qr_scan"}, "is_reserved": 0, "fusion_lon": 0.0, "fusion_lat": 0.0, "lon": -77.03846483333334, "name": "16c034c7de78a5569abf10f997d9cfbc"}, {"bike_id": "0ec7bbc4de32372346961f6c159d1b24", "type": "electric_scooter", "is_disabled": 0, "lat": 38.90074283333333, "rental_uris": {"ios": "https://dc.lft.to/lastmile_qr_scan", "android": "https://dc.lft.to/lastmile_qr_scan"}, "is_reserved": 0, "fusion_lon": 0.0, "fusion_lat": 0.0, "lon": -77.03068866666666, "name": "0ec7bbc4de32372346961f6c159d1b24"}, {"bike_id": "da21beb56293fe36815d0723d9494f6c", "type": "electric_scooter", "is_disabled": 0, "lat": 38.89935116666667, "rental_uris": {"ios": "https://dc.lft.to/lastmile_qr_scan", "android": "https://dc.lft.to/lastmile_qr_scan"}, "is_reserved": 0, "fusion_lon": 0.0, "fusion_lat": 0.0, "lon": -77.0477445, "name": "da21beb56293fe36815d0723d9494f6c"}, {"bike_id": "934704efe18221e60e2e7fa3076de6d0", "type": "electric_scooter", "is_disabled": 0, "lat": 38.90263383333333, "rental_uris": {"ios": "https://dc.lft.to/lastmile_qr_scan", "android": "https://dc.lft.to/lastmile_qr_scan"}, "is_reserved": 0, "fusion_lon": 0.0, "fusion_lat": 0.0, "lon": -77.03386933333333, "name": "934704efe18221e60e2e7fa3076de6d0"}, {"bike_id": "9bf37ba5d93eceaf28497f2534eba4e3", "type": "electric_scooter", "is_disabled": 0, "lat": 38.9140205, "rental_uris": {"ios": "https://dc.lft.to/lastmile_qr_scan", "android": "https://dc.lft.to/lastmile_qr_scan"}, "is_reserved": 0, "fusion_lon": 0.0, "fusion_lat": 0.0, "lon": -77.03145566666667, "name": "9bf37ba5d93eceaf28497f2534eba4e3"}, {"bike_id": "ac6a13ce327ea4c36fec106b026df728", "type": "electric_scooter", "is_disabled": 0, "lat": 38.90384683333333, "rental_uris": {"ios": "https://dc.lft.to/lastmile_qr_scan", "android": "https://dc.lft.to/lastmile_qr_scan"}, "is_reserved": 0, "fusion_lon": 0.0, "fusion_lat": 0.0, "lon": -77.00764, "name": "ac6a13ce327ea4c36fec106b026df728"}, {"bike_id": "144aee0e02223d287054b1f999e53004", "type": "electric_scooter", "is_disabled": 0, "lat": 38.88267066666667, "rental_uris": {"ios": "https://dc.lft.to/lastmile_qr_scan", "android": "https://dc.lft.to/lastmile_qr_scan"}, "is_reserved": 0, "fusion_lon": 0.0, "fusion_lat": 0.0, "lon": -76.99252083333333, "name": "144aee0e02223d287054b1f999e53004"}, {"bike_id": "d753a50a01965cc7ef5fd1bb78d636a1", "type": "electric_scooter", "is_disabled": 0, "lat": 38.920841, "rental_uris": {"ios": "https://dc.lft.to/lastmile_qr_scan", "android": "https://dc.lft.to/lastmile_qr_scan"}, "is_reserved": 0, "fusion_lon": 0.0, "fusion_lat": 0.0, "lon": -77.02396633333333, "name": "d753a50a01965cc7ef5fd1bb78d636a1"}, {"bike_id": "d3122429b65f721ab9a07632920f9ea4", "type": "electric_scooter", "is_disabled": 0, "lat": 38.92756266666667, "rental_uris": {"ios": "https://dc.lft.to/lastmile_qr_scan", "android": "https://dc.lft.to/lastmile_qr_scan"}, "is_reserved": 0, "fusion_lon": 0.0, "fusion_lat": 0.0, "lon": -77.023094, "name": "d3122429b65f721ab9a07632920f9ea4"}, {"bike_id": "6366b0d5fbe3055c0a31be4d7c070bfa", "type": "electric_scooter", "is_disabled": 0, "lat": 38.91629983333333, "rental_uris": {"ios": "https://dc.lft.to/lastmile_qr_scan", "android": "https://dc.lft.to/lastmile_qr_scan"}, "is_reserved": 0, "fusion_lon": 0.0, "fusion_lat": 0.0, "lon": -77.03988, "name": "6366b0d5fbe3055c0a31be4d7c070bfa"}, {"bike_id": "d1abc65fd6dac5bc013c4e642c6e3cc0", "type": "electric_scooter", "is_disabled": 0, "lat": 38.902009, "rental_uris": {"ios": "https://dc.lft.to/lastmile_qr_scan", "android": "https://dc.lft.to/lastmile_qr_scan"}, "is_reserved": 0, "fusion_lon": 0.0, "fusion_lat": 0.0, "lon": -77.023728, "name": "d1abc65fd6dac5bc013c4e642c6e3cc0"}, {"bike_id": "ca55e8d3051787a5cc33eb8db2c23207", "type": "electric_scooter", "is_disabled": 0, "lat": 38.91914333333333, "rental_uris": {"ios": "https://dc.lft.to/lastmile_qr_scan", "android": "https://dc.lft.to/lastmile_qr_scan"}, "is_reserved": 0, "fusion_lon": 0.0, "fusion_lat": 0.0, "lon": -77.03419933333333, "name": "ca55e8d3051787a5cc33eb8db2c23207"}, {"bike_id": "b2885f4841b653b5ac792028a2be310a", "type": "electric_scooter", "is_disabled": 0, "lat": 38.90958083333334, "rental_uris": {"ios": "https://dc.lft.to/lastmile_qr_scan", "android": "https://dc.lft.to/lastmile_qr_scan"}, "is_reserved": 0, "fusion_lon": 0.0, "fusion_lat": 0.0, "lon": -77.02277533333333, "name": "b2885f4841b653b5ac792028a2be310a"}, {"bike_id": "622489d7afa650f03387f55f1c0a0e05", "type": "electric_scooter", "is_disabled": 0, "lat": 38.9082375, "rental_uris": {"ios": "https://dc.lft.to/lastmile_qr_scan", "android": "https://dc.lft.to/lastmile_qr_scan"}, "is_reserved": 0, "fusion_lon": 0.0, "fusion_lat": 0.0, "lon": -77.02383516666667, "name": "622489d7afa650f03387f55f1c0a0e05"}, {"bike_id": "460d77b937002c09af72db9f71bb8ca7", "type": "electric_scooter", "is_disabled": 0, "lat": 38.92244433333333, "rental_uris": {"ios": "https://dc.lft.to/lastmile_qr_scan", "android": "https://dc.lft.to/lastmile_qr_scan"}, "is_reserved": 0, "fusion_lon": 0.0, "fusion_lat": 0.0, "lon": -77.07472333333334, "name": "460d77b937002c09af72db9f71bb8ca7"}, {"bike_id": "17e5269c7f548793c623759e09250a24", "type": "electric_scooter", "is_disabled": 0, "lat": 38.9140555, "rental_uris": {"ios": "https://dc.lft.to/lastmile_qr_scan", "android": "https://dc.lft.to/lastmile_qr_scan"}, "is_reserved": 0, "fusion_lon": 0.0, "fusion_lat": 0.0, "lon": -77.02097133333334, "name": "17e5269c7f548793c623759e09250a24"}, {"bike_id": "fc50a8f557ed33e678a11b6e02d22bd7", "type": "electric_scooter", "is_disabled": 0, "lat": 38.936796333333334, "rental_uris": {"ios": "https://dc.lft.to/lastmile_qr_scan", "android": "https://dc.lft.to/lastmile_qr_scan"}, "is_reserved": 0, "fusion_lon": 0.0, "fusion_lat": 0.0, "lon": -77.03622283333333, "name": "fc50a8f557ed33e678a11b6e02d22bd7"}, {"bike_id": "f385e4b2a7e03a1b196830b767d7669b", "type": "electric_scooter", "is_disabled": 0, "lat": 38.90683833333333, "rental_uris": {"ios": "https://dc.lft.to/lastmile_qr_scan", "android": "https://dc.lft.to/lastmile_qr_scan"}, "is_reserved": 0, "fusion_lon": 0.0, "fusion_lat": 0.0, "lon": -77.06341233333333, "name": "f385e4b2a7e03a1b196830b767d7669b"}, {"bike_id": "b8d88ca84deb1285668c647f2a038437", "type": "electric_scooter", "is_disabled": 0, "lat": 38.9387125, "rental_uris": {"ios": "https://dc.lft.to/lastmile_qr_scan", "android": "https://dc.lft.to/lastmile_qr_scan"}, "is_reserved": 0, "fusion_lon": 0.0, "fusion_lat": 0.0, "lon": -77.02453383333334, "name": "b8d88ca84deb1285668c647f2a038437"}, {"bike_id": "2003975dcace156622811474aeefe419", "type": "electric_scooter", "is_disabled": 0, "lat": 38.924622166666666, "rental_uris": {"ios": "https://dc.lft.to/lastmile_qr_scan", "android": "https://dc.lft.to/lastmile_qr_scan"}, "is_reserved": 0, "fusion_lon": 0.0, "fusion_lat": 0.0, "lon": -77.0378255, "name": "2003975dcace156622811474aeefe419"}, {"bike_id": "c3b34ccc5dc331c80254362ef5e24132", "type": "electric_scooter", "is_disabled": 0, "lat": 38.934546833333336, "rental_uris": {"ios": "https://dc.lft.to/lastmile_qr_scan", "android": "https://dc.lft.to/lastmile_qr_scan"}, "is_reserved": 0, "fusion_lon": 0.0, "fusion_lat": 0.0, "lon": -77.02794383333334, "name": "c3b34ccc5dc331c80254362ef5e24132"}, {"bike_id": "0bde70f85bcf6ac06e54353eac5aa2bf", "type": "electric_scooter", "is_disabled": 0, "lat": 38.93191066666667, "rental_uris": {"ios": "https://dc.lft.to/lastmile_qr_scan", "android": "https://dc.lft.to/lastmile_qr_scan"}, "is_reserved": 0, "fusion_lon": 0.0, "fusion_lat": 0.0, "lon": -77.023923, "name": "0bde70f85bcf6ac06e54353eac5aa2bf"}, {"bike_id": "bb13dc93d5a1dbbcd87d10c2bfb03e01", "type": "electric_scooter", "is_disabled": 0, "lat": 38.90019, "rental_uris": {"ios": "https://dc.lft.to/lastmile_qr_scan", "android": "https://dc.lft.to/lastmile_qr_scan"}, "is_reserved": 0, "fusion_lon": 0.0, "fusion_lat": 0.0, "lon": -76.99855533333333, "name": "bb13dc93d5a1dbbcd87d10c2bfb03e01"}, {"bike_id": "9a9ad79f9d93889cb58ab59265a1efd1", "type": "electric_scooter", "is_disabled": 0, "lat": 38.93546766666667, "rental_uris": {"ios": "https://dc.lft.to/lastmile_qr_scan", "android": "https://dc.lft.to/lastmile_qr_scan"}, "is_reserved": 0, "fusion_lon": 0.0, "fusion_lat": 0.0, "lon": -77.03682033333334, "name": "9a9ad79f9d93889cb58ab59265a1efd1"}, {"bike_id": "ed85ef36af9b18b5ec1d400ae0e7cbbb", "type": "electric_scooter", "is_disabled": 0, "lat": 38.9224585, "rental_uris": {"ios": "https://dc.lft.to/lastmile_qr_scan", "android": "https://dc.lft.to/lastmile_qr_scan"}, "is_reserved": 0, "fusion_lon": 0.0, "fusion_lat": 0.0, "lon": -77.0419795, "name": "ed85ef36af9b18b5ec1d400ae0e7cbbb"}, {"bike_id": "e7f9ffccd6d2cea466af3f31feefaf8f", "type": "electric_scooter", "is_disabled": 0, "lat": 38.9341305, "rental_uris": {"ios": "https://dc.lft.to/lastmile_qr_scan", "android": "https://dc.lft.to/lastmile_qr_scan"}, "is_reserved": 0, "fusion_lon": 0.0, "fusion_lat": 0.0, "lon": -77.041457, "name": "e7f9ffccd6d2cea466af3f31feefaf8f"}, {"bike_id": "475ecf4d6db63c815161ebcfa8600c00", "type": "electric_bike", "is_disabled": 0, "lat": 38.88243933333333, "rental_uris": {"ios": "https://dc.lft.to/lastmile_qr_scan", "android": "https://dc.lft.to/lastmile_qr_scan"}, "is_reserved": 0, "fusion_lon": 0.0, "fusion_lat": 0.0, "lon": -76.96258466666667, "name": "475ecf4d6db63c815161ebcfa8600c00"}, {"bike_id": "feacb400f6e2b56c1b4f3234870dd6e3", "type": "electric_scooter", "is_disabled": 0, "lat": 38.918261, "rental_uris": {"ios": "https://dc.lft.to/lastmile_qr_scan", "android": "https://dc.lft.to/lastmile_qr_scan"}, "is_reserved": 0, "fusion_lon": 0.0, "fusion_lat": 0.0, "lon": -77.03187666666666, "name": "feacb400f6e2b56c1b4f3234870dd6e3"}, {"bike_id": "dd9d818219ae9de6995159f53479bb4f", "type": "electric_scooter", "is_disabled": 0, "lat": 38.932158666666666, "rental_uris": {"ios": "https://dc.lft.to/lastmile_qr_scan", "android": "https://dc.lft.to/lastmile_qr_scan"}, "is_reserved": 0, "fusion_lon": 0.0, "fusion_lat": 0.0, "lon": -77.03362816666667, "name": "dd9d818219ae9de6995159f53479bb4f"}, {"bike_id": "9d1d9d7ffff724adb0e0d58cd679d0df", "type": "electric_scooter", "is_disabled": 0, "lat": 38.90466833333333, "rental_uris": {"ios": "https://dc.lft.to/lastmile_qr_scan", "android": "https://dc.lft.to/lastmile_qr_scan"}, "is_reserved": 0, "fusion_lon": 0.0, "fusion_lat": 0.0, "lon": -76.97607333333333, "name": "9d1d9d7ffff724adb0e0d58cd679d0df"}, {"bike_id": "fd40f84c56f99f6770963b45c7c195bf", "type": "electric_scooter", "is_disabled": 0, "lat": 38.90684666666667, "rental_uris": {"ios": "https://dc.lft.to/lastmile_qr_scan", "android": "https://dc.lft.to/lastmile_qr_scan"}, "is_reserved": 0, "fusion_lon": 0.0, "fusion_lat": 0.0, "lon": -77.06255583333333, "name": "fd40f84c56f99f6770963b45c7c195bf"}, {"bike_id": "449db661b66e2eb84296afc153faf29a", "type": "electric_scooter", "is_disabled": 0, "lat": 38.91326216666667, "rental_uris": {"ios": "https://dc.lft.to/lastmile_qr_scan", "android": "https://dc.lft.to/lastmile_qr_scan"}, "is_reserved": 0, "fusion_lon": 0.0, "fusion_lat": 0.0, "lon": -77.03242, "name": "449db661b66e2eb84296afc153faf29a"}, {"bike_id": "981e2ddb480642492457fb7266102ec7", "type": "electric_bike", "is_disabled": 0, "lat": 38.93228766666667, "rental_uris": {"ios": "https://dc.lft.to/lastmile_qr_scan", "android": "https://dc.lft.to/lastmile_qr_scan"}, "is_reserved": 0, "fusion_lon": 0.0, "fusion_lat": 0.0, "lon": -77.18122116666666, "name": "981e2ddb480642492457fb7266102ec7"}, {"bike_id": "a12129c9fedfca0a771a877400ae7bd7", "type": "electric_scooter", "is_disabled": 0, "lat": 38.929531833333336, "rental_uris": {"ios": "https://dc.lft.to/lastmile_qr_scan", "android": "https://dc.lft.to/lastmile_qr_scan"}, "is_reserved": 0, "fusion_lon": 0.0, "fusion_lat": 0.0, "lon": -77.04400316666667, "name": "a12129c9fedfca0a771a877400ae7bd7"}, {"bike_id": "675afd526d78bba436ec4a989df3814b", "type": "electric_bike", "is_disabled": 0, "lat": 38.934457333333334, "rental_uris": {"ios": "https://dc.lft.to/lastmile_qr_scan", "android": "https://dc.lft.to/lastmile_qr_scan"}, "is_reserved": 0, "fusion_lon": 0.0, "fusion_lat": 0.0, "lon": -77.04121683333334, "name": "675afd526d78bba436ec4a989df3814b"}, {"bike_id": "516123896b0c7c98faa9130f6339ca19", "type": "electric_scooter", "is_disabled": 0, "lat": 38.9397415, "rental_uris": {"ios": "https://dc.lft.to/lastmile_qr_scan", "android": "https://dc.lft.to/lastmile_qr_scan"}, "is_reserved": 0, "fusion_lon": 0.0, "fusion_lat": 0.0, "lon": -77.02499233333333, "name": "516123896b0c7c98faa9130f6339ca19"}, {"bike_id": "bc17fd05dc1733139af5c1229c7ed306", "type": "electric_scooter", "is_disabled": 0, "lat": 38.9233795, "rental_uris": {"ios": "https://dc.lft.to/lastmile_qr_scan", "android": "https://dc.lft.to/lastmile_qr_scan"}, "is_reserved": 0, "fusion_lon": 0.0, "fusion_lat": 0.0, "lon": -77.05040483333333, "name": "bc17fd05dc1733139af5c1229c7ed306"}, {"bike_id": "41ed93bb4bf03308bbf3d09659e8667e", "type": "electric_scooter", "is_disabled": 0, "lat": 38.916156, "rental_uris": {"ios": "https://dc.lft.to/lastmile_qr_scan", "android": "https://dc.lft.to/lastmile_qr_scan"}, "is_reserved": 0, "fusion_lon": 0.0, "fusion_lat": 0.0, "lon": -77.03643016666666, "name": "41ed93bb4bf03308bbf3d09659e8667e"}, {"bike_id": "a92f5cf564aff875774b4069185facab", "type": "electric_scooter", "is_disabled": 0, "lat": 38.909519333333336, "rental_uris": {"ios": "https://dc.lft.to/lastmile_qr_scan", "android": "https://dc.lft.to/lastmile_qr_scan"}, "is_reserved": 0, "fusion_lon": 0.0, "fusion_lat": 0.0, "lon": -77.0270445, "name": "a92f5cf564aff875774b4069185facab"}, {"bike_id": "f476447ac90a13cf2253d37041338218", "type": "electric_scooter", "is_disabled": 0, "lat": 38.925415, "rental_uris": {"ios": "https://dc.lft.to/lastmile_qr_scan", "android": "https://dc.lft.to/lastmile_qr_scan"}, "is_reserved": 0, "fusion_lon": 0.0, "fusion_lat": 0.0, "lon": -77.02285216666667, "name": "f476447ac90a13cf2253d37041338218"}, {"bike_id": "8b7a50eff0d85a7617cd23d09fc9bc39", "type": "electric_scooter", "is_disabled": 0, "lat": 38.90898383333333, "rental_uris": {"ios": "https://dc.lft.to/lastmile_qr_scan", "android": "https://dc.lft.to/lastmile_qr_scan"}, "is_reserved": 0, "fusion_lon": 0.0, "fusion_lat": 0.0, "lon": -77.0861775, "name": "8b7a50eff0d85a7617cd23d09fc9bc39"}, {"bike_id": "5d63d8a540cfd8b0bb22a1400527e69b", "type": "electric_scooter", "is_disabled": 0, "lat": 38.9589755, "rental_uris": {"ios": "https://dc.lft.to/lastmile_qr_scan", "android": "https://dc.lft.to/lastmile_qr_scan"}, "is_reserved": 0, "fusion_lon": 0.0, "fusion_lat": 0.0, "lon": -77.08597383333333, "name": "5d63d8a540cfd8b0bb22a1400527e69b"}, {"bike_id": "ec6267dde6e0a6e436d3a93025225dab", "type": "electric_scooter", "is_disabled": 0, "lat": 38.8706875, "rental_uris": {"ios": "https://dc.lft.to/lastmile_qr_scan", "android": "https://dc.lft.to/lastmile_qr_scan"}, "is_reserved": 0, "fusion_lon": 0.0, "fusion_lat": 0.0, "lon": -77.01196133333333, "name": "ec6267dde6e0a6e436d3a93025225dab"}, {"bike_id": "c6af778258c5f4069511fc4c1e74c410", "type": "electric_scooter", "is_disabled": 0, "lat": 38.871137, "rental_uris": {"ios": "https://dc.lft.to/lastmile_qr_scan", "android": "https://dc.lft.to/lastmile_qr_scan"}, "is_reserved": 0, "fusion_lon": 0.0, "fusion_lat": 0.0, "lon": -77.007563, "name": "c6af778258c5f4069511fc4c1e74c410"}, {"bike_id": "b6729773b86640864f56367b492f6e14", "type": "electric_scooter", "is_disabled": 0, "lat": 38.91633733333333, "rental_uris": {"ios": "https://dc.lft.to/lastmile_qr_scan", "android": "https://dc.lft.to/lastmile_qr_scan"}, "is_reserved": 0, "fusion_lon": 0.0, "fusion_lat": 0.0, "lon": -77.00047616666667, "name": "b6729773b86640864f56367b492f6e14"}, {"bike_id": "7d54db00a97c8d458440352fbfa8562e", "type": "electric_scooter", "is_disabled": 0, "lat": 38.920788333333334, "rental_uris": {"ios": "https://dc.lft.to/lastmile_qr_scan", "android": "https://dc.lft.to/lastmile_qr_scan"}, "is_reserved": 0, "fusion_lon": 0.0, "fusion_lat": 0.0, "lon": -77.0240635, "name": "7d54db00a97c8d458440352fbfa8562e"}, {"bike_id": "86d5aa4c024ccfecc44b9927cb31665e", "type": "electric_scooter", "is_disabled": 0, "lat": 38.914807, "rental_uris": {"ios": "https://dc.lft.to/lastmile_qr_scan", "android": "https://dc.lft.to/lastmile_qr_scan"}, "is_reserved": 0, "fusion_lon": 0.0, "fusion_lat": 0.0, "lon": -77.021943, "name": "86d5aa4c024ccfecc44b9927cb31665e"}, {"bike_id": "0a5cbf3b78cb777f55c9ed4f8aac327e", "type": "electric_scooter", "is_disabled": 0, "lat": 38.931929333333336, "rental_uris": {"ios": "https://dc.lft.to/lastmile_qr_scan", "android": "https://dc.lft.to/lastmile_qr_scan"}, "is_reserved": 0, "fusion_lon": 0.0, "fusion_lat": 0.0, "lon": -77.01959683333334, "name": "0a5cbf3b78cb777f55c9ed4f8aac327e"}, {"bike_id": "df6bc7ca9935be64387b3bf4e134452b", "type": "electric_scooter", "is_disabled": 0, "lat": 38.898967166666665, "rental_uris": {"ios": "https://dc.lft.to/lastmile_qr_scan", "android": "https://dc.lft.to/lastmile_qr_scan"}, "is_reserved": 0, "fusion_lon": 0.0, "fusion_lat": 0.0, "lon": -77.01521333333334, "name": "df6bc7ca9935be64387b3bf4e134452b"}, {"bike_id": "8f78ad3320f2498078ad42c5820a433f", "type": "electric_scooter", "is_disabled": 0, "lat": 38.951525333333336, "rental_uris": {"ios": "https://dc.lft.to/lastmile_qr_scan", "android": "https://dc.lft.to/lastmile_qr_scan"}, "is_reserved": 0, "fusion_lon": 0.0, "fusion_lat": 0.0, "lon": -77.01868483333334, "name": "8f78ad3320f2498078ad42c5820a433f"}, {"bike_id": "87a50b5178435cf77cc62b6da4eb2620", "type": "electric_scooter", "is_disabled": 0, "lat": 38.916493833333334, "rental_uris": {"ios": "https://dc.lft.to/lastmile_qr_scan", "android": "https://dc.lft.to/lastmile_qr_scan"}, "is_reserved": 0, "fusion_lon": 0.0, "fusion_lat": 0.0, "lon": -77.04249516666667, "name": "87a50b5178435cf77cc62b6da4eb2620"}, {"bike_id": "439158938f4ef801ea2d558ec2271393", "type": "electric_scooter", "is_disabled": 0, "lat": 38.877239833333334, "rental_uris": {"ios": "https://dc.lft.to/lastmile_qr_scan", "android": "https://dc.lft.to/lastmile_qr_scan"}, "is_reserved": 0, "fusion_lon": 0.0, "fusion_lat": 0.0, "lon": -77.01767833333334, "name": "439158938f4ef801ea2d558ec2271393"}, {"bike_id": "0bb3523c39bcf398eb2904504718902f", "type": "electric_scooter", "is_disabled": 0, "lat": 38.89323916666667, "rental_uris": {"ios": "https://dc.lft.to/lastmile_qr_scan", "android": "https://dc.lft.to/lastmile_qr_scan"}, "is_reserved": 0, "fusion_lon": 0.0, "fusion_lat": 0.0, "lon": -77.048765, "name": "0bb3523c39bcf398eb2904504718902f"}, {"bike_id": "92a28bdbb50aeff93c39a594c414910e", "type": "electric_scooter", "is_disabled": 0, "lat": 38.91982816666667, "rental_uris": {"ios": "https://dc.lft.to/lastmile_qr_scan", "android": "https://dc.lft.to/lastmile_qr_scan"}, "is_reserved": 0, "fusion_lon": 0.0, "fusion_lat": 0.0, "lon": -77.03210816666666, "name": "92a28bdbb50aeff93c39a594c414910e"}, {"bike_id": "de6b84452920e41bb8b2f99359bac23b", "type": "electric_scooter", "is_disabled": 0, "lat": 38.92322516666667, "rental_uris": {"ios": "https://dc.lft.to/lastmile_qr_scan", "android": "https://dc.lft.to/lastmile_qr_scan"}, "is_reserved": 0, "fusion_lon": 0.0, "fusion_lat": 0.0, "lon": -77.021453, "name": "de6b84452920e41bb8b2f99359bac23b"}, {"bike_id": "4b0ffa29badca751225ef87bdd407e0a", "type": "electric_scooter", "is_disabled": 0, "lat": 38.9216785, "rental_uris": {"ios": "https://dc.lft.to/lastmile_qr_scan", "android": "https://dc.lft.to/lastmile_qr_scan"}, "is_reserved": 0, "fusion_lon": 0.0, "fusion_lat": 0.0, "lon": -77.0191435, "name": "4b0ffa29badca751225ef87bdd407e0a"}, {"bike_id": "45e71dfbbb1434d49c13e2f4aae41b87", "type": "electric_scooter", "is_disabled": 0, "lat": 38.95729683333333, "rental_uris": {"ios": "https://dc.lft.to/lastmile_qr_scan", "android": "https://dc.lft.to/lastmile_qr_scan"}, "is_reserved": 0, "fusion_lon": 0.0, "fusion_lat": 0.0, "lon": -77.02400883333334, "name": "45e71dfbbb1434d49c13e2f4aae41b87"}, {"bike_id": "3573722a9671cb2ac79b8066af448c0d", "type": "electric_scooter", "is_disabled": 0, "lat": 38.89042366666666, "rental_uris": {"ios": "https://dc.lft.to/lastmile_qr_scan", "android": "https://dc.lft.to/lastmile_qr_scan"}, "is_reserved": 0, "fusion_lon": 0.0, "fusion_lat": 0.0, "lon": -77.01504966666667, "name": "3573722a9671cb2ac79b8066af448c0d"}, {"bike_id": "4835a6e8e6b69f44b62d60ba4b0d8836", "type": "electric_scooter", "is_disabled": 0, "lat": 38.90518, "rental_uris": {"ios": "https://dc.lft.to/lastmile_qr_scan", "android": "https://dc.lft.to/lastmile_qr_scan"}, "is_reserved": 0, "fusion_lon": 0.0, "fusion_lat": 0.0, "lon": -77.02505533333333, "name": "4835a6e8e6b69f44b62d60ba4b0d8836"}, {"bike_id": "9f50efdb62e0c6e4246e632d2f7eaaf3", "type": "electric_scooter", "is_disabled": 0, "lat": 38.86455383333333, "rental_uris": {"ios": "https://dc.lft.to/lastmile_qr_scan", "android": "https://dc.lft.to/lastmile_qr_scan"}, "is_reserved": 0, "fusion_lon": 0.0, "fusion_lat": 0.0, "lon": -77.012623, "name": "9f50efdb62e0c6e4246e632d2f7eaaf3"}, {"bike_id": "ab1417e33ab14efaf063dea572acf8f6", "type": "electric_scooter", "is_disabled": 0, "lat": 38.91790366666667, "rental_uris": {"ios": "https://dc.lft.to/lastmile_qr_scan", "android": "https://dc.lft.to/lastmile_qr_scan"}, "is_reserved": 0, "fusion_lon": 0.0, "fusion_lat": 0.0, "lon": -77.03120583333333, "name": "ab1417e33ab14efaf063dea572acf8f6"}, {"bike_id": "eb4a2430ff5fb5fb4d7300ba5d144990", "type": "electric_scooter", "is_disabled": 0, "lat": 38.923719166666665, "rental_uris": {"ios": "https://dc.lft.to/lastmile_qr_scan", "android": "https://dc.lft.to/lastmile_qr_scan"}, "is_reserved": 0, "fusion_lon": 0.0, "fusion_lat": 0.0, "lon": -77.02528483333333, "name": "eb4a2430ff5fb5fb4d7300ba5d144990"}, {"bike_id": "6f53db0e3b9cb59e5cff47493301111c", "type": "electric_scooter", "is_disabled": 0, "lat": 38.922807166666665, "rental_uris": {"ios": "https://dc.lft.to/lastmile_qr_scan", "android": "https://dc.lft.to/lastmile_qr_scan"}, "is_reserved": 0, "fusion_lon": 0.0, "fusion_lat": 0.0, "lon": -76.99459016666667, "name": "6f53db0e3b9cb59e5cff47493301111c"}, {"bike_id": "2423f835c630acb55116e9de35b035e8", "type": "electric_scooter", "is_disabled": 0, "lat": 38.951542333333336, "rental_uris": {"ios": "https://dc.lft.to/lastmile_qr_scan", "android": "https://dc.lft.to/lastmile_qr_scan"}, "is_reserved": 0, "fusion_lon": 0.0, "fusion_lat": 0.0, "lon": -77.0187105, "name": "2423f835c630acb55116e9de35b035e8"}, {"bike_id": "c8b4ab0566c5aa6ddb0fdb46866bce75", "type": "electric_bike", "is_disabled": 0, "lat": 38.962081833333336, "rental_uris": {"ios": "https://dc.lft.to/lastmile_qr_scan", "android": "https://dc.lft.to/lastmile_qr_scan"}, "is_reserved": 0, "fusion_lon": 0.0, "fusion_lat": 0.0, "lon": -77.027884, "name": "c8b4ab0566c5aa6ddb0fdb46866bce75"}, {"bike_id": "32b505c5de140f3a08916aa6c36f68a1", "type": "electric_scooter", "is_disabled": 0, "lat": 38.917040666666665, "rental_uris": {"ios": "https://dc.lft.to/lastmile_qr_scan", "android": "https://dc.lft.to/lastmile_qr_scan"}, "is_reserved": 0, "fusion_lon": 0.0, "fusion_lat": 0.0, "lon": -77.09577216666666, "name": "32b505c5de140f3a08916aa6c36f68a1"}, {"bike_id": "4d277cd8dcc4447c3bb542198152a2ea", "type": "electric_scooter", "is_disabled": 0, "lat": 38.92071516666667, "rental_uris": {"ios": "https://dc.lft.to/lastmile_qr_scan", "android": "https://dc.lft.to/lastmile_qr_scan"}, "is_reserved": 0, "fusion_lon": 0.0, "fusion_lat": 0.0, "lon": -77.025068, "name": "4d277cd8dcc4447c3bb542198152a2ea"}, {"bike_id": "f106e7a99b3bc497f21f02bb934280f8", "type": "electric_scooter", "is_disabled": 0, "lat": 38.914049166666665, "rental_uris": {"ios": "https://dc.lft.to/lastmile_qr_scan", "android": "https://dc.lft.to/lastmile_qr_scan"}, "is_reserved": 0, "fusion_lon": 0.0, "fusion_lat": 0.0, "lon": -77.03226383333333, "name": "f106e7a99b3bc497f21f02bb934280f8"}, {"bike_id": "79bdf6aa17b3e7b906a20cca5ec1a55a", "type": "electric_scooter", "is_disabled": 0, "lat": 38.90647, "rental_uris": {"ios": "https://dc.lft.to/lastmile_qr_scan", "android": "https://dc.lft.to/lastmile_qr_scan"}, "is_reserved": 0, "fusion_lon": 0.0, "fusion_lat": 0.0, "lon": -77.02495533333334, "name": "79bdf6aa17b3e7b906a20cca5ec1a55a"}, {"bike_id": "9060e34266d8dd99823616169d2b5e50", "type": "electric_scooter", "is_disabled": 0, "lat": 38.93327716666667, "rental_uris": {"ios": "https://dc.lft.to/lastmile_qr_scan", "android": "https://dc.lft.to/lastmile_qr_scan"}, "is_reserved": 0, "fusion_lon": 0.0, "fusion_lat": 0.0, "lon": -77.03255383333334, "name": "9060e34266d8dd99823616169d2b5e50"}, {"bike_id": "e5db78db7f3f15062526d5bd2f58b19d", "type": "electric_scooter", "is_disabled": 0, "lat": 38.90393816666667, "rental_uris": {"ios": "https://dc.lft.to/lastmile_qr_scan", "android": "https://dc.lft.to/lastmile_qr_scan"}, "is_reserved": 0, "fusion_lon": 0.0, "fusion_lat": 0.0, "lon": -77.00577883333334, "name": "e5db78db7f3f15062526d5bd2f58b19d"}, {"bike_id": "45f08f4b289e0745312675b3c239a92a", "type": "electric_scooter", "is_disabled": 0, "lat": 38.906601, "rental_uris": {"ios": "https://dc.lft.to/lastmile_qr_scan", "android": "https://dc.lft.to/lastmile_qr_scan"}, "is_reserved": 0, "fusion_lon": 0.0, "fusion_lat": 0.0, "lon": -77.00922616666666, "name": "45f08f4b289e0745312675b3c239a92a"}, {"bike_id": "7cdf1689307f5f70321f6a8ea5f806b3", "type": "electric_bike", "is_disabled": 0, "lat": 39.03739933333333, "rental_uris": {"ios": "https://dc.lft.to/lastmile_qr_scan", "android": "https://dc.lft.to/lastmile_qr_scan"}, "is_reserved": 0, "fusion_lon": 0.0, "fusion_lat": 0.0, "lon": -77.05477266666666, "name": "7cdf1689307f5f70321f6a8ea5f806b3"}, {"bike_id": "a7527e604de543d2984d8c5ef1ea6b3e", "type": "electric_scooter", "is_disabled": 0, "lat": 38.928695, "rental_uris": {"ios": "https://dc.lft.to/lastmile_qr_scan", "android": "https://dc.lft.to/lastmile_qr_scan"}, "is_reserved": 0, "fusion_lon": 0.0, "fusion_lat": 0.0, "lon": -77.01371883333333, "name": "a7527e604de543d2984d8c5ef1ea6b3e"}, {"bike_id": "ecccf866dea0612f68ae5f66cb2f3d8a", "type": "electric_scooter", "is_disabled": 0, "lat": 38.905373166666664, "rental_uris": {"ios": "https://dc.lft.to/lastmile_qr_scan", "android": "https://dc.lft.to/lastmile_qr_scan"}, "is_reserved": 0, "fusion_lon": 0.0, "fusion_lat": 0.0, "lon": -77.06890983333334, "name": "ecccf866dea0612f68ae5f66cb2f3d8a"}, {"bike_id": "0f9b3153045f19054c4b1f8e777c8113", "type": "electric_scooter", "is_disabled": 0, "lat": 38.907597833333334, "rental_uris": {"ios": "https://dc.lft.to/lastmile_qr_scan", "android": "https://dc.lft.to/lastmile_qr_scan"}, "is_reserved": 0, "fusion_lon": 0.0, "fusion_lat": 0.0, "lon": -77.0434165, "name": "0f9b3153045f19054c4b1f8e777c8113"}, {"bike_id": "ebf6f63666ec0d9abc31c7d105674650", "type": "electric_scooter", "is_disabled": 0, "lat": 38.921576, "rental_uris": {"ios": "https://dc.lft.to/lastmile_qr_scan", "android": "https://dc.lft.to/lastmile_qr_scan"}, "is_reserved": 0, "fusion_lon": 0.0, "fusion_lat": 0.0, "lon": -77.027124, "name": "ebf6f63666ec0d9abc31c7d105674650"}, {"bike_id": "7769de2c3bbe57f87923b55ed3cc80f8", "type": "electric_bike", "is_disabled": 0, "lat": 38.908276666666666, "rental_uris": {"ios": "https://dc.lft.to/lastmile_qr_scan", "android": "https://dc.lft.to/lastmile_qr_scan"}, "is_reserved": 0, "fusion_lon": 0.0, "fusion_lat": 0.0, "lon": -76.94153966666667, "name": "7769de2c3bbe57f87923b55ed3cc80f8"}, {"bike_id": "cb37105dee0bc610af30535b280e4399", "type": "electric_bike", "is_disabled": 0, "lat": 39.054944666666664, "rental_uris": {"ios": "https://dc.lft.to/lastmile_qr_scan", "android": "https://dc.lft.to/lastmile_qr_scan"}, "is_reserved": 0, "fusion_lon": 0.0, "fusion_lat": 0.0, "lon": -77.11789016666667, "name": "cb37105dee0bc610af30535b280e4399"}, {"bike_id": "d20a807505b928853561b3a8ba38a04d", "type": "electric_scooter", "is_disabled": 0, "lat": 38.94120216666666, "rental_uris": {"ios": "https://dc.lft.to/lastmile_qr_scan", "android": "https://dc.lft.to/lastmile_qr_scan"}, "is_reserved": 0, "fusion_lon": 0.0, "fusion_lat": 0.0, "lon": -77.01540033333333, "name": "d20a807505b928853561b3a8ba38a04d"}, {"bike_id": "c1c198dc7bf33aff26f3c0b062d92396", "type": "electric_scooter", "is_disabled": 0, "lat": 38.893246, "rental_uris": {"ios": "https://dc.lft.to/lastmile_qr_scan", "android": "https://dc.lft.to/lastmile_qr_scan"}, "is_reserved": 0, "fusion_lon": 0.0, "fusion_lat": 0.0, "lon": -77.04875333333334, "name": "c1c198dc7bf33aff26f3c0b062d92396"}, {"bike_id": "170003b6ef8b456cf7a640f5c420087b", "type": "electric_scooter", "is_disabled": 0, "lat": 38.904809, "rental_uris": {"ios": "https://dc.lft.to/lastmile_qr_scan", "android": "https://dc.lft.to/lastmile_qr_scan"}, "is_reserved": 0, "fusion_lon": 0.0, "fusion_lat": 0.0, "lon": -77.03541916666667, "name": "170003b6ef8b456cf7a640f5c420087b"}, {"bike_id": "24ca1250fe153b1de88fbc6871c3f430", "type": "electric_bike", "is_disabled": 0, "lat": 38.799826, "rental_uris": {"ios": "https://dc.lft.to/lastmile_qr_scan", "android": "https://dc.lft.to/lastmile_qr_scan"}, "is_reserved": 0, "fusion_lon": 0.0, "fusion_lat": 0.0, "lon": -77.12975816666666, "name": "24ca1250fe153b1de88fbc6871c3f430"}, {"bike_id": "a3e859a2f30ff6ded35072001301e05e", "type": "electric_scooter", "is_disabled": 0, "lat": 38.922388833333336, "rental_uris": {"ios": "https://dc.lft.to/lastmile_qr_scan", "android": "https://dc.lft.to/lastmile_qr_scan"}, "is_reserved": 0, "fusion_lon": 0.0, "fusion_lat": 0.0, "lon": -77.02951933333334, "name": "a3e859a2f30ff6ded35072001301e05e"}, {"bike_id": "03fb2219acc71ff6bd8f4fa6b31e24ea", "type": "electric_scooter", "is_disabled": 0, "lat": 38.91576166666667, "rental_uris": {"ios": "https://dc.lft.to/lastmile_qr_scan", "android": "https://dc.lft.to/lastmile_qr_scan"}, "is_reserved": 0, "fusion_lon": 0.0, "fusion_lat": 0.0, "lon": -77.03466483333334, "name": "03fb2219acc71ff6bd8f4fa6b31e24ea"}, {"bike_id": "e0e125b4333de81731bc3b0017956262", "type": "electric_scooter", "is_disabled": 0, "lat": 38.901212666666666, "rental_uris": {"ios": "https://dc.lft.to/lastmile_qr_scan", "android": "https://dc.lft.to/lastmile_qr_scan"}, "is_reserved": 0, "fusion_lon": 0.0, "fusion_lat": 0.0, "lon": -77.04992816666666, "name": "e0e125b4333de81731bc3b0017956262"}, {"bike_id": "0da291912501da9b57c94545289d73fc", "type": "electric_scooter", "is_disabled": 0, "lat": 38.918239666666665, "rental_uris": {"ios": "https://dc.lft.to/lastmile_qr_scan", "android": "https://dc.lft.to/lastmile_qr_scan"}, "is_reserved": 0, "fusion_lon": 0.0, "fusion_lat": 0.0, "lon": -77.01022683333333, "name": "0da291912501da9b57c94545289d73fc"}, {"bike_id": "f19eaf7bc53a21a88d0172e009b4c605", "type": "electric_scooter", "is_disabled": 0, "lat": 38.862384, "rental_uris": {"ios": "https://dc.lft.to/lastmile_qr_scan", "android": "https://dc.lft.to/lastmile_qr_scan"}, "is_reserved": 0, "fusion_lon": 0.0, "fusion_lat": 0.0, "lon": -76.9951585, "name": "f19eaf7bc53a21a88d0172e009b4c605"}, {"bike_id": "bf68c4f144f179f09b3a5853ff46ac99", "type": "electric_scooter", "is_disabled": 0, "lat": 38.907473333333336, "rental_uris": {"ios": "https://dc.lft.to/lastmile_qr_scan", "android": "https://dc.lft.to/lastmile_qr_scan"}, "is_reserved": 0, "fusion_lon": 0.0, "fusion_lat": 0.0, "lon": -77.031818, "name": "bf68c4f144f179f09b3a5853ff46ac99"}, {"bike_id": "e1fb0a0c9085b0092175dec42529187e", "type": "electric_scooter", "is_disabled": 0, "lat": 38.927563166666665, "rental_uris": {"ios": "https://dc.lft.to/lastmile_qr_scan", "android": "https://dc.lft.to/lastmile_qr_scan"}, "is_reserved": 0, "fusion_lon": 0.0, "fusion_lat": 0.0, "lon": -77.03272116666666, "name": "e1fb0a0c9085b0092175dec42529187e"}, {"bike_id": "aab76b1c253023756bab5aaafdfe49d6", "type": "electric_scooter", "is_disabled": 0, "lat": 38.88038533333334, "rental_uris": {"ios": "https://dc.lft.to/lastmile_qr_scan", "android": "https://dc.lft.to/lastmile_qr_scan"}, "is_reserved": 0, "fusion_lon": 0.0, "fusion_lat": 0.0, "lon": -77.02505116666667, "name": "aab76b1c253023756bab5aaafdfe49d6"}, {"bike_id": "b9a306e71ddd938e96ed072fca2fe47c", "type": "electric_scooter", "is_disabled": 0, "lat": 38.89730466666666, "rental_uris": {"ios": "https://dc.lft.to/lastmile_qr_scan", "android": "https://dc.lft.to/lastmile_qr_scan"}, "is_reserved": 0, "fusion_lon": 0.0, "fusion_lat": 0.0, "lon": -77.003658, "name": "b9a306e71ddd938e96ed072fca2fe47c"}, {"bike_id": "df8ea106d7feb5ab94f0e116219c8293", "type": "electric_bike", "is_disabled": 0, "lat": 38.990888166666664, "rental_uris": {"ios": "https://dc.lft.to/lastmile_qr_scan", "android": "https://dc.lft.to/lastmile_qr_scan"}, "is_reserved": 0, "fusion_lon": 0.0, "fusion_lat": 0.0, "lon": -76.87495883333334, "name": "df8ea106d7feb5ab94f0e116219c8293"}, {"bike_id": "8df995510ca4c4430fcfd1e7aa9aed35", "type": "electric_scooter", "is_disabled": 0, "lat": 38.90502033333333, "rental_uris": {"ios": "https://dc.lft.to/lastmile_qr_scan", "android": "https://dc.lft.to/lastmile_qr_scan"}, "is_reserved": 0, "fusion_lon": 0.0, "fusion_lat": 0.0, "lon": -77.06015266666667, "name": "8df995510ca4c4430fcfd1e7aa9aed35"}, {"bike_id": "5f2e03c5711dba8b28341ea6a77fea6b", "type": "electric_scooter", "is_disabled": 0, "lat": 38.843159, "rental_uris": {"ios": "https://dc.lft.to/lastmile_qr_scan", "android": "https://dc.lft.to/lastmile_qr_scan"}, "is_reserved": 0, "fusion_lon": 0.0, "fusion_lat": 0.0, "lon": -76.99926933333333, "name": "5f2e03c5711dba8b28341ea6a77fea6b"}, {"bike_id": "5f5aa2fa053db21a3c093b2a9ff6bba2", "type": "electric_scooter", "is_disabled": 0, "lat": 38.894903, "rental_uris": {"ios": "https://dc.lft.to/lastmile_qr_scan", "android": "https://dc.lft.to/lastmile_qr_scan"}, "is_reserved": 0, "fusion_lon": 0.0, "fusion_lat": 0.0, "lon": -76.98833333333333, "name": "5f5aa2fa053db21a3c093b2a9ff6bba2"}, {"bike_id": "4ee2ec7dc1f5d8a856d2985553daedb4", "type": "electric_bike", "is_disabled": 0, "lat": 38.865098833333334, "rental_uris": {"ios": "https://dc.lft.to/lastmile_qr_scan", "android": "https://dc.lft.to/lastmile_qr_scan"}, "is_reserved": 0, "fusion_lon": 0.0, "fusion_lat": 0.0, "lon": -76.97330433333333, "name": "4ee2ec7dc1f5d8a856d2985553daedb4"}, {"bike_id": "f92a7e186c89f75e74dd8781d1ec91c5", "type": "electric_scooter", "is_disabled": 0, "lat": 38.8961425, "rental_uris": {"ios": "https://dc.lft.to/lastmile_qr_scan", "android": "https://dc.lft.to/lastmile_qr_scan"}, "is_reserved": 0, "fusion_lon": 0.0, "fusion_lat": 0.0, "lon": -77.02686033333333, "name": "f92a7e186c89f75e74dd8781d1ec91c5"}, {"bike_id": "0f14a0bb400f4a9ea345085f2c235228", "type": "electric_scooter", "is_disabled": 0, "lat": 38.8888435, "rental_uris": {"ios": "https://dc.lft.to/lastmile_qr_scan", "android": "https://dc.lft.to/lastmile_qr_scan"}, "is_reserved": 0, "fusion_lon": 0.0, "fusion_lat": 0.0, "lon": -76.99038166666666, "name": "0f14a0bb400f4a9ea345085f2c235228"}, {"bike_id": "0694b2281326fa13ca4030072ed0f7b6", "type": "electric_scooter", "is_disabled": 0, "lat": 38.900387333333335, "rental_uris": {"ios": "https://dc.lft.to/lastmile_qr_scan", "android": "https://dc.lft.to/lastmile_qr_scan"}, "is_reserved": 0, "fusion_lon": 0.0, "fusion_lat": 0.0, "lon": -76.91914966666667, "name": "0694b2281326fa13ca4030072ed0f7b6"}, {"bike_id": "220c6832e0cc22ba30bfaef5c3ee7995", "type": "electric_scooter", "is_disabled": 0, "lat": 38.892325166666666, "rental_uris": {"ios": "https://dc.lft.to/lastmile_qr_scan", "android": "https://dc.lft.to/lastmile_qr_scan"}, "is_reserved": 0, "fusion_lon": 0.0, "fusion_lat": 0.0, "lon": -77.04998083333334, "name": "220c6832e0cc22ba30bfaef5c3ee7995"}, {"bike_id": "a376fb5847724f12dcf2e4a43e8c76d8", "type": "electric_scooter", "is_disabled": 0, "lat": 38.91992, "rental_uris": {"ios": "https://dc.lft.to/lastmile_qr_scan", "android": "https://dc.lft.to/lastmile_qr_scan"}, "is_reserved": 0, "fusion_lon": 0.0, "fusion_lat": 0.0, "lon": -77.02405666666667, "name": "a376fb5847724f12dcf2e4a43e8c76d8"}, {"bike_id": "e52df5a7f5dacae2c008966fd332db94", "type": "electric_scooter", "is_disabled": 0, "lat": 38.91707666666667, "rental_uris": {"ios": "https://dc.lft.to/lastmile_qr_scan", "android": "https://dc.lft.to/lastmile_qr_scan"}, "is_reserved": 0, "fusion_lon": 0.0, "fusion_lat": 0.0, "lon": -77.03107866666667, "name": "e52df5a7f5dacae2c008966fd332db94"}, {"bike_id": "a2d9f2b891a91e8d0823414e0883f0e8", "type": "electric_scooter", "is_disabled": 0, "lat": 38.925229333333334, "rental_uris": {"ios": "https://dc.lft.to/lastmile_qr_scan", "android": "https://dc.lft.to/lastmile_qr_scan"}, "is_reserved": 0, "fusion_lon": 0.0, "fusion_lat": 0.0, "lon": -77.077132, "name": "a2d9f2b891a91e8d0823414e0883f0e8"}, {"bike_id": "6cd4bc591c5bfae9b654447ea7714a2b", "type": "electric_scooter", "is_disabled": 0, "lat": 38.909553333333335, "rental_uris": {"ios": "https://dc.lft.to/lastmile_qr_scan", "android": "https://dc.lft.to/lastmile_qr_scan"}, "is_reserved": 0, "fusion_lon": 0.0, "fusion_lat": 0.0, "lon": -77.02312533333334, "name": "6cd4bc591c5bfae9b654447ea7714a2b"}, {"bike_id": "6034bb2b6bbddb0f99321bb9a9e017e5", "type": "electric_scooter", "is_disabled": 0, "lat": 38.927534, "rental_uris": {"ios": "https://dc.lft.to/lastmile_qr_scan", "android": "https://dc.lft.to/lastmile_qr_scan"}, "is_reserved": 0, "fusion_lon": 0.0, "fusion_lat": 0.0, "lon": -77.032711, "name": "6034bb2b6bbddb0f99321bb9a9e017e5"}, {"bike_id": "475e4803aa5656eae1fbe7e39f8e352d", "type": "electric_scooter", "is_disabled": 0, "lat": 38.9207025, "rental_uris": {"ios": "https://dc.lft.to/lastmile_qr_scan", "android": "https://dc.lft.to/lastmile_qr_scan"}, "is_reserved": 0, "fusion_lon": 0.0, "fusion_lat": 0.0, "lon": -77.02508483333334, "name": "475e4803aa5656eae1fbe7e39f8e352d"}, {"bike_id": "f8c447e164146cd7b153203debc1f387", "type": "electric_scooter", "is_disabled": 0, "lat": 38.922179, "rental_uris": {"ios": "https://dc.lft.to/lastmile_qr_scan", "android": "https://dc.lft.to/lastmile_qr_scan"}, "is_reserved": 0, "fusion_lon": 0.0, "fusion_lat": 0.0, "lon": -77.034526, "name": "f8c447e164146cd7b153203debc1f387"}, {"bike_id": "177c2d4e7f90bcad9ba2081f197f96ad", "type": "electric_scooter", "is_disabled": 0, "lat": 38.902551, "rental_uris": {"ios": "https://dc.lft.to/lastmile_qr_scan", "android": "https://dc.lft.to/lastmile_qr_scan"}, "is_reserved": 0, "fusion_lon": 0.0, "fusion_lat": 0.0, "lon": -76.97547566666667, "name": "177c2d4e7f90bcad9ba2081f197f96ad"}, {"bike_id": "d9fd9d1b66712e519ecd53876f315ef7", "type": "electric_scooter", "is_disabled": 0, "lat": 38.90770283333333, "rental_uris": {"ios": "https://dc.lft.to/lastmile_qr_scan", "android": "https://dc.lft.to/lastmile_qr_scan"}, "is_reserved": 0, "fusion_lon": 0.0, "fusion_lat": 0.0, "lon": -77.0386035, "name": "d9fd9d1b66712e519ecd53876f315ef7"}, {"bike_id": "95c20f9e5c1b6725eea6a58aae3f07d9", "type": "electric_scooter", "is_disabled": 0, "lat": 38.88526266666667, "rental_uris": {"ios": "https://dc.lft.to/lastmile_qr_scan", "android": "https://dc.lft.to/lastmile_qr_scan"}, "is_reserved": 0, "fusion_lon": 0.0, "fusion_lat": 0.0, "lon": -77.011378, "name": "95c20f9e5c1b6725eea6a58aae3f07d9"}, {"bike_id": "978ecf726d7b300422e8e947347f2647", "type": "electric_scooter", "is_disabled": 0, "lat": 38.96138416666667, "rental_uris": {"ios": "https://dc.lft.to/lastmile_qr_scan", "android": "https://dc.lft.to/lastmile_qr_scan"}, "is_reserved": 0, "fusion_lon": 0.0, "fusion_lat": 0.0, "lon": -77.02985783333334, "name": "978ecf726d7b300422e8e947347f2647"}, {"bike_id": "1b13cdc08c22630cc36f01dc168c3738", "type": "electric_scooter", "is_disabled": 0, "lat": 38.90232616666667, "rental_uris": {"ios": "https://dc.lft.to/lastmile_qr_scan", "android": "https://dc.lft.to/lastmile_qr_scan"}, "is_reserved": 0, "fusion_lon": 0.0, "fusion_lat": 0.0, "lon": -77.002, "name": "1b13cdc08c22630cc36f01dc168c3738"}, {"bike_id": "0c7c1557aca3cd728d59c71e355f6a24", "type": "electric_bike", "is_disabled": 0, "lat": 39.039882, "rental_uris": {"ios": "https://dc.lft.to/lastmile_qr_scan", "android": "https://dc.lft.to/lastmile_qr_scan"}, "is_reserved": 0, "fusion_lon": 0.0, "fusion_lat": 0.0, "lon": -76.99926166666667, "name": "0c7c1557aca3cd728d59c71e355f6a24"}, {"bike_id": "2ff33d2e5ab7760f4a83a6eee3f117ab", "type": "electric_scooter", "is_disabled": 0, "lat": 38.90378116666667, "rental_uris": {"ios": "https://dc.lft.to/lastmile_qr_scan", "android": "https://dc.lft.to/lastmile_qr_scan"}, "is_reserved": 0, "fusion_lon": 0.0, "fusion_lat": 0.0, "lon": -77.04823333333333, "name": "2ff33d2e5ab7760f4a83a6eee3f117ab"}, {"bike_id": "d8ce32dbd4a10b2c16f9a7ee1c780743", "type": "electric_scooter", "is_disabled": 0, "lat": 38.90985366666666, "rental_uris": {"ios": "https://dc.lft.to/lastmile_qr_scan", "android": "https://dc.lft.to/lastmile_qr_scan"}, "is_reserved": 0, "fusion_lon": 0.0, "fusion_lat": 0.0, "lon": -77.03835833333333, "name": "d8ce32dbd4a10b2c16f9a7ee1c780743"}, {"bike_id": "119ba37ad8452a9f16490d0c59dbf21b", "type": "electric_scooter", "is_disabled": 0, "lat": 38.897319, "rental_uris": {"ios": "https://dc.lft.to/lastmile_qr_scan", "android": "https://dc.lft.to/lastmile_qr_scan"}, "is_reserved": 0, "fusion_lon": 0.0, "fusion_lat": 0.0, "lon": -77.05477083333334, "name": "119ba37ad8452a9f16490d0c59dbf21b"}, {"bike_id": "27cfa916a586d005348dac69cf8e50ab", "type": "electric_scooter", "is_disabled": 0, "lat": 38.906463, "rental_uris": {"ios": "https://dc.lft.to/lastmile_qr_scan", "android": "https://dc.lft.to/lastmile_qr_scan"}, "is_reserved": 0, "fusion_lon": 0.0, "fusion_lat": 0.0, "lon": -76.9858535, "name": "27cfa916a586d005348dac69cf8e50ab"}, {"bike_id": "a079fb17d54f77c231ca2d0ef33d534d", "type": "electric_scooter", "is_disabled": 0, "lat": 38.90499533333333, "rental_uris": {"ios": "https://dc.lft.to/lastmile_qr_scan", "android": "https://dc.lft.to/lastmile_qr_scan"}, "is_reserved": 0, "fusion_lon": 0.0, "fusion_lat": 0.0, "lon": -77.0601915, "name": "a079fb17d54f77c231ca2d0ef33d534d"}, {"bike_id": "a999191fed6e5446457cd70efcd7115b", "type": "electric_scooter", "is_disabled": 0, "lat": 38.9018185, "rental_uris": {"ios": "https://dc.lft.to/lastmile_qr_scan", "android": "https://dc.lft.to/lastmile_qr_scan"}, "is_reserved": 0, "fusion_lon": 0.0, "fusion_lat": 0.0, "lon": -77.03921866666667, "name": "a999191fed6e5446457cd70efcd7115b"}, {"bike_id": "216cd88a341f7bd19dfcaebe8a1e1721", "type": "electric_bike", "is_disabled": 0, "lat": 38.854367, "rental_uris": {"ios": "https://dc.lft.to/lastmile_qr_scan", "android": "https://dc.lft.to/lastmile_qr_scan"}, "is_reserved": 0, "fusion_lon": 0.0, "fusion_lat": 0.0, "lon": -77.08306983333334, "name": "216cd88a341f7bd19dfcaebe8a1e1721"}, {"bike_id": "5d7ffb2ad799f9816eafd8d956aa96f2", "type": "electric_scooter", "is_disabled": 0, "lat": 38.9363085, "rental_uris": {"ios": "https://dc.lft.to/lastmile_qr_scan", "android": "https://dc.lft.to/lastmile_qr_scan"}, "is_reserved": 0, "fusion_lon": 0.0, "fusion_lat": 0.0, "lon": -77.03654183333333, "name": "5d7ffb2ad799f9816eafd8d956aa96f2"}, {"bike_id": "4390506c458214ea4a472a1dbdd3274c", "type": "electric_scooter", "is_disabled": 0, "lat": 38.952686, "rental_uris": {"ios": "https://dc.lft.to/lastmile_qr_scan", "android": "https://dc.lft.to/lastmile_qr_scan"}, "is_reserved": 0, "fusion_lon": 0.0, "fusion_lat": 0.0, "lon": -77.0686165, "name": "4390506c458214ea4a472a1dbdd3274c"}, {"bike_id": "5908e9d284dd50f3c4c3a7664d1ff591", "type": "electric_scooter", "is_disabled": 0, "lat": 38.92339, "rental_uris": {"ios": "https://dc.lft.to/lastmile_qr_scan", "android": "https://dc.lft.to/lastmile_qr_scan"}, "is_reserved": 0, "fusion_lon": 0.0, "fusion_lat": 0.0, "lon": -77.0504605, "name": "5908e9d284dd50f3c4c3a7664d1ff591"}, {"bike_id": "f7f7048a5354fe9f9a25136b7a1a291c", "type": "electric_scooter", "is_disabled": 0, "lat": 38.918287666666664, "rental_uris": {"ios": "https://dc.lft.to/lastmile_qr_scan", "android": "https://dc.lft.to/lastmile_qr_scan"}, "is_reserved": 0, "fusion_lon": 0.0, "fusion_lat": 0.0, "lon": -77.03183066666666, "name": "f7f7048a5354fe9f9a25136b7a1a291c"},