{"data": {"bikes": [{"lat": 38.939539333333336, "is_disabled": 0, "lon": -77.07239866666667, "is_reserved": 0, "fusion_lon": 0.0, "fusion_lat": 0.0, "name": "94be6bfed28a0550f72a6d9f27586d0c", "type": "electric_scooter", "rental_uris": {"ios": "https://dc.lft.to/lastmile_qr_scan", "android": "https://dc.lft.to/lastmile_qr_scan"}, "bike_id": "94be6bfed28a0550f72a6d9f27586d0c"}, {"lat": 38.923802, "is_disabled": 0, "lon": -77.051524, "is_reserved": 0, "fusion_lon": 0.0, "fusion_lat": 0.0, "name": "0a31c6dec85f580e8ce1363721a0eebc", "type": "electric_scooter", "rental_uris": {"ios": "https://dc.lft.to/lastmile_qr_scan", "android": "https://dc.lft.to/lastmile_qr_scan"}, "bike_id": "0a31c6dec85f580e8ce1363721a0eebc"}, {"lat": 38.923488, "is_disabled": 0, "lon": -77.03290716666666, "is_reserved": 0, "fusion_lon": 0.0, "fusion_lat": 0.0, "name": "da373e57bdfd08e990f4c7b929572b5e", "type": "electric_scooter", "rental_uris": {"ios": "https://dc.lft.to/lastmile_qr_scan", "android": "https://dc.lft.to/lastmile_qr_scan"}, "bike_id": "da373e57bdfd08e990f4c7b929572b5e"}, {"lat": 38.9172435, "is_disabled": 0, "lon": -77.04176816666667, "is_reserved": 0, "fusion_lon": 0.0, "fusion_lat": 0.0, "name": "83c241786929b7e81857f5c1a336d297", "type": "electric_scooter", "rental_uris": {"ios": "https://dc.lft.to/lastmile_qr_scan", "android": "https://dc.lft.to/lastmile_qr_scan"}, "bike_id": "83c241786929b7e81857f5c1a336d297"}, {"lat": 38.91743116666667, "is_disabled": 0, "lon": -77.01720516666667, "is_reserved": 0, "fusion_lon": 0.0, "fusion_lat": 0.0, "name": "c197a551c6c1df5887ca62f3ab61e822", "type": "electric_scooter", "rental_uris": {"ios": "https://dc.lft.to/lastmile_qr_scan", "android": "https://dc.lft.to/lastmile_qr_scan"}, "bike_id": "c197a551c6c1df5887ca62f3ab61e822"}, {"lat": 38.9003185, "is_disabled": 0, "lon": -77.00214733333334, "is_reserved": 0, "fusion_lon": 0.0, "fusion_lat": 0.0, "name": "2be52f1e9e2da0fe2c3558440b40870c", "type": "electric_scooter", "rental_uris": {"ios": "https://dc.lft.to/lastmile_qr_scan", "android": "https://dc.lft.to/lastmile_qr_scan"}, "bike_id": "2be52f1e9e2da0fe2c3558440b40870c"}, {"lat": 38.955969833333334, "is_disabled": 0, "lon": -77.01008316666666, "is_reserved": 0, "fusion_lon": 0.0, "fusion_lat": 0.0, "name": "72a97d43e32d17d264ce4241cbef8079", "type": "electric_bike", "rental_uris": {"ios": "https://dc.lft.to/lastmile_qr_scan", "android": "https://dc.lft.to/lastmile_qr_scan"}, "bike_id": "72a97d43e32d17d264ce4241cbef8079"}, {"lat": 38.899322, "is_disabled": 0, "lon": -77.03147983333334, "is_reserved": 0, "fusion_lon": 0.0, "fusion_lat": 0.0, "name": "7d463a576a4e3a4de441dcc322597e03", "type": "electric_scooter", "rental_uris": {"ios": "https://dc.lft.to/lastmile_qr_scan", "android": "https://dc.lft.to/lastmile_qr_scan"}, "bike_id": "7d463a576a4e3a4de441dcc322597e03"}, {"lat": 38.906146666666665, "is_disabled": 0, "lon": -77.008717, "is_reserved": 0, "fusion_lon": 0.0, "fusion_lat": 0.0, "name": "2a482e308b0aae16abb45e03253b1098", "type": "electric_scooter", "rental_uris": {"ios": "https://dc.lft.to/lastmile_qr_scan", "android": "https://dc.lft.to/lastmile_qr_scan"}, "bike_id": "2a482e308b0aae16abb45e03253b1098"}, {"lat": 38.89841916666666, "is_disabled": 0, "lon": -77.01296433333333, "is_reserved": 0, "fusion_lon": 0.0, "fusion_lat": 0.0, "name": "19af3ff987f369d1cfef86fcb0d3b485", "type": "electric_scooter", "rental_uris": {"ios": "https://dc.lft.to/lastmile_qr_scan", "android": "https://dc.lft.to/lastmile_qr_scan"}, "bike_id": "19af3ff987f369d1cfef86fcb0d3b485"}, {"lat": 39.010936, "is_disabled": 0, "lon": -76.91069083333333, "is_reserved": 0, "fusion_lon": 0.0, "fusion_lat": 0.0, "name": "6b240421e1fbe834321159930d5ed9e4", "type": "electric_bike", "rental_uris": {"ios": "https://dc.lft.to/lastmile_qr_scan", "android": "https://dc.lft.to/lastmile_qr_scan"}, "bike_id": "6b240421e1fbe834321159930d5ed9e4"}, {"lat": 38.892330666666666, "is_disabled": 0, "lon": -77.02966633333334, "is_reserved": 0, "fusion_lon": 0.0, "fusion_lat": 0.0, "name": "9fdad4ab135aa48785dba251e6a9b516", "type": "electric_scooter", "rental_uris": {"ios": "https://dc.lft.to/lastmile_qr_scan", "android": "https://dc.lft.to/lastmile_qr_scan"}, "bike_id": "9fdad4ab135aa48785dba251e6a9b516"}, {"lat": 38.895114166666666, "is_disabled": 0, "lon": -77.02783583333333, "is_reserved": 0, "fusion_lon": 0.0, "fusion_lat": 0.0, "name": "3a56abc2fd93e87f70dfe7518e4d2261", "type": "electric_scooter", "rental_uris": {"ios": "https://dc.lft.to/lastmile_qr_scan", "android": "https://dc.lft.to/lastmile_qr_scan"}, "bike_id": "3a56abc2fd93e87f70dfe7518e4d2261"}, {"lat": 38.995129166666665, "is_disabled": 0, "lon": -77.0288675, "is_reserved": 0, "fusion_lon": 0.0, "fusion_lat": 0.0, "name": "269764b9b1e4ea1674ec790ed244e791", "type": "electric_bike", "rental_uris": {"ios": "https://dc.lft.to/lastmile_qr_scan", "android": "https://dc.lft.to/lastmile_qr_scan"}, "bike_id": "269764b9b1e4ea1674ec790ed244e791"}, {"lat": 38.9155145, "is_disabled": 0, "lon": -77.0317335, "is_reserved": 0, "fusion_lon": 0.0, "fusion_lat": 0.0, "name": "a2c3a5f12df330d0d334b56b5279aa71", "type": "electric_scooter", "rental_uris": {"ios": "https://dc.lft.to/lastmile_qr_scan", "android": "https://dc.lft.to/lastmile_qr_scan"}, "bike_id": "a2c3a5f12df330d0d334b56b5279aa71"}, {"lat": 38.892229, "is_disabled": 0, "lon": -77.04867666666667, "is_reserved": 0, "fusion_lon": 0.0, "fusion_lat": 0.0, "name": "17930afe12e14e29d107200cbb1e6021", "type": "electric_scooter", "rental_uris": {"ios": "https://dc.lft.to/lastmile_qr_scan", "android": "https://dc.lft.to/lastmile_qr_scan"}, "bike_id": "17930afe12e14e29d107200cbb1e6021"}, {"lat": 38.9269565, "is_disabled": 0, "lon": -77.02573016666666, "is_reserved": 0, "fusion_lon": 0.0, "fusion_lat": 0.0, "name": "7e3857ad579ae6a846954130f196b01f", "type": "electric_scooter", "rental_uris": {"ios": "https://dc.lft.to/lastmile_qr_scan", "android": "https://dc.lft.to/lastmile_qr_scan"}, "bike_id": "7e3857ad579ae6a846954130f196b01f"}, {"lat": 38.9160205, "is_disabled": 0, "lon": -77.04173466666667, "is_reserved": 0, "fusion_lon": 0.0, "fusion_lat": 0.0, "name": "1774eb23b19b9b455a8beadf489f38fe", "type": "electric_scooter", "rental_uris": {"ios": "https://dc.lft.to/lastmile_qr_scan", "android": "https://dc.lft.to/lastmile_qr_scan"}, "bike_id": "1774eb23b19b9b455a8beadf489f38fe"}, {"lat": 38.9190115, "is_disabled": 0, "lon": -77.02380366666667, "is_reserved": 0, "fusion_lon": 0.0, "fusion_lat": 0.0, "name": "e615776919748e2a55e3426705e4ea81", "type": "electric_scooter", "rental_uris": {"ios": "https://dc.lft.to/lastmile_qr_scan", "android": "https://dc.lft.to/lastmile_qr_scan"}, "bike_id": "e615776919748e2a55e3426705e4ea81"}, {"lat": 38.895543333333336, "is_disabled": 0, "lon": -76.93054683333334, "is_reserved": 0, "fusion_lon": 0.0, "fusion_lat": 0.0, "name": "a8706f51e1e7978324e368110b98358b", "type": "electric_scooter", "rental_uris": {"ios": "https://dc.lft.to/lastmile_qr_scan", "android": "https://dc.lft.to/lastmile_qr_scan"}, "bike_id": "a8706f51e1e7978324e368110b98358b"}, {"lat": 38.921667666666664, "is_disabled": 0, "lon": -77.0219205, "is_reserved": 0, "fusion_lon": 0.0, "fusion_lat": 0.0, "name": "664ccd1dd915daeb942477f65d83b782", "type": "electric_scooter", "rental_uris": {"ios": "https://dc.lft.to/lastmile_qr_scan", "android": "https://dc.lft.to/lastmile_qr_scan"}, "bike_id": "664ccd1dd915daeb942477f65d83b782"}, {"lat": 38.919298, "is_disabled": 0, "lon": -77.03426733333333, "is_reserved": 0, "fusion_lon": 0.0, "fusion_lat": 0.0, "name": "401e850d75ddacf2cf529d1f02e749d7", "type": "electric_scooter", "rental_uris": {"ios": "https://dc.lft.to/lastmile_qr_scan", "android": "https://dc.lft.to/lastmile_qr_scan"}, "bike_id": "401e850d75ddacf2cf529d1f02e749d7"}, {"lat": 38.90075233333334, "is_disabled": 0, "lon": -77.0540955, "is_reserved": 0, "fusion_lon": 0.0, "fusion_lat": 0.0, "name": "6d532a3c3241068bbe855abbf938a64f", "type": "electric_scooter", "rental_uris": {"ios": "https://dc.lft.to/lastmile_qr_scan", "android": "https://dc.lft.to/lastmile_qr_scan"}, "bike_id": "6d532a3c3241068bbe855abbf938a64f"}, {"lat": 38.87882333333334, "is_disabled": 0, "lon": -77.00051933333333, "is_reserved": 0, "fusion_lon": 0.0, "fusion_lat": 0.0, "name": "c01a1d202b6d1fa7bc7b7f10b8cd458f", "type": "electric_scooter", "rental_uris": {"ios": "https://dc.lft.to/lastmile_qr_scan", "android": "https://dc.lft.to/lastmile_qr_scan"}, "bike_id": "c01a1d202b6d1fa7bc7b7f10b8cd458f"}, {"lat": 38.92496383333334, "is_disabled": 0, "lon": -77.0393215, "is_reserved": 0, "fusion_lon": 0.0, "fusion_lat": 0.0, "name": "9df19a5da0bd300fe51475c2f2740faa", "type": "electric_scooter", "rental_uris": {"ios": "https://dc.lft.to/lastmile_qr_scan", "android": "https://dc.lft.to/lastmile_qr_scan"}, "bike_id": "9df19a5da0bd300fe51475c2f2740faa"}, {"lat": 38.898404166666666, "is_disabled": 0, "lon": -77.02701233333333, "is_reserved": 0, "fusion_lon": 0.0, "fusion_lat": 0.0, "name": "1e9c9c1a7d18c3a2d1587f0d4f8187dd", "type": "electric_scooter", "rental_uris": {"ios": "https://dc.lft.to/lastmile_qr_scan", "android": "https://dc.lft.to/lastmile_qr_scan"}, "bike_id": "1e9c9c1a7d18c3a2d1587f0d4f8187dd"}, {"lat": 38.902363333333334, "is_disabled": 0, "lon": -77.03730966666667, "is_reserved": 0, "fusion_lon": 0.0, "fusion_lat": 0.0, "name": "8cc0917764fd7c4f4fc6f215b3b18449", "type": "electric_scooter", "rental_uris": {"ios": "https://dc.lft.to/lastmile_qr_scan", "android": "https://dc.lft.to/lastmile_qr_scan"}, "bike_id": "8cc0917764fd7c4f4fc6f215b3b18449"}, {"lat": 38.900124, "is_disabled": 0, "lon": -77.006913, "is_reserved": 0, "fusion_lon": 0.0, "fusion_lat": 0.0, "name": "d04293b67f1a9ac68c69471c52bad0a0", "type": "electric_scooter", "rental_uris": {"ios": "https://dc.lft.to/lastmile_qr_scan", "android": "https://dc.lft.to/lastmile_qr_scan"}, "bike_id": "d04293b67f1a9ac68c69471c52bad0a0"}, {"lat": 39.022959, "is_disabled": 0, "lon": -77.02102483333333, "is_reserved": 0, "fusion_lon": 0.0, "fusion_lat": 0.0, "name": "86b413524d0933ba1e91c43248d8c477", "type": "electric_bike", "rental_uris": {"ios": "https://dc.lft.to/lastmile_qr_scan", "android": "https://dc.lft.to/lastmile_qr_scan"}, "bike_id": "86b413524d0933ba1e91c43248d8c477"}, {"lat": 38.919974833333335, "is_disabled": 0, "lon": -77.10210933333333, "is_reserved": 0, "fusion_lon": 0.0, "fusion_lat": 0.0, "name": "6dcc2f2123fa875273b7aa127752cbf4", "type": "electric_bike", "rental_uris": {"ios": "https://dc.lft.to/lastmile_qr_scan", "android": "https://dc.lft.to/lastmile_qr_scan"}, "bike_id": "6dcc2f2123fa875273b7aa127752cbf4"}, {"lat": 38.944725166666665, "is_disabled": 0, "lon": -76.986887, "is_reserved": 0, "fusion_lon": 0.0, "fusion_lat": 0.0, "name": "4e9fd28d0182d707b3defbfaa158d106", "type": "electric_bike", "rental_uris": {"ios": "https://dc.lft.to/lastmile_qr_scan", "android": "https://dc.lft.to/lastmile_qr_scan"}, "bike_id": "4e9fd28d0182d707b3defbfaa158d106"}, {"lat": 38.8194005, "is_disabled": 0, "lon": -77.00202733333333, "is_reserved": 0, "fusion_lon": 0.0, "fusion_lat": 0.0, "name": "07f8bc9dcb705b335fa26e07a8687dcc", "type": "electric_bike", "rental_uris": {"ios": "https://dc.lft.to/lastmile_qr_scan", "android": "https://dc.lft.to/lastmile_qr_scan"}, "bike_id": "07f8bc9dcb705b335fa26e07a8687dcc"}, {"lat": 38.8954965, "is_disabled": 0, "lon": -77.00910966666666, "is_reserved": 0, "fusion_lon": 0.0, "fusion_lat": 0.0, "name": "6f0289933328041594cb09e53f2f8f4b", "type": "electric_scooter", "rental_uris": {"ios": "https://dc.lft.to/lastmile_qr_scan", "android": "https://dc.lft.to/lastmile_qr_scan"}, "bike_id": "6f0289933328041594cb09e53f2f8f4b"}, {"lat": 38.951860833333335, "is_disabled": 0, "lon": -77.02638966666666, "is_reserved": 0, "fusion_lon": 0.0, "fusion_lat": 0.0, "name": "accb94fce9e3b6ae1face705d9e2b69c", "type": "electric_scooter", "rental_uris": {"ios": "https://dc.lft.to/lastmile_qr_scan", "android": "https://dc.lft.to/lastmile_qr_scan"}, "bike_id": "accb94fce9e3b6ae1face705d9e2b69c"}, {"lat": 38.918603, "is_disabled": 0, "lon": -76.9608945, "is_reserved": 0, "fusion_lon": 0.0, "fusion_lat": 0.0, "name": "8e1870634f138752d08c0370ae869273", "type": "electric_bike", "rental_uris": {"ios": "https://dc.lft.to/lastmile_qr_scan", "android": "https://dc.lft.to/lastmile_qr_scan"}, "bike_id": "8e1870634f138752d08c0370ae869273"}, {"lat": 38.922480666666665, "is_disabled": 0, "lon": -77.0306595, "is_reserved": 0, "fusion_lon": 0.0, "fusion_lat": 0.0, "name": "a4ac7ffb4dd2159589f9bc8d6416aa05", "type": "electric_scooter", "rental_uris": {"ios": "https://dc.lft.to/lastmile_qr_scan", "android": "https://dc.lft.to/lastmile_qr_scan"}, "bike_id": "a4ac7ffb4dd2159589f9bc8d6416aa05"}, {"lat": 38.89608166666667, "is_disabled": 0, "lon": -77.0468795, "is_reserved": 0, "fusion_lon": 0.0, "fusion_lat": 0.0, "name": "7e364a183c79b00a18faebcbf80b9aa6", "type": "electric_scooter", "rental_uris": {"ios": "https://dc.lft.to/lastmile_qr_scan", "android": "https://dc.lft.to/lastmile_qr_scan"}, "bike_id": "7e364a183c79b00a18faebcbf80b9aa6"}, {"lat": 38.9036595, "is_disabled": 0, "lon": -77.00289083333334, "is_reserved": 0, "fusion_lon": 0.0, "fusion_lat": 0.0, "name": "3f26d1905839a18d3f4983a1ca7e045c", "type": "electric_scooter", "rental_uris": {"ios": "https://dc.lft.to/lastmile_qr_scan", "android": "https://dc.lft.to/lastmile_qr_scan"}, "bike_id": "3f26d1905839a18d3f4983a1ca7e045c"}, {"lat": 38.92405133333333, "is_disabled": 0, "lon": -77.02540766666667, "is_reserved": 0, "fusion_lon": 0.0, "fusion_lat": 0.0, "name": "c6c9850ea49b8aab2769863d5dc5fcf0", "type": "electric_scooter", "rental_uris": {"ios": "https://dc.lft.to/lastmile_qr_scan", "android": "https://dc.lft.to/lastmile_qr_scan"}, "bike_id": "c6c9850ea49b8aab2769863d5dc5fcf0"}, {"lat": 38.9356335, "is_disabled": 0, "lon": -77.06430266666666, "is_reserved": 0, "fusion_lon": 0.0, "fusion_lat": 0.0, "name": "2d88bff5a48f0929ade10a0842de473b", "type": "electric_scooter", "rental_uris": {"ios": "https://dc.lft.to/lastmile_qr_scan", "android": "https://dc.lft.to/lastmile_qr_scan"}, "bike_id": "2d88bff5a48f0929ade10a0842de473b"}, {"lat": 39.084391333333336, "is_disabled": 0, "lon": -76.95158483333333, "is_reserved": 0, "fusion_lon": 0.0, "fusion_lat": 0.0, "name": "5d6f91f45f9c0e896b9a9aff516f14aa", "type": "electric_bike", "rental_uris": {"ios": "https://dc.lft.to/lastmile_qr_scan", "android": "https://dc.lft.to/lastmile_qr_scan"}, "bike_id": "5d6f91f45f9c0e896b9a9aff516f14aa"}, {"lat": 38.90112766666667, "is_disabled": 0, "lon": -77.02380766666667, "is_reserved": 0, "fusion_lon": 0.0, "fusion_lat": 0.0, "name": "35f260af24de0ed2b0242f5182a0239e", "type": "electric_scooter", "rental_uris": {"ios": "https://dc.lft.to/lastmile_qr_scan", "android": "https://dc.lft.to/lastmile_qr_scan"}, "bike_id": "35f260af24de0ed2b0242f5182a0239e"}, {"lat": 38.89229433333333, "is_disabled": 0, "lon": -77.05003816666667, "is_reserved": 0, "fusion_lon": 0.0, "fusion_lat": 0.0, "name": "4fb37d80f588d95e5a7ab6acddafcb74", "type": "electric_scooter", "rental_uris": {"ios": "https://dc.lft.to/lastmile_qr_scan", "android": "https://dc.lft.to/lastmile_qr_scan"}, "bike_id": "4fb37d80f588d95e5a7ab6acddafcb74"}, {"lat": 38.9028705, "is_disabled": 0, "lon": -77.0365405, "is_reserved": 0, "fusion_lon": 0.0, "fusion_lat": 0.0, "name": "da6fa4a95e8599696af4f27e90796a72", "type": "electric_scooter", "rental_uris": {"ios": "https://dc.lft.to/lastmile_qr_scan", "android": "https://dc.lft.to/lastmile_qr_scan"}, "bike_id": "da6fa4a95e8599696af4f27e90796a72"}, {"lat": 38.921799166666666, "is_disabled": 0, "lon": -77.035319, "is_reserved": 0, "fusion_lon": 0.0, "fusion_lat": 0.0, "name": "6308ad10bcaed0096c577017c67b0b8b", "type": "electric_scooter", "rental_uris": {"ios": "https://dc.lft.to/lastmile_qr_scan", "android": "https://dc.lft.to/lastmile_qr_scan"}, "bike_id": "6308ad10bcaed0096c577017c67b0b8b"}, {"lat": 38.90949083333334, "is_disabled": 0, "lon": -76.93591233333333, "is_reserved": 0, "fusion_lon": 0.0, "fusion_lat": 0.0, "name": "a2315697e9b0619fd7df4cec77bbab4d", "type": "electric_scooter", "rental_uris": {"ios": "https://dc.lft.to/lastmile_qr_scan", "android": "https://dc.lft.to/lastmile_qr_scan"}, "bike_id": "a2315697e9b0619fd7df4cec77bbab4d"}, {"lat": 38.93103716666667, "is_disabled": 0, "lon": -77.02667166666667, "is_reserved": 0, "fusion_lon": 0.0, "fusion_lat": 0.0, "name": "4dbab6fda5971d33da4c5ebfdfb18321", "type": "electric_scooter", "rental_uris": {"ios": "https://dc.lft.to/lastmile_qr_scan", "android": "https://dc.lft.to/lastmile_qr_scan"}, "bike_id": "4dbab6fda5971d33da4c5ebfdfb18321"}, {"lat": 38.91950933333333, "is_disabled": 0, "lon": -77.02481133333333, "is_reserved": 0, "fusion_lon": 0.0, "fusion_lat": 0.0, "name": "6d3defa743f1e34bf7efd59904988b4f", "type": "electric_scooter", "rental_uris": {"ios": "https://dc.lft.to/lastmile_qr_scan", "android": "https://dc.lft.to/lastmile_qr_scan"}, "bike_id": "6d3defa743f1e34bf7efd59904988b4f"}, {"lat": 38.90259183333333, "is_disabled": 0, "lon": -77.018449, "is_reserved": 0, "fusion_lon": 0.0, "fusion_lat": 0.0, "name": "f0e310c227ab7c47fef206ac7257f23c", "type": "electric_scooter", "rental_uris": {"ios": "https://dc.lft.to/lastmile_qr_scan", "android": "https://dc.lft.to/lastmile_qr_scan"}, "bike_id": "f0e310c227ab7c47fef206ac7257f23c"}, {"lat": 38.916320999999996, "is_disabled": 0, "lon": -77.0350395, "is_reserved": 0, "fusion_lon": 0.0, "fusion_lat": 0.0, "name": "556fcc19b9bd4d5268c16af8d01ca7e9", "type": "electric_scooter", "rental_uris": {"ios": "https://dc.lft.to/lastmile_qr_scan", "android": "https://dc.lft.to/lastmile_qr_scan"}, "bike_id": "556fcc19b9bd4d5268c16af8d01ca7e9"}, {"lat": 38.924682, "is_disabled": 0, "lon": -77.0338165, "is_reserved": 0, "fusion_lon": 0.0, "fusion_lat": 0.0, "name": "89a1ee8ae38ddd009af8e13e691bb077", "type": "electric_scooter", "rental_uris": {"ios": "https://dc.lft.to/lastmile_qr_scan", "android": "https://dc.lft.to/lastmile_qr_scan"}, "bike_id": "89a1ee8ae38ddd009af8e13e691bb077"}, {"lat": 38.90864466666667, "is_disabled": 0, "lon": -77.024249, "is_reserved": 0, "fusion_lon": 0.0, "fusion_lat": 0.0, "name": "07f2f7df76f82b18e27e73fe3d58f7d9", "type": "electric_scooter", "rental_uris": {"ios": "https://dc.lft.to/lastmile_qr_scan", "android": "https://dc.lft.to/lastmile_qr_scan"}, "bike_id": "07f2f7df76f82b18e27e73fe3d58f7d9"}, {"lat": 38.89425966666667, "is_disabled": 0, "lon": -77.02202766666667, "is_reserved": 0, "fusion_lon": 0.0, "fusion_lat": 0.0, "name": "9bd4820e924e3f56abe8148988b28309", "type": "electric_scooter", "rental_uris": {"ios": "https://dc.lft.to/lastmile_qr_scan", "android": "https://dc.lft.to/lastmile_qr_scan"}, "bike_id": "9bd4820e924e3f56abe8148988b28309"}, {"lat": 38.899120333333336, "is_disabled": 0, "lon": -77.05004966666667, "is_reserved": 0, "fusion_lon": 0.0, "fusion_lat": 0.0, "name": "203a76acb5e8d72540e8dd5cd6973828", "type": "electric_scooter", "rental_uris": {"ios": "https://dc.lft.to/lastmile_qr_scan", "android": "https://dc.lft.to/lastmile_qr_scan"}, "bike_id": "203a76acb5e8d72540e8dd5cd6973828"}, {"lat": 38.92072733333333, "is_disabled": 0, "lon": -77.02541183333334, "is_reserved": 0, "fusion_lon": 0.0, "fusion_lat": 0.0, "name": "b81fcd5bb431e3b349aaf9ca94db6f6f", "type": "electric_scooter", "rental_uris": {"ios": "https://dc.lft.to/lastmile_qr_scan", "android": "https://dc.lft.to/lastmile_qr_scan"}, "bike_id": "b81fcd5bb431e3b349aaf9ca94db6f6f"}, {"lat": 38.91582733333333, "is_disabled": 0, "lon": -76.98393433333334, "is_reserved": 0, "fusion_lon": 0.0, "fusion_lat": 0.0, "name": "a0c2277b9d81984e66b2ac340eb258f8", "type": "electric_scooter", "rental_uris": {"ios": "https://dc.lft.to/lastmile_qr_scan", "android": "https://dc.lft.to/lastmile_qr_scan"}, "bike_id": "a0c2277b9d81984e66b2ac340eb258f8"}, {"lat": 38.89468183333334, "is_disabled": 0, "lon": -77.00141233333333, "is_reserved": 0, "fusion_lon": 0.0, "fusion_lat": 0.0, "name": "f2cffaae4b8d065418074d35a2cc9627", "type": "electric_scooter", "rental_uris": {"ios": "https://dc.lft.to/lastmile_qr_scan", "android": "https://dc.lft.to/lastmile_qr_scan"}, "bike_id": "f2cffaae4b8d065418074d35a2cc9627"}, {"lat": 38.91834216666667, "is_disabled": 0, "lon": -77.03463216666667, "is_reserved": 0, "fusion_lon": 0.0, "fusion_lat": 0.0, "name": "3db87c5d09689a48990ab2c58aa1ed61", "type": "electric_scooter", "rental_uris": {"ios": "https://dc.lft.to/lastmile_qr_scan", "android": "https://dc.lft.to/lastmile_qr_scan"}, "bike_id": "3db87c5d09689a48990ab2c58aa1ed61"}, {"lat": 38.841917333333335, "is_disabled": 0, "lon": -77.07754683333333, "is_reserved": 0, "fusion_lon": 0.0, "fusion_lat": 0.0, "name": "96c550140ac3f722e28ce72ea3fd4836", "type": "electric_bike", "rental_uris": {"ios": "https://dc.lft.to/lastmile_qr_scan", "android": "https://dc.lft.to/lastmile_qr_scan"}, "bike_id": "96c550140ac3f722e28ce72ea3fd4836"}, {"lat": 38.930616, "is_disabled": 0, "lon": -77.03944866666667, "is_reserved": 0, "fusion_lon": 0.0, "fusion_lat": 0.0, "name": "bd4ec112b76f468ebd52b5409a94318b", "type": "electric_scooter", "rental_uris": {"ios": "https://dc.lft.to/lastmile_qr_scan", "android": "https://dc.lft.to/lastmile_qr_scan"}, "bike_id": "bd4ec112b76f468ebd52b5409a94318b"}, {"lat": 38.92669266666667, "is_disabled": 0, "lon": -77.04061333333334, "is_reserved": 0, "fusion_lon": 0.0, "fusion_lat": 0.0, "name": "25afd487179cd7a8609ca8547c62d329", "type": "electric_scooter", "rental_uris": {"ios": "https://dc.lft.to/lastmile_qr_scan", "android": "https://dc.lft.to/lastmile_qr_scan"}, "bike_id": "25afd487179cd7a8609ca8547c62d329"}, {"lat": 38.8926565, "is_disabled": 0, "lon": -76.983721, "is_reserved": 0, "fusion_lon": 0.0, "fusion_lat": 0.0, "name": "dd3170da3bc3a9e9ad691034941677be", "type": "electric_scooter", "rental_uris": {"ios": "https://dc.lft.to/lastmile_qr_scan", "android": "https://dc.lft.to/lastmile_qr_scan"}, "bike_id": "dd3170da3bc3a9e9ad691034941677be"}, {"lat": 38.89729033333333, "is_disabled": 0, "lon": -77.02169516666666, "is_reserved": 0, "fusion_lon": 0.0, "fusion_lat": 0.0, "name": "b8272fbd94e3ddf2ae823a7db1415386", "type": "electric_scooter", "rental_uris": {"ios": "https://dc.lft.to/lastmile_qr_scan", "android": "https://dc.lft.to/lastmile_qr_scan"}, "bike_id": "b8272fbd94e3ddf2ae823a7db1415386"}, {"lat": 38.88391133333333, "is_disabled": 0, "lon": -76.95739783333333, "is_reserved": 0, "fusion_lon": 0.0, "fusion_lat": 0.0, "name": "d087ee693a80e706a02e14eadde5d8b6", "type": "electric_scooter", "rental_uris": {"ios": "https://dc.lft.to/lastmile_qr_scan", "android": "https://dc.lft.to/lastmile_qr_scan"}, "bike_id": "d087ee693a80e706a02e14eadde5d8b6"}, {"lat": 38.992279, "is_disabled": 0, "lon": -77.0653015, "is_reserved": 0, "fusion_lon": 0.0, "fusion_lat": 0.0, "name": "f9dfa56ba72d682eabeda3f299a10429", "type": "electric_bike", "rental_uris": {"ios": "https://dc.lft.to/lastmile_qr_scan", "android": "https://dc.lft.to/lastmile_qr_scan"}, "bike_id": "f9dfa56ba72d682eabeda3f299a10429"}, {"lat": 38.92593983333333, "is_disabled": 0, "lon": -77.02492066666667, "is_reserved": 0, "fusion_lon": 0.0, "fusion_lat": 0.0, "name": "9389f357ee728598928c0c9f8af62370", "type": "electric_scooter", "rental_uris": {"ios": "https://dc.lft.to/lastmile_qr_scan", "android": "https://dc.lft.to/lastmile_qr_scan"}, "bike_id": "9389f357ee728598928c0c9f8af62370"}, {"lat": 38.900431166666664, "is_disabled": 0, "lon": -76.98834316666667, "is_reserved": 0, "fusion_lon": 0.0, "fusion_lat": 0.0, "name": "c53390a86ebce4fee555cd9d5c5def42", "type": "electric_scooter", "rental_uris": {"ios": "https://dc.lft.to/lastmile_qr_scan", "android": "https://dc.lft.to/lastmile_qr_scan"}, "bike_id": "c53390a86ebce4fee555cd9d5c5def42"}, {"lat": 38.8964455, "is_disabled": 0, "lon": -77.02398616666666, "is_reserved": 0, "fusion_lon": 0.0, "fusion_lat": 0.0, "name": "ef3efdfd9a76a35f193c6c868ccf6724", "type": "electric_scooter", "rental_uris": {"ios": "https://dc.lft.to/lastmile_qr_scan", "android": "https://dc.lft.to/lastmile_qr_scan"}, "bike_id": "ef3efdfd9a76a35f193c6c868ccf6724"}, {"lat": 38.9222365, "is_disabled": 0, "lon": -77.04242066666667, "is_reserved": 0, "fusion_lon": 0.0, "fusion_lat": 0.0, "name": "2d8693c84fb6efc7d8f1fcda7562db45", "type": "electric_scooter", "rental_uris": {"ios": "https://dc.lft.to/lastmile_qr_scan", "android": "https://dc.lft.to/lastmile_qr_scan"}, "bike_id": "2d8693c84fb6efc7d8f1fcda7562db45"}, {"lat": 38.9074455, "is_disabled": 0, "lon": -77.00771333333333, "is_reserved": 0, "fusion_lon": 0.0, "fusion_lat": 0.0, "name": "14dcaf7d24605f74597787c594fb23c7", "type": "electric_scooter", "rental_uris": {"ios": "https://dc.lft.to/lastmile_qr_scan", "android": "https://dc.lft.to/lastmile_qr_scan"}, "bike_id": "14dcaf7d24605f74597787c594fb23c7"}, {"lat": 38.94614766666667, "is_disabled": 0, "lon": -77.08017816666667, "is_reserved": 0, "fusion_lon": 0.0, "fusion_lat": 0.0, "name": "ee28f1480328a282ed61ee3def47bd7b", "type": "electric_scooter", "rental_uris": {"ios": "https://dc.lft.to/lastmile_qr_scan", "android": "https://dc.lft.to/lastmile_qr_scan"}, "bike_id": "ee28f1480328a282ed61ee3def47bd7b"}, {"lat": 38.90472533333333, "is_disabled": 0, "lon": -77.03558583333333, "is_reserved": 0, "fusion_lon": 0.0, "fusion_lat": 0.0, "name": "3498400e12f51ab78f7862de6806c568", "type": "electric_scooter", "rental_uris": {"ios": "https://dc.lft.to/lastmile_qr_scan", "android": "https://dc.lft.to/lastmile_qr_scan"}, "bike_id": "3498400e12f51ab78f7862de6806c568"}, {"lat": 38.9223685, "is_disabled": 0, "lon": -77.03517016666666, "is_reserved": 0, "fusion_lon": 0.0, "fusion_lat": 0.0, "name": "436feecc75440f90517159e180973357", "type": "electric_scooter", "rental_uris": {"ios": "https://dc.lft.to/lastmile_qr_scan", "android": "https://dc.lft.to/lastmile_qr_scan"}, "bike_id": "436feecc75440f90517159e180973357"}, {"lat": 38.91443, "is_disabled": 0, "lon": -77.01225033333333, "is_reserved": 0, "fusion_lon": 0.0, "fusion_lat": 0.0, "name": "9e85827304d1f4fcc569d05ab4609c6d", "type": "electric_scooter", "rental_uris": {"ios": "https://dc.lft.to/lastmile_qr_scan", "android": "https://dc.lft.to/lastmile_qr_scan"}, "bike_id": "9e85827304d1f4fcc569d05ab4609c6d"}, {"lat": 38.92582783333334, "is_disabled": 0, "lon": -77.04417183333334, "is_reserved": 0, "fusion_lon": 0.0, "fusion_lat": 0.0, "name": "475c33f04e355572b92772ecea305509", "type": "electric_scooter", "rental_uris": {"ios": "https://dc.lft.to/lastmile_qr_scan", "android": "https://dc.lft.to/lastmile_qr_scan"}, "bike_id": "475c33f04e355572b92772ecea305509"}, {"lat": 38.903817, "is_disabled": 0, "lon": -77.0300115, "is_reserved": 0, "fusion_lon": 0.0, "fusion_lat": 0.0, "name": "7a8af2c0a922bef94aa13f889e80b58e", "type": "electric_scooter", "rental_uris": {"ios": "https://dc.lft.to/lastmile_qr_scan", "android": "https://dc.lft.to/lastmile_qr_scan"}, "bike_id": "7a8af2c0a922bef94aa13f889e80b58e"}, {"lat": 38.919334666666664, "is_disabled": 0, "lon": -77.034792, "is_reserved": 0, "fusion_lon": 0.0, "fusion_lat": 0.0, "name": "bd8d3b564e5711a556b77a6f5628fb48", "type": "electric_scooter", "rental_uris": {"ios": "https://dc.lft.to/lastmile_qr_scan", "android": "https://dc.lft.to/lastmile_qr_scan"}, "bike_id": "bd8d3b564e5711a556b77a6f5628fb48"}, {"lat": 38.89816833333333, "is_disabled": 0, "lon": -76.99075633333334, "is_reserved": 0, "fusion_lon": 0.0, "fusion_lat": 0.0, "name": "08b91fa75c12ee345ec0db1f0b7db904", "type": "electric_bike", "rental_uris": {"ios": "https://dc.lft.to/lastmile_qr_scan", "android": "https://dc.lft.to/lastmile_qr_scan"}, "bike_id": "08b91fa75c12ee345ec0db1f0b7db904"}, {"lat": 38.90006733333333, "is_disabled": 0, "lon": -77.04656033333333, "is_reserved": 0, "fusion_lon": 0.0, "fusion_lat": 0.0, "name": "c86fc1b7d1ab9227a8aff4fb90cd8692", "type": "electric_scooter", "rental_uris": {"ios": "https://dc.lft.to/lastmile_qr_scan", "android": "https://dc.lft.to/lastmile_qr_scan"}, "bike_id": "c86fc1b7d1ab9227a8aff4fb90cd8692"}, {"lat": 38.89873816666667, "is_disabled": 0, "lon": -77.045531, "is_reserved": 0, "fusion_lon": 0.0, "fusion_lat": 0.0, "name": "fe344dd95a40fc7fa40ab662fd7470fc", "type": "electric_scooter", "rental_uris": {"ios": "https://dc.lft.to/lastmile_qr_scan", "android": "https://dc.lft.to/lastmile_qr_scan"}, "bike_id": "fe344dd95a40fc7fa40ab662fd7470fc"}, {"lat": 38.8791865, "is_disabled": 0, "lon": -77.00599166666667, "is_reserved": 0, "fusion_lon": 0.0, "fusion_lat": 0.0, "name": "c4a809f423cdc4b6bed20141a790913d", "type": "electric_scooter", "rental_uris": {"ios": "https://dc.lft.to/lastmile_qr_scan", "android": "https://dc.lft.to/lastmile_qr_scan"}, "bike_id": "c4a809f423cdc4b6bed20141a790913d"}, {"lat": 38.8922215, "is_disabled": 0, "lon": -77.02416233333334, "is_reserved": 0, "fusion_lon": 0.0, "fusion_lat": 0.0, "name": "4ab593272061d851d7d489a4b3478432", "type": "electric_scooter", "rental_uris": {"ios": "https://dc.lft.to/lastmile_qr_scan", "android": "https://dc.lft.to/lastmile_qr_scan"}, "bike_id": "4ab593272061d851d7d489a4b3478432"}, {"lat": 38.897466333333334, "is_disabled": 0, "lon": -77.04494016666666, "is_reserved": 0, "fusion_lon": 0.0, "fusion_lat": 0.0, "name": "e1189ff785d4812bcaba625046adf11b", "type": "electric_scooter", "rental_uris": {"ios": "https://dc.lft.to/lastmile_qr_scan", "android": "https://dc.lft.to/lastmile_qr_scan"}, "bike_id": "e1189ff785d4812bcaba625046adf11b"}, {"lat": 38.900324, "is_disabled": 0, "lon": -77.00205083333333, "is_reserved": 0, "fusion_lon": 0.0, "fusion_lat": 0.0, "name": "a7d9ad0830d33e4042932fce85f44780", "type": "electric_scooter", "rental_uris": {"ios": "https://dc.lft.to/lastmile_qr_scan", "android": "https://dc.lft.to/lastmile_qr_scan"}, "bike_id": "a7d9ad0830d33e4042932fce85f44780"}, {"lat": 38.88320916666667, "is_disabled": 0, "lon": -77.0302185, "is_reserved": 0, "fusion_lon": 0.0, "fusion_lat": 0.0, "name": "a9b8e5e8db51a5f2a750f7c98bb6e9bc", "type": "electric_scooter", "rental_uris": {"ios": "https://dc.lft.to/lastmile_qr_scan", "android": "https://dc.lft.to/lastmile_qr_scan"}, "bike_id": "a9b8e5e8db51a5f2a750f7c98bb6e9bc"}, {"lat": 38.915631, "is_disabled": 0, "lon": -77.00439216666666, "is_reserved": 0, "fusion_lon": 0.0, "fusion_lat": 0.0, "name": "d71ccdca69d521b20281d6ddb02db368", "type": "electric_scooter", "rental_uris": {"ios": "https://dc.lft.to/lastmile_qr_scan", "android": "https://dc.lft.to/lastmile_qr_scan"}, "bike_id": "d71ccdca69d521b20281d6ddb02db368"}, {"lat": 38.89013383333333, "is_disabled": 0, "lon": -76.99854283333333, "is_reserved": 0, "fusion_lon": 0.0, "fusion_lat": 0.0, "name": "2d11654854112363695c10dda960bd9f", "type": "electric_scooter", "rental_uris": {"ios": "https://dc.lft.to/lastmile_qr_scan", "android": "https://dc.lft.to/lastmile_qr_scan"}, "bike_id": "2d11654854112363695c10dda960bd9f"}, {"lat": 38.8811005, "is_disabled": 0, "lon": -77.01644016666667, "is_reserved": 0, "fusion_lon": 0.0, "fusion_lat": 0.0, "name": "22126db22dc9832c64f2cfcddf662c50", "type": "electric_bike", "rental_uris": {"ios": "https://dc.lft.to/lastmile_qr_scan", "android": "https://dc.lft.to/lastmile_qr_scan"}, "bike_id": "22126db22dc9832c64f2cfcddf662c50"}, {"lat": 38.908891, "is_disabled": 0, "lon": -76.98240866666667, "is_reserved": 0, "fusion_lon": 0.0, "fusion_lat": 0.0, "name": "a8efc2d302c476d49c2c67e1d158f08c", "type": "electric_scooter", "rental_uris": {"ios": "https://dc.lft.to/lastmile_qr_scan", "android": "https://dc.lft.to/lastmile_qr_scan"}, "bike_id": "a8efc2d302c476d49c2c67e1d158f08c"}, {"lat": 38.892043, "is_disabled": 0, "lon": -76.99016033333334, "is_reserved": 0, "fusion_lon": 0.0, "fusion_lat": 0.0, "name": "e39ec528dad3e0c14c68b9ce4f23fb1b", "type": "electric_scooter", "rental_uris": {"ios": "https://dc.lft.to/lastmile_qr_scan", "android": "https://dc.lft.to/lastmile_qr_scan"}, "bike_id": "e39ec528dad3e0c14c68b9ce4f23fb1b"}, {"lat": 38.922415, "is_disabled": 0, "lon": -77.0303365, "is_reserved": 0, "fusion_lon": 0.0, "fusion_lat": 0.0, "name": "fda4f22f904779259d90c0799e860ebd", "type": "electric_scooter", "rental_uris": {"ios": "https://dc.lft.to/lastmile_qr_scan", "android": "https://dc.lft.to/lastmile_qr_scan"}, "bike_id": "fda4f22f904779259d90c0799e860ebd"}, {"lat": 38.935798166666665, "is_disabled": 0, "lon": -77.03655416666666, "is_reserved": 0, "fusion_lon": 0.0, "fusion_lat": 0.0, "name": "60c506a203d2d832169bcd9bea996ce7", "type": "electric_bike", "rental_uris": {"ios": "https://dc.lft.to/lastmile_qr_scan", "android": "https://dc.lft.to/lastmile_qr_scan"}, "bike_id": "60c506a203d2d832169bcd9bea996ce7"}, {"lat": 38.88055116666666, "is_disabled": 0, "lon": -76.93218166666666, "is_reserved": 0, "fusion_lon": 0.0, "fusion_lat": 0.0, "name": "5924aa15473e160eb3e2dd29373adb36", "type": "electric_scooter", "rental_uris": {"ios": "https://dc.lft.to/lastmile_qr_scan", "android": "https://dc.lft.to/lastmile_qr_scan"}, "bike_id": "5924aa15473e160eb3e2dd29373adb36"}, {"lat": 38.90970733333333, "is_disabled": 0, "lon": -77.04026716666667, "is_reserved": 0, "fusion_lon": 0.0, "fusion_lat": 0.0, "name": "785dae596eca6871874bc28e309670af", "type": "electric_scooter", "rental_uris": {"ios": "https://dc.lft.to/lastmile_qr_scan", "android": "https://dc.lft.to/lastmile_qr_scan"}, "bike_id": "785dae596eca6871874bc28e309670af"}, {"lat": 38.914141, "is_disabled": 0, "lon": -77.04499183333333, "is_reserved": 0, "fusion_lon": 0.0, "fusion_lat": 0.0, "name": "29796f9c7e71dda12c5541c1aef2ff4d", "type": "electric_scooter", "rental_uris": {"ios": "https://dc.lft.to/lastmile_qr_scan", "android": "https://dc.lft.to/lastmile_qr_scan"}, "bike_id": "29796f9c7e71dda12c5541c1aef2ff4d"}, {"lat": 38.9208285, "is_disabled": 0, "lon": -77.0251955, "is_reserved": 0, "fusion_lon": 0.0, "fusion_lat": 0.0, "name": "a7344fd67995f54a3b092783942e306c", "type": "electric_scooter", "rental_uris": {"ios": "https://dc.lft.to/lastmile_qr_scan", "android": "https://dc.lft.to/lastmile_qr_scan"}, "bike_id": "a7344fd67995f54a3b092783942e306c"}, {"lat": 38.9023675, "is_disabled": 0, "lon": -77.00202483333334, "is_reserved": 0, "fusion_lon": 0.0, "fusion_lat": 0.0, "name": "f4d97458a814db5bdb739696b6d31580", "type": "electric_scooter", "rental_uris": {"ios": "https://dc.lft.to/lastmile_qr_scan", "android": "https://dc.lft.to/lastmile_qr_scan"}, "bike_id": "f4d97458a814db5bdb739696b6d31580"}, {"lat": 38.918009166666664, "is_disabled": 0, "lon": -77.0401505, "is_reserved": 0, "fusion_lon": 0.0, "fusion_lat": 0.0, "name": "be7d3bab6073ee3023e93d801e693d8e", "type": "electric_scooter", "rental_uris": {"ios": "https://dc.lft.to/lastmile_qr_scan", "android": "https://dc.lft.to/lastmile_qr_scan"}, "bike_id": "be7d3bab6073ee3023e93d801e693d8e"}, {"lat": 38.91739883333334, "is_disabled": 0, "lon": -77.02115616666667, "is_reserved": 0, "fusion_lon": 0.0, "fusion_lat": 0.0, "name": "d59e8f78c4fc9763a111453cdcb14f62", "type": "electric_scooter", "rental_uris": {"ios": "https://dc.lft.to/lastmile_qr_scan", "android": "https://dc.lft.to/lastmile_qr_scan"}, "bike_id": "d59e8f78c4fc9763a111453cdcb14f62"}, {"lat": 38.89526583333333, "is_disabled": 0, "lon": -77.03348633333333, "is_reserved": 0, "fusion_lon": 0.0, "fusion_lat": 0.0, "name": "9fb537788cebc9186a2ad7e01f13765d", "type": "electric_scooter", "rental_uris": {"ios": "https://dc.lft.to/lastmile_qr_scan", "android": "https://dc.lft.to/lastmile_qr_scan"}, "bike_id": "9fb537788cebc9186a2ad7e01f13765d"}, {"lat": 38.93724733333333, "is_disabled": 0, "lon": -77.01911516666667, "is_reserved": 0, "fusion_lon": 0.0, "fusion_lat": 0.0, "name": "f4428a68d4198aee1cc483093b72bed4", "type": "electric_scooter", "rental_uris": {"ios": "https://dc.lft.to/lastmile_qr_scan", "android": "https://dc.lft.to/lastmile_qr_scan"}, "bike_id": "f4428a68d4198aee1cc483093b72bed4"}, {"lat": 38.90718616666667, "is_disabled": 0, "lon": -77.034065, "is_reserved": 0, "fusion_lon": 0.0, "fusion_lat": 0.0, "name": "a1ddc4c708a63773047a0659362c9ef6", "type": "electric_scooter", "rental_uris": {"ios": "https://dc.lft.to/lastmile_qr_scan", "android": "https://dc.lft.to/lastmile_qr_scan"}, "bike_id": "a1ddc4c708a63773047a0659362c9ef6"}, {"lat": 38.93312933333333, "is_disabled": 0, "lon": -77.03109283333333, "is_reserved": 0, "fusion_lon": 0.0, "fusion_lat": 0.0, "name": "50e992d64f536b858a19eb9512c7e9a0", "type": "electric_scooter", "rental_uris": {"ios": "https://dc.lft.to/lastmile_qr_scan", "android": "https://dc.lft.to/lastmile_qr_scan"}, "bike_id": "50e992d64f536b858a19eb9512c7e9a0"}, {"lat": 38.922881333333336, "is_disabled": 0, "lon": -77.04290833333333, "is_reserved": 0, "fusion_lon": 0.0, "fusion_lat": 0.0, "name": "461e4fed05f46cb831bdc2e16f04e665", "type": "electric_scooter", "rental_uris": {"ios": "https://dc.lft.to/lastmile_qr_scan", "android": "https://dc.lft.to/lastmile_qr_scan"}, "bike_id": "461e4fed05f46cb831bdc2e16f04e665"}, {"lat": 38.8873165, "is_disabled": 0, "lon": -77.01390683333334, "is_reserved": 0, "fusion_lon": 0.0, "fusion_lat": 0.0, "name": "db5349ab6fc2320d771eee27de88ab71", "type": "electric_scooter", "rental_uris": {"ios": "https://dc.lft.to/lastmile_qr_scan", "android": "https://dc.lft.to/lastmile_qr_scan"}, "bike_id": "db5349ab6fc2320d771eee27de88ab71"}, {"lat": 38.9175985, "is_disabled": 0, "lon": -77.02515333333334, "is_reserved": 0, "fusion_lon": 0.0, "fusion_lat": 0.0, "name": "db319ceff925d3582f6dbf31e107abb8", "type": "electric_scooter", "rental_uris": {"ios": "https://dc.lft.to/lastmile_qr_scan", "android": "https://dc.lft.to/lastmile_qr_scan"}, "bike_id": "db319ceff925d3582f6dbf31e107abb8"}, {"lat": 38.903805, "is_disabled": 0, "lon": -77.04442733333333, "is_reserved": 0, "fusion_lon": 0.0, "fusion_lat": 0.0, "name": "f6d08e44d4a7ce720196f15d5eda33d4", "type": "electric_scooter", "rental_uris": {"ios": "https://dc.lft.to/lastmile_qr_scan", "android": "https://dc.lft.to/lastmile_qr_scan"}, "bike_id": "f6d08e44d4a7ce720196f15d5eda33d4"}, {"lat": 38.902587833333335, "is_disabled": 0, "lon": -77.0176555, "is_reserved": 0, "fusion_lon": 0.0, "fusion_lat": 0.0, "name": "9fd4fdc5183ea9f483e5491843f441f5", "type": "electric_scooter", "rental_uris": {"ios": "https://dc.lft.to/lastmile_qr_scan", "android": "https://dc.lft.to/lastmile_qr_scan"}, "bike_id": "9fd4fdc5183ea9f483e5491843f441f5"}, {"lat": 38.903235, "is_disabled": 0, "lon": -77.03068066666667, "is_reserved": 0, "fusion_lon": 0.0, "fusion_lat": 0.0, "name": "1da0af5778d7abdf9cef67221c891d40", "type": "electric_scooter", "rental_uris": {"ios": "https://dc.lft.to/lastmile_qr_scan", "android": "https://dc.lft.to/lastmile_qr_scan"}, "bike_id": "1da0af5778d7abdf9cef67221c891d40"}, {"lat": 38.91631866666667, "is_disabled": 0, "lon": -77.02231833333333, "is_reserved": 0, "fusion_lon": 0.0, "fusion_lat": 0.0, "name": "96098027d3c3f8d44932bf9043b399ae", "type": "electric_scooter", "rental_uris": {"ios": "https://dc.lft.to/lastmile_qr_scan", "android": "https://dc.lft.to/lastmile_qr_scan"}, "bike_id": "96098027d3c3f8d44932bf9043b399ae"}, {"lat": 38.99096433333333, "is_disabled": 0, "lon": -76.99367983333333, "is_reserved": 0, "fusion_lon": 0.0, "fusion_lat": 0.0, "name": "54392077c1a57fb6f5699ade2e68ca97", "type": "electric_bike", "rental_uris": {"ios": "https://dc.lft.to/lastmile_qr_scan", "android": "https://dc.lft.to/lastmile_qr_scan"}, "bike_id": "54392077c1a57fb6f5699ade2e68ca97"}, {"lat": 38.8922225, "is_disabled": 0, "lon": -77.04322116666667, "is_reserved": 0, "fusion_lon": 0.0, "fusion_lat": 0.0, "name": "57c288d123258b98091fa28c4100738b", "type": "electric_scooter", "rental_uris": {"ios": "https://dc.lft.to/lastmile_qr_scan", "android": "https://dc.lft.to/lastmile_qr_scan"}, "bike_id": "57c288d123258b98091fa28c4100738b"}, {"lat": 38.9027825, "is_disabled": 0, "lon": -77.03850816666667, "is_reserved": 0, "fusion_lon": 0.0, "fusion_lat": 0.0, "name": "7ffa95098bb919189e925ba77f4294a5", "type": "electric_scooter", "rental_uris": {"ios": "https://dc.lft.to/lastmile_qr_scan", "android": "https://dc.lft.to/lastmile_qr_scan"}, "bike_id": "7ffa95098bb919189e925ba77f4294a5"}, {"lat": 38.874407166666664, "is_disabled": 0, "lon": -77.001206, "is_reserved": 0, "fusion_lon": 0.0, "fusion_lat": 0.0, "name": "c18eb7b593d5c085a1298b1f7c67b380", "type": "electric_scooter", "rental_uris": {"ios": "https://dc.lft.to/lastmile_qr_scan", "android": "https://dc.lft.to/lastmile_qr_scan"}, "bike_id": "c18eb7b593d5c085a1298b1f7c67b380"}, {"lat": 38.922965, "is_disabled": 0, "lon": -76.997635, "is_reserved": 0, "fusion_lon": 0.0, "fusion_lat": 0.0, "name": "2311d8827887fc311ed29e999796fbf3", "type": "electric_scooter", "rental_uris": {"ios": "https://dc.lft.to/lastmile_qr_scan", "android": "https://dc.lft.to/lastmile_qr_scan"}, "bike_id": "2311d8827887fc311ed29e999796fbf3"}, {"lat": 38.92240233333333, "is_disabled": 0, "lon": -77.02085866666667, "is_reserved": 0, "fusion_lon": 0.0, "fusion_lat": 0.0, "name": "e5f736d4495dcd91c9218f27a42b0ac1", "type": "electric_scooter", "rental_uris": {"ios": "https://dc.lft.to/lastmile_qr_scan", "android": "https://dc.lft.to/lastmile_qr_scan"}, "bike_id": "e5f736d4495dcd91c9218f27a42b0ac1"}, {"lat": 38.899597166666666, "is_disabled": 0, "lon": -77.01623483333333, "is_reserved": 0, "fusion_lon": 0.0, "fusion_lat": 0.0, "name": "487a2978191c97fd94bcf3c231721051", "type": "electric_scooter", "rental_uris": {"ios": "https://dc.lft.to/lastmile_qr_scan", "android": "https://dc.lft.to/lastmile_qr_scan"}, "bike_id": "487a2978191c97fd94bcf3c231721051"}, {"lat": 38.923767833333336, "is_disabled": 0, "lon": -77.0443345, "is_reserved": 0, "fusion_lon": 0.0, "fusion_lat": 0.0, "name": "226303ca6372de243507bfbc5a989163", "type": "electric_scooter", "rental_uris": {"ios": "https://dc.lft.to/lastmile_qr_scan", "android": "https://dc.lft.to/lastmile_qr_scan"}, "bike_id": "226303ca6372de243507bfbc5a989163"}, {"lat": 38.912319, "is_disabled": 0, "lon": -77.0448495, "is_reserved": 0, "fusion_lon": 0.0, "fusion_lat": 0.0, "name": "1678c8e3ab6de2a0fa54393f3319267d", "type": "electric_scooter", "rental_uris": {"ios": "https://dc.lft.to/lastmile_qr_scan", "android": "https://dc.lft.to/lastmile_qr_scan"}, "bike_id": "1678c8e3ab6de2a0fa54393f3319267d"}, {"lat": 38.934256166666664, "is_disabled": 0, "lon": -77.04004, "is_reserved": 0, "fusion_lon": 0.0, "fusion_lat": 0.0, "name": "8e274a5de8d7805c8ccb7eaf8734a4bb", "type": "electric_scooter", "rental_uris": {"ios": "https://dc.lft.to/lastmile_qr_scan", "android": "https://dc.lft.to/lastmile_qr_scan"}, "bike_id": "8e274a5de8d7805c8ccb7eaf8734a4bb"}, {"lat": 38.902852, "is_disabled": 0, "lon": -77.03468816666667, "is_reserved": 0, "fusion_lon": 0.0, "fusion_lat": 0.0, "name": "6d093f7c2eda3adc05eb2ec569b5226b", "type": "electric_scooter", "rental_uris": {"ios": "https://dc.lft.to/lastmile_qr_scan", "android": "https://dc.lft.to/lastmile_qr_scan"}, "bike_id": "6d093f7c2eda3adc05eb2ec569b5226b"}, {"lat": 38.89851783333334, "is_disabled": 0, "lon": -77.03327, "is_reserved": 0, "fusion_lon": 0.0, "fusion_lat": 0.0, "name": "4ac4b38d800d2ee338369c9201d4aa00", "type": "electric_scooter", "rental_uris": {"ios": "https://dc.lft.to/lastmile_qr_scan", "android": "https://dc.lft.to/lastmile_qr_scan"}, "bike_id": "4ac4b38d800d2ee338369c9201d4aa00"}, {"lat": 38.88351983333333, "is_disabled": 0, "lon": -76.936309, "is_reserved": 0, "fusion_lon": 0.0, "fusion_lat": 0.0, "name": "e818a1e98c7153f48ebec1c5071b9730", "type": "electric_scooter", "rental_uris": {"ios": "https://dc.lft.to/lastmile_qr_scan", "android": "https://dc.lft.to/lastmile_qr_scan"}, "bike_id": "e818a1e98c7153f48ebec1c5071b9730"}, {"lat": 38.89961, "is_disabled": 0, "lon": -77.04685233333333, "is_reserved": 0, "fusion_lon": 0.0, "fusion_lat": 0.0, "name": "4bdcfc2e0b4efcccc562983466ffb4a3", "type": "electric_scooter", "rental_uris": {"ios": "https://dc.lft.to/lastmile_qr_scan", "android": "https://dc.lft.to/lastmile_qr_scan"}, "bike_id": "4bdcfc2e0b4efcccc562983466ffb4a3"}, {"lat": 38.88676183333333, "is_disabled": 0, "lon": -77.01374083333333, "is_reserved": 0, "fusion_lon": 0.0, "fusion_lat": 0.0, "name": "74001a30e93def3a2cf0b61836a5171f", "type": "electric_scooter", "rental_uris": {"ios": "https://dc.lft.to/lastmile_qr_scan", "android": "https://dc.lft.to/lastmile_qr_scan"}, "bike_id": "74001a30e93def3a2cf0b61836a5171f"}, {"lat": 38.9237335, "is_disabled": 0, "lon": -77.02121983333333, "is_reserved": 0, "fusion_lon": 0.0, "fusion_lat": 0.0, "name": "46037f2e582adee5ed218e135f20b099", "type": "electric_scooter", "rental_uris": {"ios": "https://dc.lft.to/lastmile_qr_scan", "android": "https://dc.lft.to/lastmile_qr_scan"}, "bike_id": "46037f2e582adee5ed218e135f20b099"}, {"lat": 38.909652, "is_disabled": 0, "lon": -77.04660516666667, "is_reserved": 0, "fusion_lon": 0.0, "fusion_lat": 0.0, "name": "b6777c3867a0008fd07630e72138eb37", "type": "electric_scooter", "rental_uris": {"ios": "https://dc.lft.to/lastmile_qr_scan", "android": "https://dc.lft.to/lastmile_qr_scan"}, "bike_id": "b6777c3867a0008fd07630e72138eb37"}, {"lat": 38.90485233333333, "is_disabled": 0, "lon": -77.03448916666666, "is_reserved": 0, "fusion_lon": 0.0, "fusion_lat": 0.0, "name": "4d629973afc29197848d922ee8af54f3", "type": "electric_scooter", "rental_uris": {"ios": "https://dc.lft.to/lastmile_qr_scan", "android": "https://dc.lft.to/lastmile_qr_scan"}, "bike_id": "4d629973afc29197848d922ee8af54f3"}, {"lat": 39.062195333333335, "is_disabled": 0, "lon": -77.129173, "is_reserved": 0, "fusion_lon": 0.0, "fusion_lat": 0.0, "name": "43c7fada7140c9e4a79ec580e68d7bca", "type": "electric_bike", "rental_uris": {"ios": "https://dc.lft.to/lastmile_qr_scan", "android": "https://dc.lft.to/lastmile_qr_scan"}, "bike_id": "43c7fada7140c9e4a79ec580e68d7bca"}, {"lat": 38.855833833333335, "is_disabled": 0, "lon": -76.97434783333334, "is_reserved": 0, "fusion_lon": 0.0, "fusion_lat": 0.0, "name": "3960c66e62a0965a5539eca554c27aa7", "type": "electric_bike", "rental_uris": {"ios": "https://dc.lft.to/lastmile_qr_scan", "android": "https://dc.lft.to/lastmile_qr_scan"}, "bike_id": "3960c66e62a0965a5539eca554c27aa7"}, {"lat": 38.906523166666666, "is_disabled": 0, "lon": -77.02535516666667, "is_reserved": 0, "fusion_lon": 0.0, "fusion_lat": 0.0, "name": "8e8bc0cc85e4753e95793b4ae5709da4", "type": "electric_scooter", "rental_uris": {"ios": "https://dc.lft.to/lastmile_qr_scan", "android": "https://dc.lft.to/lastmile_qr_scan"}, "bike_id": "8e8bc0cc85e4753e95793b4ae5709da4"}, {"lat": 38.9213905, "is_disabled": 0, "lon": -77.01825383333333, "is_reserved": 0, "fusion_lon": 0.0, "fusion_lat": 0.0, "name": "eba896371a4eea2b29c815fe69e10338", "type": "electric_scooter", "rental_uris": {"ios": "https://dc.lft.to/lastmile_qr_scan", "android": "https://dc.lft.to/lastmile_qr_scan"}, "bike_id": "eba896371a4eea2b29c815fe69e10338"}, {"lat": 38.912296166666664, "is_disabled": 0, "lon": -77.02969316666666, "is_reserved": 0, "fusion_lon": 0.0, "fusion_lat": 0.0, "name": "e44cb196e7dbd0d734491866bff30041", "type": "electric_scooter", "rental_uris": {"ios": "https://dc.lft.to/lastmile_qr_scan", "android": "https://dc.lft.to/lastmile_qr_scan"}, "bike_id": "e44cb196e7dbd0d734491866bff30041"}, {"lat": 38.93281266666666, "is_disabled": 0, "lon": -77.025472, "is_reserved": 0, "fusion_lon": 0.0, "fusion_lat": 0.0, "name": "865bd3f635c6d0d1852b267b8077cafa", "type": "electric_scooter", "rental_uris": {"ios": "https://dc.lft.to/lastmile_qr_scan", "android": "https://dc.lft.to/lastmile_qr_scan"}, "bike_id": "865bd3f635c6d0d1852b267b8077cafa"}, {"lat": 38.9291355, "is_disabled": 0, "lon": -77.01867316666667, "is_reserved": 0, "fusion_lon": 0.0, "fusion_lat": 0.0, "name": "ed88dbb3a1a1d95781a3eccffadbb872", "type": "electric_scooter", "rental_uris": {"ios": "https://dc.lft.to/lastmile_qr_scan", "android": "https://dc.lft.to/lastmile_qr_scan"}, "bike_id": "ed88dbb3a1a1d95781a3eccffadbb872"}, {"lat": 38.9243705, "is_disabled": 0, "lon": -77.04237566666667, "is_reserved": 0, "fusion_lon": 0.0, "fusion_lat": 0.0, "name": "1d25893f2c1c77d8719d0af1cbe41567", "type": "electric_scooter", "rental_uris": {"ios": "https://dc.lft.to/lastmile_qr_scan", "android": "https://dc.lft.to/lastmile_qr_scan"}, "bike_id": "1d25893f2c1c77d8719d0af1cbe41567"}, {"lat": 38.8985115, "is_disabled": 0, "lon": -77.02855533333333, "is_reserved": 0, "fusion_lon": 0.0, "fusion_lat": 0.0, "name": "422d18c24be666abc9040e31dc441977", "type": "electric_scooter", "rental_uris": {"ios": "https://dc.lft.to/lastmile_qr_scan", "android": "https://dc.lft.to/lastmile_qr_scan"}, "bike_id": "422d18c24be666abc9040e31dc441977"}, {"lat": 38.89851483333333, "is_disabled": 0, "lon": -77.02916533333334, "is_reserved": 0, "fusion_lon": 0.0, "fusion_lat": 0.0, "name": "9482ce2b8d1c03c33c3dc1d189b87fdc", "type": "electric_scooter", "rental_uris": {"ios": "https://dc.lft.to/lastmile_qr_scan", "android": "https://dc.lft.to/lastmile_qr_scan"}, "bike_id": "9482ce2b8d1c03c33c3dc1d189b87fdc"}, {"lat": 38.92107266666667, "is_disabled": 0, "lon": -77.017607, "is_reserved": 0, "fusion_lon": 0.0, "fusion_lat": 0.0, "name": "1890f072d809ecbbfb1064c7a2b3d94a", "type": "electric_scooter", "rental_uris": {"ios": "https://dc.lft.to/lastmile_qr_scan", "android": "https://dc.lft.to/lastmile_qr_scan"}, "bike_id": "1890f072d809ecbbfb1064c7a2b3d94a"}, {"lat": 38.90261516666666, "is_disabled": 0, "lon": -76.99849016666667, "is_reserved": 0, "fusion_lon": 0.0, "fusion_lat": 0.0, "name": "a9bcb245e5cb4af8cb48454905b620cc", "type": "electric_scooter", "rental_uris": {"ios": "https://dc.lft.to/lastmile_qr_scan", "android": "https://dc.lft.to/lastmile_qr_scan"}, "bike_id": "a9bcb245e5cb4af8cb48454905b620cc"}, {"lat": 38.8950585, "is_disabled": 0, "lon": -77.02293466666667, "is_reserved": 0, "fusion_lon": 0.0, "fusion_lat": 0.0, "name": "b3ccc47f4e84c1fc94dc41f1828aebfe", "type": "electric_scooter", "rental_uris": {"ios": "https://dc.lft.to/lastmile_qr_scan", "android": "https://dc.lft.to/lastmile_qr_scan"}, "bike_id": "b3ccc47f4e84c1fc94dc41f1828aebfe"}, {"lat": 38.91197866666667, "is_disabled": 0, "lon": -77.04250783333333, "is_reserved": 0, "fusion_lon": 0.0, "fusion_lat": 0.0, "name": "7b4e12d1ff0267e21532b5bd28fe394a", "type": "electric_scooter", "rental_uris": {"ios": "https://dc.lft.to/lastmile_qr_scan", "android": "https://dc.lft.to/lastmile_qr_scan"}, "bike_id": "7b4e12d1ff0267e21532b5bd28fe394a"}, {"lat": 38.900295666666665, "is_disabled": 0, "lon": -77.0020685, "is_reserved": 0, "fusion_lon": 0.0, "fusion_lat": 0.0, "name": "b23ccb2a1c23fab78f088d46e5c9edbb", "type": "electric_scooter", "rental_uris": {"ios": "https://dc.lft.to/lastmile_qr_scan", "android": "https://dc.lft.to/lastmile_qr_scan"}, "bike_id": "b23ccb2a1c23fab78f088d46e5c9edbb"}, {"lat": 38.92324, "is_disabled": 0, "lon": -77.01956466666667, "is_reserved": 0, "fusion_lon": 0.0, "fusion_lat": 0.0, "name": "52fb549d417675a58b980a1244eab6a0", "type": "electric_scooter", "rental_uris": {"ios": "https://dc.lft.to/lastmile_qr_scan", "android": "https://dc.lft.to/lastmile_qr_scan"}, "bike_id": "52fb549d417675a58b980a1244eab6a0"}, {"lat": 38.924704166666665, "is_disabled": 0, "lon": -77.02267833333333, "is_reserved": 0, "fusion_lon": 0.0, "fusion_lat": 0.0, "name": "3b8f617e9aa3b322dda347caa1da8c33", "type": "electric_scooter", "rental_uris": {"ios": "https://dc.lft.to/lastmile_qr_scan", "android": "https://dc.lft.to/lastmile_qr_scan"}, "bike_id": "3b8f617e9aa3b322dda347caa1da8c33"}, {"lat": 38.899651, "is_disabled": 0, "lon": -76.98684633333333, "is_reserved": 0, "fusion_lon": 0.0, "fusion_lat": 0.0, "name": "9993ad528bf05b785715af61228a504f", "type": "electric_bike", "rental_uris": {"ios": "https://dc.lft.to/lastmile_qr_scan", "android": "https://dc.lft.to/lastmile_qr_scan"}, "bike_id": "9993ad528bf05b785715af61228a504f"}, {"lat": 38.92480366666667, "is_disabled": 0, "lon": -77.0223325, "is_reserved": 0, "fusion_lon": 0.0, "fusion_lat": 0.0, "name": "1679886f905866ec959cdea425ab9288", "type": "electric_scooter", "rental_uris": {"ios": "https://dc.lft.to/lastmile_qr_scan", "android": "https://dc.lft.to/lastmile_qr_scan"}, "bike_id": "1679886f905866ec959cdea425ab9288"}, {"lat": 38.952184833333334, "is_disabled": 0, "lon": -77.09659233333333, "is_reserved": 0, "fusion_lon": 0.0, "fusion_lat": 0.0, "name": "ac11bd2b0b2844e19cdcfcef82e6835d", "type": "electric_bike", "rental_uris": {"ios": "https://dc.lft.to/lastmile_qr_scan", "android": "https://dc.lft.to/lastmile_qr_scan"}, "bike_id": "ac11bd2b0b2844e19cdcfcef82e6835d"}, {"lat": 38.985032333333336, "is_disabled": 0, "lon": -76.9556195, "is_reserved": 0, "fusion_lon": 0.0, "fusion_lat": 0.0, "name": "bd816c980de52cae0859599ea5e9db45", "type": "electric_bike", "rental_uris": {"ios": "https://dc.lft.to/lastmile_qr_scan", "android": "https://dc.lft.to/lastmile_qr_scan"}, "bike_id": "bd816c980de52cae0859599ea5e9db45"}, {"lat": 38.9247075, "is_disabled": 0, "lon": -77.0445975, "is_reserved": 0, "fusion_lon": 0.0, "fusion_lat": 0.0, "name": "c318a9562b2956e8c1c66e0242f06807", "type": "electric_scooter", "rental_uris": {"ios": "https://dc.lft.to/lastmile_qr_scan", "android": "https://dc.lft.to/lastmile_qr_scan"}, "bike_id": "c318a9562b2956e8c1c66e0242f06807"}, {"lat": 38.94269216666667, "is_disabled": 0, "lon": -77.02985316666667, "is_reserved": 0, "fusion_lon": 0.0, "fusion_lat": 0.0, "name": "1f7c4b2b1c665a9d80bfba384e3dceee", "type": "electric_scooter", "rental_uris": {"ios": "https://dc.lft.to/lastmile_qr_scan", "android": "https://dc.lft.to/lastmile_qr_scan"}, "bike_id": "1f7c4b2b1c665a9d80bfba384e3dceee"}, {"lat": 38.9164265, "is_disabled": 0, "lon": -77.04165433333333, "is_reserved": 0, "fusion_lon": 0.0, "fusion_lat": 0.0, "name": "84a4c3c7d35a01d50c4d6a9d183107de", "type": "electric_scooter", "rental_uris": {"ios": "https://dc.lft.to/lastmile_qr_scan", "android": "https://dc.lft.to/lastmile_qr_scan"}, "bike_id": "84a4c3c7d35a01d50c4d6a9d183107de"}, {"lat": 38.899337, "is_disabled": 0, "lon": -77.0217225, "is_reserved": 0, "fusion_lon": 0.0, "fusion_lat": 0.0, "name": "7e32d111af81b11cfdc17e8d489f4e0e", "type": "electric_scooter", "rental_uris": {"ios": "https://dc.lft.to/lastmile_qr_scan", "android": "https://dc.lft.to/lastmile_qr_scan"}, "bike_id": "7e32d111af81b11cfdc17e8d489f4e0e"}, {"lat": 38.89560566666667, "is_disabled": 0, "lon": -77.04165283333333, "is_reserved": 0, "fusion_lon": 0.0, "fusion_lat": 0.0, "name": "8a7c52e892853b6fc2367650d7de7990", "type": "electric_scooter", "rental_uris": {"ios": "https://dc.lft.to/lastmile_qr_scan", "android": "https://dc.lft.to/lastmile_qr_scan"}, "bike_id": "8a7c52e892853b6fc2367650d7de7990"}, {"lat": 38.903944333333335, "is_disabled": 0, "lon": -77.06293833333334, "is_reserved": 0, "fusion_lon": 0.0, "fusion_lat": 0.0, "name": "85ad87333c598f4bf8c958001e99e937", "type": "electric_scooter", "rental_uris": {"ios": "https://dc.lft.to/lastmile_qr_scan", "android": "https://dc.lft.to/lastmile_qr_scan"}, "bike_id": "85ad87333c598f4bf8c958001e99e937"}, {"lat": 38.917273333333334, "is_disabled": 0, "lon": -77.03213133333334, "is_reserved": 0, "fusion_lon": 0.0, "fusion_lat": 0.0, "name": "125bf2276fc18c3254a6b4b0b7068f15", "type": "electric_scooter", "rental_uris": {"ios": "https://dc.lft.to/lastmile_qr_scan", "android": "https://dc.lft.to/lastmile_qr_scan"}, "bike_id": "125bf2276fc18c3254a6b4b0b7068f15"}, {"lat": 38.92230433333334, "is_disabled": 0, "lon": -77.04267816666666, "is_reserved": 0, "fusion_lon": 0.0, "fusion_lat": 0.0, "name": "79d9aae85316977177bbda06e2fd21b1", "type": "electric_scooter", "rental_uris": {"ios": "https://dc.lft.to/lastmile_qr_scan", "android": "https://dc.lft.to/lastmile_qr_scan"}, "bike_id": "79d9aae85316977177bbda06e2fd21b1"}, {"lat": 38.91496633333333, "is_disabled": 0, "lon": -76.98375316666667, "is_reserved": 0, "fusion_lon": 0.0, "fusion_lat": 0.0, "name": "d7e63c2e11e52350becc3051c8b3f949", "type": "electric_scooter", "rental_uris": {"ios": "https://dc.lft.to/lastmile_qr_scan", "android": "https://dc.lft.to/lastmile_qr_scan"}, "bike_id": "d7e63c2e11e52350becc3051c8b3f949"}, {"lat": 38.8932265, "is_disabled": 0, "lon": -77.01509016666667, "is_reserved": 0, "fusion_lon": 0.0, "fusion_lat": 0.0, "name": "64532f026056837965061024c4e562b7", "type": "electric_scooter", "rental_uris": {"ios": "https://dc.lft.to/lastmile_qr_scan", "android": "https://dc.lft.to/lastmile_qr_scan"}, "bike_id": "64532f026056837965061024c4e562b7"}, {"lat": 38.887191333333334, "is_disabled": 0, "lon": -77.01979266666666, "is_reserved": 0, "fusion_lon": 0.0, "fusion_lat": 0.0, "name": "833daaf30c6129cec0b16100c4284aa0", "type": "electric_scooter", "rental_uris": {"ios": "https://dc.lft.to/lastmile_qr_scan", "android": "https://dc.lft.to/lastmile_qr_scan"}, "bike_id": "833daaf30c6129cec0b16100c4284aa0"}, {"lat": 38.874648666666666, "is_disabled": 0, "lon": -77.01589666666666, "is_reserved": 0, "fusion_lon": 0.0, "fusion_lat": 0.0, "name": "0a35793980056c01df510e34789a56b2", "type": "electric_scooter", "rental_uris": {"ios": "https://dc.lft.to/lastmile_qr_scan", "android": "https://dc.lft.to/lastmile_qr_scan"}, "bike_id": "0a35793980056c01df510e34789a56b2"}, {"lat": 38.91655816666667, "is_disabled": 0, "lon": -77.02382, "is_reserved": 0, "fusion_lon": 0.0, "fusion_lat": 0.0, "name": "00d3bf02332b5557870878fc686a227b", "type": "electric_scooter", "rental_uris": {"ios": "https://dc.lft.to/lastmile_qr_scan", "android": "https://dc.lft.to/lastmile_qr_scan"}, "bike_id": "00d3bf02332b5557870878fc686a227b"}, {"lat": 38.950691666666664, "is_disabled": 0, "lon": -77.01201266666666, "is_reserved": 0, "fusion_lon": 0.0, "fusion_lat": 0.0, "name": "98a1affb16aefb90341a673525d3db66", "type": "electric_bike", "rental_uris": {"ios": "https://dc.lft.to/lastmile_qr_scan", "android": "https://dc.lft.to/lastmile_qr_scan"}, "bike_id": "98a1affb16aefb90341a673525d3db66"}, {"lat": 38.90270566666667, "is_disabled": 0, "lon": -77.04527716666666, "is_reserved": 0, "fusion_lon": 0.0, "fusion_lat": 0.0, "name": "c8e2905ab517ca74fb2b7c8cd454889e", "type": "electric_scooter", "rental_uris": {"ios": "https://dc.lft.to/lastmile_qr_scan", "android": "https://dc.lft.to/lastmile_qr_scan"}, "bike_id": "c8e2905ab517ca74fb2b7c8cd454889e"}, {"lat": 38.942898, "is_disabled": 0, "lon": -77.03621316666667, "is_reserved": 0, "fusion_lon": 0.0, "fusion_lat": 0.0, "name": "f0a3b20910590f19715c71939e512755", "type": "electric_scooter", "rental_uris": {"ios": "https://dc.lft.to/lastmile_qr_scan", "android": "https://dc.lft.to/lastmile_qr_scan"}, "bike_id": "f0a3b20910590f19715c71939e512755"}, {"lat": 38.9270775, "is_disabled": 0, "lon": -77.02091633333333, "is_reserved": 0, "fusion_lon": 0.0, "fusion_lat": 0.0, "name": "e8c3f75537159c3a91cf8a2a4458b29e", "type": "electric_scooter", "rental_uris": {"ios": "https://dc.lft.to/lastmile_qr_scan", "android": "https://dc.lft.to/lastmile_qr_scan"}, "bike_id": "e8c3f75537159c3a91cf8a2a4458b29e"}, {"lat": 38.894828, "is_disabled": 0, "lon": -76.99137716666667, "is_reserved": 0, "fusion_lon": 0.0, "fusion_lat": 0.0, "name": "fabe3c07b0dafb8b31cbcaff880e7695", "type": "electric_scooter", "rental_uris": {"ios": "https://dc.lft.to/lastmile_qr_scan", "android": "https://dc.lft.to/lastmile_qr_scan"}, "bike_id": "fabe3c07b0dafb8b31cbcaff880e7695"}, {"lat": 38.90526916666666, "is_disabled": 0, "lon": -77.0221025, "is_reserved": 0, "fusion_lon": 0.0, "fusion_lat": 0.0, "name": "c8bf3b1d5f9731e11d0147badbcb5521", "type": "electric_scooter", "rental_uris": {"ios": "https://dc.lft.to/lastmile_qr_scan", "android": "https://dc.lft.to/lastmile_qr_scan"}, "bike_id": "c8bf3b1d5f9731e11d0147badbcb5521"}, {"lat": 38.916009333333335, "is_disabled": 0, "lon": -77.03212466666666, "is_reserved": 0, "fusion_lon": 0.0, "fusion_lat": 0.0, "name": "8c68242235f24908982bfa7e8a065a3a", "type": "electric_scooter", "rental_uris": {"ios": "https://dc.lft.to/lastmile_qr_scan", "android": "https://dc.lft.to/lastmile_qr_scan"}, "bike_id": "8c68242235f24908982bfa7e8a065a3a"}, {"lat": 38.91440433333333, "is_disabled": 0, "lon": -77.044979, "is_reserved": 0, "fusion_lon": 0.0, "fusion_lat": 0.0, "name": "a6d97638af24a56d4be760aec8761cdb", "type": "electric_scooter", "rental_uris": {"ios": "https://dc.lft.to/lastmile_qr_scan", "android": "https://dc.lft.to/lastmile_qr_scan"}, "bike_id": "a6d97638af24a56d4be760aec8761cdb"}, {"lat": 38.92173366666667, "is_disabled": 0, "lon": -77.02099633333333, "is_reserved": 0, "fusion_lon": 0.0, "fusion_lat": 0.0, "name": "d0734fb5f1c31037c25551e151e222ba", "type": "electric_scooter", "rental_uris": {"ios": "https://dc.lft.to/lastmile_qr_scan", "android": "https://dc.lft.to/lastmile_qr_scan"}, "bike_id": "d0734fb5f1c31037c25551e151e222ba"}, {"lat": 38.90045883333333, "is_disabled": 0, "lon": -77.04643966666667, "is_reserved": 0, "fusion_lon": 0.0, "fusion_lat": 0.0, "name": "51db98608b27dfcf895a39bf0ac809bd", "type": "electric_scooter", "rental_uris": {"ios": "https://dc.lft.to/lastmile_qr_scan", "android": "https://dc.lft.to/lastmile_qr_scan"}, "bike_id": "51db98608b27dfcf895a39bf0ac809bd"}, {"lat": 38.887345333333336, "is_disabled": 0, "lon": -77.03179816666666, "is_reserved": 0, "fusion_lon": 0.0, "fusion_lat": 0.0, "name": "a963afe8acc3bfdccdd6fbb800c0ce79", "type": "electric_scooter", "rental_uris": {"ios": "https://dc.lft.to/lastmile_qr_scan", "android": "https://dc.lft.to/lastmile_qr_scan"}, "bike_id": "a963afe8acc3bfdccdd6fbb800c0ce79"}, {"lat": 38.90029966666667, "is_disabled": 0, "lon": -77.04366683333333, "is_reserved": 0, "fusion_lon": 0.0, "fusion_lat": 0.0, "name": "966143a80ba5307c7ca6faf7c80e70df", "type": "electric_scooter", "rental_uris": {"ios": "https://dc.lft.to/lastmile_qr_scan", "android": "https://dc.lft.to/lastmile_qr_scan"}, "bike_id": "966143a80ba5307c7ca6faf7c80e70df"}, {"lat": 38.91605933333334, "is_disabled": 0, "lon": -77.04171516666666, "is_reserved": 0, "fusion_lon": 0.0, "fusion_lat": 0.0, "name": "f5fc06a0b61da5467f601c4b2cbe80b4", "type": "electric_scooter", "rental_uris": {"ios": "https://dc.lft.to/lastmile_qr_scan", "android": "https://dc.lft.to/lastmile_qr_scan"}, "bike_id": "f5fc06a0b61da5467f601c4b2cbe80b4"}, {"lat": 38.91659466666667, "is_disabled": 0, "lon": -77.02178383333333, "is_reserved": 0, "fusion_lon": 0.0, "fusion_lat": 0.0, "name": "e5aedfee3171eb781c45e06f45bb5e6a", "type": "electric_scooter", "rental_uris": {"ios": "https://dc.lft.to/lastmile_qr_scan", "android": "https://dc.lft.to/lastmile_qr_scan"}, "bike_id": "e5aedfee3171eb781c45e06f45bb5e6a"}, {"lat": 38.90485966666667, "is_disabled": 0, "lon": -77.021463, "is_reserved": 0, "fusion_lon": 0.0, "fusion_lat": 0.0, "name": "319290a5b6fcc6f44ee79e7a1ae0d922", "type": "electric_scooter", "rental_uris": {"ios": "https://dc.lft.to/lastmile_qr_scan", "android": "https://dc.lft.to/lastmile_qr_scan"}, "bike_id": "319290a5b6fcc6f44ee79e7a1ae0d922"}, {"lat": 38.90641866666667, "is_disabled": 0, "lon": -77.05131433333334, "is_reserved": 0, "fusion_lon": 0.0, "fusion_lat": 0.0, "name": "e63ccd1411ad2498e876b88d4ab38b11", "type": "electric_scooter", "rental_uris": {"ios": "https://dc.lft.to/lastmile_qr_scan", "android": "https://dc.lft.to/lastmile_qr_scan"}, "bike_id": "e63ccd1411ad2498e876b88d4ab38b11"}, {"lat": 38.858125666666666, "is_disabled": 0, "lon": -76.98994533333334, "is_reserved": 0, "fusion_lon": 0.0, "fusion_lat": 0.0, "name": "e548b093a9676bf4d361b06f580d6cdf", "type": "electric_scooter", "rental_uris": {"ios": "https://dc.lft.to/lastmile_qr_scan", "android": "https://dc.lft.to/lastmile_qr_scan"}, "bike_id": "e548b093a9676bf4d361b06f580d6cdf"}, {"lat": 38.94980533333333, "is_disabled": 0, "lon": -77.02697816666667, "is_reserved": 0, "fusion_lon": 0.0, "fusion_lat": 0.0, "name": "45c06a3be7b6d1c8b7b7adefc6d9802f", "type": "electric_scooter", "rental_uris": {"ios": "https://dc.lft.to/lastmile_qr_scan", "android": "https://dc.lft.to/lastmile_qr_scan"}, "bike_id": "45c06a3be7b6d1c8b7b7adefc6d9802f"}, {"lat": 38.92430516666667, "is_disabled": 0, "lon": -77.0404855, "is_reserved": 0, "fusion_lon": 0.0, "fusion_lat": 0.0, "name": "20f361403decfa4418c57cba8c3695d8", "type": "electric_scooter", "rental_uris": {"ios": "https://dc.lft.to/lastmile_qr_scan", "android": "https://dc.lft.to/lastmile_qr_scan"}, "bike_id": "20f361403decfa4418c57cba8c3695d8"}, {"lat": 38.95772683333333, "is_disabled": 0, "lon": -77.0802695, "is_reserved": 0, "fusion_lon": 0.0, "fusion_lat": 0.0, "name": "6b70c56211f6e85df546814baf088c09", "type": "electric_bike", "rental_uris": {"ios": "https://dc.lft.to/lastmile_qr_scan", "android": "https://dc.lft.to/lastmile_qr_scan"}, "bike_id": "6b70c56211f6e85df546814baf088c09"}, {"lat": 38.89956816666667, "is_disabled": 0, "lon": -77.04529883333333, "is_reserved": 0, "fusion_lon": 0.0, "fusion_lat": 0.0, "name": "48fe944ef7ea896e873cbb77ac2d14e6", "type": "electric_scooter", "rental_uris": {"ios": "https://dc.lft.to/lastmile_qr_scan", "android": "https://dc.lft.to/lastmile_qr_scan"}, "bike_id": "48fe944ef7ea896e873cbb77ac2d14e6"}, {"lat": 38.804772, "is_disabled": 0, "lon": -76.99100766666666, "is_reserved": 0, "fusion_lon": 0.0, "fusion_lat": 0.0, "name": "007826811867303a13c4eead80bc1fbb", "type": "electric_bike", "rental_uris": {"ios": "https://dc.lft.to/lastmile_qr_scan", "android": "https://dc.lft.to/lastmile_qr_scan"}, "bike_id": "007826811867303a13c4eead80bc1fbb"}, {"lat": 38.85020933333333, "is_disabled": 0, "lon": -77.0982585, "is_reserved": 0, "fusion_lon": 0.0, "fusion_lat": 0.0, "name": "2f22eb3b31f6c91d259740be909bc37e", "type": "electric_bike", "rental_uris": {"ios": "https://dc.lft.to/lastmile_qr_scan", "android": "https://dc.lft.to/lastmile_qr_scan"}, "bike_id": "2f22eb3b31f6c91d259740be909bc37e"}, {"lat": 38.928811833333334, "is_disabled": 0, "lon": -77.0347015, "is_reserved": 0, "fusion_lon": 0.0, "fusion_lat": 0.0, "name": "a72b0fe7141da09222b88ec35f8eb125", "type": "electric_scooter", "rental_uris": {"ios": "https://dc.lft.to/lastmile_qr_scan", "android": "https://dc.lft.to/lastmile_qr_scan"}, "bike_id": "a72b0fe7141da09222b88ec35f8eb125"}, {"lat": 38.896671833333336, "is_disabled": 0, "lon": -76.93207283333334, "is_reserved": 0, "fusion_lon": 0.0, "fusion_lat": 0.0, "name": "e2b62976e29605b2973ccc53dc4e37a6", "type": "electric_scooter", "rental_uris": {"ios": "https://dc.lft.to/lastmile_qr_scan", "android": "https://dc.lft.to/lastmile_qr_scan"}, "bike_id": "e2b62976e29605b2973ccc53dc4e37a6"}, {"lat": 38.92161866666667, "is_disabled": 0, "lon": -77.03313783333333, "is_reserved": 0, "fusion_lon": 0.0, "fusion_lat": 0.0, "name": "d05954d1d14ae216edf87335dd6f229c", "type": "electric_scooter", "rental_uris": {"ios": "https://dc.lft.to/lastmile_qr_scan", "android": "https://dc.lft.to/lastmile_qr_scan"}, "bike_id": "d05954d1d14ae216edf87335dd6f229c"}, {"lat": 38.944745166666664, "is_disabled": 0, "lon": -76.98691166666667, "is_reserved": 0, "fusion_lon": 0.0, "fusion_lat": 0.0, "name": "e4e57c9a228cff26ece234374b63fbe4", "type": "electric_bike", "rental_uris": {"ios": "https://dc.lft.to/lastmile_qr_scan", "android": "https://dc.lft.to/lastmile_qr_scan"}, "bike_id": "e4e57c9a228cff26ece234374b63fbe4"}, {"lat": 38.896116666666664, "is_disabled": 0, "lon": -77.0226595, "is_reserved": 0, "fusion_lon": 0.0, "fusion_lat": 0.0, "name": "51494a4304000a3be61414f029cf2adf", "type": "electric_scooter", "rental_uris": {"ios": "https://dc.lft.to/lastmile_qr_scan", "android": "https://dc.lft.to/lastmile_qr_scan"}, "bike_id": "51494a4304000a3be61414f029cf2adf"}, {"lat": 38.876775, "is_disabled": 0, "lon": -77.00332133333333, "is_reserved": 0, "fusion_lon": 0.0, "fusion_lat": 0.0, "name": "d9aa6b3d440e9340df1221647cc7e153", "type": "electric_scooter", "rental_uris": {"ios": "https://dc.lft.to/lastmile_qr_scan", "android": "https://dc.lft.to/lastmile_qr_scan"}, "bike_id": "d9aa6b3d440e9340df1221647cc7e153"}, {"lat": 38.92276316666667, "is_disabled": 0, "lon": -77.02131666666666, "is_reserved": 0, "fusion_lon": 0.0, "fusion_lat": 0.0, "name": "a18393d849cc1fb672c7c7b77a81fbcd", "type": "electric_scooter", "rental_uris": {"ios": "https://dc.lft.to/lastmile_qr_scan", "android": "https://dc.lft.to/lastmile_qr_scan"}, "bike_id": "a18393d849cc1fb672c7c7b77a81fbcd"}, {"lat": 38.918562333333334, "is_disabled": 0, "lon": -76.96537133333334, "is_reserved": 0, "fusion_lon": 0.0, "fusion_lat": 0.0, "name": "6573fcc5f49d683b183005109ceccd3c", "type": "electric_scooter", "rental_uris": {"ios": "https://dc.lft.to/lastmile_qr_scan", "android": "https://dc.lft.to/lastmile_qr_scan"}, "bike_id": "6573fcc5f49d683b183005109ceccd3c"}, {"lat": 38.898325666666665, "is_disabled": 0, "lon": -77.04015983333333, "is_reserved": 0, "fusion_lon": 0.0, "fusion_lat": 0.0, "name": "ff83c5666d73dc7dedc2083789319350", "type": "electric_scooter", "rental_uris": {"ios": "https://dc.lft.to/lastmile_qr_scan", "android": "https://dc.lft.to/lastmile_qr_scan"}, "bike_id": "ff83c5666d73dc7dedc2083789319350"}, {"lat": 38.93407233333333, "is_disabled": 0, "lon": -77.027861, "is_reserved": 0, "fusion_lon": 0.0, "fusion_lat": 0.0, "name": "e0908381c2939379aec263d75fc94113", "type": "electric_scooter", "rental_uris": {"ios": "https://dc.lft.to/lastmile_qr_scan", "android": "https://dc.lft.to/lastmile_qr_scan"}, "bike_id": "e0908381c2939379aec263d75fc94113"}, {"lat": 38.87185016666667, "is_disabled": 0, "lon": -77.00602383333333, "is_reserved": 0, "fusion_lon": 0.0, "fusion_lat": 0.0, "name": "614a253819b0f16cbb4741108c21c53d", "type": "electric_scooter", "rental_uris": {"ios": "https://dc.lft.to/lastmile_qr_scan", "android": "https://dc.lft.to/lastmile_qr_scan"}, "bike_id": "614a253819b0f16cbb4741108c21c53d"}, {"lat": 38.905890166666666, "is_disabled": 0, "lon": -77.00608983333333, "is_reserved": 0, "fusion_lon": 0.0, "fusion_lat": 0.0, "name": "db9c8642287ac99892c539f5144b54df", "type": "electric_scooter", "rental_uris": {"ios": "https://dc.lft.to/lastmile_qr_scan", "android": "https://dc.lft.to/lastmile_qr_scan"}, "bike_id": "db9c8642287ac99892c539f5144b54df"}, {"lat": 38.950880166666664, "is_disabled": 0, "lon": -77.0304205, "is_reserved": 0, "fusion_lon": 0.0, "fusion_lat": 0.0, "name": "702df0fca8ac0ca0f0f39dea88ce88ca", "type": "electric_scooter", "rental_uris": {"ios": "https://dc.lft.to/lastmile_qr_scan", "android": "https://dc.lft.to/lastmile_qr_scan"}, "bike_id": "702df0fca8ac0ca0f0f39dea88ce88ca"}, {"lat": 38.88711266666667, "is_disabled": 0, "lon": -77.0222175, "is_reserved": 0, "fusion_lon": 0.0, "fusion_lat": 0.0, "name": "f3094d438bcaffde84fbfaeb35a27375", "type": "electric_scooter", "rental_uris": {"ios": "https://dc.lft.to/lastmile_qr_scan", "android": "https://dc.lft.to/lastmile_qr_scan"}, "bike_id": "f3094d438bcaffde84fbfaeb35a27375"}, {"lat": 38.90593966666667, "is_disabled": 0, "lon": -77.07015416666667, "is_reserved": 0, "fusion_lon": 0.0, "fusion_lat": 0.0, "name": "28f8eef11148848e7098e0be4b16d24e", "type": "electric_scooter", "rental_uris": {"ios": "https://dc.lft.to/lastmile_qr_scan", "android": "https://dc.lft.to/lastmile_qr_scan"}, "bike_id": "28f8eef11148848e7098e0be4b16d24e"}, {"lat": 38.91103016666667, "is_disabled": 0, "lon": -77.0263925, "is_reserved": 0, "fusion_lon": 0.0, "fusion_lat": 0.0, "name": "bfb8e7508270b9a7bce5743987b170d4", "type": "electric_scooter", "rental_uris": {"ios": "https://dc.lft.to/lastmile_qr_scan", "android": "https://dc.lft.to/lastmile_qr_scan"}, "bike_id": "bfb8e7508270b9a7bce5743987b170d4"}, {"lat": 38.85970833333333, "is_disabled": 0, "lon": -76.96705833333333, "is_reserved": 0, "fusion_lon": 0.0, "fusion_lat": 0.0, "name": "9bdceb179c224348c0653efaf1e84149", "type": "electric_scooter", "rental_uris": {"ios": "https://dc.lft.to/lastmile_qr_scan", "android": "https://dc.lft.to/lastmile_qr_scan"}, "bike_id": "9bdceb179c224348c0653efaf1e84149"}, {"lat": 38.89752133333333, "is_disabled": 0, "lon": -77.03224416666667, "is_reserved": 0, "fusion_lon": 0.0, "fusion_lat": 0.0, "name": "19669adf2edc26ed78303e77d480cb21", "type": "electric_scooter", "rental_uris": {"ios": "https://dc.lft.to/lastmile_qr_scan", "android": "https://dc.lft.to/lastmile_qr_scan"}, "bike_id": "19669adf2edc26ed78303e77d480cb21"}, {"lat": 38.97515883333333, "is_disabled": 0, "lon": -77.01728583333333, "is_reserved": 0, "fusion_lon": 0.0, "fusion_lat": 0.0, "name": "2f78c55dfb44b83dc2f2b75427caaa92", "type": "electric_scooter", "rental_uris": {"ios": "https://dc.lft.to/lastmile_qr_scan", "android": "https://dc.lft.to/lastmile_qr_scan"}, "bike_id": "2f78c55dfb44b83dc2f2b75427caaa92"}, {"lat": 38.902637166666665, "is_disabled": 0, "lon": -77.01753766666667, "is_reserved": 0, "fusion_lon": 0.0, "fusion_lat": 0.0, "name": "eb08bb577c713c8fa62fc17b543d025e", "type": "electric_scooter", "rental_uris": {"ios": "https://dc.lft.to/lastmile_qr_scan", "android": "https://dc.lft.to/lastmile_qr_scan"}, "bike_id": "eb08bb577c713c8fa62fc17b543d025e"}, {"lat": 38.91805, "is_disabled": 0, "lon": -77.03439316666666, "is_reserved": 0, "fusion_lon": 0.0, "fusion_lat": 0.0, "name": "419f71e2fdc3158ec762d8c2bec04c03", "type": "electric_scooter", "rental_uris": {"ios": "https://dc.lft.to/lastmile_qr_scan", "android": "https://dc.lft.to/lastmile_qr_scan"}, "bike_id": "419f71e2fdc3158ec762d8c2bec04c03"}, {"lat": 38.90353183333333, "is_disabled": 0, "lon": -77.05907266666667, "is_reserved": 0, "fusion_lon": 0.0, "fusion_lat": 0.0, "name": "dda07bf45682a985b00f849d188cb8ca", "type": "electric_scooter", "rental_uris": {"ios": "https://dc.lft.to/lastmile_qr_scan", "android": "https://dc.lft.to/lastmile_qr_scan"}, "bike_id": "dda07bf45682a985b00f849d188cb8ca"}, {"lat": 38.898543833333335, "is_disabled": 0, "lon": -77.04372033333334, "is_reserved": 0, "fusion_lon": 0.0, "fusion_lat": 0.0, "name": "b851470915aea10dea183b5548e8e447", "type": "electric_scooter", "rental_uris": {"ios": "https://dc.lft.to/lastmile_qr_scan", "android": "https://dc.lft.to/lastmile_qr_scan"}, "bike_id": "b851470915aea10dea183b5548e8e447"}, {"lat": 38.92244316666667, "is_disabled": 0, "lon": -77.038957, "is_reserved": 0, "fusion_lon": 0.0, "fusion_lat": 0.0, "name": "101cfbec864c4bef8aea992f107bc27d", "type": "electric_scooter", "rental_uris": {"ios": "https://dc.lft.to/lastmile_qr_scan", "android": "https://dc.lft.to/lastmile_qr_scan"}, "bike_id": "101cfbec864c4bef8aea992f107bc27d"}, {"lat": 38.89826766666667, "is_disabled": 0, "lon": -77.04545316666666, "is_reserved": 0, "fusion_lon": 0.0, "fusion_lat": 0.0, "name": "997a941bd82b2aee3460eb1f10deeca0", "type": "electric_scooter", "rental_uris": {"ios": "https://dc.lft.to/lastmile_qr_scan", "android": "https://dc.lft.to/lastmile_qr_scan"}, "bike_id": "997a941bd82b2aee3460eb1f10deeca0"}, {"lat": 38.89624216666667, "is_disabled": 0, "lon": -76.99848833333333, "is_reserved": 0, "fusion_lon": 0.0, "fusion_lat": 0.0, "name": "8e213c3fea8e574931c197285c332eea", "type": "electric_scooter", "rental_uris": {"ios": "https://dc.lft.to/lastmile_qr_scan", "android": "https://dc.lft.to/lastmile_qr_scan"}, "bike_id": "8e213c3fea8e574931c197285c332eea"}, {"lat": 38.88372233333333, "is_disabled": 0, "lon": -76.995166, "is_reserved": 0, "fusion_lon": 0.0, "fusion_lat": 0.0, "name": "248c71263a1ae549428472ec472a13ce", "type": "electric_scooter", "rental_uris": {"ios": "https://dc.lft.to/lastmile_qr_scan", "android": "https://dc.lft.to/lastmile_qr_scan"}, "bike_id": "248c71263a1ae549428472ec472a13ce"}, {"lat": 38.9026255, "is_disabled": 0, "lon": -77.05208383333333, "is_reserved": 0, "fusion_lon": 0.0, "fusion_lat": 0.0, "name": "b497c605f32b11340b8387a641dd6427", "type": "electric_scooter", "rental_uris": {"ios": "https://dc.lft.to/lastmile_qr_scan", "android": "https://dc.lft.to/lastmile_qr_scan"}, "bike_id": "b497c605f32b11340b8387a641dd6427"}, {"lat": 38.90248883333334, "is_disabled": 0, "lon": -77.02824083333333, "is_reserved": 0, "fusion_lon": 0.0, "fusion_lat": 0.0, "name": "d18c5009ba5d956f096eb0716f638ad6", "type": "electric_scooter", "rental_uris": {"ios": "https://dc.lft.to/lastmile_qr_scan", "android": "https://dc.lft.to/lastmile_qr_scan"}, "bike_id": "d18c5009ba5d956f096eb0716f638ad6"}, {"lat": 38.932668666666665, "is_disabled": 0, "lon": -77.06567916666667, "is_reserved": 0, "fusion_lon": 0.0, "fusion_lat": 0.0, "name": "c45c7338daa1dab29ca2ea18134aa603", "type": "electric_bike", "rental_uris": {"ios": "https://dc.lft.to/lastmile_qr_scan", "android": "https://dc.lft.to/lastmile_qr_scan"}, "bike_id": "c45c7338daa1dab29ca2ea18134aa603"}, {"lat": 38.92762366666667, "is_disabled": 0, "lon": -77.036594, "is_reserved": 0, "fusion_lon": 0.0, "fusion_lat": 0.0, "name": "b1e54befbc2f865c32ae19994b6ab49d", "type": "electric_scooter", "rental_uris": {"ios": "https://dc.lft.to/lastmile_qr_scan", "android": "https://dc.lft.to/lastmile_qr_scan"}, "bike_id": "b1e54befbc2f865c32ae19994b6ab49d"}, {"lat": 38.930292666666666, "is_disabled": 0, "lon": -77.02635533333333, "is_reserved": 0, "fusion_lon": 0.0, "fusion_lat": 0.0, "name": "dd87ccef124c792c70f684880620b6cb", "type": "electric_scooter", "rental_uris": {"ios": "https://dc.lft.to/lastmile_qr_scan", "android": "https://dc.lft.to/lastmile_qr_scan"}, "bike_id": "dd87ccef124c792c70f684880620b6cb"}, {"lat": 38.90368266666667, "is_disabled": 0, "lon": -77.03131916666666, "is_reserved": 0, "fusion_lon": 0.0, "fusion_lat": 0.0, "name": "b91852384ac49b172af507f90a0bac59", "type": "electric_scooter", "rental_uris": {"ios": "https://dc.lft.to/lastmile_qr_scan", "android": "https://dc.lft.to/lastmile_qr_scan"}, "bike_id": "b91852384ac49b172af507f90a0bac59"}, {"lat": 38.924698666666664, "is_disabled": 0, "lon": -77.028384, "is_reserved": 0, "fusion_lon": 0.0, "fusion_lat": 0.0, "name": "8eb05cfb273de823023ae488e8c20cc3", "type": "electric_scooter", "rental_uris": {"ios": "https://dc.lft.to/lastmile_qr_scan", "android": "https://dc.lft.to/lastmile_qr_scan"}, "bike_id": "8eb05cfb273de823023ae488e8c20cc3"}, {"lat": 38.90153016666667, "is_disabled": 0, "lon": -77.05265383333334, "is_reserved": 0, "fusion_lon": 0.0, "fusion_lat": 0.0, "name": "0c1c346125b894196b7c12fe6d1679ba", "type": "electric_scooter", "rental_uris": {"ios": "https://dc.lft.to/lastmile_qr_scan", "android": "https://dc.lft.to/lastmile_qr_scan"}, "bike_id": "0c1c346125b894196b7c12fe6d1679ba"}, {"lat": 38.90445483333333, "is_disabled": 0, "lon": -77.04368766666667, "is_reserved": 0, "fusion_lon": 0.0, "fusion_lat": 0.0, "name": "efb8a0397fbd00f58056e4908455b543", "type": "electric_scooter", "rental_uris": {"ios": "https://dc.lft.to/lastmile_qr_scan", "android": "https://dc.lft.to/lastmile_qr_scan"}, "bike_id": "efb8a0397fbd00f58056e4908455b543"}, {"lat": 38.90006966666667, "is_disabled": 0, "lon": -77.03081683333333, "is_reserved": 0, "fusion_lon": 0.0, "fusion_lat": 0.0, "name": "3dcc5c522a8049b4c910ac29908ea9da", "type": "electric_scooter", "rental_uris": {"ios": "https://dc.lft.to/lastmile_qr_scan", "android": "https://dc.lft.to/lastmile_qr_scan"}, "bike_id": "3dcc5c522a8049b4c910ac29908ea9da"}, {"lat": 38.91419033333333, "is_disabled": 0, "lon": -77.03175516666667, "is_reserved": 0, "fusion_lon": 0.0, "fusion_lat": 0.0, "name": "568b321bdf5bc3fa00f56462db418ee3", "type": "electric_scooter", "rental_uris": {"ios": "https://dc.lft.to/lastmile_qr_scan", "android": "https://dc.lft.to/lastmile_qr_scan"}, "bike_id": "568b321bdf5bc3fa00f56462db418ee3"}, {"lat": 38.91819233333333, "is_disabled": 0, "lon": -77.040049, "is_reserved": 0, "fusion_lon": 0.0, "fusion_lat": 0.0, "name": "337df54316d33e46481812e212a94530", "type": "electric_scooter", "rental_uris": {"ios": "https://dc.lft.to/lastmile_qr_scan", "android": "https://dc.lft.to/lastmile_qr_scan"}, "bike_id": "337df54316d33e46481812e212a94530"}, {"lat": 38.9088625, "is_disabled": 0, "lon": -76.99100816666666, "is_reserved": 0, "fusion_lon": 0.0, "fusion_lat": 0.0, "name": "71cfd1c2ca09072a7a872c8e206f9b0b", "type": "electric_scooter", "rental_uris": {"ios": "https://dc.lft.to/lastmile_qr_scan", "android": "https://dc.lft.to/lastmile_qr_scan"}, "bike_id": "71cfd1c2ca09072a7a872c8e206f9b0b"}, {"lat": 38.904901333333335, "is_disabled": 0, "lon": -76.9496015, "is_reserved": 0, "fusion_lon": 0.0, "fusion_lat": 0.0, "name": "ba6255d69dca26e7fcd76064b8361f6c", "type": "electric_scooter", "rental_uris": {"ios": "https://dc.lft.to/lastmile_qr_scan", "android": "https://dc.lft.to/lastmile_qr_scan"}, "bike_id": "ba6255d69dca26e7fcd76064b8361f6c"}, {"lat": 38.876630166666665, "is_disabled": 0, "lon": -77.00067333333334, "is_reserved": 0, "fusion_lon": 0.0, "fusion_lat": 0.0, "name": "d43741b2b9e99b65c082535912429793", "type": "electric_scooter", "rental_uris": {"ios": "https://dc.lft.to/lastmile_qr_scan", "android": "https://dc.lft.to/lastmile_qr_scan"}, "bike_id": "d43741b2b9e99b65c082535912429793"}, {"lat": 38.914868, "is_disabled": 0, "lon": -77.01889683333333, "is_reserved": 0, "fusion_lon": 0.0, "fusion_lat": 0.0, "name": "c5684b53cba8ab921a00e7e0a04c990e", "type": "electric_scooter", "rental_uris": {"ios": "https://dc.lft.to/lastmile_qr_scan", "android": "https://dc.lft.to/lastmile_qr_scan"}, "bike_id": "c5684b53cba8ab921a00e7e0a04c990e"}, {"lat": 38.9097085, "is_disabled": 0, "lon": -77.04651416666667, "is_reserved": 0, "fusion_lon": 0.0, "fusion_lat": 0.0, "name": "2cd1319c9eed0441197b71c8a9d3dfdd", "type": "electric_scooter", "rental_uris": {"ios": "https://dc.lft.to/lastmile_qr_scan", "android": "https://dc.lft.to/lastmile_qr_scan"}, "bike_id": "2cd1319c9eed0441197b71c8a9d3dfdd"}, {"lat": 38.8931315, "is_disabled": 0, "lon": -77.04997233333333, "is_reserved": 0, "fusion_lon": 0.0, "fusion_lat": 0.0, "name": "1e0be9df99536ccd1544770725adf0f9", "type": "electric_scooter", "rental_uris": {"ios": "https://dc.lft.to/lastmile_qr_scan", "android": "https://dc.lft.to/lastmile_qr_scan"}, "bike_id": "1e0be9df99536ccd1544770725adf0f9"}, {"lat": 38.90166833333333, "is_disabled": 0, "lon": -77.005995, "is_reserved": 0, "fusion_lon": 0.0, "fusion_lat": 0.0, "name": "8ad153a305c59c8e16a8655e38c0e610", "type": "electric_scooter", "rental_uris": {"ios": "https://dc.lft.to/lastmile_qr_scan", "android": "https://dc.lft.to/lastmile_qr_scan"}, "bike_id": "8ad153a305c59c8e16a8655e38c0e610"}, {"lat": 38.91287, "is_disabled": 0, "lon": -77.0451275, "is_reserved": 0, "fusion_lon": 0.0, "fusion_lat": 0.0, "name": "da0a21c47840ed7789353358ffb690a4", "type": "electric_scooter", "rental_uris": {"ios": "https://dc.lft.to/lastmile_qr_scan", "android": "https://dc.lft.to/lastmile_qr_scan"}, "bike_id": "da0a21c47840ed7789353358ffb690a4"}, {"lat": 38.924096166666665, "is_disabled": 0, "lon": -77.0504035, "is_reserved": 0, "fusion_lon": 0.0, "fusion_lat": 0.0, "name": "ca7e979c1f5fe09f911caf76eaea45b3", "type": "electric_bike", "rental_uris": {"ios": "https://dc.lft.to/lastmile_qr_scan", "android": "https://dc.lft.to/lastmile_qr_scan"}, "bike_id": "ca7e979c1f5fe09f911caf76eaea45b3"}, {"lat": 38.88731666666666, "is_disabled": 0, "lon": -76.98358633333334, "is_reserved": 0, "fusion_lon": 0.0, "fusion_lat": 0.0, "name": "6b82687f50dd41f190408ee49094d911", "type": "electric_scooter", "rental_uris": {"ios": "https://dc.lft.to/lastmile_qr_scan", "android": "https://dc.lft.to/lastmile_qr_scan"}, "bike_id": "6b82687f50dd41f190408ee49094d911"}, {"lat": 38.929339666666664, "is_disabled": 0, "lon": -77.01950266666667, "is_reserved": 0, "fusion_lon": 0.0, "fusion_lat": 0.0, "name": "04a0b5856f81a95285263b9f05282d61", "type": "electric_scooter", "rental_uris": {"ios": "https://dc.lft.to/lastmile_qr_scan", "android": "https://dc.lft.to/lastmile_qr_scan"}, "bike_id": "04a0b5856f81a95285263b9f05282d61"}, {"lat": 38.904703833333336, "is_disabled": 0, "lon": -77.04877366666666, "is_reserved": 0, "fusion_lon": 0.0, "fusion_lat": 0.0, "name": "30053933db2e8137078f19c42e4a10e5", "type": "electric_scooter", "rental_uris": {"ios": "https://dc.lft.to/lastmile_qr_scan", "android": "https://dc.lft.to/lastmile_qr_scan"}, "bike_id": "30053933db2e8137078f19c42e4a10e5"}, {"lat": 38.92230816666667, "is_disabled": 0, "lon": -77.046127, "is_reserved": 0, "fusion_lon": 0.0, "fusion_lat": 0.0, "name": "273d94deaa0657a18768d857d4d981b6", "type": "electric_scooter", "rental_uris": {"ios": "https://dc.lft.to/lastmile_qr_scan", "android": "https://dc.lft.to/lastmile_qr_scan"}, "bike_id": "273d94deaa0657a18768d857d4d981b6"}, {"lat": 38.923761666666664, "is_disabled": 0, "lon": -77.02119266666666, "is_reserved": 0, "fusion_lon": 0.0, "fusion_lat": 0.0, "name": "23f037c5fd8aaadf109bdd2e73b24499", "type": "electric_scooter", "rental_uris": {"ios": "https://dc.lft.to/lastmile_qr_scan", "android": "https://dc.lft.to/lastmile_qr_scan"}, "bike_id": "23f037c5fd8aaadf109bdd2e73b24499"}, {"lat": 38.88876283333333, "is_disabled": 0, "lon": -76.95700116666667, "is_reserved": 0, "fusion_lon": 0.0, "fusion_lat": 0.0, "name": "0f0b28c05f1165b31d50d85379850819", "type": "electric_bike", "rental_uris": {"ios": "https://dc.lft.to/lastmile_qr_scan", "android": "https://dc.lft.to/lastmile_qr_scan"}, "bike_id": "0f0b28c05f1165b31d50d85379850819"}, {"lat": 38.924458333333334, "is_disabled": 0, "lon": -77.03314183333333, "is_reserved": 0, "fusion_lon": 0.0, "fusion_lat": 0.0, "name": "5467b99d2903f7c3b2a392505bf9aa05", "type": "electric_scooter", "rental_uris": {"ios": "https://dc.lft.to/lastmile_qr_scan", "android": "https://dc.lft.to/lastmile_qr_scan"}, "bike_id": "5467b99d2903f7c3b2a392505bf9aa05"}, {"lat": 38.904098833333336, "is_disabled": 0, "lon": -77.068342, "is_reserved": 0, "fusion_lon": 0.0, "fusion_lat": 0.0, "name": "580d840388a02b1b15a8f5aaf8df256a", "type": "electric_scooter", "rental_uris": {"ios": "https://dc.lft.to/lastmile_qr_scan", "android": "https://dc.lft.to/lastmile_qr_scan"}, "bike_id": "580d840388a02b1b15a8f5aaf8df256a"}, {"lat": 38.916524833333334, "is_disabled": 0, "lon": -77.02887983333333, "is_reserved": 0, "fusion_lon": 0.0, "fusion_lat": 0.0, "name": "94643976ed31f675f85286d11daded95", "type": "electric_scooter", "rental_uris": {"ios": "https://dc.lft.to/lastmile_qr_scan", "android": "https://dc.lft.to/lastmile_qr_scan"}, "bike_id": "94643976ed31f675f85286d11daded95"}, {"lat": 38.84283583333333, "is_disabled": 0, "lon": -76.98811516666666, "is_reserved": 0, "fusion_lon": 0.0, "fusion_lat": 0.0, "name": "669aec1a260ee99d4fedffa10959a33c", "type": "electric_bike", "rental_uris": {"ios": "https://dc.lft.to/lastmile_qr_scan", "android": "https://dc.lft.to/lastmile_qr_scan"}, "bike_id": "669aec1a260ee99d4fedffa10959a33c"}, {"lat": 38.910149833333335, "is_disabled": 0, "lon": -77.03851166666666, "is_reserved": 0, "fusion_lon": 0.0, "fusion_lat": 0.0, "name": "f3d563d722c7c6af740dfdd44fde9375", "type": "electric_scooter", "rental_uris": {"ios": "https://dc.lft.to/lastmile_qr_scan", "android": "https://dc.lft.to/lastmile_qr_scan"}, "bike_id": "f3d563d722c7c6af740dfdd44fde9375"}, {"lat": 38.906329166666666, "is_disabled": 0, "lon": -77.036949, "is_reserved": 0, "fusion_lon": 0.0, "fusion_lat": 0.0, "name": "e15bf0ed9a6291333ef365c0641cfe22", "type": "electric_scooter", "rental_uris": {"ios": "https://dc.lft.to/lastmile_qr_scan", "android": "https://dc.lft.to/lastmile_qr_scan"}, "bike_id": "e15bf0ed9a6291333ef365c0641cfe22"}, {"lat": 38.92473916666667, "is_disabled": 0, "lon": -77.02993516666666, "is_reserved": 0, "fusion_lon": 0.0, "fusion_lat": 0.0, "name": "e79ad38b796e84da9f5ccfaf54cd12c5", "type": "electric_scooter", "rental_uris": {"ios": "https://dc.lft.to/lastmile_qr_scan", "android": "https://dc.lft.to/lastmile_qr_scan"}, "bike_id": "e79ad38b796e84da9f5ccfaf54cd12c5"}, {"lat": 38.904124833333334, "is_disabled": 0, "lon": -77.06290116666666, "is_reserved": 0, "fusion_lon": 0.0, "fusion_lat": 0.0, "name": "f105a11b0c5daa021d033960bf4bd879", "type": "electric_scooter", "rental_uris": {"ios": "https://dc.lft.to/lastmile_qr_scan", "android": "https://dc.lft.to/lastmile_qr_scan"}, "bike_id": "f105a11b0c5daa021d033960bf4bd879"}, {"lat": 38.906460833333334, "is_disabled": 0, "lon": -77.0113995, "is_reserved": 0, "fusion_lon": 0.0, "fusion_lat": 0.0, "name": "97c00c805df3da5dc0c5ade69a641c65", "type": "electric_scooter", "rental_uris": {"ios": "https://dc.lft.to/lastmile_qr_scan", "android": "https://dc.lft.to/lastmile_qr_scan"}, "bike_id": "97c00c805df3da5dc0c5ade69a641c65"}, {"lat": 38.908254166666666, "is_disabled": 0, "lon": -76.99449933333334, "is_reserved": 0, "fusion_lon": 0.0, "fusion_lat": 0.0, "name": "b80d92f707527d28ba96708a65b83fa9", "type": "electric_scooter", "rental_uris": {"ios": "https://dc.lft.to/lastmile_qr_scan", "android": "https://dc.lft.to/lastmile_qr_scan"}, "bike_id": "b80d92f707527d28ba96708a65b83fa9"}, {"lat": 38.887548333333335, "is_disabled": 0, "lon": -77.03142466666667, "is_reserved": 0, "fusion_lon": 0.0, "fusion_lat": 0.0, "name": "4dc9f07422ded0c2bc9081f6fb85bfa7", "type": "electric_scooter", "rental_uris": {"ios": "https://dc.lft.to/lastmile_qr_scan", "android": "https://dc.lft.to/lastmile_qr_scan"}, "bike_id": "4dc9f07422ded0c2bc9081f6fb85bfa7"}, {"lat": 38.84423016666667, "is_disabled": 0, "lon": -76.98859766666666, "is_reserved": 0, "fusion_lon": 0.0, "fusion_lat": 0.0, "name": "279ba24c8845197ffcdb5ed5f6a5c131", "type": "electric_scooter", "rental_uris": {"ios": "https://dc.lft.to/lastmile_qr_scan", "android": "https://dc.lft.to/lastmile_qr_scan"}, "bike_id": "279ba24c8845197ffcdb5ed5f6a5c131"}, {"lat": 38.91349966666667, "is_disabled": 0, "lon": -77.02882683333333, "is_reserved": 0, "fusion_lon": 0.0, "fusion_lat": 0.0, "name": "a0de2298f6d529dd2a133bc9d05a35e3", "type": "electric_scooter", "rental_uris": {"ios": "https://dc.lft.to/lastmile_qr_scan", "android": "https://dc.lft.to/lastmile_qr_scan"}, "bike_id": "a0de2298f6d529dd2a133bc9d05a35e3"}, {"lat": 38.92495066666667, "is_disabled": 0, "lon": -77.02178666666667, "is_reserved": 0, "fusion_lon": 0.0, "fusion_lat": 0.0, "name": "6b365e7fe0baeebc7cbfb92afc20d5c1", "type": "electric_scooter", "rental_uris": {"ios": "https://dc.lft.to/lastmile_qr_scan", "android": "https://dc.lft.to/lastmile_qr_scan"}, "bike_id": "6b365e7fe0baeebc7cbfb92afc20d5c1"}, {"lat": 38.899614166666666, "is_disabled": 0, "lon": -77.0162395, "is_reserved": 0, "fusion_lon": 0.0, "fusion_lat": 0.0, "name": "0953ba0f65390a1f2952ff65d3008cb6", "type": "electric_scooter", "rental_uris": {"ios": "https://dc.lft.to/lastmile_qr_scan", "android": "https://dc.lft.to/lastmile_qr_scan"}, "bike_id": "0953ba0f65390a1f2952ff65d3008cb6"}, {"lat": 38.90336933333333, "is_disabled": 0, "lon": -77.02590816666667, "is_reserved": 0, "fusion_lon": 0.0, "fusion_lat": 0.0, "name": "1d43835d227ca009c1cbb2f1459abf77", "type": "electric_scooter", "rental_uris": {"ios": "https://dc.lft.to/lastmile_qr_scan", "android": "https://dc.lft.to/lastmile_qr_scan"}, "bike_id": "1d43835d227ca009c1cbb2f1459abf77"}, {"lat": 38.91722933333333, "is_disabled": 0, "lon": -77.04154, "is_reserved": 0, "fusion_lon": 0.0, "fusion_lat": 0.0, "name": "157318341a3cf27e77b8515db210fce8", "type": "electric_scooter", "rental_uris": {"ios": "https://dc.lft.to/lastmile_qr_scan", "android": "https://dc.lft.to/lastmile_qr_scan"}, "bike_id": "157318341a3cf27e77b8515db210fce8"}, {"lat": 38.924807333333334, "is_disabled": 0, "lon": -77.02216333333334, "is_reserved": 0, "fusion_lon": 0.0, "fusion_lat": 0.0, "name": "d1a2c03e429e32734e121c0630b4d5b3", "type": "electric_scooter", "rental_uris": {"ios": "https://dc.lft.to/lastmile_qr_scan", "android": "https://dc.lft.to/lastmile_qr_scan"}, "bike_id": "d1a2c03e429e32734e121c0630b4d5b3"}, {"lat": 38.83865683333333, "is_disabled": 0, "lon": -76.996989, "is_reserved": 0, "fusion_lon": 0.0, "fusion_lat": 0.0, "name": "2e8404b49e0fb5bf1678c6f3a025e8e5", "type": "electric_bike", "rental_uris": {"ios": "https://dc.lft.to/lastmile_qr_scan", "android": "https://dc.lft.to/lastmile_qr_scan"}, "bike_id": "2e8404b49e0fb5bf1678c6f3a025e8e5"}, {"lat": 38.91991266666667, "is_disabled": 0, "lon": -77.017774, "is_reserved": 0, "fusion_lon": 0.0, "fusion_lat": 0.0, "name": "80d1ad3e1e679f5698f093cddef4bd40", "type": "electric_scooter", "rental_uris": {"ios": "https://dc.lft.to/lastmile_qr_scan", "android": "https://dc.lft.to/lastmile_qr_scan"}, "bike_id": "80d1ad3e1e679f5698f093cddef4bd40"}, {"lat": 38.90839166666667, "is_disabled": 0, "lon": -77.03206166666666, "is_reserved": 0, "fusion_lon": 0.0, "fusion_lat": 0.0, "name": "ba14eea89d1016be7711bad3659ef363", "type": "electric_scooter", "rental_uris": {"ios": "https://dc.lft.to/lastmile_qr_scan", "android": "https://dc.lft.to/lastmile_qr_scan"}, "bike_id": "ba14eea89d1016be7711bad3659ef363"}, {"lat": 38.897880666666666, "is_disabled": 0, "lon": -77.00755783333334, "is_reserved": 0, "fusion_lon": 0.0, "fusion_lat": 0.0, "name": "1dbfc6c9fe843edf68279961a14203ee", "type": "electric_scooter", "rental_uris": {"ios": "https://dc.lft.to/lastmile_qr_scan", "android": "https://dc.lft.to/lastmile_qr_scan"}, "bike_id": "1dbfc6c9fe843edf68279961a14203ee"}, {"lat": 38.896051166666666, "is_disabled": 0, "lon": -77.04690016666666, "is_reserved": 0, "fusion_lon": 0.0, "fusion_lat": 0.0, "name": "b4849870bfc86eeef0af07f8b0caaa10", "type": "electric_scooter", "rental_uris": {"ios": "https://dc.lft.to/lastmile_qr_scan", "android": "https://dc.lft.to/lastmile_qr_scan"}, "bike_id": "b4849870bfc86eeef0af07f8b0caaa10"}, {"lat": 38.9217835, "is_disabled": 0, "lon": -77.03531566666666, "is_reserved": 0, "fusion_lon": 0.0, "fusion_lat": 0.0, "name": "dd3bb941e81c6b45d95003594ab0de69", "type": "electric_scooter", "rental_uris": {"ios": "https://dc.lft.to/lastmile_qr_scan", "android": "https://dc.lft.to/lastmile_qr_scan"}, "bike_id": "dd3bb941e81c6b45d95003594ab0de69"}, {"lat": 38.91144216666667, "is_disabled": 0, "lon": -77.03854483333333, "is_reserved": 0, "fusion_lon": 0.0, "fusion_lat": 0.0, "name": "244f8aa42703d826fc95f03e0c583c62", "type": "electric_scooter", "rental_uris": {"ios": "https://dc.lft.to/lastmile_qr_scan", "android": "https://dc.lft.to/lastmile_qr_scan"}, "bike_id": "244f8aa42703d826fc95f03e0c583c62"}, {"lat": 38.923583666666666, "is_disabled": 0, "lon": -77.0415175, "is_reserved": 0, "fusion_lon": 0.0, "fusion_lat": 0.0, "name": "38f34752a743842b751ec5ab0990969b", "type": "electric_scooter", "rental_uris": {"ios": "https://dc.lft.to/lastmile_qr_scan", "android": "https://dc.lft.to/lastmile_qr_scan"}, "bike_id": "38f34752a743842b751ec5ab0990969b"}, {"lat": 38.897402666666665, "is_disabled": 0, "lon": -77.00759533333333, "is_reserved": 0, "fusion_lon": 0.0, "fusion_lat": 0.0, "name": "562e20ddbbec0d2ae228c21b7db3e6c8", "type": "electric_scooter", "rental_uris": {"ios": "https://dc.lft.to/lastmile_qr_scan", "android": "https://dc.lft.to/lastmile_qr_scan"}, "bike_id": "562e20ddbbec0d2ae228c21b7db3e6c8"}, {"lat": 38.89437566666667, "is_disabled": 0, "lon": -77.02397916666666, "is_reserved": 0, "fusion_lon": 0.0, "fusion_lat": 0.0, "name": "9d1eb3981d5b2dd996168322115f07e8", "type": "electric_scooter", "rental_uris": {"ios": "https://dc.lft.to/lastmile_qr_scan", "android": "https://dc.lft.to/lastmile_qr_scan"}, "bike_id": "9d1eb3981d5b2dd996168322115f07e8"}, {"lat": 38.917055500000004, "is_disabled": 0, "lon": -77.02868683333334, "is_reserved": 0, "fusion_lon": 0.0, "fusion_lat": 0.0, "name": "de9441aa67290035f597e9b48c3f6c20", "type": "electric_scooter", "rental_uris": {"ios": "https://dc.lft.to/lastmile_qr_scan", "android": "https://dc.lft.to/lastmile_qr_scan"}, "bike_id": "de9441aa67290035f597e9b48c3f6c20"}, {"lat": 38.9050145, "is_disabled": 0, "lon": -77.0482095, "is_reserved": 0, "fusion_lon": 0.0, "fusion_lat": 0.0, "name": "f7a5d05e2fea6c3b91907708824eae03", "type": "electric_scooter", "rental_uris": {"ios": "https://dc.lft.to/lastmile_qr_scan", "android": "https://dc.lft.to/lastmile_qr_scan"}, "bike_id": "f7a5d05e2fea6c3b91907708824eae03"}, {"lat": 38.892363333333336, "is_disabled": 0, "lon": -76.984543, "is_reserved": 0, "fusion_lon": 0.0, "fusion_lat": 0.0, "name": "d348393956c904e82c49f2daac33b973", "type": "electric_scooter", "rental_uris": {"ios": "https://dc.lft.to/lastmile_qr_scan", "android": "https://dc.lft.to/lastmile_qr_scan"}, "bike_id": "d348393956c904e82c49f2daac33b973"}, {"lat": 38.900286333333334, "is_disabled": 0, "lon": -77.00228016666667, "is_reserved": 0, "fusion_lon": 0.0, "fusion_lat": 0.0, "name": "e5fb22994f62768737ede5458295c278", "type": "electric_scooter", "rental_uris": {"ios": "https://dc.lft.to/lastmile_qr_scan", "android": "https://dc.lft.to/lastmile_qr_scan"}, "bike_id": "e5fb22994f62768737ede5458295c278"}, {"lat": 38.906075666666666, "is_disabled": 0, "lon": -77.05683916666666, "is_reserved": 0, "fusion_lon": 0.0, "fusion_lat": 0.0, "name": "09ae5e9b08aea70bfb997714889f351d", "type": "electric_scooter", "rental_uris": {"ios": "https://dc.lft.to/lastmile_qr_scan", "android": "https://dc.lft.to/lastmile_qr_scan"}, "bike_id": "09ae5e9b08aea70bfb997714889f351d"}, {"lat": 38.887337, "is_disabled": 0, "lon": -76.98358466666667, "is_reserved": 0, "fusion_lon": 0.0, "fusion_lat": 0.0, "name": "8f39b2b846e382cc9a563a829912c644", "type": "electric_scooter", "rental_uris": {"ios": "https://dc.lft.to/lastmile_qr_scan", "android": "https://dc.lft.to/lastmile_qr_scan"}, "bike_id": "8f39b2b846e382cc9a563a829912c644"}, {"lat": 38.928226, "is_disabled": 0, "lon": -77.01413483333333, "is_reserved": 0, "fusion_lon": 0.0, "fusion_lat": 0.0, "name": "ea02a45b2793f507b9759f54382db787", "type": "electric_scooter", "rental_uris": {"ios": "https://dc.lft.to/lastmile_qr_scan", "android": "https://dc.lft.to/lastmile_qr_scan"}, "bike_id": "ea02a45b2793f507b9759f54382db787"}, {"lat": 38.91257216666666, "is_disabled": 0, "lon": -77.0305295, "is_reserved": 0, "fusion_lon": 0.0, "fusion_lat": 0.0, "name": "90fe17deb6477f2b3855961ace0fd55d", "type": "electric_scooter", "rental_uris": {"ios": "https://dc.lft.to/lastmile_qr_scan", "android": "https://dc.lft.to/lastmile_qr_scan"}, "bike_id": "90fe17deb6477f2b3855961ace0fd55d"}, {"lat": 38.92173783333333, "is_disabled": 0, "lon": -77.01903383333334, "is_reserved": 0, "fusion_lon": 0.0, "fusion_lat": 0.0, "name": "a272d1ceb684376a74b6a876fd932a87", "type": "electric_scooter", "rental_uris": {"ios": "https://dc.lft.to/lastmile_qr_scan", "android": "https://dc.lft.to/lastmile_qr_scan"}, "bike_id": "a272d1ceb684376a74b6a876fd932a87"}, {"lat": 38.87457283333333, "is_disabled": 0, "lon": -77.00481016666667, "is_reserved": 0, "fusion_lon": 0.0, "fusion_lat": 0.0, "name": "fa84912849b497589f95d0f6c000c082", "type": "electric_scooter", "rental_uris": {"ios": "https://dc.lft.to/lastmile_qr_scan", "android": "https://dc.lft.to/lastmile_qr_scan"}, "bike_id": "fa84912849b497589f95d0f6c000c082"}, {"lat": 38.89830233333333, "is_disabled": 0, "lon": -77.04996183333333, "is_reserved": 0, "fusion_lon": 0.0, "fusion_lat": 0.0, "name": "512fb7e0b68e1cae5b8c9cd81cfac48d", "type": "electric_scooter", "rental_uris": {"ios": "https://dc.lft.to/lastmile_qr_scan", "android": "https://dc.lft.to/lastmile_qr_scan"}, "bike_id": "512fb7e0b68e1cae5b8c9cd81cfac48d"}, {"lat": 38.905510666666665, "is_disabled": 0, "lon": -77.06264916666667, "is_reserved": 0, "fusion_lon": 0.0, "fusion_lat": 0.0, "name": "9123565ab7fd05facdd8e65d30450b0e", "type": "electric_scooter", "rental_uris": {"ios": "https://dc.lft.to/lastmile_qr_scan", "android": "https://dc.lft.to/lastmile_qr_scan"}, "bike_id": "9123565ab7fd05facdd8e65d30450b0e"}, {"lat": 38.89513316666667, "is_disabled": 0, "lon": -77.04357733333333, "is_reserved": 0, "fusion_lon": 0.0, "fusion_lat": 0.0, "name": "46f555a903be2b556ee21f4865999dc1", "type": "electric_bike", "rental_uris": {"ios": "https://dc.lft.to/lastmile_qr_scan", "android": "https://dc.lft.to/lastmile_qr_scan"}, "bike_id": "46f555a903be2b556ee21f4865999dc1"}, {"lat": 38.909397166666665, "is_disabled": 0, "lon": -77.04671866666666, "is_reserved": 0, "fusion_lon": 0.0, "fusion_lat": 0.0, "name": "be43b4fe345c7eef9c097802ce256e27", "type": "electric_scooter", "rental_uris": {"ios": "https://dc.lft.to/lastmile_qr_scan", "android": "https://dc.lft.to/lastmile_qr_scan"}, "bike_id": "be43b4fe345c7eef9c097802ce256e27"},