{"data": {"bikes": [{"lat": 38.90012466666667, "is_disabled": 0, "type": "electric_scooter", "lon": -77.01200083333333, "bike_id": "6457cdcd542a28864781f24686dc9588", "fusion_lat": 0.0, "name": "6457cdcd542a28864781f24686dc9588", "is_reserved": 0, "rental_uris": {"android": "https://dc.lft.to/lastmile_qr_scan", "ios": "https://dc.lft.to/lastmile_qr_scan"}, "fusion_lon": 0.0}, {"lat": 38.88467266666667, "is_disabled": 0, "type": "electric_scooter", "lon": -77.02403966666667, "bike_id": "bee5c5653c2f1bb570fff01aad32124a", "fusion_lat": 0.0, "name": "bee5c5653c2f1bb570fff01aad32124a", "is_reserved": 0, "rental_uris": {"android": "https://dc.lft.to/lastmile_qr_scan", "ios": "https://dc.lft.to/lastmile_qr_scan"}, "fusion_lon": 0.0}, {"lat": 38.90077383333333, "is_disabled": 0, "type": "electric_scooter", "lon": -77.05048216666667, "bike_id": "5c739163fe7b7caf06824f081e02bb77", "fusion_lat": 0.0, "name": "5c739163fe7b7caf06824f081e02bb77", "is_reserved": 0, "rental_uris": {"android": "https://dc.lft.to/lastmile_qr_scan", "ios": "https://dc.lft.to/lastmile_qr_scan"}, "fusion_lon": 0.0}, {"lat": 38.865070833333334, "is_disabled": 0, "type": "electric_scooter", "lon": -76.99007016666667, "bike_id": "35554741409d3ae3267bb6798290a6c7", "fusion_lat": 0.0, "name": "35554741409d3ae3267bb6798290a6c7", "is_reserved": 0, "rental_uris": {"android": "https://dc.lft.to/lastmile_qr_scan", "ios": "https://dc.lft.to/lastmile_qr_scan"}, "fusion_lon": 0.0}, {"lat": 38.8671655, "is_disabled": 0, "type": "electric_scooter", "lon": -76.98729166666666, "bike_id": "b3bd9086bcf993dcfb8170dccacd86d1", "fusion_lat": 0.0, "name": "b3bd9086bcf993dcfb8170dccacd86d1", "is_reserved": 0, "rental_uris": {"android": "https://dc.lft.to/lastmile_qr_scan", "ios": "https://dc.lft.to/lastmile_qr_scan"}, "fusion_lon": 0.0}, {"lat": 38.916546833333335, "is_disabled": 0, "type": "electric_scooter", "lon": -77.0238915, "bike_id": "609aceb12ff2495d9fca0f3d567371bc", "fusion_lat": 0.0, "name": "609aceb12ff2495d9fca0f3d567371bc", "is_reserved": 0, "rental_uris": {"android": "https://dc.lft.to/lastmile_qr_scan", "ios": "https://dc.lft.to/lastmile_qr_scan"}, "fusion_lon": 0.0}, {"lat": 38.925093, "is_disabled": 0, "type": "electric_scooter", "lon": -76.98229933333333, "bike_id": "9309cdaffef8ba5b3f2fa580119bcbab", "fusion_lat": 0.0, "name": "9309cdaffef8ba5b3f2fa580119bcbab", "is_reserved": 0, "rental_uris": {"android": "https://dc.lft.to/lastmile_qr_scan", "ios": "https://dc.lft.to/lastmile_qr_scan"}, "fusion_lon": 0.0}, {"lat": 38.90512066666667, "is_disabled": 0, "type": "electric_scooter", "lon": -77.0486875, "bike_id": "3468e08eb9e12bf807e19fc2f6014cdb", "fusion_lat": 0.0, "name": "3468e08eb9e12bf807e19fc2f6014cdb", "is_reserved": 0, "rental_uris": {"android": "https://dc.lft.to/lastmile_qr_scan", "ios": "https://dc.lft.to/lastmile_qr_scan"}, "fusion_lon": 0.0}, {"lat": 38.949202, "is_disabled": 0, "type": "electric_bike", "lon": -77.0080375, "bike_id": "0db40ad4bb8bbbd6203babf85e0968a6", "fusion_lat": 0.0, "name": "0db40ad4bb8bbbd6203babf85e0968a6", "is_reserved": 0, "rental_uris": {"android": "https://dc.lft.to/lastmile_qr_scan", "ios": "https://dc.lft.to/lastmile_qr_scan"}, "fusion_lon": 0.0}, {"lat": 38.860760166666665, "is_disabled": 0, "type": "electric_scooter", "lon": -76.99258716666667, "bike_id": "76051efa8bd9c2376e488d9aaf555e54", "fusion_lat": 0.0, "name": "76051efa8bd9c2376e488d9aaf555e54", "is_reserved": 0, "rental_uris": {"android": "https://dc.lft.to/lastmile_qr_scan", "ios": "https://dc.lft.to/lastmile_qr_scan"}, "fusion_lon": 0.0}, {"lat": 38.929748833333335, "is_disabled": 0, "type": "electric_scooter", "lon": -77.012975, "bike_id": "258b1d7f5ac3cf2e27adf630040fe060", "fusion_lat": 0.0, "name": "258b1d7f5ac3cf2e27adf630040fe060", "is_reserved": 0, "rental_uris": {"android": "https://dc.lft.to/lastmile_qr_scan", "ios": "https://dc.lft.to/lastmile_qr_scan"}, "fusion_lon": 0.0}, {"lat": 38.9237595, "is_disabled": 0, "type": "electric_scooter", "lon": -77.03167116666667, "bike_id": "3c734eea96b821c9352da68e1f15adff", "fusion_lat": 0.0, "name": "3c734eea96b821c9352da68e1f15adff", "is_reserved": 0, "rental_uris": {"android": "https://dc.lft.to/lastmile_qr_scan", "ios": "https://dc.lft.to/lastmile_qr_scan"}, "fusion_lon": 0.0}, {"lat": 38.89724916666667, "is_disabled": 0, "type": "electric_scooter", "lon": -77.04759483333333, "bike_id": "6b6a17d52df99a09fcbf5c5aa3b086f5", "fusion_lat": 0.0, "name": "6b6a17d52df99a09fcbf5c5aa3b086f5", "is_reserved": 0, "rental_uris": {"android": "https://dc.lft.to/lastmile_qr_scan", "ios": "https://dc.lft.to/lastmile_qr_scan"}, "fusion_lon": 0.0}, {"lat": 38.897398833333334, "is_disabled": 0, "type": "electric_scooter", "lon": -77.04765066666667, "bike_id": "47a6e6c663083e5dbdc097c2ae26a0d7", "fusion_lat": 0.0, "name": "47a6e6c663083e5dbdc097c2ae26a0d7", "is_reserved": 0, "rental_uris": {"android": "https://dc.lft.to/lastmile_qr_scan", "ios": "https://dc.lft.to/lastmile_qr_scan"}, "fusion_lon": 0.0}, {"lat": 38.871441833333336, "is_disabled": 0, "type": "electric_bike", "lon": -76.93705133333333, "bike_id": "b6b5cacbb67efc5a6e3b6df7a458b713", "fusion_lat": 0.0, "name": "b6b5cacbb67efc5a6e3b6df7a458b713", "is_reserved": 0, "rental_uris": {"android": "https://dc.lft.to/lastmile_qr_scan", "ios": "https://dc.lft.to/lastmile_qr_scan"}, "fusion_lon": 0.0}, {"lat": 38.907320666666664, "is_disabled": 0, "type": "electric_scooter", "lon": -77.03448433333334, "bike_id": "a53e58ed049b82b48234594216537642", "fusion_lat": 0.0, "name": "a53e58ed049b82b48234594216537642", "is_reserved": 0, "rental_uris": {"android": "https://dc.lft.to/lastmile_qr_scan", "ios": "https://dc.lft.to/lastmile_qr_scan"}, "fusion_lon": 0.0}, {"lat": 38.96137916666667, "is_disabled": 0, "type": "electric_scooter", "lon": -77.02236433333333, "bike_id": "6aa7bd2e0342bdb757786bdff803828f", "fusion_lat": 0.0, "name": "6aa7bd2e0342bdb757786bdff803828f", "is_reserved": 0, "rental_uris": {"android": "https://dc.lft.to/lastmile_qr_scan", "ios": "https://dc.lft.to/lastmile_qr_scan"}, "fusion_lon": 0.0}, {"lat": 38.86368183333333, "is_disabled": 0, "type": "electric_scooter", "lon": -76.9903455, "bike_id": "10fc81ec1b30411ebfc00ca2cdeac349", "fusion_lat": 0.0, "name": "10fc81ec1b30411ebfc00ca2cdeac349", "is_reserved": 0, "rental_uris": {"android": "https://dc.lft.to/lastmile_qr_scan", "ios": "https://dc.lft.to/lastmile_qr_scan"}, "fusion_lon": 0.0}, {"lat": 38.8757225, "is_disabled": 0, "type": "electric_scooter", "lon": -77.020818, "bike_id": "48fa9c5d1f09145e31b1c28a019b86eb", "fusion_lat": 0.0, "name": "48fa9c5d1f09145e31b1c28a019b86eb", "is_reserved": 0, "rental_uris": {"android": "https://dc.lft.to/lastmile_qr_scan", "ios": "https://dc.lft.to/lastmile_qr_scan"}, "fusion_lon": 0.0}, {"lat": 39.03044366666666, "is_disabled": 0, "type": "electric_bike", "lon": -77.0947695, "bike_id": "30dda887b2408a3a827d4d4281935254", "fusion_lat": 0.0, "name": "30dda887b2408a3a827d4d4281935254", "is_reserved": 0, "rental_uris": {"android": "https://dc.lft.to/lastmile_qr_scan", "ios": "https://dc.lft.to/lastmile_qr_scan"}, "fusion_lon": 0.0}, {"lat": 38.91119066666667, "is_disabled": 0, "type": "electric_scooter", "lon": -77.02775916666667, "bike_id": "cffaa402630801cc50c8ac396f079cd6", "fusion_lat": 0.0, "name": "cffaa402630801cc50c8ac396f079cd6", "is_reserved": 0, "rental_uris": {"android": "https://dc.lft.to/lastmile_qr_scan", "ios": "https://dc.lft.to/lastmile_qr_scan"}, "fusion_lon": 0.0}, {"lat": 38.885117666666666, "is_disabled": 0, "type": "electric_scooter", "lon": -77.00680316666667, "bike_id": "a45d3e5359fd29cd8bd858ede06df881", "fusion_lat": 0.0, "name": "a45d3e5359fd29cd8bd858ede06df881", "is_reserved": 0, "rental_uris": {"android": "https://dc.lft.to/lastmile_qr_scan", "ios": "https://dc.lft.to/lastmile_qr_scan"}, "fusion_lon": 0.0}, {"lat": 38.915312, "is_disabled": 0, "type": "electric_scooter", "lon": -76.98213783333334, "bike_id": "b3b328782f6edff1dece005e6350b933", "fusion_lat": 0.0, "name": "b3b328782f6edff1dece005e6350b933", "is_reserved": 0, "rental_uris": {"android": "https://dc.lft.to/lastmile_qr_scan", "ios": "https://dc.lft.to/lastmile_qr_scan"}, "fusion_lon": 0.0}, {"lat": 38.917116666666665, "is_disabled": 0, "type": "electric_scooter", "lon": -77.03727183333334, "bike_id": "1b640ffe2e7ea10734d1b4210dd225be", "fusion_lat": 0.0, "name": "1b640ffe2e7ea10734d1b4210dd225be", "is_reserved": 0, "rental_uris": {"android": "https://dc.lft.to/lastmile_qr_scan", "ios": "https://dc.lft.to/lastmile_qr_scan"}, "fusion_lon": 0.0}, {"lat": 38.938381666666665, "is_disabled": 0, "type": "electric_bike", "lon": -76.988595, "bike_id": "23d206583991073be038e6f088268e2e", "fusion_lat": 0.0, "name": "23d206583991073be038e6f088268e2e", "is_reserved": 0, "rental_uris": {"android": "https://dc.lft.to/lastmile_qr_scan", "ios": "https://dc.lft.to/lastmile_qr_scan"}, "fusion_lon": 0.0}, {"lat": 38.927466833333334, "is_disabled": 0, "type": "electric_scooter", "lon": -76.99726966666667, "bike_id": "816337a6cb4e5724034ab09e19d9c066", "fusion_lat": 0.0, "name": "816337a6cb4e5724034ab09e19d9c066", "is_reserved": 0, "rental_uris": {"android": "https://dc.lft.to/lastmile_qr_scan", "ios": "https://dc.lft.to/lastmile_qr_scan"}, "fusion_lon": 0.0}, {"lat": 38.9072805, "is_disabled": 0, "type": "electric_scooter", "lon": -77.0482295, "bike_id": "f9c4b793a9b73541e10a0e28793ad827", "fusion_lat": 0.0, "name": "f9c4b793a9b73541e10a0e28793ad827", "is_reserved": 0, "rental_uris": {"android": "https://dc.lft.to/lastmile_qr_scan", "ios": "https://dc.lft.to/lastmile_qr_scan"}, "fusion_lon": 0.0}, {"lat": 38.9234385, "is_disabled": 0, "type": "electric_scooter", "lon": -77.02443216666667, "bike_id": "6c8c86412d28e3de3203dfd0494c545c", "fusion_lat": 0.0, "name": "6c8c86412d28e3de3203dfd0494c545c", "is_reserved": 0, "rental_uris": {"android": "https://dc.lft.to/lastmile_qr_scan", "ios": "https://dc.lft.to/lastmile_qr_scan"}, "fusion_lon": 0.0}, {"lat": 38.922386833333334, "is_disabled": 0, "type": "electric_scooter", "lon": -77.04571233333333, "bike_id": "eea091d9e834cdae05ef1c324a5d92bf", "fusion_lat": 0.0, "name": "eea091d9e834cdae05ef1c324a5d92bf", "is_reserved": 0, "rental_uris": {"android": "https://dc.lft.to/lastmile_qr_scan", "ios": "https://dc.lft.to/lastmile_qr_scan"}, "fusion_lon": 0.0}, {"lat": 38.972293666666666, "is_disabled": 0, "type": "electric_bike", "lon": -76.99342166666666, "bike_id": "cab092e75f37d9628ec0a7b47492fec7", "fusion_lat": 0.0, "name": "cab092e75f37d9628ec0a7b47492fec7", "is_reserved": 0, "rental_uris": {"android": "https://dc.lft.to/lastmile_qr_scan", "ios": "https://dc.lft.to/lastmile_qr_scan"}, "fusion_lon": 0.0}, {"lat": 38.90334566666667, "is_disabled": 0, "type": "electric_scooter", "lon": -77.0379125, "bike_id": "08df7afb352cd49b94bdb78497e8acec", "fusion_lat": 0.0, "name": "08df7afb352cd49b94bdb78497e8acec", "is_reserved": 0, "rental_uris": {"android": "https://dc.lft.to/lastmile_qr_scan", "ios": "https://dc.lft.to/lastmile_qr_scan"}, "fusion_lon": 0.0}, {"lat": 38.91706933333333, "is_disabled": 0, "type": "electric_scooter", "lon": -77.034692, "bike_id": "8f2d9a1950ca59ebaa6cd510c60e92a4", "fusion_lat": 0.0, "name": "8f2d9a1950ca59ebaa6cd510c60e92a4", "is_reserved": 0, "rental_uris": {"android": "https://dc.lft.to/lastmile_qr_scan", "ios": "https://dc.lft.to/lastmile_qr_scan"}, "fusion_lon": 0.0}, {"lat": 38.93322166666667, "is_disabled": 0, "type": "electric_scooter", "lon": -77.04526833333334, "bike_id": "776e1f3fc1f44b5531100b2861a0f552", "fusion_lat": 0.0, "name": "776e1f3fc1f44b5531100b2861a0f552", "is_reserved": 0, "rental_uris": {"android": "https://dc.lft.to/lastmile_qr_scan", "ios": "https://dc.lft.to/lastmile_qr_scan"}, "fusion_lon": 0.0}, {"lat": 38.93376583333333, "is_disabled": 0, "type": "electric_scooter", "lon": -77.03793116666667, "bike_id": "5e8a40f24642ef5ef459136ef01d83d9", "fusion_lat": 0.0, "name": "5e8a40f24642ef5ef459136ef01d83d9", "is_reserved": 0, "rental_uris": {"android": "https://dc.lft.to/lastmile_qr_scan", "ios": "https://dc.lft.to/lastmile_qr_scan"}, "fusion_lon": 0.0}, {"lat": 38.91739416666667, "is_disabled": 0, "type": "electric_scooter", "lon": -77.036383, "bike_id": "df61ceab8d0c646273ad68c9957cd6e0", "fusion_lat": 0.0, "name": "df61ceab8d0c646273ad68c9957cd6e0", "is_reserved": 0, "rental_uris": {"android": "https://dc.lft.to/lastmile_qr_scan", "ios": "https://dc.lft.to/lastmile_qr_scan"}, "fusion_lon": 0.0}, {"lat": 38.89224033333333, "is_disabled": 0, "type": "electric_scooter", "lon": -77.0209545, "bike_id": "cb3b51f6158743386f2e9a682dbd0d6c", "fusion_lat": 0.0, "name": "cb3b51f6158743386f2e9a682dbd0d6c", "is_reserved": 0, "rental_uris": {"android": "https://dc.lft.to/lastmile_qr_scan", "ios": "https://dc.lft.to/lastmile_qr_scan"}, "fusion_lon": 0.0}, {"lat": 39.0304385, "is_disabled": 0, "type": "electric_bike", "lon": -77.09484016666667, "bike_id": "f2f432d3a11f25a75927fbc37407a912", "fusion_lat": 0.0, "name": "f2f432d3a11f25a75927fbc37407a912", "is_reserved": 0, "rental_uris": {"android": "https://dc.lft.to/lastmile_qr_scan", "ios": "https://dc.lft.to/lastmile_qr_scan"}, "fusion_lon": 0.0}, {"lat": 38.951598, "is_disabled": 0, "type": "electric_scooter", "lon": -77.0676355, "bike_id": "a6dddf9964dd0a53160061cae2172e92", "fusion_lat": 0.0, "name": "a6dddf9964dd0a53160061cae2172e92", "is_reserved": 0, "rental_uris": {"android": "https://dc.lft.to/lastmile_qr_scan", "ios": "https://dc.lft.to/lastmile_qr_scan"}, "fusion_lon": 0.0}, {"lat": 39.024323333333335, "is_disabled": 0, "type": "electric_bike", "lon": -77.1310325, "bike_id": "2264c019355a2cd8b655dccc1cff379f", "fusion_lat": 0.0, "name": "2264c019355a2cd8b655dccc1cff379f", "is_reserved": 0, "rental_uris": {"android": "https://dc.lft.to/lastmile_qr_scan", "ios": "https://dc.lft.to/lastmile_qr_scan"}, "fusion_lon": 0.0}, {"lat": 38.916154, "is_disabled": 0, "type": "electric_scooter", "lon": -77.02171033333333, "bike_id": "43376b7fc77bc6cee08702c7e43e5ec3", "fusion_lat": 0.0, "name": "43376b7fc77bc6cee08702c7e43e5ec3", "is_reserved": 0, "rental_uris": {"android": "https://dc.lft.to/lastmile_qr_scan", "ios": "https://dc.lft.to/lastmile_qr_scan"}, "fusion_lon": 0.0}, {"lat": 38.91685916666667, "is_disabled": 0, "type": "electric_scooter", "lon": -77.02696116666667, "bike_id": "978bcebb18fcd87a0a331b371301d9c8", "fusion_lat": 0.0, "name": "978bcebb18fcd87a0a331b371301d9c8", "is_reserved": 0, "rental_uris": {"android": "https://dc.lft.to/lastmile_qr_scan", "ios": "https://dc.lft.to/lastmile_qr_scan"}, "fusion_lon": 0.0}, {"lat": 38.9014195, "is_disabled": 0, "type": "electric_scooter", "lon": -77.02901633333333, "bike_id": "dc27b016f0232e845c5844762e710847", "fusion_lat": 0.0, "name": "dc27b016f0232e845c5844762e710847", "is_reserved": 0, "rental_uris": {"android": "https://dc.lft.to/lastmile_qr_scan", "ios": "https://dc.lft.to/lastmile_qr_scan"}, "fusion_lon": 0.0}, {"lat": 38.998227, "is_disabled": 0, "type": "electric_bike", "lon": -76.88383783333333, "bike_id": "d623ec504234525469dca6f491aae31a", "fusion_lat": 0.0, "name": "d623ec504234525469dca6f491aae31a", "is_reserved": 0, "rental_uris": {"android": "https://dc.lft.to/lastmile_qr_scan", "ios": "https://dc.lft.to/lastmile_qr_scan"}, "fusion_lon": 0.0}, {"lat": 38.927439666666665, "is_disabled": 0, "type": "electric_scooter", "lon": -77.02264316666667, "bike_id": "773eeefcef2da0ccefa4c20b02aa2fed", "fusion_lat": 0.0, "name": "773eeefcef2da0ccefa4c20b02aa2fed", "is_reserved": 0, "rental_uris": {"android": "https://dc.lft.to/lastmile_qr_scan", "ios": "https://dc.lft.to/lastmile_qr_scan"}, "fusion_lon": 0.0}, {"lat": 38.9497945, "is_disabled": 0, "type": "electric_scooter", "lon": -77.06765683333333, "bike_id": "9fd8e350498fca5547c2e131539c7581", "fusion_lat": 0.0, "name": "9fd8e350498fca5547c2e131539c7581", "is_reserved": 0, "rental_uris": {"android": "https://dc.lft.to/lastmile_qr_scan", "ios": "https://dc.lft.to/lastmile_qr_scan"}, "fusion_lon": 0.0}, {"lat": 38.962135, "is_disabled": 0, "type": "electric_bike", "lon": -77.02780983333334, "bike_id": "d7e96b1b35ef25620fbbac9e5db328b9", "fusion_lat": 0.0, "name": "d7e96b1b35ef25620fbbac9e5db328b9", "is_reserved": 0, "rental_uris": {"android": "https://dc.lft.to/lastmile_qr_scan", "ios": "https://dc.lft.to/lastmile_qr_scan"}, "fusion_lon": 0.0}, {"lat": 38.909939333333334, "is_disabled": 0, "type": "electric_scooter", "lon": -77.04009716666667, "bike_id": "e9a2229cc70a683e54508f24d1cbac20", "fusion_lat": 0.0, "name": "e9a2229cc70a683e54508f24d1cbac20", "is_reserved": 0, "rental_uris": {"android": "https://dc.lft.to/lastmile_qr_scan", "ios": "https://dc.lft.to/lastmile_qr_scan"}, "fusion_lon": 0.0}, {"lat": 38.885234, "is_disabled": 0, "type": "electric_scooter", "lon": -77.0151995, "bike_id": "eb69fbd81eed6aa8157306b9cfe9ac00", "fusion_lat": 0.0, "name": "eb69fbd81eed6aa8157306b9cfe9ac00", "is_reserved": 0, "rental_uris": {"android": "https://dc.lft.to/lastmile_qr_scan", "ios": "https://dc.lft.to/lastmile_qr_scan"}, "fusion_lon": 0.0}, {"lat": 38.918164, "is_disabled": 0, "type": "electric_scooter", "lon": -76.99970133333333, "bike_id": "7b553176966df0a11249a92451e1f1b5", "fusion_lat": 0.0, "name": "7b553176966df0a11249a92451e1f1b5", "is_reserved": 0, "rental_uris": {"android": "https://dc.lft.to/lastmile_qr_scan", "ios": "https://dc.lft.to/lastmile_qr_scan"}, "fusion_lon": 0.0}, {"lat": 38.93463716666667, "is_disabled": 0, "type": "electric_scooter", "lon": -77.0323415, "bike_id": "34a3cf68f1efe78f7fbdb367d0855b4c", "fusion_lat": 0.0, "name": "34a3cf68f1efe78f7fbdb367d0855b4c", "is_reserved": 0, "rental_uris": {"android": "https://dc.lft.to/lastmile_qr_scan", "ios": "https://dc.lft.to/lastmile_qr_scan"}, "fusion_lon": 0.0}, {"lat": 38.932300166666664, "is_disabled": 0, "type": "electric_scooter", "lon": -77.044141, "bike_id": "5f245f2283e749acb89d471d7a3a0f47", "fusion_lat": 0.0, "name": "5f245f2283e749acb89d471d7a3a0f47", "is_reserved": 0, "rental_uris": {"android": "https://dc.lft.to/lastmile_qr_scan", "ios": "https://dc.lft.to/lastmile_qr_scan"}, "fusion_lon": 0.0}, {"lat": 38.8521985, "is_disabled": 0, "type": "electric_bike", "lon": -77.12952783333333, "bike_id": "dadb70bcaca3df28c4f226acf27a8a2b", "fusion_lat": 0.0, "name": "dadb70bcaca3df28c4f226acf27a8a2b", "is_reserved": 0, "rental_uris": {"android": "https://dc.lft.to/lastmile_qr_scan", "ios": "https://dc.lft.to/lastmile_qr_scan"}, "fusion_lon": 0.0}, {"lat": 38.865194833333334, "is_disabled": 0, "type": "electric_scooter", "lon": -76.9903515, "bike_id": "b1c49025b1d409da370ad6ef00ec9b7c", "fusion_lat": 0.0, "name": "b1c49025b1d409da370ad6ef00ec9b7c", "is_reserved": 0, "rental_uris": {"android": "https://dc.lft.to/lastmile_qr_scan", "ios": "https://dc.lft.to/lastmile_qr_scan"}, "fusion_lon": 0.0}, {"lat": 38.911184, "is_disabled": 0, "type": "electric_scooter", "lon": -77.03733916666667, "bike_id": "20a85508f31e64b35a90ff4547299503", "fusion_lat": 0.0, "name": "20a85508f31e64b35a90ff4547299503", "is_reserved": 0, "rental_uris": {"android": "https://dc.lft.to/lastmile_qr_scan", "ios": "https://dc.lft.to/lastmile_qr_scan"}, "fusion_lon": 0.0}, {"lat": 38.92017116666667, "is_disabled": 0, "type": "electric_scooter", "lon": -77.04187616666667, "bike_id": "67f9780288fdff470194f645ce556c8f", "fusion_lat": 0.0, "name": "67f9780288fdff470194f645ce556c8f", "is_reserved": 0, "rental_uris": {"android": "https://dc.lft.to/lastmile_qr_scan", "ios": "https://dc.lft.to/lastmile_qr_scan"}, "fusion_lon": 0.0}, {"lat": 38.80061466666667, "is_disabled": 0, "type": "electric_bike", "lon": -77.0711725, "bike_id": "a252ff78b4d65243e501b5ca21db4b4e", "fusion_lat": 0.0, "name": "a252ff78b4d65243e501b5ca21db4b4e", "is_reserved": 0, "rental_uris": {"android": "https://dc.lft.to/lastmile_qr_scan", "ios": "https://dc.lft.to/lastmile_qr_scan"}, "fusion_lon": 0.0}, {"lat": 38.91763133333333, "is_disabled": 0, "type": "electric_scooter", "lon": -77.004514, "bike_id": "23ec9e9c568ed7e8865dca831c1327f7", "fusion_lat": 0.0, "name": "23ec9e9c568ed7e8865dca831c1327f7", "is_reserved": 0, "rental_uris": {"android": "https://dc.lft.to/lastmile_qr_scan", "ios": "https://dc.lft.to/lastmile_qr_scan"}, "fusion_lon": 0.0}, {"lat": 38.900573333333334, "is_disabled": 0, "type": "electric_scooter", "lon": -77.00753033333334, "bike_id": "4587255b28925f6c0bbacfe0748daa8e", "fusion_lat": 0.0, "name": "4587255b28925f6c0bbacfe0748daa8e", "is_reserved": 0, "rental_uris": {"android": "https://dc.lft.to/lastmile_qr_scan", "ios": "https://dc.lft.to/lastmile_qr_scan"}, "fusion_lon": 0.0}, {"lat": 38.8960185, "is_disabled": 0, "type": "electric_scooter", "lon": -77.04394233333333, "bike_id": "fc181f4bf3ac17118773174a25822332", "fusion_lat": 0.0, "name": "fc181f4bf3ac17118773174a25822332", "is_reserved": 0, "rental_uris": {"android": "https://dc.lft.to/lastmile_qr_scan", "ios": "https://dc.lft.to/lastmile_qr_scan"}, "fusion_lon": 0.0}, {"lat": 38.898902, "is_disabled": 0, "type": "electric_scooter", "lon": -77.00357316666667, "bike_id": "fc4886100721c78073aa9fb8ddf3f024", "fusion_lat": 0.0, "name": "fc4886100721c78073aa9fb8ddf3f024", "is_reserved": 0, "rental_uris": {"android": "https://dc.lft.to/lastmile_qr_scan", "ios": "https://dc.lft.to/lastmile_qr_scan"}, "fusion_lon": 0.0}, {"lat": 38.865944666666664, "is_disabled": 0, "type": "electric_bike", "lon": -76.93229633333333, "bike_id": "f74ba57ea34cf9d3b7be258dc946bf4a", "fusion_lat": 0.0, "name": "f74ba57ea34cf9d3b7be258dc946bf4a", "is_reserved": 0, "rental_uris": {"android": "https://dc.lft.to/lastmile_qr_scan", "ios": "https://dc.lft.to/lastmile_qr_scan"}, "fusion_lon": 0.0}, {"lat": 38.9216905, "is_disabled": 0, "type": "electric_scooter", "lon": -77.0513465, "bike_id": "afb8e8e9906a1089dde8a59b3ec8d2f2", "fusion_lat": 0.0, "name": "afb8e8e9906a1089dde8a59b3ec8d2f2", "is_reserved": 0, "rental_uris": {"android": "https://dc.lft.to/lastmile_qr_scan", "ios": "https://dc.lft.to/lastmile_qr_scan"}, "fusion_lon": 0.0}, {"lat": 38.904543833333335, "is_disabled": 0, "type": "electric_scooter", "lon": -76.99461033333333, "bike_id": "81cb6fc2a7444b325877b7767b60f3bd", "fusion_lat": 0.0, "name": "81cb6fc2a7444b325877b7767b60f3bd", "is_reserved": 0, "rental_uris": {"android": "https://dc.lft.to/lastmile_qr_scan", "ios": "https://dc.lft.to/lastmile_qr_scan"}, "fusion_lon": 0.0}, {"lat": 38.931006833333335, "is_disabled": 0, "type": "electric_scooter", "lon": -77.0255915, "bike_id": "ce168c8fc603689efcce388117ba932a", "fusion_lat": 0.0, "name": "ce168c8fc603689efcce388117ba932a", "is_reserved": 0, "rental_uris": {"android": "https://dc.lft.to/lastmile_qr_scan", "ios": "https://dc.lft.to/lastmile_qr_scan"}, "fusion_lon": 0.0}, {"lat": 38.93353583333333, "is_disabled": 0, "type": "electric_scooter", "lon": -77.07368783333334, "bike_id": "268b8c491dcb49d023861fc43d6766e2", "fusion_lat": 0.0, "name": "268b8c491dcb49d023861fc43d6766e2", "is_reserved": 0, "rental_uris": {"android": "https://dc.lft.to/lastmile_qr_scan", "ios": "https://dc.lft.to/lastmile_qr_scan"}, "fusion_lon": 0.0}, {"lat": 38.89251483333334, "is_disabled": 0, "type": "electric_scooter", "lon": -77.0489945, "bike_id": "88384c1cb9b0ecd057acb24faa3ad5bd", "fusion_lat": 0.0, "name": "88384c1cb9b0ecd057acb24faa3ad5bd", "is_reserved": 0, "rental_uris": {"android": "https://dc.lft.to/lastmile_qr_scan", "ios": "https://dc.lft.to/lastmile_qr_scan"}, "fusion_lon": 0.0}, {"lat": 38.898368, "is_disabled": 0, "type": "electric_scooter", "lon": -76.93100383333334, "bike_id": "8cf2e7ca82d692ecdc8a772c2b2a4cc5", "fusion_lat": 0.0, "name": "8cf2e7ca82d692ecdc8a772c2b2a4cc5", "is_reserved": 0, "rental_uris": {"android": "https://dc.lft.to/lastmile_qr_scan", "ios": "https://dc.lft.to/lastmile_qr_scan"}, "fusion_lon": 0.0}, {"lat": 38.9043575, "is_disabled": 0, "type": "electric_scooter", "lon": -77.04829766666667, "bike_id": "2d1f6fd727531ce2bef4fe50969f72f9", "fusion_lat": 0.0, "name": "2d1f6fd727531ce2bef4fe50969f72f9", "is_reserved": 0, "rental_uris": {"android": "https://dc.lft.to/lastmile_qr_scan", "ios": "https://dc.lft.to/lastmile_qr_scan"}, "fusion_lon": 0.0}, {"lat": 38.969264833333334, "is_disabled": 0, "type": "electric_bike", "lon": -77.02615583333333, "bike_id": "a1f6a71278b15856141a06ab4c2ee396", "fusion_lat": 0.0, "name": "a1f6a71278b15856141a06ab4c2ee396", "is_reserved": 0, "rental_uris": {"android": "https://dc.lft.to/lastmile_qr_scan", "ios": "https://dc.lft.to/lastmile_qr_scan"}, "fusion_lon": 0.0}, {"lat": 38.9031485, "is_disabled": 0, "type": "electric_scooter", "lon": -76.9900015, "bike_id": "acedcffa4cdaaa4992540cef498bfdfb", "fusion_lat": 0.0, "name": "acedcffa4cdaaa4992540cef498bfdfb", "is_reserved": 0, "rental_uris": {"android": "https://dc.lft.to/lastmile_qr_scan", "ios": "https://dc.lft.to/lastmile_qr_scan"}, "fusion_lon": 0.0}, {"lat": 38.873747333333334, "is_disabled": 0, "type": "electric_bike", "lon": -77.11797733333333, "bike_id": "62bd19a27d14d22da4a6edf5ae433343", "fusion_lat": 0.0, "name": "62bd19a27d14d22da4a6edf5ae433343", "is_reserved": 0, "rental_uris": {"android": "https://dc.lft.to/lastmile_qr_scan", "ios": "https://dc.lft.to/lastmile_qr_scan"}, "fusion_lon": 0.0}, {"lat": 38.920812833333336, "is_disabled": 0, "type": "electric_bike", "lon": -76.99188116666667, "bike_id": "6de2899100c45ab4750c60eab59d6c1e", "fusion_lat": 0.0, "name": "6de2899100c45ab4750c60eab59d6c1e", "is_reserved": 0, "rental_uris": {"android": "https://dc.lft.to/lastmile_qr_scan", "ios": "https://dc.lft.to/lastmile_qr_scan"}, "fusion_lon": 0.0}, {"lat": 38.966046666666664, "is_disabled": 0, "type": "electric_bike", "lon": -76.98331216666666, "bike_id": "548c670cb16e90a96dd42189cf121b1c", "fusion_lat": 0.0, "name": "548c670cb16e90a96dd42189cf121b1c", "is_reserved": 0, "rental_uris": {"android": "https://dc.lft.to/lastmile_qr_scan", "ios": "https://dc.lft.to/lastmile_qr_scan"}, "fusion_lon": 0.0}, {"lat": 38.900366166666664, "is_disabled": 0, "type": "electric_scooter", "lon": -77.00585416666667, "bike_id": "81ec43452b98d31efb60c08a4f35f357", "fusion_lat": 0.0, "name": "81ec43452b98d31efb60c08a4f35f357", "is_reserved": 0, "rental_uris": {"android": "https://dc.lft.to/lastmile_qr_scan", "ios": "https://dc.lft.to/lastmile_qr_scan"}, "fusion_lon": 0.0}, {"lat": 38.904049, "is_disabled": 0, "type": "electric_bike", "lon": -77.06530183333334, "bike_id": "04500361ddf93a55096321f692bf7cb8", "fusion_lat": 0.0, "name": "04500361ddf93a55096321f692bf7cb8", "is_reserved": 0, "rental_uris": {"android": "https://dc.lft.to/lastmile_qr_scan", "ios": "https://dc.lft.to/lastmile_qr_scan"}, "fusion_lon": 0.0}, {"lat": 38.925708666666665, "is_disabled": 0, "type": "electric_scooter", "lon": -77.02567266666667, "bike_id": "1454a77dac9d95efc42f7b9f03573a5c", "fusion_lat": 0.0, "name": "1454a77dac9d95efc42f7b9f03573a5c", "is_reserved": 0, "rental_uris": {"android": "https://dc.lft.to/lastmile_qr_scan", "ios": "https://dc.lft.to/lastmile_qr_scan"}, "fusion_lon": 0.0}, {"lat": 38.91401333333334, "is_disabled": 0, "type": "electric_scooter", "lon": -76.98947216666667, "bike_id": "a6892238706f55d2c05443d48a87109a", "fusion_lat": 0.0, "name": "a6892238706f55d2c05443d48a87109a", "is_reserved": 0, "rental_uris": {"android": "https://dc.lft.to/lastmile_qr_scan", "ios": "https://dc.lft.to/lastmile_qr_scan"}, "fusion_lon": 0.0}, {"lat": 38.92451483333333, "is_disabled": 0, "type": "electric_scooter", "lon": -76.99333416666667, "bike_id": "ae3053f277d19290cd827c993f497149", "fusion_lat": 0.0, "name": "ae3053f277d19290cd827c993f497149", "is_reserved": 0, "rental_uris": {"android": "https://dc.lft.to/lastmile_qr_scan", "ios": "https://dc.lft.to/lastmile_qr_scan"}, "fusion_lon": 0.0}, {"lat": 38.94456, "is_disabled": 0, "type": "electric_scooter", "lon": -77.06031166666666, "bike_id": "cbb83568845c2317b2b06521e1a582c9", "fusion_lat": 0.0, "name": "cbb83568845c2317b2b06521e1a582c9", "is_reserved": 0, "rental_uris": {"android": "https://dc.lft.to/lastmile_qr_scan", "ios": "https://dc.lft.to/lastmile_qr_scan"}, "fusion_lon": 0.0}, {"lat": 38.93592733333333, "is_disabled": 0, "type": "electric_scooter", "lon": -77.03534383333333, "bike_id": "77764df4712f5d21f834884f0999cb3d", "fusion_lat": 0.0, "name": "77764df4712f5d21f834884f0999cb3d", "is_reserved": 0, "rental_uris": {"android": "https://dc.lft.to/lastmile_qr_scan", "ios": "https://dc.lft.to/lastmile_qr_scan"}, "fusion_lon": 0.0}, {"lat": 38.90963566666667, "is_disabled": 0, "type": "electric_scooter", "lon": -77.03737716666667, "bike_id": "3944c181b068c366533f288820b28ccf", "fusion_lat": 0.0, "name": "3944c181b068c366533f288820b28ccf", "is_reserved": 0, "rental_uris": {"android": "https://dc.lft.to/lastmile_qr_scan", "ios": "https://dc.lft.to/lastmile_qr_scan"}, "fusion_lon": 0.0}, {"lat": 38.897402166666666, "is_disabled": 0, "type": "electric_scooter", "lon": -77.04792833333333, "bike_id": "29eebd2e74a51aa8fb3b0778095f0493", "fusion_lat": 0.0, "name": "29eebd2e74a51aa8fb3b0778095f0493", "is_reserved": 0, "rental_uris": {"android": "https://dc.lft.to/lastmile_qr_scan", "ios": "https://dc.lft.to/lastmile_qr_scan"}, "fusion_lon": 0.0}, {"lat": 38.858079833333335, "is_disabled": 0, "type": "electric_scooter", "lon": -76.986501, "bike_id": "60335808224c31cfe4052c34531c044a", "fusion_lat": 0.0, "name": "60335808224c31cfe4052c34531c044a", "is_reserved": 0, "rental_uris": {"android": "https://dc.lft.to/lastmile_qr_scan", "ios": "https://dc.lft.to/lastmile_qr_scan"}, "fusion_lon": 0.0}, {"lat": 38.91121233333333, "is_disabled": 0, "type": "electric_scooter", "lon": -77.0033235, "bike_id": "ed8fb6c9312759c4353e1901ab5adfbd", "fusion_lat": 0.0, "name": "ed8fb6c9312759c4353e1901ab5adfbd", "is_reserved": 0, "rental_uris": {"android": "https://dc.lft.to/lastmile_qr_scan", "ios": "https://dc.lft.to/lastmile_qr_scan"}, "fusion_lon": 0.0}, {"lat": 38.87423883333334, "is_disabled": 0, "type": "electric_bike", "lon": -77.08573716666666, "bike_id": "709bdae790ec9ea29a2faa48138bb0d2", "fusion_lat": 0.0, "name": "709bdae790ec9ea29a2faa48138bb0d2", "is_reserved": 0, "rental_uris": {"android": "https://dc.lft.to/lastmile_qr_scan", "ios": "https://dc.lft.to/lastmile_qr_scan"}, "fusion_lon": 0.0}, {"lat": 38.92383816666667, "is_disabled": 0, "type": "electric_scooter", "lon": -77.03658, "bike_id": "ebc82e55cb2eb303353ed68d5a9f0b2d", "fusion_lat": 0.0, "name": "ebc82e55cb2eb303353ed68d5a9f0b2d", "is_reserved": 0, "rental_uris": {"android": "https://dc.lft.to/lastmile_qr_scan", "ios": "https://dc.lft.to/lastmile_qr_scan"}, "fusion_lon": 0.0}, {"lat": 38.924648833333336, "is_disabled": 0, "type": "electric_bike", "lon": -77.20837833333333, "bike_id": "50139646b69360fef81385c4a425f669", "fusion_lat": 0.0, "name": "50139646b69360fef81385c4a425f669", "is_reserved": 0, "rental_uris": {"android": "https://dc.lft.to/lastmile_qr_scan", "ios": "https://dc.lft.to/lastmile_qr_scan"}, "fusion_lon": 0.0}, {"lat": 38.917065666666666, "is_disabled": 0, "type": "electric_scooter", "lon": -77.04278533333333, "bike_id": "2e90d53279077c861bc5dc787b19c341", "fusion_lat": 0.0, "name": "2e90d53279077c861bc5dc787b19c341", "is_reserved": 0, "rental_uris": {"android": "https://dc.lft.to/lastmile_qr_scan", "ios": "https://dc.lft.to/lastmile_qr_scan"}, "fusion_lon": 0.0}, {"lat": 38.879650833333336, "is_disabled": 0, "type": "electric_scooter", "lon": -77.01750616666666, "bike_id": "a2c0795d7fd27a69c5637e35a652a92a", "fusion_lat": 0.0, "name": "a2c0795d7fd27a69c5637e35a652a92a", "is_reserved": 0, "rental_uris": {"android": "https://dc.lft.to/lastmile_qr_scan", "ios": "https://dc.lft.to/lastmile_qr_scan"}, "fusion_lon": 0.0}, {"lat": 38.896817166666665, "is_disabled": 0, "type": "electric_scooter", "lon": -76.93535166666666, "bike_id": "a45ac5610b6c5657cbc273587bf7cb9b", "fusion_lat": 0.0, "name": "a45ac5610b6c5657cbc273587bf7cb9b", "is_reserved": 0, "rental_uris": {"android": "https://dc.lft.to/lastmile_qr_scan", "ios": "https://dc.lft.to/lastmile_qr_scan"}, "fusion_lon": 0.0}, {"lat": 38.9006735, "is_disabled": 0, "type": "electric_scooter", "lon": -77.002148, "bike_id": "fb83602f5bbe36a0d96d02c54d82de4e", "fusion_lat": 0.0, "name": "fb83602f5bbe36a0d96d02c54d82de4e", "is_reserved": 0, "rental_uris": {"android": "https://dc.lft.to/lastmile_qr_scan", "ios": "https://dc.lft.to/lastmile_qr_scan"}, "fusion_lon": 0.0}, {"lat": 38.892253833333335, "is_disabled": 0, "type": "electric_scooter", "lon": -77.04875666666666, "bike_id": "d2ff81a6b15fe22695efdc3701c36c7f", "fusion_lat": 0.0, "name": "d2ff81a6b15fe22695efdc3701c36c7f", "is_reserved": 0, "rental_uris": {"android": "https://dc.lft.to/lastmile_qr_scan", "ios": "https://dc.lft.to/lastmile_qr_scan"}, "fusion_lon": 0.0}, {"lat": 38.91857016666667, "is_disabled": 0, "type": "electric_scooter", "lon": -77.04590333333333, "bike_id": "7a2c5b258c6b0bf95dc03cb9d2d6b3fd", "fusion_lat": 0.0, "name": "7a2c5b258c6b0bf95dc03cb9d2d6b3fd", "is_reserved": 0, "rental_uris": {"android": "https://dc.lft.to/lastmile_qr_scan", "ios": "https://dc.lft.to/lastmile_qr_scan"}, "fusion_lon": 0.0}, {"lat": 38.961557, "is_disabled": 0, "type": "electric_scooter", "lon": -77.02784533333333, "bike_id": "4e075e7288a6e9429e332b7b3017d4d4", "fusion_lat": 0.0, "name": "4e075e7288a6e9429e332b7b3017d4d4", "is_reserved": 0, "rental_uris": {"android": "https://dc.lft.to/lastmile_qr_scan", "ios": "https://dc.lft.to/lastmile_qr_scan"}, "fusion_lon": 0.0}, {"lat": 38.913221166666666, "is_disabled": 0, "type": "electric_scooter", "lon": -77.03264733333333, "bike_id": "1a3308beb8d3c3856c3490a702a15aad", "fusion_lat": 0.0, "name": "1a3308beb8d3c3856c3490a702a15aad", "is_reserved": 0, "rental_uris": {"android": "https://dc.lft.to/lastmile_qr_scan", "ios": "https://dc.lft.to/lastmile_qr_scan"}, "fusion_lon": 0.0}, {"lat": 38.9148605, "is_disabled": 0, "type": "electric_scooter", "lon": -77.03256283333333, "bike_id": "3011e183ccaddc23330cd98273009c31", "fusion_lat": 0.0, "name": "3011e183ccaddc23330cd98273009c31", "is_reserved": 0, "rental_uris": {"android": "https://dc.lft.to/lastmile_qr_scan", "ios": "https://dc.lft.to/lastmile_qr_scan"}, "fusion_lon": 0.0}, {"lat": 38.92062, "is_disabled": 0, "type": "electric_scooter", "lon": -77.04336033333334, "bike_id": "efae879b0123ea5ee1a38ea184d10e72", "fusion_lat": 0.0, "name": "efae879b0123ea5ee1a38ea184d10e72", "is_reserved": 0, "rental_uris": {"android": "https://dc.lft.to/lastmile_qr_scan", "ios": "https://dc.lft.to/lastmile_qr_scan"}, "fusion_lon": 0.0}, {"lat": 38.908811166666666, "is_disabled": 0, "type": "electric_scooter", "lon": -77.04393866666666, "bike_id": "947b965197dfada40ea21901773f3cde", "fusion_lat": 0.0, "name": "947b965197dfada40ea21901773f3cde", "is_reserved": 0, "rental_uris": {"android": "https://dc.lft.to/lastmile_qr_scan", "ios": "https://dc.lft.to/lastmile_qr_scan"}, "fusion_lon": 0.0}, {"lat": 38.8662255, "is_disabled": 0, "type": "electric_bike", "lon": -76.9457315, "bike_id": "909a66d9b16a941d54826512fad6c5c3", "fusion_lat": 0.0, "name": "909a66d9b16a941d54826512fad6c5c3", "is_reserved": 0, "rental_uris": {"android": "https://dc.lft.to/lastmile_qr_scan", "ios": "https://dc.lft.to/lastmile_qr_scan"}, "fusion_lon": 0.0}, {"lat": 38.959592, "is_disabled": 0, "type": "electric_bike", "lon": -77.10094633333334, "bike_id": "5b9eb3d638088e3d69e9b9d582be8631", "fusion_lat": 0.0, "name": "5b9eb3d638088e3d69e9b9d582be8631", "is_reserved": 0, "rental_uris": {"android": "https://dc.lft.to/lastmile_qr_scan", "ios": "https://dc.lft.to/lastmile_qr_scan"}, "fusion_lon": 0.0}, {"lat": 38.9310285, "is_disabled": 0, "type": "electric_scooter", "lon": -77.032741, "bike_id": "0b7d0a55ca9fe75487d4e4a8c3771f50", "fusion_lat": 0.0, "name": "0b7d0a55ca9fe75487d4e4a8c3771f50", "is_reserved": 0, "rental_uris": {"android": "https://dc.lft.to/lastmile_qr_scan", "ios": "https://dc.lft.to/lastmile_qr_scan"}, "fusion_lon": 0.0}, {"lat": 38.919188, "is_disabled": 0, "type": "electric_scooter", "lon": -77.04802533333333, "bike_id": "9ef1906ee8aa863ae54fa77eeb55a87c", "fusion_lat": 0.0, "name": "9ef1906ee8aa863ae54fa77eeb55a87c", "is_reserved": 0, "rental_uris": {"android": "https://dc.lft.to/lastmile_qr_scan", "ios": "https://dc.lft.to/lastmile_qr_scan"}, "fusion_lon": 0.0}, {"lat": 38.91779366666667, "is_disabled": 0, "type": "electric_scooter", "lon": -77.04300766666667, "bike_id": "342191305edb27bf9392ec3f46445d56", "fusion_lat": 0.0, "name": "342191305edb27bf9392ec3f46445d56", "is_reserved": 0, "rental_uris": {"android": "https://dc.lft.to/lastmile_qr_scan", "ios": "https://dc.lft.to/lastmile_qr_scan"}, "fusion_lon": 0.0}, {"lat": 38.892294666666665, "is_disabled": 0, "type": "electric_scooter", "lon": -77.05003766666667, "bike_id": "aff29a39c283ae1f52e11744243b9450", "fusion_lat": 0.0, "name": "aff29a39c283ae1f52e11744243b9450", "is_reserved": 0, "rental_uris": {"android": "https://dc.lft.to/lastmile_qr_scan", "ios": "https://dc.lft.to/lastmile_qr_scan"}, "fusion_lon": 0.0}, {"lat": 38.899003, "is_disabled": 0, "type": "electric_scooter", "lon": -77.03219033333333, "bike_id": "33fe157709c79fe731e53cc5543c1995", "fusion_lat": 0.0, "name": "33fe157709c79fe731e53cc5543c1995", "is_reserved": 0, "rental_uris": {"android": "https://dc.lft.to/lastmile_qr_scan", "ios": "https://dc.lft.to/lastmile_qr_scan"}, "fusion_lon": 0.0}, {"lat": 38.933592833333336, "is_disabled": 0, "type": "electric_bike", "lon": -77.09963966666666, "bike_id": "40ab119272814038d6f7a92325ea6835", "fusion_lat": 0.0, "name": "40ab119272814038d6f7a92325ea6835", "is_reserved": 0, "rental_uris": {"android": "https://dc.lft.to/lastmile_qr_scan", "ios": "https://dc.lft.to/lastmile_qr_scan"}, "fusion_lon": 0.0}, {"lat": 38.9271335, "is_disabled": 0, "type": "electric_scooter", "lon": -77.02101266666666, "bike_id": "6670bb111ee6856c36ce7baecd4392b7", "fusion_lat": 0.0, "name": "6670bb111ee6856c36ce7baecd4392b7", "is_reserved": 0, "rental_uris": {"android": "https://dc.lft.to/lastmile_qr_scan", "ios": "https://dc.lft.to/lastmile_qr_scan"}, "fusion_lon": 0.0}, {"lat": 38.958210333333334, "is_disabled": 0, "type": "electric_bike", "lon": -76.94092716666667, "bike_id": "2466e643228c9bb211ab30b10d9a71d2", "fusion_lat": 0.0, "name": "2466e643228c9bb211ab30b10d9a71d2", "is_reserved": 0, "rental_uris": {"android": "https://dc.lft.to/lastmile_qr_scan", "ios": "https://dc.lft.to/lastmile_qr_scan"}, "fusion_lon": 0.0}, {"lat": 38.928405833333336, "is_disabled": 0, "type": "electric_scooter", "lon": -77.01384816666666, "bike_id": "9dac9c8bb03cc7966a1c7197aeacb6cc", "fusion_lat": 0.0, "name": "9dac9c8bb03cc7966a1c7197aeacb6cc", "is_reserved": 0, "rental_uris": {"android": "https://dc.lft.to/lastmile_qr_scan", "ios": "https://dc.lft.to/lastmile_qr_scan"}, "fusion_lon": 0.0}, {"lat": 38.900785666666664, "is_disabled": 0, "type": "electric_scooter", "lon": -77.0021495, "bike_id": "bdeb252dad2e8388a36e6b9bc2aadae3", "fusion_lat": 0.0, "name": "bdeb252dad2e8388a36e6b9bc2aadae3", "is_reserved": 0, "rental_uris": {"android": "https://dc.lft.to/lastmile_qr_scan", "ios": "https://dc.lft.to/lastmile_qr_scan"}, "fusion_lon": 0.0}, {"lat": 38.918172166666665, "is_disabled": 0, "type": "electric_scooter", "lon": -77.00048716666667, "bike_id": "864e6696f857239fcb9bcc189e493b4d", "fusion_lat": 0.0, "name": "864e6696f857239fcb9bcc189e493b4d", "is_reserved": 0, "rental_uris": {"android": "https://dc.lft.to/lastmile_qr_scan", "ios": "https://dc.lft.to/lastmile_qr_scan"}, "fusion_lon": 0.0}, {"lat": 38.90263133333333, "is_disabled": 0, "type": "electric_scooter", "lon": -77.03958716666666, "bike_id": "ec92b978201e0794a32b94301d960c0d", "fusion_lat": 0.0, "name": "ec92b978201e0794a32b94301d960c0d", "is_reserved": 0, "rental_uris": {"android": "https://dc.lft.to/lastmile_qr_scan", "ios": "https://dc.lft.to/lastmile_qr_scan"}, "fusion_lon": 0.0}, {"lat": 38.89202933333333, "is_disabled": 0, "type": "electric_bike", "lon": -76.97049833333334, "bike_id": "09d3cec5048e50e79d61e9f1adfb20f3", "fusion_lat": 0.0, "name": "09d3cec5048e50e79d61e9f1adfb20f3", "is_reserved": 0, "rental_uris": {"android": "https://dc.lft.to/lastmile_qr_scan", "ios": "https://dc.lft.to/lastmile_qr_scan"}, "fusion_lon": 0.0}, {"lat": 38.910417333333335, "is_disabled": 0, "type": "electric_scooter", "lon": -77.015039, "bike_id": "c34a485eebac9b87af0cca410c24f1f6", "fusion_lat": 0.0, "name": "c34a485eebac9b87af0cca410c24f1f6", "is_reserved": 0, "rental_uris": {"android": "https://dc.lft.to/lastmile_qr_scan", "ios": "https://dc.lft.to/lastmile_qr_scan"}, "fusion_lon": 0.0}, {"lat": 38.897363166666665, "is_disabled": 0, "type": "electric_scooter", "lon": -77.04765583333334, "bike_id": "65be2f03f84f371220f311f7aba27fee", "fusion_lat": 0.0, "name": "65be2f03f84f371220f311f7aba27fee", "is_reserved": 0, "rental_uris": {"android": "https://dc.lft.to/lastmile_qr_scan", "ios": "https://dc.lft.to/lastmile_qr_scan"}, "fusion_lon": 0.0}, {"lat": 38.90671066666667, "is_disabled": 0, "type": "electric_scooter", "lon": -77.0271205, "bike_id": "0e75c0cd9617df2156664929b2d88bc2", "fusion_lat": 0.0, "name": "0e75c0cd9617df2156664929b2d88bc2", "is_reserved": 0, "rental_uris": {"android": "https://dc.lft.to/lastmile_qr_scan", "ios": "https://dc.lft.to/lastmile_qr_scan"}, "fusion_lon": 0.0}, {"lat": 38.90823616666667, "is_disabled": 0, "type": "electric_scooter", "lon": -77.06381633333334, "bike_id": "73b3efc12a1fa0c07cc6702b6d1233c2", "fusion_lat": 0.0, "name": "73b3efc12a1fa0c07cc6702b6d1233c2", "is_reserved": 0, "rental_uris": {"android": "https://dc.lft.to/lastmile_qr_scan", "ios": "https://dc.lft.to/lastmile_qr_scan"}, "fusion_lon": 0.0}, {"lat": 38.898855833333336, "is_disabled": 0, "type": "electric_scooter", "lon": -76.9317565, "bike_id": "1afeb9f4e74d5dc827a006e399c103b9", "fusion_lat": 0.0, "name": "1afeb9f4e74d5dc827a006e399c103b9", "is_reserved": 0, "rental_uris": {"android": "https://dc.lft.to/lastmile_qr_scan", "ios": "https://dc.lft.to/lastmile_qr_scan"}, "fusion_lon": 0.0}, {"lat": 38.922476833333334, "is_disabled": 0, "type": "electric_scooter", "lon": -77.045742, "bike_id": "b4baa443e3f3522deba6df6690f1a5cf", "fusion_lat": 0.0, "name": "b4baa443e3f3522deba6df6690f1a5cf", "is_reserved": 0, "rental_uris": {"android": "https://dc.lft.to/lastmile_qr_scan", "ios": "https://dc.lft.to/lastmile_qr_scan"}, "fusion_lon": 0.0}, {"lat": 38.850518, "is_disabled": 0, "type": "electric_bike", "lon": -76.97319433333334, "bike_id": "1ffaa5f48cf87dc4e55b82c2380b5288", "fusion_lat": 0.0, "name": "1ffaa5f48cf87dc4e55b82c2380b5288", "is_reserved": 0, "rental_uris": {"android": "https://dc.lft.to/lastmile_qr_scan", "ios": "https://dc.lft.to/lastmile_qr_scan"}, "fusion_lon": 0.0}, {"lat": 38.9069135, "is_disabled": 0, "type": "electric_scooter", "lon": -77.03764366666667, "bike_id": "82e7e04e3893e42f3f2305589cf7f0aa", "fusion_lat": 0.0, "name": "82e7e04e3893e42f3f2305589cf7f0aa", "is_reserved": 0, "rental_uris": {"android": "https://dc.lft.to/lastmile_qr_scan", "ios": "https://dc.lft.to/lastmile_qr_scan"}, "fusion_lon": 0.0}, {"lat": 38.9333745, "is_disabled": 0, "type": "electric_bike", "lon": -77.04205316666666, "bike_id": "f3ab227b055948f57a9d5199366d1a2d", "fusion_lat": 0.0, "name": "f3ab227b055948f57a9d5199366d1a2d", "is_reserved": 0, "rental_uris": {"android": "https://dc.lft.to/lastmile_qr_scan", "ios": "https://dc.lft.to/lastmile_qr_scan"}, "fusion_lon": 0.0}, {"lat": 38.900408666666664, "is_disabled": 0, "type": "electric_scooter", "lon": -77.02607916666666, "bike_id": "f186703948cdc36cc849b7db036fe568", "fusion_lat": 0.0, "name": "f186703948cdc36cc849b7db036fe568", "is_reserved": 0, "rental_uris": {"android": "https://dc.lft.to/lastmile_qr_scan", "ios": "https://dc.lft.to/lastmile_qr_scan"}, "fusion_lon": 0.0}, {"lat": 38.902122166666665, "is_disabled": 0, "type": "electric_scooter", "lon": -77.02527266666667, "bike_id": "e7edf23a5f109b62ca04ad7185ff4048", "fusion_lat": 0.0, "name": "e7edf23a5f109b62ca04ad7185ff4048", "is_reserved": 0, "rental_uris": {"android": "https://dc.lft.to/lastmile_qr_scan", "ios": "https://dc.lft.to/lastmile_qr_scan"}, "fusion_lon": 0.0}, {"lat": 38.91392916666667, "is_disabled": 0, "type": "electric_scooter", "lon": -77.04167116666666, "bike_id": "a8059ef3d81117299f175f72bf6ad3a7", "fusion_lat": 0.0, "name": "a8059ef3d81117299f175f72bf6ad3a7", "is_reserved": 0, "rental_uris": {"android": "https://dc.lft.to/lastmile_qr_scan", "ios": "https://dc.lft.to/lastmile_qr_scan"}, "fusion_lon": 0.0}, {"lat": 38.932298, "is_disabled": 0, "type": "electric_scooter", "lon": -76.99602016666667, "bike_id": "b076a2542bc07e717d0b2dc4597f186c", "fusion_lat": 0.0, "name": "b076a2542bc07e717d0b2dc4597f186c", "is_reserved": 0, "rental_uris": {"android": "https://dc.lft.to/lastmile_qr_scan", "ios": "https://dc.lft.to/lastmile_qr_scan"}, "fusion_lon": 0.0}, {"lat": 38.9199905, "is_disabled": 0, "type": "electric_scooter", "lon": -77.03219633333333, "bike_id": "097bea76f41086d9d58eae2be3204ec9", "fusion_lat": 0.0, "name": "097bea76f41086d9d58eae2be3204ec9", "is_reserved": 0, "rental_uris": {"android": "https://dc.lft.to/lastmile_qr_scan", "ios": "https://dc.lft.to/lastmile_qr_scan"}, "fusion_lon": 0.0}, {"lat": 38.91536133333334, "is_disabled": 0, "type": "electric_scooter", "lon": -77.03208866666667, "bike_id": "dc721cd4d55cc0ce05ca4afbf9a36203", "fusion_lat": 0.0, "name": "dc721cd4d55cc0ce05ca4afbf9a36203", "is_reserved": 0, "rental_uris": {"android": "https://dc.lft.to/lastmile_qr_scan", "ios": "https://dc.lft.to/lastmile_qr_scan"}, "fusion_lon": 0.0}, {"lat": 38.90098416666667, "is_disabled": 0, "type": "electric_scooter", "lon": -77.0250315, "bike_id": "187a82ca949ab7b170f4da4b5a959ff5", "fusion_lat": 0.0, "name": "187a82ca949ab7b170f4da4b5a959ff5", "is_reserved": 0, "rental_uris": {"android": "https://dc.lft.to/lastmile_qr_scan", "ios": "https://dc.lft.to/lastmile_qr_scan"}, "fusion_lon": 0.0}, {"lat": 38.93184433333333, "is_disabled": 0, "type": "electric_scooter", "lon": -77.03654666666667, "bike_id": "7b554a64d985692259d03c6acf094819", "fusion_lat": 0.0, "name": "7b554a64d985692259d03c6acf094819", "is_reserved": 0, "rental_uris": {"android": "https://dc.lft.to/lastmile_qr_scan", "ios": "https://dc.lft.to/lastmile_qr_scan"}, "fusion_lon": 0.0}, {"lat": 38.91888566666667, "is_disabled": 0, "type": "electric_scooter", "lon": -77.03498066666667, "bike_id": "1dba23aa5676f4a3e332f5ec4ddb96e3", "fusion_lat": 0.0, "name": "1dba23aa5676f4a3e332f5ec4ddb96e3", "is_reserved": 0, "rental_uris": {"android": "https://dc.lft.to/lastmile_qr_scan", "ios": "https://dc.lft.to/lastmile_qr_scan"}, "fusion_lon": 0.0}, {"lat": 38.851902833333334, "is_disabled": 0, "type": "electric_bike", "lon": -76.96109733333333, "bike_id": "3ba9778064dd349a5706bbfa63711fb3", "fusion_lat": 0.0, "name": "3ba9778064dd349a5706bbfa63711fb3", "is_reserved": 0, "rental_uris": {"android": "https://dc.lft.to/lastmile_qr_scan", "ios": "https://dc.lft.to/lastmile_qr_scan"}, "fusion_lon": 0.0}, {"lat": 38.92352416666667, "is_disabled": 0, "type": "electric_scooter", "lon": -77.03398733333333, "bike_id": "be47f26b2a95a8b9cac284e1f85e1f6a", "fusion_lat": 0.0, "name": "be47f26b2a95a8b9cac284e1f85e1f6a", "is_reserved": 0, "rental_uris": {"android": "https://dc.lft.to/lastmile_qr_scan", "ios": "https://dc.lft.to/lastmile_qr_scan"}, "fusion_lon": 0.0}, {"lat": 38.911088166666666, "is_disabled": 0, "type": "electric_scooter", "lon": -77.03713583333334, "bike_id": "0b14502e7c3dc971033532fa96619f11", "fusion_lat": 0.0, "name": "0b14502e7c3dc971033532fa96619f11", "is_reserved": 0, "rental_uris": {"android": "https://dc.lft.to/lastmile_qr_scan", "ios": "https://dc.lft.to/lastmile_qr_scan"}, "fusion_lon": 0.0}, {"lat": 38.94438566666667, "is_disabled": 0, "type": "electric_scooter", "lon": -77.0150815, "bike_id": "0e28dd6bcb265c167b7fd774c330db49", "fusion_lat": 0.0, "name": "0e28dd6bcb265c167b7fd774c330db49", "is_reserved": 0, "rental_uris": {"android": "https://dc.lft.to/lastmile_qr_scan", "ios": "https://dc.lft.to/lastmile_qr_scan"}, "fusion_lon": 0.0}, {"lat": 38.990064, "is_disabled": 0, "type": "electric_bike", "lon": -77.00444666666667, "bike_id": "2481ae7553cf45fd179b75d50079b908", "fusion_lat": 0.0, "name": "2481ae7553cf45fd179b75d50079b908", "is_reserved": 0, "rental_uris": {"android": "https://dc.lft.to/lastmile_qr_scan", "ios": "https://dc.lft.to/lastmile_qr_scan"}, "fusion_lon": 0.0}, {"lat": 38.855124, "is_disabled": 0, "type": "electric_bike", "lon": -77.1200705, "bike_id": "68853e895a8a23cee709b14c9d1c3432", "fusion_lat": 0.0, "name": "68853e895a8a23cee709b14c9d1c3432", "is_reserved": 0, "rental_uris": {"android": "https://dc.lft.to/lastmile_qr_scan", "ios": "https://dc.lft.to/lastmile_qr_scan"}, "fusion_lon": 0.0}, {"lat": 38.84565716666667, "is_disabled": 0, "type": "electric_bike", "lon": -77.09625283333334, "bike_id": "7ccf2bca24e13d61a852bf1e3315b1a1", "fusion_lat": 0.0, "name": "7ccf2bca24e13d61a852bf1e3315b1a1", "is_reserved": 0, "rental_uris": {"android": "https://dc.lft.to/lastmile_qr_scan", "ios": "https://dc.lft.to/lastmile_qr_scan"}, "fusion_lon": 0.0}, {"lat": 38.908076666666666, "is_disabled": 0, "type": "electric_scooter", "lon": -77.034425, "bike_id": "ab5243aed8abcea041f329ef3d61b1f3", "fusion_lat": 0.0, "name": "ab5243aed8abcea041f329ef3d61b1f3", "is_reserved": 0, "rental_uris": {"android": "https://dc.lft.to/lastmile_qr_scan", "ios": "https://dc.lft.to/lastmile_qr_scan"}, "fusion_lon": 0.0}, {"lat": 38.8671225, "is_disabled": 0, "type": "electric_scooter", "lon": -76.98726266666667, "bike_id": "1cfe1464be2d2b9ee5974fa0c1d6eb1d", "fusion_lat": 0.0, "name": "1cfe1464be2d2b9ee5974fa0c1d6eb1d", "is_reserved": 0, "rental_uris": {"android": "https://dc.lft.to/lastmile_qr_scan", "ios": "https://dc.lft.to/lastmile_qr_scan"}, "fusion_lon": 0.0}, {"lat": 38.9271115, "is_disabled": 0, "type": "electric_scooter", "lon": -77.02091416666667, "bike_id": "3f69fec0a5fef6051d01cef2089139ce", "fusion_lat": 0.0, "name": "3f69fec0a5fef6051d01cef2089139ce", "is_reserved": 0, "rental_uris": {"android": "https://dc.lft.to/lastmile_qr_scan", "ios": "https://dc.lft.to/lastmile_qr_scan"}, "fusion_lon": 0.0}, {"lat": 38.93092983333333, "is_disabled": 0, "type": "electric_scooter", "lon": -77.02512583333333, "bike_id": "5c12bd64a196b8dfc4df476ad2702668", "fusion_lat": 0.0, "name": "5c12bd64a196b8dfc4df476ad2702668", "is_reserved": 0, "rental_uris": {"android": "https://dc.lft.to/lastmile_qr_scan", "ios": "https://dc.lft.to/lastmile_qr_scan"}, "fusion_lon": 0.0}, {"lat": 38.871396, "is_disabled": 0, "type": "electric_bike", "lon": -76.9370585, "bike_id": "6f4a6df6c4ad956b3db2190752e0d289", "fusion_lat": 0.0, "name": "6f4a6df6c4ad956b3db2190752e0d289", "is_reserved": 0, "rental_uris": {"android": "https://dc.lft.to/lastmile_qr_scan", "ios": "https://dc.lft.to/lastmile_qr_scan"}, "fusion_lon": 0.0}, {"lat": 38.836936333333334, "is_disabled": 0, "type": "electric_scooter", "lon": -77.10306583333333, "bike_id": "7b9cadf8dc3762570295411d3ab2cefe", "fusion_lat": 0.0, "name": "7b9cadf8dc3762570295411d3ab2cefe", "is_reserved": 0, "rental_uris": {"android": "https://dc.lft.to/lastmile_qr_scan", "ios": "https://dc.lft.to/lastmile_qr_scan"}, "fusion_lon": 0.0}, {"lat": 38.90081, "is_disabled": 0, "type": "electric_scooter", "lon": -77.05042216666666, "bike_id": "6238e4737ab1db286498d0c361f37e0d", "fusion_lat": 0.0, "name": "6238e4737ab1db286498d0c361f37e0d", "is_reserved": 0, "rental_uris": {"android": "https://dc.lft.to/lastmile_qr_scan", "ios": "https://dc.lft.to/lastmile_qr_scan"}, "fusion_lon": 0.0}, {"lat": 38.881116166666665, "is_disabled": 0, "type": "electric_scooter", "lon": -76.98335366666667, "bike_id": "4877d68399e2b73b5258a181ce68b9f2", "fusion_lat": 0.0, "name": "4877d68399e2b73b5258a181ce68b9f2", "is_reserved": 0, "rental_uris": {"android": "https://dc.lft.to/lastmile_qr_scan", "ios": "https://dc.lft.to/lastmile_qr_scan"}, "fusion_lon": 0.0}, {"lat": 38.916242, "is_disabled": 0, "type": "electric_scooter", "lon": -77.032751, "bike_id": "cb176891d25b78a249c38f1ffeaa7508", "fusion_lat": 0.0, "name": "cb176891d25b78a249c38f1ffeaa7508", "is_reserved": 0, "rental_uris": {"android": "https://dc.lft.to/lastmile_qr_scan", "ios": "https://dc.lft.to/lastmile_qr_scan"}, "fusion_lon": 0.0}, {"lat": 38.936644666666666, "is_disabled": 0, "type": "electric_scooter", "lon": -77.05932883333334, "bike_id": "f511be4a09d16a46badb2581d25908bd", "fusion_lat": 0.0, "name": "f511be4a09d16a46badb2581d25908bd", "is_reserved": 0, "rental_uris": {"android": "https://dc.lft.to/lastmile_qr_scan", "ios": "https://dc.lft.to/lastmile_qr_scan"}, "fusion_lon": 0.0}, {"lat": 38.905673, "is_disabled": 0, "type": "electric_scooter", "lon": -77.04348116666667, "bike_id": "2ae2fd9802fef57697e946d28d55ee04", "fusion_lat": 0.0, "name": "2ae2fd9802fef57697e946d28d55ee04", "is_reserved": 0, "rental_uris": {"android": "https://dc.lft.to/lastmile_qr_scan", "ios": "https://dc.lft.to/lastmile_qr_scan"}, "fusion_lon": 0.0}, {"lat": 38.92050866666666, "is_disabled": 0, "type": "electric_scooter", "lon": -77.02361516666667, "bike_id": "3cdd2c863bf728bd78a9c7f4dc3d8eab", "fusion_lat": 0.0, "name": "3cdd2c863bf728bd78a9c7f4dc3d8eab", "is_reserved": 0, "rental_uris": {"android": "https://dc.lft.to/lastmile_qr_scan", "ios": "https://dc.lft.to/lastmile_qr_scan"}, "fusion_lon": 0.0}, {"lat": 38.938620666666665, "is_disabled": 0, "type": "electric_scooter", "lon": -77.023255, "bike_id": "ccc87d9d69871b43127a17614ddbb064", "fusion_lat": 0.0, "name": "ccc87d9d69871b43127a17614ddbb064", "is_reserved": 0, "rental_uris": {"android": "https://dc.lft.to/lastmile_qr_scan", "ios": "https://dc.lft.to/lastmile_qr_scan"}, "fusion_lon": 0.0}, {"lat": 38.909602, "is_disabled": 0, "type": "electric_scooter", "lon": -77.04051233333334, "bike_id": "0b4c2f38dd65c4bdae0820826bd9786a", "fusion_lat": 0.0, "name": "0b4c2f38dd65c4bdae0820826bd9786a", "is_reserved": 0, "rental_uris": {"android": "https://dc.lft.to/lastmile_qr_scan", "ios": "https://dc.lft.to/lastmile_qr_scan"}, "fusion_lon": 0.0}, {"lat": 38.91944483333333, "is_disabled": 0, "type": "electric_scooter", "lon": -77.070563, "bike_id": "686a4ca5ef96c9fed455323367067bba", "fusion_lat": 0.0, "name": "686a4ca5ef96c9fed455323367067bba", "is_reserved": 0, "rental_uris": {"android": "https://dc.lft.to/lastmile_qr_scan", "ios": "https://dc.lft.to/lastmile_qr_scan"}, "fusion_lon": 0.0}, {"lat": 38.9319895, "is_disabled": 0, "type": "electric_scooter", "lon": -77.02357183333334, "bike_id": "a502ccce464dee2483d54e0c3ce8a666", "fusion_lat": 0.0, "name": "a502ccce464dee2483d54e0c3ce8a666", "is_reserved": 0, "rental_uris": {"android": "https://dc.lft.to/lastmile_qr_scan", "ios": "https://dc.lft.to/lastmile_qr_scan"}, "fusion_lon": 0.0}, {"lat": 38.9335775, "is_disabled": 0, "type": "electric_scooter", "lon": -77.0249255, "bike_id": "39146cbd3d0e0d6123ba70161ec91f40", "fusion_lat": 0.0, "name": "39146cbd3d0e0d6123ba70161ec91f40", "is_reserved": 0, "rental_uris": {"android": "https://dc.lft.to/lastmile_qr_scan", "ios": "https://dc.lft.to/lastmile_qr_scan"}, "fusion_lon": 0.0}, {"lat": 38.95402983333334, "is_disabled": 0, "type": "electric_scooter", "lon": -77.02744633333333, "bike_id": "048af483f815e764dcd8757b1d054bba", "fusion_lat": 0.0, "name": "048af483f815e764dcd8757b1d054bba", "is_reserved": 0, "rental_uris": {"android": "https://dc.lft.to/lastmile_qr_scan", "ios": "https://dc.lft.to/lastmile_qr_scan"}, "fusion_lon": 0.0}, {"lat": 38.80270733333333, "is_disabled": 0, "type": "electric_bike", "lon": -77.08113716666666, "bike_id": "a719870d003de0dd4ed57645186544e3", "fusion_lat": 0.0, "name": "a719870d003de0dd4ed57645186544e3", "is_reserved": 0, "rental_uris": {"android": "https://dc.lft.to/lastmile_qr_scan", "ios": "https://dc.lft.to/lastmile_qr_scan"}, "fusion_lon": 0.0}, {"lat": 38.89239533333333, "is_disabled": 0, "type": "electric_scooter", "lon": -77.0503065, "bike_id": "3ca68ac84bc0617176a8f83443e57bb8", "fusion_lat": 0.0, "name": "3ca68ac84bc0617176a8f83443e57bb8", "is_reserved": 0, "rental_uris": {"android": "https://dc.lft.to/lastmile_qr_scan", "ios": "https://dc.lft.to/lastmile_qr_scan"}, "fusion_lon": 0.0}, {"lat": 38.90730766666667, "is_disabled": 0, "type": "electric_scooter", "lon": -77.03462183333333, "bike_id": "6a2290409739557ef133baed7bace569", "fusion_lat": 0.0, "name": "6a2290409739557ef133baed7bace569", "is_reserved": 0, "rental_uris": {"android": "https://dc.lft.to/lastmile_qr_scan", "ios": "https://dc.lft.to/lastmile_qr_scan"}, "fusion_lon": 0.0}, {"lat": 38.862575, "is_disabled": 0, "type": "electric_scooter", "lon": -76.99518016666667, "bike_id": "ae1fcb09f1267360c699159de9175502", "fusion_lat": 0.0, "name": "ae1fcb09f1267360c699159de9175502", "is_reserved": 0, "rental_uris": {"android": "https://dc.lft.to/lastmile_qr_scan", "ios": "https://dc.lft.to/lastmile_qr_scan"}, "fusion_lon": 0.0}, {"lat": 38.906148, "is_disabled": 0, "type": "electric_scooter", "lon": -77.062995, "bike_id": "e8d86d2d335c8507d04c2d943fd9b1fb", "fusion_lat": 0.0, "name": "e8d86d2d335c8507d04c2d943fd9b1fb", "is_reserved": 0, "rental_uris": {"android": "https://dc.lft.to/lastmile_qr_scan", "ios": "https://dc.lft.to/lastmile_qr_scan"}, "fusion_lon": 0.0}, {"lat": 38.932491, "is_disabled": 0, "type": "electric_scooter", "lon": -77.03272483333333, "bike_id": "4721b94102088aed607930bc4d422156", "fusion_lat": 0.0, "name": "4721b94102088aed607930bc4d422156", "is_reserved": 0, "rental_uris": {"android": "https://dc.lft.to/lastmile_qr_scan", "ios": "https://dc.lft.to/lastmile_qr_scan"}, "fusion_lon": 0.0}, {"lat": 38.98825766666667, "is_disabled": 0, "type": "electric_bike", "lon": -76.996479, "bike_id": "253e5aff33921f3ef3d0b168eb68742e", "fusion_lat": 0.0, "name": "253e5aff33921f3ef3d0b168eb68742e", "is_reserved": 0, "rental_uris": {"android": "https://dc.lft.to/lastmile_qr_scan", "ios": "https://dc.lft.to/lastmile_qr_scan"}, "fusion_lon": 0.0}, {"lat": 38.9150995, "is_disabled": 0, "type": "electric_scooter", "lon": -77.02956116666667, "bike_id": "c9ff7ce3ccdf15e4a6d67f019db1340b", "fusion_lat": 0.0, "name": "c9ff7ce3ccdf15e4a6d67f019db1340b", "is_reserved": 0, "rental_uris": {"android": "https://dc.lft.to/lastmile_qr_scan", "ios": "https://dc.lft.to/lastmile_qr_scan"}, "fusion_lon": 0.0}, {"lat": 38.88364516666667, "is_disabled": 0, "type": "electric_scooter", "lon": -76.94154466666667, "bike_id": "ba6372149d3364b21e9c359e1d90a647", "fusion_lat": 0.0, "name": "ba6372149d3364b21e9c359e1d90a647", "is_reserved": 0, "rental_uris": {"android": "https://dc.lft.to/lastmile_qr_scan", "ios": "https://dc.lft.to/lastmile_qr_scan"}, "fusion_lon": 0.0}, {"lat": 38.9589175, "is_disabled": 0, "type": "electric_bike", "lon": -76.92499383333333, "bike_id": "c7d84dde32a70216690e0306db18d962", "fusion_lat": 0.0, "name": "c7d84dde32a70216690e0306db18d962", "is_reserved": 0, "rental_uris": {"android": "https://dc.lft.to/lastmile_qr_scan", "ios": "https://dc.lft.to/lastmile_qr_scan"}, "fusion_lon": 0.0}, {"lat": 38.90475416666666, "is_disabled": 0, "type": "electric_scooter", "lon": -77.0020555, "bike_id": "e33de2a4116af81b275bc5521149b757", "fusion_lat": 0.0, "name": "e33de2a4116af81b275bc5521149b757", "is_reserved": 0, "rental_uris": {"android": "https://dc.lft.to/lastmile_qr_scan", "ios": "https://dc.lft.to/lastmile_qr_scan"}, "fusion_lon": 0.0}, {"lat": 38.91925966666667, "is_disabled": 0, "type": "electric_scooter", "lon": -77.03189316666666, "bike_id": "59282c9d982b576ca3997a12698e03bd", "fusion_lat": 0.0, "name": "59282c9d982b576ca3997a12698e03bd", "is_reserved": 0, "rental_uris": {"android": "https://dc.lft.to/lastmile_qr_scan", "ios": "https://dc.lft.to/lastmile_qr_scan"}, "fusion_lon": 0.0}, {"lat": 38.91761916666667, "is_disabled": 0, "type": "electric_scooter", "lon": -76.976229, "bike_id": "e41f4c8580b94400f24f533b85a24985", "fusion_lat": 0.0, "name": "e41f4c8580b94400f24f533b85a24985", "is_reserved": 0, "rental_uris": {"android": "https://dc.lft.to/lastmile_qr_scan", "ios": "https://dc.lft.to/lastmile_qr_scan"}, "fusion_lon": 0.0}, {"lat": 38.916851333333334, "is_disabled": 0, "type": "electric_scooter", "lon": -77.00199516666666, "bike_id": "bf0317e565341a5e062c52290b651db4", "fusion_lat": 0.0, "name": "bf0317e565341a5e062c52290b651db4", "is_reserved": 0, "rental_uris": {"android": "https://dc.lft.to/lastmile_qr_scan", "ios": "https://dc.lft.to/lastmile_qr_scan"}, "fusion_lon": 0.0}, {"lat": 38.94124083333333, "is_disabled": 0, "type": "electric_scooter", "lon": -77.00090583333333, "bike_id": "32df346dfb1e323c2b04bb830c0782ac", "fusion_lat": 0.0, "name": "32df346dfb1e323c2b04bb830c0782ac", "is_reserved": 0, "rental_uris": {"android": "https://dc.lft.to/lastmile_qr_scan", "ios": "https://dc.lft.to/lastmile_qr_scan"}, "fusion_lon": 0.0}, {"lat": 38.915639, "is_disabled": 0, "type": "electric_scooter", "lon": -77.00977266666666, "bike_id": "f0ca2595ae0539b6ba20cbfd0c353e35", "fusion_lat": 0.0, "name": "f0ca2595ae0539b6ba20cbfd0c353e35", "is_reserved": 0, "rental_uris": {"android": "https://dc.lft.to/lastmile_qr_scan", "ios": "https://dc.lft.to/lastmile_qr_scan"}, "fusion_lon": 0.0}, {"lat": 38.90885183333333, "is_disabled": 0, "type": "electric_scooter", "lon": -77.036646, "bike_id": "cf38a864fc37ce7faa117294e6f1743f", "fusion_lat": 0.0, "name": "cf38a864fc37ce7faa117294e6f1743f", "is_reserved": 0, "rental_uris": {"android": "https://dc.lft.to/lastmile_qr_scan", "ios": "https://dc.lft.to/lastmile_qr_scan"}, "fusion_lon": 0.0}, {"lat": 38.908483333333336, "is_disabled": 0, "type": "electric_scooter", "lon": -77.01019566666666, "bike_id": "cf498a0e1973448eca168540a1fc09cf", "fusion_lat": 0.0, "name": "cf498a0e1973448eca168540a1fc09cf", "is_reserved": 0, "rental_uris": {"android": "https://dc.lft.to/lastmile_qr_scan", "ios": "https://dc.lft.to/lastmile_qr_scan"}, "fusion_lon": 0.0}, {"lat": 38.914958666666664, "is_disabled": 0, "type": "electric_scooter", "lon": -76.9836345, "bike_id": "0dfd4d287d108ec84a4fe6bdb6c8a885", "fusion_lat": 0.0, "name": "0dfd4d287d108ec84a4fe6bdb6c8a885", "is_reserved": 0, "rental_uris": {"android": "https://dc.lft.to/lastmile_qr_scan", "ios": "https://dc.lft.to/lastmile_qr_scan"}, "fusion_lon": 0.0}, {"lat": 38.89427416666667, "is_disabled": 0, "type": "electric_scooter", "lon": -77.02094333333334, "bike_id": "f39f1737ab264c104d528b00c786f571", "fusion_lat": 0.0, "name": "f39f1737ab264c104d528b00c786f571", "is_reserved": 0, "rental_uris": {"android": "https://dc.lft.to/lastmile_qr_scan", "ios": "https://dc.lft.to/lastmile_qr_scan"}, "fusion_lon": 0.0}, {"lat": 38.882772333333335, "is_disabled": 0, "type": "electric_bike", "lon": -76.93239883333334, "bike_id": "699d09dec831549965c408f6b22e9e39", "fusion_lat": 0.0, "name": "699d09dec831549965c408f6b22e9e39", "is_reserved": 0, "rental_uris": {"android": "https://dc.lft.to/lastmile_qr_scan", "ios": "https://dc.lft.to/lastmile_qr_scan"}, "fusion_lon": 0.0}, {"lat": 38.957351, "is_disabled": 0, "type": "electric_scooter", "lon": -77.02382533333333, "bike_id": "7235ef7b012f1455a5edc839a52cd645", "fusion_lat": 0.0, "name": "7235ef7b012f1455a5edc839a52cd645", "is_reserved": 0, "rental_uris": {"android": "https://dc.lft.to/lastmile_qr_scan", "ios": "https://dc.lft.to/lastmile_qr_scan"}, "fusion_lon": 0.0}, {"lat": 38.862223666666665, "is_disabled": 0, "type": "electric_scooter", "lon": -76.98372433333333, "bike_id": "d11cfa03a36fd1f4e20ab585318b6aa0", "fusion_lat": 0.0, "name": "d11cfa03a36fd1f4e20ab585318b6aa0", "is_reserved": 0, "rental_uris": {"android": "https://dc.lft.to/lastmile_qr_scan", "ios": "https://dc.lft.to/lastmile_qr_scan"}, "fusion_lon": 0.0}, {"lat": 38.887665166666665, "is_disabled": 0, "type": "electric_scooter", "lon": -76.98352, "bike_id": "325f7bab6e8708dc7d2a10270634c43e", "fusion_lat": 0.0, "name": "325f7bab6e8708dc7d2a10270634c43e", "is_reserved": 0, "rental_uris": {"android": "https://dc.lft.to/lastmile_qr_scan", "ios": "https://dc.lft.to/lastmile_qr_scan"}, "fusion_lon": 0.0}, {"lat": 38.93578, "is_disabled": 0, "type": "electric_scooter", "lon": -77.03753216666667, "bike_id": "111f3e3e3020a79a7699c294b24ec17c", "fusion_lat": 0.0, "name": "111f3e3e3020a79a7699c294b24ec17c", "is_reserved": 0, "rental_uris": {"android": "https://dc.lft.to/lastmile_qr_scan", "ios": "https://dc.lft.to/lastmile_qr_scan"}, "fusion_lon": 0.0}, {"lat": 38.90342533333333, "is_disabled": 0, "type": "electric_scooter", "lon": -76.970567, "bike_id": "606da5017376d345e8db32c4c9739ded", "fusion_lat": 0.0, "name": "606da5017376d345e8db32c4c9739ded", "is_reserved": 0, "rental_uris": {"android": "https://dc.lft.to/lastmile_qr_scan", "ios": "https://dc.lft.to/lastmile_qr_scan"}, "fusion_lon": 0.0}, {"lat": 38.90749183333333, "is_disabled": 0, "type": "electric_scooter", "lon": -77.04154983333333, "bike_id": "c977f99aa35d0f11d05e3e9141ddfe6f", "fusion_lat": 0.0, "name": "c977f99aa35d0f11d05e3e9141ddfe6f", "is_reserved": 0, "rental_uris": {"android": "https://dc.lft.to/lastmile_qr_scan", "ios": "https://dc.lft.to/lastmile_qr_scan"}, "fusion_lon": 0.0}, {"lat": 38.90973133333333, "is_disabled": 0, "type": "electric_scooter", "lon": -77.03898433333333, "bike_id": "56031f5a32bdd4a7208d97248c7db404", "fusion_lat": 0.0, "name": "56031f5a32bdd4a7208d97248c7db404", "is_reserved": 0, "rental_uris": {"android": "https://dc.lft.to/lastmile_qr_scan", "ios": "https://dc.lft.to/lastmile_qr_scan"}, "fusion_lon": 0.0}, {"lat": 38.95078016666667, "is_disabled": 0, "type": "electric_bike", "lon": -77.01201416666666, "bike_id": "eee0ff2a4fac24db33e34d2036696b2a", "fusion_lat": 0.0, "name": "eee0ff2a4fac24db33e34d2036696b2a", "is_reserved": 0, "rental_uris": {"android": "https://dc.lft.to/lastmile_qr_scan", "ios": "https://dc.lft.to/lastmile_qr_scan"}, "fusion_lon": 0.0}, {"lat": 38.90090166666667, "is_disabled": 0, "type": "electric_scooter", "lon": -77.05055333333334, "bike_id": "9bee258990abe1bc36d4e00b5e92fda8", "fusion_lat": 0.0, "name": "9bee258990abe1bc36d4e00b5e92fda8", "is_reserved": 0, "rental_uris": {"android": "https://dc.lft.to/lastmile_qr_scan", "ios": "https://dc.lft.to/lastmile_qr_scan"}, "fusion_lon": 0.0}, {"lat": 38.911889333333335, "is_disabled": 0, "type": "electric_scooter", "lon": -77.04469216666666, "bike_id": "029c73271d469b0add6ac43c0e479eb7", "fusion_lat": 0.0, "name": "029c73271d469b0add6ac43c0e479eb7", "is_reserved": 0, "rental_uris": {"android": "https://dc.lft.to/lastmile_qr_scan", "ios": "https://dc.lft.to/lastmile_qr_scan"}, "fusion_lon": 0.0}, {"lat": 38.8661725, "is_disabled": 0, "type": "electric_scooter", "lon": -76.98664283333333, "bike_id": "86356de54caa9ceb39646441e45e64f5", "fusion_lat": 0.0, "name": "86356de54caa9ceb39646441e45e64f5", "is_reserved": 0, "rental_uris": {"android": "https://dc.lft.to/lastmile_qr_scan", "ios": "https://dc.lft.to/lastmile_qr_scan"}, "fusion_lon": 0.0}, {"lat": 38.933445666666664, "is_disabled": 0, "type": "electric_scooter", "lon": -76.9930795, "bike_id": "42decdbf2f2afbf3ac071bc3f76c1e29", "fusion_lat": 0.0, "name": "42decdbf2f2afbf3ac071bc3f76c1e29", "is_reserved": 0, "rental_uris": {"android": "https://dc.lft.to/lastmile_qr_scan", "ios": "https://dc.lft.to/lastmile_qr_scan"}, "fusion_lon": 0.0}, {"lat": 38.914504666666666, "is_disabled": 0, "type": "electric_scooter", "lon": -77.02974116666667, "bike_id": "c6ef80455b43ad67eff09d143e514f5d", "fusion_lat": 0.0, "name": "c6ef80455b43ad67eff09d143e514f5d", "is_reserved": 0, "rental_uris": {"android": "https://dc.lft.to/lastmile_qr_scan", "ios": "https://dc.lft.to/lastmile_qr_scan"}, "fusion_lon": 0.0}, {"lat": 38.900097833333334, "is_disabled": 0, "type": "electric_scooter", "lon": -76.9223655, "bike_id": "b17e00b57e4f9608402c0f7852de69aa", "fusion_lat": 0.0, "name": "b17e00b57e4f9608402c0f7852de69aa", "is_reserved": 0, "rental_uris": {"android": "https://dc.lft.to/lastmile_qr_scan", "ios": "https://dc.lft.to/lastmile_qr_scan"}, "fusion_lon": 0.0}, {"lat": 38.93099433333333, "is_disabled": 0, "type": "electric_scooter", "lon": -77.026668, "bike_id": "ead0e28b1817bb54acede1e2753025d0", "fusion_lat": 0.0, "name": "ead0e28b1817bb54acede1e2753025d0", "is_reserved": 0, "rental_uris": {"android": "https://dc.lft.to/lastmile_qr_scan", "ios": "https://dc.lft.to/lastmile_qr_scan"}, "fusion_lon": 0.0}, {"lat": 38.927525, "is_disabled": 0, "type": "electric_scooter", "lon": -77.0296285, "bike_id": "5cb6f96e6a1f795962c68973640d3d92", "fusion_lat": 0.0, "name": "5cb6f96e6a1f795962c68973640d3d92", "is_reserved": 0, "rental_uris": {"android": "https://dc.lft.to/lastmile_qr_scan", "ios": "https://dc.lft.to/lastmile_qr_scan"}, "fusion_lon": 0.0}, {"lat": 38.931390666666665, "is_disabled": 0, "type": "electric_scooter", "lon": -77.02149883333334, "bike_id": "c441c3b4b6bff050663295b8531347d7", "fusion_lat": 0.0, "name": "c441c3b4b6bff050663295b8531347d7", "is_reserved": 0, "rental_uris": {"android": "https://dc.lft.to/lastmile_qr_scan", "ios": "https://dc.lft.to/lastmile_qr_scan"}, "fusion_lon": 0.0}, {"lat": 38.900816166666665, "is_disabled": 0, "type": "electric_scooter", "lon": -77.02584166666666, "bike_id": "a24247202c9af33c0b5d8b49e1f2f400", "fusion_lat": 0.0, "name": "a24247202c9af33c0b5d8b49e1f2f400", "is_reserved": 0, "rental_uris": {"android": "https://dc.lft.to/lastmile_qr_scan", "ios": "https://dc.lft.to/lastmile_qr_scan"}, "fusion_lon": 0.0}, {"lat": 38.91560483333333, "is_disabled": 0, "type": "electric_scooter", "lon": -77.0242995, "bike_id": "746ff657fa7aa08cf667f768ac436dec", "fusion_lat": 0.0, "name": "746ff657fa7aa08cf667f768ac436dec", "is_reserved": 0, "rental_uris": {"android": "https://dc.lft.to/lastmile_qr_scan", "ios": "https://dc.lft.to/lastmile_qr_scan"}, "fusion_lon": 0.0}, {"lat": 38.92757266666667, "is_disabled": 0, "type": "electric_scooter", "lon": -77.005921, "bike_id": "a2805882e23dbcbc53004c08575a5f8a", "fusion_lat": 0.0, "name": "a2805882e23dbcbc53004c08575a5f8a", "is_reserved": 0, "rental_uris": {"android": "https://dc.lft.to/lastmile_qr_scan", "ios": "https://dc.lft.to/lastmile_qr_scan"}, "fusion_lon": 0.0}, {"lat": 38.88491233333333, "is_disabled": 0, "type": "electric_scooter", "lon": -77.00723416666666, "bike_id": "63be58c78d0abb87232f794b7cc64ef1", "fusion_lat": 0.0, "name": "63be58c78d0abb87232f794b7cc64ef1", "is_reserved": 0, "rental_uris": {"android": "https://dc.lft.to/lastmile_qr_scan", "ios": "https://dc.lft.to/lastmile_qr_scan"}, "fusion_lon": 0.0}, {"lat": 38.939608166666666, "is_disabled": 0, "type": "electric_scooter", "lon": -77.02747316666667, "bike_id": "cbe69b04654f11a836479592a2ffb49a", "fusion_lat": 0.0, "name": "cbe69b04654f11a836479592a2ffb49a", "is_reserved": 0, "rental_uris": {"android": "https://dc.lft.to/lastmile_qr_scan", "ios": "https://dc.lft.to/lastmile_qr_scan"}, "fusion_lon": 0.0}, {"lat": 38.9243325, "is_disabled": 0, "type": "electric_scooter", "lon": -77.02969816666666, "bike_id": "7edc87ade8f6d09163f33b06fa8d6794", "fusion_lat": 0.0, "name": "7edc87ade8f6d09163f33b06fa8d6794", "is_reserved": 0, "rental_uris": {"android": "https://dc.lft.to/lastmile_qr_scan", "ios": "https://dc.lft.to/lastmile_qr_scan"}, "fusion_lon": 0.0}, {"lat": 38.94437633333333, "is_disabled": 0, "type": "electric_scooter", "lon": -77.02339683333334, "bike_id": "90a35d8f405c88d2a6f42bda04b893da", "fusion_lat": 0.0, "name": "90a35d8f405c88d2a6f42bda04b893da", "is_reserved": 0, "rental_uris": {"android": "https://dc.lft.to/lastmile_qr_scan", "ios": "https://dc.lft.to/lastmile_qr_scan"}, "fusion_lon": 0.0}, {"lat": 38.920608, "is_disabled": 0, "type": "electric_scooter", "lon": -77.04240083333333, "bike_id": "60e0792642a781b919d61048a5cceeba", "fusion_lat": 0.0, "name": "60e0792642a781b919d61048a5cceeba", "is_reserved": 0, "rental_uris": {"android": "https://dc.lft.to/lastmile_qr_scan", "ios": "https://dc.lft.to/lastmile_qr_scan"}, "fusion_lon": 0.0}, {"lat": 38.90969716666667, "is_disabled": 0, "type": "electric_scooter", "lon": -77.04610383333333, "bike_id": "35a28d78afe765fd6d8f11a4814e9bb1", "fusion_lat": 0.0, "name": "35a28d78afe765fd6d8f11a4814e9bb1", "is_reserved": 0, "rental_uris": {"android": "https://dc.lft.to/lastmile_qr_scan", "ios": "https://dc.lft.to/lastmile_qr_scan"}, "fusion_lon": 0.0}, {"lat": 38.908832, "is_disabled": 0, "type": "electric_bike", "lon": -77.00250233333334, "bike_id": "3d83dc0c7917cb5a140a8509f4a3ca66", "fusion_lat": 0.0, "name": "3d83dc0c7917cb5a140a8509f4a3ca66", "is_reserved": 0, "rental_uris": {"android": "https://dc.lft.to/lastmile_qr_scan", "ios": "https://dc.lft.to/lastmile_qr_scan"}, "fusion_lon": 0.0}, {"lat": 38.901676333333334, "is_disabled": 0, "type": "electric_scooter", "lon": -77.02499083333333, "bike_id": "5e787e4b758bb4782811b7ba73e5920e", "fusion_lat": 0.0, "name": "5e787e4b758bb4782811b7ba73e5920e", "is_reserved": 0, "rental_uris": {"android": "https://dc.lft.to/lastmile_qr_scan", "ios": "https://dc.lft.to/lastmile_qr_scan"}, "fusion_lon": 0.0}, {"lat": 38.901490333333335, "is_disabled": 0, "type": "electric_scooter", "lon": -77.0415205, "bike_id": "5419e29f8b52f1498d2b6b83f14da6ab", "fusion_lat": 0.0, "name": "5419e29f8b52f1498d2b6b83f14da6ab", "is_reserved": 0, "rental_uris": {"android": "https://dc.lft.to/lastmile_qr_scan", "ios": "https://dc.lft.to/lastmile_qr_scan"}, "fusion_lon": 0.0}, {"lat": 38.857343, "is_disabled": 0, "type": "electric_scooter", "lon": -76.99436033333333, "bike_id": "773035822ecda7a69bedd19e8b5d7f47", "fusion_lat": 0.0, "name": "773035822ecda7a69bedd19e8b5d7f47", "is_reserved": 0, "rental_uris": {"android": "https://dc.lft.to/lastmile_qr_scan", "ios": "https://dc.lft.to/lastmile_qr_scan"}, "fusion_lon": 0.0}, {"lat": 38.91678133333333, "is_disabled": 0, "type": "electric_scooter", "lon": -77.0238105, "bike_id": "101cf9d8675a1d07a0bb20fac8fecac2", "fusion_lat": 0.0, "name": "101cf9d8675a1d07a0bb20fac8fecac2", "is_reserved": 0, "rental_uris": {"android": "https://dc.lft.to/lastmile_qr_scan", "ios": "https://dc.lft.to/lastmile_qr_scan"}, "fusion_lon": 0.0}, {"lat": 38.89743266666667, "is_disabled": 0, "type": "electric_scooter", "lon": -77.00072016666667, "bike_id": "272632c94414fb1357e61c6de8f7a4eb", "fusion_lat": 0.0, "name": "272632c94414fb1357e61c6de8f7a4eb", "is_reserved": 0, "rental_uris": {"android": "https://dc.lft.to/lastmile_qr_scan", "ios": "https://dc.lft.to/lastmile_qr_scan"}, "fusion_lon": 0.0}, {"lat": 38.900141, "is_disabled": 0, "type": "electric_scooter", "lon": -77.0120265, "bike_id": "4560dd0c736e906c5b89914e291d4752", "fusion_lat": 0.0, "name": "4560dd0c736e906c5b89914e291d4752", "is_reserved": 0, "rental_uris": {"android": "https://dc.lft.to/lastmile_qr_scan", "ios": "https://dc.lft.to/lastmile_qr_scan"}, "fusion_lon": 0.0}, {"lat": 38.933164833333336, "is_disabled": 0, "type": "electric_scooter", "lon": -77.04525483333333, "bike_id": "3340fab97565ca5483498699de0bdf7a", "fusion_lat": 0.0, "name": "3340fab97565ca5483498699de0bdf7a", "is_reserved": 0, "rental_uris": {"android": "https://dc.lft.to/lastmile_qr_scan", "ios": "https://dc.lft.to/lastmile_qr_scan"}, "fusion_lon": 0.0}, {"lat": 38.90967466666667, "is_disabled": 0, "type": "electric_scooter", "lon": -77.03947566666666, "bike_id": "e1ff708f524d88d96f8423142ee102da", "fusion_lat": 0.0, "name": "e1ff708f524d88d96f8423142ee102da", "is_reserved": 0, "rental_uris": {"android": "https://dc.lft.to/lastmile_qr_scan", "ios": "https://dc.lft.to/lastmile_qr_scan"}, "fusion_lon": 0.0}, {"lat": 38.87872683333333, "is_disabled": 0, "type": "electric_scooter", "lon": -77.007438, "bike_id": "32619593d351fc82d208bbb8b97f8912", "fusion_lat": 0.0, "name": "32619593d351fc82d208bbb8b97f8912", "is_reserved": 0, "rental_uris": {"android": "https://dc.lft.to/lastmile_qr_scan", "ios": "https://dc.lft.to/lastmile_qr_scan"}, "fusion_lon": 0.0}, {"lat": 38.872920666666666, "is_disabled": 0, "type": "electric_scooter", "lon": -77.0098365, "bike_id": "dfd208b9c0901f61790eb3b2bd6c7deb", "fusion_lat": 0.0, "name": "dfd208b9c0901f61790eb3b2bd6c7deb", "is_reserved": 0, "rental_uris": {"android": "https://dc.lft.to/lastmile_qr_scan", "ios": "https://dc.lft.to/lastmile_qr_scan"}, "fusion_lon": 0.0}, {"lat": 38.926262666666666, "is_disabled": 0, "type": "electric_scooter", "lon": -77.03790316666667, "bike_id": "3c7a215d8bcb58161d5c52a9b8e19ac6", "fusion_lat": 0.0, "name": "3c7a215d8bcb58161d5c52a9b8e19ac6", "is_reserved": 0, "rental_uris": {"android": "https://dc.lft.to/lastmile_qr_scan", "ios": "https://dc.lft.to/lastmile_qr_scan"}, "fusion_lon": 0.0}, {"lat": 38.8773155, "is_disabled": 0, "type": "electric_bike", "lon": -76.9810465, "bike_id": "b3a0e60e7179af9102cc53ac5ae2802f", "fusion_lat": 0.0, "name": "b3a0e60e7179af9102cc53ac5ae2802f", "is_reserved": 0, "rental_uris": {"android": "https://dc.lft.to/lastmile_qr_scan", "ios": "https://dc.lft.to/lastmile_qr_scan"}, "fusion_lon": 0.0}, {"lat": 38.898748, "is_disabled": 0, "type": "electric_scooter", "lon": -77.02042216666666, "bike_id": "bbfb22d3dc348f7acd5582b9708b0d88", "fusion_lat": 0.0, "name": "bbfb22d3dc348f7acd5582b9708b0d88", "is_reserved": 0, "rental_uris": {"android": "https://dc.lft.to/lastmile_qr_scan", "ios": "https://dc.lft.to/lastmile_qr_scan"}, "fusion_lon": 0.0}, {"lat": 38.8667435, "is_disabled": 0, "type": "electric_scooter", "lon": -76.98540833333334, "bike_id": "ac86242705ae1ca33207e26cf381be73", "fusion_lat": 0.0, "name": "ac86242705ae1ca33207e26cf381be73", "is_reserved": 0, "rental_uris": {"android": "https://dc.lft.to/lastmile_qr_scan", "ios": "https://dc.lft.to/lastmile_qr_scan"}, "fusion_lon": 0.0}, {"lat": 38.8323155, "is_disabled": 0, "type": "electric_bike", "lon": -77.04977183333334, "bike_id": "2640882a7a94ad3073fb41c2041c7ea5", "fusion_lat": 0.0, "name": "2640882a7a94ad3073fb41c2041c7ea5", "is_reserved": 0, "rental_uris": {"android": "https://dc.lft.to/lastmile_qr_scan", "ios": "https://dc.lft.to/lastmile_qr_scan"}, "fusion_lon": 0.0}, {"lat": 38.920680833333336, "is_disabled": 0, "type": "electric_scooter", "lon": -77.0480335, "bike_id": "8a285a35ce0b9792477d71ccb8651e36", "fusion_lat": 0.0, "name": "8a285a35ce0b9792477d71ccb8651e36", "is_reserved": 0, "rental_uris": {"android": "https://dc.lft.to/lastmile_qr_scan", "ios": "https://dc.lft.to/lastmile_qr_scan"}, "fusion_lon": 0.0}, {"lat": 38.918852, "is_disabled": 0, "type": "electric_scooter", "lon": -77.041252, "bike_id": "dab21eb081aa04ad436aa99350b28e4c", "fusion_lat": 0.0, "name": "dab21eb081aa04ad436aa99350b28e4c", "is_reserved": 0, "rental_uris": {"android": "https://dc.lft.to/lastmile_qr_scan", "ios": "https://dc.lft.to/lastmile_qr_scan"}, "fusion_lon": 0.0}, {"lat": 38.900073166666665, "is_disabled": 0, "type": "electric_scooter", "lon": -77.02159, "bike_id": "2f087975a48af5649f3d719f9b395d69", "fusion_lat": 0.0, "name": "2f087975a48af5649f3d719f9b395d69", "is_reserved": 0, "rental_uris": {"android": "https://dc.lft.to/lastmile_qr_scan", "ios": "https://dc.lft.to/lastmile_qr_scan"}, "fusion_lon": 0.0}, {"lat": 38.920401, "is_disabled": 0, "type": "electric_scooter", "lon": -77.01779483333334, "bike_id": "324ab83e896c487ac5c4e332ee04eff8", "fusion_lat": 0.0, "name": "324ab83e896c487ac5c4e332ee04eff8", "is_reserved": 0, "rental_uris": {"android": "https://dc.lft.to/lastmile_qr_scan", "ios": "https://dc.lft.to/lastmile_qr_scan"}, "fusion_lon": 0.0}, {"lat": 38.8843835, "is_disabled": 0, "type": "electric_scooter", "lon": -77.01759433333334, "bike_id": "166616407d9899033dc6b4467675fdaf", "fusion_lat": 0.0, "name": "166616407d9899033dc6b4467675fdaf", "is_reserved": 0, "rental_uris": {"android": "https://dc.lft.to/lastmile_qr_scan", "ios": "https://dc.lft.to/lastmile_qr_scan"}, "fusion_lon": 0.0}, {"lat": 38.920549, "is_disabled": 0, "type": "electric_scooter", "lon": -77.02439666666666, "bike_id": "2714a00b51698f8ada1cf23f64fc2586", "fusion_lat": 0.0, "name": "2714a00b51698f8ada1cf23f64fc2586", "is_reserved": 0, "rental_uris": {"android": "https://dc.lft.to/lastmile_qr_scan", "ios": "https://dc.lft.to/lastmile_qr_scan"}, "fusion_lon": 0.0}, {"lat": 38.870673833333335, "is_disabled": 0, "type": "electric_scooter", "lon": -77.00840416666666, "bike_id": "1cfc604758a73cff98d412d874c66fb5", "fusion_lat": 0.0, "name": "1cfc604758a73cff98d412d874c66fb5", "is_reserved": 0, "rental_uris": {"android": "https://dc.lft.to/lastmile_qr_scan", "ios": "https://dc.lft.to/lastmile_qr_scan"}, "fusion_lon": 0.0}, {"lat": 38.902612833333336, "is_disabled": 0, "type": "electric_scooter", "lon": -77.003278, "bike_id": "88a7f7e7430eceb46df4af261399f3dd", "fusion_lat": 0.0, "name": "88a7f7e7430eceb46df4af261399f3dd", "is_reserved": 0, "rental_uris": {"android": "https://dc.lft.to/lastmile_qr_scan", "ios": "https://dc.lft.to/lastmile_qr_scan"}, "fusion_lon": 0.0}, {"lat": 38.895012666666666, "is_disabled": 0, "type": "electric_scooter", "lon": -77.00324433333333, "bike_id": "d5bcb54231466c053ffb8285ed073514", "fusion_lat": 0.0, "name": "d5bcb54231466c053ffb8285ed073514", "is_reserved": 0, "rental_uris": {"android": "https://dc.lft.to/lastmile_qr_scan", "ios": "https://dc.lft.to/lastmile_qr_scan"}, "fusion_lon": 0.0}, {"lat": 38.91678116666667, "is_disabled": 0, "type": "electric_scooter", "lon": -77.02953816666667, "bike_id": "d7d985ec3a76bbb804d890a5add5b7d6", "fusion_lat": 0.0, "name": "d7d985ec3a76bbb804d890a5add5b7d6", "is_reserved": 0, "rental_uris": {"android": "https://dc.lft.to/lastmile_qr_scan", "ios": "https://dc.lft.to/lastmile_qr_scan"}, "fusion_lon": 0.0}, {"lat": 38.87915733333333, "is_disabled": 0, "type": "electric_scooter", "lon": -77.00876233333334, "bike_id": "7a6e052fc57bde9cc3b06a4c02d1cf44", "fusion_lat": 0.0, "name": "7a6e052fc57bde9cc3b06a4c02d1cf44", "is_reserved": 0, "rental_uris": {"android": "https://dc.lft.to/lastmile_qr_scan", "ios": "https://dc.lft.to/lastmile_qr_scan"}, "fusion_lon": 0.0}, {"lat": 38.891223833333335, "is_disabled": 0, "type": "electric_scooter", "lon": -76.940922, "bike_id": "1cc5a58d14db8f578c0bd962af4b1233", "fusion_lat": 0.0, "name": "1cc5a58d14db8f578c0bd962af4b1233", "is_reserved": 0, "rental_uris": {"android": "https://dc.lft.to/lastmile_qr_scan", "ios": "https://dc.lft.to/lastmile_qr_scan"}, "fusion_lon": 0.0}, {"lat": 38.902612, "is_disabled": 0, "type": "electric_scooter", "lon": -77.01915933333333, "bike_id": "c69fe18e13e9f01acaea423ae7a92997", "fusion_lat": 0.0, "name": "c69fe18e13e9f01acaea423ae7a92997", "is_reserved": 0, "rental_uris": {"android": "https://dc.lft.to/lastmile_qr_scan", "ios": "https://dc.lft.to/lastmile_qr_scan"}, "fusion_lon": 0.0}, {"lat": 38.93554783333333, "is_disabled": 0, "type": "electric_scooter", "lon": -77.05869266666667, "bike_id": "8034a26cc99d00dc21eafa9967f32233", "fusion_lat": 0.0, "name": "8034a26cc99d00dc21eafa9967f32233", "is_reserved": 0, "rental_uris": {"android": "https://dc.lft.to/lastmile_qr_scan", "ios": "https://dc.lft.to/lastmile_qr_scan"}, "fusion_lon": 0.0}, {"lat": 38.919706, "is_disabled": 0, "type": "electric_scooter", "lon": -77.04317666666667, "bike_id": "7be53c5d7e1eeeae8cb50c96ec1f3886", "fusion_lat": 0.0, "name": "7be53c5d7e1eeeae8cb50c96ec1f3886", "is_reserved": 0, "rental_uris": {"android": "https://dc.lft.to/lastmile_qr_scan", "ios": "https://dc.lft.to/lastmile_qr_scan"}, "fusion_lon": 0.0}, {"lat": 38.90522216666667, "is_disabled": 0, "type": "electric_scooter", "lon": -77.027191, "bike_id": "011af5d58cb07197a167ad16f3155eb8", "fusion_lat": 0.0, "name": "011af5d58cb07197a167ad16f3155eb8", "is_reserved": 0, "rental_uris": {"android": "https://dc.lft.to/lastmile_qr_scan", "ios": "https://dc.lft.to/lastmile_qr_scan"}, "fusion_lon": 0.0}, {"lat": 38.96097266666666, "is_disabled": 0, "type": "electric_scooter", "lon": -77.08289166666667, "bike_id": "31ef1b3048d81223303a6c1920382a1c", "fusion_lat": 0.0, "name": "31ef1b3048d81223303a6c1920382a1c", "is_reserved": 0, "rental_uris": {"android": "https://dc.lft.to/lastmile_qr_scan", "ios": "https://dc.lft.to/lastmile_qr_scan"}, "fusion_lon": 0.0}, {"lat": 39.015906, "is_disabled": 0, "type": "electric_bike", "lon": -77.044265, "bike_id": "3739fce43c947703f9be7339e4d7cccd", "fusion_lat": 0.0, "name": "3739fce43c947703f9be7339e4d7cccd", "is_reserved": 0, "rental_uris": {"android": "https://dc.lft.to/lastmile_qr_scan", "ios": "https://dc.lft.to/lastmile_qr_scan"}, "fusion_lon": 0.0}, {"lat": 38.90003316666667, "is_disabled": 0, "type": "electric_scooter", "lon": -76.99849066666667, "bike_id": "cfa1d305a6df84c9f1344b7d5f75f09a", "fusion_lat": 0.0, "name": "cfa1d305a6df84c9f1344b7d5f75f09a", "is_reserved": 0, "rental_uris": {"android": "https://dc.lft.to/lastmile_qr_scan", "ios": "https://dc.lft.to/lastmile_qr_scan"}, "fusion_lon": 0.0}, {"lat": 38.922147, "is_disabled": 0, "type": "electric_scooter", "lon": -77.03286266666667, "bike_id": "109ab9ca130de59bfb119e8b7d020dce", "fusion_lat": 0.0, "name": "109ab9ca130de59bfb119e8b7d020dce", "is_reserved": 0, "rental_uris": {"android": "https://dc.lft.to/lastmile_qr_scan", "ios": "https://dc.lft.to/lastmile_qr_scan"}, "fusion_lon": 0.0}, {"lat": 38.900435333333334, "is_disabled": 0, "type": "electric_scooter", "lon": -76.993784, "bike_id": "142972da563b714dc41c86e21cfed1df", "fusion_lat": 0.0, "name": "142972da563b714dc41c86e21cfed1df", "is_reserved": 0, "rental_uris": {"android": "https://dc.lft.to/lastmile_qr_scan", "ios": "https://dc.lft.to/lastmile_qr_scan"}, "fusion_lon": 0.0}, {"lat": 38.906183, "is_disabled": 0, "type": "electric_scooter", "lon": -76.98984383333334, "bike_id": "110c2adfa643cd8720292c35353d1f2b", "fusion_lat": 0.0, "name": "110c2adfa643cd8720292c35353d1f2b", "is_reserved": 0, "rental_uris": {"android": "https://dc.lft.to/lastmile_qr_scan", "ios": "https://dc.lft.to/lastmile_qr_scan"}, "fusion_lon": 0.0}, {"lat": 38.90862083333333, "is_disabled": 0, "type": "electric_scooter", "lon": -76.99160733333333, "bike_id": "8348dd5f329cb01967a40b1939977c90", "fusion_lat": 0.0, "name": "8348dd5f329cb01967a40b1939977c90", "is_reserved": 0, "rental_uris": {"android": "https://dc.lft.to/lastmile_qr_scan", "ios": "https://dc.lft.to/lastmile_qr_scan"}, "fusion_lon": 0.0}, {"lat": 38.92751233333333, "is_disabled": 0, "type": "electric_scooter", "lon": -77.025405, "bike_id": "49219659a7b4c730fb716834d864bddf", "fusion_lat": 0.0, "name": "49219659a7b4c730fb716834d864bddf", "is_reserved": 0, "rental_uris": {"android": "https://dc.lft.to/lastmile_qr_scan", "ios": "https://dc.lft.to/lastmile_qr_scan"}, "fusion_lon": 0.0}, {"lat": 38.891243833333334, "is_disabled": 0, "type": "electric_scooter", "lon": -76.943862, "bike_id": "6defa7e1c6a4d29268bca318846e46a2", "fusion_lat": 0.0, "name": "6defa7e1c6a4d29268bca318846e46a2", "is_reserved": 0, "rental_uris": {"android": "https://dc.lft.to/lastmile_qr_scan", "ios": "https://dc.lft.to/lastmile_qr_scan"}, "fusion_lon": 0.0}, {"lat": 38.89523166666667, "is_disabled": 0, "type": "electric_scooter", "lon": -77.02823033333334, "bike_id": "9ae8ad674929840aa979926de3e5f35b", "fusion_lat": 0.0, "name": "9ae8ad674929840aa979926de3e5f35b", "is_reserved": 0, "rental_uris": {"android": "https://dc.lft.to/lastmile_qr_scan", "ios": "https://dc.lft.to/lastmile_qr_scan"}, "fusion_lon": 0.0}, {"lat": 38.85905983333333, "is_disabled": 0, "type": "electric_scooter", "lon": -76.99149183333333, "bike_id": "1f7976edbfcb50ef1a0512005ee0939e", "fusion_lat": 0.0, "name": "1f7976edbfcb50ef1a0512005ee0939e", "is_reserved": 0, "rental_uris": {"android": "https://dc.lft.to/lastmile_qr_scan", "ios": "https://dc.lft.to/lastmile_qr_scan"}, "fusion_lon": 0.0}, {"lat": 38.9057275, "is_disabled": 0, "type": "electric_scooter", "lon": -77.02976, "bike_id": "89394479be0fc98633ac80072667a2c4", "fusion_lat": 0.0, "name": "89394479be0fc98633ac80072667a2c4", "is_reserved": 0, "rental_uris": {"android": "https://dc.lft.to/lastmile_qr_scan", "ios": "https://dc.lft.to/lastmile_qr_scan"}, "fusion_lon": 0.0}, {"lat": 38.86656833333333, "is_disabled": 0, "type": "electric_scooter", "lon": -76.98883916666666, "bike_id": "6311dae06f53895888e24bed871b033f", "fusion_lat": 0.0, "name": "6311dae06f53895888e24bed871b033f", "is_reserved": 0, "rental_uris": {"android": "https://dc.lft.to/lastmile_qr_scan", "ios": "https://dc.lft.to/lastmile_qr_scan"}, "fusion_lon": 0.0}, {"lat": 38.947415, "is_disabled": 0, "type": "electric_scooter", "lon": -77.06523783333333, "bike_id": "4af764ee8cd632d4cee17ee01a6e2ffa", "fusion_lat": 0.0, "name": "4af764ee8cd632d4cee17ee01a6e2ffa", "is_reserved": 0, "rental_uris": {"android": "https://dc.lft.to/lastmile_qr_scan", "ios": "https://dc.lft.to/lastmile_qr_scan"}, "fusion_lon": 0.0}, {"lat": 38.916891166666666, "is_disabled": 0, "type": "electric_scooter", "lon": -77.03208133333334, "bike_id": "05b6cae65694b4dddd54b3334137dc3e", "fusion_lat": 0.0, "name": "05b6cae65694b4dddd54b3334137dc3e", "is_reserved": 0, "rental_uris": {"android": "https://dc.lft.to/lastmile_qr_scan", "ios": "https://dc.lft.to/lastmile_qr_scan"}, "fusion_lon": 0.0}, {"lat": 38.8990555, "is_disabled": 0, "type": "electric_scooter", "lon": -76.93356866666667, "bike_id": "2d89f2167d54a7da2a75447afe179d41", "fusion_lat": 0.0, "name": "2d89f2167d54a7da2a75447afe179d41", "is_reserved": 0, "rental_uris": {"android": "https://dc.lft.to/lastmile_qr_scan", "ios": "https://dc.lft.to/lastmile_qr_scan"}, "fusion_lon": 0.0}, {"lat": 38.92273383333333, "is_disabled": 0, "type": "electric_scooter", "lon": -77.04246483333333, "bike_id": "734f341ae60240e3c58783c20407ade1", "fusion_lat": 0.0, "name": "734f341ae60240e3c58783c20407ade1", "is_reserved": 0, "rental_uris": {"android": "https://dc.lft.to/lastmile_qr_scan", "ios": "https://dc.lft.to/lastmile_qr_scan"}, "fusion_lon": 0.0}, {"lat": 38.930614166666665, "is_disabled": 0, "type": "electric_scooter", "lon": -77.04180716666667, "bike_id": "afdf0c34071ac0b052b956bb909cdf62", "fusion_lat": 0.0, "name": "afdf0c34071ac0b052b956bb909cdf62", "is_reserved": 0, "rental_uris": {"android": "https://dc.lft.to/lastmile_qr_scan", "ios": "https://dc.lft.to/lastmile_qr_scan"}, "fusion_lon": 0.0}, {"lat": 38.884889, "is_disabled": 0, "type": "electric_scooter", "lon": -77.0347045, "bike_id": "9101e55fba7655d405d91c6f4fba1e2a", "fusion_lat": 0.0, "name": "9101e55fba7655d405d91c6f4fba1e2a", "is_reserved": 0, "rental_uris": {"android": "https://dc.lft.to/lastmile_qr_scan", "ios": "https://dc.lft.to/lastmile_qr_scan"}, "fusion_lon": 0.0}, {"lat": 38.9111105, "is_disabled": 0, "type": "electric_scooter", "lon": -77.0382755, "bike_id": "e921720c4073be0c4f41c3e6925691a4", "fusion_lat": 0.0, "name": "e921720c4073be0c4f41c3e6925691a4", "is_reserved": 0, "rental_uris": {"android": "https://dc.lft.to/lastmile_qr_scan", "ios": "https://dc.lft.to/lastmile_qr_scan"}, "fusion_lon": 0.0}, {"lat": 38.92653683333333, "is_disabled": 0, "type": "electric_scooter", "lon": -76.99753616666666, "bike_id": "bb33fbf42293446e531a7b991015fae8", "fusion_lat": 0.0, "name": "bb33fbf42293446e531a7b991015fae8", "is_reserved": 0, "rental_uris": {"android": "https://dc.lft.to/lastmile_qr_scan", "ios": "https://dc.lft.to/lastmile_qr_scan"}, "fusion_lon": 0.0}, {"lat": 38.8989685, "is_disabled": 0, "type": "electric_scooter", "lon": -77.02171, "bike_id": "7e7a7f801eb715e90534528f60262404", "fusion_lat": 0.0, "name": "7e7a7f801eb715e90534528f60262404", "is_reserved": 0, "rental_uris": {"android": "https://dc.lft.to/lastmile_qr_scan", "ios": "https://dc.lft.to/lastmile_qr_scan"}, "fusion_lon": 0.0}, {"lat": 38.86510483333333, "is_disabled": 0, "type": "electric_scooter", "lon": -76.9900905, "bike_id": "87462c1f5c4cfb6211888989cdb9d559", "fusion_lat": 0.0, "name": "87462c1f5c4cfb6211888989cdb9d559", "is_reserved": 0, "rental_uris": {"android": "https://dc.lft.to/lastmile_qr_scan", "ios": "https://dc.lft.to/lastmile_qr_scan"}, "fusion_lon": 0.0}, {"lat": 38.91659416666667, "is_disabled": 0, "type": "electric_scooter", "lon": -77.047119, "bike_id": "a5a9099d5ab34bcd151695662a136f79", "fusion_lat": 0.0, "name": "a5a9099d5ab34bcd151695662a136f79", "is_reserved": 0, "rental_uris": {"android": "https://dc.lft.to/lastmile_qr_scan", "ios": "https://dc.lft.to/lastmile_qr_scan"}, "fusion_lon": 0.0}, {"lat": 38.92253933333333, "is_disabled": 0, "type": "electric_scooter", "lon": -77.042479, "bike_id": "f5ddf9fa8ba7ef483b50f3731d735e1a", "fusion_lat": 0.0, "name": "f5ddf9fa8ba7ef483b50f3731d735e1a", "is_reserved": 0, "rental_uris": {"android": "https://dc.lft.to/lastmile_qr_scan", "ios": "https://dc.lft.to/lastmile_qr_scan"}, "fusion_lon": 0.0}, {"lat": 38.934204, "is_disabled": 0, "type": "electric_scooter", "lon": -77.02466816666667, "bike_id": "8fa86a62d7404737269a03a06d4a2735", "fusion_lat": 0.0, "name": "8fa86a62d7404737269a03a06d4a2735", "is_reserved": 0, "rental_uris": {"android": "https://dc.lft.to/lastmile_qr_scan", "ios": "https://dc.lft.to/lastmile_qr_scan"}, "fusion_lon": 0.0}, {"lat": 38.84271566666666, "is_disabled": 0, "type": "electric_bike", "lon": -76.98846783333333, "bike_id": "7ab9bbc304130dac1aae5f24f00c8c5d", "fusion_lat": 0.0, "name": "7ab9bbc304130dac1aae5f24f00c8c5d", "is_reserved": 0, "rental_uris": {"android": "https://dc.lft.to/lastmile_qr_scan", "ios": "https://dc.lft.to/lastmile_qr_scan"}, "fusion_lon": 0.0}, {"lat": 38.856643, "is_disabled": 0, "type": "electric_scooter", "lon": -76.98173633333333, "bike_id": "3923997cc884f8eabe109b1f3446d93b", "fusion_lat": 0.0, "name": "3923997cc884f8eabe109b1f3446d93b", "is_reserved": 0, "rental_uris": {"android": "https://dc.lft.to/lastmile_qr_scan", "ios": "https://dc.lft.to/lastmile_qr_scan"}, "fusion_lon": 0.0}, {"lat": 38.89547116666667, "is_disabled": 0, "type": "electric_scooter", "lon": -77.00439816666666, "bike_id": "8d4fd4a6bc05434decd44e64326d05b8", "fusion_lat": 0.0, "name": "8d4fd4a6bc05434decd44e64326d05b8", "is_reserved": 0, "rental_uris": {"android": "https://dc.lft.to/lastmile_qr_scan", "ios": "https://dc.lft.to/lastmile_qr_scan"}, "fusion_lon": 0.0}, {"lat": 38.982800833333336, "is_disabled": 0, "type": "electric_bike", "lon": -77.02542266666667, "bike_id": "7bada46bad870ebb3508d60b4f905c93", "fusion_lat": 0.0, "name": "7bada46bad870ebb3508d60b4f905c93", "is_reserved": 0, "rental_uris": {"android": "https://dc.lft.to/lastmile_qr_scan", "ios": "https://dc.lft.to/lastmile_qr_scan"}, "fusion_lon": 0.0}, {"lat": 38.83728083333333, "is_disabled": 0, "type": "electric_bike", "lon": -76.99761816666667, "bike_id": "520c0cf807399ce1b1ba86e5f635e9c9", "fusion_lat": 0.0, "name": "520c0cf807399ce1b1ba86e5f635e9c9", "is_reserved": 0, "rental_uris": {"android": "https://dc.lft.to/lastmile_qr_scan", "ios": "https://dc.lft.to/lastmile_qr_scan"}, "fusion_lon": 0.0}, {"lat": 38.90140133333333, "is_disabled": 0, "type": "electric_scooter", "lon": -77.0293275, "bike_id": "68edc3ec7b1cb1143c2ff1c0497f3768", "fusion_lat": 0.0, "name": "68edc3ec7b1cb1143c2ff1c0497f3768", "is_reserved": 0, "rental_uris": {"android": "https://dc.lft.to/lastmile_qr_scan", "ios": "https://dc.lft.to/lastmile_qr_scan"}, "fusion_lon": 0.0}, {"lat": 38.91010566666667, "is_disabled": 0, "type": "electric_scooter", "lon": -77.02693783333333, "bike_id": "f9dc24b36221b5346921750a96579648", "fusion_lat": 0.0, "name": "f9dc24b36221b5346921750a96579648", "is_reserved": 0, "rental_uris": {"android": "https://dc.lft.to/lastmile_qr_scan", "ios": "https://dc.lft.to/lastmile_qr_scan"}, "fusion_lon": 0.0}, {"lat": 38.912976, "is_disabled": 0, "type": "electric_scooter", "lon": -77.0401805, "bike_id": "bf8276106bc2884a2039d470454d272e", "fusion_lat": 0.0, "name": "bf8276106bc2884a2039d470454d272e", "is_reserved": 0, "rental_uris": {"android": "https://dc.lft.to/lastmile_qr_scan", "ios": "https://dc.lft.to/lastmile_qr_scan"}, "fusion_lon": 0.0}, {"lat": 38.97090083333333, "is_disabled": 0, "type": "electric_bike", "lon": -77.0696665, "bike_id": "63726178c7202de815cb315d3bda057f", "fusion_lat": 0.0, "name": "63726178c7202de815cb315d3bda057f", "is_reserved": 0, "rental_uris": {"android": "https://dc.lft.to/lastmile_qr_scan", "ios": "https://dc.lft.to/lastmile_qr_scan"}, "fusion_lon": 0.0}, {"lat": 38.91711383333333, "is_disabled": 0, "type": "electric_scooter", "lon": -77.0347015, "bike_id": "dbcd4419c38ebee8d82ed1648f040116", "fusion_lat": 0.0, "name": "dbcd4419c38ebee8d82ed1648f040116", "is_reserved": 0, "rental_uris": {"android": "https://dc.lft.to/lastmile_qr_scan", "ios": "https://dc.lft.to/lastmile_qr_scan"}, "fusion_lon": 0.0}, {"lat": 38.852061166666665, "is_disabled": 0, "type": "electric_bike", "lon": -77.1012855, "bike_id": "311b26e1dce1b6682833e6feb86226b9", "fusion_lat": 0.0, "name": "311b26e1dce1b6682833e6feb86226b9", "is_reserved": 0, "rental_uris": {"android": "https://dc.lft.to/lastmile_qr_scan", "ios": "https://dc.lft.to/lastmile_qr_scan"}, "fusion_lon": 0.0}, {"lat": 38.92681016666667, "is_disabled": 0, "type": "electric_scooter", "lon": -77.02863066666667, "bike_id": "5bbc804aca2f36ce3884f65f1e18bf07", "fusion_lat": 0.0, "name": "5bbc804aca2f36ce3884f65f1e18bf07", "is_reserved": 0, "rental_uris": {"android": "https://dc.lft.to/lastmile_qr_scan", "ios": "https://dc.lft.to/lastmile_qr_scan"}, "fusion_lon": 0.0}, {"lat": 38.923283, "is_disabled": 0, "type": "electric_scooter", "lon": -77.035828, "bike_id": "924e20b9392178203ce6d51d7503ae71", "fusion_lat": 0.0, "name": "924e20b9392178203ce6d51d7503ae71", "is_reserved": 0, "rental_uris": {"android": "https://dc.lft.to/lastmile_qr_scan", "ios": "https://dc.lft.to/lastmile_qr_scan"}, "fusion_lon": 0.0}, {"lat": 38.89513616666667, "is_disabled": 0, "type": "electric_scooter", "lon": -76.94899916666667, "bike_id": "dcb279ae01844304b3773de7a64d7f86", "fusion_lat": 0.0, "name": "dcb279ae01844304b3773de7a64d7f86", "is_reserved": 0, "rental_uris": {"android": "https://dc.lft.to/lastmile_qr_scan", "ios": "https://dc.lft.to/lastmile_qr_scan"}, "fusion_lon": 0.0}, {"lat": 38.8972855, "is_disabled": 0, "type": "electric_scooter", "lon": -77.022315, "bike_id": "2a888fc642a0751cb1215b7191acb114", "fusion_lat": 0.0, "name": "2a888fc642a0751cb1215b7191acb114", "is_reserved": 0, "rental_uris": {"android": "https://dc.lft.to/lastmile_qr_scan", "ios": "https://dc.lft.to/lastmile_qr_scan"}, "fusion_lon": 0.0}, {"lat": 38.899536166666664, "is_disabled": 0, "type": "electric_scooter", "lon": -77.05202016666667, "bike_id": "dc32beba6c507f2ba4214957493c2d5a", "fusion_lat": 0.0, "name": "dc32beba6c507f2ba4214957493c2d5a", "is_reserved": 0, "rental_uris": {"android": "https://dc.lft.to/lastmile_qr_scan", "ios": "https://dc.lft.to/lastmile_qr_scan"}, "fusion_lon": 0.0}, {"lat": 38.921077833333335, "is_disabled": 0, "type": "electric_scooter", "lon": -77.04696033333333, "bike_id": "3ed6e28a2b2b36e2fe262e3ded34836b", "fusion_lat": 0.0, "name": "3ed6e28a2b2b36e2fe262e3ded34836b", "is_reserved": 0, "rental_uris": {"android": "https://dc.lft.to/lastmile_qr_scan", "ios": "https://dc.lft.to/lastmile_qr_scan"}, "fusion_lon": 0.0}, {"lat": 38.901922, "is_disabled": 0, "type": "electric_scooter", "lon": -77.023941, "bike_id": "f31b3146e3b5caf860061ea83c354982", "fusion_lat": 0.0, "name": "f31b3146e3b5caf860061ea83c354982", "is_reserved": 0, "rental_uris": {"android": "https://dc.lft.to/lastmile_qr_scan", "ios": "https://dc.lft.to/lastmile_qr_scan"}, "fusion_lon": 0.0}, {"lat": 38.919740166666664, "is_disabled": 0, "type": "electric_scooter", "lon": -77.03332733333333, "bike_id": "279abf3ccb1ed387a19d6aceb8f263fe", "fusion_lat": 0.0, "name": "279abf3ccb1ed387a19d6aceb8f263fe", "is_reserved": 0, "rental_uris": {"android": "https://dc.lft.to/lastmile_qr_scan", "ios": "https://dc.lft.to/lastmile_qr_scan"}, "fusion_lon": 0.0}, {"lat": 38.863679166666664, "is_disabled": 0, "type": "electric_scooter", "lon": -76.99033866666667, "bike_id": "8262d0d5180e7b6def0ad6367326cf3c", "fusion_lat": 0.0, "name": "8262d0d5180e7b6def0ad6367326cf3c", "is_reserved": 0, "rental_uris": {"android": "https://dc.lft.to/lastmile_qr_scan", "ios": "https://dc.lft.to/lastmile_qr_scan"}, "fusion_lon": 0.0}, {"lat": 38.933840000000004, "is_disabled": 0, "type": "electric_scooter", "lon": -76.99516216666666, "bike_id": "53bdd9a7a9c99f217762c252291d3a87", "fusion_lat": 0.0, "name": "53bdd9a7a9c99f217762c252291d3a87", "is_reserved": 0, "rental_uris": {"android": "https://dc.lft.to/lastmile_qr_scan", "ios": "https://dc.lft.to/lastmile_qr_scan"}, "fusion_lon": 0.0},