{"data": {"bikes": [{"rental_uris": {"ios": "https://dc.lft.to/lastmile_qr_scan", "android": "https://dc.lft.to/lastmile_qr_scan"}, "lon": -76.97618783333333, "type": "electric_bike", "fusion_lat": 0.0, "lat": 38.89578566666667, "name": "05d8983b80beb6b8bda61535e71cb069", "fusion_lon": 0.0, "bike_id": "05d8983b80beb6b8bda61535e71cb069", "is_disabled": 0, "is_reserved": 0}, {"rental_uris": {"ios": "https://dc.lft.to/lastmile_qr_scan", "android": "https://dc.lft.to/lastmile_qr_scan"}, "lon": -77.0350095, "type": "electric_scooter", "fusion_lat": 0.0, "lat": 38.90362966666667, "name": "362b96e79867763f4feee6a5dc01956f", "fusion_lon": 0.0, "bike_id": "362b96e79867763f4feee6a5dc01956f", "is_disabled": 0, "is_reserved": 0}, {"rental_uris": {"ios": "https://dc.lft.to/lastmile_qr_scan", "android": "https://dc.lft.to/lastmile_qr_scan"}, "lon": -77.04668933333333, "type": "electric_scooter", "fusion_lat": 0.0, "lat": 38.913153333333334, "name": "32db912fbf37173b778cba695906a670", "fusion_lon": 0.0, "bike_id": "32db912fbf37173b778cba695906a670", "is_disabled": 0, "is_reserved": 0}, {"rental_uris": {"ios": "https://dc.lft.to/lastmile_qr_scan", "android": "https://dc.lft.to/lastmile_qr_scan"}, "lon": -77.0329865, "type": "electric_scooter", "fusion_lat": 0.0, "lat": 38.90486583333333, "name": "9dbb80d7a3e72647a2885f89580da1b3", "fusion_lon": 0.0, "bike_id": "9dbb80d7a3e72647a2885f89580da1b3", "is_disabled": 0, "is_reserved": 0}, {"rental_uris": {"ios": "https://dc.lft.to/lastmile_qr_scan", "android": "https://dc.lft.to/lastmile_qr_scan"}, "lon": -77.01077866666667, "type": "electric_scooter", "fusion_lat": 0.0, "lat": 38.894995, "name": "5e84503cb9c3a5752ecf75a382d9f987", "fusion_lon": 0.0, "bike_id": "5e84503cb9c3a5752ecf75a382d9f987", "is_disabled": 0, "is_reserved": 0}, {"rental_uris": {"ios": "https://dc.lft.to/lastmile_qr_scan", "android": "https://dc.lft.to/lastmile_qr_scan"}, "lon": -77.012085, "type": "electric_scooter", "fusion_lat": 0.0, "lat": 38.87090933333333, "name": "40db743d1adcb3e7606e695877f8cfdd", "fusion_lon": 0.0, "bike_id": "40db743d1adcb3e7606e695877f8cfdd", "is_disabled": 0, "is_reserved": 0}, {"rental_uris": {"ios": "https://dc.lft.to/lastmile_qr_scan", "android": "https://dc.lft.to/lastmile_qr_scan"}, "lon": -77.04182733333333, "type": "electric_scooter", "fusion_lat": 0.0, "lat": 38.90550483333333, "name": "77ef13437721463881b26146b7e8d392", "fusion_lon": 0.0, "bike_id": "77ef13437721463881b26146b7e8d392", "is_disabled": 0, "is_reserved": 0}, {"rental_uris": {"ios": "https://dc.lft.to/lastmile_qr_scan", "android": "https://dc.lft.to/lastmile_qr_scan"}, "lon": -77.0187465, "type": "electric_scooter", "fusion_lat": 0.0, "lat": 38.91576366666666, "name": "d951b799e071853b9181b13d55448754", "fusion_lon": 0.0, "bike_id": "d951b799e071853b9181b13d55448754", "is_disabled": 0, "is_reserved": 0}, {"rental_uris": {"ios": "https://dc.lft.to/lastmile_qr_scan", "android": "https://dc.lft.to/lastmile_qr_scan"}, "lon": -77.01946616666666, "type": "electric_scooter", "fusion_lat": 0.0, "lat": 38.90359433333333, "name": "8773747b817ac18fb7186d0489cbe01b", "fusion_lon": 0.0, "bike_id": "8773747b817ac18fb7186d0489cbe01b", "is_disabled": 0, "is_reserved": 0}, {"rental_uris": {"ios": "https://dc.lft.to/lastmile_qr_scan", "android": "https://dc.lft.to/lastmile_qr_scan"}, "lon": -77.04112783333333, "type": "electric_scooter", "fusion_lat": 0.0, "lat": 38.9244535, "name": "2345064149632bd005a1aeb2ac44129d", "fusion_lon": 0.0, "bike_id": "2345064149632bd005a1aeb2ac44129d", "is_disabled": 0, "is_reserved": 0}, {"rental_uris": {"ios": "https://dc.lft.to/lastmile_qr_scan", "android": "https://dc.lft.to/lastmile_qr_scan"}, "lon": -77.078973, "type": "electric_scooter", "fusion_lat": 0.0, "lat": 38.91927233333333, "name": "874421d78d8ac34df94a333f7cb3469d", "fusion_lon": 0.0, "bike_id": "874421d78d8ac34df94a333f7cb3469d", "is_disabled": 0, "is_reserved": 0}, {"rental_uris": {"ios": "https://dc.lft.to/lastmile_qr_scan", "android": "https://dc.lft.to/lastmile_qr_scan"}, "lon": -77.03449183333333, "type": "electric_scooter", "fusion_lat": 0.0, "lat": 38.90948866666667, "name": "8470e07b0111e823fa817334e60cc917", "fusion_lon": 0.0, "bike_id": "8470e07b0111e823fa817334e60cc917", "is_disabled": 0, "is_reserved": 0}, {"rental_uris": {"ios": "https://dc.lft.to/lastmile_qr_scan", "android": "https://dc.lft.to/lastmile_qr_scan"}, "lon": -77.002521, "type": "electric_scooter", "fusion_lat": 0.0, "lat": 38.912727, "name": "0b4f2d928f2061aa51eb8a6ea1ad3a17", "fusion_lon": 0.0, "bike_id": "0b4f2d928f2061aa51eb8a6ea1ad3a17", "is_disabled": 0, "is_reserved": 0}, {"rental_uris": {"ios": "https://dc.lft.to/lastmile_qr_scan", "android": "https://dc.lft.to/lastmile_qr_scan"}, "lon": -77.034178, "type": "electric_scooter", "fusion_lat": 0.0, "lat": 38.903402166666666, "name": "1371cc2cd5125ee6e7205114d7f91006", "fusion_lon": 0.0, "bike_id": "1371cc2cd5125ee6e7205114d7f91006", "is_disabled": 0, "is_reserved": 0}, {"rental_uris": {"ios": "https://dc.lft.to/lastmile_qr_scan", "android": "https://dc.lft.to/lastmile_qr_scan"}, "lon": -77.032639, "type": "electric_scooter", "fusion_lat": 0.0, "lat": 38.927425, "name": "129cd5b26f23fdcc60e6f6266fe776d8", "fusion_lon": 0.0, "bike_id": "129cd5b26f23fdcc60e6f6266fe776d8", "is_disabled": 0, "is_reserved": 0}, {"rental_uris": {"ios": "https://dc.lft.to/lastmile_qr_scan", "android": "https://dc.lft.to/lastmile_qr_scan"}, "lon": -76.93717766666667, "type": "electric_scooter", "fusion_lat": 0.0, "lat": 38.89587616666667, "name": "9fc1bb1cac921d694640a5329a52ec25", "fusion_lon": 0.0, "bike_id": "9fc1bb1cac921d694640a5329a52ec25", "is_disabled": 0, "is_reserved": 0}, {"rental_uris": {"ios": "https://dc.lft.to/lastmile_qr_scan", "android": "https://dc.lft.to/lastmile_qr_scan"}, "lon": -77.0296445, "type": "electric_scooter", "fusion_lat": 0.0, "lat": 38.923285, "name": "4a023114f4aa14d5c1665420e6bb78d7", "fusion_lon": 0.0, "bike_id": "4a023114f4aa14d5c1665420e6bb78d7", "is_disabled": 0, "is_reserved": 0}, {"rental_uris": {"ios": "https://dc.lft.to/lastmile_qr_scan", "android": "https://dc.lft.to/lastmile_qr_scan"}, "lon": -76.97410633333334, "type": "electric_scooter", "fusion_lat": 0.0, "lat": 38.90154616666667, "name": "3810ac05c2a2bbd659a36c7847a35811", "fusion_lon": 0.0, "bike_id": "3810ac05c2a2bbd659a36c7847a35811", "is_disabled": 0, "is_reserved": 0}, {"rental_uris": {"ios": "https://dc.lft.to/lastmile_qr_scan", "android": "https://dc.lft.to/lastmile_qr_scan"}, "lon": -77.1122505, "type": "electric_bike", "fusion_lat": 0.0, "lat": 38.828782, "name": "44347d17d14ef93df8fa8e87d270b20b", "fusion_lon": 0.0, "bike_id": "44347d17d14ef93df8fa8e87d270b20b", "is_disabled": 0, "is_reserved": 0}, {"rental_uris": {"ios": "https://dc.lft.to/lastmile_qr_scan", "android": "https://dc.lft.to/lastmile_qr_scan"}, "lon": -77.0335265, "type": "electric_scooter", "fusion_lat": 0.0, "lat": 38.92440783333333, "name": "e018e571314feaac98d171c8e00c96cb", "fusion_lon": 0.0, "bike_id": "e018e571314feaac98d171c8e00c96cb", "is_disabled": 0, "is_reserved": 0}, {"rental_uris": {"ios": "https://dc.lft.to/lastmile_qr_scan", "android": "https://dc.lft.to/lastmile_qr_scan"}, "lon": -77.047465, "type": "electric_scooter", "fusion_lat": 0.0, "lat": 38.902479, "name": "5bd1068451138bbc8720389bfbf22ba2", "fusion_lon": 0.0, "bike_id": "5bd1068451138bbc8720389bfbf22ba2", "is_disabled": 0, "is_reserved": 0}, {"rental_uris": {"ios": "https://dc.lft.to/lastmile_qr_scan", "android": "https://dc.lft.to/lastmile_qr_scan"}, "lon": -76.93542116666667, "type": "electric_bike", "fusion_lat": 0.0, "lat": 38.95537366666667, "name": "96cf84d1c542628d27b3ba543fefdf1e", "fusion_lon": 0.0, "bike_id": "96cf84d1c542628d27b3ba543fefdf1e", "is_disabled": 0, "is_reserved": 0}, {"rental_uris": {"ios": "https://dc.lft.to/lastmile_qr_scan", "android": "https://dc.lft.to/lastmile_qr_scan"}, "lon": -77.07684, "type": "electric_bike", "fusion_lat": 0.0, "lat": 38.83192966666667, "name": "ed240eae0e04c8fdce1b40a6389ca346", "fusion_lon": 0.0, "bike_id": "ed240eae0e04c8fdce1b40a6389ca346", "is_disabled": 0, "is_reserved": 0}, {"rental_uris": {"ios": "https://dc.lft.to/lastmile_qr_scan", "android": "https://dc.lft.to/lastmile_qr_scan"}, "lon": -77.05002233333333, "type": "electric_scooter", "fusion_lat": 0.0, "lat": 38.89898516666667, "name": "4c0e438420749103ed6f90dcb1e5a5e4", "fusion_lon": 0.0, "bike_id": "4c0e438420749103ed6f90dcb1e5a5e4", "is_disabled": 0, "is_reserved": 0}, {"rental_uris": {"ios": "https://dc.lft.to/lastmile_qr_scan", "android": "https://dc.lft.to/lastmile_qr_scan"}, "lon": -77.02610633333333, "type": "electric_scooter", "fusion_lat": 0.0, "lat": 38.90345033333333, "name": "ae7e7badb7f50981fee6ba6bc9deac5b", "fusion_lon": 0.0, "bike_id": "ae7e7badb7f50981fee6ba6bc9deac5b", "is_disabled": 0, "is_reserved": 0}, {"rental_uris": {"ios": "https://dc.lft.to/lastmile_qr_scan", "android": "https://dc.lft.to/lastmile_qr_scan"}, "lon": -77.0422, "type": "electric_scooter", "fusion_lat": 0.0, "lat": 38.90737133333333, "name": "7dd133afe4dfb1bd6d94e747c454b9bc", "fusion_lon": 0.0, "bike_id": "7dd133afe4dfb1bd6d94e747c454b9bc", "is_disabled": 0, "is_reserved": 0}, {"rental_uris": {"ios": "https://dc.lft.to/lastmile_qr_scan", "android": "https://dc.lft.to/lastmile_qr_scan"}, "lon": -77.122614, "type": "electric_bike", "fusion_lat": 0.0, "lat": 38.891919666666666, "name": "3a95c4f451ac0f895c607e26d3cc783d", "fusion_lon": 0.0, "bike_id": "3a95c4f451ac0f895c607e26d3cc783d", "is_disabled": 0, "is_reserved": 0}, {"rental_uris": {"ios": "https://dc.lft.to/lastmile_qr_scan", "android": "https://dc.lft.to/lastmile_qr_scan"}, "lon": -77.02405866666666, "type": "electric_scooter", "fusion_lat": 0.0, "lat": 38.9160375, "name": "86d2b98ddbd78881629c86ec25b59eb1", "fusion_lon": 0.0, "bike_id": "86d2b98ddbd78881629c86ec25b59eb1", "is_disabled": 0, "is_reserved": 0}, {"rental_uris": {"ios": "https://dc.lft.to/lastmile_qr_scan", "android": "https://dc.lft.to/lastmile_qr_scan"}, "lon": -77.04154916666667, "type": "electric_scooter", "fusion_lat": 0.0, "lat": 38.91931566666667, "name": "6d3301db4a417782f2bce3a26be4948d", "fusion_lon": 0.0, "bike_id": "6d3301db4a417782f2bce3a26be4948d", "is_disabled": 0, "is_reserved": 0}, {"rental_uris": {"ios": "https://dc.lft.to/lastmile_qr_scan", "android": "https://dc.lft.to/lastmile_qr_scan"}, "lon": -77.01776033333333, "type": "electric_scooter", "fusion_lat": 0.0, "lat": 38.90038466666667, "name": "549c7bd2fa41f40b6941e900c7d09f65", "fusion_lon": 0.0, "bike_id": "549c7bd2fa41f40b6941e900c7d09f65", "is_disabled": 0, "is_reserved": 0}, {"rental_uris": {"ios": "https://dc.lft.to/lastmile_qr_scan", "android": "https://dc.lft.to/lastmile_qr_scan"}, "lon": -77.00989216666666, "type": "electric_scooter", "fusion_lat": 0.0, "lat": 38.914871, "name": "d1c70483e8b1ab77e343f0d1495dcfe6", "fusion_lon": 0.0, "bike_id": "d1c70483e8b1ab77e343f0d1495dcfe6", "is_disabled": 0, "is_reserved": 0}, {"rental_uris": {"ios": "https://dc.lft.to/lastmile_qr_scan", "android": "https://dc.lft.to/lastmile_qr_scan"}, "lon": -76.96626933333333, "type": "electric_bike", "fusion_lat": 0.0, "lat": 38.94203266666667, "name": "df7d2d71dd78ed5a1bc37275af43625b", "fusion_lon": 0.0, "bike_id": "df7d2d71dd78ed5a1bc37275af43625b", "is_disabled": 0, "is_reserved": 0}, {"rental_uris": {"ios": "https://dc.lft.to/lastmile_qr_scan", "android": "https://dc.lft.to/lastmile_qr_scan"}, "lon": -77.02183216666667, "type": "electric_scooter", "fusion_lat": 0.0, "lat": 38.915685833333335, "name": "240d4c793449c3902365b7e4084ff923", "fusion_lon": 0.0, "bike_id": "240d4c793449c3902365b7e4084ff923", "is_disabled": 0, "is_reserved": 0}, {"rental_uris": {"ios": "https://dc.lft.to/lastmile_qr_scan", "android": "https://dc.lft.to/lastmile_qr_scan"}, "lon": -77.03569016666667, "type": "electric_scooter", "fusion_lat": 0.0, "lat": 38.908678, "name": "2793906fb480f6741eb6ac60b271cf62", "fusion_lon": 0.0, "bike_id": "2793906fb480f6741eb6ac60b271cf62", "is_disabled": 0, "is_reserved": 0}, {"rental_uris": {"ios": "https://dc.lft.to/lastmile_qr_scan", "android": "https://dc.lft.to/lastmile_qr_scan"}, "lon": -77.01053183333333, "type": "electric_scooter", "fusion_lat": 0.0, "lat": 38.8793525, "name": "d1101c669c5402b0fb0110d5190842f9", "fusion_lon": 0.0, "bike_id": "d1101c669c5402b0fb0110d5190842f9", "is_disabled": 0, "is_reserved": 0}, {"rental_uris": {"ios": "https://dc.lft.to/lastmile_qr_scan", "android": "https://dc.lft.to/lastmile_qr_scan"}, "lon": -77.04248983333333, "type": "electric_scooter", "fusion_lat": 0.0, "lat": 38.922936, "name": "ffc100503ffc7f482353808fe78eb7b5", "fusion_lon": 0.0, "bike_id": "ffc100503ffc7f482353808fe78eb7b5", "is_disabled": 0, "is_reserved": 0}, {"rental_uris": {"ios": "https://dc.lft.to/lastmile_qr_scan", "android": "https://dc.lft.to/lastmile_qr_scan"}, "lon": -77.067589, "type": "electric_scooter", "fusion_lat": 0.0, "lat": 38.915646833333334, "name": "e3640920808ef105103f91582bc1c3ae", "fusion_lon": 0.0, "bike_id": "e3640920808ef105103f91582bc1c3ae", "is_disabled": 0, "is_reserved": 0}, {"rental_uris": {"ios": "https://dc.lft.to/lastmile_qr_scan", "android": "https://dc.lft.to/lastmile_qr_scan"}, "lon": -77.02119683333333, "type": "electric_scooter", "fusion_lat": 0.0, "lat": 38.91323833333333, "name": "63e53de2dee1270a0961543648a0af97", "fusion_lon": 0.0, "bike_id": "63e53de2dee1270a0961543648a0af97", "is_disabled": 0, "is_reserved": 0}, {"rental_uris": {"ios": "https://dc.lft.to/lastmile_qr_scan", "android": "https://dc.lft.to/lastmile_qr_scan"}, "lon": -77.02593916666666, "type": "electric_scooter", "fusion_lat": 0.0, "lat": 38.8960375, "name": "32e23efb34bd269dc971d10215342e57", "fusion_lon": 0.0, "bike_id": "32e23efb34bd269dc971d10215342e57", "is_disabled": 0, "is_reserved": 0}, {"rental_uris": {"ios": "https://dc.lft.to/lastmile_qr_scan", "android": "https://dc.lft.to/lastmile_qr_scan"}, "lon": -77.01112, "type": "electric_scooter", "fusion_lat": 0.0, "lat": 38.9078675, "name": "fe951fcc6614a9a7c77fd449f93ff7f3", "fusion_lon": 0.0, "bike_id": "fe951fcc6614a9a7c77fd449f93ff7f3", "is_disabled": 0, "is_reserved": 0}, {"rental_uris": {"ios": "https://dc.lft.to/lastmile_qr_scan", "android": "https://dc.lft.to/lastmile_qr_scan"}, "lon": -77.0227765, "type": "electric_scooter", "fusion_lat": 0.0, "lat": 38.9165485, "name": "18256a10605c159a76fc1a5ca6e34356", "fusion_lon": 0.0, "bike_id": "18256a10605c159a76fc1a5ca6e34356", "is_disabled": 0, "is_reserved": 0}, {"rental_uris": {"ios": "https://dc.lft.to/lastmile_qr_scan", "android": "https://dc.lft.to/lastmile_qr_scan"}, "lon": -76.93751633333333, "type": "electric_scooter", "fusion_lat": 0.0, "lat": 38.89047933333333, "name": "0a248abb506c37465abe8ab12c0e1a12", "fusion_lon": 0.0, "bike_id": "0a248abb506c37465abe8ab12c0e1a12", "is_disabled": 0, "is_reserved": 0}, {"rental_uris": {"ios": "https://dc.lft.to/lastmile_qr_scan", "android": "https://dc.lft.to/lastmile_qr_scan"}, "lon": -77.0239525, "type": "electric_scooter", "fusion_lat": 0.0, "lat": 38.95289066666667, "name": "da04e9e4730924547cf05aa225ea7bea", "fusion_lon": 0.0, "bike_id": "da04e9e4730924547cf05aa225ea7bea", "is_disabled": 0, "is_reserved": 0}, {"rental_uris": {"ios": "https://dc.lft.to/lastmile_qr_scan", "android": "https://dc.lft.to/lastmile_qr_scan"}, "lon": -77.026521, "type": "electric_scooter", "fusion_lat": 0.0, "lat": 38.93866883333333, "name": "2d12283658e8a32e3da280424bfea5ca", "fusion_lon": 0.0, "bike_id": "2d12283658e8a32e3da280424bfea5ca", "is_disabled": 0, "is_reserved": 0}, {"rental_uris": {"ios": "https://dc.lft.to/lastmile_qr_scan", "android": "https://dc.lft.to/lastmile_qr_scan"}, "lon": -77.02594266666667, "type": "electric_scooter", "fusion_lat": 0.0, "lat": 38.9150065, "name": "4c959d6d4ea945679e789a57de2c1e02", "fusion_lon": 0.0, "bike_id": "4c959d6d4ea945679e789a57de2c1e02", "is_disabled": 0, "is_reserved": 0}, {"rental_uris": {"ios": "https://dc.lft.to/lastmile_qr_scan", "android": "https://dc.lft.to/lastmile_qr_scan"}, "lon": -77.04151366666666, "type": "electric_scooter", "fusion_lat": 0.0, "lat": 38.907245833333334, "name": "4f0d3924b4defa2e91309ef3d418e97f", "fusion_lon": 0.0, "bike_id": "4f0d3924b4defa2e91309ef3d418e97f", "is_disabled": 0, "is_reserved": 0}, {"rental_uris": {"ios": "https://dc.lft.to/lastmile_qr_scan", "android": "https://dc.lft.to/lastmile_qr_scan"}, "lon": -76.972021, "type": "electric_scooter", "fusion_lat": 0.0, "lat": 38.854976, "name": "18217393e3521e18a672438236ac9c0b", "fusion_lon": 0.0, "bike_id": "18217393e3521e18a672438236ac9c0b", "is_disabled": 0, "is_reserved": 0}, {"rental_uris": {"ios": "https://dc.lft.to/lastmile_qr_scan", "android": "https://dc.lft.to/lastmile_qr_scan"}, "lon": -76.94629883333333, "type": "electric_bike", "fusion_lat": 0.0, "lat": 38.946245833333336, "name": "305de66028b69ab99146d4dce820f0f3", "fusion_lon": 0.0, "bike_id": "305de66028b69ab99146d4dce820f0f3", "is_disabled": 0, "is_reserved": 0}, {"rental_uris": {"ios": "https://dc.lft.to/lastmile_qr_scan", "android": "https://dc.lft.to/lastmile_qr_scan"}, "lon": -76.99142, "type": "electric_scooter", "fusion_lat": 0.0, "lat": 38.8859215, "name": "9374820c2ee32b8932409a3258cdfd06", "fusion_lon": 0.0, "bike_id": "9374820c2ee32b8932409a3258cdfd06", "is_disabled": 0, "is_reserved": 0}, {"rental_uris": {"ios": "https://dc.lft.to/lastmile_qr_scan", "android": "https://dc.lft.to/lastmile_qr_scan"}, "lon": -77.022037, "type": "electric_scooter", "fusion_lat": 0.0, "lat": 38.90776183333333, "name": "11e180f94062e2f2e0f74dc135608e70", "fusion_lon": 0.0, "bike_id": "11e180f94062e2f2e0f74dc135608e70", "is_disabled": 0, "is_reserved": 0}, {"rental_uris": {"ios": "https://dc.lft.to/lastmile_qr_scan", "android": "https://dc.lft.to/lastmile_qr_scan"}, "lon": -77.0403745, "type": "electric_scooter", "fusion_lat": 0.0, "lat": 38.90490966666667, "name": "b5afdfd61974b88d1b93cfe25168e368", "fusion_lon": 0.0, "bike_id": "b5afdfd61974b88d1b93cfe25168e368", "is_disabled": 0, "is_reserved": 0}, {"rental_uris": {"ios": "https://dc.lft.to/lastmile_qr_scan", "android": "https://dc.lft.to/lastmile_qr_scan"}, "lon": -77.03634433333333, "type": "electric_scooter", "fusion_lat": 0.0, "lat": 38.93713966666667, "name": "cbbd4b4f7fe27b18b44d3691aec4c385", "fusion_lon": 0.0, "bike_id": "cbbd4b4f7fe27b18b44d3691aec4c385", "is_disabled": 0, "is_reserved": 0}, {"rental_uris": {"ios": "https://dc.lft.to/lastmile_qr_scan", "android": "https://dc.lft.to/lastmile_qr_scan"}, "lon": -77.07153533333333, "type": "electric_scooter", "fusion_lat": 0.0, "lat": 38.90741666666667, "name": "b4705be8dfd614f5c1e72fa70d89848f", "fusion_lon": 0.0, "bike_id": "b4705be8dfd614f5c1e72fa70d89848f", "is_disabled": 0, "is_reserved": 0}, {"rental_uris": {"ios": "https://dc.lft.to/lastmile_qr_scan", "android": "https://dc.lft.to/lastmile_qr_scan"}, "lon": -77.027016, "type": "electric_scooter", "fusion_lat": 0.0, "lat": 38.9093765, "name": "201810e4d05ea57f37d2319cd0c3764b", "fusion_lon": 0.0, "bike_id": "201810e4d05ea57f37d2319cd0c3764b", "is_disabled": 0, "is_reserved": 0}, {"rental_uris": {"ios": "https://dc.lft.to/lastmile_qr_scan", "android": "https://dc.lft.to/lastmile_qr_scan"}, "lon": -77.0427015, "type": "electric_scooter", "fusion_lat": 0.0, "lat": 38.93414833333333, "name": "1d2907481ef3e4615707457e46291702", "fusion_lon": 0.0, "bike_id": "1d2907481ef3e4615707457e46291702", "is_disabled": 0, "is_reserved": 0}, {"rental_uris": {"ios": "https://dc.lft.to/lastmile_qr_scan", "android": "https://dc.lft.to/lastmile_qr_scan"}, "lon": -77.032052, "type": "electric_scooter", "fusion_lat": 0.0, "lat": 38.89388116666667, "name": "2c9153815a12916cf7c05fbc485b47b8", "fusion_lon": 0.0, "bike_id": "2c9153815a12916cf7c05fbc485b47b8", "is_disabled": 0, "is_reserved": 0}, {"rental_uris": {"ios": "https://dc.lft.to/lastmile_qr_scan", "android": "https://dc.lft.to/lastmile_qr_scan"}, "lon": -76.9551725, "type": "electric_scooter", "fusion_lat": 0.0, "lat": 38.890552666666665, "name": "f6c47204c61edc5128ea771e64ba840f", "fusion_lon": 0.0, "bike_id": "f6c47204c61edc5128ea771e64ba840f", "is_disabled": 0, "is_reserved": 0}, {"rental_uris": {"ios": "https://dc.lft.to/lastmile_qr_scan", "android": "https://dc.lft.to/lastmile_qr_scan"}, "lon": -77.03954566666667, "type": "electric_scooter", "fusion_lat": 0.0, "lat": 38.89243316666666, "name": "8f4cd1950155beb01e42d8ea7773ff5a", "fusion_lon": 0.0, "bike_id": "8f4cd1950155beb01e42d8ea7773ff5a", "is_disabled": 0, "is_reserved": 0}, {"rental_uris": {"ios": "https://dc.lft.to/lastmile_qr_scan", "android": "https://dc.lft.to/lastmile_qr_scan"}, "lon": -77.03429583333333, "type": "electric_scooter", "fusion_lat": 0.0, "lat": 38.912581833333334, "name": "5b3c80b1c75c189012d20df97f023a60", "fusion_lon": 0.0, "bike_id": "5b3c80b1c75c189012d20df97f023a60", "is_disabled": 0, "is_reserved": 0}, {"rental_uris": {"ios": "https://dc.lft.to/lastmile_qr_scan", "android": "https://dc.lft.to/lastmile_qr_scan"}, "lon": -76.98564, "type": "electric_bike", "fusion_lat": 0.0, "lat": 38.8689045, "name": "d66e6f5aac1afadbb56813cab7d02691", "fusion_lon": 0.0, "bike_id": "d66e6f5aac1afadbb56813cab7d02691", "is_disabled": 0, "is_reserved": 0}, {"rental_uris": {"ios": "https://dc.lft.to/lastmile_qr_scan", "android": "https://dc.lft.to/lastmile_qr_scan"}, "lon": -77.05160116666667, "type": "electric_scooter", "fusion_lat": 0.0, "lat": 38.90584033333333, "name": "fbd5c6bd9d04ba69af38d717db48bcf1", "fusion_lon": 0.0, "bike_id": "fbd5c6bd9d04ba69af38d717db48bcf1", "is_disabled": 0, "is_reserved": 0}, {"rental_uris": {"ios": "https://dc.lft.to/lastmile_qr_scan", "android": "https://dc.lft.to/lastmile_qr_scan"}, "lon": -76.998876, "type": "electric_scooter", "fusion_lat": 0.0, "lat": 38.90753383333333, "name": "c8c58eeb1e9311288be4ef317669bc5a", "fusion_lon": 0.0, "bike_id": "c8c58eeb1e9311288be4ef317669bc5a", "is_disabled": 0, "is_reserved": 0}, {"rental_uris": {"ios": "https://dc.lft.to/lastmile_qr_scan", "android": "https://dc.lft.to/lastmile_qr_scan"}, "lon": -77.05526966666666, "type": "electric_scooter", "fusion_lat": 0.0, "lat": 38.899226666666664, "name": "1e70f374c7629dc8f1853f5083c49514", "fusion_lon": 0.0, "bike_id": "1e70f374c7629dc8f1853f5083c49514", "is_disabled": 0, "is_reserved": 0}, {"rental_uris": {"ios": "https://dc.lft.to/lastmile_qr_scan", "android": "https://dc.lft.to/lastmile_qr_scan"}, "lon": -77.02475816666667, "type": "electric_scooter", "fusion_lat": 0.0, "lat": 38.918159, "name": "e89786cbe23ed23e4a11cc33fb2a8b66", "fusion_lon": 0.0, "bike_id": "e89786cbe23ed23e4a11cc33fb2a8b66", "is_disabled": 0, "is_reserved": 0}, {"rental_uris": {"ios": "https://dc.lft.to/lastmile_qr_scan", "android": "https://dc.lft.to/lastmile_qr_scan"}, "lon": -76.8781965, "type": "electric_bike", "fusion_lat": 0.0, "lat": 38.99227, "name": "697dfd118fab4d43b09b6e63efd03370", "fusion_lon": 0.0, "bike_id": "697dfd118fab4d43b09b6e63efd03370", "is_disabled": 0, "is_reserved": 0}, {"rental_uris": {"ios": "https://dc.lft.to/lastmile_qr_scan", "android": "https://dc.lft.to/lastmile_qr_scan"}, "lon": -77.10733166666667, "type": "electric_bike", "fusion_lat": 0.0, "lat": 38.855815166666666, "name": "e5728e5609cd8e2847837bad6a443fa7", "fusion_lon": 0.0, "bike_id": "e5728e5609cd8e2847837bad6a443fa7", "is_disabled": 0, "is_reserved": 0}, {"rental_uris": {"ios": "https://dc.lft.to/lastmile_qr_scan", "android": "https://dc.lft.to/lastmile_qr_scan"}, "lon": -77.02145566666667, "type": "electric_bike", "fusion_lat": 0.0, "lat": 38.94807816666667, "name": "7750f30a63566605c9f6122b878214e0", "fusion_lon": 0.0, "bike_id": "7750f30a63566605c9f6122b878214e0", "is_disabled": 0, "is_reserved": 0}, {"rental_uris": {"ios": "https://dc.lft.to/lastmile_qr_scan", "android": "https://dc.lft.to/lastmile_qr_scan"}, "lon": -76.94634983333333, "type": "electric_scooter", "fusion_lat": 0.0, "lat": 38.898337166666664, "name": "ae848b4156c499246d21923d458a6ee3", "fusion_lon": 0.0, "bike_id": "ae848b4156c499246d21923d458a6ee3", "is_disabled": 0, "is_reserved": 0}, {"rental_uris": {"ios": "https://dc.lft.to/lastmile_qr_scan", "android": "https://dc.lft.to/lastmile_qr_scan"}, "lon": -77.03788416666667, "type": "electric_scooter", "fusion_lat": 0.0, "lat": 38.92630183333333, "name": "b1e5868c8d1ffd038e9b65a5e00e8963", "fusion_lon": 0.0, "bike_id": "b1e5868c8d1ffd038e9b65a5e00e8963", "is_disabled": 0, "is_reserved": 0}, {"rental_uris": {"ios": "https://dc.lft.to/lastmile_qr_scan", "android": "https://dc.lft.to/lastmile_qr_scan"}, "lon": -76.97612733333334, "type": "electric_scooter", "fusion_lat": 0.0, "lat": 38.903834, "name": "f7c142f0c89bfa0232835931da83fe5f", "fusion_lon": 0.0, "bike_id": "f7c142f0c89bfa0232835931da83fe5f", "is_disabled": 0, "is_reserved": 0}, {"rental_uris": {"ios": "https://dc.lft.to/lastmile_qr_scan", "android": "https://dc.lft.to/lastmile_qr_scan"}, "lon": -76.97750016666667, "type": "electric_scooter", "fusion_lat": 0.0, "lat": 38.900150833333335, "name": "522790c9e1aea33e06bd37ab31df7507", "fusion_lon": 0.0, "bike_id": "522790c9e1aea33e06bd37ab31df7507", "is_disabled": 0, "is_reserved": 0}, {"rental_uris": {"ios": "https://dc.lft.to/lastmile_qr_scan", "android": "https://dc.lft.to/lastmile_qr_scan"}, "lon": -77.03830966666666, "type": "electric_scooter", "fusion_lat": 0.0, "lat": 38.9217075, "name": "289bae21895281151fc2c6924ec3e2ed", "fusion_lon": 0.0, "bike_id": "289bae21895281151fc2c6924ec3e2ed", "is_disabled": 0, "is_reserved": 0}, {"rental_uris": {"ios": "https://dc.lft.to/lastmile_qr_scan", "android": "https://dc.lft.to/lastmile_qr_scan"}, "lon": -76.9856655, "type": "electric_scooter", "fusion_lat": 0.0, "lat": 38.86148716666667, "name": "7b2ab39637a75a9bc32d636f405a4277", "fusion_lon": 0.0, "bike_id": "7b2ab39637a75a9bc32d636f405a4277", "is_disabled": 0, "is_reserved": 0}, {"rental_uris": {"ios": "https://dc.lft.to/lastmile_qr_scan", "android": "https://dc.lft.to/lastmile_qr_scan"}, "lon": -77.031801, "type": "electric_scooter", "fusion_lat": 0.0, "lat": 38.907915333333335, "name": "351716f187fb0ad276cdcb66f4ecf589", "fusion_lon": 0.0, "bike_id": "351716f187fb0ad276cdcb66f4ecf589", "is_disabled": 0, "is_reserved": 0}, {"rental_uris": {"ios": "https://dc.lft.to/lastmile_qr_scan", "android": "https://dc.lft.to/lastmile_qr_scan"}, "lon": -77.04325333333334, "type": "electric_scooter", "fusion_lat": 0.0, "lat": 38.926197333333334, "name": "c24d392b8cb2f71d8645225e86ce0ae0", "fusion_lon": 0.0, "bike_id": "c24d392b8cb2f71d8645225e86ce0ae0", "is_disabled": 0, "is_reserved": 0}, {"rental_uris": {"ios": "https://dc.lft.to/lastmile_qr_scan", "android": "https://dc.lft.to/lastmile_qr_scan"}, "lon": -77.04635183333333, "type": "electric_scooter", "fusion_lat": 0.0, "lat": 38.892235666666664, "name": "d0c3ac0689c49550f1a2e6bd2af60ce3", "fusion_lon": 0.0, "bike_id": "d0c3ac0689c49550f1a2e6bd2af60ce3", "is_disabled": 0, "is_reserved": 0}, {"rental_uris": {"ios": "https://dc.lft.to/lastmile_qr_scan", "android": "https://dc.lft.to/lastmile_qr_scan"}, "lon": -77.04031366666666, "type": "electric_bike", "fusion_lat": 0.0, "lat": 38.8041425, "name": "45f4f5a81741a059e0ec8e6186b9168c", "fusion_lon": 0.0, "bike_id": "45f4f5a81741a059e0ec8e6186b9168c", "is_disabled": 0, "is_reserved": 0}, {"rental_uris": {"ios": "https://dc.lft.to/lastmile_qr_scan", "android": "https://dc.lft.to/lastmile_qr_scan"}, "lon": -76.983726, "type": "electric_scooter", "fusion_lat": 0.0, "lat": 38.8603115, "name": "e516d57c700a138eab2ab78891ad3b74", "fusion_lon": 0.0, "bike_id": "e516d57c700a138eab2ab78891ad3b74", "is_disabled": 0, "is_reserved": 0}, {"rental_uris": {"ios": "https://dc.lft.to/lastmile_qr_scan", "android": "https://dc.lft.to/lastmile_qr_scan"}, "lon": -76.9750615, "type": "electric_bike", "fusion_lat": 0.0, "lat": 38.91934233333333, "name": "cba9a18fb231a4de8f160581b0ac1a30", "fusion_lon": 0.0, "bike_id": "cba9a18fb231a4de8f160581b0ac1a30", "is_disabled": 0, "is_reserved": 0}, {"rental_uris": {"ios": "https://dc.lft.to/lastmile_qr_scan", "android": "https://dc.lft.to/lastmile_qr_scan"}, "lon": -77.04256383333333, "type": "electric_scooter", "fusion_lat": 0.0, "lat": 38.90857333333334, "name": "af84fc83a78e3575826a1aa918f60b99", "fusion_lon": 0.0, "bike_id": "af84fc83a78e3575826a1aa918f60b99", "is_disabled": 0, "is_reserved": 0}, {"rental_uris": {"ios": "https://dc.lft.to/lastmile_qr_scan", "android": "https://dc.lft.to/lastmile_qr_scan"}, "lon": -76.97325083333334, "type": "electric_scooter", "fusion_lat": 0.0, "lat": 38.9303055, "name": "30098a2a3f5809641d9cf05ce879453b", "fusion_lon": 0.0, "bike_id": "30098a2a3f5809641d9cf05ce879453b", "is_disabled": 0, "is_reserved": 0}, {"rental_uris": {"ios": "https://dc.lft.to/lastmile_qr_scan", "android": "https://dc.lft.to/lastmile_qr_scan"}, "lon": -76.975614, "type": "electric_scooter", "fusion_lat": 0.0, "lat": 38.90443533333333, "name": "dac2b4ee28ef228ba2f49dc3269981df", "fusion_lon": 0.0, "bike_id": "dac2b4ee28ef228ba2f49dc3269981df", "is_disabled": 0, "is_reserved": 0}, {"rental_uris": {"ios": "https://dc.lft.to/lastmile_qr_scan", "android": "https://dc.lft.to/lastmile_qr_scan"}, "lon": -76.99600683333334, "type": "electric_scooter", "fusion_lat": 0.0, "lat": 38.88621, "name": "ca78691f66e91a24a2f75dca6325fb77", "fusion_lon": 0.0, "bike_id": "ca78691f66e91a24a2f75dca6325fb77", "is_disabled": 0, "is_reserved": 0}, {"rental_uris": {"ios": "https://dc.lft.to/lastmile_qr_scan", "android": "https://dc.lft.to/lastmile_qr_scan"}, "lon": -77.01092666666666, "type": "electric_scooter", "fusion_lat": 0.0, "lat": 38.915618, "name": "e8196260b667501ed62bf84dd12ac197", "fusion_lon": 0.0, "bike_id": "e8196260b667501ed62bf84dd12ac197", "is_disabled": 0, "is_reserved": 0}, {"rental_uris": {"ios": "https://dc.lft.to/lastmile_qr_scan", "android": "https://dc.lft.to/lastmile_qr_scan"}, "lon": -77.04495083333333, "type": "electric_scooter", "fusion_lat": 0.0, "lat": 38.9152675, "name": "abca0279ad73d011f941d47f5486fa80", "fusion_lon": 0.0, "bike_id": "abca0279ad73d011f941d47f5486fa80", "is_disabled": 0, "is_reserved": 0}, {"rental_uris": {"ios": "https://dc.lft.to/lastmile_qr_scan", "android": "https://dc.lft.to/lastmile_qr_scan"}, "lon": -77.00618416666667, "type": "electric_scooter", "fusion_lat": 0.0, "lat": 38.90253466666667, "name": "e2c38b08b3acecb9e117b628e7941f34", "fusion_lon": 0.0, "bike_id": "e2c38b08b3acecb9e117b628e7941f34", "is_disabled": 0, "is_reserved": 0}, {"rental_uris": {"ios": "https://dc.lft.to/lastmile_qr_scan", "android": "https://dc.lft.to/lastmile_qr_scan"}, "lon": -76.93112983333333, "type": "electric_scooter", "fusion_lat": 0.0, "lat": 38.89831566666667, "name": "609b7301376151c6e1cfbbca66c47dab", "fusion_lon": 0.0, "bike_id": "609b7301376151c6e1cfbbca66c47dab", "is_disabled": 0, "is_reserved": 0}, {"rental_uris": {"ios": "https://dc.lft.to/lastmile_qr_scan", "android": "https://dc.lft.to/lastmile_qr_scan"}, "lon": -77.01638683333333, "type": "electric_scooter", "fusion_lat": 0.0, "lat": 38.903751166666666, "name": "0df3f839de5ee6645d9ca26479e76a87", "fusion_lon": 0.0, "bike_id": "0df3f839de5ee6645d9ca26479e76a87", "is_disabled": 0, "is_reserved": 0}, {"rental_uris": {"ios": "https://dc.lft.to/lastmile_qr_scan", "android": "https://dc.lft.to/lastmile_qr_scan"}, "lon": -77.02689016666666, "type": "electric_scooter", "fusion_lat": 0.0, "lat": 38.89223033333333, "name": "b325f6ace856bf5b399d1c715d881593", "fusion_lon": 0.0, "bike_id": "b325f6ace856bf5b399d1c715d881593", "is_disabled": 0, "is_reserved": 0}, {"rental_uris": {"ios": "https://dc.lft.to/lastmile_qr_scan", "android": "https://dc.lft.to/lastmile_qr_scan"}, "lon": -76.99677733333333, "type": "electric_scooter", "fusion_lat": 0.0, "lat": 38.91010933333333, "name": "59ce5369bb8c9ce603e9fb2caa13416b", "fusion_lon": 0.0, "bike_id": "59ce5369bb8c9ce603e9fb2caa13416b", "is_disabled": 0, "is_reserved": 0}, {"rental_uris": {"ios": "https://dc.lft.to/lastmile_qr_scan", "android": "https://dc.lft.to/lastmile_qr_scan"}, "lon": -77.03205116666666, "type": "electric_scooter", "fusion_lat": 0.0, "lat": 38.9179065, "name": "e2e6085995aca05f1199d25bf9745576", "fusion_lon": 0.0, "bike_id": "e2e6085995aca05f1199d25bf9745576", "is_disabled": 0, "is_reserved": 0}, {"rental_uris": {"ios": "https://dc.lft.to/lastmile_qr_scan", "android": "https://dc.lft.to/lastmile_qr_scan"}, "lon": -77.0259045, "type": "electric_scooter", "fusion_lat": 0.0, "lat": 38.89248666666667, "name": "4b2da382be90316ff975ed28ee69b9d5", "fusion_lon": 0.0, "bike_id": "4b2da382be90316ff975ed28ee69b9d5", "is_disabled": 0, "is_reserved": 0}, {"rental_uris": {"ios": "https://dc.lft.to/lastmile_qr_scan", "android": "https://dc.lft.to/lastmile_qr_scan"}, "lon": -76.99563466666666, "type": "electric_scooter", "fusion_lat": 0.0, "lat": 38.928761333333334, "name": "2ce96773671fe2c6af67c28a98b013f6", "fusion_lon": 0.0, "bike_id": "2ce96773671fe2c6af67c28a98b013f6", "is_disabled": 0, "is_reserved": 0}, {"rental_uris": {"ios": "https://dc.lft.to/lastmile_qr_scan", "android": "https://dc.lft.to/lastmile_qr_scan"}, "lon": -76.93864633333334, "type": "electric_scooter", "fusion_lat": 0.0, "lat": 38.900839, "name": "062a3a905604205ab1df22a6456cb814", "fusion_lon": 0.0, "bike_id": "062a3a905604205ab1df22a6456cb814", "is_disabled": 0, "is_reserved": 0}, {"rental_uris": {"ios": "https://dc.lft.to/lastmile_qr_scan", "android": "https://dc.lft.to/lastmile_qr_scan"}, "lon": -76.9788605, "type": "electric_scooter", "fusion_lat": 0.0, "lat": 38.9167355, "name": "2f0f8c2949c2a439e33796742539ace3", "fusion_lon": 0.0, "bike_id": "2f0f8c2949c2a439e33796742539ace3", "is_disabled": 0, "is_reserved": 0}, {"rental_uris": {"ios": "https://dc.lft.to/lastmile_qr_scan", "android": "https://dc.lft.to/lastmile_qr_scan"}, "lon": -77.049457, "type": "electric_scooter", "fusion_lat": 0.0, "lat": 38.89650016666667, "name": "a09f51fd4b4655733ce1f27080e27605", "fusion_lon": 0.0, "bike_id": "a09f51fd4b4655733ce1f27080e27605", "is_disabled": 0, "is_reserved": 0}, {"rental_uris": {"ios": "https://dc.lft.to/lastmile_qr_scan", "android": "https://dc.lft.to/lastmile_qr_scan"}, "lon": -77.04659783333334, "type": "electric_scooter", "fusion_lat": 0.0, "lat": 38.90554216666666, "name": "751446e0da2895939ef1e3361f107491", "fusion_lon": 0.0, "bike_id": "751446e0da2895939ef1e3361f107491", "is_disabled": 0, "is_reserved": 0}, {"rental_uris": {"ios": "https://dc.lft.to/lastmile_qr_scan", "android": "https://dc.lft.to/lastmile_qr_scan"}, "lon": -77.02964383333334, "type": "electric_scooter", "fusion_lat": 0.0, "lat": 38.907801666666664, "name": "b4e8ac89a4c05e095923567aa746380b", "fusion_lon": 0.0, "bike_id": "b4e8ac89a4c05e095923567aa746380b", "is_disabled": 0, "is_reserved": 0}, {"rental_uris": {"ios": "https://dc.lft.to/lastmile_qr_scan", "android": "https://dc.lft.to/lastmile_qr_scan"}, "lon": -76.93160066666667, "type": "electric_scooter", "fusion_lat": 0.0, "lat": 38.898808833333334, "name": "2558234b5650368ec16efc54d27dc5eb", "fusion_lon": 0.0, "bike_id": "2558234b5650368ec16efc54d27dc5eb", "is_disabled": 0, "is_reserved": 0}, {"rental_uris": {"ios": "https://dc.lft.to/lastmile_qr_scan", "android": "https://dc.lft.to/lastmile_qr_scan"}, "lon": -76.98771916666666, "type": "electric_scooter", "fusion_lat": 0.0, "lat": 38.911767833333336, "name": "4666a1c1ade624e3fc1643784ddbea65", "fusion_lon": 0.0, "bike_id": "4666a1c1ade624e3fc1643784ddbea65", "is_disabled": 0, "is_reserved": 0}, {"rental_uris": {"ios": "https://dc.lft.to/lastmile_qr_scan", "android": "https://dc.lft.to/lastmile_qr_scan"}, "lon": -76.938093, "type": "electric_scooter", "fusion_lat": 0.0, "lat": 38.91306133333333, "name": "1d6613a9e1354fe6eceb5e062b357bcf", "fusion_lon": 0.0, "bike_id": "1d6613a9e1354fe6eceb5e062b357bcf", "is_disabled": 0, "is_reserved": 0}, {"rental_uris": {"ios": "https://dc.lft.to/lastmile_qr_scan", "android": "https://dc.lft.to/lastmile_qr_scan"}, "lon": -76.93523883333333, "type": "electric_scooter", "fusion_lat": 0.0, "lat": 38.908721, "name": "222a6b5b805e068bd1ce6fc9e17f2eac", "fusion_lon": 0.0, "bike_id": "222a6b5b805e068bd1ce6fc9e17f2eac", "is_disabled": 0, "is_reserved": 0}, {"rental_uris": {"ios": "https://dc.lft.to/lastmile_qr_scan", "android": "https://dc.lft.to/lastmile_qr_scan"}, "lon": -77.02839666666667, "type": "electric_scooter", "fusion_lat": 0.0, "lat": 38.887691333333336, "name": "807793074daf670d1d74c6849ffbb5d3", "fusion_lon": 0.0, "bike_id": "807793074daf670d1d74c6849ffbb5d3", "is_disabled": 0, "is_reserved": 0}, {"rental_uris": {"ios": "https://dc.lft.to/lastmile_qr_scan", "android": "https://dc.lft.to/lastmile_qr_scan"}, "lon": -77.036622, "type": "electric_scooter", "fusion_lat": 0.0, "lat": 38.922892166666664, "name": "991348af0ce1887a321a887c382bc3d4", "fusion_lon": 0.0, "bike_id": "991348af0ce1887a321a887c382bc3d4", "is_disabled": 0, "is_reserved": 0}, {"rental_uris": {"ios": "https://dc.lft.to/lastmile_qr_scan", "android": "https://dc.lft.to/lastmile_qr_scan"}, "lon": -77.04040083333334, "type": "electric_scooter", "fusion_lat": 0.0, "lat": 38.92562866666667, "name": "91d38cbf2029d2abdd4c3ec2e2255fe6", "fusion_lon": 0.0, "bike_id": "91d38cbf2029d2abdd4c3ec2e2255fe6", "is_disabled": 0, "is_reserved": 0}, {"rental_uris": {"ios": "https://dc.lft.to/lastmile_qr_scan", "android": "https://dc.lft.to/lastmile_qr_scan"}, "lon": -77.12744033333334, "type": "electric_bike", "fusion_lat": 0.0, "lat": 38.88822366666667, "name": "04b300b31f88e7f2ef2564c86947e4e4", "fusion_lon": 0.0, "bike_id": "04b300b31f88e7f2ef2564c86947e4e4", "is_disabled": 0, "is_reserved": 0}, {"rental_uris": {"ios": "https://dc.lft.to/lastmile_qr_scan", "android": "https://dc.lft.to/lastmile_qr_scan"}, "lon": -77.03170783333333, "type": "electric_scooter", "fusion_lat": 0.0, "lat": 38.89612016666667, "name": "4e9fefb2cfee4281e03dbdecf66dbbe8", "fusion_lon": 0.0, "bike_id": "4e9fefb2cfee4281e03dbdecf66dbbe8", "is_disabled": 0, "is_reserved": 0}, {"rental_uris": {"ios": "https://dc.lft.to/lastmile_qr_scan", "android": "https://dc.lft.to/lastmile_qr_scan"}, "lon": -77.06163866666667, "type": "electric_scooter", "fusion_lat": 0.0, "lat": 38.942216333333334, "name": "70a1570747d3424bfdfff869525d132d", "fusion_lon": 0.0, "bike_id": "70a1570747d3424bfdfff869525d132d", "is_disabled": 0, "is_reserved": 0}, {"rental_uris": {"ios": "https://dc.lft.to/lastmile_qr_scan", "android": "https://dc.lft.to/lastmile_qr_scan"}, "lon": -77.02395666666666, "type": "electric_scooter", "fusion_lat": 0.0, "lat": 38.88735466666667, "name": "4934aaee3cd00c465ceed12a919fabd7", "fusion_lon": 0.0, "bike_id": "4934aaee3cd00c465ceed12a919fabd7", "is_disabled": 0, "is_reserved": 0}, {"rental_uris": {"ios": "https://dc.lft.to/lastmile_qr_scan", "android": "https://dc.lft.to/lastmile_qr_scan"}, "lon": -77.029933, "type": "electric_scooter", "fusion_lat": 0.0, "lat": 38.93122183333333, "name": "f5eb2688edef13033d60a119d9de9556", "fusion_lon": 0.0, "bike_id": "f5eb2688edef13033d60a119d9de9556", "is_disabled": 0, "is_reserved": 0}, {"rental_uris": {"ios": "https://dc.lft.to/lastmile_qr_scan", "android": "https://dc.lft.to/lastmile_qr_scan"}, "lon": -77.04736016666666, "type": "electric_scooter", "fusion_lat": 0.0, "lat": 38.91111316666667, "name": "0918ed416818ec6ed8dc4c6073cf54cf", "fusion_lon": 0.0, "bike_id": "0918ed416818ec6ed8dc4c6073cf54cf", "is_disabled": 0, "is_reserved": 0}, {"rental_uris": {"ios": "https://dc.lft.to/lastmile_qr_scan", "android": "https://dc.lft.to/lastmile_qr_scan"}, "lon": -77.02758566666667, "type": "electric_scooter", "fusion_lat": 0.0, "lat": 38.95619216666667, "name": "53855285cd50d11e780ed8bae7c0a54a", "fusion_lon": 0.0, "bike_id": "53855285cd50d11e780ed8bae7c0a54a", "is_disabled": 0, "is_reserved": 0}, {"rental_uris": {"ios": "https://dc.lft.to/lastmile_qr_scan", "android": "https://dc.lft.to/lastmile_qr_scan"}, "lon": -77.02962416666666, "type": "electric_scooter", "fusion_lat": 0.0, "lat": 38.95421, "name": "d6022a7b9dc23224e2ecbe0bc180d593", "fusion_lon": 0.0, "bike_id": "d6022a7b9dc23224e2ecbe0bc180d593", "is_disabled": 0, "is_reserved": 0}, {"rental_uris": {"ios": "https://dc.lft.to/lastmile_qr_scan", "android": "https://dc.lft.to/lastmile_qr_scan"}, "lon": -77.069545, "type": "electric_bike", "fusion_lat": 0.0, "lat": 38.990435833333336, "name": "9117829b95c04a523bc723a145ff21c6", "fusion_lon": 0.0, "bike_id": "9117829b95c04a523bc723a145ff21c6", "is_disabled": 0, "is_reserved": 0}, {"rental_uris": {"ios": "https://dc.lft.to/lastmile_qr_scan", "android": "https://dc.lft.to/lastmile_qr_scan"}, "lon": -77.006719, "type": "electric_bike", "fusion_lat": 0.0, "lat": 38.9451535, "name": "33a3453e27a87286d207b23684f9442b", "fusion_lon": 0.0, "bike_id": "33a3453e27a87286d207b23684f9442b", "is_disabled": 0, "is_reserved": 0}, {"rental_uris": {"ios": "https://dc.lft.to/lastmile_qr_scan", "android": "https://dc.lft.to/lastmile_qr_scan"}, "lon": -77.007111, "type": "electric_scooter", "fusion_lat": 0.0, "lat": 38.88488816666667, "name": "8cbdeeff056e4d630722175081384f46", "fusion_lon": 0.0, "bike_id": "8cbdeeff056e4d630722175081384f46", "is_disabled": 0, "is_reserved": 0}, {"rental_uris": {"ios": "https://dc.lft.to/lastmile_qr_scan", "android": "https://dc.lft.to/lastmile_qr_scan"}, "lon": -77.0357505, "type": "electric_scooter", "fusion_lat": 0.0, "lat": 38.918122, "name": "ce58ccf4f6faff1c542e159e1f3ae56e", "fusion_lon": 0.0, "bike_id": "ce58ccf4f6faff1c542e159e1f3ae56e", "is_disabled": 0, "is_reserved": 0}, {"rental_uris": {"ios": "https://dc.lft.to/lastmile_qr_scan", "android": "https://dc.lft.to/lastmile_qr_scan"}, "lon": -77.05886316666667, "type": "electric_scooter", "fusion_lat": 0.0, "lat": 38.9363545, "name": "cb4f24c1a3831ac9879513a89fac8560", "fusion_lon": 0.0, "bike_id": "cb4f24c1a3831ac9879513a89fac8560", "is_disabled": 0, "is_reserved": 0}, {"rental_uris": {"ios": "https://dc.lft.to/lastmile_qr_scan", "android": "https://dc.lft.to/lastmile_qr_scan"}, "lon": -77.022096, "type": "electric_scooter", "fusion_lat": 0.0, "lat": 38.917858833333334, "name": "71c0d36327f387e57f76d5214cf3a8be", "fusion_lon": 0.0, "bike_id": "71c0d36327f387e57f76d5214cf3a8be", "is_disabled": 0, "is_reserved": 0}, {"rental_uris": {"ios": "https://dc.lft.to/lastmile_qr_scan", "android": "https://dc.lft.to/lastmile_qr_scan"}, "lon": -77.03492133333333, "type": "electric_scooter", "fusion_lat": 0.0, "lat": 38.9170735, "name": "6acdbc0c660af7b141dd67ce90130fb2", "fusion_lon": 0.0, "bike_id": "6acdbc0c660af7b141dd67ce90130fb2", "is_disabled": 0, "is_reserved": 0}, {"rental_uris": {"ios": "https://dc.lft.to/lastmile_qr_scan", "android": "https://dc.lft.to/lastmile_qr_scan"}, "lon": -77.03321533333333, "type": "electric_scooter", "fusion_lat": 0.0, "lat": 38.9015385, "name": "c8befdfd9f2ce8c2af058e0bdda2115a", "fusion_lon": 0.0, "bike_id": "c8befdfd9f2ce8c2af058e0bdda2115a", "is_disabled": 0, "is_reserved": 0}, {"rental_uris": {"ios": "https://dc.lft.to/lastmile_qr_scan", "android": "https://dc.lft.to/lastmile_qr_scan"}, "lon": -76.97822133333334, "type": "electric_scooter", "fusion_lat": 0.0, "lat": 38.89525183333333, "name": "13c8e9df3ea256ead69db6b4d6188d9c", "fusion_lon": 0.0, "bike_id": "13c8e9df3ea256ead69db6b4d6188d9c", "is_disabled": 0, "is_reserved": 0}, {"rental_uris": {"ios": "https://dc.lft.to/lastmile_qr_scan", "android": "https://dc.lft.to/lastmile_qr_scan"}, "lon": -76.99023833333334, "type": "electric_scooter", "fusion_lat": 0.0, "lat": 38.85868833333333, "name": "7385f82be0815b1bed0d02bd1afc2897", "fusion_lon": 0.0, "bike_id": "7385f82be0815b1bed0d02bd1afc2897", "is_disabled": 0, "is_reserved": 0}, {"rental_uris": {"ios": "https://dc.lft.to/lastmile_qr_scan", "android": "https://dc.lft.to/lastmile_qr_scan"}, "lon": -77.03988933333333, "type": "electric_scooter", "fusion_lat": 0.0, "lat": 38.900181, "name": "d82caa06bf17643411cffe3e3d31f077", "fusion_lon": 0.0, "bike_id": "d82caa06bf17643411cffe3e3d31f077", "is_disabled": 0, "is_reserved": 0}, {"rental_uris": {"ios": "https://dc.lft.to/lastmile_qr_scan", "android": "https://dc.lft.to/lastmile_qr_scan"}, "lon": -77.01750316666667, "type": "electric_scooter", "fusion_lat": 0.0, "lat": 38.905649333333336, "name": "8eb61bc22bc784209b6ad58e5feb962f", "fusion_lon": 0.0, "bike_id": "8eb61bc22bc784209b6ad58e5feb962f", "is_disabled": 0, "is_reserved": 0}, {"rental_uris": {"ios": "https://dc.lft.to/lastmile_qr_scan", "android": "https://dc.lft.to/lastmile_qr_scan"}, "lon": -77.06344, "type": "electric_scooter", "fusion_lat": 0.0, "lat": 38.94450283333333, "name": "2ce248e99ef96d5a59cbc75a3bcad170", "fusion_lon": 0.0, "bike_id": "2ce248e99ef96d5a59cbc75a3bcad170", "is_disabled": 0, "is_reserved": 0}, {"rental_uris": {"ios": "https://dc.lft.to/lastmile_qr_scan", "android": "https://dc.lft.to/lastmile_qr_scan"}, "lon": -77.03876866666667, "type": "electric_scooter", "fusion_lat": 0.0, "lat": 38.90812616666667, "name": "c5dfb83dd673f35058eee2487e7a8014", "fusion_lon": 0.0, "bike_id": "c5dfb83dd673f35058eee2487e7a8014", "is_disabled": 0, "is_reserved": 0}, {"rental_uris": {"ios": "https://dc.lft.to/lastmile_qr_scan", "android": "https://dc.lft.to/lastmile_qr_scan"}, "lon": -77.0361605, "type": "electric_scooter", "fusion_lat": 0.0, "lat": 38.93736216666667, "name": "d5343090c0268d6a98672ea22fbf42fe", "fusion_lon": 0.0, "bike_id": "d5343090c0268d6a98672ea22fbf42fe", "is_disabled": 0, "is_reserved": 0}, {"rental_uris": {"ios": "https://dc.lft.to/lastmile_qr_scan", "android": "https://dc.lft.to/lastmile_qr_scan"}, "lon": -77.06374916666667, "type": "electric_scooter", "fusion_lat": 0.0, "lat": 38.90506883333333, "name": "4f511ea403ad7512cee2c2325656eae4", "fusion_lon": 0.0, "bike_id": "4f511ea403ad7512cee2c2325656eae4", "is_disabled": 0, "is_reserved": 0}, {"rental_uris": {"ios": "https://dc.lft.to/lastmile_qr_scan", "android": "https://dc.lft.to/lastmile_qr_scan"}, "lon": -77.01859766666666, "type": "electric_scooter", "fusion_lat": 0.0, "lat": 38.892645333333334, "name": "66d3927cd0241b26085fe16ef8bc4b6f", "fusion_lon": 0.0, "bike_id": "66d3927cd0241b26085fe16ef8bc4b6f", "is_disabled": 0, "is_reserved": 0}, {"rental_uris": {"ios": "https://dc.lft.to/lastmile_qr_scan", "android": "https://dc.lft.to/lastmile_qr_scan"}, "lon": -77.00461183333333, "type": "electric_scooter", "fusion_lat": 0.0, "lat": 38.9118935, "name": "e0dc312350a0e6fb5123cfccd5977db4", "fusion_lon": 0.0, "bike_id": "e0dc312350a0e6fb5123cfccd5977db4", "is_disabled": 0, "is_reserved": 0}, {"rental_uris": {"ios": "https://dc.lft.to/lastmile_qr_scan", "android": "https://dc.lft.to/lastmile_qr_scan"}, "lon": -77.0024745, "type": "electric_bike", "fusion_lat": 0.0, "lat": 38.9118285, "name": "845284e148d83c3e617f2cff751361eb", "fusion_lon": 0.0, "bike_id": "845284e148d83c3e617f2cff751361eb", "is_disabled": 0, "is_reserved": 0}, {"rental_uris": {"ios": "https://dc.lft.to/lastmile_qr_scan", "android": "https://dc.lft.to/lastmile_qr_scan"}, "lon": -77.025395, "type": "electric_scooter", "fusion_lat": 0.0, "lat": 38.89222866666667, "name": "13a8b1e09f623b24c8dbe46161ea0b4e", "fusion_lon": 0.0, "bike_id": "13a8b1e09f623b24c8dbe46161ea0b4e", "is_disabled": 0, "is_reserved": 0}, {"rental_uris": {"ios": "https://dc.lft.to/lastmile_qr_scan", "android": "https://dc.lft.to/lastmile_qr_scan"}, "lon": -77.04858183333333, "type": "electric_scooter", "fusion_lat": 0.0, "lat": 38.9196695, "name": "0c49dbe83148ac4c6c8429b8b0ded79e", "fusion_lon": 0.0, "bike_id": "0c49dbe83148ac4c6c8429b8b0ded79e", "is_disabled": 0, "is_reserved": 0}, {"rental_uris": {"ios": "https://dc.lft.to/lastmile_qr_scan", "android": "https://dc.lft.to/lastmile_qr_scan"}, "lon": -77.18298083333333, "type": "electric_bike", "fusion_lat": 0.0, "lat": 38.883434333333334, "name": "a1a884d19dad7d8af63e9cc78471c591", "fusion_lon": 0.0, "bike_id": "a1a884d19dad7d8af63e9cc78471c591", "is_disabled": 0, "is_reserved": 0}, {"rental_uris": {"ios": "https://dc.lft.to/lastmile_qr_scan", "android": "https://dc.lft.to/lastmile_qr_scan"}, "lon": -77.04194216666667, "type": "electric_scooter", "fusion_lat": 0.0, "lat": 38.912677, "name": "51e8b072744e8639a39e1cf1c77221ed", "fusion_lon": 0.0, "bike_id": "51e8b072744e8639a39e1cf1c77221ed", "is_disabled": 0, "is_reserved": 0}, {"rental_uris": {"ios": "https://dc.lft.to/lastmile_qr_scan", "android": "https://dc.lft.to/lastmile_qr_scan"}, "lon": -77.0161545, "type": "electric_scooter", "fusion_lat": 0.0, "lat": 38.89985466666667, "name": "47697be42e813d385c57aa2c82e3d371", "fusion_lon": 0.0, "bike_id": "47697be42e813d385c57aa2c82e3d371", "is_disabled": 0, "is_reserved": 0}, {"rental_uris": {"ios": "https://dc.lft.to/lastmile_qr_scan", "android": "https://dc.lft.to/lastmile_qr_scan"}, "lon": -77.02177866666666, "type": "electric_scooter", "fusion_lat": 0.0, "lat": 38.91481516666666, "name": "fa3b5d85100230c0504ac0e11caf111a", "fusion_lon": 0.0, "bike_id": "fa3b5d85100230c0504ac0e11caf111a", "is_disabled": 0, "is_reserved": 0}, {"rental_uris": {"ios": "https://dc.lft.to/lastmile_qr_scan", "android": "https://dc.lft.to/lastmile_qr_scan"}, "lon": -77.01103366666666, "type": "electric_scooter", "fusion_lat": 0.0, "lat": 38.90356533333333, "name": "151789ba1eb02519c43b2183269dc01c", "fusion_lon": 0.0, "bike_id": "151789ba1eb02519c43b2183269dc01c", "is_disabled": 0, "is_reserved": 0}, {"rental_uris": {"ios": "https://dc.lft.to/lastmile_qr_scan", "android": "https://dc.lft.to/lastmile_qr_scan"}, "lon": -77.02715233333333, "type": "electric_scooter", "fusion_lat": 0.0, "lat": 38.90954166666667, "name": "2eee64a4aa2436d9116f7c0c35b73152", "fusion_lon": 0.0, "bike_id": "2eee64a4aa2436d9116f7c0c35b73152", "is_disabled": 0, "is_reserved": 0}, {"rental_uris": {"ios": "https://dc.lft.to/lastmile_qr_scan", "android": "https://dc.lft.to/lastmile_qr_scan"}, "lon": -77.02811583333333, "type": "electric_scooter", "fusion_lat": 0.0, "lat": 38.899018833333336, "name": "d791e25c63d13d7b887d80af9ea14dc5", "fusion_lon": 0.0, "bike_id": "d791e25c63d13d7b887d80af9ea14dc5", "is_disabled": 0, "is_reserved": 0}, {"rental_uris": {"ios": "https://dc.lft.to/lastmile_qr_scan", "android": "https://dc.lft.to/lastmile_qr_scan"}, "lon": -76.96528633333334, "type": "electric_scooter", "fusion_lat": 0.0, "lat": 38.876289166666666, "name": "423d5999aef800296fec5e14d3a61230", "fusion_lon": 0.0, "bike_id": "423d5999aef800296fec5e14d3a61230", "is_disabled": 0, "is_reserved": 0}, {"rental_uris": {"ios": "https://dc.lft.to/lastmile_qr_scan", "android": "https://dc.lft.to/lastmile_qr_scan"}, "lon": -77.04006733333334, "type": "electric_scooter", "fusion_lat": 0.0, "lat": 38.921802, "name": "8004d0ac9746387147cd9a6ebb041148", "fusion_lon": 0.0, "bike_id": "8004d0ac9746387147cd9a6ebb041148", "is_disabled": 0, "is_reserved": 0}, {"rental_uris": {"ios": "https://dc.lft.to/lastmile_qr_scan", "android": "https://dc.lft.to/lastmile_qr_scan"}, "lon": -77.09526683333333, "type": "electric_bike", "fusion_lat": 0.0, "lat": 38.83813216666667, "name": "e088eead821eb79499a8dcb5ea38f901", "fusion_lon": 0.0, "bike_id": "e088eead821eb79499a8dcb5ea38f901", "is_disabled": 0, "is_reserved": 0}, {"rental_uris": {"ios": "https://dc.lft.to/lastmile_qr_scan", "android": "https://dc.lft.to/lastmile_qr_scan"}, "lon": -77.03348933333334, "type": "electric_scooter", "fusion_lat": 0.0, "lat": 38.88508, "name": "24c632b3bd752edfcfc92dc8170a8bd2", "fusion_lon": 0.0, "bike_id": "24c632b3bd752edfcfc92dc8170a8bd2", "is_disabled": 0, "is_reserved": 0}, {"rental_uris": {"ios": "https://dc.lft.to/lastmile_qr_scan", "android": "https://dc.lft.to/lastmile_qr_scan"}, "lon": -77.05589666666667, "type": "electric_scooter", "fusion_lat": 0.0, "lat": 38.92777733333333, "name": "b513aa9632acad952872d2f48034a6e7", "fusion_lon": 0.0, "bike_id": "b513aa9632acad952872d2f48034a6e7", "is_disabled": 0, "is_reserved": 0}, {"rental_uris": {"ios": "https://dc.lft.to/lastmile_qr_scan", "android": "https://dc.lft.to/lastmile_qr_scan"}, "lon": -77.04448, "type": "electric_scooter", "fusion_lat": 0.0, "lat": 38.9187455, "name": "56f0011c0e8a7f3246a1a6e6d972eb5d", "fusion_lon": 0.0, "bike_id": "56f0011c0e8a7f3246a1a6e6d972eb5d", "is_disabled": 0, "is_reserved": 0}, {"rental_uris": {"ios": "https://dc.lft.to/lastmile_qr_scan", "android": "https://dc.lft.to/lastmile_qr_scan"}, "lon": -77.04521333333334, "type": "electric_scooter", "fusion_lat": 0.0, "lat": 38.90968083333333, "name": "e4a3cb17edc7aaea2724ac5fbc42c44e", "fusion_lon": 0.0, "bike_id": "e4a3cb17edc7aaea2724ac5fbc42c44e", "is_disabled": 0, "is_reserved": 0}, {"rental_uris": {"ios": "https://dc.lft.to/lastmile_qr_scan", "android": "https://dc.lft.to/lastmile_qr_scan"}, "lon": -77.032618, "type": "electric_scooter", "fusion_lat": 0.0, "lat": 38.91815666666667, "name": "6aea2ef28dbeb0573b69cb9a3c3cf093", "fusion_lon": 0.0, "bike_id": "6aea2ef28dbeb0573b69cb9a3c3cf093", "is_disabled": 0, "is_reserved": 0}, {"rental_uris": {"ios": "https://dc.lft.to/lastmile_qr_scan", "android": "https://dc.lft.to/lastmile_qr_scan"}, "lon": -77.02810483333333, "type": "electric_scooter", "fusion_lat": 0.0, "lat": 38.894206, "name": "866fea43ca739680df6b61bc2a6f612d", "fusion_lon": 0.0, "bike_id": "866fea43ca739680df6b61bc2a6f612d", "is_disabled": 0, "is_reserved": 0}, {"rental_uris": {"ios": "https://dc.lft.to/lastmile_qr_scan", "android": "https://dc.lft.to/lastmile_qr_scan"}, "lon": -77.04365483333333, "type": "electric_scooter", "fusion_lat": 0.0, "lat": 38.90258883333333, "name": "da9776c94797f775162f0821eb51b618", "fusion_lon": 0.0, "bike_id": "da9776c94797f775162f0821eb51b618", "is_disabled": 0, "is_reserved": 0}, {"rental_uris": {"ios": "https://dc.lft.to/lastmile_qr_scan", "android": "https://dc.lft.to/lastmile_qr_scan"}, "lon": -77.040068, "type": "electric_scooter", "fusion_lat": 0.0, "lat": 38.8888935, "name": "6445bd461f082010bf3505ed96931366", "fusion_lon": 0.0, "bike_id": "6445bd461f082010bf3505ed96931366", "is_disabled": 0, "is_reserved": 0}, {"rental_uris": {"ios": "https://dc.lft.to/lastmile_qr_scan", "android": "https://dc.lft.to/lastmile_qr_scan"}, "lon": -77.03824016666667, "type": "electric_scooter", "fusion_lat": 0.0, "lat": 38.92060266666667, "name": "61a06dad2b215be49fd71a20f2952554", "fusion_lon": 0.0, "bike_id": "61a06dad2b215be49fd71a20f2952554", "is_disabled": 0, "is_reserved": 0}, {"rental_uris": {"ios": "https://dc.lft.to/lastmile_qr_scan", "android": "https://dc.lft.to/lastmile_qr_scan"}, "lon": -77.03208966666666, "type": "electric_scooter", "fusion_lat": 0.0, "lat": 38.91707783333333, "name": "5e7c87cab6a091eb3fff853e59b7c33f", "fusion_lon": 0.0, "bike_id": "5e7c87cab6a091eb3fff853e59b7c33f", "is_disabled": 0, "is_reserved": 0}, {"rental_uris": {"ios": "https://dc.lft.to/lastmile_qr_scan", "android": "https://dc.lft.to/lastmile_qr_scan"}, "lon": -77.03566466666666, "type": "electric_scooter", "fusion_lat": 0.0, "lat": 38.918129666666665, "name": "3d9e73cf81814977025b1300c3ed12bc", "fusion_lon": 0.0, "bike_id": "3d9e73cf81814977025b1300c3ed12bc", "is_disabled": 0, "is_reserved": 0}, {"rental_uris": {"ios": "https://dc.lft.to/lastmile_qr_scan", "android": "https://dc.lft.to/lastmile_qr_scan"}, "lon": -76.958223, "type": "electric_scooter", "fusion_lat": 0.0, "lat": 38.89054633333333, "name": "ebaf4af875bdb38a3a1c73535976b0d7", "fusion_lon": 0.0, "bike_id": "ebaf4af875bdb38a3a1c73535976b0d7", "is_disabled": 0, "is_reserved": 0}, {"rental_uris": {"ios": "https://dc.lft.to/lastmile_qr_scan", "android": "https://dc.lft.to/lastmile_qr_scan"}, "lon": -77.03194666666667, "type": "electric_scooter", "fusion_lat": 0.0, "lat": 38.91320116666667, "name": "54dbf4fbcf6909da8c1448b8ddc570ee", "fusion_lon": 0.0, "bike_id": "54dbf4fbcf6909da8c1448b8ddc570ee", "is_disabled": 0, "is_reserved": 0}, {"rental_uris": {"ios": "https://dc.lft.to/lastmile_qr_scan", "android": "https://dc.lft.to/lastmile_qr_scan"}, "lon": -77.029818, "type": "electric_scooter", "fusion_lat": 0.0, "lat": 38.9089985, "name": "dc2e172854baff207df41fe74aea4711", "fusion_lon": 0.0, "bike_id": "dc2e172854baff207df41fe74aea4711", "is_disabled": 0, "is_reserved": 0}, {"rental_uris": {"ios": "https://dc.lft.to/lastmile_qr_scan", "android": "https://dc.lft.to/lastmile_qr_scan"}, "lon": -77.0386635, "type": "electric_scooter", "fusion_lat": 0.0, "lat": 38.91559616666667, "name": "e904eeb66a00cc091cf219f6a0d40023", "fusion_lon": 0.0, "bike_id": "e904eeb66a00cc091cf219f6a0d40023", "is_disabled": 0, "is_reserved": 0}, {"rental_uris": {"ios": "https://dc.lft.to/lastmile_qr_scan", "android": "https://dc.lft.to/lastmile_qr_scan"}, "lon": -77.03179983333334, "type": "electric_scooter", "fusion_lat": 0.0, "lat": 38.91934333333333, "name": "cba67294da7af94be7f03f4b7220c40f", "fusion_lon": 0.0, "bike_id": "cba67294da7af94be7f03f4b7220c40f", "is_disabled": 0, "is_reserved": 0}, {"rental_uris": {"ios": "https://dc.lft.to/lastmile_qr_scan", "android": "https://dc.lft.to/lastmile_qr_scan"}, "lon": -76.99664533333333, "type": "electric_scooter", "fusion_lat": 0.0, "lat": 38.93255283333333, "name": "8212838b3d226a43135fd682a0f2667e", "fusion_lon": 0.0, "bike_id": "8212838b3d226a43135fd682a0f2667e", "is_disabled": 0, "is_reserved": 0}, {"rental_uris": {"ios": "https://dc.lft.to/lastmile_qr_scan", "android": "https://dc.lft.to/lastmile_qr_scan"}, "lon": -77.02221083333333, "type": "electric_bike", "fusion_lat": 0.0, "lat": 38.88327133333333, "name": "162c9b7418f33907e1ecb8b0f629a634", "fusion_lon": 0.0, "bike_id": "162c9b7418f33907e1ecb8b0f629a634", "is_disabled": 0, "is_reserved": 0}, {"rental_uris": {"ios": "https://dc.lft.to/lastmile_qr_scan", "android": "https://dc.lft.to/lastmile_qr_scan"}, "lon": -77.02445816666666, "type": "electric_scooter", "fusion_lat": 0.0, "lat": 38.91879, "name": "e5cef2061c27decb4fa290c5c1f9e212", "fusion_lon": 0.0, "bike_id": "e5cef2061c27decb4fa290c5c1f9e212", "is_disabled": 0, "is_reserved": 0}, {"rental_uris": {"ios": "https://dc.lft.to/lastmile_qr_scan", "android": "https://dc.lft.to/lastmile_qr_scan"}, "lon": -77.08194466666667, "type": "electric_bike", "fusion_lat": 0.0, "lat": 38.922100666666665, "name": "3937d761460005d9fa4029c18ce863f0", "fusion_lon": 0.0, "bike_id": "3937d761460005d9fa4029c18ce863f0", "is_disabled": 0, "is_reserved": 0}, {"rental_uris": {"ios": "https://dc.lft.to/lastmile_qr_scan", "android": "https://dc.lft.to/lastmile_qr_scan"}, "lon": -77.031962, "type": "electric_scooter", "fusion_lat": 0.0, "lat": 38.91594216666667, "name": "e5a051d5676f4241692661cb0a660d1b", "fusion_lon": 0.0, "bike_id": "e5a051d5676f4241692661cb0a660d1b", "is_disabled": 0, "is_reserved": 0}, {"rental_uris": {"ios": "https://dc.lft.to/lastmile_qr_scan", "android": "https://dc.lft.to/lastmile_qr_scan"}, "lon": -77.05683583333334, "type": "electric_scooter", "fusion_lat": 0.0, "lat": 38.92322733333334, "name": "7c73ae40eae69486c83f82f18930c49e", "fusion_lon": 0.0, "bike_id": "7c73ae40eae69486c83f82f18930c49e", "is_disabled": 0, "is_reserved": 0}, {"rental_uris": {"ios": "https://dc.lft.to/lastmile_qr_scan", "android": "https://dc.lft.to/lastmile_qr_scan"}, "lon": -76.97961683333334, "type": "electric_scooter", "fusion_lat": 0.0, "lat": 38.90380583333334, "name": "0998482713d44bcba37a4838354c5512", "fusion_lon": 0.0, "bike_id": "0998482713d44bcba37a4838354c5512", "is_disabled": 0, "is_reserved": 0}, {"rental_uris": {"ios": "https://dc.lft.to/lastmile_qr_scan", "android": "https://dc.lft.to/lastmile_qr_scan"}, "lon": -77.0286355, "type": "electric_scooter", "fusion_lat": 0.0, "lat": 38.907198, "name": "4a5ae22909323c09c242cb58a0354f72", "fusion_lon": 0.0, "bike_id": "4a5ae22909323c09c242cb58a0354f72", "is_disabled": 0, "is_reserved": 0}, {"rental_uris": {"ios": "https://dc.lft.to/lastmile_qr_scan", "android": "https://dc.lft.to/lastmile_qr_scan"}, "lon": -77.03286966666667, "type": "electric_scooter", "fusion_lat": 0.0, "lat": 38.93992766666667, "name": "da635c563c895ae7799d1fce5c89b914", "fusion_lon": 0.0, "bike_id": "da635c563c895ae7799d1fce5c89b914", "is_disabled": 0, "is_reserved": 0}, {"rental_uris": {"ios": "https://dc.lft.to/lastmile_qr_scan", "android": "https://dc.lft.to/lastmile_qr_scan"}, "lon": -76.98687783333334, "type": "electric_scooter", "fusion_lat": 0.0, "lat": 38.88211183333333, "name": "bf277d47d2d38667da4d72a1c4bbd729", "fusion_lon": 0.0, "bike_id": "bf277d47d2d38667da4d72a1c4bbd729", "is_disabled": 0, "is_reserved": 0}, {"rental_uris": {"ios": "https://dc.lft.to/lastmile_qr_scan", "android": "https://dc.lft.to/lastmile_qr_scan"}, "lon": -77.032656, "type": "electric_scooter", "fusion_lat": 0.0, "lat": 38.9478665, "name": "6b5f014b3338c0d3c19f24d8261e785b", "fusion_lon": 0.0, "bike_id": "6b5f014b3338c0d3c19f24d8261e785b", "is_disabled": 0, "is_reserved": 0}, {"rental_uris": {"ios": "https://dc.lft.to/lastmile_qr_scan", "android": "https://dc.lft.to/lastmile_qr_scan"}, "lon": -77.033532, "type": "electric_scooter", "fusion_lat": 0.0, "lat": 38.8850805, "name": "49b4fd3f30371b3cae64fded5628eb7e", "fusion_lon": 0.0, "bike_id": "49b4fd3f30371b3cae64fded5628eb7e", "is_disabled": 0, "is_reserved": 0}, {"rental_uris": {"ios": "https://dc.lft.to/lastmile_qr_scan", "android": "https://dc.lft.to/lastmile_qr_scan"}, "lon": -77.02334683333333, "type": "electric_scooter", "fusion_lat": 0.0, "lat": 38.9289675, "name": "7e4d48ff9ccb85ab6c28a32cfdb3eb63", "fusion_lon": 0.0, "bike_id": "7e4d48ff9ccb85ab6c28a32cfdb3eb63", "is_disabled": 0, "is_reserved": 0}, {"rental_uris": {"ios": "https://dc.lft.to/lastmile_qr_scan", "android": "https://dc.lft.to/lastmile_qr_scan"}, "lon": -76.99271283333333, "type": "electric_scooter", "fusion_lat": 0.0, "lat": 38.89686866666667, "name": "e46ac524fc15dc2ef9afd62d09118c31", "fusion_lon": 0.0, "bike_id": "e46ac524fc15dc2ef9afd62d09118c31", "is_disabled": 0, "is_reserved": 0}, {"rental_uris": {"ios": "https://dc.lft.to/lastmile_qr_scan", "android": "https://dc.lft.to/lastmile_qr_scan"}, "lon": -77.03214783333334, "type": "electric_scooter", "fusion_lat": 0.0, "lat": 38.91159716666667, "name": "30839a336d71a64ad8cca3603584bf71", "fusion_lon": 0.0, "bike_id": "30839a336d71a64ad8cca3603584bf71", "is_disabled": 0, "is_reserved": 0}, {"rental_uris": {"ios": "https://dc.lft.to/lastmile_qr_scan", "android": "https://dc.lft.to/lastmile_qr_scan"}, "lon": -77.03703866666666, "type": "electric_bike", "fusion_lat": 0.0, "lat": 38.935647833333334, "name": "03a6ed34d1fc7461aadbb36f4c9322d2", "fusion_lon": 0.0, "bike_id": "03a6ed34d1fc7461aadbb36f4c9322d2", "is_disabled": 0, "is_reserved": 0}, {"rental_uris": {"ios": "https://dc.lft.to/lastmile_qr_scan", "android": "https://dc.lft.to/lastmile_qr_scan"}, "lon": -77.04443183333333, "type": "electric_scooter", "fusion_lat": 0.0, "lat": 38.90544333333333, "name": "82f71796d1ea2abe484e30ade8fe4607", "fusion_lon": 0.0, "bike_id": "82f71796d1ea2abe484e30ade8fe4607", "is_disabled": 0, "is_reserved": 0}, {"rental_uris": {"ios": "https://dc.lft.to/lastmile_qr_scan", "android": "https://dc.lft.to/lastmile_qr_scan"}, "lon": -77.06532783333333, "type": "electric_scooter", "fusion_lat": 0.0, "lat": 38.91125066666667, "name": "f2348f5e89fae16d14a9e9691e35b40b", "fusion_lon": 0.0, "bike_id": "f2348f5e89fae16d14a9e9691e35b40b", "is_disabled": 0, "is_reserved": 0}, {"rental_uris": {"ios": "https://dc.lft.to/lastmile_qr_scan", "android": "https://dc.lft.to/lastmile_qr_scan"}, "lon": -77.01505766666666, "type": "electric_scooter", "fusion_lat": 0.0, "lat": 38.907186333333335, "name": "044171bc9c1d85624cb44e7469e30e57", "fusion_lon": 0.0, "bike_id": "044171bc9c1d85624cb44e7469e30e57", "is_disabled": 0, "is_reserved": 0}, {"rental_uris": {"ios": "https://dc.lft.to/lastmile_qr_scan", "android": "https://dc.lft.to/lastmile_qr_scan"}, "lon": -77.02832366666667, "type": "electric_scooter", "fusion_lat": 0.0, "lat": 38.91262416666667, "name": "01917961e8216ca73706357a271df72b", "fusion_lon": 0.0, "bike_id": "01917961e8216ca73706357a271df72b", "is_disabled": 0, "is_reserved": 0}, {"rental_uris": {"ios": "https://dc.lft.to/lastmile_qr_scan", "android": "https://dc.lft.to/lastmile_qr_scan"}, "lon": -77.03643816666667, "type": "electric_scooter", "fusion_lat": 0.0, "lat": 38.907889833333336, "name": "82e49ca09e2141b1d051cc7b204a0e1f", "fusion_lon": 0.0, "bike_id": "82e49ca09e2141b1d051cc7b204a0e1f", "is_disabled": 0, "is_reserved": 0}, {"rental_uris": {"ios": "https://dc.lft.to/lastmile_qr_scan", "android": "https://dc.lft.to/lastmile_qr_scan"}, "lon": -76.94842966666667, "type": "electric_scooter", "fusion_lat": 0.0, "lat": 38.89482866666667, "name": "3aaf1cfcc44516651816ded23a844816", "fusion_lon": 0.0, "bike_id": "3aaf1cfcc44516651816ded23a844816", "is_disabled": 0, "is_reserved": 0}, {"rental_uris": {"ios": "https://dc.lft.to/lastmile_qr_scan", "android": "https://dc.lft.to/lastmile_qr_scan"}, "lon": -76.99516566666667, "type": "electric_scooter", "fusion_lat": 0.0, "lat": 38.89483083333333, "name": "d721259038062cb5664e7128b6d0b05c", "fusion_lon": 0.0, "bike_id": "d721259038062cb5664e7128b6d0b05c", "is_disabled": 0, "is_reserved": 0}, {"rental_uris": {"ios": "https://dc.lft.to/lastmile_qr_scan", "android": "https://dc.lft.to/lastmile_qr_scan"}, "lon": -76.93175316666667, "type": "electric_scooter", "fusion_lat": 0.0, "lat": 38.898847333333336, "name": "3d47d7756659f4ed1d4feef857ae3d81", "fusion_lon": 0.0, "bike_id": "3d47d7756659f4ed1d4feef857ae3d81", "is_disabled": 0, "is_reserved": 0}, {"rental_uris": {"ios": "https://dc.lft.to/lastmile_qr_scan", "android": "https://dc.lft.to/lastmile_qr_scan"}, "lon": -76.94852083333333, "type": "electric_scooter", "fusion_lat": 0.0, "lat": 38.88303766666667, "name": "d0af31656a81ee94f42397bce4fca87e", "fusion_lon": 0.0, "bike_id": "d0af31656a81ee94f42397bce4fca87e", "is_disabled": 0, "is_reserved": 0}, {"rental_uris": {"ios": "https://dc.lft.to/lastmile_qr_scan", "android": "https://dc.lft.to/lastmile_qr_scan"}, "lon": -77.10717716666667, "type": "electric_bike", "fusion_lat": 0.0, "lat": 38.855472, "name": "0753a8d6c49cf091c1b2cf47cf064c4f", "fusion_lon": 0.0, "bike_id": "0753a8d6c49cf091c1b2cf47cf064c4f", "is_disabled": 0, "is_reserved": 0}, {"rental_uris": {"ios": "https://dc.lft.to/lastmile_qr_scan", "android": "https://dc.lft.to/lastmile_qr_scan"}, "lon": -77.00209566666666, "type": "electric_scooter", "fusion_lat": 0.0, "lat": 38.902221833333336, "name": "d857443d4f042bfadb22a16ac529eb6f", "fusion_lon": 0.0, "bike_id": "d857443d4f042bfadb22a16ac529eb6f", "is_disabled": 0, "is_reserved": 0}, {"rental_uris": {"ios": "https://dc.lft.to/lastmile_qr_scan", "android": "https://dc.lft.to/lastmile_qr_scan"}, "lon": -77.0515135, "type": "electric_scooter", "fusion_lat": 0.0, "lat": 38.897714666666666, "name": "b97b1d7a640a0db4a5cd861797bc26e2", "fusion_lon": 0.0, "bike_id": "b97b1d7a640a0db4a5cd861797bc26e2", "is_disabled": 0, "is_reserved": 0}, {"rental_uris": {"ios": "https://dc.lft.to/lastmile_qr_scan", "android": "https://dc.lft.to/lastmile_qr_scan"}, "lon": -77.046585, "type": "electric_scooter", "fusion_lat": 0.0, "lat": 38.893367833333336, "name": "ad73ed2fb8180f555654d0d175fbf6b6", "fusion_lon": 0.0, "bike_id": "ad73ed2fb8180f555654d0d175fbf6b6", "is_disabled": 0, "is_reserved": 0}, {"rental_uris": {"ios": "https://dc.lft.to/lastmile_qr_scan", "android": "https://dc.lft.to/lastmile_qr_scan"}, "lon": -76.99461666666667, "type": "electric_bike", "fusion_lat": 0.0, "lat": 38.94066516666667, "name": "8e2b17e80bdc7346433ae62743c76524", "fusion_lon": 0.0, "bike_id": "8e2b17e80bdc7346433ae62743c76524", "is_disabled": 0, "is_reserved": 0}, {"rental_uris": {"ios": "https://dc.lft.to/lastmile_qr_scan", "android": "https://dc.lft.to/lastmile_qr_scan"}, "lon": -77.1203845, "type": "electric_bike", "fusion_lat": 0.0, "lat": 38.85514833333333, "name": "1a702ccfea8e10eea0fcd6574c78211f", "fusion_lon": 0.0, "bike_id": "1a702ccfea8e10eea0fcd6574c78211f", "is_disabled": 0, "is_reserved": 0}, {"rental_uris": {"ios": "https://dc.lft.to/lastmile_qr_scan", "android": "https://dc.lft.to/lastmile_qr_scan"}, "lon": -77.033228, "type": "electric_scooter", "fusion_lat": 0.0, "lat": 38.899083833333336, "name": "0d1cd56c2ce01574ae8ba684fde20e53", "fusion_lon": 0.0, "bike_id": "0d1cd56c2ce01574ae8ba684fde20e53", "is_disabled": 0, "is_reserved": 0}, {"rental_uris": {"ios": "https://dc.lft.to/lastmile_qr_scan", "android": "https://dc.lft.to/lastmile_qr_scan"}, "lon": -76.94974933333333, "type": "electric_scooter", "fusion_lat": 0.0, "lat": 38.8937305, "name": "6af7d7cead1e6f719c3e8acf1858f959", "fusion_lon": 0.0, "bike_id": "6af7d7cead1e6f719c3e8acf1858f959", "is_disabled": 0, "is_reserved": 0}, {"rental_uris": {"ios": "https://dc.lft.to/lastmile_qr_scan", "android": "https://dc.lft.to/lastmile_qr_scan"}, "lon": -76.93175, "type": "electric_scooter", "fusion_lat": 0.0, "lat": 38.898846666666664, "name": "1be32bc84debb6a5252ac5bfed4da4ae", "fusion_lon": 0.0, "bike_id": "1be32bc84debb6a5252ac5bfed4da4ae", "is_disabled": 0, "is_reserved": 0}, {"rental_uris": {"ios": "https://dc.lft.to/lastmile_qr_scan", "android": "https://dc.lft.to/lastmile_qr_scan"}, "lon": -77.03172016666667, "type": "electric_scooter", "fusion_lat": 0.0, "lat": 38.886248333333334, "name": "5fa312693161642bdc0998c1a23d26bd", "fusion_lon": 0.0, "bike_id": "5fa312693161642bdc0998c1a23d26bd", "is_disabled": 0, "is_reserved": 0}, {"rental_uris": {"ios": "https://dc.lft.to/lastmile_qr_scan", "android": "https://dc.lft.to/lastmile_qr_scan"}, "lon": -77.05122366666667, "type": "electric_bike", "fusion_lat": 0.0, "lat": 38.999649, "name": "022230c27aab6c46e29142d41e08903c", "fusion_lon": 0.0, "bike_id": "022230c27aab6c46e29142d41e08903c", "is_disabled": 0, "is_reserved": 0}, {"rental_uris": {"ios": "https://dc.lft.to/lastmile_qr_scan", "android": "https://dc.lft.to/lastmile_qr_scan"}, "lon": -77.0882825, "type": "electric_bike", "fusion_lat": 0.0, "lat": 38.90976333333333, "name": "3ec7da2cc73314351048f4cf6feff892", "fusion_lon": 0.0, "bike_id": "3ec7da2cc73314351048f4cf6feff892", "is_disabled": 0, "is_reserved": 0}, {"rental_uris": {"ios": "https://dc.lft.to/lastmile_qr_scan", "android": "https://dc.lft.to/lastmile_qr_scan"}, "lon": -77.02442116666667, "type": "electric_scooter", "fusion_lat": 0.0, "lat": 38.91843733333333, "name": "4d745d46e1a6f8b390f3094a399e523e", "fusion_lon": 0.0, "bike_id": "4d745d46e1a6f8b390f3094a399e523e", "is_disabled": 0, "is_reserved": 0}, {"rental_uris": {"ios": "https://dc.lft.to/lastmile_qr_scan", "android": "https://dc.lft.to/lastmile_qr_scan"}, "lon": -77.016503, "type": "electric_scooter", "fusion_lat": 0.0, "lat": 38.90335183333333, "name": "faa7f2b2c878c8dff607e5fd39e6a47f", "fusion_lon": 0.0, "bike_id": "faa7f2b2c878c8dff607e5fd39e6a47f", "is_disabled": 0, "is_reserved": 0}, {"rental_uris": {"ios": "https://dc.lft.to/lastmile_qr_scan", "android": "https://dc.lft.to/lastmile_qr_scan"}, "lon": -77.03447266666667, "type": "electric_scooter", "fusion_lat": 0.0, "lat": 38.90949333333333, "name": "660c3de1204057bb37cb5388d73aee04", "fusion_lon": 0.0, "bike_id": "660c3de1204057bb37cb5388d73aee04", "is_disabled": 0, "is_reserved": 0}, {"rental_uris": {"ios": "https://dc.lft.to/lastmile_qr_scan", "android": "https://dc.lft.to/lastmile_qr_scan"}, "lon": -76.98608766666666, "type": "electric_bike", "fusion_lat": 0.0, "lat": 38.9062365, "name": "4c615cd68179e25bd3d56f47ae1018d3", "fusion_lon": 0.0, "bike_id": "4c615cd68179e25bd3d56f47ae1018d3", "is_disabled": 0, "is_reserved": 0}, {"rental_uris": {"ios": "https://dc.lft.to/lastmile_qr_scan", "android": "https://dc.lft.to/lastmile_qr_scan"}, "lon": -76.96881433333333, "type": "electric_scooter", "fusion_lat": 0.0, "lat": 38.92442616666666, "name": "5b514d0c52e2363230ce8c26450b75e2", "fusion_lon": 0.0, "bike_id": "5b514d0c52e2363230ce8c26450b75e2", "is_disabled": 0, "is_reserved": 0}, {"rental_uris": {"ios": "https://dc.lft.to/lastmile_qr_scan", "android": "https://dc.lft.to/lastmile_qr_scan"}, "lon": -77.024283, "type": "electric_scooter", "fusion_lat": 0.0, "lat": 38.91820883333333, "name": "a90ffbd4bd553ab813ef764a78976530", "fusion_lon": 0.0, "bike_id": "a90ffbd4bd553ab813ef764a78976530", "is_disabled": 0, "is_reserved": 0}, {"rental_uris": {"ios": "https://dc.lft.to/lastmile_qr_scan", "android": "https://dc.lft.to/lastmile_qr_scan"}, "lon": -77.02805316666667, "type": "electric_scooter", "fusion_lat": 0.0, "lat": 38.961947333333335, "name": "dd2f2776d98a0d729c8ec797cac856b0", "fusion_lon": 0.0, "bike_id": "dd2f2776d98a0d729c8ec797cac856b0", "is_disabled": 0, "is_reserved": 0}, {"rental_uris": {"ios": "https://dc.lft.to/lastmile_qr_scan", "android": "https://dc.lft.to/lastmile_qr_scan"}, "lon": -77.09548533333333, "type": "electric_bike", "fusion_lat": 0.0, "lat": 38.83734283333333, "name": "4b4223ad8b8dda03024b973e6c267204", "fusion_lon": 0.0, "bike_id": "4b4223ad8b8dda03024b973e6c267204", "is_disabled": 0, "is_reserved": 0}, {"rental_uris": {"ios": "https://dc.lft.to/lastmile_qr_scan", "android": "https://dc.lft.to/lastmile_qr_scan"}, "lon": -77.023155, "type": "electric_scooter", "fusion_lat": 0.0, "lat": 38.918409, "name": "1c92b6216b1c2c080d13c109e0651cf4", "fusion_lon": 0.0, "bike_id": "1c92b6216b1c2c080d13c109e0651cf4", "is_disabled": 0, "is_reserved": 0}, {"rental_uris": {"ios": "https://dc.lft.to/lastmile_qr_scan", "android": "https://dc.lft.to/lastmile_qr_scan"}, "lon": -77.0037615, "type": "electric_bike", "fusion_lat": 0.0, "lat": 38.83606866666667, "name": "7cea011640538514585505608c8d48ea", "fusion_lon": 0.0, "bike_id": "7cea011640538514585505608c8d48ea", "is_disabled": 0, "is_reserved": 0}, {"rental_uris": {"ios": "https://dc.lft.to/lastmile_qr_scan", "android": "https://dc.lft.to/lastmile_qr_scan"}, "lon": -76.94635583333333, "type": "electric_scooter", "fusion_lat": 0.0, "lat": 38.898369833333334, "name": "2214d3cbc07afe15e2f72e30f21194fa", "fusion_lon": 0.0, "bike_id": "2214d3cbc07afe15e2f72e30f21194fa", "is_disabled": 0, "is_reserved": 0}, {"rental_uris": {"ios": "https://dc.lft.to/lastmile_qr_scan", "android": "https://dc.lft.to/lastmile_qr_scan"}, "lon": -76.99780283333334, "type": "electric_scooter", "fusion_lat": 0.0, "lat": 38.84422983333333, "name": "645dd160cecc40a067f74ed971bdc679", "fusion_lon": 0.0, "bike_id": "645dd160cecc40a067f74ed971bdc679", "is_disabled": 0, "is_reserved": 0}, {"rental_uris": {"ios": "https://dc.lft.to/lastmile_qr_scan", "android": "https://dc.lft.to/lastmile_qr_scan"}, "lon": -77.0220835, "type": "electric_scooter", "fusion_lat": 0.0, "lat": 38.917893, "name": "b945b116158cc1deb5ed8e6cca27413d", "fusion_lon": 0.0, "bike_id": "b945b116158cc1deb5ed8e6cca27413d", "is_disabled": 0, "is_reserved": 0}, {"rental_uris": {"ios": "https://dc.lft.to/lastmile_qr_scan", "android": "https://dc.lft.to/lastmile_qr_scan"}, "lon": -76.99006333333334, "type": "electric_scooter", "fusion_lat": 0.0, "lat": 38.865067333333336, "name": "2626b9b0afdd81a1c3677edc91472ed9", "fusion_lon": 0.0, "bike_id": "2626b9b0afdd81a1c3677edc91472ed9", "is_disabled": 0, "is_reserved": 0}, {"rental_uris": {"ios": "https://dc.lft.to/lastmile_qr_scan", "android": "https://dc.lft.to/lastmile_qr_scan"}, "lon": -77.00256866666666, "type": "electric_scooter", "fusion_lat": 0.0, "lat": 38.90154183333333, "name": "bf1bb07081d27924b2c6dbb4ceb8dfdf", "fusion_lon": 0.0, "bike_id": "bf1bb07081d27924b2c6dbb4ceb8dfdf", "is_disabled": 0, "is_reserved": 0}, {"rental_uris": {"ios": "https://dc.lft.to/lastmile_qr_scan", "android": "https://dc.lft.to/lastmile_qr_scan"}, "lon": -76.9997435, "type": "electric_scooter", "fusion_lat": 0.0, "lat": 38.83838216666667, "name": "4b869f645e6b76a0f619cb2b0db29263", "fusion_lon": 0.0, "bike_id": "4b869f645e6b76a0f619cb2b0db29263", "is_disabled": 0, "is_reserved": 0}, {"rental_uris": {"ios": "https://dc.lft.to/lastmile_qr_scan", "android": "https://dc.lft.to/lastmile_qr_scan"}, "lon": -77.03465, "type": "electric_scooter", "fusion_lat": 0.0, "lat": 38.90898633333333, "name": "8799ea043f385ec00020b3b810dd531a", "fusion_lon": 0.0, "bike_id": "8799ea043f385ec00020b3b810dd531a", "is_disabled": 0, "is_reserved": 0}, {"rental_uris": {"ios": "https://dc.lft.to/lastmile_qr_scan", "android": "https://dc.lft.to/lastmile_qr_scan"}, "lon": -77.04031633333334, "type": "electric_scooter", "fusion_lat": 0.0, "lat": 38.9234125, "name": "20ffc6f84c263ea16cb09ff8c0e9081c", "fusion_lon": 0.0, "bike_id": "20ffc6f84c263ea16cb09ff8c0e9081c", "is_disabled": 0, "is_reserved": 0}, {"rental_uris": {"ios": "https://dc.lft.to/lastmile_qr_scan", "android": "https://dc.lft.to/lastmile_qr_scan"}, "lon": -77.03895966666667, "type": "electric_scooter", "fusion_lat": 0.0, "lat": 38.92330366666667, "name": "890052d0f382dc7c9d10f3ef76a450a6", "fusion_lon": 0.0, "bike_id": "890052d0f382dc7c9d10f3ef76a450a6", "is_disabled": 0, "is_reserved": 0}, {"rental_uris": {"ios": "https://dc.lft.to/lastmile_qr_scan", "android": "https://dc.lft.to/lastmile_qr_scan"}, "lon": -77.03919716666667, "type": "electric_scooter", "fusion_lat": 0.0, "lat": 38.91111633333333, "name": "f09516547fc5808d57ea453bc3c5a2f8", "fusion_lon": 0.0, "bike_id": "f09516547fc5808d57ea453bc3c5a2f8", "is_disabled": 0, "is_reserved": 0}, {"rental_uris": {"ios": "https://dc.lft.to/lastmile_qr_scan", "android": "https://dc.lft.to/lastmile_qr_scan"}, "lon": -77.07275816666667, "type": "electric_scooter", "fusion_lat": 0.0, "lat": 38.934845833333334, "name": "b73b417184cd25f2b59fd0492d801131", "fusion_lon": 0.0, "bike_id": "b73b417184cd25f2b59fd0492d801131", "is_disabled": 0, "is_reserved": 0}, {"rental_uris": {"ios": "https://dc.lft.to/lastmile_qr_scan", "android": "https://dc.lft.to/lastmile_qr_scan"}, "lon": -77.04290833333333, "type": "electric_scooter", "fusion_lat": 0.0, "lat": 38.92267183333333, "name": "f1f5ebf221f744844618831d9f40c8bd", "fusion_lon": 0.0, "bike_id": "f1f5ebf221f744844618831d9f40c8bd", "is_disabled": 0, "is_reserved": 0}, {"rental_uris": {"ios": "https://dc.lft.to/lastmile_qr_scan", "android": "https://dc.lft.to/lastmile_qr_scan"}, "lon": -77.00090883333333, "type": "electric_scooter", "fusion_lat": 0.0, "lat": 38.907575, "name": "a9a482378cd024442d95c0fdd870e3a4", "fusion_lon": 0.0, "bike_id": "a9a482378cd024442d95c0fdd870e3a4", "is_disabled": 0, "is_reserved": 0}, {"rental_uris": {"ios": "https://dc.lft.to/lastmile_qr_scan", "android": "https://dc.lft.to/lastmile_qr_scan"}, "lon": -77.04999633333334, "type": "electric_scooter", "fusion_lat": 0.0, "lat": 38.90129683333333, "name": "3e0f5eb2c673b1f41e3eb5d6a1fb4749", "fusion_lon": 0.0, "bike_id": "3e0f5eb2c673b1f41e3eb5d6a1fb4749", "is_disabled": 0, "is_reserved": 0}, {"rental_uris": {"ios": "https://dc.lft.to/lastmile_qr_scan", "android": "https://dc.lft.to/lastmile_qr_scan"}, "lon": -77.04422966666667, "type": "electric_scooter", "fusion_lat": 0.0, "lat": 38.892214, "name": "0b3da599bfd428783484909540681041", "fusion_lon": 0.0, "bike_id": "0b3da599bfd428783484909540681041", "is_disabled": 0, "is_reserved": 0}, {"rental_uris": {"ios": "https://dc.lft.to/lastmile_qr_scan", "android": "https://dc.lft.to/lastmile_qr_scan"}, "lon": -77.08542616666666, "type": "electric_bike", "fusion_lat": 0.0, "lat": 38.85624216666667, "name": "826a406d44688d581d6ebde195e349bb", "fusion_lon": 0.0, "bike_id": "826a406d44688d581d6ebde195e349bb", "is_disabled": 0, "is_reserved": 0}, {"rental_uris": {"ios": "https://dc.lft.to/lastmile_qr_scan", "android": "https://dc.lft.to/lastmile_qr_scan"}, "lon": -77.034533, "type": "electric_scooter", "fusion_lat": 0.0, "lat": 38.945730833333336, "name": "4d286cacb7acc183e2dedc2b4f52c464", "fusion_lon": 0.0, "bike_id": "4d286cacb7acc183e2dedc2b4f52c464", "is_disabled": 0, "is_reserved": 0}, {"rental_uris": {"ios": "https://dc.lft.to/lastmile_qr_scan", "android": "https://dc.lft.to/lastmile_qr_scan"}, "lon": -77.17846366666667, "type": "electric_bike", "fusion_lat": 0.0, "lat": 39.089022666666665, "name": "60b07f0fcb4895068b1a6eddc74d971b", "fusion_lon": 0.0, "bike_id": "60b07f0fcb4895068b1a6eddc74d971b", "is_disabled": 0, "is_reserved": 0}, {"rental_uris": {"ios": "https://dc.lft.to/lastmile_qr_scan", "android": "https://dc.lft.to/lastmile_qr_scan"}, "lon": -77.001933, "type": "electric_scooter", "fusion_lat": 0.0, "lat": 38.90031483333333, "name": "b4d9e4afd74493e6399fd8e8a84b7d86", "fusion_lon": 0.0, "bike_id": "b4d9e4afd74493e6399fd8e8a84b7d86", "is_disabled": 0, "is_reserved": 0}, {"rental_uris": {"ios": "https://dc.lft.to/lastmile_qr_scan", "android": "https://dc.lft.to/lastmile_qr_scan"}, "lon": -77.03468583333333, "type": "electric_scooter", "fusion_lat": 0.0, "lat": 38.93454666666667, "name": "d1391671faee4f3f4aa62414a74664ce", "fusion_lon": 0.0, "bike_id": "d1391671faee4f3f4aa62414a74664ce", "is_disabled": 0, "is_reserved": 0}, {"rental_uris": {"ios": "https://dc.lft.to/lastmile_qr_scan", "android": "https://dc.lft.to/lastmile_qr_scan"}, "lon": -77.03343066666666, "type": "electric_scooter", "fusion_lat": 0.0, "lat": 38.88509366666667, "name": "11bd3c4731fd7835576513adc2d9b50d", "fusion_lon": 0.0, "bike_id": "11bd3c4731fd7835576513adc2d9b50d", "is_disabled": 0, "is_reserved": 0}, {"rental_uris": {"ios": "https://dc.lft.to/lastmile_qr_scan", "android": "https://dc.lft.to/lastmile_qr_scan"}, "lon": -77.02187183333334, "type": "electric_scooter", "fusion_lat": 0.0, "lat": 38.91568383333333, "name": "4cd18210dbc6d95f3e289bbb2b80fdf9", "fusion_lon": 0.0, "bike_id": "4cd18210dbc6d95f3e289bbb2b80fdf9", "is_disabled": 0, "is_reserved": 0}, {"rental_uris": {"ios": "https://dc.lft.to/lastmile_qr_scan", "android": "https://dc.lft.to/lastmile_qr_scan"}, "lon": -77.0263215, "type": "electric_bike", "fusion_lat": 0.0, "lat": 38.962247833333336, "name": "4ec7d53752a7570b4581c6f18d093b50", "fusion_lon": 0.0, "bike_id": "4ec7d53752a7570b4581c6f18d093b50", "is_disabled": 0, "is_reserved": 0}, {"rental_uris": {"ios": "https://dc.lft.to/lastmile_qr_scan", "android": "https://dc.lft.to/lastmile_qr_scan"}, "lon": -77.02982366666667, "type": "electric_scooter", "fusion_lat": 0.0, "lat": 38.962304833333334, "name": "9c05fe768a2c628328b6c2b1b2ef946e", "fusion_lon": 0.0, "bike_id": "9c05fe768a2c628328b6c2b1b2ef946e", "is_disabled": 0, "is_reserved": 0}, {"rental_uris": {"ios": "https://dc.lft.to/lastmile_qr_scan", "android": "https://dc.lft.to/lastmile_qr_scan"}, "lon": -77.00726766666666, "type": "electric_scooter", "fusion_lat": 0.0, "lat": 38.884946166666666, "name": "111d17fb56a4e8e55993f18fdc83a432", "fusion_lon": 0.0, "bike_id": "111d17fb56a4e8e55993f18fdc83a432", "is_disabled": 0, "is_reserved": 0}, {"rental_uris": {"ios": "https://dc.lft.to/lastmile_qr_scan", "android": "https://dc.lft.to/lastmile_qr_scan"}, "lon": -77.01492, "type": "electric_scooter", "fusion_lat": 0.0, "lat": 38.91771083333333, "name": "52f523d102745b5a47436d43a8b36c0f", "fusion_lon": 0.0, "bike_id": "52f523d102745b5a47436d43a8b36c0f", "is_disabled": 0, "is_reserved": 0}, {"rental_uris": {"ios": "https://dc.lft.to/lastmile_qr_scan", "android": "https://dc.lft.to/lastmile_qr_scan"}, "lon": -77.04104866666667, "type": "electric_scooter", "fusion_lat": 0.0, "lat": 38.918571166666666, "name": "de028103c9d81e9bdb3800fcfda13a6d", "fusion_lon": 0.0, "bike_id": "de028103c9d81e9bdb3800fcfda13a6d", "is_disabled": 0, "is_reserved": 0}, {"rental_uris": {"ios": "https://dc.lft.to/lastmile_qr_scan", "android": "https://dc.lft.to/lastmile_qr_scan"}, "lon": -77.03427216666667, "type": "electric_scooter", "fusion_lat": 0.0, "lat": 38.902746666666665, "name": "cd814c4418ace65daa72cfcff161545f", "fusion_lon": 0.0, "bike_id": "cd814c4418ace65daa72cfcff161545f", "is_disabled": 0, "is_reserved": 0}, {"rental_uris": {"ios": "https://dc.lft.to/lastmile_qr_scan", "android": "https://dc.lft.to/lastmile_qr_scan"}, "lon": -77.04213316666667, "type": "electric_scooter", "fusion_lat": 0.0, "lat": 38.9072195, "name": "0b57bbab268a8ef7495cd9820f14dc7c", "fusion_lon": 0.0, "bike_id": "0b57bbab268a8ef7495cd9820f14dc7c", "is_disabled": 0, "is_reserved": 0}, {"rental_uris": {"ios": "https://dc.lft.to/lastmile_qr_scan", "android": "https://dc.lft.to/lastmile_qr_scan"}, "lon": -77.03140916666666, "type": "electric_scooter", "fusion_lat": 0.0, "lat": 38.9170075, "name": "31961fde2c5cd653a2ff6ce3fca1332d", "fusion_lon": 0.0, "bike_id": "31961fde2c5cd653a2ff6ce3fca1332d", "is_disabled": 0, "is_reserved": 0}, {"rental_uris": {"ios": "https://dc.lft.to/lastmile_qr_scan", "android": "https://dc.lft.to/lastmile_qr_scan"}, "lon": -76.98970016666667, "type": "electric_scooter", "fusion_lat": 0.0, "lat": 38.9024735, "name": "3d8bcd93dbc938dc3d74d67096277305", "fusion_lon": 0.0, "bike_id": "3d8bcd93dbc938dc3d74d67096277305", "is_disabled": 0, "is_reserved": 0}, {"rental_uris": {"ios": "https://dc.lft.to/lastmile_qr_scan", "android": "https://dc.lft.to/lastmile_qr_scan"}, "lon": -77.02007533333334, "type": "electric_scooter", "fusion_lat": 0.0, "lat": 38.9131245, "name": "f20c95086702192161b479d0f10697e4", "fusion_lon": 0.0, "bike_id": "f20c95086702192161b479d0f10697e4", "is_disabled": 0, "is_reserved": 0}, {"rental_uris": {"ios": "https://dc.lft.to/lastmile_qr_scan", "android": "https://dc.lft.to/lastmile_qr_scan"}, "lon": -76.94635, "type": "electric_scooter", "fusion_lat": 0.0, "lat": 38.898314, "name": "2b76b6b01cda2714352a39cd10aa63c5", "fusion_lon": 0.0, "bike_id": "2b76b6b01cda2714352a39cd10aa63c5", "is_disabled": 0, "is_reserved": 0}, {"rental_uris": {"ios": "https://dc.lft.to/lastmile_qr_scan", "android": "https://dc.lft.to/lastmile_qr_scan"}, "lon": -77.03638966666666, "type": "electric_scooter", "fusion_lat": 0.0, "lat": 38.9032255, "name": "a1de261064e032ac3389eb4f6c9036a1", "fusion_lon": 0.0, "bike_id": "a1de261064e032ac3389eb4f6c9036a1", "is_disabled": 0, "is_reserved": 0}, {"rental_uris": {"ios": "https://dc.lft.to/lastmile_qr_scan", "android": "https://dc.lft.to/lastmile_qr_scan"}, "lon": -77.03183683333333, "type": "electric_scooter", "fusion_lat": 0.0, "lat": 38.91464116666667, "name": "83fabd068fa937bd640dede965f61f32", "fusion_lon": 0.0, "bike_id": "83fabd068fa937bd640dede965f61f32", "is_disabled": 0, "is_reserved": 0}, {"rental_uris": {"ios": "https://dc.lft.to/lastmile_qr_scan", "android": "https://dc.lft.to/lastmile_qr_scan"}, "lon": -76.99926583333334, "type": "electric_scooter", "fusion_lat": 0.0, "lat": 38.909085, "name": "b2c3bf62cf3f3fe80b81832eeb01a8fa", "fusion_lon": 0.0, "bike_id": "b2c3bf62cf3f3fe80b81832eeb01a8fa", "is_disabled": 0, "is_reserved": 0}, {"rental_uris": {"ios": "https://dc.lft.to/lastmile_qr_scan", "android": "https://dc.lft.to/lastmile_qr_scan"}, "lon": -77.01381216666667, "type": "electric_scooter", "fusion_lat": 0.0, "lat": 38.92889783333333, "name": "39c22c49b51ef050166dfe5508525062", "fusion_lon": 0.0, "bike_id": "39c22c49b51ef050166dfe5508525062", "is_disabled": 0, "is_reserved": 0}, {"rental_uris": {"ios": "https://dc.lft.to/lastmile_qr_scan", "android": "https://dc.lft.to/lastmile_qr_scan"}, "lon": -76.98952583333333, "type": "electric_scooter", "fusion_lat": 0.0, "lat": 38.90136066666667, "name": "e01f70e367160a6faae20c400e66074b", "fusion_lon": 0.0, "bike_id": "e01f70e367160a6faae20c400e66074b", "is_disabled": 0, "is_reserved": 0}, {"rental_uris": {"ios": "https://dc.lft.to/lastmile_qr_scan", "android": "https://dc.lft.to/lastmile_qr_scan"}, "lon": -77.02842183333334, "type": "electric_scooter", "fusion_lat": 0.0, "lat": 38.93415, "name": "a55bb2fe446b6ac45bf2740e0c5b1ecc", "fusion_lon": 0.0, "bike_id": "a55bb2fe446b6ac45bf2740e0c5b1ecc", "is_disabled": 0, "is_reserved": 0}, {"rental_uris": {"ios": "https://dc.lft.to/lastmile_qr_scan", "android": "https://dc.lft.to/lastmile_qr_scan"}, "lon": -77.02705083333333, "type": "electric_scooter", "fusion_lat": 0.0, "lat": 38.949957833333336, "name": "2eff4ca2a824ec26d0194f8531711059", "fusion_lon": 0.0, "bike_id": "2eff4ca2a824ec26d0194f8531711059", "is_disabled": 0, "is_reserved": 0}, {"rental_uris": {"ios": "https://dc.lft.to/lastmile_qr_scan", "android": "https://dc.lft.to/lastmile_qr_scan"}, "lon": -77.032153, "type": "electric_scooter", "fusion_lat": 0.0, "lat": 38.92060883333333, "name": "4e56e86b01b28fc249122227f8c5b390", "fusion_lon": 0.0, "bike_id": "4e56e86b01b28fc249122227f8c5b390", "is_disabled": 0, "is_reserved": 0}, {"rental_uris": {"ios": "https://dc.lft.to/lastmile_qr_scan", "android": "https://dc.lft.to/lastmile_qr_scan"}, "lon": -77.0061015, "type": "electric_scooter", "fusion_lat": 0.0, "lat": 38.90269883333333, "name": "23a03257fae65b93ca6fe56196dd2290", "fusion_lon": 0.0, "bike_id": "23a03257fae65b93ca6fe56196dd2290", "is_disabled": 0, "is_reserved": 0}, {"rental_uris": {"ios": "https://dc.lft.to/lastmile_qr_scan", "android": "https://dc.lft.to/lastmile_qr_scan"}, "lon": -77.03142266666667, "type": "electric_scooter", "fusion_lat": 0.0, "lat": 38.91405916666667, "name": "cf6f60a335e7464a9b5b8e21b0e7c7e0", "fusion_lon": 0.0, "bike_id": "cf6f60a335e7464a9b5b8e21b0e7c7e0", "is_disabled": 0, "is_reserved": 0}, {"rental_uris": {"ios": "https://dc.lft.to/lastmile_qr_scan", "android": "https://dc.lft.to/lastmile_qr_scan"}, "lon": -76.989978, "type": "electric_scooter", "fusion_lat": 0.0, "lat": 38.9039015, "name": "7277df1d06584e0a0a842f1fe7588871", "fusion_lon": 0.0, "bike_id": "7277df1d06584e0a0a842f1fe7588871", "is_disabled": 0, "is_reserved": 0}, {"rental_uris": {"ios": "https://dc.lft.to/lastmile_qr_scan", "android": "https://dc.lft.to/lastmile_qr_scan"}, "lon": -77.01899983333334, "type": "electric_scooter", "fusion_lat": 0.0, "lat": 38.903568, "name": "ca5e3af4895905fa5426d09eaed38a29", "fusion_lon": 0.0, "bike_id": "ca5e3af4895905fa5426d09eaed38a29", "is_disabled": 0, "is_reserved": 0}, {"rental_uris": {"ios": "https://dc.lft.to/lastmile_qr_scan", "android": "https://dc.lft.to/lastmile_qr_scan"}, "lon": -77.03749283333333, "type": "electric_scooter", "fusion_lat": 0.0, "lat": 38.91256466666667, "name": "24374c14ce4e0c1d982a331ce3994ce1", "fusion_lon": 0.0, "bike_id": "24374c14ce4e0c1d982a331ce3994ce1", "is_disabled": 0, "is_reserved": 0}, {"rental_uris": {"ios": "https://dc.lft.to/lastmile_qr_scan", "android": "https://dc.lft.to/lastmile_qr_scan"}, "lon": -76.99835116666667, "type": "electric_scooter", "fusion_lat": 0.0, "lat": 38.900383, "name": "06ae972a940763c96e8a8400eff66c15", "fusion_lon": 0.0, "bike_id": "06ae972a940763c96e8a8400eff66c15", "is_disabled": 0, "is_reserved": 0}, {"rental_uris": {"ios": "https://dc.lft.to/lastmile_qr_scan", "android": "https://dc.lft.to/lastmile_qr_scan"}, "lon": -77.05756566666666, "type": "electric_scooter", "fusion_lat": 0.0, "lat": 38.934179, "name": "844ec35e1e19b19f3a29edea8f398b68", "fusion_lon": 0.0, "bike_id": "844ec35e1e19b19f3a29edea8f398b68", "is_disabled": 0, "is_reserved": 0}, {"rental_uris": {"ios": "https://dc.lft.to/lastmile_qr_scan", "android": "https://dc.lft.to/lastmile_qr_scan"}, "lon": -77.0309825, "type": "electric_scooter", "fusion_lat": 0.0, "lat": 38.917070833333334, "name": "4633fc3d4da55785be69add0651ad1d8", "fusion_lon": 0.0, "bike_id": "4633fc3d4da55785be69add0651ad1d8", "is_disabled": 0, "is_reserved": 0}, {"rental_uris": {"ios": "https://dc.lft.to/lastmile_qr_scan", "android": "https://dc.lft.to/lastmile_qr_scan"}, "lon": -77.059185, "type": "electric_scooter", "fusion_lat": 0.0, "lat": 38.909581833333334, "name": "31b51bfbb8a7e8ed87d2ddba967989d7", "fusion_lon": 0.0, "bike_id": "31b51bfbb8a7e8ed87d2ddba967989d7", "is_disabled": 0, "is_reserved": 0}, {"rental_uris": {"ios": "https://dc.lft.to/lastmile_qr_scan", "android": "https://dc.lft.to/lastmile_qr_scan"}, "lon": -77.01022933333333, "type": "electric_scooter", "fusion_lat": 0.0, "lat": 38.91811333333333, "name": "4f8fb15b4ee9296b4dba3c24e7d40d35", "fusion_lon": 0.0, "bike_id": "4f8fb15b4ee9296b4dba3c24e7d40d35", "is_disabled": 0, "is_reserved": 0}, {"rental_uris": {"ios": "https://dc.lft.to/lastmile_qr_scan", "android": "https://dc.lft.to/lastmile_qr_scan"}, "lon": -77.019933, "type": "electric_scooter", "fusion_lat": 0.0, "lat": 38.9378105, "name": "cb9281756663516c81ecb9297b33b52b", "fusion_lon": 0.0, "bike_id": "cb9281756663516c81ecb9297b33b52b", "is_disabled": 0, "is_reserved": 0}, {"rental_uris": {"ios": "https://dc.lft.to/lastmile_qr_scan", "android": "https://dc.lft.to/lastmile_qr_scan"}, "lon": -76.99553833333333, "type": "electric_scooter", "fusion_lat": 0.0, "lat": 38.862336166666665, "name": "b49faff4eee2265c9c87386428007655", "fusion_lon": 0.0, "bike_id": "b49faff4eee2265c9c87386428007655", "is_disabled": 0, "is_reserved": 0}, {"rental_uris": {"ios": "https://dc.lft.to/lastmile_qr_scan", "android": "https://dc.lft.to/lastmile_qr_scan"}, "lon": -76.98309283333333, "type": "electric_scooter", "fusion_lat": 0.0, "lat": 38.8996785, "name": "88449c1632c4fd6dbbcd2ecf017a7ab1", "fusion_lon": 0.0, "bike_id": "88449c1632c4fd6dbbcd2ecf017a7ab1", "is_disabled": 0, "is_reserved": 0}, {"rental_uris": {"ios": "https://dc.lft.to/lastmile_qr_scan", "android": "https://dc.lft.to/lastmile_qr_scan"}, "lon": -77.03469533333333, "type": "electric_scooter", "fusion_lat": 0.0, "lat": 38.9344425, "name": "c62eb969732e59fde293d5583557c64a", "fusion_lon": 0.0, "bike_id": "c62eb969732e59fde293d5583557c64a", "is_disabled": 0, "is_reserved": 0}, {"rental_uris": {"ios": "https://dc.lft.to/lastmile_qr_scan", "android": "https://dc.lft.to/lastmile_qr_scan"}, "lon": -76.9478035, "type": "electric_scooter", "fusion_lat": 0.0, "lat": 38.89626466666667, "name": "39b9584c53dde5e14cedf5e0d90af29b", "fusion_lon": 0.0, "bike_id": "39b9584c53dde5e14cedf5e0d90af29b", "is_disabled": 0, "is_reserved": 0}, {"rental_uris": {"ios": "https://dc.lft.to/lastmile_qr_scan", "android": "https://dc.lft.to/lastmile_qr_scan"}, "lon": -77.10340633333334, "type": "electric_bike", "fusion_lat": 0.0, "lat": 38.85229316666667, "name": "064a2abc0e167079eaa3b40567d33b4e", "fusion_lon": 0.0, "bike_id": "064a2abc0e167079eaa3b40567d33b4e", "is_disabled": 0, "is_reserved": 0}, {"rental_uris": {"ios": "https://dc.lft.to/lastmile_qr_scan", "android": "https://dc.lft.to/lastmile_qr_scan"}, "lon": -77.001388, "type": "electric_scooter", "fusion_lat": 0.0, "lat": 38.90410166666667, "name": "ec7a25768cdec6eec44d1ef0d6504cd7", "fusion_lon": 0.0, "bike_id": "ec7a25768cdec6eec44d1ef0d6504cd7", "is_disabled": 0, "is_reserved": 0}, {"rental_uris": {"ios": "https://dc.lft.to/lastmile_qr_scan", "android": "https://dc.lft.to/lastmile_qr_scan"}, "lon": -77.029813, "type": "electric_scooter", "fusion_lat": 0.0, "lat": 38.9623165, "name": "b2b7805914226365feea5930089f03ca", "fusion_lon": 0.0, "bike_id": "b2b7805914226365feea5930089f03ca", "is_disabled": 0, "is_reserved": 0}, {"rental_uris": {"ios": "https://dc.lft.to/lastmile_qr_scan", "android": "https://dc.lft.to/lastmile_qr_scan"}, "lon": -77.00877516666667, "type": "electric_scooter", "fusion_lat": 0.0, "lat": 38.914018666666664, "name": "33ca27bca7bddc10cd9fd271cb5e165f", "fusion_lon": 0.0, "bike_id": "33ca27bca7bddc10cd9fd271cb5e165f", "is_disabled": 0, "is_reserved": 0}, {"rental_uris": {"ios": "https://dc.lft.to/lastmile_qr_scan", "android": "https://dc.lft.to/lastmile_qr_scan"}, "lon": -77.03627716666666, "type": "electric_bike", "fusion_lat": 0.0, "lat": 38.93287933333333, "name": "d2ef4121c9d0363df7c1a497337de151", "fusion_lon": 0.0, "bike_id": "d2ef4121c9d0363df7c1a497337de151", "is_disabled": 0, "is_reserved": 0}, {"rental_uris": {"ios": "https://dc.lft.to/lastmile_qr_scan", "android": "https://dc.lft.to/lastmile_qr_scan"}, "lon": -77.02709233333333, "type": "electric_scooter", "fusion_lat": 0.0, "lat": 38.92781083333333, "name": "9ad8b149bcac3dafb05d65b00fdf6b74", "fusion_lon": 0.0, "bike_id": "9ad8b149bcac3dafb05d65b00fdf6b74", "is_disabled": 0, "is_reserved": 0}, {"rental_uris": {"ios": "https://dc.lft.to/lastmile_qr_scan", "android": "https://dc.lft.to/lastmile_qr_scan"}, "lon": -77.03195366666667, "type": "electric_scooter", "fusion_lat": 0.0, "lat": 38.91464916666666, "name": "8fc5476f093c2fd9e2482b41ed3add4d", "fusion_lon": 0.0, "bike_id": "8fc5476f093c2fd9e2482b41ed3add4d", "is_disabled": 0, "is_reserved": 0}, {"rental_uris": {"ios": "https://dc.lft.to/lastmile_qr_scan", "android": "https://dc.lft.to/lastmile_qr_scan"}, "lon": -77.02165866666667, "type": "electric_scooter", "fusion_lat": 0.0, "lat": 38.886337833333336, "name": "ff1099692c1a3eabfd59fc1d1c31c4ae", "fusion_lon": 0.0, "bike_id": "ff1099692c1a3eabfd59fc1d1c31c4ae", "is_disabled": 0, "is_reserved": 0}, {"rental_uris": {"ios": "https://dc.lft.to/lastmile_qr_scan", "android": "https://dc.lft.to/lastmile_qr_scan"}, "lon": -77.0383675, "type": "electric_scooter", "fusion_lat": 0.0, "lat": 38.908581166666664, "name": "b12aed160e1887b109d80f3f58eabbd7", "fusion_lon": 0.0, "bike_id": "b12aed160e1887b109d80f3f58eabbd7", "is_disabled": 0, "is_reserved": 0}, {"rental_uris": {"ios": "https://dc.lft.to/lastmile_qr_scan", "android": "https://dc.lft.to/lastmile_qr_scan"}, "lon": -77.04152566666667, "type": "electric_scooter", "fusion_lat": 0.0, "lat": 38.9191765, "name": "4648e4d9027b7a718f098689ab5137e3", "fusion_lon": 0.0, "bike_id": "4648e4d9027b7a718f098689ab5137e3", "is_disabled": 0, "is_reserved": 0}, {"rental_uris": {"ios": "https://dc.lft.to/lastmile_qr_scan", "android": "https://dc.lft.to/lastmile_qr_scan"}, "lon": -77.00786633333334, "type": "electric_scooter", "fusion_lat": 0.0, "lat": 38.90654883333333, "name": "f9522a09cf99768a6ca04535e3d1e54c", "fusion_lon": 0.0, "bike_id": "f9522a09cf99768a6ca04535e3d1e54c", "is_disabled": 0, "is_reserved": 0}, {"rental_uris": {"ios": "https://dc.lft.to/lastmile_qr_scan", "android": "https://dc.lft.to/lastmile_qr_scan"}, "lon": -77.02530033333333, "type": "electric_scooter", "fusion_lat": 0.0, "lat": 38.924916333333336, "name": "16d5f254389cfe7710b56f34f435abbc", "fusion_lon": 0.0, "bike_id": "16d5f254389cfe7710b56f34f435abbc", "is_disabled": 0, "is_reserved": 0}, {"rental_uris": {"ios": "https://dc.lft.to/lastmile_qr_scan", "android": "https://dc.lft.to/lastmile_qr_scan"}, "lon": -77.03709083333334, "type": "electric_scooter", "fusion_lat": 0.0, "lat": 38.92638866666667, "name": "9e18cefccf98f9b9c45e77195e146be2", "fusion_lon": 0.0, "bike_id": "9e18cefccf98f9b9c45e77195e146be2", "is_disabled": 0, "is_reserved": 0}, {"rental_uris": {"ios": "https://dc.lft.to/lastmile_qr_scan", "android": "https://dc.lft.to/lastmile_qr_scan"}, "lon": -76.948524, "type": "electric_scooter", "fusion_lat": 0.0, "lat": 38.882993, "name": "a1edfcb86615902b116f0d266811aa97", "fusion_lon": 0.0, "bike_id": "a1edfcb86615902b116f0d266811aa97", "is_disabled": 0, "is_reserved": 0}, {"rental_uris": {"ios": "https://dc.lft.to/lastmile_qr_scan", "android": "https://dc.lft.to/lastmile_qr_scan"}, "lon": -77.04085883333333, "type": "electric_scooter", "fusion_lat": 0.0, "lat": 38.90729566666667, "name": "62397ea9e8d7bcf1467ae32dd0504f92", "fusion_lon": 0.0, "bike_id": "62397ea9e8d7bcf1467ae32dd0504f92", "is_disabled": 0, "is_reserved": 0}, {"rental_uris": {"ios": "https://dc.lft.to/lastmile_qr_scan", "android": "https://dc.lft.to/lastmile_qr_scan"}, "lon": -76.94783783333334, "type": "electric_bike", "fusion_lat": 0.0, "lat": 38.89442666666667, "name": "7c1e5920c43dc0778102caeb1c701cd3", "fusion_lon": 0.0, "bike_id": "7c1e5920c43dc0778102caeb1c701cd3", "is_disabled": 0, "is_reserved": 0}, {"rental_uris": {"ios": "https://dc.lft.to/lastmile_qr_scan", "android": "https://dc.lft.to/lastmile_qr_scan"}, "lon": -77.00103616666667, "type": "electric_scooter", "fusion_lat": 0.0, "lat": 38.89429533333333, "name": "36d0c5b7abd07ecf8ca0e88420bd1507", "fusion_lon": 0.0, "bike_id": "36d0c5b7abd07ecf8ca0e88420bd1507", "is_disabled": 0, "is_reserved": 0}, {"rental_uris": {"ios": "https://dc.lft.to/lastmile_qr_scan", "android": "https://dc.lft.to/lastmile_qr_scan"}, "lon": -77.03295216666666, "type": "electric_scooter", "fusion_lat": 0.0, "lat": 38.92212466666667, "name": "bacd44bd128ec8dd6c7fc40e8ceae813", "fusion_lon": 0.0, "bike_id": "bacd44bd128ec8dd6c7fc40e8ceae813", "is_disabled": 0, "is_reserved": 0}, {"rental_uris": {"ios": "https://dc.lft.to/lastmile_qr_scan", "android": "https://dc.lft.to/lastmile_qr_scan"}, "lon": -77.02098733333334, "type": "electric_scooter", "fusion_lat": 0.0, "lat": 38.910078666666664, "name": "ab5a045827250f842d6c6e62fff358a8", "fusion_lon": 0.0, "bike_id": "ab5a045827250f842d6c6e62fff358a8", "is_disabled": 0, "is_reserved": 0}, {"rental_uris": {"ios": "https://dc.lft.to/lastmile_qr_scan", "android": "https://dc.lft.to/lastmile_qr_scan"},