{"data": {"bikes": [{"is_reserved": 0, "type": "electric_scooter", "bike_id": "5b5b75c71ba797101a3b3d8bd219f465", "lat": 38.9052805, "lon": -76.98405616666666, "rental_uris": {"android": "https://dc.lft.to/lastmile_qr_scan", "ios": "https://dc.lft.to/lastmile_qr_scan"}, "is_disabled": 0, "fusion_lat": 0.0, "name": "5b5b75c71ba797101a3b3d8bd219f465", "fusion_lon": 0.0}, {"is_reserved": 0, "type": "electric_scooter", "bike_id": "87d5d8d27170d01a882bf7735d79abc9", "lat": 38.912222666666665, "lon": -76.986922, "rental_uris": {"android": "https://dc.lft.to/lastmile_qr_scan", "ios": "https://dc.lft.to/lastmile_qr_scan"}, "is_disabled": 0, "fusion_lat": 0.0, "name": "87d5d8d27170d01a882bf7735d79abc9", "fusion_lon": 0.0}, {"is_reserved": 0, "type": "electric_scooter", "bike_id": "a06e5acc2935491a30c7e54522207cb0", "lat": 38.9452075, "lon": -77.02978783333333, "rental_uris": {"android": "https://dc.lft.to/lastmile_qr_scan", "ios": "https://dc.lft.to/lastmile_qr_scan"}, "is_disabled": 0, "fusion_lat": 0.0, "name": "a06e5acc2935491a30c7e54522207cb0", "fusion_lon": 0.0}, {"is_reserved": 0, "type": "electric_scooter", "bike_id": "64e0d77f850dc2c4f3acb243818c7c97", "lat": 38.9298025, "lon": -77.05501033333333, "rental_uris": {"android": "https://dc.lft.to/lastmile_qr_scan", "ios": "https://dc.lft.to/lastmile_qr_scan"}, "is_disabled": 0, "fusion_lat": 0.0, "name": "64e0d77f850dc2c4f3acb243818c7c97", "fusion_lon": 0.0}, {"is_reserved": 0, "type": "electric_scooter", "bike_id": "8466795d0a0be2f86d3cb1cf9dc4c061", "lat": 38.92377283333333, "lon": -77.01914933333333, "rental_uris": {"android": "https://dc.lft.to/lastmile_qr_scan", "ios": "https://dc.lft.to/lastmile_qr_scan"}, "is_disabled": 0, "fusion_lat": 0.0, "name": "8466795d0a0be2f86d3cb1cf9dc4c061", "fusion_lon": 0.0}, {"is_reserved": 0, "type": "electric_scooter", "bike_id": "326f5a5729b2d3071df087353b4b5474", "lat": 38.90087316666666, "lon": -77.0019445, "rental_uris": {"android": "https://dc.lft.to/lastmile_qr_scan", "ios": "https://dc.lft.to/lastmile_qr_scan"}, "is_disabled": 0, "fusion_lat": 0.0, "name": "326f5a5729b2d3071df087353b4b5474", "fusion_lon": 0.0}, {"is_reserved": 0, "type": "electric_scooter", "bike_id": "657df37a65b1fd7d225254b9ce8db8b8", "lat": 38.930611, "lon": -77.02961333333333, "rental_uris": {"android": "https://dc.lft.to/lastmile_qr_scan", "ios": "https://dc.lft.to/lastmile_qr_scan"}, "is_disabled": 0, "fusion_lat": 0.0, "name": "657df37a65b1fd7d225254b9ce8db8b8", "fusion_lon": 0.0}, {"is_reserved": 0, "type": "electric_scooter", "bike_id": "9057b44ba198c81b6e1f4ffffef18d9d", "lat": 38.9154065, "lon": -77.031963, "rental_uris": {"android": "https://dc.lft.to/lastmile_qr_scan", "ios": "https://dc.lft.to/lastmile_qr_scan"}, "is_disabled": 0, "fusion_lat": 0.0, "name": "9057b44ba198c81b6e1f4ffffef18d9d", "fusion_lon": 0.0}, {"is_reserved": 0, "type": "electric_scooter", "bike_id": "f021460bf115b1c2b534e107dc039d58", "lat": 38.90539033333334, "lon": -77.05911466666667, "rental_uris": {"android": "https://dc.lft.to/lastmile_qr_scan", "ios": "https://dc.lft.to/lastmile_qr_scan"}, "is_disabled": 0, "fusion_lat": 0.0, "name": "f021460bf115b1c2b534e107dc039d58", "fusion_lon": 0.0}, {"is_reserved": 0, "type": "electric_scooter", "bike_id": "328d0e63463cec98a65cb31c53d7b670", "lat": 38.90779066666666, "lon": -77.03558033333333, "rental_uris": {"android": "https://dc.lft.to/lastmile_qr_scan", "ios": "https://dc.lft.to/lastmile_qr_scan"}, "is_disabled": 0, "fusion_lat": 0.0, "name": "328d0e63463cec98a65cb31c53d7b670", "fusion_lon": 0.0}, {"is_reserved": 0, "type": "electric_scooter", "bike_id": "c452401d49ddd97fedeba2d2f25b024e", "lat": 38.91712583333333, "lon": -77.03868616666666, "rental_uris": {"android": "https://dc.lft.to/lastmile_qr_scan", "ios": "https://dc.lft.to/lastmile_qr_scan"}, "is_disabled": 0, "fusion_lat": 0.0, "name": "c452401d49ddd97fedeba2d2f25b024e", "fusion_lon": 0.0}, {"is_reserved": 0, "type": "electric_scooter", "bike_id": "b0bfa05b80aa7933623a1d48549f5b91", "lat": 38.9060135, "lon": -76.95056583333333, "rental_uris": {"android": "https://dc.lft.to/lastmile_qr_scan", "ios": "https://dc.lft.to/lastmile_qr_scan"}, "is_disabled": 0, "fusion_lat": 0.0, "name": "b0bfa05b80aa7933623a1d48549f5b91", "fusion_lon": 0.0}, {"is_reserved": 0, "type": "electric_bike", "bike_id": "c3ffd222adef8427e07ba1abe5308c9f", "lat": 38.894583, "lon": -77.19127083333333, "rental_uris": {"android": "https://dc.lft.to/lastmile_qr_scan", "ios": "https://dc.lft.to/lastmile_qr_scan"}, "is_disabled": 0, "fusion_lat": 0.0, "name": "c3ffd222adef8427e07ba1abe5308c9f", "fusion_lon": 0.0}, {"is_reserved": 0, "type": "electric_scooter", "bike_id": "52d51973ceba41c510589c426dc9cc9e", "lat": 38.9015245, "lon": -77.04160583333334, "rental_uris": {"android": "https://dc.lft.to/lastmile_qr_scan", "ios": "https://dc.lft.to/lastmile_qr_scan"}, "is_disabled": 0, "fusion_lat": 0.0, "name": "52d51973ceba41c510589c426dc9cc9e", "fusion_lon": 0.0}, {"is_reserved": 0, "type": "electric_scooter", "bike_id": "f4b4e8efb7e1d802522ec395143332f5", "lat": 38.89742583333334, "lon": -77.02008316666667, "rental_uris": {"android": "https://dc.lft.to/lastmile_qr_scan", "ios": "https://dc.lft.to/lastmile_qr_scan"}, "is_disabled": 0, "fusion_lat": 0.0, "name": "f4b4e8efb7e1d802522ec395143332f5", "fusion_lon": 0.0}, {"is_reserved": 0, "type": "electric_scooter", "bike_id": "92fed7a8680bd764e1c19119f845d5cb", "lat": 38.88389566666667, "lon": -76.93042183333333, "rental_uris": {"android": "https://dc.lft.to/lastmile_qr_scan", "ios": "https://dc.lft.to/lastmile_qr_scan"}, "is_disabled": 0, "fusion_lat": 0.0, "name": "92fed7a8680bd764e1c19119f845d5cb", "fusion_lon": 0.0}, {"is_reserved": 0, "type": "electric_scooter", "bike_id": "68d1a57a64f8e2a81759e12a89e4ddbd", "lat": 38.932105166666666, "lon": -77.03876983333333, "rental_uris": {"android": "https://dc.lft.to/lastmile_qr_scan", "ios": "https://dc.lft.to/lastmile_qr_scan"}, "is_disabled": 0, "fusion_lat": 0.0, "name": "68d1a57a64f8e2a81759e12a89e4ddbd", "fusion_lon": 0.0}, {"is_reserved": 0, "type": "electric_scooter", "bike_id": "1bb6cdaf4ab1c8208103dd2950214106", "lat": 38.936093166666666, "lon": -77.05889383333333, "rental_uris": {"android": "https://dc.lft.to/lastmile_qr_scan", "ios": "https://dc.lft.to/lastmile_qr_scan"}, "is_disabled": 0, "fusion_lat": 0.0, "name": "1bb6cdaf4ab1c8208103dd2950214106", "fusion_lon": 0.0}, {"is_reserved": 0, "type": "electric_scooter", "bike_id": "07cf6fb349716797200dfc381d2dfae8", "lat": 38.92439566666667, "lon": -77.00066966666667, "rental_uris": {"android": "https://dc.lft.to/lastmile_qr_scan", "ios": "https://dc.lft.to/lastmile_qr_scan"}, "is_disabled": 0, "fusion_lat": 0.0, "name": "07cf6fb349716797200dfc381d2dfae8", "fusion_lon": 0.0}, {"is_reserved": 0, "type": "electric_scooter", "bike_id": "5cdbeac21f47c95cd7c970e6a181e782", "lat": 38.89241466666667, "lon": -77.01342733333334, "rental_uris": {"android": "https://dc.lft.to/lastmile_qr_scan", "ios": "https://dc.lft.to/lastmile_qr_scan"}, "is_disabled": 0, "fusion_lat": 0.0, "name": "5cdbeac21f47c95cd7c970e6a181e782", "fusion_lon": 0.0}, {"is_reserved": 0, "type": "electric_scooter", "bike_id": "6410a3808c573c5440898c06eb685cca", "lat": 38.91804366666667, "lon": -77.02696933333333, "rental_uris": {"android": "https://dc.lft.to/lastmile_qr_scan", "ios": "https://dc.lft.to/lastmile_qr_scan"}, "is_disabled": 0, "fusion_lat": 0.0, "name": "6410a3808c573c5440898c06eb685cca", "fusion_lon": 0.0}, {"is_reserved": 0, "type": "electric_scooter", "bike_id": "b59cc93f15e0aed0dbd6b47d4a24faac", "lat": 38.9191865, "lon": -77.0480065, "rental_uris": {"android": "https://dc.lft.to/lastmile_qr_scan", "ios": "https://dc.lft.to/lastmile_qr_scan"}, "is_disabled": 0, "fusion_lat": 0.0, "name": "b59cc93f15e0aed0dbd6b47d4a24faac", "fusion_lon": 0.0}, {"is_reserved": 0, "type": "electric_scooter", "bike_id": "aba9b9283539cbc34ba352e3f011a9d0", "lat": 38.89607433333333, "lon": -77.008872, "rental_uris": {"android": "https://dc.lft.to/lastmile_qr_scan", "ios": "https://dc.lft.to/lastmile_qr_scan"}, "is_disabled": 0, "fusion_lat": 0.0, "name": "aba9b9283539cbc34ba352e3f011a9d0", "fusion_lon": 0.0}, {"is_reserved": 0, "type": "electric_bike", "bike_id": "732e6d453f20011f608d14d841ce4b42", "lat": 38.944764666666664, "lon": -76.986888, "rental_uris": {"android": "https://dc.lft.to/lastmile_qr_scan", "ios": "https://dc.lft.to/lastmile_qr_scan"}, "is_disabled": 0, "fusion_lat": 0.0, "name": "732e6d453f20011f608d14d841ce4b42", "fusion_lon": 0.0}, {"is_reserved": 0, "type": "electric_scooter", "bike_id": "872667b4a48c8a749dc6d2af2ef797c4", "lat": 38.931361833333334, "lon": -77.02301983333334, "rental_uris": {"android": "https://dc.lft.to/lastmile_qr_scan", "ios": "https://dc.lft.to/lastmile_qr_scan"}, "is_disabled": 0, "fusion_lat": 0.0, "name": "872667b4a48c8a749dc6d2af2ef797c4", "fusion_lon": 0.0}, {"is_reserved": 0, "type": "electric_scooter", "bike_id": "9102e5b1df605481ff592278e4c6327a", "lat": 38.91612966666667, "lon": -77.03727816666667, "rental_uris": {"android": "https://dc.lft.to/lastmile_qr_scan", "ios": "https://dc.lft.to/lastmile_qr_scan"}, "is_disabled": 0, "fusion_lat": 0.0, "name": "9102e5b1df605481ff592278e4c6327a", "fusion_lon": 0.0}, {"is_reserved": 0, "type": "electric_scooter", "bike_id": "ca3e9c47ef8443db88d548ddf2b451bf", "lat": 38.902872, "lon": -77.02271883333333, "rental_uris": {"android": "https://dc.lft.to/lastmile_qr_scan", "ios": "https://dc.lft.to/lastmile_qr_scan"}, "is_disabled": 0, "fusion_lat": 0.0, "name": "ca3e9c47ef8443db88d548ddf2b451bf", "fusion_lon": 0.0}, {"is_reserved": 0, "type": "electric_scooter", "bike_id": "71e23887d7be10c21c3ef7590ac7edca", "lat": 38.916755, "lon": -77.023806, "rental_uris": {"android": "https://dc.lft.to/lastmile_qr_scan", "ios": "https://dc.lft.to/lastmile_qr_scan"}, "is_disabled": 0, "fusion_lat": 0.0, "name": "71e23887d7be10c21c3ef7590ac7edca", "fusion_lon": 0.0}, {"is_reserved": 0, "type": "electric_scooter", "bike_id": "8f7919b72be8ce282e6074a14cdf7fff", "lat": 38.907771333333336, "lon": -77.04508516666667, "rental_uris": {"android": "https://dc.lft.to/lastmile_qr_scan", "ios": "https://dc.lft.to/lastmile_qr_scan"}, "is_disabled": 0, "fusion_lat": 0.0, "name": "8f7919b72be8ce282e6074a14cdf7fff", "fusion_lon": 0.0}, {"is_reserved": 0, "type": "electric_scooter", "bike_id": "9c9e9263fd56365c93b3d5adb47d6a43", "lat": 38.87657633333333, "lon": -77.0057335, "rental_uris": {"android": "https://dc.lft.to/lastmile_qr_scan", "ios": "https://dc.lft.to/lastmile_qr_scan"}, "is_disabled": 0, "fusion_lat": 0.0, "name": "9c9e9263fd56365c93b3d5adb47d6a43", "fusion_lon": 0.0}, {"is_reserved": 0, "type": "electric_scooter", "bike_id": "e8f60b5df6427d50b1a7911fd1c85a75", "lat": 38.880187166666666, "lon": -77.0248005, "rental_uris": {"android": "https://dc.lft.to/lastmile_qr_scan", "ios": "https://dc.lft.to/lastmile_qr_scan"}, "is_disabled": 0, "fusion_lat": 0.0, "name": "e8f60b5df6427d50b1a7911fd1c85a75", "fusion_lon": 0.0}, {"is_reserved": 0, "type": "electric_scooter", "bike_id": "6a2d6ad39f709cce1a95e556a9d45d3d", "lat": 38.925686166666665, "lon": -77.02275883333333, "rental_uris": {"android": "https://dc.lft.to/lastmile_qr_scan", "ios": "https://dc.lft.to/lastmile_qr_scan"}, "is_disabled": 0, "fusion_lat": 0.0, "name": "6a2d6ad39f709cce1a95e556a9d45d3d", "fusion_lon": 0.0}, {"is_reserved": 0, "type": "electric_scooter", "bike_id": "6df07c24e30ec3793c847d205ba3e937", "lat": 38.9301995, "lon": -77.02333616666667, "rental_uris": {"android": "https://dc.lft.to/lastmile_qr_scan", "ios": "https://dc.lft.to/lastmile_qr_scan"}, "is_disabled": 0, "fusion_lat": 0.0, "name": "6df07c24e30ec3793c847d205ba3e937", "fusion_lon": 0.0}, {"is_reserved": 0, "type": "electric_scooter", "bike_id": "75bbfda98eefd970e804937d2c419445", "lat": 38.91109733333333, "lon": -77.01905816666667, "rental_uris": {"android": "https://dc.lft.to/lastmile_qr_scan", "ios": "https://dc.lft.to/lastmile_qr_scan"}, "is_disabled": 0, "fusion_lat": 0.0, "name": "75bbfda98eefd970e804937d2c419445", "fusion_lon": 0.0}, {"is_reserved": 0, "type": "electric_scooter", "bike_id": "182ac7eb694dc4f4d14d08aea6939fcf", "lat": 38.916369833333334, "lon": -77.03219633333333, "rental_uris": {"android": "https://dc.lft.to/lastmile_qr_scan", "ios": "https://dc.lft.to/lastmile_qr_scan"}, "is_disabled": 0, "fusion_lat": 0.0, "name": "182ac7eb694dc4f4d14d08aea6939fcf", "fusion_lon": 0.0}, {"is_reserved": 0, "type": "electric_scooter", "bike_id": "f131c695e6c566b1ce008bfc76798bc9", "lat": 38.9171055, "lon": -77.029767, "rental_uris": {"android": "https://dc.lft.to/lastmile_qr_scan", "ios": "https://dc.lft.to/lastmile_qr_scan"}, "is_disabled": 0, "fusion_lat": 0.0, "name": "f131c695e6c566b1ce008bfc76798bc9", "fusion_lon": 0.0}, {"is_reserved": 0, "type": "electric_bike", "bike_id": "dc27721dde8fd37770cf1d02f23e3e54", "lat": 38.9086205, "lon": -76.9848395, "rental_uris": {"android": "https://dc.lft.to/lastmile_qr_scan", "ios": "https://dc.lft.to/lastmile_qr_scan"}, "is_disabled": 0, "fusion_lat": 0.0, "name": "dc27721dde8fd37770cf1d02f23e3e54", "fusion_lon": 0.0}, {"is_reserved": 0, "type": "electric_scooter", "bike_id": "107007b79f750e348e777fbd346404f8", "lat": 38.898209666666666, "lon": -77.04809033333333, "rental_uris": {"android": "https://dc.lft.to/lastmile_qr_scan", "ios": "https://dc.lft.to/lastmile_qr_scan"}, "is_disabled": 0, "fusion_lat": 0.0, "name": "107007b79f750e348e777fbd346404f8", "fusion_lon": 0.0}, {"is_reserved": 0, "type": "electric_scooter", "bike_id": "18760818f195e342b986dced9720412c", "lat": 38.8788265, "lon": -77.02330016666667, "rental_uris": {"android": "https://dc.lft.to/lastmile_qr_scan", "ios": "https://dc.lft.to/lastmile_qr_scan"}, "is_disabled": 0, "fusion_lat": 0.0, "name": "18760818f195e342b986dced9720412c", "fusion_lon": 0.0}, {"is_reserved": 0, "type": "electric_scooter", "bike_id": "ee5992f3a09b82391692c2c31899d835", "lat": 38.95208933333333, "lon": -77.00260766666666, "rental_uris": {"android": "https://dc.lft.to/lastmile_qr_scan", "ios": "https://dc.lft.to/lastmile_qr_scan"}, "is_disabled": 0, "fusion_lat": 0.0, "name": "ee5992f3a09b82391692c2c31899d835", "fusion_lon": 0.0}, {"is_reserved": 0, "type": "electric_scooter", "bike_id": "a4ccd990bbf9afb33e3e9f05b3c4c325", "lat": 38.898185, "lon": -77.02930866666667, "rental_uris": {"android": "https://dc.lft.to/lastmile_qr_scan", "ios": "https://dc.lft.to/lastmile_qr_scan"}, "is_disabled": 0, "fusion_lat": 0.0, "name": "a4ccd990bbf9afb33e3e9f05b3c4c325", "fusion_lon": 0.0}, {"is_reserved": 0, "type": "electric_scooter", "bike_id": "f010e27ebeca5588c015f3e388599d4a", "lat": 38.926106, "lon": -77.0242335, "rental_uris": {"android": "https://dc.lft.to/lastmile_qr_scan", "ios": "https://dc.lft.to/lastmile_qr_scan"}, "is_disabled": 0, "fusion_lat": 0.0, "name": "f010e27ebeca5588c015f3e388599d4a", "fusion_lon": 0.0}, {"is_reserved": 0, "type": "electric_scooter", "bike_id": "58252a68b7cf320a0160609b8d260aa5", "lat": 38.8952185, "lon": -77.039569, "rental_uris": {"android": "https://dc.lft.to/lastmile_qr_scan", "ios": "https://dc.lft.to/lastmile_qr_scan"}, "is_disabled": 0, "fusion_lat": 0.0, "name": "58252a68b7cf320a0160609b8d260aa5", "fusion_lon": 0.0}, {"is_reserved": 0, "type": "electric_scooter", "bike_id": "bf64241911de0e1028df25f95e3a910e", "lat": 38.9122715, "lon": -77.026844, "rental_uris": {"android": "https://dc.lft.to/lastmile_qr_scan", "ios": "https://dc.lft.to/lastmile_qr_scan"}, "is_disabled": 0, "fusion_lat": 0.0, "name": "bf64241911de0e1028df25f95e3a910e", "fusion_lon": 0.0}, {"is_reserved": 0, "type": "electric_bike", "bike_id": "ed1fbdad8432dcda733a4151dda6f543", "lat": 38.9085135, "lon": -77.06352133333333, "rental_uris": {"android": "https://dc.lft.to/lastmile_qr_scan", "ios": "https://dc.lft.to/lastmile_qr_scan"}, "is_disabled": 0, "fusion_lat": 0.0, "name": "ed1fbdad8432dcda733a4151dda6f543", "fusion_lon": 0.0}, {"is_reserved": 0, "type": "electric_scooter", "bike_id": "8063bde4bef6b6d0cdc77ae585855c7b", "lat": 38.895967666666664, "lon": -76.929831, "rental_uris": {"android": "https://dc.lft.to/lastmile_qr_scan", "ios": "https://dc.lft.to/lastmile_qr_scan"}, "is_disabled": 0, "fusion_lat": 0.0, "name": "8063bde4bef6b6d0cdc77ae585855c7b", "fusion_lon": 0.0}, {"is_reserved": 0, "type": "electric_scooter", "bike_id": "70cf6cadfe17030d9a45936a847d661b", "lat": 38.900353833333334, "lon": -76.99845666666667, "rental_uris": {"android": "https://dc.lft.to/lastmile_qr_scan", "ios": "https://dc.lft.to/lastmile_qr_scan"}, "is_disabled": 0, "fusion_lat": 0.0, "name": "70cf6cadfe17030d9a45936a847d661b", "fusion_lon": 0.0}, {"is_reserved": 0, "type": "electric_scooter", "bike_id": "53a0618ff9c0d345223393487624c8ed", "lat": 38.89224766666667, "lon": -77.024166, "rental_uris": {"android": "https://dc.lft.to/lastmile_qr_scan", "ios": "https://dc.lft.to/lastmile_qr_scan"}, "is_disabled": 0, "fusion_lat": 0.0, "name": "53a0618ff9c0d345223393487624c8ed", "fusion_lon": 0.0}, {"is_reserved": 0, "type": "electric_scooter", "bike_id": "af5460d150e45553ab8595b52e0265b4", "lat": 38.898473333333335, "lon": -77.0221275, "rental_uris": {"android": "https://dc.lft.to/lastmile_qr_scan", "ios": "https://dc.lft.to/lastmile_qr_scan"}, "is_disabled": 0, "fusion_lat": 0.0, "name": "af5460d150e45553ab8595b52e0265b4", "fusion_lon": 0.0}, {"is_reserved": 0, "type": "electric_scooter", "bike_id": "37ecaed58a8af0ebb87c0955c4bf7b5b", "lat": 38.8766465, "lon": -77.00801066666666, "rental_uris": {"android": "https://dc.lft.to/lastmile_qr_scan", "ios": "https://dc.lft.to/lastmile_qr_scan"}, "is_disabled": 0, "fusion_lat": 0.0, "name": "37ecaed58a8af0ebb87c0955c4bf7b5b", "fusion_lon": 0.0}, {"is_reserved": 0, "type": "electric_scooter", "bike_id": "b682c5c3288a8d2a8fa5b75fffa2fc4e", "lat": 38.9239535, "lon": -77.0444995, "rental_uris": {"android": "https://dc.lft.to/lastmile_qr_scan", "ios": "https://dc.lft.to/lastmile_qr_scan"}, "is_disabled": 0, "fusion_lat": 0.0, "name": "b682c5c3288a8d2a8fa5b75fffa2fc4e", "fusion_lon": 0.0}, {"is_reserved": 0, "type": "electric_scooter", "bike_id": "35a4198a1e83fe82b636cdd6ed6c38cb", "lat": 38.898331666666664, "lon": -77.030368, "rental_uris": {"android": "https://dc.lft.to/lastmile_qr_scan", "ios": "https://dc.lft.to/lastmile_qr_scan"}, "is_disabled": 0, "fusion_lat": 0.0, "name": "35a4198a1e83fe82b636cdd6ed6c38cb", "fusion_lon": 0.0}, {"is_reserved": 0, "type": "electric_scooter", "bike_id": "7920ff548aea431fa7b00afc3092992a", "lat": 38.8830065, "lon": -76.94857583333334, "rental_uris": {"android": "https://dc.lft.to/lastmile_qr_scan", "ios": "https://dc.lft.to/lastmile_qr_scan"}, "is_disabled": 0, "fusion_lat": 0.0, "name": "7920ff548aea431fa7b00afc3092992a", "fusion_lon": 0.0}, {"is_reserved": 0, "type": "electric_scooter", "bike_id": "08967ceb5af9b0faa34099d9862613d7", "lat": 38.90098783333333, "lon": -77.04956366666667, "rental_uris": {"android": "https://dc.lft.to/lastmile_qr_scan", "ios": "https://dc.lft.to/lastmile_qr_scan"}, "is_disabled": 0, "fusion_lat": 0.0, "name": "08967ceb5af9b0faa34099d9862613d7", "fusion_lon": 0.0}, {"is_reserved": 0, "type": "electric_scooter", "bike_id": "66f38a0cce5de5dacf5a91a9aeed2b99", "lat": 38.9387555, "lon": -77.03216033333334, "rental_uris": {"android": "https://dc.lft.to/lastmile_qr_scan", "ios": "https://dc.lft.to/lastmile_qr_scan"}, "is_disabled": 0, "fusion_lat": 0.0, "name": "66f38a0cce5de5dacf5a91a9aeed2b99", "fusion_lon": 0.0}, {"is_reserved": 0, "type": "electric_scooter", "bike_id": "5dbdd74f1c685a5941281ae25604ad11", "lat": 38.92486233333333, "lon": -77.02706816666667, "rental_uris": {"android": "https://dc.lft.to/lastmile_qr_scan", "ios": "https://dc.lft.to/lastmile_qr_scan"}, "is_disabled": 0, "fusion_lat": 0.0, "name": "5dbdd74f1c685a5941281ae25604ad11", "fusion_lon": 0.0}, {"is_reserved": 0, "type": "electric_scooter", "bike_id": "e99d7cd82b58e0b856f9bb5ac70c14fc", "lat": 38.923066166666665, "lon": -77.03018366666667, "rental_uris": {"android": "https://dc.lft.to/lastmile_qr_scan", "ios": "https://dc.lft.to/lastmile_qr_scan"}, "is_disabled": 0, "fusion_lat": 0.0, "name": "e99d7cd82b58e0b856f9bb5ac70c14fc", "fusion_lon": 0.0}, {"is_reserved": 0, "type": "electric_scooter", "bike_id": "b299688c1d6c2c7873b3f129238ff208", "lat": 38.911121, "lon": -77.07348233333333, "rental_uris": {"android": "https://dc.lft.to/lastmile_qr_scan", "ios": "https://dc.lft.to/lastmile_qr_scan"}, "is_disabled": 0, "fusion_lat": 0.0, "name": "b299688c1d6c2c7873b3f129238ff208", "fusion_lon": 0.0}, {"is_reserved": 0, "type": "electric_scooter", "bike_id": "706a5eeb5b8975ec471563e613fd6fad", "lat": 38.922665, "lon": -77.01962183333333, "rental_uris": {"android": "https://dc.lft.to/lastmile_qr_scan", "ios": "https://dc.lft.to/lastmile_qr_scan"}, "is_disabled": 0, "fusion_lat": 0.0, "name": "706a5eeb5b8975ec471563e613fd6fad", "fusion_lon": 0.0}, {"is_reserved": 0, "type": "electric_scooter", "bike_id": "6daf15cb94e1cfa1fc193b75b3bb2df0", "lat": 38.9232295, "lon": -77.04125433333333, "rental_uris": {"android": "https://dc.lft.to/lastmile_qr_scan", "ios": "https://dc.lft.to/lastmile_qr_scan"}, "is_disabled": 0, "fusion_lat": 0.0, "name": "6daf15cb94e1cfa1fc193b75b3bb2df0", "fusion_lon": 0.0}, {"is_reserved": 0, "type": "electric_scooter", "bike_id": "afcd676b21b1b18b18a1af26ad2558ac", "lat": 38.878526666666666, "lon": -77.00690866666666, "rental_uris": {"android": "https://dc.lft.to/lastmile_qr_scan", "ios": "https://dc.lft.to/lastmile_qr_scan"}, "is_disabled": 0, "fusion_lat": 0.0, "name": "afcd676b21b1b18b18a1af26ad2558ac", "fusion_lon": 0.0}, {"is_reserved": 0, "type": "electric_bike", "bike_id": "849405a16f847308258ea3fdcded8ea0", "lat": 38.87677683333333, "lon": -77.0199745, "rental_uris": {"android": "https://dc.lft.to/lastmile_qr_scan", "ios": "https://dc.lft.to/lastmile_qr_scan"}, "is_disabled": 0, "fusion_lat": 0.0, "name": "849405a16f847308258ea3fdcded8ea0", "fusion_lon": 0.0}, {"is_reserved": 0, "type": "electric_scooter", "bike_id": "77125c9f3a31c44fb9ad1d42a319ac7e", "lat": 38.921646, "lon": -77.0338415, "rental_uris": {"android": "https://dc.lft.to/lastmile_qr_scan", "ios": "https://dc.lft.to/lastmile_qr_scan"}, "is_disabled": 0, "fusion_lat": 0.0, "name": "77125c9f3a31c44fb9ad1d42a319ac7e", "fusion_lon": 0.0}, {"is_reserved": 0, "type": "electric_scooter", "bike_id": "e87593e3db275426b82e3630dfb25a20", "lat": 38.91418066666667, "lon": -77.01872516666667, "rental_uris": {"android": "https://dc.lft.to/lastmile_qr_scan", "ios": "https://dc.lft.to/lastmile_qr_scan"}, "is_disabled": 0, "fusion_lat": 0.0, "name": "e87593e3db275426b82e3630dfb25a20", "fusion_lon": 0.0}, {"is_reserved": 0, "type": "electric_scooter", "bike_id": "69fed9851622929a3c2ec19dc3f39f36", "lat": 38.91405816666666, "lon": -77.03169133333333, "rental_uris": {"android": "https://dc.lft.to/lastmile_qr_scan", "ios": "https://dc.lft.to/lastmile_qr_scan"}, "is_disabled": 0, "fusion_lat": 0.0, "name": "69fed9851622929a3c2ec19dc3f39f36", "fusion_lon": 0.0}, {"is_reserved": 0, "type": "electric_bike", "bike_id": "f35d13517ffb4d9fd61492ec2397a9f9", "lat": 38.9017555, "lon": -76.9766345, "rental_uris": {"android": "https://dc.lft.to/lastmile_qr_scan", "ios": "https://dc.lft.to/lastmile_qr_scan"}, "is_disabled": 0, "fusion_lat": 0.0, "name": "f35d13517ffb4d9fd61492ec2397a9f9", "fusion_lon": 0.0}, {"is_reserved": 0, "type": "electric_scooter", "bike_id": "e7f999ce90aa6b4a04ef55ab99ff7770", "lat": 38.930744833333335, "lon": -77.02815216666667, "rental_uris": {"android": "https://dc.lft.to/lastmile_qr_scan", "ios": "https://dc.lft.to/lastmile_qr_scan"}, "is_disabled": 0, "fusion_lat": 0.0, "name": "e7f999ce90aa6b4a04ef55ab99ff7770", "fusion_lon": 0.0}, {"is_reserved": 0, "type": "electric_scooter", "bike_id": "b96cd68918471ed129104a1d5268a515", "lat": 38.883708, "lon": -76.995185, "rental_uris": {"android": "https://dc.lft.to/lastmile_qr_scan", "ios": "https://dc.lft.to/lastmile_qr_scan"}, "is_disabled": 0, "fusion_lat": 0.0, "name": "b96cd68918471ed129104a1d5268a515", "fusion_lon": 0.0}, {"is_reserved": 0, "type": "electric_scooter", "bike_id": "944f893c519d0eaf387ace6d4e6148a7", "lat": 38.93117, "lon": -77.02319533333333, "rental_uris": {"android": "https://dc.lft.to/lastmile_qr_scan", "ios": "https://dc.lft.to/lastmile_qr_scan"}, "is_disabled": 0, "fusion_lat": 0.0, "name": "944f893c519d0eaf387ace6d4e6148a7", "fusion_lon": 0.0}, {"is_reserved": 0, "type": "electric_bike", "bike_id": "b1b457fb3a3d1acbe14aae3130870813", "lat": 38.94564466666667, "lon": -76.95836333333334, "rental_uris": {"android": "https://dc.lft.to/lastmile_qr_scan", "ios": "https://dc.lft.to/lastmile_qr_scan"}, "is_disabled": 0, "fusion_lat": 0.0, "name": "b1b457fb3a3d1acbe14aae3130870813", "fusion_lon": 0.0}, {"is_reserved": 0, "type": "electric_scooter", "bike_id": "c72945b8e02301c7296eac89764584f0", "lat": 38.89372933333333, "lon": -76.947955, "rental_uris": {"android": "https://dc.lft.to/lastmile_qr_scan", "ios": "https://dc.lft.to/lastmile_qr_scan"}, "is_disabled": 0, "fusion_lat": 0.0, "name": "c72945b8e02301c7296eac89764584f0", "fusion_lon": 0.0}, {"is_reserved": 0, "type": "electric_scooter", "bike_id": "90d3455c2bec0ab1941abb33aab4f8f2", "lat": 38.91952583333333, "lon": -76.99955216666666, "rental_uris": {"android": "https://dc.lft.to/lastmile_qr_scan", "ios": "https://dc.lft.to/lastmile_qr_scan"}, "is_disabled": 0, "fusion_lat": 0.0, "name": "90d3455c2bec0ab1941abb33aab4f8f2", "fusion_lon": 0.0}, {"is_reserved": 0, "type": "electric_scooter", "bike_id": "77c93a567f80ea01f7fea9d567703236", "lat": 38.9322825, "lon": -76.9974045, "rental_uris": {"android": "https://dc.lft.to/lastmile_qr_scan", "ios": "https://dc.lft.to/lastmile_qr_scan"}, "is_disabled": 0, "fusion_lat": 0.0, "name": "77c93a567f80ea01f7fea9d567703236", "fusion_lon": 0.0}, {"is_reserved": 0, "type": "electric_scooter", "bike_id": "57ecd7bbb5964f007e5235a9114ed67b", "lat": 38.89621416666667, "lon": -76.99724966666666, "rental_uris": {"android": "https://dc.lft.to/lastmile_qr_scan", "ios": "https://dc.lft.to/lastmile_qr_scan"}, "is_disabled": 0, "fusion_lat": 0.0, "name": "57ecd7bbb5964f007e5235a9114ed67b", "fusion_lon": 0.0}, {"is_reserved": 0, "type": "electric_bike", "bike_id": "1b7d2852a3eea0b272a2e116c5829eff", "lat": 38.95872966666667, "lon": -76.970482, "rental_uris": {"android": "https://dc.lft.to/lastmile_qr_scan", "ios": "https://dc.lft.to/lastmile_qr_scan"}, "is_disabled": 0, "fusion_lat": 0.0, "name": "1b7d2852a3eea0b272a2e116c5829eff", "fusion_lon": 0.0}, {"is_reserved": 0, "type": "electric_scooter", "bike_id": "fc7fa945288ced467420821424bd489d", "lat": 38.874702666666664, "lon": -77.00542466666667, "rental_uris": {"android": "https://dc.lft.to/lastmile_qr_scan", "ios": "https://dc.lft.to/lastmile_qr_scan"}, "is_disabled": 0, "fusion_lat": 0.0, "name": "fc7fa945288ced467420821424bd489d", "fusion_lon": 0.0}, {"is_reserved": 0, "type": "electric_scooter", "bike_id": "874a6a5e1b0c16b4a436598aa6218cd8", "lat": 38.9314125, "lon": -77.023462, "rental_uris": {"android": "https://dc.lft.to/lastmile_qr_scan", "ios": "https://dc.lft.to/lastmile_qr_scan"}, "is_disabled": 0, "fusion_lat": 0.0, "name": "874a6a5e1b0c16b4a436598aa6218cd8", "fusion_lon": 0.0}, {"is_reserved": 0, "type": "electric_scooter", "bike_id": "56497b68b2623cc7f74feba5172815be", "lat": 38.929792, "lon": -77.05499766666667, "rental_uris": {"android": "https://dc.lft.to/lastmile_qr_scan", "ios": "https://dc.lft.to/lastmile_qr_scan"}, "is_disabled": 0, "fusion_lat": 0.0, "name": "56497b68b2623cc7f74feba5172815be", "fusion_lon": 0.0}, {"is_reserved": 0, "type": "electric_scooter", "bike_id": "7a93d8270a0476491f2883c498b82394", "lat": 38.907112, "lon": -77.008044, "rental_uris": {"android": "https://dc.lft.to/lastmile_qr_scan", "ios": "https://dc.lft.to/lastmile_qr_scan"}, "is_disabled": 0, "fusion_lat": 0.0, "name": "7a93d8270a0476491f2883c498b82394", "fusion_lon": 0.0}, {"is_reserved": 0, "type": "electric_scooter", "bike_id": "afdb16cf8bec00dba00bfd9d0db7ea48", "lat": 38.923983, "lon": -77.05053516666666, "rental_uris": {"android": "https://dc.lft.to/lastmile_qr_scan", "ios": "https://dc.lft.to/lastmile_qr_scan"}, "is_disabled": 0, "fusion_lat": 0.0, "name": "afdb16cf8bec00dba00bfd9d0db7ea48", "fusion_lon": 0.0}, {"is_reserved": 0, "type": "electric_bike", "bike_id": "3db722a5fc011c11ce47ed3e7c8eeb85", "lat": 38.84110783333333, "lon": -77.08927916666667, "rental_uris": {"android": "https://dc.lft.to/lastmile_qr_scan", "ios": "https://dc.lft.to/lastmile_qr_scan"}, "is_disabled": 0, "fusion_lat": 0.0, "name": "3db722a5fc011c11ce47ed3e7c8eeb85", "fusion_lon": 0.0}, {"is_reserved": 0, "type": "electric_scooter", "bike_id": "a1d095bcebd1993051ab5ec7ca19a14d", "lat": 38.912486333333334, "lon": -77.047628, "rental_uris": {"android": "https://dc.lft.to/lastmile_qr_scan", "ios": "https://dc.lft.to/lastmile_qr_scan"}, "is_disabled": 0, "fusion_lat": 0.0, "name": "a1d095bcebd1993051ab5ec7ca19a14d", "fusion_lon": 0.0}, {"is_reserved": 0, "type": "electric_scooter", "bike_id": "02cdf9a58db07a34889016f33203b03d", "lat": 38.902677, "lon": -77.0176055, "rental_uris": {"android": "https://dc.lft.to/lastmile_qr_scan", "ios": "https://dc.lft.to/lastmile_qr_scan"}, "is_disabled": 0, "fusion_lat": 0.0, "name": "02cdf9a58db07a34889016f33203b03d", "fusion_lon": 0.0}, {"is_reserved": 0, "type": "electric_scooter", "bike_id": "d7b4fab8e924ef8c4caf54e2ed355fe9", "lat": 38.89726566666667, "lon": -77.027707, "rental_uris": {"android": "https://dc.lft.to/lastmile_qr_scan", "ios": "https://dc.lft.to/lastmile_qr_scan"}, "is_disabled": 0, "fusion_lat": 0.0, "name": "d7b4fab8e924ef8c4caf54e2ed355fe9", "fusion_lon": 0.0}, {"is_reserved": 0, "type": "electric_scooter", "bike_id": "ceac7a2b9c7c8b5d42690ef6071a6a17", "lat": 38.91182333333333, "lon": -77.04497016666667, "rental_uris": {"android": "https://dc.lft.to/lastmile_qr_scan", "ios": "https://dc.lft.to/lastmile_qr_scan"}, "is_disabled": 0, "fusion_lat": 0.0, "name": "ceac7a2b9c7c8b5d42690ef6071a6a17", "fusion_lon": 0.0}, {"is_reserved": 0, "type": "electric_scooter", "bike_id": "bf2eceadd810dceba723aabb31dcc367", "lat": 38.9285365, "lon": -77.0373645, "rental_uris": {"android": "https://dc.lft.to/lastmile_qr_scan", "ios": "https://dc.lft.to/lastmile_qr_scan"}, "is_disabled": 0, "fusion_lat": 0.0, "name": "bf2eceadd810dceba723aabb31dcc367", "fusion_lon": 0.0}, {"is_reserved": 0, "type": "electric_scooter", "bike_id": "ad7af937a4567c55b8c99caa9501ced1", "lat": 38.930779666666666, "lon": -77.0373685, "rental_uris": {"android": "https://dc.lft.to/lastmile_qr_scan", "ios": "https://dc.lft.to/lastmile_qr_scan"}, "is_disabled": 0, "fusion_lat": 0.0, "name": "ad7af937a4567c55b8c99caa9501ced1", "fusion_lon": 0.0}, {"is_reserved": 0, "type": "electric_scooter", "bike_id": "ca64bb809705837268577d4f7593e30f", "lat": 38.91842366666667, "lon": -77.03901483333334, "rental_uris": {"android": "https://dc.lft.to/lastmile_qr_scan", "ios": "https://dc.lft.to/lastmile_qr_scan"}, "is_disabled": 0, "fusion_lat": 0.0, "name": "ca64bb809705837268577d4f7593e30f", "fusion_lon": 0.0}, {"is_reserved": 0, "type": "electric_scooter", "bike_id": "4f9c76c3370450baa2d03accf8a9b3e6", "lat": 38.89988533333333, "lon": -77.02692533333334, "rental_uris": {"android": "https://dc.lft.to/lastmile_qr_scan", "ios": "https://dc.lft.to/lastmile_qr_scan"}, "is_disabled": 0, "fusion_lat": 0.0, "name": "4f9c76c3370450baa2d03accf8a9b3e6", "fusion_lon": 0.0}, {"is_reserved": 0, "type": "electric_bike", "bike_id": "61e4e1b646e76ae8d5c0daa4c4b94836", "lat": 38.8821175, "lon": -77.1116215, "rental_uris": {"android": "https://dc.lft.to/lastmile_qr_scan", "ios": "https://dc.lft.to/lastmile_qr_scan"}, "is_disabled": 0, "fusion_lat": 0.0, "name": "61e4e1b646e76ae8d5c0daa4c4b94836", "fusion_lon": 0.0}, {"is_reserved": 0, "type": "electric_scooter", "bike_id": "b10a536969f6d3a0d117a0cfdc7b8695", "lat": 38.88785883333333, "lon": -76.977076, "rental_uris": {"android": "https://dc.lft.to/lastmile_qr_scan", "ios": "https://dc.lft.to/lastmile_qr_scan"}, "is_disabled": 0, "fusion_lat": 0.0, "name": "b10a536969f6d3a0d117a0cfdc7b8695", "fusion_lon": 0.0}, {"is_reserved": 0, "type": "electric_scooter", "bike_id": "8e91792dc7045c3a437dda0e08637fc9", "lat": 38.8729965, "lon": -77.015573, "rental_uris": {"android": "https://dc.lft.to/lastmile_qr_scan", "ios": "https://dc.lft.to/lastmile_qr_scan"}, "is_disabled": 0, "fusion_lat": 0.0, "name": "8e91792dc7045c3a437dda0e08637fc9", "fusion_lon": 0.0}, {"is_reserved": 0, "type": "electric_scooter", "bike_id": "1b0141be6b85c6e81336d0f7305d3845", "lat": 38.90031183333333, "lon": -76.98872616666667, "rental_uris": {"android": "https://dc.lft.to/lastmile_qr_scan", "ios": "https://dc.lft.to/lastmile_qr_scan"}, "is_disabled": 0, "fusion_lat": 0.0, "name": "1b0141be6b85c6e81336d0f7305d3845", "fusion_lon": 0.0}, {"is_reserved": 0, "type": "electric_scooter", "bike_id": "808aed2d348932746af34e65a6d1820f", "lat": 38.924642666666664, "lon": -77.03955516666667, "rental_uris": {"android": "https://dc.lft.to/lastmile_qr_scan", "ios": "https://dc.lft.to/lastmile_qr_scan"}, "is_disabled": 0, "fusion_lat": 0.0, "name": "808aed2d348932746af34e65a6d1820f", "fusion_lon": 0.0}, {"is_reserved": 0, "type": "electric_scooter", "bike_id": "6a4ef1bfc28a438ebc53b85774c2786f", "lat": 38.887322166666664, "lon": -77.02208516666667, "rental_uris": {"android": "https://dc.lft.to/lastmile_qr_scan", "ios": "https://dc.lft.to/lastmile_qr_scan"}, "is_disabled": 0, "fusion_lat": 0.0, "name": "6a4ef1bfc28a438ebc53b85774c2786f", "fusion_lon": 0.0}, {"is_reserved": 0, "type": "electric_scooter", "bike_id": "7f6bdca28aba9e97766c8f4ca77a3dd6", "lat": 38.892404666666664, "lon": -77.05033433333334, "rental_uris": {"android": "https://dc.lft.to/lastmile_qr_scan", "ios": "https://dc.lft.to/lastmile_qr_scan"}, "is_disabled": 0, "fusion_lat": 0.0, "name": "7f6bdca28aba9e97766c8f4ca77a3dd6", "fusion_lon": 0.0}, {"is_reserved": 0, "type": "electric_scooter", "bike_id": "9b5ffa73d7855cf0ef4ad8df4875a1ab", "lat": 38.89523283333333, "lon": -76.99211066666666, "rental_uris": {"android": "https://dc.lft.to/lastmile_qr_scan", "ios": "https://dc.lft.to/lastmile_qr_scan"}, "is_disabled": 0, "fusion_lat": 0.0, "name": "9b5ffa73d7855cf0ef4ad8df4875a1ab", "fusion_lon": 0.0}, {"is_reserved": 0, "type": "electric_scooter", "bike_id": "f645bc6c9565753354aa410c92f9bd8f", "lat": 38.887449833333335, "lon": -76.98355766666667, "rental_uris": {"android": "https://dc.lft.to/lastmile_qr_scan", "ios": "https://dc.lft.to/lastmile_qr_scan"}, "is_disabled": 0, "fusion_lat": 0.0, "name": "f645bc6c9565753354aa410c92f9bd8f", "fusion_lon": 0.0}, {"is_reserved": 0, "type": "electric_scooter", "bike_id": "fd65ce93f09ab6a2adfcbf6e1cbf7484", "lat": 38.89974, "lon": -77.02299516666666, "rental_uris": {"android": "https://dc.lft.to/lastmile_qr_scan", "ios": "https://dc.lft.to/lastmile_qr_scan"}, "is_disabled": 0, "fusion_lat": 0.0, "name": "fd65ce93f09ab6a2adfcbf6e1cbf7484", "fusion_lon": 0.0}, {"is_reserved": 0, "type": "electric_scooter", "bike_id": "9ececc1c6e87268663b366cafedf6dbd", "lat": 38.92912533333333, "lon": -77.05483616666666, "rental_uris": {"android": "https://dc.lft.to/lastmile_qr_scan", "ios": "https://dc.lft.to/lastmile_qr_scan"}, "is_disabled": 0, "fusion_lat": 0.0, "name": "9ececc1c6e87268663b366cafedf6dbd", "fusion_lon": 0.0}, {"is_reserved": 0, "type": "electric_scooter", "bike_id": "ed291e49dea8acbfccebbe3f356a3964", "lat": 38.89900133333333, "lon": -77.02139783333334, "rental_uris": {"android": "https://dc.lft.to/lastmile_qr_scan", "ios": "https://dc.lft.to/lastmile_qr_scan"}, "is_disabled": 0, "fusion_lat": 0.0, "name": "ed291e49dea8acbfccebbe3f356a3964", "fusion_lon": 0.0}, {"is_reserved": 0, "type": "electric_scooter", "bike_id": "6fce291d269a0a72e9c6c02790f86826", "lat": 38.89232916666667, "lon": -77.01764866666667, "rental_uris": {"android": "https://dc.lft.to/lastmile_qr_scan", "ios": "https://dc.lft.to/lastmile_qr_scan"}, "is_disabled": 0, "fusion_lat": 0.0, "name": "6fce291d269a0a72e9c6c02790f86826", "fusion_lon": 0.0}, {"is_reserved": 0, "type": "electric_scooter", "bike_id": "9bfe7e4ceb28a0e65bcbe63a1b8417c8", "lat": 38.90628733333333, "lon": -76.99324616666667, "rental_uris": {"android": "https://dc.lft.to/lastmile_qr_scan", "ios": "https://dc.lft.to/lastmile_qr_scan"}, "is_disabled": 0, "fusion_lat": 0.0, "name": "9bfe7e4ceb28a0e65bcbe63a1b8417c8", "fusion_lon": 0.0}, {"is_reserved": 0, "type": "electric_scooter", "bike_id": "ce796205c7f34c9e7fe2a6a596d6deba", "lat": 38.9300275, "lon": -77.05539183333333, "rental_uris": {"android": "https://dc.lft.to/lastmile_qr_scan", "ios": "https://dc.lft.to/lastmile_qr_scan"}, "is_disabled": 0, "fusion_lat": 0.0, "name": "ce796205c7f34c9e7fe2a6a596d6deba", "fusion_lon": 0.0}, {"is_reserved": 0, "type": "electric_scooter", "bike_id": "fee8b0c522c373d9d947301da27cf7e9", "lat": 38.937015, "lon": -77.05598183333333, "rental_uris": {"android": "https://dc.lft.to/lastmile_qr_scan", "ios": "https://dc.lft.to/lastmile_qr_scan"}, "is_disabled": 0, "fusion_lat": 0.0, "name": "fee8b0c522c373d9d947301da27cf7e9", "fusion_lon": 0.0}, {"is_reserved": 0, "type": "electric_bike", "bike_id": "9b5d62b1c57e5ac7f80a2f80342bc73e", "lat": 38.90898633333333, "lon": -77.072569, "rental_uris": {"android": "https://dc.lft.to/lastmile_qr_scan", "ios": "https://dc.lft.to/lastmile_qr_scan"}, "is_disabled": 0, "fusion_lat": 0.0, "name": "9b5d62b1c57e5ac7f80a2f80342bc73e", "fusion_lon": 0.0}, {"is_reserved": 0, "type": "electric_scooter", "bike_id": "308bf313a6106c4647bdaea501d65b96", "lat": 38.9226115, "lon": -77.03662483333333, "rental_uris": {"android": "https://dc.lft.to/lastmile_qr_scan", "ios": "https://dc.lft.to/lastmile_qr_scan"}, "is_disabled": 0, "fusion_lat": 0.0, "name": "308bf313a6106c4647bdaea501d65b96", "fusion_lon": 0.0}, {"is_reserved": 0, "type": "electric_scooter", "bike_id": "140cfa9a5532a49b8a8c4632a4cf63b5", "lat": 38.91043116666667, "lon": -77.0336785, "rental_uris": {"android": "https://dc.lft.to/lastmile_qr_scan", "ios": "https://dc.lft.to/lastmile_qr_scan"}, "is_disabled": 0, "fusion_lat": 0.0, "name": "140cfa9a5532a49b8a8c4632a4cf63b5", "fusion_lon": 0.0}, {"is_reserved": 0, "type": "electric_scooter", "bike_id": "aacf82f5498b77cbe07582d9be13bd90", "lat": 38.917005333333336, "lon": -77.02899983333333, "rental_uris": {"android": "https://dc.lft.to/lastmile_qr_scan", "ios": "https://dc.lft.to/lastmile_qr_scan"}, "is_disabled": 0, "fusion_lat": 0.0, "name": "aacf82f5498b77cbe07582d9be13bd90", "fusion_lon": 0.0}, {"is_reserved": 0, "type": "electric_scooter", "bike_id": "b9d7110437136aec05e1653f7188ee01", "lat": 38.935572, "lon": -77.02220216666667, "rental_uris": {"android": "https://dc.lft.to/lastmile_qr_scan", "ios": "https://dc.lft.to/lastmile_qr_scan"}, "is_disabled": 0, "fusion_lat": 0.0, "name": "b9d7110437136aec05e1653f7188ee01", "fusion_lon": 0.0}, {"is_reserved": 0, "type": "electric_scooter", "bike_id": "c631c1eefa80a818dc72a3e1c415012a", "lat": 38.95629566666667, "lon": -77.027803, "rental_uris": {"android": "https://dc.lft.to/lastmile_qr_scan", "ios": "https://dc.lft.to/lastmile_qr_scan"}, "is_disabled": 0, "fusion_lat": 0.0, "name": "c631c1eefa80a818dc72a3e1c415012a", "fusion_lon": 0.0}, {"is_reserved": 0, "type": "electric_scooter", "bike_id": "8b636122448dabf1f11fac290d7103a3", "lat": 38.918133166666664, "lon": -77.0330385, "rental_uris": {"android": "https://dc.lft.to/lastmile_qr_scan", "ios": "https://dc.lft.to/lastmile_qr_scan"}, "is_disabled": 0, "fusion_lat": 0.0, "name": "8b636122448dabf1f11fac290d7103a3", "fusion_lon": 0.0}, {"is_reserved": 0, "type": "electric_scooter", "bike_id": "df9700496142d1649f7bbdfd42e9cd41", "lat": 38.894986833333334, "lon": -77.00204583333333, "rental_uris": {"android": "https://dc.lft.to/lastmile_qr_scan", "ios": "https://dc.lft.to/lastmile_qr_scan"}, "is_disabled": 0, "fusion_lat": 0.0, "name": "df9700496142d1649f7bbdfd42e9cd41", "fusion_lon": 0.0}, {"is_reserved": 0, "type": "electric_scooter", "bike_id": "da5685f8f471ef9bd379f0a615e77fe4", "lat": 38.91717583333333, "lon": -77.0385495, "rental_uris": {"android": "https://dc.lft.to/lastmile_qr_scan", "ios": "https://dc.lft.to/lastmile_qr_scan"}, "is_disabled": 0, "fusion_lat": 0.0, "name": "da5685f8f471ef9bd379f0a615e77fe4", "fusion_lon": 0.0}, {"is_reserved": 0, "type": "electric_scooter", "bike_id": "df5a4ff300340bd33ab3b1d964c7e009", "lat": 38.908889333333335, "lon": -77.0235185, "rental_uris": {"android": "https://dc.lft.to/lastmile_qr_scan", "ios": "https://dc.lft.to/lastmile_qr_scan"}, "is_disabled": 0, "fusion_lat": 0.0, "name": "df5a4ff300340bd33ab3b1d964c7e009", "fusion_lon": 0.0}, {"is_reserved": 0, "type": "electric_scooter", "bike_id": "e2881778f4f9d4f35c0b7e0724d84b6e", "lat": 38.92449383333334, "lon": -77.04389983333333, "rental_uris": {"android": "https://dc.lft.to/lastmile_qr_scan", "ios": "https://dc.lft.to/lastmile_qr_scan"}, "is_disabled": 0, "fusion_lat": 0.0, "name": "e2881778f4f9d4f35c0b7e0724d84b6e", "fusion_lon": 0.0}, {"is_reserved": 0, "type": "electric_scooter", "bike_id": "bc9ed34c0811a10b1b4f2cd7337ecb92", "lat": 38.905558166666665, "lon": -77.005838, "rental_uris": {"android": "https://dc.lft.to/lastmile_qr_scan", "ios": "https://dc.lft.to/lastmile_qr_scan"}, "is_disabled": 0, "fusion_lat": 0.0, "name": "bc9ed34c0811a10b1b4f2cd7337ecb92", "fusion_lon": 0.0}, {"is_reserved": 0, "type": "electric_bike", "bike_id": "18db490cadede631b13d2a56ac92adc5", "lat": 38.93878333333333, "lon": -76.992997, "rental_uris": {"android": "https://dc.lft.to/lastmile_qr_scan", "ios": "https://dc.lft.to/lastmile_qr_scan"}, "is_disabled": 0, "fusion_lat": 0.0, "name": "18db490cadede631b13d2a56ac92adc5", "fusion_lon": 0.0}, {"is_reserved": 0, "type": "electric_scooter", "bike_id": "33dc5705e296e74a9538b664c8146136", "lat": 38.866384, "lon": -76.98286066666667, "rental_uris": {"android": "https://dc.lft.to/lastmile_qr_scan", "ios": "https://dc.lft.to/lastmile_qr_scan"}, "is_disabled": 0, "fusion_lat": 0.0, "name": "33dc5705e296e74a9538b664c8146136", "fusion_lon": 0.0}, {"is_reserved": 0, "type": "electric_scooter", "bike_id": "2062c6b0a74c4c486cb264020bd6130a", "lat": 38.936113666666664, "lon": -77.02408966666667, "rental_uris": {"android": "https://dc.lft.to/lastmile_qr_scan", "ios": "https://dc.lft.to/lastmile_qr_scan"}, "is_disabled": 0, "fusion_lat": 0.0, "name": "2062c6b0a74c4c486cb264020bd6130a", "fusion_lon": 0.0}, {"is_reserved": 0, "type": "electric_scooter", "bike_id": "3fbce08756cb4093513aaa44814eb854", "lat": 38.88533866666667, "lon": -76.98115366666667, "rental_uris": {"android": "https://dc.lft.to/lastmile_qr_scan", "ios": "https://dc.lft.to/lastmile_qr_scan"}, "is_disabled": 0, "fusion_lat": 0.0, "name": "3fbce08756cb4093513aaa44814eb854", "fusion_lon": 0.0}, {"is_reserved": 0, "type": "electric_bike", "bike_id": "ac50728d0cc60fe6f9000605a52af784", "lat": 38.85422366666667, "lon": -77.0836515, "rental_uris": {"android": "https://dc.lft.to/lastmile_qr_scan", "ios": "https://dc.lft.to/lastmile_qr_scan"}, "is_disabled": 0, "fusion_lat": 0.0, "name": "ac50728d0cc60fe6f9000605a52af784", "fusion_lon": 0.0}, {"is_reserved": 0, "type": "electric_scooter", "bike_id": "7035c07b027b25fec5bdef1abaab20d8", "lat": 38.91743566666667, "lon": -77.03190716666667, "rental_uris": {"android": "https://dc.lft.to/lastmile_qr_scan", "ios": "https://dc.lft.to/lastmile_qr_scan"}, "is_disabled": 0, "fusion_lat": 0.0, "name": "7035c07b027b25fec5bdef1abaab20d8", "fusion_lon": 0.0}, {"is_reserved": 0, "type": "electric_bike", "bike_id": "758b576c8f217ea9c32b7a735d697b4e", "lat": 38.8700085, "lon": -77.22980516666667, "rental_uris": {"android": "https://dc.lft.to/lastmile_qr_scan", "ios": "https://dc.lft.to/lastmile_qr_scan"}, "is_disabled": 0, "fusion_lat": 0.0, "name": "758b576c8f217ea9c32b7a735d697b4e", "fusion_lon": 0.0}, {"is_reserved": 0, "type": "electric_scooter", "bike_id": "f75454bee628d36308d57a84788ea9d8", "lat": 38.899218, "lon": -77.03389, "rental_uris": {"android": "https://dc.lft.to/lastmile_qr_scan", "ios": "https://dc.lft.to/lastmile_qr_scan"}, "is_disabled": 0, "fusion_lat": 0.0, "name": "f75454bee628d36308d57a84788ea9d8", "fusion_lon": 0.0}, {"is_reserved": 0, "type": "electric_scooter", "bike_id": "7b8e16904316b674cb08a4cc0309b8a1", "lat": 38.8949665, "lon": -77.02796883333333, "rental_uris": {"android": "https://dc.lft.to/lastmile_qr_scan", "ios": "https://dc.lft.to/lastmile_qr_scan"}, "is_disabled": 0, "fusion_lat": 0.0, "name": "7b8e16904316b674cb08a4cc0309b8a1", "fusion_lon": 0.0}, {"is_reserved": 0, "type": "electric_scooter", "bike_id": "4790b0106d9057c57798a6f60742c59a", "lat": 38.893545, "lon": -77.0033215, "rental_uris": {"android": "https://dc.lft.to/lastmile_qr_scan", "ios": "https://dc.lft.to/lastmile_qr_scan"}, "is_disabled": 0, "fusion_lat": 0.0, "name": "4790b0106d9057c57798a6f60742c59a", "fusion_lon": 0.0}, {"is_reserved": 0, "type": "electric_scooter", "bike_id": "ca05ae9db76a9278e7d06d59d20f3145", "lat": 38.9252245, "lon": -77.05056583333334, "rental_uris": {"android": "https://dc.lft.to/lastmile_qr_scan", "ios": "https://dc.lft.to/lastmile_qr_scan"}, "is_disabled": 0, "fusion_lat": 0.0, "name": "ca05ae9db76a9278e7d06d59d20f3145", "fusion_lon": 0.0}, {"is_reserved": 0, "type": "electric_scooter", "bike_id": "5f0eac5445160442c92b2d7b263b2f4c", "lat": 38.90029666666667, "lon": -77.01218166666666, "rental_uris": {"android": "https://dc.lft.to/lastmile_qr_scan", "ios": "https://dc.lft.to/lastmile_qr_scan"}, "is_disabled": 0, "fusion_lat": 0.0, "name": "5f0eac5445160442c92b2d7b263b2f4c", "fusion_lon": 0.0}, {"is_reserved": 0, "type": "electric_scooter", "bike_id": "4d7fec8364db58ad0a436ddb138d6bbf", "lat": 38.908878333333334, "lon": -77.00304283333334, "rental_uris": {"android": "https://dc.lft.to/lastmile_qr_scan", "ios": "https://dc.lft.to/lastmile_qr_scan"}, "is_disabled": 0, "fusion_lat": 0.0, "name": "4d7fec8364db58ad0a436ddb138d6bbf", "fusion_lon": 0.0}, {"is_reserved": 0, "type": "electric_scooter", "bike_id": "45caed9b0d8c914fc5c949b74a3a0fa1", "lat": 38.886290333333335, "lon": -77.02222416666666, "rental_uris": {"android": "https://dc.lft.to/lastmile_qr_scan", "ios": "https://dc.lft.to/lastmile_qr_scan"}, "is_disabled": 0, "fusion_lat": 0.0, "name": "45caed9b0d8c914fc5c949b74a3a0fa1", "fusion_lon": 0.0}, {"is_reserved": 0, "type": "electric_scooter", "bike_id": "0a496f796acc5cf8de064e76e944da72", "lat": 38.92465083333333, "lon": -77.05218916666666, "rental_uris": {"android": "https://dc.lft.to/lastmile_qr_scan", "ios": "https://dc.lft.to/lastmile_qr_scan"}, "is_disabled": 0, "fusion_lat": 0.0, "name": "0a496f796acc5cf8de064e76e944da72", "fusion_lon": 0.0}, {"is_reserved": 0, "type": "electric_scooter", "bike_id": "58fe17058a695abd88b1892c586a0761", "lat": 38.899467333333334, "lon": -76.97690733333333, "rental_uris": {"android": "https://dc.lft.to/lastmile_qr_scan", "ios": "https://dc.lft.to/lastmile_qr_scan"}, "is_disabled": 0, "fusion_lat": 0.0, "name": "58fe17058a695abd88b1892c586a0761", "fusion_lon": 0.0}, {"is_reserved": 0, "type": "electric_scooter", "bike_id": "81191f8f7dffbc191fd30e9e4b40a5ad", "lat": 38.874970166666664, "lon": -77.00229416666667, "rental_uris": {"android": "https://dc.lft.to/lastmile_qr_scan", "ios": "https://dc.lft.to/lastmile_qr_scan"}, "is_disabled": 0, "fusion_lat": 0.0, "name": "81191f8f7dffbc191fd30e9e4b40a5ad", "fusion_lon": 0.0}, {"is_reserved": 0, "type": "electric_scooter", "bike_id": "5c143969cac24672972e56c7c96ed9b4", "lat": 38.910029, "lon": -77.03185516666667, "rental_uris": {"android": "https://dc.lft.to/lastmile_qr_scan", "ios": "https://dc.lft.to/lastmile_qr_scan"}, "is_disabled": 0, "fusion_lat": 0.0, "name": "5c143969cac24672972e56c7c96ed9b4", "fusion_lon": 0.0}, {"is_reserved": 0, "type": "electric_scooter", "bike_id": "6aed7c0d467bcc30da47d2ee9143ad4c", "lat": 38.900445500000004, "lon": -77.04487183333333, "rental_uris": {"android": "https://dc.lft.to/lastmile_qr_scan", "ios": "https://dc.lft.to/lastmile_qr_scan"}, "is_disabled": 0, "fusion_lat": 0.0, "name": "6aed7c0d467bcc30da47d2ee9143ad4c", "fusion_lon": 0.0}, {"is_reserved": 0, "type": "electric_scooter", "bike_id": "1d99ddc70152d86e7a3f3074feb4abd9", "lat": 38.94080066666667, "lon": -77.05489283333333, "rental_uris": {"android": "https://dc.lft.to/lastmile_qr_scan", "ios": "https://dc.lft.to/lastmile_qr_scan"}, "is_disabled": 0, "fusion_lat": 0.0, "name": "1d99ddc70152d86e7a3f3074feb4abd9", "fusion_lon": 0.0}, {"is_reserved": 0, "type": "electric_bike", "bike_id": "6f1ddbab5630d913c374b4c8596494de", "lat": 39.00035333333334, "lon": -77.04740883333334, "rental_uris": {"android": "https://dc.lft.to/lastmile_qr_scan", "ios": "https://dc.lft.to/lastmile_qr_scan"}, "is_disabled": 0, "fusion_lat": 0.0, "name": "6f1ddbab5630d913c374b4c8596494de", "fusion_lon": 0.0}, {"is_reserved": 0, "type": "electric_scooter", "bike_id": "f67e3bbdf319a1b32ea0cb690c225ed2", "lat": 38.953787166666665, "lon": -77.00182666666667, "rental_uris": {"android": "https://dc.lft.to/lastmile_qr_scan", "ios": "https://dc.lft.to/lastmile_qr_scan"}, "is_disabled": 0, "fusion_lat": 0.0, "name": "f67e3bbdf319a1b32ea0cb690c225ed2", "fusion_lon": 0.0}, {"is_reserved": 0, "type": "electric_scooter", "bike_id": "5059e19e40ba6e6e454e7e380b81ec50", "lat": 38.92828183333334, "lon": -77.05444966666667, "rental_uris": {"android": "https://dc.lft.to/lastmile_qr_scan", "ios": "https://dc.lft.to/lastmile_qr_scan"}, "is_disabled": 0, "fusion_lat": 0.0, "name": "5059e19e40ba6e6e454e7e380b81ec50", "fusion_lon": 0.0}, {"is_reserved": 0, "type": "electric_scooter", "bike_id": "2c3b5c3fcbd2d43bab6c4bdd3a181668", "lat": 38.91835116666667, "lon": -77.01473716666666, "rental_uris": {"android": "https://dc.lft.to/lastmile_qr_scan", "ios": "https://dc.lft.to/lastmile_qr_scan"}, "is_disabled": 0, "fusion_lat": 0.0, "name": "2c3b5c3fcbd2d43bab6c4bdd3a181668", "fusion_lon": 0.0}, {"is_reserved": 0, "type": "electric_scooter", "bike_id": "c23c15784587993063b6da8a3a1814ad", "lat": 38.930832333333335, "lon": -77.027922, "rental_uris": {"android": "https://dc.lft.to/lastmile_qr_scan", "ios": "https://dc.lft.to/lastmile_qr_scan"}, "is_disabled": 0, "fusion_lat": 0.0, "name": "c23c15784587993063b6da8a3a1814ad", "fusion_lon": 0.0}, {"is_reserved": 0, "type": "electric_scooter", "bike_id": "b8f4f0b22326a517f9e0e5411d3e29fc", "lat": 38.897697, "lon": -77.02674233333333, "rental_uris": {"android": "https://dc.lft.to/lastmile_qr_scan", "ios": "https://dc.lft.to/lastmile_qr_scan"}, "is_disabled": 0, "fusion_lat": 0.0, "name": "b8f4f0b22326a517f9e0e5411d3e29fc", "fusion_lon": 0.0}, {"is_reserved": 0, "type": "electric_scooter", "bike_id": "e401e718857917845ba7593f38771a28", "lat": 38.86379183333333, "lon": -76.99058283333333, "rental_uris": {"android": "https://dc.lft.to/lastmile_qr_scan", "ios": "https://dc.lft.to/lastmile_qr_scan"}, "is_disabled": 0, "fusion_lat": 0.0, "name": "e401e718857917845ba7593f38771a28", "fusion_lon": 0.0}, {"is_reserved": 0, "type": "electric_scooter", "bike_id": "989cf322dfd6fc97c70bd2735b44a9a5", "lat": 38.92747383333333, "lon": -77.0330425, "rental_uris": {"android": "https://dc.lft.to/lastmile_qr_scan", "ios": "https://dc.lft.to/lastmile_qr_scan"}, "is_disabled": 0, "fusion_lat": 0.0, "name": "989cf322dfd6fc97c70bd2735b44a9a5", "fusion_lon": 0.0}, {"is_reserved": 0, "type": "electric_scooter", "bike_id": "a102cfb93c35d25cb6cdf358b5be4678", "lat": 38.9026845, "lon": -77.00327433333334, "rental_uris": {"android": "https://dc.lft.to/lastmile_qr_scan", "ios": "https://dc.lft.to/lastmile_qr_scan"}, "is_disabled": 0, "fusion_lat": 0.0, "name": "a102cfb93c35d25cb6cdf358b5be4678", "fusion_lon": 0.0}, {"is_reserved": 0, "type": "electric_scooter", "bike_id": "abd018845df5df7bea76ac47eed8df6b", "lat": 38.92451666666667, "lon": -77.02033233333333, "rental_uris": {"android": "https://dc.lft.to/lastmile_qr_scan", "ios": "https://dc.lft.to/lastmile_qr_scan"}, "is_disabled": 0, "fusion_lat": 0.0, "name": "abd018845df5df7bea76ac47eed8df6b", "fusion_lon": 0.0}, {"is_reserved": 0, "type": "electric_scooter", "bike_id": "099ac7ad6111a240aa0710aed05dc944", "lat": 38.91812516666667, "lon": -77.03294083333333, "rental_uris": {"android": "https://dc.lft.to/lastmile_qr_scan", "ios": "https://dc.lft.to/lastmile_qr_scan"}, "is_disabled": 0, "fusion_lat": 0.0, "name": "099ac7ad6111a240aa0710aed05dc944", "fusion_lon": 0.0}, {"is_reserved": 0, "type": "electric_bike", "bike_id": "502f901943329a888b33b13574f6a34d", "lat": 38.89143416666667, "lon": -77.18291083333334, "rental_uris": {"android": "https://dc.lft.to/lastmile_qr_scan", "ios": "https://dc.lft.to/lastmile_qr_scan"}, "is_disabled": 0, "fusion_lat": 0.0, "name": "502f901943329a888b33b13574f6a34d", "fusion_lon": 0.0}, {"is_reserved": 0, "type": "electric_scooter", "bike_id": "80e2e9c8e1857b4f2feb158f300f4c26", "lat": 38.91718983333333, "lon": -77.03855433333334, "rental_uris": {"android": "https://dc.lft.to/lastmile_qr_scan", "ios": "https://dc.lft.to/lastmile_qr_scan"}, "is_disabled": 0, "fusion_lat": 0.0, "name": "80e2e9c8e1857b4f2feb158f300f4c26", "fusion_lon": 0.0}, {"is_reserved": 0, "type": "electric_scooter", "bike_id": "eac51de29f90f51d2c4e126b4904ef00", "lat": 38.9204485, "lon": -77.04824366666666, "rental_uris": {"android": "https://dc.lft.to/lastmile_qr_scan", "ios": "https://dc.lft.to/lastmile_qr_scan"}, "is_disabled": 0, "fusion_lat": 0.0, "name": "eac51de29f90f51d2c4e126b4904ef00", "fusion_lon": 0.0}, {"is_reserved": 0, "type": "electric_scooter", "bike_id": "b19a6f66c95d8652c4ea4e57fa16141e", "lat": 38.920429, "lon": -77.04183416666666, "rental_uris": {"android": "https://dc.lft.to/lastmile_qr_scan", "ios": "https://dc.lft.to/lastmile_qr_scan"}, "is_disabled": 0, "fusion_lat": 0.0, "name": "b19a6f66c95d8652c4ea4e57fa16141e", "fusion_lon": 0.0}, {"is_reserved": 0, "type": "electric_scooter", "bike_id": "fb228afde3e8985a8bf7c8bbaa5ca1d1", "lat": 38.9372015, "lon": -77.0326135, "rental_uris": {"android": "https://dc.lft.to/lastmile_qr_scan", "ios": "https://dc.lft.to/lastmile_qr_scan"}, "is_disabled": 0, "fusion_lat": 0.0, "name": "fb228afde3e8985a8bf7c8bbaa5ca1d1", "fusion_lon": 0.0}, {"is_reserved": 0, "type": "electric_scooter", "bike_id": "fb59bbbc9ac019fc3c31b89012e0b74b", "lat": 38.90974683333334, "lon": -77.04518466666667, "rental_uris": {"android": "https://dc.lft.to/lastmile_qr_scan", "ios": "https://dc.lft.to/lastmile_qr_scan"}, "is_disabled": 0, "fusion_lat": 0.0, "name": "fb59bbbc9ac019fc3c31b89012e0b74b", "fusion_lon": 0.0}, {"is_reserved": 0, "type": "electric_scooter", "bike_id": "fb496e331f2e8e16b0f0ad5c08b5875a", "lat": 38.944177833333335, "lon": -77.06320716666667, "rental_uris": {"android": "https://dc.lft.to/lastmile_qr_scan", "ios": "https://dc.lft.to/lastmile_qr_scan"}, "is_disabled": 0, "fusion_lat": 0.0, "name": "fb496e331f2e8e16b0f0ad5c08b5875a", "fusion_lon": 0.0}, {"is_reserved": 0, "type": "electric_scooter", "bike_id": "c286bf72d88dbe2f5e1ed1221a2a6d0b", "lat": 38.91920016666667, "lon": -77.04799083333333, "rental_uris": {"android": "https://dc.lft.to/lastmile_qr_scan", "ios": "https://dc.lft.to/lastmile_qr_scan"}, "is_disabled": 0, "fusion_lat": 0.0, "name": "c286bf72d88dbe2f5e1ed1221a2a6d0b", "fusion_lon": 0.0}, {"is_reserved": 0, "type": "electric_scooter", "bike_id": "5b8a4bda90b7a6603ed9d681856854c5", "lat": 38.93225666666667, "lon": -77.02827583333334, "rental_uris": {"android": "https://dc.lft.to/lastmile_qr_scan", "ios": "https://dc.lft.to/lastmile_qr_scan"}, "is_disabled": 0, "fusion_lat": 0.0, "name": "5b8a4bda90b7a6603ed9d681856854c5", "fusion_lon": 0.0}, {"is_reserved": 0, "type": "electric_scooter", "bike_id": "147a88fd709db357f3f94b101ed8c3af", "lat": 38.916786, "lon": -77.023876, "rental_uris": {"android": "https://dc.lft.to/lastmile_qr_scan", "ios": "https://dc.lft.to/lastmile_qr_scan"}, "is_disabled": 0, "fusion_lat": 0.0, "name": "147a88fd709db357f3f94b101ed8c3af", "fusion_lon": 0.0}, {"is_reserved": 0, "type": "electric_scooter", "bike_id": "4fa82452b6551d031d0817a1d96367af", "lat": 38.905718666666665, "lon": -77.00579516666667, "rental_uris": {"android": "https://dc.lft.to/lastmile_qr_scan", "ios": "https://dc.lft.to/lastmile_qr_scan"}, "is_disabled": 0, "fusion_lat": 0.0, "name": "4fa82452b6551d031d0817a1d96367af", "fusion_lon": 0.0}, {"is_reserved": 0, "type": "electric_scooter", "bike_id": "4cd842a8d385175fd7d820ef4cebb42a", "lat": 38.905674833333336, "lon": -77.029499, "rental_uris": {"android": "https://dc.lft.to/lastmile_qr_scan", "ios": "https://dc.lft.to/lastmile_qr_scan"}, "is_disabled": 0, "fusion_lat": 0.0, "name": "4cd842a8d385175fd7d820ef4cebb42a", "fusion_lon": 0.0}, {"is_reserved": 0, "type": "electric_scooter", "bike_id": "ba5a170a2e6390f0aa06841361ede97c", "lat": 38.853246, "lon": -76.98006266666667, "rental_uris": {"android": "https://dc.lft.to/lastmile_qr_scan", "ios": "https://dc.lft.to/lastmile_qr_scan"}, "is_disabled": 0, "fusion_lat": 0.0, "name": "ba5a170a2e6390f0aa06841361ede97c", "fusion_lon": 0.0}, {"is_reserved": 0, "type": "electric_scooter", "bike_id": "2a6200cf16d06336a890666f111c5056", "lat": 38.899605, "lon": -77.0455475, "rental_uris": {"android": "https://dc.lft.to/lastmile_qr_scan", "ios": "https://dc.lft.to/lastmile_qr_scan"}, "is_disabled": 0, "fusion_lat": 0.0, "name": "2a6200cf16d06336a890666f111c5056", "fusion_lon": 0.0}, {"is_reserved": 0, "type": "electric_scooter", "bike_id": "a283ba30d02b0aa291701567340712f9", "lat": 38.871593833333336, "lon": -76.96579733333333, "rental_uris": {"android": "https://dc.lft.to/lastmile_qr_scan", "ios": "https://dc.lft.to/lastmile_qr_scan"}, "is_disabled": 0, "fusion_lat": 0.0, "name": "a283ba30d02b0aa291701567340712f9", "fusion_lon": 0.0}, {"is_reserved": 0, "type": "electric_scooter", "bike_id": "78e3636fc47da1e2d370f142b55fb166", "lat": 38.922918333333335, "lon": -77.03393166666666, "rental_uris": {"android": "https://dc.lft.to/lastmile_qr_scan", "ios": "https://dc.lft.to/lastmile_qr_scan"}, "is_disabled": 0, "fusion_lat": 0.0, "name": "78e3636fc47da1e2d370f142b55fb166", "fusion_lon": 0.0}, {"is_reserved": 0, "type": "electric_bike", "bike_id": "ed0ab4e3cfe8cdb1af8d30f4caad41f6", "lat": 38.86759716666667, "lon": -76.94524316666667, "rental_uris": {"android": "https://dc.lft.to/lastmile_qr_scan", "ios": "https://dc.lft.to/lastmile_qr_scan"}, "is_disabled": 0, "fusion_lat": 0.0, "name": "ed0ab4e3cfe8cdb1af8d30f4caad41f6", "fusion_lon": 0.0}, {"is_reserved": 0, "type": "electric_scooter", "bike_id": "5d88655ecdeb36aa3d4644eabd342e30", "lat": 38.9238675, "lon": -77.030557, "rental_uris": {"android": "https://dc.lft.to/lastmile_qr_scan", "ios": "https://dc.lft.to/lastmile_qr_scan"}, "is_disabled": 0, "fusion_lat": 0.0, "name": "5d88655ecdeb36aa3d4644eabd342e30", "fusion_lon": 0.0}, {"is_reserved": 0, "type": "electric_scooter", "bike_id": "900c40d7c3b4dceca993a0d9187cd298", "lat": 38.9203095, "lon": -76.985416, "rental_uris": {"android": "https://dc.lft.to/lastmile_qr_scan", "ios": "https://dc.lft.to/lastmile_qr_scan"}, "is_disabled": 0, "fusion_lat": 0.0, "name": "900c40d7c3b4dceca993a0d9187cd298", "fusion_lon": 0.0}, {"is_reserved": 0, "type": "electric_bike", "bike_id": "5ce69fe87ff7e59df292902fc7d4c794", "lat": 38.97518766666666, "lon": -77.01683983333334, "rental_uris": {"android": "https://dc.lft.to/lastmile_qr_scan", "ios": "https://dc.lft.to/lastmile_qr_scan"}, "is_disabled": 0, "fusion_lat": 0.0, "name": "5ce69fe87ff7e59df292902fc7d4c794", "fusion_lon": 0.0}, {"is_reserved": 0, "type": "electric_scooter", "bike_id": "e0101dcce82b58077ec8a1528ebf5e20", "lat": 38.8877395, "lon": -76.93259616666667, "rental_uris": {"android": "https://dc.lft.to/lastmile_qr_scan", "ios": "https://dc.lft.to/lastmile_qr_scan"}, "is_disabled": 0, "fusion_lat": 0.0, "name": "e0101dcce82b58077ec8a1528ebf5e20", "fusion_lon": 0.0}, {"is_reserved": 0, "type": "electric_scooter", "bike_id": "b6687cf785f59a960f8da50cb47d0fd7", "lat": 38.911198666666664, "lon": -77.032605, "rental_uris": {"android": "https://dc.lft.to/lastmile_qr_scan", "ios": "https://dc.lft.to/lastmile_qr_scan"}, "is_disabled": 0, "fusion_lat": 0.0, "name": "b6687cf785f59a960f8da50cb47d0fd7", "fusion_lon": 0.0}, {"is_reserved": 0, "type": "electric_bike", "bike_id": "2b90fb3314a602bcaf736c274f026f10", "lat": 38.90381083333333, "lon": -77.06272116666666, "rental_uris": {"android": "https://dc.lft.to/lastmile_qr_scan", "ios": "https://dc.lft.to/lastmile_qr_scan"}, "is_disabled": 0, "fusion_lat": 0.0, "name": "2b90fb3314a602bcaf736c274f026f10", "fusion_lon": 0.0}, {"is_reserved": 0, "type": "electric_scooter", "bike_id": "248fb5d73941d3b37dc8de09e99ab1f7", "lat": 38.93422533333333, "lon": -77.03901433333333, "rental_uris": {"android": "https://dc.lft.to/lastmile_qr_scan", "ios": "https://dc.lft.to/lastmile_qr_scan"}, "is_disabled": 0, "fusion_lat": 0.0, "name": "248fb5d73941d3b37dc8de09e99ab1f7", "fusion_lon": 0.0}, {"is_reserved": 0, "type": "electric_scooter", "bike_id": "1b64606f485dcbe18425875bc751fa0f", "lat": 38.9006755, "lon": -77.04875666666666, "rental_uris": {"android": "https://dc.lft.to/lastmile_qr_scan", "ios": "https://dc.lft.to/lastmile_qr_scan"}, "is_disabled": 0, "fusion_lat": 0.0, "name": "1b64606f485dcbe18425875bc751fa0f", "fusion_lon": 0.0}, {"is_reserved": 0, "type": "electric_scooter", "bike_id": "fd6c169d24e8e982104eab958669a656", "lat": 38.8875655, "lon": -76.9961325, "rental_uris": {"android": "https://dc.lft.to/lastmile_qr_scan", "ios": "https://dc.lft.to/lastmile_qr_scan"}, "is_disabled": 0, "fusion_lat": 0.0, "name": "fd6c169d24e8e982104eab958669a656", "fusion_lon": 0.0}, {"is_reserved": 0, "type": "electric_scooter", "bike_id": "d4645dd25d9f651e305a895d806013f3", "lat": 38.877223666666666, "lon": -77.01760416666667, "rental_uris": {"android": "https://dc.lft.to/lastmile_qr_scan", "ios": "https://dc.lft.to/lastmile_qr_scan"}, "is_disabled": 0, "fusion_lat": 0.0, "name": "d4645dd25d9f651e305a895d806013f3", "fusion_lon": 0.0}, {"is_reserved": 0, "type": "electric_scooter", "bike_id": "d5f1faa70f00ac39d3cee566711b600d", "lat": 38.90507733333333, "lon": -77.06041083333334, "rental_uris": {"android": "https://dc.lft.to/lastmile_qr_scan", "ios": "https://dc.lft.to/lastmile_qr_scan"}, "is_disabled": 0, "fusion_lat": 0.0, "name": "d5f1faa70f00ac39d3cee566711b600d", "fusion_lon": 0.0}, {"is_reserved": 0, "type": "electric_bike", "bike_id": "b3af7bb0f591a99cd20fb6fac7e555cf", "lat": 38.98832266666667, "lon": -77.02647566666667, "rental_uris": {"android": "https://dc.lft.to/lastmile_qr_scan", "ios": "https://dc.lft.to/lastmile_qr_scan"}, "is_disabled": 0, "fusion_lat": 0.0, "name": "b3af7bb0f591a99cd20fb6fac7e555cf", "fusion_lon": 0.0}, {"is_reserved": 0, "type": "electric_scooter", "bike_id": "6b9f7c335bb8f7240e85b59b788f9cc5", "lat": 38.926821333333336, "lon": -77.0087335, "rental_uris": {"android": "https://dc.lft.to/lastmile_qr_scan", "ios": "https://dc.lft.to/lastmile_qr_scan"}, "is_disabled": 0, "fusion_lat": 0.0, "name": "6b9f7c335bb8f7240e85b59b788f9cc5", "fusion_lon": 0.0}, {"is_reserved": 0, "type": "electric_scooter", "bike_id": "8dd91c1be3aa9e81f4b80381dff87382", "lat": 38.905910666666664, "lon": -77.0243895, "rental_uris": {"android": "https://dc.lft.to/lastmile_qr_scan", "ios": "https://dc.lft.to/lastmile_qr_scan"}, "is_disabled": 0, "fusion_lat": 0.0, "name": "8dd91c1be3aa9e81f4b80381dff87382", "fusion_lon": 0.0}, {"is_reserved": 0, "type": "electric_scooter", "bike_id": "36ec6a695ed53bd0b2ce572fe1a67fbd", "lat": 38.94977516666667, "lon": -77.02447283333333, "rental_uris": {"android": "https://dc.lft.to/lastmile_qr_scan", "ios": "https://dc.lft.to/lastmile_qr_scan"}, "is_disabled": 0, "fusion_lat": 0.0, "name": "36ec6a695ed53bd0b2ce572fe1a67fbd", "fusion_lon": 0.0}, {"is_reserved": 0, "type": "electric_bike", "bike_id": "91add89b9e83f0a028e8420c06028473", "lat": 38.921363666666664, "lon": -77.00397916666667, "rental_uris": {"android": "https://dc.lft.to/lastmile_qr_scan", "ios": "https://dc.lft.to/lastmile_qr_scan"}, "is_disabled": 0, "fusion_lat": 0.0, "name": "91add89b9e83f0a028e8420c06028473", "fusion_lon": 0.0}, {"is_reserved": 0, "type": "electric_scooter", "bike_id": "d6afcb6307df79fada9ab98e86d0a3a2", "lat": 38.937203333333336, "lon": -77.03262616666666, "rental_uris": {"android": "https://dc.lft.to/lastmile_qr_scan", "ios": "https://dc.lft.to/lastmile_qr_scan"}, "is_disabled": 0, "fusion_lat": 0.0, "name": "d6afcb6307df79fada9ab98e86d0a3a2", "fusion_lon": 0.0}, {"is_reserved": 0, "type": "electric_scooter", "bike_id": "175193665b09f6d72c221f879c1e1607", "lat": 38.892432, "lon": -77.033466, "rental_uris": {"android": "https://dc.lft.to/lastmile_qr_scan", "ios": "https://dc.lft.to/lastmile_qr_scan"}, "is_disabled": 0, "fusion_lat": 0.0, "name": "175193665b09f6d72c221f879c1e1607", "fusion_lon": 0.0}, {"is_reserved": 0, "type": "electric_bike", "bike_id": "ede70ef4865effb0f2cbe49066e05917", "lat": 38.958512, "lon": -76.98609983333333, "rental_uris": {"android": "https://dc.lft.to/lastmile_qr_scan", "ios": "https://dc.lft.to/lastmile_qr_scan"}, "is_disabled": 0, "fusion_lat": 0.0, "name": "ede70ef4865effb0f2cbe49066e05917", "fusion_lon": 0.0}, {"is_reserved": 0, "type": "electric_scooter", "bike_id": "d518a567a139a462d1d37b0330395ebc", "lat": 38.8787035, "lon": -76.96259583333334, "rental_uris": {"android": "https://dc.lft.to/lastmile_qr_scan", "ios": "https://dc.lft.to/lastmile_qr_scan"}, "is_disabled": 0, "fusion_lat": 0.0, "name": "d518a567a139a462d1d37b0330395ebc", "fusion_lon": 0.0}, {"is_reserved": 0, "type": "electric_scooter", "bike_id": "0152503165735eb75f3529a8319b23ee", "lat": 38.924421, "lon": -77.02023533333333, "rental_uris": {"android": "https://dc.lft.to/lastmile_qr_scan", "ios": "https://dc.lft.to/lastmile_qr_scan"}, "is_disabled": 0, "fusion_lat": 0.0, "name": "0152503165735eb75f3529a8319b23ee", "fusion_lon": 0.0}, {"is_reserved": 0, "type": "electric_scooter", "bike_id": "8b437890f4ce445b855141e4fc72182b", "lat": 38.92047866666667, "lon": -77.025724, "rental_uris": {"android": "https://dc.lft.to/lastmile_qr_scan", "ios": "https://dc.lft.to/lastmile_qr_scan"}, "is_disabled": 0, "fusion_lat": 0.0, "name": "8b437890f4ce445b855141e4fc72182b", "fusion_lon": 0.0}, {"is_reserved": 0, "type": "electric_scooter", "bike_id": "9f319339861079c8eb9a286d59b10c75", "lat": 38.91718733333333, "lon": -77.038496, "rental_uris": {"android": "https://dc.lft.to/lastmile_qr_scan", "ios": "https://dc.lft.to/lastmile_qr_scan"}, "is_disabled": 0, "fusion_lat": 0.0, "name": "9f319339861079c8eb9a286d59b10c75", "fusion_lon": 0.0}, {"is_reserved": 0, "type": "electric_scooter", "bike_id": "508279a8e069866d88634e5c1bff1207", "lat": 38.941852833333336, "lon": -77.025656, "rental_uris": {"android": "https://dc.lft.to/lastmile_qr_scan", "ios": "https://dc.lft.to/lastmile_qr_scan"}, "is_disabled": 0, "fusion_lat": 0.0, "name": "508279a8e069866d88634e5c1bff1207", "fusion_lon": 0.0}, {"is_reserved": 0, "type": "electric_scooter", "bike_id": "2e95a5588e60bfe7a34643253bf44031", "lat": 38.900529, "lon": -77.0076505, "rental_uris": {"android": "https://dc.lft.to/lastmile_qr_scan", "ios": "https://dc.lft.to/lastmile_qr_scan"}, "is_disabled": 0, "fusion_lat": 0.0, "name": "2e95a5588e60bfe7a34643253bf44031", "fusion_lon": 0.0}, {"is_reserved": 0, "type": "electric_scooter", "bike_id": "d0868fd36b7b11ac2e40cb2d40e0b335", "lat": 38.9023855, "lon": -77.0598435, "rental_uris": {"android": "https://dc.lft.to/lastmile_qr_scan", "ios": "https://dc.lft.to/lastmile_qr_scan"}, "is_disabled": 0, "fusion_lat": 0.0, "name": "d0868fd36b7b11ac2e40cb2d40e0b335", "fusion_lon": 0.0}, {"is_reserved": 0, "type": "electric_scooter", "bike_id": "983ec23ea3651c612c05af066c2f7b7b", "lat": 38.92430616666667, "lon": -77.01937116666667, "rental_uris": {"android": "https://dc.lft.to/lastmile_qr_scan", "ios": "https://dc.lft.to/lastmile_qr_scan"}, "is_disabled": 0, "fusion_lat": 0.0, "name": "983ec23ea3651c612c05af066c2f7b7b", "fusion_lon": 0.0}, {"is_reserved": 0, "type": "electric_scooter", "bike_id": "85d68c7b6c8acaa085b515de833b9996", "lat": 38.887577666666665, "lon": -76.996137, "rental_uris": {"android": "https://dc.lft.to/lastmile_qr_scan", "ios": "https://dc.lft.to/lastmile_qr_scan"}, "is_disabled": 0, "fusion_lat": 0.0, "name": "85d68c7b6c8acaa085b515de833b9996", "fusion_lon": 0.0}, {"is_reserved": 0, "type": "electric_scooter", "bike_id": "0f9ae3f0364a8718ec583aa17f954efe", "lat": 38.9223945, "lon": -77.03517566666666, "rental_uris": {"android": "https://dc.lft.to/lastmile_qr_scan", "ios": "https://dc.lft.to/lastmile_qr_scan"}, "is_disabled": 0, "fusion_lat": 0.0, "name": "0f9ae3f0364a8718ec583aa17f954efe", "fusion_lon": 0.0}, {"is_reserved": 0, "type": "electric_scooter", "bike_id": "56144b22aa922e4917e8f95c3622014e", "lat": 38.9319125, "lon": -77.03842316666666, "rental_uris": {"android": "https://dc.lft.to/lastmile_qr_scan", "ios": "https://dc.lft.to/lastmile_qr_scan"}, "is_disabled": 0, "fusion_lat": 0.0, "name": "56144b22aa922e4917e8f95c3622014e", "fusion_lon": 0.0}, {"is_reserved": 0, "type": "electric_scooter", "bike_id": "cddf2f4b201c5e19560d4f561471099f", "lat": 38.90965833333333, "lon": -77.01440216666667, "rental_uris": {"android": "https://dc.lft.to/lastmile_qr_scan", "ios": "https://dc.lft.to/lastmile_qr_scan"}, "is_disabled": 0, "fusion_lat": 0.0, "name": "cddf2f4b201c5e19560d4f561471099f", "fusion_lon": 0.0}, {"is_reserved": 0, "type": "electric_scooter", "bike_id": "478666bffc361661ba4396b3d1a67c42", "lat": 38.88758383333333, "lon": -76.99612816666667, "rental_uris": {"android": "https://dc.lft.to/lastmile_qr_scan", "ios": "https://dc.lft.to/lastmile_qr_scan"}, "is_disabled": 0, "fusion_lat": 0.0, "name": "478666bffc361661ba4396b3d1a67c42", "fusion_lon": 0.0}, {"is_reserved": 0, "type": "electric_scooter", "bike_id": "ab2b15f7e04a07ac742682d7f46732ed", "lat": 38.924050333333334, "lon": -76.95139533333334, "rental_uris": {"android": "https://dc.lft.to/lastmile_qr_scan", "ios": "https://dc.lft.to/lastmile_qr_scan"}, "is_disabled": 0, "fusion_lat": 0.0, "name": "ab2b15f7e04a07ac742682d7f46732ed", "fusion_lon": 0.0}, {"is_reserved": 0, "type": "electric_scooter", "bike_id": "8b35728a7e4a6caa0731f7274efe2ffc", "lat": 38.8999125, "lon": -77.02894083333334, "rental_uris": {"android": "https://dc.lft.to/lastmile_qr_scan", "ios": "https://dc.lft.to/lastmile_qr_scan"}, "is_disabled": 0, "fusion_lat": 0.0, "name": "8b35728a7e4a6caa0731f7274efe2ffc", "fusion_lon": 0.0}, {"is_reserved": 0, "type": "electric_scooter", "bike_id": "b639e933b1a4b385ba2309b5f40ac4c7", "lat": 38.89622116666666, "lon": -77.0261285, "rental_uris": {"android": "https://dc.lft.to/lastmile_qr_scan", "ios": "https://dc.lft.to/lastmile_qr_scan"}, "is_disabled": 0, "fusion_lat": 0.0, "name": "b639e933b1a4b385ba2309b5f40ac4c7", "fusion_lon": 0.0}, {"is_reserved": 0, "type": "electric_scooter", "bike_id": "106007aa3fcb0759ade597a800bc1939", "lat": 38.9096245, "lon": -77.02136783333333, "rental_uris": {"android": "https://dc.lft.to/lastmile_qr_scan", "ios": "https://dc.lft.to/lastmile_qr_scan"}, "is_disabled": 0, "fusion_lat": 0.0, "name": "106007aa3fcb0759ade597a800bc1939", "fusion_lon": 0.0}, {"is_reserved": 0, "type": "electric_scooter", "bike_id": "6819ec57173b97d1d9e80d554f0083dc", "lat": 38.8963405, "lon": -77.00201783333333, "rental_uris": {"android": "https://dc.lft.to/lastmile_qr_scan", "ios": "https://dc.lft.to/lastmile_qr_scan"}, "is_disabled": 0, "fusion_lat": 0.0, "name": "6819ec57173b97d1d9e80d554f0083dc", "fusion_lon": 0.0}, {"is_reserved": 0, "type": "electric_scooter", "bike_id": "1f5c79480ff6c5487f8d8d407b5fa1f0", "lat": 38.8987945, "lon": -77.04871966666667, "rental_uris": {"android": "https://dc.lft.to/lastmile_qr_scan", "ios": "https://dc.lft.to/lastmile_qr_scan"}, "is_disabled": 0, "fusion_lat": 0.0, "name": "1f5c79480ff6c5487f8d8d407b5fa1f0", "fusion_lon": 0.0}, {"is_reserved": 0, "type": "electric_bike", "bike_id": "1c3404ab6d250ac201e14ca64d6acd55", "lat": 38.91413133333333, "lon": -77.00485483333334, "rental_uris": {"android": "https://dc.lft.to/lastmile_qr_scan", "ios": "https://dc.lft.to/lastmile_qr_scan"}, "is_disabled": 0, "fusion_lat": 0.0, "name": "1c3404ab6d250ac201e14ca64d6acd55", "fusion_lon": 0.0}, {"is_reserved": 0, "type": "electric_scooter", "bike_id": "9023879304fcf8fc8312c7c8dbdb012d", "lat": 38.9055655, "lon": -77.061142, "rental_uris": {"android": "https://dc.lft.to/lastmile_qr_scan", "ios": "https://dc.lft.to/lastmile_qr_scan"}, "is_disabled": 0, "fusion_lat": 0.0, "name": "9023879304fcf8fc8312c7c8dbdb012d", "fusion_lon": 0.0}, {"is_reserved": 0, "type": "electric_scooter", "bike_id": "f0f71dabe8a4a242a979497282a1c1dc", "lat": 38.91065966666667, "lon": -77.021828, "rental_uris": {"android": "https://dc.lft.to/lastmile_qr_scan", "ios": "https://dc.lft.to/lastmile_qr_scan"}, "is_disabled": 0, "fusion_lat": 0.0, "name": "f0f71dabe8a4a242a979497282a1c1dc", "fusion_lon": 0.0}, {"is_reserved": 0, "type": "electric_bike", "bike_id": "ffea34d875149565c9d7f5999a9d726f", "lat": 38.8812275, "lon": -77.01650933333333, "rental_uris": {"android": "https://dc.lft.to/lastmile_qr_scan", "ios": "https://dc.lft.to/lastmile_qr_scan"}, "is_disabled": 0, "fusion_lat": 0.0, "name": "ffea34d875149565c9d7f5999a9d726f", "fusion_lon": 0.0}, {"is_reserved": 0, "type": "electric_scooter", "bike_id": "436731d58e5f9fc8c99abefc34acbabd", "lat": 38.90730666666666, "lon": -77.00059633333333, "rental_uris": {"android": "https://dc.lft.to/lastmile_qr_scan", "ios": "https://dc.lft.to/lastmile_qr_scan"}, "is_disabled": 0, "fusion_lat": 0.0, "name": "436731d58e5f9fc8c99abefc34acbabd", "fusion_lon": 0.0}, {"is_reserved": 0, "type": "electric_scooter", "bike_id": "6626610e0527390dccacc75c8a32652a", "lat": 38.927975333333336, "lon": -77.03647366666667, "rental_uris": {"android": "https://dc.lft.to/lastmile_qr_scan", "ios": "https://dc.lft.to/lastmile_qr_scan"}, "is_disabled": 0, "fusion_lat": 0.0, "name": "6626610e0527390dccacc75c8a32652a", "fusion_lon": 0.0}, {"is_reserved": 0, "type": "electric_scooter", "bike_id": "9decf344de56af19df1403063674f1ea", "lat": 38.90616683333333, "lon": -77.02003733333333, "rental_uris": {"android": "https://dc.lft.to/lastmile_qr_scan", "ios": "https://dc.lft.to/lastmile_qr_scan"}, "is_disabled": 0, "fusion_lat": 0.0, "name": "9decf344de56af19df1403063674f1ea", "fusion_lon": 0.0}, {"is_reserved": 0, "type": "electric_scooter", "bike_id": "c837ae2da11ca7cd357981d4f60265f2", "lat": 38.926121, "lon": -77.0216015, "rental_uris": {"android": "https://dc.lft.to/lastmile_qr_scan", "ios": "https://dc.lft.to/lastmile_qr_scan"}, "is_disabled": 0, "fusion_lat": 0.0, "name": "c837ae2da11ca7cd357981d4f60265f2", "fusion_lon": 0.0}, {"is_reserved": 0, "type": "electric_scooter", "bike_id": "ec1302192aac0b4ec1f163dffa1f045b", "lat": 38.9007425, "lon": -77.048631, "rental_uris": {"android": "https://dc.lft.to/lastmile_qr_scan", "ios": "https://dc.lft.to/lastmile_qr_scan"}, "is_disabled": 0, "fusion_lat": 0.0, "name": "ec1302192aac0b4ec1f163dffa1f045b", "fusion_lon": 0.0}, {"is_reserved": 0, "type": "electric_scooter", "bike_id": "2d0d15d053435ff0c5549f14a8faed44", "lat": 38.9226865, "lon": -77.01978, "rental_uris": {"android": "https://dc.lft.to/lastmile_qr_scan", "ios": "https://dc.lft.to/lastmile_qr_scan"}, "is_disabled": 0, "fusion_lat": 0.0, "name": "2d0d15d053435ff0c5549f14a8faed44", "fusion_lon": 0.0}, {"is_reserved": 0, "type": "electric_bike", "bike_id": "324034c1a9fda2cedd6cc1aa12804b3d", "lat": 38.84537133333333, "lon": -77.0763515, "rental_uris": {"android": "https://dc.lft.to/lastmile_qr_scan", "ios": "https://dc.lft.to/lastmile_qr_scan"}, "is_disabled": 0, "fusion_lat": 0.0, "name": "324034c1a9fda2cedd6cc1aa12804b3d", "fusion_lon": 0.0}, {"is_reserved": 0, "type": "electric_bike", "bike_id": "572c52845ca67e1d1457abcd14486543", "lat": 38.9415515, "lon": -77.00187416666667, "rental_uris": {"android": "https://dc.lft.to/lastmile_qr_scan", "ios": "https://dc.lft.to/lastmile_qr_scan"}, "is_disabled": 0, "fusion_lat": 0.0, "name": "572c52845ca67e1d1457abcd14486543", "fusion_lon": 0.0}, {"is_reserved": 0, "type": "electric_scooter", "bike_id": "5447dd667779df8d918bc8c0dd2af25d", "lat": 38.926927166666665, "lon": -77.0258205, "rental_uris": {"android": "https://dc.lft.to/lastmile_qr_scan", "ios": "https://dc.lft.to/lastmile_qr_scan"}, "is_disabled": 0, "fusion_lat": 0.0, "name": "5447dd667779df8d918bc8c0dd2af25d", "fusion_lon": 0.0}, {"is_reserved": 0, "type": "electric_scooter", "bike_id": "6c6d90353bcf42f5d4b7503c0b5a0671", "lat": 38.897077, "lon": -77.004881, "rental_uris": {"android": "https://dc.lft.to/lastmile_qr_scan", "ios": "https://dc.lft.to/lastmile_qr_scan"}, "is_disabled": 0, "fusion_lat": 0.0, "name": "6c6d90353bcf42f5d4b7503c0b5a0671", "fusion_lon": 0.0}, {"is_reserved": 0, "type": "electric_bike", "bike_id": "3e82a7242a7448cd9e55c63e0ecd67ef", "lat": 38.8824735, "lon": -76.96254583333334, "rental_uris": {"android": "https://dc.lft.to/lastmile_qr_scan", "ios": "https://dc.lft.to/lastmile_qr_scan"}, "is_disabled": 0, "fusion_lat": 0.0, "name": "3e82a7242a7448cd9e55c63e0ecd67ef", "fusion_lon": 0.0}, {"is_reserved": 0, "type": "electric_scooter", "bike_id": "8af2e087577adf74a7badee4ecccca28", "lat": 38.9260375, "lon": -77.0249075, "rental_uris": {"android": "https://dc.lft.to/lastmile_qr_scan", "ios": "https://dc.lft.to/lastmile_qr_scan"}, "is_disabled": 0, "fusion_lat": 0.0, "name": "8af2e087577adf74a7badee4ecccca28", "fusion_lon": 0.0}, {"is_reserved": 0, "type": "electric_scooter", "bike_id": "866c6d17ef059daa32fe93ddb576582e", "lat": 38.918164833333336, "lon": -77.02474083333334, "rental_uris": {"android": "https://dc.lft.to/lastmile_qr_scan", "ios": "https://dc.lft.to/lastmile_qr_scan"}, "is_disabled": 0, "fusion_lat": 0.0, "name": "866c6d17ef059daa32fe93ddb576582e", "fusion_lon": 0.0}, {"is_reserved": 0, "type": "electric_scooter", "bike_id": "b613015314fd16237c7a502afe50b5fb", "lat": 38.896756833333335, "lon": -77.05019216666666, "rental_uris": {"android": "https://dc.lft.to/lastmile_qr_scan", "ios": "https://dc.lft.to/lastmile_qr_scan"}, "is_disabled": 0, "fusion_lat": 0.0, "name": "b613015314fd16237c7a502afe50b5fb", "fusion_lon": 0.0}, {"is_reserved": 0, "type": "electric_scooter", "bike_id": "17fe87b9beb8b26acf2a1f88ad7d9eac", "lat": 38.916975666666666, "lon": -77.04103766666667, "rental_uris": {"android": "https://dc.lft.to/lastmile_qr_scan", "ios": "https://dc.lft.to/lastmile_qr_scan"}, "is_disabled": 0, "fusion_lat": 0.0, "name": "17fe87b9beb8b26acf2a1f88ad7d9eac", "fusion_lon": 0.0}, {"is_reserved": 0, "type": "electric_scooter", "bike_id": "69fad842cb21b4475a67893e12bccd51", "lat": 38.869695, "lon": -77.011169, "rental_uris": {"android": "https://dc.lft.to/lastmile_qr_scan", "ios": "https://dc.lft.to/lastmile_qr_scan"}, "is_disabled": 0, "fusion_lat": 0.0, "name": "69fad842cb21b4475a67893e12bccd51", "fusion_lon": 0.0}, {"is_reserved": 0, "type": "electric_scooter", "bike_id": "463b777f47b9c5f8500e378d01069cc2", "lat": 38.91799133333333, "lon": -77.03187166666666, "rental_uris": {"android": "https://dc.lft.to/lastmile_qr_scan", "ios": "https://dc.lft.to/lastmile_qr_scan"}, "is_disabled": 0, "fusion_lat": 0.0, "name": "463b777f47b9c5f8500e378d01069cc2", "fusion_lon": 0.0}, {"is_reserved": 0, "type": "electric_scooter", "bike_id": "d3f9a9c52c3d0c2009531e931920faf1", "lat": 38.900817833333335, "lon": -77.04947233333333, "rental_uris": {"android": "https://dc.lft.to/lastmile_qr_scan", "ios": "https://dc.lft.to/lastmile_qr_scan"}, "is_disabled": 0, "fusion_lat": 0.0, "name": "d3f9a9c52c3d0c2009531e931920faf1", "fusion_lon": 0.0}, {"is_reserved": 0, "type": "electric_scooter", "bike_id": "e507897735072c965b661590cf84e914", "lat": 38.93209816666667, "lon": -77.02394166666667, "rental_uris": {"android": "https://dc.lft.to/lastmile_qr_scan", "ios": "https://dc.lft.to/lastmile_qr_scan"}, "is_disabled": 0, "fusion_lat": 0.0, "name": "e507897735072c965b661590cf84e914", "fusion_lon": 0.0}, {"is_reserved": 0, "type": "electric_scooter", "bike_id": "f4ab07b8c450a3dadb0ad9a8e4d9ad38", "lat": 38.9142945, "lon": -77.03199916666667, "rental_uris": {"android": "https://dc.lft.to/lastmile_qr_scan", "ios": "https://dc.lft.to/lastmile_qr_scan"}, "is_disabled": 0, "fusion_lat": 0.0, "name": "f4ab07b8c450a3dadb0ad9a8e4d9ad38", "fusion_lon": 0.0}, {"is_reserved": 0, "type": "electric_scooter", "bike_id": "2b91dd4be2b3a7d681aed56883ff486e", "lat": 38.92805416666667, "lon": -77.02318766666667, "rental_uris": {"android": "https://dc.lft.to/lastmile_qr_scan", "ios": "https://dc.lft.to/lastmile_qr_scan"}, "is_disabled": 0, "fusion_lat": 0.0, "name": "2b91dd4be2b3a7d681aed56883ff486e", "fusion_lon": 0.0}, {"is_reserved": 0, "type": "electric_scooter", "bike_id": "fad1d25fb04b80b82d1d17544a5867d9", "lat": 38.894257333333336, "lon": -77.05597466666667, "rental_uris": {"android": "https://dc.lft.to/lastmile_qr_scan", "ios": "https://dc.lft.to/lastmile_qr_scan"}, "is_disabled": 0, "fusion_lat": 0.0, "name": "fad1d25fb04b80b82d1d17544a5867d9", "fusion_lon": 0.0}, {"is_reserved": 0, "type": "electric_bike", "bike_id": "761ae271532ad7e24a4011a457007f05", "lat": 38.89615383333334, "lon": -76.90731666666667, "rental_uris": {"android": "https://dc.lft.to/lastmile_qr_scan", "ios": "https://dc.lft.to/lastmile_qr_scan"}, "is_disabled": 0, "fusion_lat": 0.0, "name": "761ae271532ad7e24a4011a457007f05", "fusion_lon": 0.0}, {"is_reserved": 0, "type": "electric_scooter", "bike_id": "b407896dce0ff2099518bcac293afa54", "lat": 38.893541166666665, "lon": -77.01731433333333, "rental_uris": {"android": "https://dc.lft.to/lastmile_qr_scan", "ios": "https://dc.lft.to/lastmile_qr_scan"}, "is_disabled": 0, "fusion_lat": 0.0, "name": "b407896dce0ff2099518bcac293afa54", "fusion_lon": 0.0}, {"is_reserved": 0, "type": "electric_scooter", "bike_id": "e649a06ed0f6c58368a55fb0ccd519a0", "lat": 38.920505166666665, "lon": -77.02573633333333, "rental_uris": {"android": "https://dc.lft.to/lastmile_qr_scan", "ios": "https://dc.lft.to/lastmile_qr_scan"}, "is_disabled": 0, "fusion_lat": 0.0, "name": "e649a06ed0f6c58368a55fb0ccd519a0", "fusion_lon": 0.0}, {"is_reserved": 0, "type": "electric_scooter", "bike_id": "00df0695942030627b1a3ae3c973bc75", "lat": 38.9086465, "lon": -77.0020515, "rental_uris": {"android": "https://dc.lft.to/lastmile_qr_scan", "ios": "https://dc.lft.to/lastmile_qr_scan"}, "is_disabled": 0, "fusion_lat": 0.0, "name": "00df0695942030627b1a3ae3c973bc75", "fusion_lon": 0.0}, {"is_reserved": 0, "type": "electric_scooter", "bike_id": "7fb1d89e6136efc320d7beb85197f7cc", "lat": 38.89484, "lon": -76.99572666666667, "rental_uris": {"android": "https://dc.lft.to/lastmile_qr_scan", "ios": "https://dc.lft.to/lastmile_qr_scan"}, "is_disabled": 0, "fusion_lat": 0.0, "name": "7fb1d89e6136efc320d7beb85197f7cc", "fusion_lon": 0.0}, {"is_reserved": 0, "type": "electric_scooter", "bike_id": "69a8a2265667345e752f60c59603efee", "lat": 38.86492166666667, "lon": -76.9774375, "rental_uris": {"android": "https://dc.lft.to/lastmile_qr_scan", "ios": "https://dc.lft.to/lastmile_qr_scan"}, "is_disabled": 0, "fusion_lat": 0.0, "name": "69a8a2265667345e752f60c59603efee", "fusion_lon": 0.0}, {"is_reserved": 0, "type": "electric_scooter", "bike_id": "10324179a19488036e5711635d730d24", "lat": 38.918432, "lon": -77.036375, "rental_uris": {"android": "https://dc.lft.to/lastmile_qr_scan", "ios": "https://dc.lft.to/lastmile_qr_scan"}, "is_disabled": 0, "fusion_lat": 0.0, "name": "10324179a19488036e5711635d730d24", "fusion_lon": 0.0}, {"is_reserved": 0, "type": "electric_scooter", "bike_id": "8f742ecd9d52510cfe7f3cbe3c829f21", "lat": 38.9267525, "lon": -77.02588483333334, "rental_uris": {"android": "https://dc.lft.to/lastmile_qr_scan", "ios": "https://dc.lft.to/lastmile_qr_scan"}, "is_disabled": 0, "fusion_lat": 0.0, "name": "8f742ecd9d52510cfe7f3cbe3c829f21", "fusion_lon": 0.0}, {"is_reserved": 0, "type": "electric_scooter", "bike_id": "7a60d379972cbf7dc41bad9fbd883a9e", "lat": 38.92605233333333, "lon": -77.02167433333334, "rental_uris": {"android": "https://dc.lft.to/lastmile_qr_scan", "ios": "https://dc.lft.to/lastmile_qr_scan"}, "is_disabled": 0, "fusion_lat": 0.0, "name": "7a60d379972cbf7dc41bad9fbd883a9e", "fusion_lon": 0.0}, {"is_reserved": 0, "type": "electric_scooter", "bike_id": "e743a767c749534957219436b633a7c5", "lat": 38.912696833333335, "lon": -77.012165, "rental_uris": {"android": "https://dc.lft.to/lastmile_qr_scan", "ios": "https://dc.lft.to/lastmile_qr_scan"}, "is_disabled": 0, "fusion_lat": 0.0, "name": "e743a767c749534957219436b633a7c5", "fusion_lon": 0.0}, {"is_reserved": 0, "type": "electric_scooter", "bike_id": "bfeb3b336ebed35914edd310755bb324", "lat": 38.939954, "lon": -77.02001716666666, "rental_uris": {"android": "https://dc.lft.to/lastmile_qr_scan", "ios": "https://dc.lft.to/lastmile_qr_scan"}, "is_disabled": 0, "fusion_lat": 0.0, "name": "bfeb3b336ebed35914edd310755bb324", "fusion_lon": 0.0}, {"is_reserved": 0, "type": "electric_scooter", "bike_id": "d2ec19ba51348d57c721c0a7fc7faba6", "lat": 38.9142365, "lon": -77.01793933333333, "rental_uris": {"android": "https://dc.lft.to/lastmile_qr_scan", "ios": "https://dc.lft.to/lastmile_qr_scan"}, "is_disabled": 0, "fusion_lat": 0.0, "name": "d2ec19ba51348d57c721c0a7fc7faba6", "fusion_lon": 0.0}, {"is_reserved": 0, "type": "electric_scooter", "bike_id": "7540ac0402fbf568db3b18d3f5b33eeb", "lat": 38.902001166666665, "lon": -77.02183083333334, "rental_uris": {"android": "https://dc.lft.to/lastmile_qr_scan", "ios": "https://dc.lft.to/lastmile_qr_scan"}, "is_disabled": 0, "fusion_lat": 0.0, "name": "7540ac0402fbf568db3b18d3f5b33eeb", "fusion_lon": 0.0}, {"is_reserved": 0, "type": "electric_bike", "bike_id": "2765b2660f7429961bafd3abce253a65", "lat": 38.91153516666667, "lon": -76.9968715, "rental_uris": {"android": "https://dc.lft.to/lastmile_qr_scan", "ios": "https://dc.lft.to/lastmile_qr_scan"}, "is_disabled": 0, "fusion_lat": 0.0, "name": "2765b2660f7429961bafd3abce253a65", "fusion_lon": 0.0}, {"is_reserved": 0, "type": "electric_scooter", "bike_id": "38359ee27593088cdd5a4b015e8ab8fb", "lat": 38.9008745, "lon": -77.00194333333333, "rental_uris": {"android": "https://dc.lft.to/lastmile_qr_scan", "ios": "https://dc.lft.to/lastmile_qr_scan"}, "is_disabled": 0, "fusion_lat": 0.0, "name": "38359ee27593088cdd5a4b015e8ab8fb", "fusion_lon": 0.0}, {"is_reserved": 0, "type": "electric_scooter", "bike_id": "0e48b24441d51c3983df55ba14713dc7", "lat": 38.90351666666667, "lon": -76.9861555, "rental_uris": {"android": "https://dc.lft.to/lastmile_qr_scan", "ios": "https://dc.lft.to/lastmile_qr_scan"}, "is_disabled": 0, "fusion_lat": 0.0, "name": "0e48b24441d51c3983df55ba14713dc7", "fusion_lon": 0.0}, {"is_reserved": 0, "type": "electric_bike", "bike_id": "2e8380c9ebc8cad64b9b5838d3321548", "lat": 38.95756933333333, "lon": -76.98016633333333, "rental_uris": {"android": "https://dc.lft.to/lastmile_qr_scan", "ios": "https://dc.lft.to/lastmile_qr_scan"}, "is_disabled": 0, "fusion_lat": 0.0, "name": "2e8380c9ebc8cad64b9b5838d3321548", "fusion_lon": 0.0}, {"is_reserved": 0, "type": "electric_scooter", "bike_id": "38a9dfa2ca2b5bbe9769cd8d528edd8b", "lat": 38.929805333333334, "lon": -77.0550425, "rental_uris": {"android": "https://dc.lft.to/lastmile_qr_scan", "ios": "https://dc.lft.to/lastmile_qr_scan"}, "is_disabled": 0, "fusion_lat": 0.0, "name": "38a9dfa2ca2b5bbe9769cd8d528edd8b", "fusion_lon": 0.0}, {"is_reserved": 0, "type": "electric_scooter", "bike_id": "5f464d19a7781d7ea1b42d15c6f52719", "lat": 38.9307315, "lon": -77.028123, "rental_uris": {"android": "https://dc.lft.to/lastmile_qr_scan", "ios": "https://dc.lft.to/lastmile_qr_scan"}, "is_disabled": 0, "fusion_lat": 0.0, "name": "5f464d19a7781d7ea1b42d15c6f52719", "fusion_lon": 0.0}, {"is_reserved": 0, "type": "electric_scooter", "bike_id": "ebb47bec764f18a5cbd2b66d9a464196", "lat": 38.97519916666667, "lon": -77.01732983333333, "rental_uris": {"android": "https://dc.lft.to/lastmile_qr_scan", "ios": "https://dc.lft.to/lastmile_qr_scan"}, "is_disabled": 0, "fusion_lat": 0.0, "name": "ebb47bec764f18a5cbd2b66d9a464196", "fusion_lon": 0.0}, {"is_reserved": 0, "type": "electric_bike", "bike_id": "728f4933274cae4d7fa0d05978574485", "lat": 38.88387816666667, "lon": -76.95448083333333, "rental_uris": {"android": "https://dc.lft.to/lastmile_qr_scan", "ios": "https://dc.lft.to/lastmile_qr_scan"}, "is_disabled": 0, "fusion_lat": 0.0, "name": "728f4933274cae4d7fa0d05978574485", "fusion_lon": 0.0}, {"is_reserved": 0, "type": "electric_scooter", "bike_id": "9dbf0ee4d88056b6d764f1b542ec1b34", "lat": 38.905250333333335, "lon": -77.0259135, "rental_uris": {"android": "https://dc.lft.to/lastmile_qr_scan", "ios": "https://dc.lft.to/lastmile_qr_scan"}, "is_disabled": 0, "fusion_lat": 0.0, "name": "9dbf0ee4d88056b6d764f1b542ec1b34", "fusion_lon": 0.0}, {"is_reserved": 0, "type": "electric_scooter", "bike_id": "daec73a708e64e7d71e6ad4e6c6e48a0", "lat": 38.9333755, "lon": -77.02410916666666, "rental_uris": {"android": "https://dc.lft.to/lastmile_qr_scan", "ios": "https://dc.lft.to/lastmile_qr_scan"}, "is_disabled": 0, "fusion_lat": 0.0, "name": "daec73a708e64e7d71e6ad4e6c6e48a0", "fusion_lon": 0.0}, {"is_reserved": 0, "type": "electric_bike", "bike_id": "fc5ccbd4f875010691658930273167c9", "lat": 38.832358, "lon": -76.94616833333333, "rental_uris": {"android": "https://dc.lft.to/lastmile_qr_scan", "ios": "https://dc.lft.to/lastmile_qr_scan"}, "is_disabled": 0, "fusion_lat": 0.0, "name": "fc5ccbd4f875010691658930273167c9", "fusion_lon": 0.0}, {"is_reserved": 0, "type": "electric_scooter", "bike_id": "1f03b1cc28230ecc93440da3b9e0d004", "lat": 38.9449355, "lon": -77.00707683333333, "rental_uris": {"android": "https://dc.lft.to/lastmile_qr_scan", "ios": "https://dc.lft.to/lastmile_qr_scan"}, "is_disabled": 0, "fusion_lat": 0.0, "name": "1f03b1cc28230ecc93440da3b9e0d004", "fusion_lon": 0.0}, {"is_reserved": 0, "type": "electric_scooter", "bike_id": "67072d7a27f95118ff98b0cfaecb8400", "lat": 38.905272333333336, "lon": -77.05837516666666, "rental_uris": {"android": "https://dc.lft.to/lastmile_qr_scan", "ios": "https://dc.lft.to/lastmile_qr_scan"}, "is_disabled": 0, "fusion_lat": 0.0, "name": "67072d7a27f95118ff98b0cfaecb8400", "fusion_lon": 0.0}, {"is_reserved": 0, "type": "electric_bike", "bike_id": "62a82ad57e0ff25a6cb4245ea4bd15c9", "lat": 38.82338133333333, "lon": -77.05820166666666, "rental_uris": {"android": "https://dc.lft.to/lastmile_qr_scan", "ios": "https://dc.lft.to/lastmile_qr_scan"}, "is_disabled": 0, "fusion_lat": 0.0, "name": "62a82ad57e0ff25a6cb4245ea4bd15c9", "fusion_lon": 0.0}, {"is_reserved": 0, "type": "electric_scooter", "bike_id": "f15d17b0d0cfd5cef88597ee8ecc0297", "lat": 38.904917166666664, "lon": -77.04179383333333, "rental_uris": {"android": "https://dc.lft.to/lastmile_qr_scan", "ios": "https://dc.lft.to/lastmile_qr_scan"}, "is_disabled": 0, "fusion_lat": 0.0, "name": "f15d17b0d0cfd5cef88597ee8ecc0297", "fusion_lon": 0.0}, {"is_reserved": 0, "type": "electric_scooter", "bike_id": "b4929abce171e1ac05252d5266697aed", "lat": 38.8837875, "lon": -76.9951545, "rental_uris": {"android": "https://dc.lft.to/lastmile_qr_scan", "ios": "https://dc.lft.to/lastmile_qr_scan"}, "is_disabled": 0, "fusion_lat": 0.0, "name": "b4929abce171e1ac05252d5266697aed", "fusion_lon": 0.0}, {"is_reserved": 0, "type": "electric_scooter", "bike_id": "b9d00ce0513bbbcabd570ae6865187fa", "lat": 38.96647316666667, "lon": -77.00893883333333, "rental_uris": {"android": "https://dc.lft.to/lastmile_qr_scan", "ios": "https://dc.lft.to/lastmile_qr_scan"}, "is_disabled": 0, "fusion_lat": 0.0, "name": "b9d00ce0513bbbcabd570ae6865187fa", "fusion_lon": 0.0}, {"is_reserved": 0, "type": "electric_scooter", "bike_id": "38b08b370a1d13b113f561882d6a4e1e", "lat": 38.926141333333334, "lon": -77.021544, "rental_uris": {"android": "https://dc.lft.to/lastmile_qr_scan", "ios": "https://dc.lft.to/lastmile_qr_scan"}, "is_disabled": 0, "fusion_lat": 0.0, "name": "38b08b370a1d13b113f561882d6a4e1e", "fusion_lon": 0.0}, {"is_reserved": 0, "type": "electric_scooter", "bike_id": "d7297efecd7b2c4150232ca90fc8302c", "lat": 38.89985883333333, "lon": -77.026964, "rental_uris": {"android": "https://dc.lft.to/lastmile_qr_scan", "ios": "https://dc.lft.to/lastmile_qr_scan"}, "is_disabled": 0, "fusion_lat": 0.0, "name": "d7297efecd7b2c4150232ca90fc8302c", "fusion_lon": 0.0}, {"is_reserved": 0, "type": "electric_scooter", "bike_id": "11cf97a3baec0f06c7225526cb0f4cce", "lat": 38.9210295, "lon": -77.0316755, "rental_uris": {"android": "https://dc.lft.to/lastmile_qr_scan", "ios": "https://dc.lft.to/lastmile_qr_scan"}, "is_disabled": 0, "fusion_lat": 0.0, "name": "11cf97a3baec0f06c7225526cb0f4cce", "fusion_lon": 0.0}, {"is_reserved": 0, "type": "electric_scooter", "bike_id": "d284101ebc10a8d58bfe3ab0cefdfb64", "lat": 38.95252933333333, "lon": -77.023872, "rental_uris": {"android": "https://dc.lft.to/lastmile_qr_scan", "ios": "https://dc.lft.to/lastmile_qr_scan"}, "is_disabled": 0, "fusion_lat": 0.0, "name": "d284101ebc10a8d58bfe3ab0cefdfb64", "fusion_lon": 0.0}, {"is_reserved": 0, "type": "electric_scooter", "bike_id": "90f29ba28b223d6e33a34fce703ff7ca", "lat": 38.91629416666667, "lon": -77.01576033333333, "rental_uris": {"android": "https://dc.lft.to/lastmile_qr_scan", "ios": "https://dc.lft.to/lastmile_qr_scan"}, "is_disabled": 0, "fusion_lat": 0.0, "name": "90f29ba28b223d6e33a34fce703ff7ca", "fusion_lon": 0.0}, {"is_reserved": 0, "type": "electric_scooter", "bike_id": "f03bb115ba7c878573e6c1f5eaf49cd6", "lat": 38.91713333333333, "lon": -77.03215733333333, "rental_uris": {"android": "https://dc.lft.to/lastmile_qr_scan", "ios": "https://dc.lft.to/lastmile_qr_scan"}, "is_disabled": 0, "fusion_lat": 0.0, "name": "f03bb115ba7c878573e6c1f5eaf49cd6", "fusion_lon": 0.0}, {"is_reserved": 0, "type": "electric_scooter", "bike_id": "b86f30cd5f41d8c6934aef6bbc93200f", "lat": 38.93529183333333, "lon": -77.02487916666666, "rental_uris": {"android": "https://dc.lft.to/lastmile_qr_scan", "ios": "https://dc.lft.to/lastmile_qr_scan"}, "is_disabled": 0, "fusion_lat": 0.0, "name": "b86f30cd5f41d8c6934aef6bbc93200f", "fusion_lon": 0.0}, {"is_reserved": 0, "type": "electric_scooter", "bike_id": "42ab7ac19f2402d11e19e9ec321127ca", "lat": 38.9186755, "lon": -77.0135175, "rental_uris": {"android": "https://dc.lft.to/lastmile_qr_scan", "ios": "https://dc.lft.to/lastmile_qr_scan"}, "is_disabled": 0, "fusion_lat": 0.0, "name": "42ab7ac19f2402d11e19e9ec321127ca", "fusion_lon": 0.0}, {"is_reserved": 0, "type": "electric_scooter", "bike_id": "598c8bc8de7b6fcbd7c20d049e454de3", "lat": 38.90586416666667, "lon": -77.03640716666666, "rental_uris": {"android": "https://dc.lft.to/lastmile_qr_scan", "ios": "https://dc.lft.to/lastmile_qr_scan"}, "is_disabled": 0, "fusion_lat": 0.0, "name": "598c8bc8de7b6fcbd7c20d049e454de3", "fusion_lon": 0.0}, {"is_reserved": 0, "type": "electric_bike", "bike_id": "2fb7b81da16d2e050fba6279f753e408", "lat": 38.995404666666666, "lon": -77.0744505, "rental_uris": {"android": "https://dc.lft.to/lastmile_qr_scan", "ios": "https://dc.lft.to/lastmile_qr_scan"}, "is_disabled": 0, "fusion_lat": 0.0, "name": "2fb7b81da16d2e050fba6279f753e408", "fusion_lon": 0.0}, {"is_reserved": 0, "type": "electric_scooter", "bike_id": "6ae05c43e41b2fa44988e7805ecf05b9", "lat": 38.89496333333334, "lon": -77.00196683333333, "rental_uris": {"android": "https://dc.lft.to/lastmile_qr_scan", "ios": "https://dc.lft.to/lastmile_qr_scan"}, "is_disabled": 0, "fusion_lat": 0.0, "name": "6ae05c43e41b2fa44988e7805ecf05b9", "fusion_lon": 0.0}, {"is_reserved": 0, "type": "electric_scooter", "bike_id": "de615d39c9ef0b854cc62ea5d2c3e418", "lat": 38.93432716666667, "lon": -77.03757466666667, "rental_uris": {"android": "https://dc.lft.to/lastmile_qr_scan", "ios": "https://dc.lft.to/lastmile_qr_scan"}, "is_disabled": 0, "fusion_lat": 0.0, "name": "de615d39c9ef0b854cc62ea5d2c3e418", "fusion_lon": 0.0}, {"is_reserved": 0, "type": "electric_scooter", "bike_id": "812a0afd3983437c75aa581f9bd3ebee", "lat": 38.90266483333333, "lon": -77.01761316666666, "rental_uris": {"android": "https://dc.lft.to/lastmile_qr_scan", "ios": "https://dc.lft.to/lastmile_qr_scan"}, "is_disabled": 0, "fusion_lat": 0.0, "name": "812a0afd3983437c75aa581f9bd3ebee", "fusion_lon": 0.0}, {"is_reserved": 0, "type": "electric_scooter", "bike_id": "a8c125999ef0cc619c6228933f9b7645", "lat": 38.90540466666667, "lon": -77.022066, "rental_uris": {"android": "https://dc.lft.to/lastmile_qr_scan", "ios": "https://dc.lft.to/lastmile_qr_scan"}, "is_disabled": 0, "fusion_lat": 0.0, "name": "a8c125999ef0cc619c6228933f9b7645", "fusion_lon": 0.0}, {"is_reserved": 0, "type": "electric_scooter", "bike_id": "deb27ba68b003136471a6c086c38745d", "lat": 38.8964485, "lon": -77.00925283333333, "rental_uris": {"android": "https://dc.lft.to/lastmile_qr_scan", "ios": "https://dc.lft.to/lastmile_qr_scan"}, "is_disabled": 0, "fusion_lat": 0.0, "name": "deb27ba68b003136471a6c086c38745d", "fusion_lon": 0.0}, {"is_reserved": 0, "type": "electric_scooter", "bike_id": "381f4eeb6a712e48532a922a78ddb1ea", "lat": 38.926161, "lon": -77.02155966666666, "rental_uris": {"android": "https://dc.lft.to/lastmile_qr_scan", "ios": "https://dc.lft.to/lastmile_qr_scan"}, "is_disabled": 0, "fusion_lat": 0.0, "name": "381f4eeb6a712e48532a922a78ddb1ea", "fusion_lon": 0.0}, {"is_reserved": 0, "type": "electric_scooter", "bike_id": "e5ca74b109956bfe4ba69e1c0f4c63af", "lat": 38.88644733333334, "lon": -76.99597633333333, "rental_uris": {"android": "https://dc.lft.to/lastmile_qr_scan", "ios": "https://dc.lft.to/lastmile_qr_scan"}, "is_disabled": 0, "fusion_lat": 0.0, "name": "e5ca74b109956bfe4ba69e1c0f4c63af", "fusion_lon": 0.0}, {"is_reserved": 0, "type": "electric_scooter", "bike_id": "073524a620c2210ecce9bc265a45e359", "lat": 38.90482383333333, "lon": -77.00709366666666, "rental_uris": {"android": "https://dc.lft.to/lastmile_qr_scan", "ios": "https://dc.lft.to/lastmile_qr_scan"}, "is_disabled": 0, "fusion_lat": 0.0, "name": "073524a620c2210ecce9bc265a45e359", "fusion_lon": 0.0}, {"is_reserved": 0, "type": "electric_scooter", "bike_id": "3ffaca3b6fd627bcdaed42e4f858fa6b", "lat": 38.900642166666664, "lon": -77.05425533333333, "rental_uris": {"android": "https://dc.lft.to/lastmile_qr_scan", "ios": "https://dc.lft.to/lastmile_qr_scan"}, "is_disabled": 0, "fusion_lat": 0.0, "name": "3ffaca3b6fd627bcdaed42e4f858fa6b", "fusion_lon": 0.0}, {"is_reserved": 0, "type": "electric_scooter", "bike_id": "8abb93fe651d1307de841f5d89bd4ba5", "lat": 38.887746666666665, "lon": -76.932564, "rental_uris": {"android": "https://dc.lft.to/lastmile_qr_scan", "ios": "https://dc.lft.to/lastmile_qr_scan"}, "is_disabled": 0, "fusion_lat": 0.0, "name": "8abb93fe651d1307de841f5d89bd4ba5", "fusion_lon": 0.0}, {"is_reserved": 0, "type": "electric_scooter", "bike_id": "cecb94fa40dc38923616370d8ba038c7", "lat": 38.905371333333335, "lon": -77.056965, "rental_uris": {"android": "https://dc.lft.to/lastmile_qr_scan", "ios": "https://dc.lft.to/lastmile_qr_scan"}, "is_disabled": 0, "fusion_lat": 0.0, "name": "cecb94fa40dc38923616370d8ba038c7", "fusion_lon": 0.0}, {"is_reserved": 0, "type": "electric_scooter", "bike_id": "f1ceea9a253a643f5b7de548ca9b880c", "lat": 38.927746166666665, "lon": -77.027857, "rental_uris": {"android": "https://dc.lft.to/lastmile_qr_scan", "ios": "https://dc.lft.to/lastmile_qr_scan"}, "is_disabled": 0, "fusion_lat": 0.0, "name": "f1ceea9a253a643f5b7de548ca9b880c", "fusion_lon": 0.0}, {"is_reserved": 0, "type": "electric_scooter", "bike_id": "bf3603eb56cca9f5e06e941a977f5956", "lat": 38.90569983333334, "lon": -77.00573033333333, "rental_uris": {"android": "https://dc.lft.to/lastmile_qr_scan", "ios": "https://dc.lft.to/lastmile_qr_scan"}, "is_disabled": 0, "fusion_lat": 0.0, "name": "bf3603eb56cca9f5e06e941a977f5956", "fusion_lon": 0.0}, {"is_reserved": 0, "type": "electric_scooter", "bike_id": "5f9a1d936e1f05f414ce9ad75998625c", "lat": 38.91636, "lon": -77.04620983333334, "rental_uris": {"android": "https://dc.lft.to/lastmile_qr_scan", "ios": "https://dc.lft.to/lastmile_qr_scan"},