{"data": {"bikes": [{"lat": 38.8973805, "fusion_lat": 0.0, "type": "electric_bike", "name": "2070350e6238b187291b4015a0b3d554", "is_disabled": 0, "bike_id": "2070350e6238b187291b4015a0b3d554", "lon": -76.9425905, "rental_uris": {"android": "https://dc.lft.to/lastmile_qr_scan", "ios": "https://dc.lft.to/lastmile_qr_scan"}, "fusion_lon": 0.0, "is_reserved": 0}, {"lat": 38.90689283333333, "fusion_lat": 0.0, "type": "electric_scooter", "name": "8125bf776cc2941d35db539471d6c077", "is_disabled": 0, "bike_id": "8125bf776cc2941d35db539471d6c077", "lon": -77.023796, "rental_uris": {"android": "https://dc.lft.to/lastmile_qr_scan", "ios": "https://dc.lft.to/lastmile_qr_scan"}, "fusion_lon": 0.0, "is_reserved": 0}, {"lat": 38.9087655, "fusion_lat": 0.0, "type": "electric_scooter", "name": "268389d4aafc312a7e636899b6b48a48", "is_disabled": 0, "bike_id": "268389d4aafc312a7e636899b6b48a48", "lon": -77.02348283333333, "rental_uris": {"android": "https://dc.lft.to/lastmile_qr_scan", "ios": "https://dc.lft.to/lastmile_qr_scan"}, "fusion_lon": 0.0, "is_reserved": 0}, {"lat": 38.902551333333335, "fusion_lat": 0.0, "type": "electric_scooter", "name": "5272d15fdb1e1e7c56adc4739feb4d69", "is_disabled": 0, "bike_id": "5272d15fdb1e1e7c56adc4739feb4d69", "lon": -77.03841733333333, "rental_uris": {"android": "https://dc.lft.to/lastmile_qr_scan", "ios": "https://dc.lft.to/lastmile_qr_scan"}, "fusion_lon": 0.0, "is_reserved": 0}, {"lat": 38.92686066666667, "fusion_lat": 0.0, "type": "electric_scooter", "name": "f66911eb6d5523a49cfc7bc68cc0b9c8", "is_disabled": 0, "bike_id": "f66911eb6d5523a49cfc7bc68cc0b9c8", "lon": -77.01566616666666, "rental_uris": {"android": "https://dc.lft.to/lastmile_qr_scan", "ios": "https://dc.lft.to/lastmile_qr_scan"}, "fusion_lon": 0.0, "is_reserved": 0}, {"lat": 38.93899033333334, "fusion_lat": 0.0, "type": "electric_scooter", "name": "f417fa9e6d4128ec9169885a88cdbd82", "is_disabled": 0, "bike_id": "f417fa9e6d4128ec9169885a88cdbd82", "lon": -77.02487266666667, "rental_uris": {"android": "https://dc.lft.to/lastmile_qr_scan", "ios": "https://dc.lft.to/lastmile_qr_scan"}, "fusion_lon": 0.0, "is_reserved": 0}, {"lat": 38.8662875, "fusion_lat": 0.0, "type": "electric_scooter", "name": "f0727bc2461d17b962b429eac36acd19", "is_disabled": 0, "bike_id": "f0727bc2461d17b962b429eac36acd19", "lon": -76.98717833333333, "rental_uris": {"android": "https://dc.lft.to/lastmile_qr_scan", "ios": "https://dc.lft.to/lastmile_qr_scan"}, "fusion_lon": 0.0, "is_reserved": 0}, {"lat": 38.858083666666666, "fusion_lat": 0.0, "type": "electric_scooter", "name": "3ca6c33da0abe065c7db4cbab39e4b5a", "is_disabled": 0, "bike_id": "3ca6c33da0abe065c7db4cbab39e4b5a", "lon": -76.98654766666667, "rental_uris": {"android": "https://dc.lft.to/lastmile_qr_scan", "ios": "https://dc.lft.to/lastmile_qr_scan"}, "fusion_lon": 0.0, "is_reserved": 0}, {"lat": 38.886108, "fusion_lat": 0.0, "type": "electric_scooter", "name": "ea1097ae09826fedfc23de972163437b", "is_disabled": 0, "bike_id": "ea1097ae09826fedfc23de972163437b", "lon": -77.01250016666667, "rental_uris": {"android": "https://dc.lft.to/lastmile_qr_scan", "ios": "https://dc.lft.to/lastmile_qr_scan"}, "fusion_lon": 0.0, "is_reserved": 0}, {"lat": 38.90818983333333, "fusion_lat": 0.0, "type": "electric_scooter", "name": "b0b04f34480d586a347165207d0abeb7", "is_disabled": 0, "bike_id": "b0b04f34480d586a347165207d0abeb7", "lon": -77.03561516666667, "rental_uris": {"android": "https://dc.lft.to/lastmile_qr_scan", "ios": "https://dc.lft.to/lastmile_qr_scan"}, "fusion_lon": 0.0, "is_reserved": 0}, {"lat": 38.866307166666665, "fusion_lat": 0.0, "type": "electric_scooter", "name": "33bcbfebfb1a6bfe51f4f20aca86855f", "is_disabled": 0, "bike_id": "33bcbfebfb1a6bfe51f4f20aca86855f", "lon": -76.98717416666666, "rental_uris": {"android": "https://dc.lft.to/lastmile_qr_scan", "ios": "https://dc.lft.to/lastmile_qr_scan"}, "fusion_lon": 0.0, "is_reserved": 0}, {"lat": 38.923404833333336, "fusion_lat": 0.0, "type": "electric_scooter", "name": "3091b929b89e6d5213d0a4e41c51d34f", "is_disabled": 0, "bike_id": "3091b929b89e6d5213d0a4e41c51d34f", "lon": -77.021472, "rental_uris": {"android": "https://dc.lft.to/lastmile_qr_scan", "ios": "https://dc.lft.to/lastmile_qr_scan"}, "fusion_lon": 0.0, "is_reserved": 0}, {"lat": 38.9082985, "fusion_lat": 0.0, "type": "electric_scooter", "name": "c46921ef85d7563464caba838bff11f5", "is_disabled": 0, "bike_id": "c46921ef85d7563464caba838bff11f5", "lon": -77.03964516666667, "rental_uris": {"android": "https://dc.lft.to/lastmile_qr_scan", "ios": "https://dc.lft.to/lastmile_qr_scan"}, "fusion_lon": 0.0, "is_reserved": 0}, {"lat": 38.88770183333333, "fusion_lat": 0.0, "type": "electric_scooter", "name": "aeab3f57f3f044927388c2012ab66f28", "is_disabled": 0, "bike_id": "aeab3f57f3f044927388c2012ab66f28", "lon": -77.02629416666667, "rental_uris": {"android": "https://dc.lft.to/lastmile_qr_scan", "ios": "https://dc.lft.to/lastmile_qr_scan"}, "fusion_lon": 0.0, "is_reserved": 0}, {"lat": 38.923614, "fusion_lat": 0.0, "type": "electric_scooter", "name": "84dd71c741c4c01f11bbfe5365e660f5", "is_disabled": 0, "bike_id": "84dd71c741c4c01f11bbfe5365e660f5", "lon": -77.0504595, "rental_uris": {"android": "https://dc.lft.to/lastmile_qr_scan", "ios": "https://dc.lft.to/lastmile_qr_scan"}, "fusion_lon": 0.0, "is_reserved": 0}, {"lat": 38.927262166666665, "fusion_lat": 0.0, "type": "electric_scooter", "name": "5a7bc5638812b0ef1314a3bed2031203", "is_disabled": 0, "bike_id": "5a7bc5638812b0ef1314a3bed2031203", "lon": -77.03239816666667, "rental_uris": {"android": "https://dc.lft.to/lastmile_qr_scan", "ios": "https://dc.lft.to/lastmile_qr_scan"}, "fusion_lon": 0.0, "is_reserved": 0}, {"lat": 38.8851045, "fusion_lat": 0.0, "type": "electric_scooter", "name": "f6e12658a884e3398a31335ab9d4e62f", "is_disabled": 0, "bike_id": "f6e12658a884e3398a31335ab9d4e62f", "lon": -77.004432, "rental_uris": {"android": "https://dc.lft.to/lastmile_qr_scan", "ios": "https://dc.lft.to/lastmile_qr_scan"}, "fusion_lon": 0.0, "is_reserved": 0}, {"lat": 38.866844, "fusion_lat": 0.0, "type": "electric_scooter", "name": "0a1d9256a5dfbcb5b36a5d1c46bae4eb", "is_disabled": 0, "bike_id": "0a1d9256a5dfbcb5b36a5d1c46bae4eb", "lon": -76.98569483333333, "rental_uris": {"android": "https://dc.lft.to/lastmile_qr_scan", "ios": "https://dc.lft.to/lastmile_qr_scan"}, "fusion_lon": 0.0, "is_reserved": 0}, {"lat": 38.91874833333333, "fusion_lat": 0.0, "type": "electric_scooter", "name": "190edc5bb9b74fc18b54a07b737a6cb1", "is_disabled": 0, "bike_id": "190edc5bb9b74fc18b54a07b737a6cb1", "lon": -76.96328883333334, "rental_uris": {"android": "https://dc.lft.to/lastmile_qr_scan", "ios": "https://dc.lft.to/lastmile_qr_scan"}, "fusion_lon": 0.0, "is_reserved": 0}, {"lat": 38.89966483333333, "fusion_lat": 0.0, "type": "electric_bike", "name": "cde590cb21826a2989a6f311be54cdf6", "is_disabled": 0, "bike_id": "cde590cb21826a2989a6f311be54cdf6", "lon": -77.04823916666666, "rental_uris": {"android": "https://dc.lft.to/lastmile_qr_scan", "ios": "https://dc.lft.to/lastmile_qr_scan"}, "fusion_lon": 0.0, "is_reserved": 0}, {"lat": 38.905482, "fusion_lat": 0.0, "type": "electric_scooter", "name": "d1fde83415d96ff146f2923e392e75b3", "is_disabled": 0, "bike_id": "d1fde83415d96ff146f2923e392e75b3", "lon": -77.04447133333333, "rental_uris": {"android": "https://dc.lft.to/lastmile_qr_scan", "ios": "https://dc.lft.to/lastmile_qr_scan"}, "fusion_lon": 0.0, "is_reserved": 0}, {"lat": 38.916906833333336, "fusion_lat": 0.0, "type": "electric_scooter", "name": "d0d27595f731c0c2e8d222caa4606489", "is_disabled": 0, "bike_id": "d0d27595f731c0c2e8d222caa4606489", "lon": -77.027622, "rental_uris": {"android": "https://dc.lft.to/lastmile_qr_scan", "ios": "https://dc.lft.to/lastmile_qr_scan"}, "fusion_lon": 0.0, "is_reserved": 0}, {"lat": 38.93562566666667, "fusion_lat": 0.0, "type": "electric_scooter", "name": "2aaef280e4a6293910a7cbf57421fb0b", "is_disabled": 0, "bike_id": "2aaef280e4a6293910a7cbf57421fb0b", "lon": -77.07461016666667, "rental_uris": {"android": "https://dc.lft.to/lastmile_qr_scan", "ios": "https://dc.lft.to/lastmile_qr_scan"}, "fusion_lon": 0.0, "is_reserved": 0}, {"lat": 38.996322, "fusion_lat": 0.0, "type": "electric_bike", "name": "92f95c2df1004062b0570cef7b7723b9", "is_disabled": 0, "bike_id": "92f95c2df1004062b0570cef7b7723b9", "lon": -77.03984866666667, "rental_uris": {"android": "https://dc.lft.to/lastmile_qr_scan", "ios": "https://dc.lft.to/lastmile_qr_scan"}, "fusion_lon": 0.0, "is_reserved": 0}, {"lat": 38.8811655, "fusion_lat": 0.0, "type": "electric_scooter", "name": "b47d888194c6df1dd7defb0128216bca", "is_disabled": 0, "bike_id": "b47d888194c6df1dd7defb0128216bca", "lon": -76.98706683333333, "rental_uris": {"android": "https://dc.lft.to/lastmile_qr_scan", "ios": "https://dc.lft.to/lastmile_qr_scan"}, "fusion_lon": 0.0, "is_reserved": 0}, {"lat": 38.91654916666667, "fusion_lat": 0.0, "type": "electric_scooter", "name": "05787dc8b35f9eda848773d31019d7a2", "is_disabled": 0, "bike_id": "05787dc8b35f9eda848773d31019d7a2", "lon": -77.02808433333334, "rental_uris": {"android": "https://dc.lft.to/lastmile_qr_scan", "ios": "https://dc.lft.to/lastmile_qr_scan"}, "fusion_lon": 0.0, "is_reserved": 0}, {"lat": 38.901413166666664, "fusion_lat": 0.0, "type": "electric_scooter", "name": "af7a1abaf780b559173752a5932494e4", "is_disabled": 0, "bike_id": "af7a1abaf780b559173752a5932494e4", "lon": -77.0322205, "rental_uris": {"android": "https://dc.lft.to/lastmile_qr_scan", "ios": "https://dc.lft.to/lastmile_qr_scan"}, "fusion_lon": 0.0, "is_reserved": 0}, {"lat": 38.87705316666667, "fusion_lat": 0.0, "type": "electric_scooter", "name": "d0fd4bf1c1e4eb31de36eede6d9a1951", "is_disabled": 0, "bike_id": "d0fd4bf1c1e4eb31de36eede6d9a1951", "lon": -77.00727916666666, "rental_uris": {"android": "https://dc.lft.to/lastmile_qr_scan", "ios": "https://dc.lft.to/lastmile_qr_scan"}, "fusion_lon": 0.0, "is_reserved": 0}, {"lat": 38.938653333333335, "fusion_lat": 0.0, "type": "electric_scooter", "name": "22a060fed4663f857b36aa463f50d172", "is_disabled": 0, "bike_id": "22a060fed4663f857b36aa463f50d172", "lon": -77.026473, "rental_uris": {"android": "https://dc.lft.to/lastmile_qr_scan", "ios": "https://dc.lft.to/lastmile_qr_scan"}, "fusion_lon": 0.0, "is_reserved": 0}, {"lat": 38.915702, "fusion_lat": 0.0, "type": "electric_scooter", "name": "87759bf2e46fdaa2d8027ea2bca819c9", "is_disabled": 0, "bike_id": "87759bf2e46fdaa2d8027ea2bca819c9", "lon": -77.011912, "rental_uris": {"android": "https://dc.lft.to/lastmile_qr_scan", "ios": "https://dc.lft.to/lastmile_qr_scan"}, "fusion_lon": 0.0, "is_reserved": 0}, {"lat": 38.90600283333333, "fusion_lat": 0.0, "type": "electric_scooter", "name": "f70f53fc4f657a0472841f9c0d124d01", "is_disabled": 0, "bike_id": "f70f53fc4f657a0472841f9c0d124d01", "lon": -77.03482966666667, "rental_uris": {"android": "https://dc.lft.to/lastmile_qr_scan", "ios": "https://dc.lft.to/lastmile_qr_scan"}, "fusion_lon": 0.0, "is_reserved": 0}, {"lat": 38.87686883333333, "fusion_lat": 0.0, "type": "electric_scooter", "name": "b0b104d9b3675a30319bc6353a53041d", "is_disabled": 0, "bike_id": "b0b104d9b3675a30319bc6353a53041d", "lon": -77.000625, "rental_uris": {"android": "https://dc.lft.to/lastmile_qr_scan", "ios": "https://dc.lft.to/lastmile_qr_scan"}, "fusion_lon": 0.0, "is_reserved": 0}, {"lat": 38.8970275, "fusion_lat": 0.0, "type": "electric_scooter", "name": "72fccf7e3cf28090bf37397205d48f6a", "is_disabled": 0, "bike_id": "72fccf7e3cf28090bf37397205d48f6a", "lon": -77.0502485, "rental_uris": {"android": "https://dc.lft.to/lastmile_qr_scan", "ios": "https://dc.lft.to/lastmile_qr_scan"}, "fusion_lon": 0.0, "is_reserved": 0}, {"lat": 38.9007945, "fusion_lat": 0.0, "type": "electric_scooter", "name": "fce7689c79acfbb0093c227d27f892dd", "is_disabled": 0, "bike_id": "fce7689c79acfbb0093c227d27f892dd", "lon": -77.04765333333333, "rental_uris": {"android": "https://dc.lft.to/lastmile_qr_scan", "ios": "https://dc.lft.to/lastmile_qr_scan"}, "fusion_lon": 0.0, "is_reserved": 0}, {"lat": 38.91132783333333, "fusion_lat": 0.0, "type": "electric_scooter", "name": "aa6e81a756ecacba2f41501c9f85851c", "is_disabled": 0, "bike_id": "aa6e81a756ecacba2f41501c9f85851c", "lon": -77.04354616666667, "rental_uris": {"android": "https://dc.lft.to/lastmile_qr_scan", "ios": "https://dc.lft.to/lastmile_qr_scan"}, "fusion_lon": 0.0, "is_reserved": 0}, {"lat": 38.892245, "fusion_lat": 0.0, "type": "electric_scooter", "name": "c975b629b97c69528387778b9daf00cd", "is_disabled": 0, "bike_id": "c975b629b97c69528387778b9daf00cd", "lon": -76.97965316666667, "rental_uris": {"android": "https://dc.lft.to/lastmile_qr_scan", "ios": "https://dc.lft.to/lastmile_qr_scan"}, "fusion_lon": 0.0, "is_reserved": 0}, {"lat": 38.89492516666667, "fusion_lat": 0.0, "type": "electric_scooter", "name": "bee6aede47ba3606f3bf6ae70a8a626e", "is_disabled": 0, "bike_id": "bee6aede47ba3606f3bf6ae70a8a626e", "lon": -77.02273066666666, "rental_uris": {"android": "https://dc.lft.to/lastmile_qr_scan", "ios": "https://dc.lft.to/lastmile_qr_scan"}, "fusion_lon": 0.0, "is_reserved": 0}, {"lat": 38.903674333333335, "fusion_lat": 0.0, "type": "electric_scooter", "name": "8bd09d26ef899da07240ed74ae9b56aa", "is_disabled": 0, "bike_id": "8bd09d26ef899da07240ed74ae9b56aa", "lon": -77.03726683333333, "rental_uris": {"android": "https://dc.lft.to/lastmile_qr_scan", "ios": "https://dc.lft.to/lastmile_qr_scan"}, "fusion_lon": 0.0, "is_reserved": 0}, {"lat": 38.923196, "fusion_lat": 0.0, "type": "electric_scooter", "name": "96bf9b5b820f645a93c56e9b67e9bcdc", "is_disabled": 0, "bike_id": "96bf9b5b820f645a93c56e9b67e9bcdc", "lon": -77.02127233333333, "rental_uris": {"android": "https://dc.lft.to/lastmile_qr_scan", "ios": "https://dc.lft.to/lastmile_qr_scan"}, "fusion_lon": 0.0, "is_reserved": 0}, {"lat": 38.899611166666666, "fusion_lat": 0.0, "type": "electric_scooter", "name": "33dc48d8e62a720a6cb471993fee788a", "is_disabled": 0, "bike_id": "33dc48d8e62a720a6cb471993fee788a", "lon": -77.048462, "rental_uris": {"android": "https://dc.lft.to/lastmile_qr_scan", "ios": "https://dc.lft.to/lastmile_qr_scan"}, "fusion_lon": 0.0, "is_reserved": 0}, {"lat": 38.90567033333333, "fusion_lat": 0.0, "type": "electric_scooter", "name": "fe112bd6508b73cb74660c8134e74985", "is_disabled": 0, "bike_id": "fe112bd6508b73cb74660c8134e74985", "lon": -77.00072533333334, "rental_uris": {"android": "https://dc.lft.to/lastmile_qr_scan", "ios": "https://dc.lft.to/lastmile_qr_scan"}, "fusion_lon": 0.0, "is_reserved": 0}, {"lat": 38.907468, "fusion_lat": 0.0, "type": "electric_scooter", "name": "c33edb665eb8c4d968a91dd8d58fbc71", "is_disabled": 0, "bike_id": "c33edb665eb8c4d968a91dd8d58fbc71", "lon": -77.04147416666666, "rental_uris": {"android": "https://dc.lft.to/lastmile_qr_scan", "ios": "https://dc.lft.to/lastmile_qr_scan"}, "fusion_lon": 0.0, "is_reserved": 0}, {"lat": 38.93056266666667, "fusion_lat": 0.0, "type": "electric_scooter", "name": "f9c6d3e92ff1254074289f7cf23ce95f", "is_disabled": 0, "bike_id": "f9c6d3e92ff1254074289f7cf23ce95f", "lon": -77.05844866666666, "rental_uris": {"android": "https://dc.lft.to/lastmile_qr_scan", "ios": "https://dc.lft.to/lastmile_qr_scan"}, "fusion_lon": 0.0, "is_reserved": 0}, {"lat": 38.903797, "fusion_lat": 0.0, "type": "electric_scooter", "name": "ab73765142b902630d9dc175bc8f3553", "is_disabled": 0, "bike_id": "ab73765142b902630d9dc175bc8f3553", "lon": -77.04570816666667, "rental_uris": {"android": "https://dc.lft.to/lastmile_qr_scan", "ios": "https://dc.lft.to/lastmile_qr_scan"}, "fusion_lon": 0.0, "is_reserved": 0}, {"lat": 38.897462166666664, "fusion_lat": 0.0, "type": "electric_bike", "name": "c7c115df54ef535b4eb6bacf441c2f95", "is_disabled": 0, "bike_id": "c7c115df54ef535b4eb6bacf441c2f95", "lon": -77.0553045, "rental_uris": {"android": "https://dc.lft.to/lastmile_qr_scan", "ios": "https://dc.lft.to/lastmile_qr_scan"}, "fusion_lon": 0.0, "is_reserved": 0}, {"lat": 38.887487166666666, "fusion_lat": 0.0, "type": "electric_scooter", "name": "4e9667fe7c17accbd7b40cf8c0616b49", "is_disabled": 0, "bike_id": "4e9667fe7c17accbd7b40cf8c0616b49", "lon": -77.021222, "rental_uris": {"android": "https://dc.lft.to/lastmile_qr_scan", "ios": "https://dc.lft.to/lastmile_qr_scan"}, "fusion_lon": 0.0, "is_reserved": 0}, {"lat": 38.866637833333336, "fusion_lat": 0.0, "type": "electric_scooter", "name": "d4c91c3ac6c047a5f734f9763b09edfe", "is_disabled": 0, "bike_id": "d4c91c3ac6c047a5f734f9763b09edfe", "lon": -76.9888925, "rental_uris": {"android": "https://dc.lft.to/lastmile_qr_scan", "ios": "https://dc.lft.to/lastmile_qr_scan"}, "fusion_lon": 0.0, "is_reserved": 0}, {"lat": 38.9050325, "fusion_lat": 0.0, "type": "electric_scooter", "name": "7c9ded2d2c045561b4a5a291e3b92e2c", "is_disabled": 0, "bike_id": "7c9ded2d2c045561b4a5a291e3b92e2c", "lon": -77.03037383333333, "rental_uris": {"android": "https://dc.lft.to/lastmile_qr_scan", "ios": "https://dc.lft.to/lastmile_qr_scan"}, "fusion_lon": 0.0, "is_reserved": 0}, {"lat": 38.899693166666665, "fusion_lat": 0.0, "type": "electric_scooter", "name": "4f2cfefbf8ab2ceb59ad1654064ebdad", "is_disabled": 0, "bike_id": "4f2cfefbf8ab2ceb59ad1654064ebdad", "lon": -77.0307345, "rental_uris": {"android": "https://dc.lft.to/lastmile_qr_scan", "ios": "https://dc.lft.to/lastmile_qr_scan"}, "fusion_lon": 0.0, "is_reserved": 0}, {"lat": 38.885166166666664, "fusion_lat": 0.0, "type": "electric_scooter", "name": "b8317b41ab142e84a3bb62f28d31df50", "is_disabled": 0, "bike_id": "b8317b41ab142e84a3bb62f28d31df50", "lon": -77.02091516666667, "rental_uris": {"android": "https://dc.lft.to/lastmile_qr_scan", "ios": "https://dc.lft.to/lastmile_qr_scan"}, "fusion_lon": 0.0, "is_reserved": 0}, {"lat": 38.88414366666667, "fusion_lat": 0.0, "type": "electric_bike", "name": "e9fe07f6e160bcace9995d24828d7b9c", "is_disabled": 0, "bike_id": "e9fe07f6e160bcace9995d24828d7b9c", "lon": -76.95412333333333, "rental_uris": {"android": "https://dc.lft.to/lastmile_qr_scan", "ios": "https://dc.lft.to/lastmile_qr_scan"}, "fusion_lon": 0.0, "is_reserved": 0}, {"lat": 38.9084565, "fusion_lat": 0.0, "type": "electric_scooter", "name": "a963281ad2d853a382036033a51252ba", "is_disabled": 0, "bike_id": "a963281ad2d853a382036033a51252ba", "lon": -77.04168066666666, "rental_uris": {"android": "https://dc.lft.to/lastmile_qr_scan", "ios": "https://dc.lft.to/lastmile_qr_scan"}, "fusion_lon": 0.0, "is_reserved": 0}, {"lat": 38.9071785, "fusion_lat": 0.0, "type": "electric_scooter", "name": "4d125eb9eb76e623330bbb88538fccb9", "is_disabled": 0, "bike_id": "4d125eb9eb76e623330bbb88538fccb9", "lon": -77.035083, "rental_uris": {"android": "https://dc.lft.to/lastmile_qr_scan", "ios": "https://dc.lft.to/lastmile_qr_scan"}, "fusion_lon": 0.0, "is_reserved": 0}, {"lat": 38.903392833333335, "fusion_lat": 0.0, "type": "electric_scooter", "name": "af6e6db849a1ba3ae15615ef66236932", "is_disabled": 0, "bike_id": "af6e6db849a1ba3ae15615ef66236932", "lon": -77.06184933333333, "rental_uris": {"android": "https://dc.lft.to/lastmile_qr_scan", "ios": "https://dc.lft.to/lastmile_qr_scan"}, "fusion_lon": 0.0, "is_reserved": 0}, {"lat": 38.89608716666667, "fusion_lat": 0.0, "type": "electric_scooter", "name": "51c880976c753cb90646ccfc34b8b6cf", "is_disabled": 0, "bike_id": "51c880976c753cb90646ccfc34b8b6cf", "lon": -77.00930966666667, "rental_uris": {"android": "https://dc.lft.to/lastmile_qr_scan", "ios": "https://dc.lft.to/lastmile_qr_scan"}, "fusion_lon": 0.0, "is_reserved": 0}, {"lat": 38.91559933333333, "fusion_lat": 0.0, "type": "electric_scooter", "name": "3a74bd86fa96bffc30ce39a5b5e727f7", "is_disabled": 0, "bike_id": "3a74bd86fa96bffc30ce39a5b5e727f7", "lon": -77.0323975, "rental_uris": {"android": "https://dc.lft.to/lastmile_qr_scan", "ios": "https://dc.lft.to/lastmile_qr_scan"}, "fusion_lon": 0.0, "is_reserved": 0}, {"lat": 38.914209666666665, "fusion_lat": 0.0, "type": "electric_scooter", "name": "10f09d12a206b33f75b34f9f204e173a", "is_disabled": 0, "bike_id": "10f09d12a206b33f75b34f9f204e173a", "lon": -77.03172083333334, "rental_uris": {"android": "https://dc.lft.to/lastmile_qr_scan", "ios": "https://dc.lft.to/lastmile_qr_scan"}, "fusion_lon": 0.0, "is_reserved": 0}, {"lat": 38.95738216666667, "fusion_lat": 0.0, "type": "electric_scooter", "name": "b64b42196b81493348b50e47f843c9b3", "is_disabled": 0, "bike_id": "b64b42196b81493348b50e47f843c9b3", "lon": -77.0021695, "rental_uris": {"android": "https://dc.lft.to/lastmile_qr_scan", "ios": "https://dc.lft.to/lastmile_qr_scan"}, "fusion_lon": 0.0, "is_reserved": 0}, {"lat": 38.920512333333335, "fusion_lat": 0.0, "type": "electric_scooter", "name": "8d70ed2e0fd87676e144045bea93ecb0", "is_disabled": 0, "bike_id": "8d70ed2e0fd87676e144045bea93ecb0", "lon": -77.04191066666667, "rental_uris": {"android": "https://dc.lft.to/lastmile_qr_scan", "ios": "https://dc.lft.to/lastmile_qr_scan"}, "fusion_lon": 0.0, "is_reserved": 0}, {"lat": 38.939690166666665, "fusion_lat": 0.0, "type": "electric_scooter", "name": "475fb18326facb87f7bd747c28c98dc1", "is_disabled": 0, "bike_id": "475fb18326facb87f7bd747c28c98dc1", "lon": -77.024807, "rental_uris": {"android": "https://dc.lft.to/lastmile_qr_scan", "ios": "https://dc.lft.to/lastmile_qr_scan"}, "fusion_lon": 0.0, "is_reserved": 0}, {"lat": 38.918523666666665, "fusion_lat": 0.0, "type": "electric_scooter", "name": "041d79fe187df04523bfe8fb5d0d27cd", "is_disabled": 0, "bike_id": "041d79fe187df04523bfe8fb5d0d27cd", "lon": -77.06198616666667, "rental_uris": {"android": "https://dc.lft.to/lastmile_qr_scan", "ios": "https://dc.lft.to/lastmile_qr_scan"}, "fusion_lon": 0.0, "is_reserved": 0}, {"lat": 38.942530166666664, "fusion_lat": 0.0, "type": "electric_scooter", "name": "87352898205a9bd99899fccd55c9279f", "is_disabled": 0, "bike_id": "87352898205a9bd99899fccd55c9279f", "lon": -77.09055816666667, "rental_uris": {"android": "https://dc.lft.to/lastmile_qr_scan", "ios": "https://dc.lft.to/lastmile_qr_scan"}, "fusion_lon": 0.0, "is_reserved": 0}, {"lat": 38.92672316666667, "fusion_lat": 0.0, "type": "electric_scooter", "name": "59de046665ffcb28e8ac890a2bf16bae", "is_disabled": 0, "bike_id": "59de046665ffcb28e8ac890a2bf16bae", "lon": -77.0269035, "rental_uris": {"android": "https://dc.lft.to/lastmile_qr_scan", "ios": "https://dc.lft.to/lastmile_qr_scan"}, "fusion_lon": 0.0, "is_reserved": 0}, {"lat": 38.90425616666667, "fusion_lat": 0.0, "type": "electric_scooter", "name": "dfcaf8985911b18e93005c35b5d2f24c", "is_disabled": 0, "bike_id": "dfcaf8985911b18e93005c35b5d2f24c", "lon": -77.04350616666666, "rental_uris": {"android": "https://dc.lft.to/lastmile_qr_scan", "ios": "https://dc.lft.to/lastmile_qr_scan"}, "fusion_lon": 0.0, "is_reserved": 0}, {"lat": 38.924801333333335, "fusion_lat": 0.0, "type": "electric_scooter", "name": "b694847251f45f27f8158c6608bf79eb", "is_disabled": 0, "bike_id": "b694847251f45f27f8158c6608bf79eb", "lon": -77.02234683333333, "rental_uris": {"android": "https://dc.lft.to/lastmile_qr_scan", "ios": "https://dc.lft.to/lastmile_qr_scan"}, "fusion_lon": 0.0, "is_reserved": 0}, {"lat": 38.866899833333335, "fusion_lat": 0.0, "type": "electric_scooter", "name": "873788ad041dd8db0cdc702efb4fadb1", "is_disabled": 0, "bike_id": "873788ad041dd8db0cdc702efb4fadb1", "lon": -76.98544716666666, "rental_uris": {"android": "https://dc.lft.to/lastmile_qr_scan", "ios": "https://dc.lft.to/lastmile_qr_scan"}, "fusion_lon": 0.0, "is_reserved": 0}, {"lat": 38.904570166666666, "fusion_lat": 0.0, "type": "electric_scooter", "name": "64104f577419c1da4a2dbd8d8629b526", "is_disabled": 0, "bike_id": "64104f577419c1da4a2dbd8d8629b526", "lon": -77.03140033333334, "rental_uris": {"android": "https://dc.lft.to/lastmile_qr_scan", "ios": "https://dc.lft.to/lastmile_qr_scan"}, "fusion_lon": 0.0, "is_reserved": 0}, {"lat": 38.92088916666667, "fusion_lat": 0.0, "type": "electric_scooter", "name": "eca7667028484cc093b10167819dfe9b", "is_disabled": 0, "bike_id": "eca7667028484cc093b10167819dfe9b", "lon": -77.02044483333333, "rental_uris": {"android": "https://dc.lft.to/lastmile_qr_scan", "ios": "https://dc.lft.to/lastmile_qr_scan"}, "fusion_lon": 0.0, "is_reserved": 0}, {"lat": 38.90019866666667, "fusion_lat": 0.0, "type": "electric_scooter", "name": "faad5bbcfc18b1373f16597eb9c2c401", "is_disabled": 0, "bike_id": "faad5bbcfc18b1373f16597eb9c2c401", "lon": -77.00026566666666, "rental_uris": {"android": "https://dc.lft.to/lastmile_qr_scan", "ios": "https://dc.lft.to/lastmile_qr_scan"}, "fusion_lon": 0.0, "is_reserved": 0}, {"lat": 38.89749883333333, "fusion_lat": 0.0, "type": "electric_scooter", "name": "b9f46ae99c0fe005b503646ed51723e9", "is_disabled": 0, "bike_id": "b9f46ae99c0fe005b503646ed51723e9", "lon": -77.00959583333334, "rental_uris": {"android": "https://dc.lft.to/lastmile_qr_scan", "ios": "https://dc.lft.to/lastmile_qr_scan"}, "fusion_lon": 0.0, "is_reserved": 0}, {"lat": 38.87469633333333, "fusion_lat": 0.0, "type": "electric_scooter", "name": "edeab00fe878d79a9801f0c583eade6f", "is_disabled": 0, "bike_id": "edeab00fe878d79a9801f0c583eade6f", "lon": -77.00491233333334, "rental_uris": {"android": "https://dc.lft.to/lastmile_qr_scan", "ios": "https://dc.lft.to/lastmile_qr_scan"}, "fusion_lon": 0.0, "is_reserved": 0}, {"lat": 38.92266466666667, "fusion_lat": 0.0, "type": "electric_scooter", "name": "f63963ec26cfaff4484d03b15ac2e589", "is_disabled": 0, "bike_id": "f63963ec26cfaff4484d03b15ac2e589", "lon": -77.02435783333334, "rental_uris": {"android": "https://dc.lft.to/lastmile_qr_scan", "ios": "https://dc.lft.to/lastmile_qr_scan"}, "fusion_lon": 0.0, "is_reserved": 0}, {"lat": 38.90824216666667, "fusion_lat": 0.0, "type": "electric_scooter", "name": "3a06641954b7853ee852b7df3838d0b4", "is_disabled": 0, "bike_id": "3a06641954b7853ee852b7df3838d0b4", "lon": -77.03917533333333, "rental_uris": {"android": "https://dc.lft.to/lastmile_qr_scan", "ios": "https://dc.lft.to/lastmile_qr_scan"}, "fusion_lon": 0.0, "is_reserved": 0}, {"lat": 38.8758205, "fusion_lat": 0.0, "type": "electric_scooter", "name": "49d11b97dbd0ab4ac3f0d2a1f5399571", "is_disabled": 0, "bike_id": "49d11b97dbd0ab4ac3f0d2a1f5399571", "lon": -77.00588716666667, "rental_uris": {"android": "https://dc.lft.to/lastmile_qr_scan", "ios": "https://dc.lft.to/lastmile_qr_scan"}, "fusion_lon": 0.0, "is_reserved": 0}, {"lat": 38.90154366666667, "fusion_lat": 0.0, "type": "electric_scooter", "name": "f956bd318ad4e1dac2d91a3d3da7d712", "is_disabled": 0, "bike_id": "f956bd318ad4e1dac2d91a3d3da7d712", "lon": -77.03413033333334, "rental_uris": {"android": "https://dc.lft.to/lastmile_qr_scan", "ios": "https://dc.lft.to/lastmile_qr_scan"}, "fusion_lon": 0.0, "is_reserved": 0}, {"lat": 38.99701983333333, "fusion_lat": 0.0, "type": "electric_bike", "name": "6b1c044960d8036f17a067e11ef1a92c", "is_disabled": 0, "bike_id": "6b1c044960d8036f17a067e11ef1a92c", "lon": -77.02539733333333, "rental_uris": {"android": "https://dc.lft.to/lastmile_qr_scan", "ios": "https://dc.lft.to/lastmile_qr_scan"}, "fusion_lon": 0.0, "is_reserved": 0}, {"lat": 38.94292133333333, "fusion_lat": 0.0, "type": "electric_scooter", "name": "ff947e3550290e7c6c59f44611e37549", "is_disabled": 0, "bike_id": "ff947e3550290e7c6c59f44611e37549", "lon": -77.02168166666667, "rental_uris": {"android": "https://dc.lft.to/lastmile_qr_scan", "ios": "https://dc.lft.to/lastmile_qr_scan"}, "fusion_lon": 0.0, "is_reserved": 0}, {"lat": 38.934739666666665, "fusion_lat": 0.0, "type": "electric_scooter", "name": "55b6b07513563afbceb4aa5fc34d795f", "is_disabled": 0, "bike_id": "55b6b07513563afbceb4aa5fc34d795f", "lon": -77.07282483333333, "rental_uris": {"android": "https://dc.lft.to/lastmile_qr_scan", "ios": "https://dc.lft.to/lastmile_qr_scan"}, "fusion_lon": 0.0, "is_reserved": 0}, {"lat": 38.9222615, "fusion_lat": 0.0, "type": "electric_scooter", "name": "f8174035e794e7cd6ab5604c349b1e40", "is_disabled": 0, "bike_id": "f8174035e794e7cd6ab5604c349b1e40", "lon": -77.02123883333333, "rental_uris": {"android": "https://dc.lft.to/lastmile_qr_scan", "ios": "https://dc.lft.to/lastmile_qr_scan"}, "fusion_lon": 0.0, "is_reserved": 0}, {"lat": 38.9094625, "fusion_lat": 0.0, "type": "electric_scooter", "name": "b42864270638ed392f6b8b70fb965dab", "is_disabled": 0, "bike_id": "b42864270638ed392f6b8b70fb965dab", "lon": -77.03182666666666, "rental_uris": {"android": "https://dc.lft.to/lastmile_qr_scan", "ios": "https://dc.lft.to/lastmile_qr_scan"}, "fusion_lon": 0.0, "is_reserved": 0}, {"lat": 38.90241433333333, "fusion_lat": 0.0, "type": "electric_scooter", "name": "355a8f1359fedd50b51bb83171f9c15e", "is_disabled": 0, "bike_id": "355a8f1359fedd50b51bb83171f9c15e", "lon": -77.015046, "rental_uris": {"android": "https://dc.lft.to/lastmile_qr_scan", "ios": "https://dc.lft.to/lastmile_qr_scan"}, "fusion_lon": 0.0, "is_reserved": 0}, {"lat": 38.866304166666666, "fusion_lat": 0.0, "type": "electric_scooter", "name": "021a0bbda22650a2193529e563c89463", "is_disabled": 0, "bike_id": "021a0bbda22650a2193529e563c89463", "lon": -76.98717883333333, "rental_uris": {"android": "https://dc.lft.to/lastmile_qr_scan", "ios": "https://dc.lft.to/lastmile_qr_scan"}, "fusion_lon": 0.0, "is_reserved": 0}, {"lat": 38.89713033333334, "fusion_lat": 0.0, "type": "electric_scooter", "name": "f41dfea3921e6db4f3a7c96b59dcb442", "is_disabled": 0, "bike_id": "f41dfea3921e6db4f3a7c96b59dcb442", "lon": -77.02686616666666, "rental_uris": {"android": "https://dc.lft.to/lastmile_qr_scan", "ios": "https://dc.lft.to/lastmile_qr_scan"}, "fusion_lon": 0.0, "is_reserved": 0}, {"lat": 38.97512283333333, "fusion_lat": 0.0, "type": "electric_scooter", "name": "225bb53ae1e221cddeaafa49103a6992", "is_disabled": 0, "bike_id": "225bb53ae1e221cddeaafa49103a6992", "lon": -77.01648283333333, "rental_uris": {"android": "https://dc.lft.to/lastmile_qr_scan", "ios": "https://dc.lft.to/lastmile_qr_scan"}, "fusion_lon": 0.0, "is_reserved": 0}, {"lat": 38.9068395, "fusion_lat": 0.0, "type": "electric_scooter", "name": "1573e7c8406297bd1b0603add9ad89a8", "is_disabled": 0, "bike_id": "1573e7c8406297bd1b0603add9ad89a8", "lon": -77.0381685, "rental_uris": {"android": "https://dc.lft.to/lastmile_qr_scan", "ios": "https://dc.lft.to/lastmile_qr_scan"}, "fusion_lon": 0.0, "is_reserved": 0}, {"lat": 38.93165066666667, "fusion_lat": 0.0, "type": "electric_scooter", "name": "15ec52e0bca2b05ac94c241dfb8cfdc5", "is_disabled": 0, "bike_id": "15ec52e0bca2b05ac94c241dfb8cfdc5", "lon": -77.04538766666667, "rental_uris": {"android": "https://dc.lft.to/lastmile_qr_scan", "ios": "https://dc.lft.to/lastmile_qr_scan"}, "fusion_lon": 0.0, "is_reserved": 0}, {"lat": 38.896445, "fusion_lat": 0.0, "type": "electric_scooter", "name": "139aae0d2c68bc3e4be7c0b806ab5b0b", "is_disabled": 0, "bike_id": "139aae0d2c68bc3e4be7c0b806ab5b0b", "lon": -77.07076133333334, "rental_uris": {"android": "https://dc.lft.to/lastmile_qr_scan", "ios": "https://dc.lft.to/lastmile_qr_scan"}, "fusion_lon": 0.0, "is_reserved": 0}, {"lat": 38.904263666666665, "fusion_lat": 0.0, "type": "electric_bike", "name": "02fe85e89ab66b19ac71818f6f90e51b", "is_disabled": 0, "bike_id": "02fe85e89ab66b19ac71818f6f90e51b", "lon": -76.97232866666667, "rental_uris": {"android": "https://dc.lft.to/lastmile_qr_scan", "ios": "https://dc.lft.to/lastmile_qr_scan"}, "fusion_lon": 0.0, "is_reserved": 0}, {"lat": 38.913501333333336, "fusion_lat": 0.0, "type": "electric_scooter", "name": "74af47292d05684f11e86e0aa16797a8", "is_disabled": 0, "bike_id": "74af47292d05684f11e86e0aa16797a8", "lon": -77.03192383333334, "rental_uris": {"android": "https://dc.lft.to/lastmile_qr_scan", "ios": "https://dc.lft.to/lastmile_qr_scan"}, "fusion_lon": 0.0, "is_reserved": 0}, {"lat": 38.930468166666664, "fusion_lat": 0.0, "type": "electric_bike", "name": "1b6a13c1420d2be2a87e228a3ee4c0c6", "is_disabled": 0, "bike_id": "1b6a13c1420d2be2a87e228a3ee4c0c6", "lon": -76.95835366666667, "rental_uris": {"android": "https://dc.lft.to/lastmile_qr_scan", "ios": "https://dc.lft.to/lastmile_qr_scan"}, "fusion_lon": 0.0, "is_reserved": 0}, {"lat": 38.90361033333333, "fusion_lat": 0.0, "type": "electric_scooter", "name": "e06a267b330ca689cd88884b0b1f8188", "is_disabled": 0, "bike_id": "e06a267b330ca689cd88884b0b1f8188", "lon": -77.033202, "rental_uris": {"android": "https://dc.lft.to/lastmile_qr_scan", "ios": "https://dc.lft.to/lastmile_qr_scan"}, "fusion_lon": 0.0, "is_reserved": 0}, {"lat": 38.981066166666665, "fusion_lat": 0.0, "type": "electric_scooter", "name": "570ea4753d1ad735c9c2d0752413cdb4", "is_disabled": 0, "bike_id": "570ea4753d1ad735c9c2d0752413cdb4", "lon": -77.0223975, "rental_uris": {"android": "https://dc.lft.to/lastmile_qr_scan", "ios": "https://dc.lft.to/lastmile_qr_scan"}, "fusion_lon": 0.0, "is_reserved": 0}, {"lat": 38.8717945, "fusion_lat": 0.0, "type": "electric_scooter", "name": "8621006fd85a4d9b645b35f3fd0a3d72", "is_disabled": 0, "bike_id": "8621006fd85a4d9b645b35f3fd0a3d72", "lon": -77.00608816666667, "rental_uris": {"android": "https://dc.lft.to/lastmile_qr_scan", "ios": "https://dc.lft.to/lastmile_qr_scan"}, "fusion_lon": 0.0, "is_reserved": 0}, {"lat": 38.90087416666667, "fusion_lat": 0.0, "type": "electric_scooter", "name": "b0690943f9f829266b2af5d2236bb2e2", "is_disabled": 0, "bike_id": "b0690943f9f829266b2af5d2236bb2e2", "lon": -77.02442066666667, "rental_uris": {"android": "https://dc.lft.to/lastmile_qr_scan", "ios": "https://dc.lft.to/lastmile_qr_scan"}, "fusion_lon": 0.0, "is_reserved": 0}, {"lat": 39.03307216666666, "fusion_lat": 0.0, "type": "electric_bike", "name": "099ffaf7aa41aae0bbeebb328bbeeda6", "is_disabled": 0, "bike_id": "099ffaf7aa41aae0bbeebb328bbeeda6", "lon": -77.04524983333333, "rental_uris": {"android": "https://dc.lft.to/lastmile_qr_scan", "ios": "https://dc.lft.to/lastmile_qr_scan"}, "fusion_lon": 0.0, "is_reserved": 0}, {"lat": 38.857930833333334, "fusion_lat": 0.0, "type": "electric_bike", "name": "96ac4e537c4c5ac434a505101dc58279", "is_disabled": 0, "bike_id": "96ac4e537c4c5ac434a505101dc58279", "lon": -77.099638, "rental_uris": {"android": "https://dc.lft.to/lastmile_qr_scan", "ios": "https://dc.lft.to/lastmile_qr_scan"}, "fusion_lon": 0.0, "is_reserved": 0}, {"lat": 38.923798166666664, "fusion_lat": 0.0, "type": "electric_scooter", "name": "083639e295693f11156079bcd80ae0d8", "is_disabled": 0, "bike_id": "083639e295693f11156079bcd80ae0d8", "lon": -77.05151483333333, "rental_uris": {"android": "https://dc.lft.to/lastmile_qr_scan", "ios": "https://dc.lft.to/lastmile_qr_scan"}, "fusion_lon": 0.0, "is_reserved": 0}, {"lat": 38.89373766666667, "fusion_lat": 0.0, "type": "electric_scooter", "name": "c947dbb39c9cfd54a3d01770bb19ec90", "is_disabled": 0, "bike_id": "c947dbb39c9cfd54a3d01770bb19ec90", "lon": -77.02830383333334, "rental_uris": {"android": "https://dc.lft.to/lastmile_qr_scan", "ios": "https://dc.lft.to/lastmile_qr_scan"}, "fusion_lon": 0.0, "is_reserved": 0}, {"lat": 38.87785866666667, "fusion_lat": 0.0, "type": "electric_scooter", "name": "b935b217700d4cad777d9af4ba0a1279", "is_disabled": 0, "bike_id": "b935b217700d4cad777d9af4ba0a1279", "lon": -76.99405766666666, "rental_uris": {"android": "https://dc.lft.to/lastmile_qr_scan", "ios": "https://dc.lft.to/lastmile_qr_scan"}, "fusion_lon": 0.0, "is_reserved": 0}, {"lat": 38.926642333333334, "fusion_lat": 0.0, "type": "electric_scooter", "name": "d4607d764d17337a4a26c9d1b2d1bf8f", "is_disabled": 0, "bike_id": "d4607d764d17337a4a26c9d1b2d1bf8f", "lon": -77.01465083333333, "rental_uris": {"android": "https://dc.lft.to/lastmile_qr_scan", "ios": "https://dc.lft.to/lastmile_qr_scan"}, "fusion_lon": 0.0, "is_reserved": 0}, {"lat": 38.9272545, "fusion_lat": 0.0, "type": "electric_scooter", "name": "71d0b365af827adb01674a5a71ac5e05", "is_disabled": 0, "bike_id": "71d0b365af827adb01674a5a71ac5e05", "lon": -77.032427, "rental_uris": {"android": "https://dc.lft.to/lastmile_qr_scan", "ios": "https://dc.lft.to/lastmile_qr_scan"}, "fusion_lon": 0.0, "is_reserved": 0}, {"lat": 38.896234166666666, "fusion_lat": 0.0, "type": "electric_scooter", "name": "13dc241bca9bc3bf90e37ed073494457", "is_disabled": 0, "bike_id": "13dc241bca9bc3bf90e37ed073494457", "lon": -77.04800766666666, "rental_uris": {"android": "https://dc.lft.to/lastmile_qr_scan", "ios": "https://dc.lft.to/lastmile_qr_scan"}, "fusion_lon": 0.0, "is_reserved": 0}, {"lat": 38.933514833333334, "fusion_lat": 0.0, "type": "electric_scooter", "name": "26af98e1a91bca8e323fa60f933af195", "is_disabled": 0, "bike_id": "26af98e1a91bca8e323fa60f933af195", "lon": -77.03263083333333, "rental_uris": {"android": "https://dc.lft.to/lastmile_qr_scan", "ios": "https://dc.lft.to/lastmile_qr_scan"}, "fusion_lon": 0.0, "is_reserved": 0}, {"lat": 38.93390483333334, "fusion_lat": 0.0, "type": "electric_scooter", "name": "fd746a67678a6e80c9f64ea047bda7ca", "is_disabled": 0, "bike_id": "fd746a67678a6e80c9f64ea047bda7ca", "lon": -77.0574255, "rental_uris": {"android": "https://dc.lft.to/lastmile_qr_scan", "ios": "https://dc.lft.to/lastmile_qr_scan"}, "fusion_lon": 0.0, "is_reserved": 0}, {"lat": 38.9253935, "fusion_lat": 0.0, "type": "electric_scooter", "name": "7662b98370f1d8276d24c7fc867ba928", "is_disabled": 0, "bike_id": "7662b98370f1d8276d24c7fc867ba928", "lon": -77.033496, "rental_uris": {"android": "https://dc.lft.to/lastmile_qr_scan", "ios": "https://dc.lft.to/lastmile_qr_scan"}, "fusion_lon": 0.0, "is_reserved": 0}, {"lat": 38.900532, "fusion_lat": 0.0, "type": "electric_scooter", "name": "e56e6741d72013bc5d9fa5dca4969f83", "is_disabled": 0, "bike_id": "e56e6741d72013bc5d9fa5dca4969f83", "lon": -77.04330233333333, "rental_uris": {"android": "https://dc.lft.to/lastmile_qr_scan", "ios": "https://dc.lft.to/lastmile_qr_scan"}, "fusion_lon": 0.0, "is_reserved": 0}, {"lat": 38.899155, "fusion_lat": 0.0, "type": "electric_scooter", "name": "18096f354f225474a0f6c7008bc3f521", "is_disabled": 0, "bike_id": "18096f354f225474a0f6c7008bc3f521", "lon": -77.02810233333334, "rental_uris": {"android": "https://dc.lft.to/lastmile_qr_scan", "ios": "https://dc.lft.to/lastmile_qr_scan"}, "fusion_lon": 0.0, "is_reserved": 0}, {"lat": 38.905754333333334, "fusion_lat": 0.0, "type": "electric_scooter", "name": "843e4e462c7bd76bd41f2f3f3310c31a", "is_disabled": 0, "bike_id": "843e4e462c7bd76bd41f2f3f3310c31a", "lon": -77.0435385, "rental_uris": {"android": "https://dc.lft.to/lastmile_qr_scan", "ios": "https://dc.lft.to/lastmile_qr_scan"}, "fusion_lon": 0.0, "is_reserved": 0}, {"lat": 38.931588833333336, "fusion_lat": 0.0, "type": "electric_scooter", "name": "dca5f173def42ebf517ef7df5a5999b4", "is_disabled": 0, "bike_id": "dca5f173def42ebf517ef7df5a5999b4", "lon": -77.03609483333334, "rental_uris": {"android": "https://dc.lft.to/lastmile_qr_scan", "ios": "https://dc.lft.to/lastmile_qr_scan"}, "fusion_lon": 0.0, "is_reserved": 0}, {"lat": 38.911043, "fusion_lat": 0.0, "type": "electric_scooter", "name": "844574ae649c440ddfa27eccca134e57", "is_disabled": 0, "bike_id": "844574ae649c440ddfa27eccca134e57", "lon": -77.03198733333333, "rental_uris": {"android": "https://dc.lft.to/lastmile_qr_scan", "ios": "https://dc.lft.to/lastmile_qr_scan"}, "fusion_lon": 0.0, "is_reserved": 0}, {"lat": 38.8929295, "fusion_lat": 0.0, "type": "electric_bike", "name": "f8b8aa7018a85edb633a02731cea1616", "is_disabled": 0, "bike_id": "f8b8aa7018a85edb633a02731cea1616", "lon": -76.97618033333333, "rental_uris": {"android": "https://dc.lft.to/lastmile_qr_scan", "ios": "https://dc.lft.to/lastmile_qr_scan"}, "fusion_lon": 0.0, "is_reserved": 0}, {"lat": 38.86006366666667, "fusion_lat": 0.0, "type": "electric_scooter", "name": "45c16c136cecd09329d951a68caf8e14", "is_disabled": 0, "bike_id": "45c16c136cecd09329d951a68caf8e14", "lon": -76.985206, "rental_uris": {"android": "https://dc.lft.to/lastmile_qr_scan", "ios": "https://dc.lft.to/lastmile_qr_scan"}, "fusion_lon": 0.0, "is_reserved": 0}, {"lat": 38.903346166666665, "fusion_lat": 0.0, "type": "electric_scooter", "name": "888be2799c3ab3126a592f28d35c1bce", "is_disabled": 0, "bike_id": "888be2799c3ab3126a592f28d35c1bce", "lon": -77.024102, "rental_uris": {"android": "https://dc.lft.to/lastmile_qr_scan", "ios": "https://dc.lft.to/lastmile_qr_scan"}, "fusion_lon": 0.0, "is_reserved": 0}, {"lat": 38.88734816666667, "fusion_lat": 0.0, "type": "electric_scooter", "name": "f84e87c77ac3de3dda846c81c1f80f93", "is_disabled": 0, "bike_id": "f84e87c77ac3de3dda846c81c1f80f93", "lon": -77.02833133333333, "rental_uris": {"android": "https://dc.lft.to/lastmile_qr_scan", "ios": "https://dc.lft.to/lastmile_qr_scan"}, "fusion_lon": 0.0, "is_reserved": 0}, {"lat": 38.92187933333334, "fusion_lat": 0.0, "type": "electric_scooter", "name": "864c404496a8ccdb25a537c0b83272ec", "is_disabled": 0, "bike_id": "864c404496a8ccdb25a537c0b83272ec", "lon": -77.03922233333333, "rental_uris": {"android": "https://dc.lft.to/lastmile_qr_scan", "ios": "https://dc.lft.to/lastmile_qr_scan"}, "fusion_lon": 0.0, "is_reserved": 0}, {"lat": 38.923475, "fusion_lat": 0.0, "type": "electric_scooter", "name": "7d13ce1f15d4cb1c052f8036b19711a1", "is_disabled": 0, "bike_id": "7d13ce1f15d4cb1c052f8036b19711a1", "lon": -77.01908233333333, "rental_uris": {"android": "https://dc.lft.to/lastmile_qr_scan", "ios": "https://dc.lft.to/lastmile_qr_scan"}, "fusion_lon": 0.0, "is_reserved": 0}, {"lat": 38.897295166666666, "fusion_lat": 0.0, "type": "electric_scooter", "name": "f56e5416bc36574d1969c2767124f5e5", "is_disabled": 0, "bike_id": "f56e5416bc36574d1969c2767124f5e5", "lon": -77.02964183333333, "rental_uris": {"android": "https://dc.lft.to/lastmile_qr_scan", "ios": "https://dc.lft.to/lastmile_qr_scan"}, "fusion_lon": 0.0, "is_reserved": 0}, {"lat": 38.89810166666667, "fusion_lat": 0.0, "type": "electric_bike", "name": "005a2ad711b98b7bc484c40c996ab6c2", "is_disabled": 0, "bike_id": "005a2ad711b98b7bc484c40c996ab6c2", "lon": -77.041877, "rental_uris": {"android": "https://dc.lft.to/lastmile_qr_scan", "ios": "https://dc.lft.to/lastmile_qr_scan"}, "fusion_lon": 0.0, "is_reserved": 0}, {"lat": 38.89543666666667, "fusion_lat": 0.0, "type": "electric_scooter", "name": "cc65f5b503d75447955c31ebdb47f610", "is_disabled": 0, "bike_id": "cc65f5b503d75447955c31ebdb47f610", "lon": -77.02937216666666, "rental_uris": {"android": "https://dc.lft.to/lastmile_qr_scan", "ios": "https://dc.lft.to/lastmile_qr_scan"}, "fusion_lon": 0.0, "is_reserved": 0}, {"lat": 38.956369333333335, "fusion_lat": 0.0, "type": "electric_bike", "name": "daf2b7db15a68ffd2bb2aafaa34c3ee4", "is_disabled": 0, "bike_id": "daf2b7db15a68ffd2bb2aafaa34c3ee4", "lon": -76.938742, "rental_uris": {"android": "https://dc.lft.to/lastmile_qr_scan", "ios": "https://dc.lft.to/lastmile_qr_scan"}, "fusion_lon": 0.0, "is_reserved": 0}, {"lat": 38.89797266666667, "fusion_lat": 0.0, "type": "electric_scooter", "name": "73b06c5ead4e1e892a57a80eb574d118", "is_disabled": 0, "bike_id": "73b06c5ead4e1e892a57a80eb574d118", "lon": -77.00660316666666, "rental_uris": {"android": "https://dc.lft.to/lastmile_qr_scan", "ios": "https://dc.lft.to/lastmile_qr_scan"}, "fusion_lon": 0.0, "is_reserved": 0}, {"lat": 38.91523133333333, "fusion_lat": 0.0, "type": "electric_scooter", "name": "7f009f507655da795192919efe82fb00", "is_disabled": 0, "bike_id": "7f009f507655da795192919efe82fb00", "lon": -77.02707716666667, "rental_uris": {"android": "https://dc.lft.to/lastmile_qr_scan", "ios": "https://dc.lft.to/lastmile_qr_scan"}, "fusion_lon": 0.0, "is_reserved": 0}, {"lat": 38.89942966666667, "fusion_lat": 0.0, "type": "electric_scooter", "name": "bb7cdb8c915925de0ccddf4129116d4b", "is_disabled": 0, "bike_id": "bb7cdb8c915925de0ccddf4129116d4b", "lon": -76.99727733333333, "rental_uris": {"android": "https://dc.lft.to/lastmile_qr_scan", "ios": "https://dc.lft.to/lastmile_qr_scan"}, "fusion_lon": 0.0, "is_reserved": 0}, {"lat": 38.8983075, "fusion_lat": 0.0, "type": "electric_scooter", "name": "e6ac1f090bef6bdce7567e3c5793cdce", "is_disabled": 0, "bike_id": "e6ac1f090bef6bdce7567e3c5793cdce", "lon": -76.946279, "rental_uris": {"android": "https://dc.lft.to/lastmile_qr_scan", "ios": "https://dc.lft.to/lastmile_qr_scan"}, "fusion_lon": 0.0, "is_reserved": 0}, {"lat": 38.82178616666667, "fusion_lat": 0.0, "type": "electric_bike", "name": "445a0855fae678ea684aafa0407de28c", "is_disabled": 0, "bike_id": "445a0855fae678ea684aafa0407de28c", "lon": -76.995133, "rental_uris": {"android": "https://dc.lft.to/lastmile_qr_scan", "ios": "https://dc.lft.to/lastmile_qr_scan"}, "fusion_lon": 0.0, "is_reserved": 0}, {"lat": 38.90424466666666, "fusion_lat": 0.0, "type": "electric_scooter", "name": "52640906b6d8a9034113d91a70f2fa7a", "is_disabled": 0, "bike_id": "52640906b6d8a9034113d91a70f2fa7a", "lon": -77.02637516666667, "rental_uris": {"android": "https://dc.lft.to/lastmile_qr_scan", "ios": "https://dc.lft.to/lastmile_qr_scan"}, "fusion_lon": 0.0, "is_reserved": 0}, {"lat": 38.877233, "fusion_lat": 0.0, "type": "electric_scooter", "name": "ac7b20eae6ba84e78d0a2009659d4679", "is_disabled": 0, "bike_id": "ac7b20eae6ba84e78d0a2009659d4679", "lon": -77.01763833333334, "rental_uris": {"android": "https://dc.lft.to/lastmile_qr_scan", "ios": "https://dc.lft.to/lastmile_qr_scan"}, "fusion_lon": 0.0, "is_reserved": 0}, {"lat": 38.9157145, "fusion_lat": 0.0, "type": "electric_scooter", "name": "ba22b53421757faeedd93944e2e759db", "is_disabled": 0, "bike_id": "ba22b53421757faeedd93944e2e759db", "lon": -77.01998033333334, "rental_uris": {"android": "https://dc.lft.to/lastmile_qr_scan", "ios": "https://dc.lft.to/lastmile_qr_scan"}, "fusion_lon": 0.0, "is_reserved": 0}, {"lat": 38.94292566666667, "fusion_lat": 0.0, "type": "electric_scooter", "name": "de1d6d69573ae1c90bd261f195146c3e", "is_disabled": 0, "bike_id": "de1d6d69573ae1c90bd261f195146c3e", "lon": -77.021685, "rental_uris": {"android": "https://dc.lft.to/lastmile_qr_scan", "ios": "https://dc.lft.to/lastmile_qr_scan"}, "fusion_lon": 0.0, "is_reserved": 0}, {"lat": 38.909058333333334, "fusion_lat": 0.0, "type": "electric_scooter", "name": "9452e29cbc9bed0413b974c074566758", "is_disabled": 0, "bike_id": "9452e29cbc9bed0413b974c074566758", "lon": -76.9976845, "rental_uris": {"android": "https://dc.lft.to/lastmile_qr_scan", "ios": "https://dc.lft.to/lastmile_qr_scan"}, "fusion_lon": 0.0, "is_reserved": 0}, {"lat": 38.92130233333334, "fusion_lat": 0.0, "type": "electric_scooter", "name": "4e39118494107085ebb18f6d1e5b4866", "is_disabled": 0, "bike_id": "4e39118494107085ebb18f6d1e5b4866", "lon": -77.04362366666666, "rental_uris": {"android": "https://dc.lft.to/lastmile_qr_scan", "ios": "https://dc.lft.to/lastmile_qr_scan"}, "fusion_lon": 0.0, "is_reserved": 0}, {"lat": 38.8991295, "fusion_lat": 0.0, "type": "electric_bike", "name": "d31f742cc23cac33a2771f40785fc2ed", "is_disabled": 0, "bike_id": "d31f742cc23cac33a2771f40785fc2ed", "lon": -77.0447145, "rental_uris": {"android": "https://dc.lft.to/lastmile_qr_scan", "ios": "https://dc.lft.to/lastmile_qr_scan"}, "fusion_lon": 0.0, "is_reserved": 0}, {"lat": 38.923618, "fusion_lat": 0.0, "type": "electric_scooter", "name": "ca85cf696b76cdbca6d4fb1272bfc7d9", "is_disabled": 0, "bike_id": "ca85cf696b76cdbca6d4fb1272bfc7d9", "lon": -77.0522665, "rental_uris": {"android": "https://dc.lft.to/lastmile_qr_scan", "ios": "https://dc.lft.to/lastmile_qr_scan"}, "fusion_lon": 0.0, "is_reserved": 0}, {"lat": 38.89960716666667, "fusion_lat": 0.0, "type": "electric_scooter", "name": "57470371e6234fb4fadd440c0a795f53", "is_disabled": 0, "bike_id": "57470371e6234fb4fadd440c0a795f53", "lon": -77.0448205, "rental_uris": {"android": "https://dc.lft.to/lastmile_qr_scan", "ios": "https://dc.lft.to/lastmile_qr_scan"}, "fusion_lon": 0.0, "is_reserved": 0}, {"lat": 38.900232833333334, "fusion_lat": 0.0, "type": "electric_scooter", "name": "3b05857cf29b694db63ecd5b4c9a9d12", "is_disabled": 0, "bike_id": "3b05857cf29b694db63ecd5b4c9a9d12", "lon": -77.03300633333333, "rental_uris": {"android": "https://dc.lft.to/lastmile_qr_scan", "ios": "https://dc.lft.to/lastmile_qr_scan"}, "fusion_lon": 0.0, "is_reserved": 0}, {"lat": 38.88424783333333, "fusion_lat": 0.0, "type": "electric_scooter", "name": "0bd1e75a7bcd72ef3411e46c1d35469b", "is_disabled": 0, "bike_id": "0bd1e75a7bcd72ef3411e46c1d35469b", "lon": -76.99697633333334, "rental_uris": {"android": "https://dc.lft.to/lastmile_qr_scan", "ios": "https://dc.lft.to/lastmile_qr_scan"}, "fusion_lon": 0.0, "is_reserved": 0}, {"lat": 38.9261165, "fusion_lat": 0.0, "type": "electric_scooter", "name": "1928067e49959ac962f3b031bb634c51", "is_disabled": 0, "bike_id": "1928067e49959ac962f3b031bb634c51", "lon": -77.021591, "rental_uris": {"android": "https://dc.lft.to/lastmile_qr_scan", "ios": "https://dc.lft.to/lastmile_qr_scan"}, "fusion_lon": 0.0, "is_reserved": 0}, {"lat": 38.86689616666666, "fusion_lat": 0.0, "type": "electric_scooter", "name": "3709ee51ee0ca79b6b18e71ba02ad09a", "is_disabled": 0, "bike_id": "3709ee51ee0ca79b6b18e71ba02ad09a", "lon": -76.98544083333333, "rental_uris": {"android": "https://dc.lft.to/lastmile_qr_scan", "ios": "https://dc.lft.to/lastmile_qr_scan"}, "fusion_lon": 0.0, "is_reserved": 0}, {"lat": 38.941660666666664, "fusion_lat": 0.0, "type": "electric_scooter", "name": "fae4411ef623e0315bb95e47687271a9", "is_disabled": 0, "bike_id": "fae4411ef623e0315bb95e47687271a9", "lon": -77.02556933333334, "rental_uris": {"android": "https://dc.lft.to/lastmile_qr_scan", "ios": "https://dc.lft.to/lastmile_qr_scan"}, "fusion_lon": 0.0, "is_reserved": 0}, {"lat": 38.917818833333335, "fusion_lat": 0.0, "type": "electric_scooter", "name": "ef8fa2c7c34cc158ad8221d13d195ba8", "is_disabled": 0, "bike_id": "ef8fa2c7c34cc158ad8221d13d195ba8", "lon": -77.031893, "rental_uris": {"android": "https://dc.lft.to/lastmile_qr_scan", "ios": "https://dc.lft.to/lastmile_qr_scan"}, "fusion_lon": 0.0, "is_reserved": 0}, {"lat": 38.88079316666666, "fusion_lat": 0.0, "type": "electric_scooter", "name": "b844ddd374fd1cc7b42acac3034016a0", "is_disabled": 0, "bike_id": "b844ddd374fd1cc7b42acac3034016a0", "lon": -77.02572816666667, "rental_uris": {"android": "https://dc.lft.to/lastmile_qr_scan", "ios": "https://dc.lft.to/lastmile_qr_scan"}, "fusion_lon": 0.0, "is_reserved": 0}, {"lat": 38.846423, "fusion_lat": 0.0, "type": "electric_scooter", "name": "61ed4c5fca47878d4f74342864c84558", "is_disabled": 0, "bike_id": "61ed4c5fca47878d4f74342864c84558", "lon": -76.99127966666667, "rental_uris": {"android": "https://dc.lft.to/lastmile_qr_scan", "ios": "https://dc.lft.to/lastmile_qr_scan"}, "fusion_lon": 0.0, "is_reserved": 0}, {"lat": 38.920469, "fusion_lat": 0.0, "type": "electric_scooter", "name": "c4e03fc2d4675220ad58c3d2caa22a88", "is_disabled": 0, "bike_id": "c4e03fc2d4675220ad58c3d2caa22a88", "lon": -77.01663666666667, "rental_uris": {"android": "https://dc.lft.to/lastmile_qr_scan", "ios": "https://dc.lft.to/lastmile_qr_scan"}, "fusion_lon": 0.0, "is_reserved": 0}, {"lat": 38.90963266666667, "fusion_lat": 0.0, "type": "electric_scooter", "name": "2d38b189a904379e1e56694100137cbd", "is_disabled": 0, "bike_id": "2d38b189a904379e1e56694100137cbd", "lon": -77.04757133333334, "rental_uris": {"android": "https://dc.lft.to/lastmile_qr_scan", "ios": "https://dc.lft.to/lastmile_qr_scan"}, "fusion_lon": 0.0, "is_reserved": 0}, {"lat": 38.85250833333333, "fusion_lat": 0.0, "type": "electric_bike", "name": "f1308f15598d2dc60538c975ec8ab0c7", "is_disabled": 0, "bike_id": "f1308f15598d2dc60538c975ec8ab0c7", "lon": -77.10785083333333, "rental_uris": {"android": "https://dc.lft.to/lastmile_qr_scan", "ios": "https://dc.lft.to/lastmile_qr_scan"}, "fusion_lon": 0.0, "is_reserved": 0}, {"lat": 38.90278333333333, "fusion_lat": 0.0, "type": "electric_scooter", "name": "e02a93a50a97ea97c465d708dc5087a2", "is_disabled": 0, "bike_id": "e02a93a50a97ea97c465d708dc5087a2", "lon": -77.03826583333333, "rental_uris": {"android": "https://dc.lft.to/lastmile_qr_scan", "ios": "https://dc.lft.to/lastmile_qr_scan"}, "fusion_lon": 0.0, "is_reserved": 0}, {"lat": 38.905993, "fusion_lat": 0.0, "type": "electric_scooter", "name": "eba1dc0ac73069109b53b0fb181dd44f", "is_disabled": 0, "bike_id": "eba1dc0ac73069109b53b0fb181dd44f", "lon": -77.04040933333333, "rental_uris": {"android": "https://dc.lft.to/lastmile_qr_scan", "ios": "https://dc.lft.to/lastmile_qr_scan"}, "fusion_lon": 0.0, "is_reserved": 0}, {"lat": 38.909794166666664, "fusion_lat": 0.0, "type": "electric_scooter", "name": "a77b8ee8ac479298504e247f5663d36c", "is_disabled": 0, "bike_id": "a77b8ee8ac479298504e247f5663d36c", "lon": -77.04871966666667, "rental_uris": {"android": "https://dc.lft.to/lastmile_qr_scan", "ios": "https://dc.lft.to/lastmile_qr_scan"}, "fusion_lon": 0.0, "is_reserved": 0}, {"lat": 38.911449166666664, "fusion_lat": 0.0, "type": "electric_scooter", "name": "1c9c673fc66bc2b7996e4aad85d78305", "is_disabled": 0, "bike_id": "1c9c673fc66bc2b7996e4aad85d78305", "lon": -77.04423583333333, "rental_uris": {"android": "https://dc.lft.to/lastmile_qr_scan", "ios": "https://dc.lft.to/lastmile_qr_scan"}, "fusion_lon": 0.0, "is_reserved": 0}, {"lat": 38.92859583333333, "fusion_lat": 0.0, "type": "electric_scooter", "name": "0ba26b5b1df8b16c80bc8748d2d6d7a0", "is_disabled": 0, "bike_id": "0ba26b5b1df8b16c80bc8748d2d6d7a0", "lon": -77.01401966666667, "rental_uris": {"android": "https://dc.lft.to/lastmile_qr_scan", "ios": "https://dc.lft.to/lastmile_qr_scan"}, "fusion_lon": 0.0, "is_reserved": 0}, {"lat": 38.956353, "fusion_lat": 0.0, "type": "electric_scooter", "name": "676930e005997752732bef093865c363", "is_disabled": 0, "bike_id": "676930e005997752732bef093865c363", "lon": -77.03301983333333, "rental_uris": {"android": "https://dc.lft.to/lastmile_qr_scan", "ios": "https://dc.lft.to/lastmile_qr_scan"}, "fusion_lon": 0.0, "is_reserved": 0}, {"lat": 38.8983335, "fusion_lat": 0.0, "type": "electric_scooter", "name": "c40bd83f783535667d34f906f2875d8c", "is_disabled": 0, "bike_id": "c40bd83f783535667d34f906f2875d8c", "lon": -76.93180333333333, "rental_uris": {"android": "https://dc.lft.to/lastmile_qr_scan", "ios": "https://dc.lft.to/lastmile_qr_scan"}, "fusion_lon": 0.0, "is_reserved": 0}, {"lat": 38.920430833333334, "fusion_lat": 0.0, "type": "electric_scooter", "name": "7dfd6e2e6c56b30fc4ef403f2e539335", "is_disabled": 0, "bike_id": "7dfd6e2e6c56b30fc4ef403f2e539335", "lon": -77.01675583333333, "rental_uris": {"android": "https://dc.lft.to/lastmile_qr_scan", "ios": "https://dc.lft.to/lastmile_qr_scan"}, "fusion_lon": 0.0, "is_reserved": 0}, {"lat": 38.89483516666667, "fusion_lat": 0.0, "type": "electric_scooter", "name": "8a009582c5302109dd0b64909c836b75", "is_disabled": 0, "bike_id": "8a009582c5302109dd0b64909c836b75", "lon": -77.002615, "rental_uris": {"android": "https://dc.lft.to/lastmile_qr_scan", "ios": "https://dc.lft.to/lastmile_qr_scan"}, "fusion_lon": 0.0, "is_reserved": 0}, {"lat": 38.847166333333334, "fusion_lat": 0.0, "type": "electric_scooter", "name": "fcdc03cc6c3c9b9480447d1aa797337e", "is_disabled": 0, "bike_id": "fcdc03cc6c3c9b9480447d1aa797337e", "lon": -76.96815916666667, "rental_uris": {"android": "https://dc.lft.to/lastmile_qr_scan", "ios": "https://dc.lft.to/lastmile_qr_scan"}, "fusion_lon": 0.0, "is_reserved": 0}, {"lat": 38.8934405, "fusion_lat": 0.0, "type": "electric_scooter", "name": "8b2a9ca90e8fe260752adb3840eaca4a", "is_disabled": 0, "bike_id": "8b2a9ca90e8fe260752adb3840eaca4a", "lon": -76.94918933333334, "rental_uris": {"android": "https://dc.lft.to/lastmile_qr_scan", "ios": "https://dc.lft.to/lastmile_qr_scan"}, "fusion_lon": 0.0, "is_reserved": 0}, {"lat": 38.9185915, "fusion_lat": 0.0, "type": "electric_scooter", "name": "6f1c83275ec9fc6c265c3e277383a57a", "is_disabled": 0, "bike_id": "6f1c83275ec9fc6c265c3e277383a57a", "lon": -77.04033633333333, "rental_uris": {"android": "https://dc.lft.to/lastmile_qr_scan", "ios": "https://dc.lft.to/lastmile_qr_scan"}, "fusion_lon": 0.0, "is_reserved": 0}, {"lat": 38.91126383333334, "fusion_lat": 0.0, "type": "electric_scooter", "name": "51e87539889db82e017e51c80461bac9", "is_disabled": 0, "bike_id": "51e87539889db82e017e51c80461bac9", "lon": -77.02180283333334, "rental_uris": {"android": "https://dc.lft.to/lastmile_qr_scan", "ios": "https://dc.lft.to/lastmile_qr_scan"}, "fusion_lon": 0.0, "is_reserved": 0}, {"lat": 38.93717783333334, "fusion_lat": 0.0, "type": "electric_scooter", "name": "287cbaa2754607c59238512eacc80f56", "is_disabled": 0, "bike_id": "287cbaa2754607c59238512eacc80f56", "lon": -77.02472316666666, "rental_uris": {"android": "https://dc.lft.to/lastmile_qr_scan", "ios": "https://dc.lft.to/lastmile_qr_scan"}, "fusion_lon": 0.0, "is_reserved": 0}, {"lat": 38.902787833333335, "fusion_lat": 0.0, "type": "electric_scooter", "name": "873a961e173a72e8347de1104a764e8f", "is_disabled": 0, "bike_id": "873a961e173a72e8347de1104a764e8f", "lon": -77.03440016666667, "rental_uris": {"android": "https://dc.lft.to/lastmile_qr_scan", "ios": "https://dc.lft.to/lastmile_qr_scan"}, "fusion_lon": 0.0, "is_reserved": 0}, {"lat": 38.91708066666666, "fusion_lat": 0.0, "type": "electric_scooter", "name": "f9523b52e9626cc1812d901f3e47b30d", "is_disabled": 0, "bike_id": "f9523b52e9626cc1812d901f3e47b30d", "lon": -77.02854766666667, "rental_uris": {"android": "https://dc.lft.to/lastmile_qr_scan", "ios": "https://dc.lft.to/lastmile_qr_scan"}, "fusion_lon": 0.0, "is_reserved": 0}, {"lat": 38.89831066666667, "fusion_lat": 0.0, "type": "electric_scooter", "name": "b060bced1b1a5aa6a87124f4f70b1bf3", "is_disabled": 0, "bike_id": "b060bced1b1a5aa6a87124f4f70b1bf3", "lon": -77.026778, "rental_uris": {"android": "https://dc.lft.to/lastmile_qr_scan", "ios": "https://dc.lft.to/lastmile_qr_scan"}, "fusion_lon": 0.0, "is_reserved": 0}, {"lat": 38.9208825, "fusion_lat": 0.0, "type": "electric_scooter", "name": "321ef9ed162faf7fd076669bfd3c159d", "is_disabled": 0, "bike_id": "321ef9ed162faf7fd076669bfd3c159d", "lon": -77.022289, "rental_uris": {"android": "https://dc.lft.to/lastmile_qr_scan", "ios": "https://dc.lft.to/lastmile_qr_scan"}, "fusion_lon": 0.0, "is_reserved": 0}, {"lat": 38.91841466666666, "fusion_lat": 0.0, "type": "electric_scooter", "name": "eb3d8da3cb988e5775841a0b64007db2", "is_disabled": 0, "bike_id": "eb3d8da3cb988e5775841a0b64007db2", "lon": -77.03190516666666, "rental_uris": {"android": "https://dc.lft.to/lastmile_qr_scan", "ios": "https://dc.lft.to/lastmile_qr_scan"}, "fusion_lon": 0.0, "is_reserved": 0}, {"lat": 38.902931, "fusion_lat": 0.0, "type": "electric_scooter", "name": "f9582337348af32a362dee3ad12ad3ee", "is_disabled": 0, "bike_id": "f9582337348af32a362dee3ad12ad3ee", "lon": -77.034364, "rental_uris": {"android": "https://dc.lft.to/lastmile_qr_scan", "ios": "https://dc.lft.to/lastmile_qr_scan"}, "fusion_lon": 0.0, "is_reserved": 0}, {"lat": 38.92119616666667, "fusion_lat": 0.0, "type": "electric_scooter", "name": "fe9f4deca206136454bd9fb4d6e22df5", "is_disabled": 0, "bike_id": "fe9f4deca206136454bd9fb4d6e22df5", "lon": -77.04587266666667, "rental_uris": {"android": "https://dc.lft.to/lastmile_qr_scan", "ios": "https://dc.lft.to/lastmile_qr_scan"}, "fusion_lon": 0.0, "is_reserved": 0}, {"lat": 38.90911066666666, "fusion_lat": 0.0, "type": "electric_scooter", "name": "cb553e5449742ec6841312fd53adfc96", "is_disabled": 0, "bike_id": "cb553e5449742ec6841312fd53adfc96", "lon": -77.07189033333333, "rental_uris": {"android": "https://dc.lft.to/lastmile_qr_scan", "ios": "https://dc.lft.to/lastmile_qr_scan"}, "fusion_lon": 0.0, "is_reserved": 0}, {"lat": 38.90006316666667, "fusion_lat": 0.0, "type": "electric_scooter", "name": "98649d01e213f9c05651617638039ee5", "is_disabled": 0, "bike_id": "98649d01e213f9c05651617638039ee5", "lon": -77.00675133333333, "rental_uris": {"android": "https://dc.lft.to/lastmile_qr_scan", "ios": "https://dc.lft.to/lastmile_qr_scan"}, "fusion_lon": 0.0, "is_reserved": 0}, {"lat": 38.872288833333336, "fusion_lat": 0.0, "type": "electric_scooter", "name": "7584f6f76f116c3fef9cc927069f06a9", "is_disabled": 0, "bike_id": "7584f6f76f116c3fef9cc927069f06a9", "lon": -77.0177035, "rental_uris": {"android": "https://dc.lft.to/lastmile_qr_scan", "ios": "https://dc.lft.to/lastmile_qr_scan"}, "fusion_lon": 0.0, "is_reserved": 0}, {"lat": 38.95196, "fusion_lat": 0.0, "type": "electric_scooter", "name": "fbb0828a292ac9fe7144cd59efe63843", "is_disabled": 0, "bike_id": "fbb0828a292ac9fe7144cd59efe63843", "lon": -77.0272235, "rental_uris": {"android": "https://dc.lft.to/lastmile_qr_scan", "ios": "https://dc.lft.to/lastmile_qr_scan"}, "fusion_lon": 0.0, "is_reserved": 0}, {"lat": 38.8842975, "fusion_lat": 0.0, "type": "electric_scooter", "name": "6cc659e2a7be2f5d73eb40ad84afae27", "is_disabled": 0, "bike_id": "6cc659e2a7be2f5d73eb40ad84afae27", "lon": -76.95751733333333, "rental_uris": {"android": "https://dc.lft.to/lastmile_qr_scan", "ios": "https://dc.lft.to/lastmile_qr_scan"}, "fusion_lon": 0.0, "is_reserved": 0}, {"lat": 38.874703833333335, "fusion_lat": 0.0, "type": "electric_scooter", "name": "09c7d91029a19b9085788ad27625a448", "is_disabled": 0, "bike_id": "09c7d91029a19b9085788ad27625a448", "lon": -77.0048945, "rental_uris": {"android": "https://dc.lft.to/lastmile_qr_scan", "ios": "https://dc.lft.to/lastmile_qr_scan"}, "fusion_lon": 0.0, "is_reserved": 0}, {"lat": 38.89610116666667, "fusion_lat": 0.0, "type": "electric_scooter", "name": "161e3d3ebdd4124fc19b1f7c802abc61", "is_disabled": 0, "bike_id": "161e3d3ebdd4124fc19b1f7c802abc61", "lon": -77.02250983333333, "rental_uris": {"android": "https://dc.lft.to/lastmile_qr_scan", "ios": "https://dc.lft.to/lastmile_qr_scan"}, "fusion_lon": 0.0, "is_reserved": 0}, {"lat": 38.9052675, "fusion_lat": 0.0, "type": "electric_scooter", "name": "d57db3a6f310c82356755771df448a4e", "is_disabled": 0, "bike_id": "d57db3a6f310c82356755771df448a4e", "lon": -77.02699333333334, "rental_uris": {"android": "https://dc.lft.to/lastmile_qr_scan", "ios": "https://dc.lft.to/lastmile_qr_scan"}, "fusion_lon": 0.0, "is_reserved": 0}, {"lat": 38.902765333333335, "fusion_lat": 0.0, "type": "electric_scooter", "name": "6482579bf46b18a9cebf40f4c6a94605", "is_disabled": 0, "bike_id": "6482579bf46b18a9cebf40f4c6a94605", "lon": -77.0383885, "rental_uris": {"android": "https://dc.lft.to/lastmile_qr_scan", "ios": "https://dc.lft.to/lastmile_qr_scan"}, "fusion_lon": 0.0, "is_reserved": 0}, {"lat": 38.898648, "fusion_lat": 0.0, "type": "electric_scooter", "name": "726ae6e6757d8002811d8a03f707fcb8", "is_disabled": 0, "bike_id": "726ae6e6757d8002811d8a03f707fcb8", "lon": -76.94629516666667, "rental_uris": {"android": "https://dc.lft.to/lastmile_qr_scan", "ios": "https://dc.lft.to/lastmile_qr_scan"}, "fusion_lon": 0.0, "is_reserved": 0}, {"lat": 38.90156566666667, "fusion_lat": 0.0, "type": "electric_scooter", "name": "529ce612eb7c8bc7f978c89191c1f61a", "is_disabled": 0, "bike_id": "529ce612eb7c8bc7f978c89191c1f61a", "lon": -77.03939233333334, "rental_uris": {"android": "https://dc.lft.to/lastmile_qr_scan", "ios": "https://dc.lft.to/lastmile_qr_scan"}, "fusion_lon": 0.0, "is_reserved": 0}, {"lat": 38.91275383333333, "fusion_lat": 0.0, "type": "electric_scooter", "name": "f5357f5cf3def3a22da8091eede74f74", "is_disabled": 0, "bike_id": "f5357f5cf3def3a22da8091eede74f74", "lon": -77.0238445, "rental_uris": {"android": "https://dc.lft.to/lastmile_qr_scan", "ios": "https://dc.lft.to/lastmile_qr_scan"}, "fusion_lon": 0.0, "is_reserved": 0}, {"lat": 38.924504166666665, "fusion_lat": 0.0, "type": "electric_scooter", "name": "55dd204ee9ae12da23a7c0ce8023554f", "is_disabled": 0, "bike_id": "55dd204ee9ae12da23a7c0ce8023554f", "lon": -77.040189, "rental_uris": {"android": "https://dc.lft.to/lastmile_qr_scan", "ios": "https://dc.lft.to/lastmile_qr_scan"}, "fusion_lon": 0.0, "is_reserved": 0}, {"lat": 38.883739, "fusion_lat": 0.0, "type": "electric_scooter", "name": "16e0124ca25376f2983049321b4e6bfe", "is_disabled": 0, "bike_id": "16e0124ca25376f2983049321b4e6bfe", "lon": -76.985562, "rental_uris": {"android": "https://dc.lft.to/lastmile_qr_scan", "ios": "https://dc.lft.to/lastmile_qr_scan"}, "fusion_lon": 0.0, "is_reserved": 0}, {"lat": 38.87385116666667, "fusion_lat": 0.0, "type": "electric_scooter", "name": "121ae4c80c175e0085ef6ae3d453216b", "is_disabled": 0, "bike_id": "121ae4c80c175e0085ef6ae3d453216b", "lon": -77.00076433333334, "rental_uris": {"android": "https://dc.lft.to/lastmile_qr_scan", "ios": "https://dc.lft.to/lastmile_qr_scan"}, "fusion_lon": 0.0, "is_reserved": 0}, {"lat": 38.911911333333336, "fusion_lat": 0.0, "type": "electric_scooter", "name": "a0b81b9014710f785632659ae7237f24", "is_disabled": 0, "bike_id": "a0b81b9014710f785632659ae7237f24", "lon": -77.03835033333333, "rental_uris": {"android": "https://dc.lft.to/lastmile_qr_scan", "ios": "https://dc.lft.to/lastmile_qr_scan"}, "fusion_lon": 0.0, "is_reserved": 0}, {"lat": 38.93243583333334, "fusion_lat": 0.0, "type": "electric_scooter", "name": "96b55b7d564e7768cc79642fbb70a30a", "is_disabled": 0, "bike_id": "96b55b7d564e7768cc79642fbb70a30a", "lon": -77.0295715, "rental_uris": {"android": "https://dc.lft.to/lastmile_qr_scan", "ios": "https://dc.lft.to/lastmile_qr_scan"}, "fusion_lon": 0.0, "is_reserved": 0}, {"lat": 38.892319, "fusion_lat": 0.0, "type": "electric_scooter", "name": "e15943800401f8c33dcffadbe61f181d", "is_disabled": 0, "bike_id": "e15943800401f8c33dcffadbe61f181d", "lon": -77.02205366666666, "rental_uris": {"android": "https://dc.lft.to/lastmile_qr_scan", "ios": "https://dc.lft.to/lastmile_qr_scan"}, "fusion_lon": 0.0, "is_reserved": 0}, {"lat": 38.97383, "fusion_lat": 0.0, "type": "electric_bike", "name": "1794e0c3768281056089cb39975503ad", "is_disabled": 0, "bike_id": "1794e0c3768281056089cb39975503ad", "lon": -77.06473933333334, "rental_uris": {"android": "https://dc.lft.to/lastmile_qr_scan", "ios": "https://dc.lft.to/lastmile_qr_scan"}, "fusion_lon": 0.0, "is_reserved": 0}, {"lat": 38.92449233333333, "fusion_lat": 0.0, "type": "electric_scooter", "name": "d4cf2a9c401b0fcbf8d063d61f772a95", "is_disabled": 0, "bike_id": "d4cf2a9c401b0fcbf8d063d61f772a95", "lon": -77.052207, "rental_uris": {"android": "https://dc.lft.to/lastmile_qr_scan", "ios": "https://dc.lft.to/lastmile_qr_scan"}, "fusion_lon": 0.0, "is_reserved": 0}, {"lat": 38.90365116666667, "fusion_lat": 0.0, "type": "electric_scooter", "name": "86fa504c358c25c4f820bfc69d447738", "is_disabled": 0, "bike_id": "86fa504c358c25c4f820bfc69d447738", "lon": -77.042798, "rental_uris": {"android": "https://dc.lft.to/lastmile_qr_scan", "ios": "https://dc.lft.to/lastmile_qr_scan"}, "fusion_lon": 0.0, "is_reserved": 0}, {"lat": 38.928392833333334, "fusion_lat": 0.0, "type": "electric_scooter", "name": "4bdee11579c0533ed14f8de9a24b81bb", "is_disabled": 0, "bike_id": "4bdee11579c0533ed14f8de9a24b81bb", "lon": -77.05503166666666, "rental_uris": {"android": "https://dc.lft.to/lastmile_qr_scan", "ios": "https://dc.lft.to/lastmile_qr_scan"}, "fusion_lon": 0.0, "is_reserved": 0}, {"lat": 38.8693415, "fusion_lat": 0.0, "type": "electric_scooter", "name": "9c8eec127d85d961ebf94c6ae86513ba", "is_disabled": 0, "bike_id": "9c8eec127d85d961ebf94c6ae86513ba", "lon": -76.96014833333334, "rental_uris": {"android": "https://dc.lft.to/lastmile_qr_scan", "ios": "https://dc.lft.to/lastmile_qr_scan"}, "fusion_lon": 0.0, "is_reserved": 0}, {"lat": 38.9040475, "fusion_lat": 0.0, "type": "electric_scooter", "name": "4d54128476df12b6bcc3ddad85db7d6c", "is_disabled": 0, "bike_id": "4d54128476df12b6bcc3ddad85db7d6c", "lon": -77.04358866666666, "rental_uris": {"android": "https://dc.lft.to/lastmile_qr_scan", "ios": "https://dc.lft.to/lastmile_qr_scan"}, "fusion_lon": 0.0, "is_reserved": 0}, {"lat": 38.88613433333333, "fusion_lat": 0.0, "type": "electric_scooter", "name": "16b1460d873098f997ae26c33654ba2e", "is_disabled": 0, "bike_id": "16b1460d873098f997ae26c33654ba2e", "lon": -76.95593566666666, "rental_uris": {"android": "https://dc.lft.to/lastmile_qr_scan", "ios": "https://dc.lft.to/lastmile_qr_scan"}, "fusion_lon": 0.0, "is_reserved": 0}, {"lat": 38.91813166666667, "fusion_lat": 0.0, "type": "electric_scooter", "name": "c8f3902f55aeeae16601c8d5a168c187", "is_disabled": 0, "bike_id": "c8f3902f55aeeae16601c8d5a168c187", "lon": -77.02512033333333, "rental_uris": {"android": "https://dc.lft.to/lastmile_qr_scan", "ios": "https://dc.lft.to/lastmile_qr_scan"}, "fusion_lon": 0.0, "is_reserved": 0}, {"lat": 38.89473266666667, "fusion_lat": 0.0, "type": "electric_scooter", "name": "261d70a04c7693e26b080ca14fdc74d2", "is_disabled": 0, "bike_id": "261d70a04c7693e26b080ca14fdc74d2", "lon": -77.0452925, "rental_uris": {"android": "https://dc.lft.to/lastmile_qr_scan", "ios": "https://dc.lft.to/lastmile_qr_scan"}, "fusion_lon": 0.0, "is_reserved": 0}, {"lat": 38.9172005, "fusion_lat": 0.0, "type": "electric_scooter", "name": "2d3f6dafd75189ff15ef151cb47dcaea", "is_disabled": 0, "bike_id": "2d3f6dafd75189ff15ef151cb47dcaea", "lon": -77.027096, "rental_uris": {"android": "https://dc.lft.to/lastmile_qr_scan", "ios": "https://dc.lft.to/lastmile_qr_scan"}, "fusion_lon": 0.0, "is_reserved": 0}, {"lat": 38.89831483333333, "fusion_lat": 0.0, "type": "electric_scooter", "name": "57d8c5202976b884d028eeb7d164e324", "is_disabled": 0, "bike_id": "57d8c5202976b884d028eeb7d164e324", "lon": -77.043947, "rental_uris": {"android": "https://dc.lft.to/lastmile_qr_scan", "ios": "https://dc.lft.to/lastmile_qr_scan"}, "fusion_lon": 0.0, "is_reserved": 0}, {"lat": 38.921528, "fusion_lat": 0.0, "type": "electric_scooter", "name": "11cd072d01b09be256f4705f315df138", "is_disabled": 0, "bike_id": "11cd072d01b09be256f4705f315df138", "lon": -77.0457385, "rental_uris": {"android": "https://dc.lft.to/lastmile_qr_scan", "ios": "https://dc.lft.to/lastmile_qr_scan"}, "fusion_lon": 0.0, "is_reserved": 0}, {"lat": 38.903197666666664, "fusion_lat": 0.0, "type": "electric_scooter", "name": "66f8f013a914b4e6d1b022548645c2c2", "is_disabled": 0, "bike_id": "66f8f013a914b4e6d1b022548645c2c2", "lon": -77.03824766666666, "rental_uris": {"android": "https://dc.lft.to/lastmile_qr_scan", "ios": "https://dc.lft.to/lastmile_qr_scan"}, "fusion_lon": 0.0, "is_reserved": 0}, {"lat": 38.897929166666664, "fusion_lat": 0.0, "type": "electric_scooter", "name": "bfcc5c42bc3317c03787a54a3b10df48", "is_disabled": 0, "bike_id": "bfcc5c42bc3317c03787a54a3b10df48", "lon": -77.020051, "rental_uris": {"android": "https://dc.lft.to/lastmile_qr_scan", "ios": "https://dc.lft.to/lastmile_qr_scan"}, "fusion_lon": 0.0, "is_reserved": 0}, {"lat": 38.9061365, "fusion_lat": 0.0, "type": "electric_scooter", "name": "586fa1ab4bbc3b9f0456356e2c1a84ba", "is_disabled": 0, "bike_id": "586fa1ab4bbc3b9f0456356e2c1a84ba", "lon": -77.04334933333334, "rental_uris": {"android": "https://dc.lft.to/lastmile_qr_scan", "ios": "https://dc.lft.to/lastmile_qr_scan"}, "fusion_lon": 0.0, "is_reserved": 0}, {"lat": 38.9269825, "fusion_lat": 0.0, "type": "electric_scooter", "name": "1a1ce1d6bbc0ff8916fb9e424c053113", "is_disabled": 0, "bike_id": "1a1ce1d6bbc0ff8916fb9e424c053113", "lon": -77.02280416666666, "rental_uris": {"android": "https://dc.lft.to/lastmile_qr_scan", "ios": "https://dc.lft.to/lastmile_qr_scan"}, "fusion_lon": 0.0, "is_reserved": 0}, {"lat": 38.902798, "fusion_lat": 0.0, "type": "electric_scooter", "name": "0fd1fad263ab24d00015da34fc88afae", "is_disabled": 0, "bike_id": "0fd1fad263ab24d00015da34fc88afae", "lon": -77.034431, "rental_uris": {"android": "https://dc.lft.to/lastmile_qr_scan", "ios": "https://dc.lft.to/lastmile_qr_scan"}, "fusion_lon": 0.0, "is_reserved": 0}, {"lat": 38.874652833333336, "fusion_lat": 0.0, "type": "electric_scooter", "name": "117d7329fbb64dfb8c1f31029d33dde9", "is_disabled": 0, "bike_id": "117d7329fbb64dfb8c1f31029d33dde9", "lon": -77.01780066666667, "rental_uris": {"android": "https://dc.lft.to/lastmile_qr_scan", "ios": "https://dc.lft.to/lastmile_qr_scan"}, "fusion_lon": 0.0, "is_reserved": 0}, {"lat": 38.83167133333333, "fusion_lat": 0.0, "type": "electric_scooter", "name": "65922c8217396e70f67b76eccc6cdc57", "is_disabled": 0, "bike_id": "65922c8217396e70f67b76eccc6cdc57", "lon": -77.00823616666666, "rental_uris": {"android": "https://dc.lft.to/lastmile_qr_scan", "ios": "https://dc.lft.to/lastmile_qr_scan"}, "fusion_lon": 0.0, "is_reserved": 0}, {"lat": 38.94055083333333, "fusion_lat": 0.0, "type": "electric_bike", "name": "f0a77f4fa5fdc72465d73638cfd90413", "is_disabled": 0, "bike_id": "f0a77f4fa5fdc72465d73638cfd90413", "lon": -76.90419333333334, "rental_uris": {"android": "https://dc.lft.to/lastmile_qr_scan", "ios": "https://dc.lft.to/lastmile_qr_scan"}, "fusion_lon": 0.0, "is_reserved": 0}, {"lat": 38.9031805, "fusion_lat": 0.0, "type": "electric_scooter", "name": "63b4a76b1900990b975381a9157abc0f", "is_disabled": 0, "bike_id": "63b4a76b1900990b975381a9157abc0f", "lon": -77.03823933333334, "rental_uris": {"android": "https://dc.lft.to/lastmile_qr_scan", "ios": "https://dc.lft.to/lastmile_qr_scan"}, "fusion_lon": 0.0, "is_reserved": 0}, {"lat": 38.918742333333334, "fusion_lat": 0.0, "type": "electric_scooter", "name": "1d2c6e166b5449cbce8da2fda9e1e7b9", "is_disabled": 0, "bike_id": "1d2c6e166b5449cbce8da2fda9e1e7b9", "lon": -77.03557333333333, "rental_uris": {"android": "https://dc.lft.to/lastmile_qr_scan", "ios": "https://dc.lft.to/lastmile_qr_scan"}, "fusion_lon": 0.0, "is_reserved": 0}, {"lat": 38.876383, "fusion_lat": 0.0, "type": "electric_scooter", "name": "045ad7817981887d65324a9cb392e6d7", "is_disabled": 0, "bike_id": "045ad7817981887d65324a9cb392e6d7", "lon": -77.0038555, "rental_uris": {"android": "https://dc.lft.to/lastmile_qr_scan", "ios": "https://dc.lft.to/lastmile_qr_scan"}, "fusion_lon": 0.0, "is_reserved": 0}, {"lat": 38.934784, "fusion_lat": 0.0, "type": "electric_scooter", "name": "3a102e154f5ac1b9d416eb11c76b9298", "is_disabled": 0, "bike_id": "3a102e154f5ac1b9d416eb11c76b9298", "lon": -77.07282183333334, "rental_uris": {"android": "https://dc.lft.to/lastmile_qr_scan", "ios": "https://dc.lft.to/lastmile_qr_scan"}, "fusion_lon": 0.0, "is_reserved": 0}, {"lat": 38.88452816666667, "fusion_lat": 0.0, "type": "electric_scooter", "name": "5194ed21a25cb35ff53a29a45ec207bf", "is_disabled": 0, "bike_id": "5194ed21a25cb35ff53a29a45ec207bf", "lon": -76.9509625, "rental_uris": {"android": "https://dc.lft.to/lastmile_qr_scan", "ios": "https://dc.lft.to/lastmile_qr_scan"}, "fusion_lon": 0.0, "is_reserved": 0}, {"lat": 38.922829, "fusion_lat": 0.0, "type": "electric_scooter", "name": "c288a2e2dcaed83e333b0d4c4edf9339", "is_disabled": 0, "bike_id": "c288a2e2dcaed83e333b0d4c4edf9339", "lon": -77.04242166666667, "rental_uris": {"android": "https://dc.lft.to/lastmile_qr_scan", "ios": "https://dc.lft.to/lastmile_qr_scan"}, "fusion_lon": 0.0, "is_reserved": 0}, {"lat": 38.89659983333333, "fusion_lat": 0.0, "type": "electric_scooter", "name": "2bd4f07203c77916d1f9388b65da8029", "is_disabled": 0, "bike_id": "2bd4f07203c77916d1f9388b65da8029", "lon": -77.01894833333333, "rental_uris": {"android": "https://dc.lft.to/lastmile_qr_scan", "ios": "https://dc.lft.to/lastmile_qr_scan"}, "fusion_lon": 0.0, "is_reserved": 0}, {"lat": 38.92418216666667, "fusion_lat": 0.0, "type": "electric_scooter", "name": "02d279e4a96e38df29ccee891ee2979a", "is_disabled": 0, "bike_id": "02d279e4a96e38df29ccee891ee2979a", "lon": -77.02286633333334, "rental_uris": {"android": "https://dc.lft.to/lastmile_qr_scan", "ios": "https://dc.lft.to/lastmile_qr_scan"}, "fusion_lon": 0.0, "is_reserved": 0}, {"lat": 38.88574933333334, "fusion_lat": 0.0, "type": "electric_scooter", "name": "7f4a475d5b7568e1c9670543a7f36791", "is_disabled": 0, "bike_id": "7f4a475d5b7568e1c9670543a7f36791", "lon": -77.015477, "rental_uris": {"android": "https://dc.lft.to/lastmile_qr_scan", "ios": "https://dc.lft.to/lastmile_qr_scan"}, "fusion_lon": 0.0, "is_reserved": 0}, {"lat": 38.9317785, "fusion_lat": 0.0, "type": "electric_scooter", "name": "2f1cc195a45f9ca3daff606a566ce61f", "is_disabled": 0, "bike_id": "2f1cc195a45f9ca3daff606a566ce61f", "lon": -77.043065, "rental_uris": {"android": "https://dc.lft.to/lastmile_qr_scan", "ios": "https://dc.lft.to/lastmile_qr_scan"}, "fusion_lon": 0.0, "is_reserved": 0}, {"lat": 38.89967216666667, "fusion_lat": 0.0, "type": "electric_scooter", "name": "cd6066be91d44a263be9597bba3363cb", "is_disabled": 0, "bike_id": "cd6066be91d44a263be9597bba3363cb", "lon": -77.0449465, "rental_uris": {"android": "https://dc.lft.to/lastmile_qr_scan", "ios": "https://dc.lft.to/lastmile_qr_scan"}, "fusion_lon": 0.0, "is_reserved": 0}, {"lat": 38.8908015, "fusion_lat": 0.0, "type": "electric_scooter", "name": "efb39b2c7f952eb00f694fd7f6c92cc6", "is_disabled": 0, "bike_id": "efb39b2c7f952eb00f694fd7f6c92cc6", "lon": -76.98823116666667, "rental_uris": {"android": "https://dc.lft.to/lastmile_qr_scan", "ios": "https://dc.lft.to/lastmile_qr_scan"}, "fusion_lon": 0.0, "is_reserved": 0}, {"lat": 38.91254983333333, "fusion_lat": 0.0, "type": "electric_scooter", "name": "524ad8d4c1e2feb8e510bceab7c266cf", "is_disabled": 0, "bike_id": "524ad8d4c1e2feb8e510bceab7c266cf", "lon": -77.02204666666667, "rental_uris": {"android": "https://dc.lft.to/lastmile_qr_scan", "ios": "https://dc.lft.to/lastmile_qr_scan"}, "fusion_lon": 0.0, "is_reserved": 0}, {"lat": 38.89843833333333, "fusion_lat": 0.0, "type": "electric_scooter", "name": "6f4ec5e117c99119f5e051e21337fa08", "is_disabled": 0, "bike_id": "6f4ec5e117c99119f5e051e21337fa08", "lon": -77.04346616666666, "rental_uris": {"android": "https://dc.lft.to/lastmile_qr_scan", "ios": "https://dc.lft.to/lastmile_qr_scan"}, "fusion_lon": 0.0, "is_reserved": 0}, {"lat": 38.89904516666667, "fusion_lat": 0.0, "type": "electric_scooter", "name": "36bdbf0d6595e9f126dd5844000d69b2", "is_disabled": 0, "bike_id": "36bdbf0d6595e9f126dd5844000d69b2", "lon": -77.03287633333333, "rental_uris": {"android": "https://dc.lft.to/lastmile_qr_scan", "ios": "https://dc.lft.to/lastmile_qr_scan"}, "fusion_lon": 0.0, "is_reserved": 0}, {"lat": 38.84458016666667, "fusion_lat": 0.0, "type": "electric_bike", "name": "45c5c4120fe289376353fb97c092d2a7", "is_disabled": 0, "bike_id": "45c5c4120fe289376353fb97c092d2a7", "lon": -77.0017485, "rental_uris": {"android": "https://dc.lft.to/lastmile_qr_scan", "ios": "https://dc.lft.to/lastmile_qr_scan"}, "fusion_lon": 0.0, "is_reserved": 0}, {"lat": 38.9181965, "fusion_lat": 0.0, "type": "electric_scooter", "name": "21deaa3ea3d7c909b47277c0765325db", "is_disabled": 0, "bike_id": "21deaa3ea3d7c909b47277c0765325db", "lon": -77.04178766666666, "rental_uris": {"android": "https://dc.lft.to/lastmile_qr_scan", "ios": "https://dc.lft.to/lastmile_qr_scan"}, "fusion_lon": 0.0, "is_reserved": 0}, {"lat": 38.9078215, "fusion_lat": 0.0, "type": "electric_scooter", "name": "5266bbf557a31a992505433055eafe25", "is_disabled": 0, "bike_id": "5266bbf557a31a992505433055eafe25", "lon": -77.04669233333334, "rental_uris": {"android": "https://dc.lft.to/lastmile_qr_scan", "ios": "https://dc.lft.to/lastmile_qr_scan"}, "fusion_lon": 0.0, "is_reserved": 0}, {"lat": 38.8650605, "fusion_lat": 0.0, "type": "electric_scooter", "name": "41d9a318a85393936490ffdc8f3256e5", "is_disabled": 0, "bike_id": "41d9a318a85393936490ffdc8f3256e5", "lon": -76.99002316666666, "rental_uris": {"android": "https://dc.lft.to/lastmile_qr_scan", "ios": "https://dc.lft.to/lastmile_qr_scan"}, "fusion_lon": 0.0, "is_reserved": 0}, {"lat": 38.901467333333336, "fusion_lat": 0.0, "type": "electric_scooter", "name": "c5370b11df02667498af7dfaae23d827", "is_disabled": 0, "bike_id": "c5370b11df02667498af7dfaae23d827", "lon": -77.00274633333333, "rental_uris": {"android": "https://dc.lft.to/lastmile_qr_scan", "ios": "https://dc.lft.to/lastmile_qr_scan"}, "fusion_lon": 0.0, "is_reserved": 0}, {"lat": 38.9140825, "fusion_lat": 0.0, "type": "electric_scooter", "name": "744c5e1db694db95dac247806a12084d", "is_disabled": 0, "bike_id": "744c5e1db694db95dac247806a12084d", "lon": -77.01556883333333, "rental_uris": {"android": "https://dc.lft.to/lastmile_qr_scan", "ios": "https://dc.lft.to/lastmile_qr_scan"}, "fusion_lon": 0.0, "is_reserved": 0}, {"lat": 38.89055366666667, "fusion_lat": 0.0, "type": "electric_scooter", "name": "e8fa5930f0db0c255815893b32ebbc06", "is_disabled": 0, "bike_id": "e8fa5930f0db0c255815893b32ebbc06", "lon": -76.93753766666667, "rental_uris": {"android": "https://dc.lft.to/lastmile_qr_scan", "ios": "https://dc.lft.to/lastmile_qr_scan"}, "fusion_lon": 0.0, "is_reserved": 0}, {"lat": 38.897355833333336, "fusion_lat": 0.0, "type": "electric_scooter", "name": "4dd6237a892a033bbcceac743a372f49", "is_disabled": 0, "bike_id": "4dd6237a892a033bbcceac743a372f49", "lon": -77.04555633333334, "rental_uris": {"android": "https://dc.lft.to/lastmile_qr_scan", "ios": "https://dc.lft.to/lastmile_qr_scan"}, "fusion_lon": 0.0, "is_reserved": 0}, {"lat": 38.8756585, "fusion_lat": 0.0, "type": "electric_scooter", "name": "e491a32af4710886184b70496dd7ef77", "is_disabled": 0, "bike_id": "e491a32af4710886184b70496dd7ef77", "lon": -77.0059955, "rental_uris": {"android": "https://dc.lft.to/lastmile_qr_scan", "ios": "https://dc.lft.to/lastmile_qr_scan"}, "fusion_lon": 0.0, "is_reserved": 0}, {"lat": 38.924766166666664, "fusion_lat": 0.0, "type": "electric_scooter", "name": "63249e6b057cb3b08ec59bdcdf17c4af", "is_disabled": 0, "bike_id": "63249e6b057cb3b08ec59bdcdf17c4af", "lon": -77.02207016666667, "rental_uris": {"android": "https://dc.lft.to/lastmile_qr_scan", "ios": "https://dc.lft.to/lastmile_qr_scan"}, "fusion_lon": 0.0, "is_reserved": 0}, {"lat": 38.88036616666667, "fusion_lat": 0.0, "type": "electric_scooter", "name": "5c6aba945b8266567795ece6a2db0607", "is_disabled": 0, "bike_id": "5c6aba945b8266567795ece6a2db0607", "lon": -77.019855, "rental_uris": {"android": "https://dc.lft.to/lastmile_qr_scan", "ios": "https://dc.lft.to/lastmile_qr_scan"}, "fusion_lon": 0.0, "is_reserved": 0}, {"lat": 38.88646416666667, "fusion_lat": 0.0, "type": "electric_scooter", "name": "f13055dd07bec3cf948300b2add09ffe", "is_disabled": 0, "bike_id": "f13055dd07bec3cf948300b2add09ffe", "lon": -77.01745083333333, "rental_uris": {"android": "https://dc.lft.to/lastmile_qr_scan", "ios": "https://dc.lft.to/lastmile_qr_scan"}, "fusion_lon": 0.0, "is_reserved": 0}, {"lat": 38.93069116666667, "fusion_lat": 0.0, "type": "electric_scooter", "name": "f8fc974d13302b44cfea864814fc521f", "is_disabled": 0, "bike_id": "f8fc974d13302b44cfea864814fc521f", "lon": -77.03634933333333, "rental_uris": {"android": "https://dc.lft.to/lastmile_qr_scan", "ios": "https://dc.lft.to/lastmile_qr_scan"}, "fusion_lon": 0.0, "is_reserved": 0}, {"lat": 38.8461455, "fusion_lat": 0.0, "type": "electric_bike", "name": "aa9e9aca0f449f8b061235965a260e0b", "is_disabled": 0, "bike_id": "aa9e9aca0f449f8b061235965a260e0b", "lon": -76.969126, "rental_uris": {"android": "https://dc.lft.to/lastmile_qr_scan", "ios": "https://dc.lft.to/lastmile_qr_scan"}, "fusion_lon": 0.0, "is_reserved": 0}, {"lat": 38.92049316666667, "fusion_lat": 0.0, "type": "electric_scooter", "name": "03df94526b0d59a1318706d0bb19d464", "is_disabled": 0, "bike_id": "03df94526b0d59a1318706d0bb19d464", "lon": -77.0166195, "rental_uris": {"android": "https://dc.lft.to/lastmile_qr_scan", "ios": "https://dc.lft.to/lastmile_qr_scan"}, "fusion_lon": 0.0, "is_reserved": 0}, {"lat": 38.86372433333333, "fusion_lat": 0.0, "type": "electric_scooter", "name": "6fa1085e34932262a3af81a7afdcf47a", "is_disabled": 0, "bike_id": "6fa1085e34932262a3af81a7afdcf47a", "lon": -76.99061266666666, "rental_uris": {"android": "https://dc.lft.to/lastmile_qr_scan", "ios": "https://dc.lft.to/lastmile_qr_scan"}, "fusion_lon": 0.0, "is_reserved": 0}, {"lat": 38.896180666666666, "fusion_lat": 0.0, "type": "electric_scooter", "name": "fded063b3cee70eff2098bca066fadb0", "is_disabled": 0, "bike_id": "fded063b3cee70eff2098bca066fadb0", "lon": -77.01168183333333, "rental_uris": {"android": "https://dc.lft.to/lastmile_qr_scan", "ios": "https://dc.lft.to/lastmile_qr_scan"}, "fusion_lon": 0.0, "is_reserved": 0}, {"lat": 38.88746416666667, "fusion_lat": 0.0, "type": "electric_scooter", "name": "9e33bf5230cd39e6fe02f46dab2c5d0e", "is_disabled": 0, "bike_id": "9e33bf5230cd39e6fe02f46dab2c5d0e", "lon": -77.02858216666667, "rental_uris": {"android": "https://dc.lft.to/lastmile_qr_scan", "ios": "https://dc.lft.to/lastmile_qr_scan"}, "fusion_lon": 0.0, "is_reserved": 0}, {"lat": 38.91734666666667, "fusion_lat": 0.0, "type": "electric_scooter", "name": "8a87c3cb644ec06dedfec3112074ba1d", "is_disabled": 0, "bike_id": "8a87c3cb644ec06dedfec3112074ba1d", "lon": -77.03640333333334, "rental_uris": {"android": "https://dc.lft.to/lastmile_qr_scan", "ios": "https://dc.lft.to/lastmile_qr_scan"}, "fusion_lon": 0.0, "is_reserved": 0}, {"lat": 38.96738, "fusion_lat": 0.0, "type": "electric_bike", "name": "233a4b02557a1feadd1954e4751c1022", "is_disabled": 0, "bike_id": "233a4b02557a1feadd1954e4751c1022", "lon": -76.960481, "rental_uris": {"android": "https://dc.lft.to/lastmile_qr_scan", "ios": "https://dc.lft.to/lastmile_qr_scan"}, "fusion_lon": 0.0, "is_reserved": 0}, {"lat": 38.90564783333333, "fusion_lat": 0.0, "type": "electric_scooter", "name": "921e66f9a6548fbd5e2950a8f01b2462", "is_disabled": 0, "bike_id": "921e66f9a6548fbd5e2950a8f01b2462", "lon": -77.00574866666666, "rental_uris": {"android": "https://dc.lft.to/lastmile_qr_scan", "ios": "https://dc.lft.to/lastmile_qr_scan"}, "fusion_lon": 0.0, "is_reserved": 0}, {"lat": 38.92765383333333, "fusion_lat": 0.0, "type": "electric_scooter", "name": "a8f159142667b43ec15c4ca8f4fd19d1", "is_disabled": 0, "bike_id": "a8f159142667b43ec15c4ca8f4fd19d1", "lon": -77.01192483333334, "rental_uris": {"android": "https://dc.lft.to/lastmile_qr_scan", "ios": "https://dc.lft.to/lastmile_qr_scan"}, "fusion_lon": 0.0, "is_reserved": 0}, {"lat": 38.88183083333333, "fusion_lat": 0.0, "type": "electric_scooter", "name": "90f514673bceaf2f04775bd3ee157d2d", "is_disabled": 0, "bike_id": "90f514673bceaf2f04775bd3ee157d2d", "lon": -77.01743516666667, "rental_uris": {"android": "https://dc.lft.to/lastmile_qr_scan", "ios": "https://dc.lft.to/lastmile_qr_scan"}, "fusion_lon": 0.0, "is_reserved": 0}, {"lat": 38.927704, "fusion_lat": 0.0, "type": "electric_scooter", "name": "afdc235b96a617556249703d68fc5994", "is_disabled": 0, "bike_id": "afdc235b96a617556249703d68fc5994", "lon": -77.0274615, "rental_uris": {"android": "https://dc.lft.to/lastmile_qr_scan", "ios": "https://dc.lft.to/lastmile_qr_scan"}, "fusion_lon": 0.0, "is_reserved": 0}, {"lat": 38.93193516666667, "fusion_lat": 0.0, "type": "electric_bike", "name": "030e3550b655023f7a9443c5192659ad", "is_disabled": 0, "bike_id": "030e3550b655023f7a9443c5192659ad", "lon": -77.2292725, "rental_uris": {"android": "https://dc.lft.to/lastmile_qr_scan", "ios": "https://dc.lft.to/lastmile_qr_scan"}, "fusion_lon": 0.0, "is_reserved": 0}, {"lat": 38.896833, "fusion_lat": 0.0, "type": "electric_scooter", "name": "aed18d61b5e7b0b66a08b40c9b032552", "is_disabled": 0, "bike_id": "aed18d61b5e7b0b66a08b40c9b032552", "lon": -77.051464, "rental_uris": {"android": "https://dc.lft.to/lastmile_qr_scan", "ios": "https://dc.lft.to/lastmile_qr_scan"}, "fusion_lon": 0.0, "is_reserved": 0}, {"lat": 38.94729366666667, "fusion_lat": 0.0, "type": "electric_bike", "name": "54175e35697563d720b3761e6652a363", "is_disabled": 0, "bike_id": "54175e35697563d720b3761e6652a363", "lon": -77.02583883333334, "rental_uris": {"android": "https://dc.lft.to/lastmile_qr_scan", "ios": "https://dc.lft.to/lastmile_qr_scan"}, "fusion_lon": 0.0, "is_reserved": 0}, {"lat": 38.91267166666667, "fusion_lat": 0.0, "type": "electric_scooter", "name": "42c7974a246d3f9f365f944218f05e3f", "is_disabled": 0, "bike_id": "42c7974a246d3f9f365f944218f05e3f", "lon": -77.031947, "rental_uris": {"android": "https://dc.lft.to/lastmile_qr_scan", "ios": "https://dc.lft.to/lastmile_qr_scan"}, "fusion_lon": 0.0, "is_reserved": 0}, {"lat": 38.892512333333336, "fusion_lat": 0.0, "type": "electric_scooter", "name": "757d1f5c0b13b931469c4fd27393237a", "is_disabled": 0, "bike_id": "757d1f5c0b13b931469c4fd27393237a", "lon": -77.03340383333334, "rental_uris": {"android": "https://dc.lft.to/lastmile_qr_scan", "ios": "https://dc.lft.to/lastmile_qr_scan"}, "fusion_lon": 0.0, "is_reserved": 0}, {"lat": 38.90510366666667, "fusion_lat": 0.0, "type": "electric_scooter", "name": "dd50da591ce83c3c23165fe20af02dcd", "is_disabled": 0, "bike_id": "dd50da591ce83c3c23165fe20af02dcd", "lon": -77.04942866666667, "rental_uris": {"android": "https://dc.lft.to/lastmile_qr_scan", "ios": "https://dc.lft.to/lastmile_qr_scan"}, "fusion_lon": 0.0, "is_reserved": 0}, {"lat": 38.95508783333333, "fusion_lat": 0.0, "type": "electric_scooter", "name": "5993b396c7b93f245d796da2cd9517f0", "is_disabled": 0, "bike_id": "5993b396c7b93f245d796da2cd9517f0", "lon": -77.02682366666667, "rental_uris": {"android": "https://dc.lft.to/lastmile_qr_scan", "ios": "https://dc.lft.to/lastmile_qr_scan"}, "fusion_lon": 0.0, "is_reserved": 0}, {"lat": 38.900084166666666, "fusion_lat": 0.0, "type": "electric_scooter", "name": "2040a4cfa183183be79d68d4dfeeaf50", "is_disabled": 0, "bike_id": "2040a4cfa183183be79d68d4dfeeaf50", "lon": -77.01119133333333, "rental_uris": {"android": "https://dc.lft.to/lastmile_qr_scan", "ios": "https://dc.lft.to/lastmile_qr_scan"}, "fusion_lon": 0.0, "is_reserved": 0}, {"lat": 38.866665166666664, "fusion_lat": 0.0, "type": "electric_scooter", "name": "ff0c1c83f12cdcfa5f19d23944083f3a", "is_disabled": 0, "bike_id": "ff0c1c83f12cdcfa5f19d23944083f3a", "lon": -76.98884716666667, "rental_uris": {"android": "https://dc.lft.to/lastmile_qr_scan", "ios": "https://dc.lft.to/lastmile_qr_scan"}, "fusion_lon": 0.0, "is_reserved": 0}, {"lat": 38.902383666666665, "fusion_lat": 0.0, "type": "electric_scooter", "name": "1f0bc1da5d0585a6cdd376e45f26fded", "is_disabled": 0, "bike_id": "1f0bc1da5d0585a6cdd376e45f26fded", "lon": -77.02934216666667, "rental_uris": {"android": "https://dc.lft.to/lastmile_qr_scan", "ios": "https://dc.lft.to/lastmile_qr_scan"}, "fusion_lon": 0.0, "is_reserved": 0}, {"lat": 38.91279133333333, "fusion_lat": 0.0, "type": "electric_scooter", "name": "13df3d71a7c0fb431a3dd13c8deb42b5", "is_disabled": 0, "bike_id": "13df3d71a7c0fb431a3dd13c8deb42b5", "lon": -77.01288733333334, "rental_uris": {"android": "https://dc.lft.to/lastmile_qr_scan", "ios": "https://dc.lft.to/lastmile_qr_scan"}, "fusion_lon": 0.0, "is_reserved": 0}, {"lat": 38.8873215, "fusion_lat": 0.0, "type": "electric_scooter", "name": "77f6cda26f7c0f7e6d529c5bab7f9e84", "is_disabled": 0, "bike_id": "77f6cda26f7c0f7e6d529c5bab7f9e84", "lon": -77.02832833333333, "rental_uris": {"android": "https://dc.lft.to/lastmile_qr_scan", "ios": "https://dc.lft.to/lastmile_qr_scan"}, "fusion_lon": 0.0, "is_reserved": 0}, {"lat": 38.851769833333336, "fusion_lat": 0.0, "type": "electric_scooter", "name": "b7d1876819df9887bd4e74642702489a", "is_disabled": 0, "bike_id": "b7d1876819df9887bd4e74642702489a", "lon": -76.995804, "rental_uris": {"android": "https://dc.lft.to/lastmile_qr_scan", "ios": "https://dc.lft.to/lastmile_qr_scan"}, "fusion_lon": 0.0, "is_reserved": 0}, {"lat": 38.9140775, "fusion_lat": 0.0, "type": "electric_scooter", "name": "e29c007e699dc62c3eda11a94a3a19e1", "is_disabled": 0, "bike_id": "e29c007e699dc62c3eda11a94a3a19e1", "lon": -77.03220666666667, "rental_uris": {"android": "https://dc.lft.to/lastmile_qr_scan", "ios": "https://dc.lft.to/lastmile_qr_scan"}, "fusion_lon": 0.0, "is_reserved": 0}, {"lat": 38.89887483333333, "fusion_lat": 0.0, "type": "electric_scooter", "name": "beb3dca9d3a8c48f089dcc1ae079142f", "is_disabled": 0, "bike_id": "beb3dca9d3a8c48f089dcc1ae079142f", "lon": -77.002357, "rental_uris": {"android": "https://dc.lft.to/lastmile_qr_scan", "ios": "https://dc.lft.to/lastmile_qr_scan"}, "fusion_lon": 0.0, "is_reserved": 0}, {"lat": 38.79857966666667, "fusion_lat": 0.0, "type": "electric_bike", "name": "84b26216a0b0d73faa5ba2de09d06d03", "is_disabled": 0, "bike_id": "84b26216a0b0d73faa5ba2de09d06d03", "lon": -77.06310733333333, "rental_uris": {"android": "https://dc.lft.to/lastmile_qr_scan", "ios": "https://dc.lft.to/lastmile_qr_scan"}, "fusion_lon": 0.0, "is_reserved": 0}, {"lat": 38.901121333333336, "fusion_lat": 0.0, "type": "electric_scooter", "name": "7014d0104e8fb790f26f2004047dd8ef", "is_disabled": 0, "bike_id": "7014d0104e8fb790f26f2004047dd8ef", "lon": -77.04986683333334, "rental_uris": {"android": "https://dc.lft.to/lastmile_qr_scan", "ios": "https://dc.lft.to/lastmile_qr_scan"}, "fusion_lon": 0.0, "is_reserved": 0}, {"lat": 38.895216166666664, "fusion_lat": 0.0, "type": "electric_scooter", "name": "265af422907cbb0d40ccd55af41caa0e", "is_disabled": 0, "bike_id": "265af422907cbb0d40ccd55af41caa0e", "lon": -77.02272166666667, "rental_uris": {"android": "https://dc.lft.to/lastmile_qr_scan", "ios": "https://dc.lft.to/lastmile_qr_scan"}, "fusion_lon": 0.0, "is_reserved": 0}, {"lat": 38.93329766666667, "fusion_lat": 0.0, "type": "electric_scooter", "name": "4c237756b5f8775445bb72f3966919f4", "is_disabled": 0, "bike_id": "4c237756b5f8775445bb72f3966919f4", "lon": -77.03265, "rental_uris": {"android": "https://dc.lft.to/lastmile_qr_scan", "ios": "https://dc.lft.to/lastmile_qr_scan"}, "fusion_lon": 0.0, "is_reserved": 0}, {"lat": 38.915415833333334, "fusion_lat": 0.0, "type": "electric_scooter", "name": "e0e7feb801cc925e97951f27313897fd", "is_disabled": 0, "bike_id": "e0e7feb801cc925e97951f27313897fd", "lon": -77.038521, "rental_uris": {"android": "https://dc.lft.to/lastmile_qr_scan", "ios": "https://dc.lft.to/lastmile_qr_scan"}, "fusion_lon": 0.0, "is_reserved": 0}, {"lat": 38.91313533333334, "fusion_lat": 0.0, "type": "electric_scooter", "name": "008c003d7c39e3f5f9d7eb33dce42446", "is_disabled": 0, "bike_id": "008c003d7c39e3f5f9d7eb33dce42446", "lon": -77.014328, "rental_uris": {"android": "https://dc.lft.to/lastmile_qr_scan", "ios": "https://dc.lft.to/lastmile_qr_scan"}, "fusion_lon": 0.0, "is_reserved": 0}, {"lat": 38.84437483333333, "fusion_lat": 0.0, "type": "electric_scooter", "name": "9cabc4dae5f044fb59fb2dfa6615aee6", "is_disabled": 0, "bike_id": "9cabc4dae5f044fb59fb2dfa6615aee6", "lon": -76.99777216666666, "rental_uris": {"android": "https://dc.lft.to/lastmile_qr_scan", "ios": "https://dc.lft.to/lastmile_qr_scan"}, "fusion_lon": 0.0, "is_reserved": 0}, {"lat": 38.93147666666667, "fusion_lat": 0.0, "type": "electric_scooter", "name": "b830abfe1334b537320f916427a7c5c1", "is_disabled": 0, "bike_id": "b830abfe1334b537320f916427a7c5c1", "lon": -77.0787575, "rental_uris": {"android": "https://dc.lft.to/lastmile_qr_scan", "ios": "https://dc.lft.to/lastmile_qr_scan"}, "fusion_lon": 0.0, "is_reserved": 0}, {"lat": 38.874799333333335, "fusion_lat": 0.0, "type": "electric_bike", "name": "b84ff59488a4b6f6856f6fe9f3edcfc1", "is_disabled": 0, "bike_id": "b84ff59488a4b6f6856f6fe9f3edcfc1", "lon": -76.96521366666667, "rental_uris": {"android": "https://dc.lft.to/lastmile_qr_scan", "ios": "https://dc.lft.to/lastmile_qr_scan"}, "fusion_lon": 0.0, "is_reserved": 0}, {"lat": 38.9525, "fusion_lat": 0.0, "type": "electric_scooter", "name": "b5f7a00ddd501a5e592e440816786e48", "is_disabled": 0, "bike_id": "b5f7a00ddd501a5e592e440816786e48", "lon": -77.0069625, "rental_uris": {"android": "https://dc.lft.to/lastmile_qr_scan", "ios": "https://dc.lft.to/lastmile_qr_scan"}, "fusion_lon": 0.0, "is_reserved": 0}, {"lat": 38.857743166666666, "fusion_lat": 0.0, "type": "electric_bike", "name": "f30022008cfbce812b74b01b6746a029", "is_disabled": 0, "bike_id": "f30022008cfbce812b74b01b6746a029", "lon": -76.98756583333333, "rental_uris": {"android": "https://dc.lft.to/lastmile_qr_scan", "ios": "https://dc.lft.to/lastmile_qr_scan"}, "fusion_lon": 0.0, "is_reserved": 0}, {"lat": 38.944115333333336, "fusion_lat": 0.0, "type": "electric_scooter", "name": "505eb43725b62d57cb2eb7e25ebbce92", "is_disabled": 0, "bike_id": "505eb43725b62d57cb2eb7e25ebbce92", "lon": -77.02599566666666, "rental_uris": {"android": "https://dc.lft.to/lastmile_qr_scan", "ios": "https://dc.lft.to/lastmile_qr_scan"}, "fusion_lon": 0.0, "is_reserved": 0}, {"lat": 38.911152666666666, "fusion_lat": 0.0, "type": "electric_scooter", "name": "515bdfde013edf95bc7acd65ace90498", "is_disabled": 0, "bike_id": "515bdfde013edf95bc7acd65ace90498", "lon": -77.01157566666667, "rental_uris": {"android": "https://dc.lft.to/lastmile_qr_scan", "ios": "https://dc.lft.to/lastmile_qr_scan"}, "fusion_lon": 0.0, "is_reserved": 0}, {"lat": 38.923073333333335, "fusion_lat": 0.0, "type": "electric_scooter", "name": "6b93a2ad266f73feba16e862ba12a7af", "is_disabled": 0, "bike_id": "6b93a2ad266f73feba16e862ba12a7af", "lon": -77.042268, "rental_uris": {"android": "https://dc.lft.to/lastmile_qr_scan", "ios": "https://dc.lft.to/lastmile_qr_scan"}, "fusion_lon": 0.0, "is_reserved": 0}, {"lat": 38.91415683333334, "fusion_lat": 0.0, "type": "electric_scooter", "name": "83cca302f7734b938e6d75fd19d9ba86", "is_disabled": 0, "bike_id": "83cca302f7734b938e6d75fd19d9ba86", "lon": -77.0221365, "rental_uris": {"android": "https://dc.lft.to/lastmile_qr_scan", "ios": "https://dc.lft.to/lastmile_qr_scan"}, "fusion_lon": 0.0, "is_reserved": 0}, {"lat": 38.873771166666664, "fusion_lat": 0.0, "type": "electric_scooter", "name": "8d723bdf72b7cbb6a77743756c3e4775", "is_disabled": 0, "bike_id": "8d723bdf72b7cbb6a77743756c3e4775", "lon": -77.0011625, "rental_uris": {"android": "https://dc.lft.to/lastmile_qr_scan", "ios": "https://dc.lft.to/lastmile_qr_scan"}, "fusion_lon": 0.0, "is_reserved": 0}, {"lat": 38.9013515, "fusion_lat": 0.0, "type": "electric_scooter", "name": "709684fa45b1ba99082887bd2ec1c392", "is_disabled": 0, "bike_id": "709684fa45b1ba99082887bd2ec1c392", "lon": -77.04157933333333, "rental_uris": {"android": "https://dc.lft.to/lastmile_qr_scan", "ios": "https://dc.lft.to/lastmile_qr_scan"}, "fusion_lon": 0.0, "is_reserved": 0}, {"lat": 38.92421683333333, "fusion_lat": 0.0, "type": "electric_scooter", "name": "74cdd890b797002c911e8f0b392a8b9e", "is_disabled": 0, "bike_id": "74cdd890b797002c911e8f0b392a8b9e", "lon": -77.01941766666667, "rental_uris": {"android": "https://dc.lft.to/lastmile_qr_scan", "ios": "https://dc.lft.to/lastmile_qr_scan"}, "fusion_lon": 0.0, "is_reserved": 0}, {"lat": 38.925385666666664, "fusion_lat": 0.0, "type": "electric_scooter", "name": "d96acd4e39fae8c647154e60c4966560", "is_disabled": 0, "bike_id": "d96acd4e39fae8c647154e60c4966560", "lon": -77.03528066666667, "rental_uris": {"android": "https://dc.lft.to/lastmile_qr_scan", "ios": "https://dc.lft.to/lastmile_qr_scan"}, "fusion_lon": 0.0, "is_reserved": 0}, {"lat": 38.9052615, "fusion_lat": 0.0, "type": "electric_scooter", "name": "f4ae10aef7cee5ceeee6c8fe0ed5d5a5", "is_disabled": 0, "bike_id": "f4ae10aef7cee5ceeee6c8fe0ed5d5a5", "lon": -77.06099733333333, "rental_uris": {"android": "https://dc.lft.to/lastmile_qr_scan", "ios": "https://dc.lft.to/lastmile_qr_scan"}, "fusion_lon": 0.0, "is_reserved": 0}, {"lat": 38.911967833333335, "fusion_lat": 0.0, "type": "electric_scooter", "name": "77afb9e0e61cd33dd6c22a973e447cc6", "is_disabled": 0, "bike_id": "77afb9e0e61cd33dd6c22a973e447cc6", "lon": -77.04542116666667, "rental_uris": {"android": "https://dc.lft.to/lastmile_qr_scan", "ios": "https://dc.lft.to/lastmile_qr_scan"}, "fusion_lon": 0.0, "is_reserved": 0}, {"lat": 38.83771983333333, "fusion_lat": 0.0, "type": "electric_bike", "name": "62e7d90ee924ee5329eb9cc01dc89576", "is_disabled": 0, "bike_id": "62e7d90ee924ee5329eb9cc01dc89576", "lon": -77.04991416666667, "rental_uris": {"android": "https://dc.lft.to/lastmile_qr_scan", "ios": "https://dc.lft.to/lastmile_qr_scan"}, "fusion_lon": 0.0, "is_reserved": 0}, {"lat": 38.91707783333333, "fusion_lat": 0.0, "type": "electric_scooter", "name": "4ee01b2d81a6f13c92635a65e9a1d8d0", "is_disabled": 0, "bike_id": "4ee01b2d81a6f13c92635a65e9a1d8d0", "lon": -77.0283905, "rental_uris": {"android": "https://dc.lft.to/lastmile_qr_scan", "ios": "https://dc.lft.to/lastmile_qr_scan"}, "fusion_lon": 0.0, "is_reserved": 0}, {"lat": 38.905076333333334, "fusion_lat": 0.0, "type": "electric_scooter", "name": "4051442d6b3406efe5d9b1761a1b6801", "is_disabled": 0, "bike_id": "4051442d6b3406efe5d9b1761a1b6801", "lon": -77.06496683333333, "rental_uris": {"android": "https://dc.lft.to/lastmile_qr_scan", "ios": "https://dc.lft.to/lastmile_qr_scan"}, "fusion_lon": 0.0, "is_reserved": 0},