{"data": {"bikes": [{"is_disabled": 0, "is_reserved": 0, "fusion_lat": 0.0, "lat": 38.91453116666667, "fusion_lon": 0.0, "rental_uris": {"ios": "https://dc.lft.to/lastmile_qr_scan", "android": "https://dc.lft.to/lastmile_qr_scan"}, "lon": -77.00883966666666, "bike_id": "2bc5f2ce24953b36af4549ec76d77287", "type": "electric_scooter", "name": "2bc5f2ce24953b36af4549ec76d77287"}, {"is_disabled": 0, "is_reserved": 0, "fusion_lat": 0.0, "lat": 38.905675, "fusion_lon": 0.0, "rental_uris": {"ios": "https://dc.lft.to/lastmile_qr_scan", "android": "https://dc.lft.to/lastmile_qr_scan"}, "lon": -77.02770816666667, "bike_id": "502f46057c18a8b412ca7a5040894e95", "type": "electric_scooter", "name": "502f46057c18a8b412ca7a5040894e95"}, {"is_disabled": 0, "is_reserved": 0, "fusion_lat": 0.0, "lat": 38.88154566666667, "fusion_lon": 0.0, "rental_uris": {"ios": "https://dc.lft.to/lastmile_qr_scan", "android": "https://dc.lft.to/lastmile_qr_scan"}, "lon": -77.01318733333333, "bike_id": "d0dd2778960b504b3bf1c7ad2f671681", "type": "electric_scooter", "name": "d0dd2778960b504b3bf1c7ad2f671681"}, {"is_disabled": 0, "is_reserved": 0, "fusion_lat": 0.0, "lat": 38.92241383333333, "fusion_lon": 0.0, "rental_uris": {"ios": "https://dc.lft.to/lastmile_qr_scan", "android": "https://dc.lft.to/lastmile_qr_scan"}, "lon": -77.03884366666666, "bike_id": "308511186e3e6432d2952dc01713112c", "type": "electric_scooter", "name": "308511186e3e6432d2952dc01713112c"}, {"is_disabled": 0, "is_reserved": 0, "fusion_lat": 0.0, "lat": 38.8963855, "fusion_lon": 0.0, "rental_uris": {"ios": "https://dc.lft.to/lastmile_qr_scan", "android": "https://dc.lft.to/lastmile_qr_scan"}, "lon": -76.93930016666667, "bike_id": "28e5a0241017b7d5bf604eb29ea9fd13", "type": "electric_scooter", "name": "28e5a0241017b7d5bf604eb29ea9fd13"}, {"is_disabled": 0, "is_reserved": 0, "fusion_lat": 0.0, "lat": 38.95071883333333, "fusion_lon": 0.0, "rental_uris": {"ios": "https://dc.lft.to/lastmile_qr_scan", "android": "https://dc.lft.to/lastmile_qr_scan"}, "lon": -76.99604833333333, "bike_id": "20b9e88f96298510e9b31db475f2868b", "type": "electric_bike", "name": "20b9e88f96298510e9b31db475f2868b"}, {"is_disabled": 0, "is_reserved": 0, "fusion_lat": 0.0, "lat": 38.95331616666667, "fusion_lon": 0.0, "rental_uris": {"ios": "https://dc.lft.to/lastmile_qr_scan", "android": "https://dc.lft.to/lastmile_qr_scan"}, "lon": -76.98246883333333, "bike_id": "d2e587e86c943d18f348b6e0cede145d", "type": "electric_bike", "name": "d2e587e86c943d18f348b6e0cede145d"}, {"is_disabled": 0, "is_reserved": 0, "fusion_lat": 0.0, "lat": 38.898281833333336, "fusion_lon": 0.0, "rental_uris": {"ios": "https://dc.lft.to/lastmile_qr_scan", "android": "https://dc.lft.to/lastmile_qr_scan"}, "lon": -77.04653033333334, "bike_id": "fbb1590cc363560aa284a8befdf7240f", "type": "electric_scooter", "name": "fbb1590cc363560aa284a8befdf7240f"}, {"is_disabled": 0, "is_reserved": 0, "fusion_lat": 0.0, "lat": 38.90966216666666, "fusion_lon": 0.0, "rental_uris": {"ios": "https://dc.lft.to/lastmile_qr_scan", "android": "https://dc.lft.to/lastmile_qr_scan"}, "lon": -77.0221565, "bike_id": "8c9f77b8f9dc4a9ae19358d8665d66eb", "type": "electric_scooter", "name": "8c9f77b8f9dc4a9ae19358d8665d66eb"}, {"is_disabled": 0, "is_reserved": 0, "fusion_lat": 0.0, "lat": 38.89751116666667, "fusion_lon": 0.0, "rental_uris": {"ios": "https://dc.lft.to/lastmile_qr_scan", "android": "https://dc.lft.to/lastmile_qr_scan"}, "lon": -77.05482833333333, "bike_id": "9340eadb14e800ccfa9bccd551532f9b", "type": "electric_scooter", "name": "9340eadb14e800ccfa9bccd551532f9b"}, {"is_disabled": 0, "is_reserved": 0, "fusion_lat": 0.0, "lat": 38.91885683333334, "fusion_lon": 0.0, "rental_uris": {"ios": "https://dc.lft.to/lastmile_qr_scan", "android": "https://dc.lft.to/lastmile_qr_scan"}, "lon": -77.04178983333334, "bike_id": "ac4f3f8c18a19ae2a9dcbcfbb14b5384", "type": "electric_scooter", "name": "ac4f3f8c18a19ae2a9dcbcfbb14b5384"}, {"is_disabled": 0, "is_reserved": 0, "fusion_lat": 0.0, "lat": 38.92154466666667, "fusion_lon": 0.0, "rental_uris": {"ios": "https://dc.lft.to/lastmile_qr_scan", "android": "https://dc.lft.to/lastmile_qr_scan"}, "lon": -77.0365615, "bike_id": "e9bed0509accd4e5801332550c3c0be0", "type": "electric_scooter", "name": "e9bed0509accd4e5801332550c3c0be0"}, {"is_disabled": 0, "is_reserved": 0, "fusion_lat": 0.0, "lat": 38.908033833333334, "fusion_lon": 0.0, "rental_uris": {"ios": "https://dc.lft.to/lastmile_qr_scan", "android": "https://dc.lft.to/lastmile_qr_scan"}, "lon": -77.03843183333333, "bike_id": "7b283db57c2808f8ac7ed801d9681dbd", "type": "electric_scooter", "name": "7b283db57c2808f8ac7ed801d9681dbd"}, {"is_disabled": 0, "is_reserved": 0, "fusion_lat": 0.0, "lat": 38.9066595, "fusion_lon": 0.0, "rental_uris": {"ios": "https://dc.lft.to/lastmile_qr_scan", "android": "https://dc.lft.to/lastmile_qr_scan"}, "lon": -77.02951316666666, "bike_id": "2967cb6a576e4acbc996dad715b23c2c", "type": "electric_scooter", "name": "2967cb6a576e4acbc996dad715b23c2c"}, {"is_disabled": 0, "is_reserved": 0, "fusion_lat": 0.0, "lat": 38.901847833333335, "fusion_lon": 0.0, "rental_uris": {"ios": "https://dc.lft.to/lastmile_qr_scan", "android": "https://dc.lft.to/lastmile_qr_scan"}, "lon": -77.00218133333334, "bike_id": "875111582a66d961c615fd509d9b6e77", "type": "electric_scooter", "name": "875111582a66d961c615fd509d9b6e77"}, {"is_disabled": 0, "is_reserved": 0, "fusion_lat": 0.0, "lat": 38.92353383333333, "fusion_lon": 0.0, "rental_uris": {"ios": "https://dc.lft.to/lastmile_qr_scan", "android": "https://dc.lft.to/lastmile_qr_scan"}, "lon": -77.05275333333333, "bike_id": "a01f2e5f2e42393c5a46bed57ce2531d", "type": "electric_scooter", "name": "a01f2e5f2e42393c5a46bed57ce2531d"}, {"is_disabled": 0, "is_reserved": 0, "fusion_lat": 0.0, "lat": 38.893403, "fusion_lon": 0.0, "rental_uris": {"ios": "https://dc.lft.to/lastmile_qr_scan", "android": "https://dc.lft.to/lastmile_qr_scan"}, "lon": -76.993833, "bike_id": "775f166ec432bc96044ca923268135a0", "type": "electric_scooter", "name": "775f166ec432bc96044ca923268135a0"}, {"is_disabled": 0, "is_reserved": 0, "fusion_lat": 0.0, "lat": 38.8409995, "fusion_lon": 0.0, "rental_uris": {"ios": "https://dc.lft.to/lastmile_qr_scan", "android": "https://dc.lft.to/lastmile_qr_scan"}, "lon": -76.98711983333334, "bike_id": "a457253dc4b22cd1b9b705ac202fe7b4", "type": "electric_bike", "name": "a457253dc4b22cd1b9b705ac202fe7b4"}, {"is_disabled": 0, "is_reserved": 0, "fusion_lat": 0.0, "lat": 38.89281866666666, "fusion_lon": 0.0, "rental_uris": {"ios": "https://dc.lft.to/lastmile_qr_scan", "android": "https://dc.lft.to/lastmile_qr_scan"}, "lon": -77.04506466666666, "bike_id": "3ae3a48ae2d3e52c8b8017f9e26eca67", "type": "electric_scooter", "name": "3ae3a48ae2d3e52c8b8017f9e26eca67"}, {"is_disabled": 0, "is_reserved": 0, "fusion_lat": 0.0, "lat": 38.910431, "fusion_lon": 0.0, "rental_uris": {"ios": "https://dc.lft.to/lastmile_qr_scan", "android": "https://dc.lft.to/lastmile_qr_scan"}, "lon": -76.99806716666667, "bike_id": "14ae817186402150112690f2bfc80ae2", "type": "electric_scooter", "name": "14ae817186402150112690f2bfc80ae2"}, {"is_disabled": 0, "is_reserved": 0, "fusion_lat": 0.0, "lat": 38.9183705, "fusion_lon": 0.0, "rental_uris": {"ios": "https://dc.lft.to/lastmile_qr_scan", "android": "https://dc.lft.to/lastmile_qr_scan"}, "lon": -77.05315333333333, "bike_id": "43a4692eb34a5eee89d6bc421ed04b52", "type": "electric_scooter", "name": "43a4692eb34a5eee89d6bc421ed04b52"}, {"is_disabled": 0, "is_reserved": 0, "fusion_lat": 0.0, "lat": 38.92421933333333, "fusion_lon": 0.0, "rental_uris": {"ios": "https://dc.lft.to/lastmile_qr_scan", "android": "https://dc.lft.to/lastmile_qr_scan"}, "lon": -77.0575075, "bike_id": "723f61fc3cc897eb7ea2972d1b209e33", "type": "electric_scooter", "name": "723f61fc3cc897eb7ea2972d1b209e33"}, {"is_disabled": 0, "is_reserved": 0, "fusion_lat": 0.0, "lat": 38.93459266666667, "fusion_lon": 0.0, "rental_uris": {"ios": "https://dc.lft.to/lastmile_qr_scan", "android": "https://dc.lft.to/lastmile_qr_scan"}, "lon": -77.0240165, "bike_id": "16dc3d9f42d0ead562f276d8f67aa6f7", "type": "electric_scooter", "name": "16dc3d9f42d0ead562f276d8f67aa6f7"}, {"is_disabled": 0, "is_reserved": 0, "fusion_lat": 0.0, "lat": 38.90561783333333, "fusion_lon": 0.0, "rental_uris": {"ios": "https://dc.lft.to/lastmile_qr_scan", "android": "https://dc.lft.to/lastmile_qr_scan"}, "lon": -77.0044165, "bike_id": "ec12c8d202fc2b93cb73121bff80df71", "type": "electric_scooter", "name": "ec12c8d202fc2b93cb73121bff80df71"}, {"is_disabled": 0, "is_reserved": 0, "fusion_lat": 0.0, "lat": 38.90873533333333, "fusion_lon": 0.0, "rental_uris": {"ios": "https://dc.lft.to/lastmile_qr_scan", "android": "https://dc.lft.to/lastmile_qr_scan"}, "lon": -77.03534216666667, "bike_id": "2110fd3c85cd5cda736889e7ad440674", "type": "electric_scooter", "name": "2110fd3c85cd5cda736889e7ad440674"}, {"is_disabled": 0, "is_reserved": 0, "fusion_lat": 0.0, "lat": 38.91274216666667, "fusion_lon": 0.0, "rental_uris": {"ios": "https://dc.lft.to/lastmile_qr_scan", "android": "https://dc.lft.to/lastmile_qr_scan"}, "lon": -77.04502166666667, "bike_id": "da956b8d325d689c50087ef32123e831", "type": "electric_scooter", "name": "da956b8d325d689c50087ef32123e831"}, {"is_disabled": 0, "is_reserved": 0, "fusion_lat": 0.0, "lat": 38.90441283333333, "fusion_lon": 0.0, "rental_uris": {"ios": "https://dc.lft.to/lastmile_qr_scan", "android": "https://dc.lft.to/lastmile_qr_scan"}, "lon": -77.02867183333333, "bike_id": "ab364fe963b2d68d864eed7a2aa8a627", "type": "electric_scooter", "name": "ab364fe963b2d68d864eed7a2aa8a627"}, {"is_disabled": 0, "is_reserved": 0, "fusion_lat": 0.0, "lat": 38.918976666666666, "fusion_lon": 0.0, "rental_uris": {"ios": "https://dc.lft.to/lastmile_qr_scan", "android": "https://dc.lft.to/lastmile_qr_scan"}, "lon": -77.0349835, "bike_id": "15d3276711da83ee166c1aeb07cac888", "type": "electric_scooter", "name": "15d3276711da83ee166c1aeb07cac888"}, {"is_disabled": 0, "is_reserved": 0, "fusion_lat": 0.0, "lat": 38.89425516666667, "fusion_lon": 0.0, "rental_uris": {"ios": "https://dc.lft.to/lastmile_qr_scan", "android": "https://dc.lft.to/lastmile_qr_scan"}, "lon": -77.05597733333333, "bike_id": "313faa0466de4a80802c8efd7b136f82", "type": "electric_scooter", "name": "313faa0466de4a80802c8efd7b136f82"}, {"is_disabled": 0, "is_reserved": 0, "fusion_lat": 0.0, "lat": 38.960291, "fusion_lon": 0.0, "rental_uris": {"ios": "https://dc.lft.to/lastmile_qr_scan", "android": "https://dc.lft.to/lastmile_qr_scan"}, "lon": -77.03389233333333, "bike_id": "bf8d383cebd7d65f05352b12efc4449d", "type": "electric_bike", "name": "bf8d383cebd7d65f05352b12efc4449d"}, {"is_disabled": 0, "is_reserved": 0, "fusion_lat": 0.0, "lat": 38.9207375, "fusion_lon": 0.0, "rental_uris": {"ios": "https://dc.lft.to/lastmile_qr_scan", "android": "https://dc.lft.to/lastmile_qr_scan"}, "lon": -77.02565416666667, "bike_id": "7ccee15e058f63df1558b565a3261097", "type": "electric_scooter", "name": "7ccee15e058f63df1558b565a3261097"}, {"is_disabled": 0, "is_reserved": 0, "fusion_lat": 0.0, "lat": 38.895029666666666, "fusion_lon": 0.0, "rental_uris": {"ios": "https://dc.lft.to/lastmile_qr_scan", "android": "https://dc.lft.to/lastmile_qr_scan"}, "lon": -77.02278533333333, "bike_id": "8d0b8b6e18117614cba8465a198096c2", "type": "electric_scooter", "name": "8d0b8b6e18117614cba8465a198096c2"}, {"is_disabled": 0, "is_reserved": 0, "fusion_lat": 0.0, "lat": 38.82430266666667, "fusion_lon": 0.0, "rental_uris": {"ios": "https://dc.lft.to/lastmile_qr_scan", "android": "https://dc.lft.to/lastmile_qr_scan"}, "lon": -77.12039683333333, "bike_id": "d49a5249313d1bdaf5d88c1a62c80ed0", "type": "electric_bike", "name": "d49a5249313d1bdaf5d88c1a62c80ed0"}, {"is_disabled": 0, "is_reserved": 0, "fusion_lat": 0.0, "lat": 38.865654666666664, "fusion_lon": 0.0, "rental_uris": {"ios": "https://dc.lft.to/lastmile_qr_scan", "android": "https://dc.lft.to/lastmile_qr_scan"}, "lon": -76.97471133333333, "bike_id": "2743d538c71f90ac914b8754038ee2e1", "type": "electric_bike", "name": "2743d538c71f90ac914b8754038ee2e1"}, {"is_disabled": 0, "is_reserved": 0, "fusion_lat": 0.0, "lat": 38.929455833333336, "fusion_lon": 0.0, "rental_uris": {"ios": "https://dc.lft.to/lastmile_qr_scan", "android": "https://dc.lft.to/lastmile_qr_scan"}, "lon": -77.05492683333334, "bike_id": "de3a57400310228b6089d9751dfcc3b9", "type": "electric_scooter", "name": "de3a57400310228b6089d9751dfcc3b9"}, {"is_disabled": 0, "is_reserved": 0, "fusion_lat": 0.0, "lat": 38.8563975, "fusion_lon": 0.0, "rental_uris": {"ios": "https://dc.lft.to/lastmile_qr_scan", "android": "https://dc.lft.to/lastmile_qr_scan"}, "lon": -77.068347, "bike_id": "9a52e5e5a088bdd11d040b4db28d2308", "type": "electric_bike", "name": "9a52e5e5a088bdd11d040b4db28d2308"}, {"is_disabled": 0, "is_reserved": 0, "fusion_lat": 0.0, "lat": 38.88222566666666, "fusion_lon": 0.0, "rental_uris": {"ios": "https://dc.lft.to/lastmile_qr_scan", "android": "https://dc.lft.to/lastmile_qr_scan"}, "lon": -76.99732083333333, "bike_id": "70d7426bfc644c1a455dfd2e06584d76", "type": "electric_scooter", "name": "70d7426bfc644c1a455dfd2e06584d76"}, {"is_disabled": 0, "is_reserved": 0, "fusion_lat": 0.0, "lat": 38.898964166666666, "fusion_lon": 0.0, "rental_uris": {"ios": "https://dc.lft.to/lastmile_qr_scan", "android": "https://dc.lft.to/lastmile_qr_scan"}, "lon": -77.02157333333334, "bike_id": "0e32e277bf49eb1c4bf24dacfa619db0", "type": "electric_scooter", "name": "0e32e277bf49eb1c4bf24dacfa619db0"}, {"is_disabled": 0, "is_reserved": 0, "fusion_lat": 0.0, "lat": 38.94607516666667, "fusion_lon": 0.0, "rental_uris": {"ios": "https://dc.lft.to/lastmile_qr_scan", "android": "https://dc.lft.to/lastmile_qr_scan"}, "lon": -77.02667, "bike_id": "7dc321cc7ca2bc2f769dbe9e07e6f068", "type": "electric_scooter", "name": "7dc321cc7ca2bc2f769dbe9e07e6f068"}, {"is_disabled": 0, "is_reserved": 0, "fusion_lat": 0.0, "lat": 38.87589416666667, "fusion_lon": 0.0, "rental_uris": {"ios": "https://dc.lft.to/lastmile_qr_scan", "android": "https://dc.lft.to/lastmile_qr_scan"}, "lon": -77.00543066666667, "bike_id": "a28f217de66ecf36711a5939c15afc0d", "type": "electric_scooter", "name": "a28f217de66ecf36711a5939c15afc0d"}, {"is_disabled": 0, "is_reserved": 0, "fusion_lat": 0.0, "lat": 38.918341166666664, "fusion_lon": 0.0, "rental_uris": {"ios": "https://dc.lft.to/lastmile_qr_scan", "android": "https://dc.lft.to/lastmile_qr_scan"}, "lon": -77.02316866666666, "bike_id": "c22030985ce13273b4aac4832fded44e", "type": "electric_scooter", "name": "c22030985ce13273b4aac4832fded44e"}, {"is_disabled": 0, "is_reserved": 0, "fusion_lat": 0.0, "lat": 38.89889333333333, "fusion_lon": 0.0, "rental_uris": {"ios": "https://dc.lft.to/lastmile_qr_scan", "android": "https://dc.lft.to/lastmile_qr_scan"}, "lon": -77.0196605, "bike_id": "65572a44a1932f1974d8cfdfdb2a6198", "type": "electric_scooter", "name": "65572a44a1932f1974d8cfdfdb2a6198"}, {"is_disabled": 0, "is_reserved": 0, "fusion_lat": 0.0, "lat": 38.909636666666664, "fusion_lon": 0.0, "rental_uris": {"ios": "https://dc.lft.to/lastmile_qr_scan", "android": "https://dc.lft.to/lastmile_qr_scan"}, "lon": -77.02576616666667, "bike_id": "9565f1681b8d93ce8fe281e831ab9337", "type": "electric_scooter", "name": "9565f1681b8d93ce8fe281e831ab9337"}, {"is_disabled": 0, "is_reserved": 0, "fusion_lat": 0.0, "lat": 38.88709333333333, "fusion_lon": 0.0, "rental_uris": {"ios": "https://dc.lft.to/lastmile_qr_scan", "android": "https://dc.lft.to/lastmile_qr_scan"}, "lon": -76.98340083333333, "bike_id": "935bcc11092975190f00e390dd484537", "type": "electric_scooter", "name": "935bcc11092975190f00e390dd484537"}, {"is_disabled": 0, "is_reserved": 0, "fusion_lat": 0.0, "lat": 38.846204, "fusion_lon": 0.0, "rental_uris": {"ios": "https://dc.lft.to/lastmile_qr_scan", "android": "https://dc.lft.to/lastmile_qr_scan"}, "lon": -76.97839916666666, "bike_id": "5cef8508cebe3a3d29a0ea966ac23a3a", "type": "electric_bike", "name": "5cef8508cebe3a3d29a0ea966ac23a3a"}, {"is_disabled": 0, "is_reserved": 0, "fusion_lat": 0.0, "lat": 38.88026033333333, "fusion_lon": 0.0, "rental_uris": {"ios": "https://dc.lft.to/lastmile_qr_scan", "android": "https://dc.lft.to/lastmile_qr_scan"}, "lon": -76.94324583333334, "bike_id": "eb562d7231ea1fe2f0f5e21ae6e08141", "type": "electric_scooter", "name": "eb562d7231ea1fe2f0f5e21ae6e08141"}, {"is_disabled": 0, "is_reserved": 0, "fusion_lat": 0.0, "lat": 38.90645933333333, "fusion_lon": 0.0, "rental_uris": {"ios": "https://dc.lft.to/lastmile_qr_scan", "android": "https://dc.lft.to/lastmile_qr_scan"}, "lon": -77.0702175, "bike_id": "0986dcfc23ce8266beb3e9f85bb6ca07", "type": "electric_scooter", "name": "0986dcfc23ce8266beb3e9f85bb6ca07"}, {"is_disabled": 0, "is_reserved": 0, "fusion_lat": 0.0, "lat": 38.846499666666666, "fusion_lon": 0.0, "rental_uris": {"ios": "https://dc.lft.to/lastmile_qr_scan", "android": "https://dc.lft.to/lastmile_qr_scan"}, "lon": -77.00371983333334, "bike_id": "6ad310264604348fd9a01a1da8cd9210", "type": "electric_scooter", "name": "6ad310264604348fd9a01a1da8cd9210"}, {"is_disabled": 0, "is_reserved": 0, "fusion_lat": 0.0, "lat": 38.900402, "fusion_lon": 0.0, "rental_uris": {"ios": "https://dc.lft.to/lastmile_qr_scan", "android": "https://dc.lft.to/lastmile_qr_scan"}, "lon": -77.01792733333333, "bike_id": "a715c5c427df7accb127379cd7994b23", "type": "electric_scooter", "name": "a715c5c427df7accb127379cd7994b23"}, {"is_disabled": 0, "is_reserved": 0, "fusion_lat": 0.0, "lat": 38.898181, "fusion_lon": 0.0, "rental_uris": {"ios": "https://dc.lft.to/lastmile_qr_scan", "android": "https://dc.lft.to/lastmile_qr_scan"}, "lon": -77.002135, "bike_id": "3e015f6fe40db140ec4638326af6666a", "type": "electric_scooter", "name": "3e015f6fe40db140ec4638326af6666a"}, {"is_disabled": 0, "is_reserved": 0, "fusion_lat": 0.0, "lat": 38.89253083333333, "fusion_lon": 0.0, "rental_uris": {"ios": "https://dc.lft.to/lastmile_qr_scan", "android": "https://dc.lft.to/lastmile_qr_scan"}, "lon": -77.03956566666666, "bike_id": "db48e35c6d97e3bc32562842ca1eafed", "type": "electric_scooter", "name": "db48e35c6d97e3bc32562842ca1eafed"}, {"is_disabled": 0, "is_reserved": 0, "fusion_lat": 0.0, "lat": 38.92441933333333, "fusion_lon": 0.0, "rental_uris": {"ios": "https://dc.lft.to/lastmile_qr_scan", "android": "https://dc.lft.to/lastmile_qr_scan"}, "lon": -77.034052, "bike_id": "21f828a65889fae66f5c8a54df918611", "type": "electric_scooter", "name": "21f828a65889fae66f5c8a54df918611"}, {"is_disabled": 0, "is_reserved": 0, "fusion_lat": 0.0, "lat": 38.942017, "fusion_lon": 0.0, "rental_uris": {"ios": "https://dc.lft.to/lastmile_qr_scan", "android": "https://dc.lft.to/lastmile_qr_scan"}, "lon": -77.02565166666666, "bike_id": "15bd83da44540b9bec389fa29e9a4015", "type": "electric_scooter", "name": "15bd83da44540b9bec389fa29e9a4015"}, {"is_disabled": 0, "is_reserved": 0, "fusion_lat": 0.0, "lat": 38.92068366666667, "fusion_lon": 0.0, "rental_uris": {"ios": "https://dc.lft.to/lastmile_qr_scan", "android": "https://dc.lft.to/lastmile_qr_scan"}, "lon": -77.02566983333334, "bike_id": "244592033fd4851364392c0336504edf", "type": "electric_scooter", "name": "244592033fd4851364392c0336504edf"}, {"is_disabled": 0, "is_reserved": 0, "fusion_lat": 0.0, "lat": 38.917758666666664, "fusion_lon": 0.0, "rental_uris": {"ios": "https://dc.lft.to/lastmile_qr_scan", "android": "https://dc.lft.to/lastmile_qr_scan"}, "lon": -77.0235405, "bike_id": "47bb247d644784b2671de47ffe7bde08", "type": "electric_scooter", "name": "47bb247d644784b2671de47ffe7bde08"}, {"is_disabled": 0, "is_reserved": 0, "fusion_lat": 0.0, "lat": 38.895053833333336, "fusion_lon": 0.0, "rental_uris": {"ios": "https://dc.lft.to/lastmile_qr_scan", "android": "https://dc.lft.to/lastmile_qr_scan"}, "lon": -77.03961916666667, "bike_id": "f09eef3f154a21a90b26a648720a99c6", "type": "electric_scooter", "name": "f09eef3f154a21a90b26a648720a99c6"}, {"is_disabled": 0, "is_reserved": 0, "fusion_lat": 0.0, "lat": 38.906524, "fusion_lon": 0.0, "rental_uris": {"ios": "https://dc.lft.to/lastmile_qr_scan", "android": "https://dc.lft.to/lastmile_qr_scan"}, "lon": -77.01170783333333, "bike_id": "33562ae7d8619b4b704efab9c428fee1", "type": "electric_scooter", "name": "33562ae7d8619b4b704efab9c428fee1"}, {"is_disabled": 0, "is_reserved": 0, "fusion_lat": 0.0, "lat": 38.914849833333335, "fusion_lon": 0.0, "rental_uris": {"ios": "https://dc.lft.to/lastmile_qr_scan", "android": "https://dc.lft.to/lastmile_qr_scan"}, "lon": -77.0494365, "bike_id": "fc8eea688135715e9b44f7ec78fe695c", "type": "electric_scooter", "name": "fc8eea688135715e9b44f7ec78fe695c"}, {"is_disabled": 0, "is_reserved": 0, "fusion_lat": 0.0, "lat": 38.943653833333336, "fusion_lon": 0.0, "rental_uris": {"ios": "https://dc.lft.to/lastmile_qr_scan", "android": "https://dc.lft.to/lastmile_qr_scan"}, "lon": -77.06109983333333, "bike_id": "95a12aeecbf2f7d093cb0cd1796bbb52", "type": "electric_scooter", "name": "95a12aeecbf2f7d093cb0cd1796bbb52"}, {"is_disabled": 0, "is_reserved": 0, "fusion_lat": 0.0, "lat": 38.935232666666664, "fusion_lon": 0.0, "rental_uris": {"ios": "https://dc.lft.to/lastmile_qr_scan", "android": "https://dc.lft.to/lastmile_qr_scan"}, "lon": -77.03818183333334, "bike_id": "9093392e6f1224ec808db313d85bec8e", "type": "electric_scooter", "name": "9093392e6f1224ec808db313d85bec8e"}, {"is_disabled": 0, "is_reserved": 0, "fusion_lat": 0.0, "lat": 38.96178033333333, "fusion_lon": 0.0, "rental_uris": {"ios": "https://dc.lft.to/lastmile_qr_scan", "android": "https://dc.lft.to/lastmile_qr_scan"}, "lon": -77.0322955, "bike_id": "9768bdce26cea00e161401d595510180", "type": "electric_scooter", "name": "9768bdce26cea00e161401d595510180"}, {"is_disabled": 0, "is_reserved": 0, "fusion_lat": 0.0, "lat": 38.89409283333333, "fusion_lon": 0.0, "rental_uris": {"ios": "https://dc.lft.to/lastmile_qr_scan", "android": "https://dc.lft.to/lastmile_qr_scan"}, "lon": -77.02141383333333, "bike_id": "26d0635821a2e09128a3d156c0a65d9d", "type": "electric_scooter", "name": "26d0635821a2e09128a3d156c0a65d9d"}, {"is_disabled": 0, "is_reserved": 0, "fusion_lat": 0.0, "lat": 38.93702033333334, "fusion_lon": 0.0, "rental_uris": {"ios": "https://dc.lft.to/lastmile_qr_scan", "android": "https://dc.lft.to/lastmile_qr_scan"}, "lon": -77.056815, "bike_id": "7f095b67de5510f7ea7e031b8242eeb5", "type": "electric_scooter", "name": "7f095b67de5510f7ea7e031b8242eeb5"}, {"is_disabled": 0, "is_reserved": 0, "fusion_lat": 0.0, "lat": 38.9497755, "fusion_lon": 0.0, "rental_uris": {"ios": "https://dc.lft.to/lastmile_qr_scan", "android": "https://dc.lft.to/lastmile_qr_scan"}, "lon": -77.02445366666667, "bike_id": "6bd84d51ce570d5356d8c411cf5be39a", "type": "electric_scooter", "name": "6bd84d51ce570d5356d8c411cf5be39a"}, {"is_disabled": 0, "is_reserved": 0, "fusion_lat": 0.0, "lat": 38.9245085, "fusion_lon": 0.0, "rental_uris": {"ios": "https://dc.lft.to/lastmile_qr_scan", "android": "https://dc.lft.to/lastmile_qr_scan"}, "lon": -77.03298783333334, "bike_id": "d7912fd83e4dae44616f84625d248b04", "type": "electric_scooter", "name": "d7912fd83e4dae44616f84625d248b04"}, {"is_disabled": 0, "is_reserved": 0, "fusion_lat": 0.0, "lat": 38.911313166666666, "fusion_lon": 0.0, "rental_uris": {"ios": "https://dc.lft.to/lastmile_qr_scan", "android": "https://dc.lft.to/lastmile_qr_scan"}, "lon": -77.06568033333333, "bike_id": "0a488b1772f0348ef393d0431a314d75", "type": "electric_bike", "name": "0a488b1772f0348ef393d0431a314d75"}, {"is_disabled": 0, "is_reserved": 0, "fusion_lat": 0.0, "lat": 38.93218816666667, "fusion_lon": 0.0, "rental_uris": {"ios": "https://dc.lft.to/lastmile_qr_scan", "android": "https://dc.lft.to/lastmile_qr_scan"}, "lon": -77.0365395, "bike_id": "1485446ffa0dc024e7353875a38dcd0d", "type": "electric_scooter", "name": "1485446ffa0dc024e7353875a38dcd0d"}, {"is_disabled": 0, "is_reserved": 0, "fusion_lat": 0.0, "lat": 38.924511833333334, "fusion_lon": 0.0, "rental_uris": {"ios": "https://dc.lft.to/lastmile_qr_scan", "android": "https://dc.lft.to/lastmile_qr_scan"}, "lon": -77.03305166666667, "bike_id": "5f6efab80d0306c9bc27e2b00ef01968", "type": "electric_scooter", "name": "5f6efab80d0306c9bc27e2b00ef01968"}, {"is_disabled": 0, "is_reserved": 0, "fusion_lat": 0.0, "lat": 38.8953285, "fusion_lon": 0.0, "rental_uris": {"ios": "https://dc.lft.to/lastmile_qr_scan", "android": "https://dc.lft.to/lastmile_qr_scan"}, "lon": -76.94891733333333, "bike_id": "686e13b48024fb64212f42fb8be4743f", "type": "electric_scooter", "name": "686e13b48024fb64212f42fb8be4743f"}, {"is_disabled": 0, "is_reserved": 0, "fusion_lat": 0.0, "lat": 38.920876, "fusion_lon": 0.0, "rental_uris": {"ios": "https://dc.lft.to/lastmile_qr_scan", "android": "https://dc.lft.to/lastmile_qr_scan"}, "lon": -77.02364733333333, "bike_id": "160b1053cf135cac9594670d999894cc", "type": "electric_scooter", "name": "160b1053cf135cac9594670d999894cc"}, {"is_disabled": 0, "is_reserved": 0, "fusion_lat": 0.0, "lat": 38.94723833333333, "fusion_lon": 0.0, "rental_uris": {"ios": "https://dc.lft.to/lastmile_qr_scan", "android": "https://dc.lft.to/lastmile_qr_scan"}, "lon": -77.0235545, "bike_id": "f8cf4a97a6fd63a090c7a1cf2a566c52", "type": "electric_scooter", "name": "f8cf4a97a6fd63a090c7a1cf2a566c52"}, {"is_disabled": 0, "is_reserved": 0, "fusion_lat": 0.0, "lat": 38.91336416666667, "fusion_lon": 0.0, "rental_uris": {"ios": "https://dc.lft.to/lastmile_qr_scan", "android": "https://dc.lft.to/lastmile_qr_scan"}, "lon": -77.03124933333334, "bike_id": "bd97ce61541aba9444be27dd1f2946b7", "type": "electric_scooter", "name": "bd97ce61541aba9444be27dd1f2946b7"}, {"is_disabled": 0, "is_reserved": 0, "fusion_lat": 0.0, "lat": 38.9119895, "fusion_lon": 0.0, "rental_uris": {"ios": "https://dc.lft.to/lastmile_qr_scan", "android": "https://dc.lft.to/lastmile_qr_scan"}, "lon": -77.00193916666667, "bike_id": "a0e34fb8e53f8d1fe26b5aeb3009afc7", "type": "electric_scooter", "name": "a0e34fb8e53f8d1fe26b5aeb3009afc7"}, {"is_disabled": 0, "is_reserved": 0, "fusion_lat": 0.0, "lat": 38.9191425, "fusion_lon": 0.0, "rental_uris": {"ios": "https://dc.lft.to/lastmile_qr_scan", "android": "https://dc.lft.to/lastmile_qr_scan"}, "lon": -77.03444866666666, "bike_id": "25c6be0cd89c3b2d16303a7ea8d21ea0", "type": "electric_scooter", "name": "25c6be0cd89c3b2d16303a7ea8d21ea0"}, {"is_disabled": 0, "is_reserved": 0, "fusion_lat": 0.0, "lat": 38.904023333333335, "fusion_lon": 0.0, "rental_uris": {"ios": "https://dc.lft.to/lastmile_qr_scan", "android": "https://dc.lft.to/lastmile_qr_scan"}, "lon": -77.02486216666667, "bike_id": "b69649832cb9deeb6a77a5817bca207e", "type": "electric_scooter", "name": "b69649832cb9deeb6a77a5817bca207e"}, {"is_disabled": 0, "is_reserved": 0, "fusion_lat": 0.0, "lat": 38.920462666666666, "fusion_lon": 0.0, "rental_uris": {"ios": "https://dc.lft.to/lastmile_qr_scan", "android": "https://dc.lft.to/lastmile_qr_scan"}, "lon": -77.03382283333333, "bike_id": "04483f5f349222126d2196e394f5e12e", "type": "electric_scooter", "name": "04483f5f349222126d2196e394f5e12e"}, {"is_disabled": 0, "is_reserved": 0, "fusion_lat": 0.0, "lat": 38.9242315, "fusion_lon": 0.0, "rental_uris": {"ios": "https://dc.lft.to/lastmile_qr_scan", "android": "https://dc.lft.to/lastmile_qr_scan"}, "lon": -77.02296483333333, "bike_id": "ec0a64004e2c385793d8674a9edd767d", "type": "electric_scooter", "name": "ec0a64004e2c385793d8674a9edd767d"}, {"is_disabled": 0, "is_reserved": 0, "fusion_lat": 0.0, "lat": 38.90378033333333, "fusion_lon": 0.0, "rental_uris": {"ios": "https://dc.lft.to/lastmile_qr_scan", "android": "https://dc.lft.to/lastmile_qr_scan"}, "lon": -77.016621, "bike_id": "8757c74a9b62cc9b05400a6c451d01c6", "type": "electric_scooter", "name": "8757c74a9b62cc9b05400a6c451d01c6"}, {"is_disabled": 0, "is_reserved": 0, "fusion_lat": 0.0, "lat": 38.9181915, "fusion_lon": 0.0, "rental_uris": {"ios": "https://dc.lft.to/lastmile_qr_scan", "android": "https://dc.lft.to/lastmile_qr_scan"}, "lon": -77.02524983333333, "bike_id": "f317c9017d41ece78d86bf971ea3f0d0", "type": "electric_scooter", "name": "f317c9017d41ece78d86bf971ea3f0d0"}, {"is_disabled": 0, "is_reserved": 0, "fusion_lat": 0.0, "lat": 38.926004, "fusion_lon": 0.0, "rental_uris": {"ios": "https://dc.lft.to/lastmile_qr_scan", "android": "https://dc.lft.to/lastmile_qr_scan"}, "lon": -77.02499666666667, "bike_id": "e9f57673d26dc265081572fe16b8702b", "type": "electric_scooter", "name": "e9f57673d26dc265081572fe16b8702b"}, {"is_disabled": 0, "is_reserved": 0, "fusion_lat": 0.0, "lat": 38.926549, "fusion_lon": 0.0, "rental_uris": {"ios": "https://dc.lft.to/lastmile_qr_scan", "android": "https://dc.lft.to/lastmile_qr_scan"}, "lon": -77.024329, "bike_id": "b35da498ecb0f30c3ab4e22ad45b9e7e", "type": "electric_scooter", "name": "b35da498ecb0f30c3ab4e22ad45b9e7e"}, {"is_disabled": 0, "is_reserved": 0, "fusion_lat": 0.0, "lat": 38.919430166666665, "fusion_lon": 0.0, "rental_uris": {"ios": "https://dc.lft.to/lastmile_qr_scan", "android": "https://dc.lft.to/lastmile_qr_scan"}, "lon": -77.01395683333334, "bike_id": "41a03d4f0b8f25557e9703f1e57e0492", "type": "electric_scooter", "name": "41a03d4f0b8f25557e9703f1e57e0492"}, {"is_disabled": 0, "is_reserved": 0, "fusion_lat": 0.0, "lat": 38.92134516666667, "fusion_lon": 0.0, "rental_uris": {"ios": "https://dc.lft.to/lastmile_qr_scan", "android": "https://dc.lft.to/lastmile_qr_scan"}, "lon": -77.045665, "bike_id": "244055879936e0cd342a881c1649eb56", "type": "electric_scooter", "name": "244055879936e0cd342a881c1649eb56"}, {"is_disabled": 0, "is_reserved": 0, "fusion_lat": 0.0, "lat": 38.967972, "fusion_lon": 0.0, "rental_uris": {"ios": "https://dc.lft.to/lastmile_qr_scan", "android": "https://dc.lft.to/lastmile_qr_scan"}, "lon": -77.025574, "bike_id": "8b07ca0db3567cd3c3951647ea6f5cee", "type": "electric_scooter", "name": "8b07ca0db3567cd3c3951647ea6f5cee"}, {"is_disabled": 0, "is_reserved": 0, "fusion_lat": 0.0, "lat": 38.904451333333334, "fusion_lon": 0.0, "rental_uris": {"ios": "https://dc.lft.to/lastmile_qr_scan", "android": "https://dc.lft.to/lastmile_qr_scan"}, "lon": -77.03101866666667, "bike_id": "21c37e10d8a3e90102a06fc3378168b5", "type": "electric_scooter", "name": "21c37e10d8a3e90102a06fc3378168b5"}, {"is_disabled": 0, "is_reserved": 0, "fusion_lat": 0.0, "lat": 38.905216, "fusion_lon": 0.0, "rental_uris": {"ios": "https://dc.lft.to/lastmile_qr_scan", "android": "https://dc.lft.to/lastmile_qr_scan"}, "lon": -77.00702733333334, "bike_id": "7eac509fc9e436cbf57df80e2e78f070", "type": "electric_scooter", "name": "7eac509fc9e436cbf57df80e2e78f070"}, {"is_disabled": 0, "is_reserved": 0, "fusion_lat": 0.0, "lat": 38.88428066666667, "fusion_lon": 0.0, "rental_uris": {"ios": "https://dc.lft.to/lastmile_qr_scan", "android": "https://dc.lft.to/lastmile_qr_scan"}, "lon": -77.0245395, "bike_id": "595485f9545b6c1d23c10dc860d35fe7", "type": "electric_scooter", "name": "595485f9545b6c1d23c10dc860d35fe7"}, {"is_disabled": 0, "is_reserved": 0, "fusion_lat": 0.0, "lat": 38.9175895, "fusion_lon": 0.0, "rental_uris": {"ios": "https://dc.lft.to/lastmile_qr_scan", "android": "https://dc.lft.to/lastmile_qr_scan"}, "lon": -77.047648, "bike_id": "495d11f6424634f97ca858f24e2b6acd", "type": "electric_scooter", "name": "495d11f6424634f97ca858f24e2b6acd"}, {"is_disabled": 0, "is_reserved": 0, "fusion_lat": 0.0, "lat": 38.922156, "fusion_lon": 0.0, "rental_uris": {"ios": "https://dc.lft.to/lastmile_qr_scan", "android": "https://dc.lft.to/lastmile_qr_scan"}, "lon": -77.07445316666667, "bike_id": "97b8275944a3d06156dec3a54383735d", "type": "electric_scooter", "name": "97b8275944a3d06156dec3a54383735d"}, {"is_disabled": 0, "is_reserved": 0, "fusion_lat": 0.0, "lat": 38.905921, "fusion_lon": 0.0, "rental_uris": {"ios": "https://dc.lft.to/lastmile_qr_scan", "android": "https://dc.lft.to/lastmile_qr_scan"}, "lon": -77.01608983333334, "bike_id": "6f8f29a8d46bc25de0ce94603d8955b1", "type": "electric_scooter", "name": "6f8f29a8d46bc25de0ce94603d8955b1"}, {"is_disabled": 0, "is_reserved": 0, "fusion_lat": 0.0, "lat": 38.9479025, "fusion_lon": 0.0, "rental_uris": {"ios": "https://dc.lft.to/lastmile_qr_scan", "android": "https://dc.lft.to/lastmile_qr_scan"}, "lon": -77.07898283333333, "bike_id": "7d8bdde35cb2a3c0192ecfb11956f699", "type": "electric_scooter", "name": "7d8bdde35cb2a3c0192ecfb11956f699"}, {"is_disabled": 0, "is_reserved": 0, "fusion_lat": 0.0, "lat": 38.884835, "fusion_lon": 0.0, "rental_uris": {"ios": "https://dc.lft.to/lastmile_qr_scan", "android": "https://dc.lft.to/lastmile_qr_scan"}, "lon": -77.03175116666667, "bike_id": "496e8c7933fae6efd97ab25e5c8d050c", "type": "electric_bike", "name": "496e8c7933fae6efd97ab25e5c8d050c"}, {"is_disabled": 0, "is_reserved": 0, "fusion_lat": 0.0, "lat": 38.963837166666664, "fusion_lon": 0.0, "rental_uris": {"ios": "https://dc.lft.to/lastmile_qr_scan", "android": "https://dc.lft.to/lastmile_qr_scan"}, "lon": -77.01982566666666, "bike_id": "436af5e4b09dd194f912833001ac6300", "type": "electric_bike", "name": "436af5e4b09dd194f912833001ac6300"}, {"is_disabled": 0, "is_reserved": 0, "fusion_lat": 0.0, "lat": 38.879261666666665, "fusion_lon": 0.0, "rental_uris": {"ios": "https://dc.lft.to/lastmile_qr_scan", "android": "https://dc.lft.to/lastmile_qr_scan"}, "lon": -77.00415666666666, "bike_id": "845f396c32556d99c8074c804db6f285", "type": "electric_scooter", "name": "845f396c32556d99c8074c804db6f285"}, {"is_disabled": 0, "is_reserved": 0, "fusion_lat": 0.0, "lat": 38.951006166666666, "fusion_lon": 0.0, "rental_uris": {"ios": "https://dc.lft.to/lastmile_qr_scan", "android": "https://dc.lft.to/lastmile_qr_scan"}, "lon": -77.0219755, "bike_id": "a84577dd988cf6bc7d62255b7f00bdd1", "type": "electric_scooter", "name": "a84577dd988cf6bc7d62255b7f00bdd1"}, {"is_disabled": 0, "is_reserved": 0, "fusion_lat": 0.0, "lat": 38.93066233333333, "fusion_lon": 0.0, "rental_uris": {"ios": "https://dc.lft.to/lastmile_qr_scan", "android": "https://dc.lft.to/lastmile_qr_scan"}, "lon": -77.0337155, "bike_id": "1ce97dbc164dfc9c07e1a696031f25f5", "type": "electric_scooter", "name": "1ce97dbc164dfc9c07e1a696031f25f5"}, {"is_disabled": 0, "is_reserved": 0, "fusion_lat": 0.0, "lat": 38.91799316666667, "fusion_lon": 0.0, "rental_uris": {"ios": "https://dc.lft.to/lastmile_qr_scan", "android": "https://dc.lft.to/lastmile_qr_scan"}, "lon": -77.0344125, "bike_id": "65148eb7c7d86e29e0a465ee99dcd68c", "type": "electric_scooter", "name": "65148eb7c7d86e29e0a465ee99dcd68c"}, {"is_disabled": 0, "is_reserved": 0, "fusion_lat": 0.0, "lat": 38.92270716666667, "fusion_lon": 0.0, "rental_uris": {"ios": "https://dc.lft.to/lastmile_qr_scan", "android": "https://dc.lft.to/lastmile_qr_scan"}, "lon": -77.0297715, "bike_id": "61803b12d3bea8486691a5bdca4c6b8e", "type": "electric_scooter", "name": "61803b12d3bea8486691a5bdca4c6b8e"}, {"is_disabled": 0, "is_reserved": 0, "fusion_lat": 0.0, "lat": 38.928529166666664, "fusion_lon": 0.0, "rental_uris": {"ios": "https://dc.lft.to/lastmile_qr_scan", "android": "https://dc.lft.to/lastmile_qr_scan"}, "lon": -77.037352, "bike_id": "33112e0da8c86dabd24cfd468361335f", "type": "electric_scooter", "name": "33112e0da8c86dabd24cfd468361335f"}, {"is_disabled": 0, "is_reserved": 0, "fusion_lat": 0.0, "lat": 38.953529833333334, "fusion_lon": 0.0, "rental_uris": {"ios": "https://dc.lft.to/lastmile_qr_scan", "android": "https://dc.lft.to/lastmile_qr_scan"}, "lon": -76.98091933333333, "bike_id": "b7610664a2a6aa9294e75c41269d7edf", "type": "electric_bike", "name": "b7610664a2a6aa9294e75c41269d7edf"}, {"is_disabled": 0, "is_reserved": 0, "fusion_lat": 0.0, "lat": 38.93664366666667, "fusion_lon": 0.0, "rental_uris": {"ios": "https://dc.lft.to/lastmile_qr_scan", "android": "https://dc.lft.to/lastmile_qr_scan"}, "lon": -77.06606666666667, "bike_id": "746eb394f2de6193d78806d74dddb472", "type": "electric_scooter", "name": "746eb394f2de6193d78806d74dddb472"}, {"is_disabled": 0, "is_reserved": 0, "fusion_lat": 0.0, "lat": 38.895231, "fusion_lon": 0.0, "rental_uris": {"ios": "https://dc.lft.to/lastmile_qr_scan", "android": "https://dc.lft.to/lastmile_qr_scan"}, "lon": -77.0225555, "bike_id": "f6463608b1c5cb439ab809e5886f85a8", "type": "electric_scooter", "name": "f6463608b1c5cb439ab809e5886f85a8"}, {"is_disabled": 0, "is_reserved": 0, "fusion_lat": 0.0, "lat": 38.916974333333336, "fusion_lon": 0.0, "rental_uris": {"ios": "https://dc.lft.to/lastmile_qr_scan", "android": "https://dc.lft.to/lastmile_qr_scan"}, "lon": -77.02874966666667, "bike_id": "e6edcdf47b695ed555a54c1e9d4a679c", "type": "electric_scooter", "name": "e6edcdf47b695ed555a54c1e9d4a679c"}, {"is_disabled": 0, "is_reserved": 0, "fusion_lat": 0.0, "lat": 38.9289395, "fusion_lon": 0.0, "rental_uris": {"ios": "https://dc.lft.to/lastmile_qr_scan", "android": "https://dc.lft.to/lastmile_qr_scan"}, "lon": -77.0193655, "bike_id": "95ef1dc2357e36e2c3af46f0530c45b0", "type": "electric_scooter", "name": "95ef1dc2357e36e2c3af46f0530c45b0"}, {"is_disabled": 0, "is_reserved": 0, "fusion_lat": 0.0, "lat": 38.920781166666664, "fusion_lon": 0.0, "rental_uris": {"ios": "https://dc.lft.to/lastmile_qr_scan", "android": "https://dc.lft.to/lastmile_qr_scan"}, "lon": -77.02430183333334, "bike_id": "261984cef973ce98b9c392e4b0c8f50d", "type": "electric_scooter", "name": "261984cef973ce98b9c392e4b0c8f50d"}, {"is_disabled": 0, "is_reserved": 0, "fusion_lat": 0.0, "lat": 38.937543833333336, "fusion_lon": 0.0, "rental_uris": {"ios": "https://dc.lft.to/lastmile_qr_scan", "android": "https://dc.lft.to/lastmile_qr_scan"}, "lon": -77.03441433333333, "bike_id": "cbebe93b869e157b7d189ae759c75480", "type": "electric_scooter", "name": "cbebe93b869e157b7d189ae759c75480"}, {"is_disabled": 0, "is_reserved": 0, "fusion_lat": 0.0, "lat": 38.93461216666667, "fusion_lon": 0.0, "rental_uris": {"ios": "https://dc.lft.to/lastmile_qr_scan", "android": "https://dc.lft.to/lastmile_qr_scan"}, "lon": -77.02403266666667, "bike_id": "e89c036a18fa1039cf60bd71cd752c20", "type": "electric_scooter", "name": "e89c036a18fa1039cf60bd71cd752c20"}, {"is_disabled": 0, "is_reserved": 0, "fusion_lat": 0.0, "lat": 38.920552666666666, "fusion_lon": 0.0, "rental_uris": {"ios": "https://dc.lft.to/lastmile_qr_scan", "android": "https://dc.lft.to/lastmile_qr_scan"}, "lon": -76.99881483333333, "bike_id": "b8758ee35c32d6efb1bef6a8e9c9c736", "type": "electric_scooter", "name": "b8758ee35c32d6efb1bef6a8e9c9c736"}, {"is_disabled": 0, "is_reserved": 0, "fusion_lat": 0.0, "lat": 38.84810616666667, "fusion_lon": 0.0, "rental_uris": {"ios": "https://dc.lft.to/lastmile_qr_scan", "android": "https://dc.lft.to/lastmile_qr_scan"}, "lon": -77.08412133333333, "bike_id": "2879fa7c77a50bfe1df828d92fed10e1", "type": "electric_bike", "name": "2879fa7c77a50bfe1df828d92fed10e1"}, {"is_disabled": 0, "is_reserved": 0, "fusion_lat": 0.0, "lat": 38.9100075, "fusion_lon": 0.0, "rental_uris": {"ios": "https://dc.lft.to/lastmile_qr_scan", "android": "https://dc.lft.to/lastmile_qr_scan"}, "lon": -76.986119, "bike_id": "a8f23e94c9485095143b84c0da6d09d3", "type": "electric_scooter", "name": "a8f23e94c9485095143b84c0da6d09d3"}, {"is_disabled": 0, "is_reserved": 0, "fusion_lat": 0.0, "lat": 38.917707666666665, "fusion_lon": 0.0, "rental_uris": {"ios": "https://dc.lft.to/lastmile_qr_scan", "android": "https://dc.lft.to/lastmile_qr_scan"}, "lon": -77.02342166666666, "bike_id": "852ab6ac9f8886eee9ce6156c0259c5b", "type": "electric_scooter", "name": "852ab6ac9f8886eee9ce6156c0259c5b"}, {"is_disabled": 0, "is_reserved": 0, "fusion_lat": 0.0, "lat": 38.92472466666667, "fusion_lon": 0.0, "rental_uris": {"ios": "https://dc.lft.to/lastmile_qr_scan", "android": "https://dc.lft.to/lastmile_qr_scan"}, "lon": -77.03751533333333, "bike_id": "311e790d72c7ebf7ee508ac67f02a8ca", "type": "electric_scooter", "name": "311e790d72c7ebf7ee508ac67f02a8ca"}, {"is_disabled": 0, "is_reserved": 0, "fusion_lat": 0.0, "lat": 38.908310666666665, "fusion_lon": 0.0, "rental_uris": {"ios": "https://dc.lft.to/lastmile_qr_scan", "android": "https://dc.lft.to/lastmile_qr_scan"}, "lon": -77.0007995, "bike_id": "679a52e5227df26a4439152e0fea4024", "type": "electric_scooter", "name": "679a52e5227df26a4439152e0fea4024"}, {"is_disabled": 0, "is_reserved": 0, "fusion_lat": 0.0, "lat": 38.917875333333335, "fusion_lon": 0.0, "rental_uris": {"ios": "https://dc.lft.to/lastmile_qr_scan", "android": "https://dc.lft.to/lastmile_qr_scan"}, "lon": -77.03185666666667, "bike_id": "45357cc25553338b121b93ac2369d57b", "type": "electric_scooter", "name": "45357cc25553338b121b93ac2369d57b"}, {"is_disabled": 0, "is_reserved": 0, "fusion_lat": 0.0, "lat": 38.942182333333335, "fusion_lon": 0.0, "rental_uris": {"ios": "https://dc.lft.to/lastmile_qr_scan", "android": "https://dc.lft.to/lastmile_qr_scan"}, "lon": -76.961315, "bike_id": "9a92606ca7c8d3f4d0088da8f84ee36d", "type": "electric_bike", "name": "9a92606ca7c8d3f4d0088da8f84ee36d"}, {"is_disabled": 0, "is_reserved": 0, "fusion_lat": 0.0, "lat": 38.909682833333335, "fusion_lon": 0.0, "rental_uris": {"ios": "https://dc.lft.to/lastmile_qr_scan", "android": "https://dc.lft.to/lastmile_qr_scan"}, "lon": -77.01111033333333, "bike_id": "3f72657f3efa60904a08419aca402318", "type": "electric_scooter", "name": "3f72657f3efa60904a08419aca402318"}, {"is_disabled": 0, "is_reserved": 0, "fusion_lat": 0.0, "lat": 38.91768, "fusion_lon": 0.0, "rental_uris": {"ios": "https://dc.lft.to/lastmile_qr_scan", "android": "https://dc.lft.to/lastmile_qr_scan"}, "lon": -77.014997, "bike_id": "ddc72bed86b6e40d064bed82dd480a17", "type": "electric_scooter", "name": "ddc72bed86b6e40d064bed82dd480a17"}, {"is_disabled": 0, "is_reserved": 0, "fusion_lat": 0.0, "lat": 38.92532, "fusion_lon": 0.0, "rental_uris": {"ios": "https://dc.lft.to/lastmile_qr_scan", "android": "https://dc.lft.to/lastmile_qr_scan"}, "lon": -77.02558216666667, "bike_id": "dc47ab0a409bee9a19b6fbd77be6ab1d", "type": "electric_scooter", "name": "dc47ab0a409bee9a19b6fbd77be6ab1d"}, {"is_disabled": 0, "is_reserved": 0, "fusion_lat": 0.0, "lat": 38.898230166666664, "fusion_lon": 0.0, "rental_uris": {"ios": "https://dc.lft.to/lastmile_qr_scan", "android": "https://dc.lft.to/lastmile_qr_scan"}, "lon": -76.93001466666666, "bike_id": "ededd5674a7f6bcd821456e74363f168", "type": "electric_scooter", "name": "ededd5674a7f6bcd821456e74363f168"}, {"is_disabled": 0, "is_reserved": 0, "fusion_lat": 0.0, "lat": 38.809810166666665, "fusion_lon": 0.0, "rental_uris": {"ios": "https://dc.lft.to/lastmile_qr_scan", "android": "https://dc.lft.to/lastmile_qr_scan"}, "lon": -77.07656583333333, "bike_id": "b4300366c6fbcc1d64cabab9b67629c9", "type": "electric_bike", "name": "b4300366c6fbcc1d64cabab9b67629c9"}, {"is_disabled": 0, "is_reserved": 0, "fusion_lat": 0.0, "lat": 38.94977166666666, "fusion_lon": 0.0, "rental_uris": {"ios": "https://dc.lft.to/lastmile_qr_scan", "android": "https://dc.lft.to/lastmile_qr_scan"}, "lon": -77.02444133333333, "bike_id": "0b9632c72d30238f15e3c36512138c06", "type": "electric_scooter", "name": "0b9632c72d30238f15e3c36512138c06"}, {"is_disabled": 0, "is_reserved": 0, "fusion_lat": 0.0, "lat": 38.9180485, "fusion_lon": 0.0, "rental_uris": {"ios": "https://dc.lft.to/lastmile_qr_scan", "android": "https://dc.lft.to/lastmile_qr_scan"}, "lon": -77.03443316666667, "bike_id": "e9e4cefb58d325a581b99eef1e476099", "type": "electric_scooter", "name": "e9e4cefb58d325a581b99eef1e476099"}, {"is_disabled": 0, "is_reserved": 0, "fusion_lat": 0.0, "lat": 38.933792833333335, "fusion_lon": 0.0, "rental_uris": {"ios": "https://dc.lft.to/lastmile_qr_scan", "android": "https://dc.lft.to/lastmile_qr_scan"}, "lon": -77.02733583333334, "bike_id": "04406d05434b72d4db85214a78092ec3", "type": "electric_scooter", "name": "04406d05434b72d4db85214a78092ec3"}, {"is_disabled": 0, "is_reserved": 0, "fusion_lat": 0.0, "lat": 38.90611666666667, "fusion_lon": 0.0, "rental_uris": {"ios": "https://dc.lft.to/lastmile_qr_scan", "android": "https://dc.lft.to/lastmile_qr_scan"}, "lon": -77.0564705, "bike_id": "a9a6274a2cb9f09c587e173a95c30226", "type": "electric_scooter", "name": "a9a6274a2cb9f09c587e173a95c30226"}, {"is_disabled": 0, "is_reserved": 0, "fusion_lat": 0.0, "lat": 38.9345065, "fusion_lon": 0.0, "rental_uris": {"ios": "https://dc.lft.to/lastmile_qr_scan", "android": "https://dc.lft.to/lastmile_qr_scan"}, "lon": -77.02984883333333, "bike_id": "708897eb322a6241cfeb140adc613703", "type": "electric_scooter", "name": "708897eb322a6241cfeb140adc613703"}, {"is_disabled": 0, "is_reserved": 0, "fusion_lat": 0.0, "lat": 38.90040483333333, "fusion_lon": 0.0, "rental_uris": {"ios": "https://dc.lft.to/lastmile_qr_scan", "android": "https://dc.lft.to/lastmile_qr_scan"}, "lon": -77.0037915, "bike_id": "79e7f02a8ec8af65569fac2d040ce08a", "type": "electric_scooter", "name": "79e7f02a8ec8af65569fac2d040ce08a"}, {"is_disabled": 0, "is_reserved": 0, "fusion_lat": 0.0, "lat": 38.940834, "fusion_lon": 0.0, "rental_uris": {"ios": "https://dc.lft.to/lastmile_qr_scan", "android": "https://dc.lft.to/lastmile_qr_scan"}, "lon": -77.00157683333333, "bike_id": "f3e1d6d6f2764ea409919a9b88d79ad4", "type": "electric_bike", "name": "f3e1d6d6f2764ea409919a9b88d79ad4"}, {"is_disabled": 0, "is_reserved": 0, "fusion_lat": 0.0, "lat": 38.9060815, "fusion_lon": 0.0, "rental_uris": {"ios": "https://dc.lft.to/lastmile_qr_scan", "android": "https://dc.lft.to/lastmile_qr_scan"}, "lon": -77.12889833333334, "bike_id": "3b922df01606f21af5f56ab707356b75", "type": "electric_bike", "name": "3b922df01606f21af5f56ab707356b75"}, {"is_disabled": 0, "is_reserved": 0, "fusion_lat": 0.0, "lat": 38.90258433333333, "fusion_lon": 0.0, "rental_uris": {"ios": "https://dc.lft.to/lastmile_qr_scan", "android": "https://dc.lft.to/lastmile_qr_scan"}, "lon": -77.0116245, "bike_id": "eba0d51221f7fdb420601e9bc185a36d", "type": "electric_scooter", "name": "eba0d51221f7fdb420601e9bc185a36d"}, {"is_disabled": 0, "is_reserved": 0, "fusion_lat": 0.0, "lat": 38.933613, "fusion_lon": 0.0, "rental_uris": {"ios": "https://dc.lft.to/lastmile_qr_scan", "android": "https://dc.lft.to/lastmile_qr_scan"}, "lon": -77.02646066666667, "bike_id": "ec9d2136baf122ea12336bf00a07305a", "type": "electric_scooter", "name": "ec9d2136baf122ea12336bf00a07305a"}, {"is_disabled": 0, "is_reserved": 0, "fusion_lat": 0.0, "lat": 38.919717166666665, "fusion_lon": 0.0, "rental_uris": {"ios": "https://dc.lft.to/lastmile_qr_scan", "android": "https://dc.lft.to/lastmile_qr_scan"}, "lon": -77.00213516666666, "bike_id": "fb8a6e346f4a9a26a498140a9d0766a9", "type": "electric_scooter", "name": "fb8a6e346f4a9a26a498140a9d0766a9"}, {"is_disabled": 0, "is_reserved": 0, "fusion_lat": 0.0, "lat": 38.92108783333333, "fusion_lon": 0.0, "rental_uris": {"ios": "https://dc.lft.to/lastmile_qr_scan", "android": "https://dc.lft.to/lastmile_qr_scan"}, "lon": -77.04698916666666, "bike_id": "8a6309eff7189615145d959c3f3ecff7", "type": "electric_scooter", "name": "8a6309eff7189615145d959c3f3ecff7"}, {"is_disabled": 0, "is_reserved": 0, "fusion_lat": 0.0, "lat": 38.9117525, "fusion_lon": 0.0, "rental_uris": {"ios": "https://dc.lft.to/lastmile_qr_scan", "android": "https://dc.lft.to/lastmile_qr_scan"}, "lon": -77.02827616666667, "bike_id": "4f5a33c9e1ef32f8fcd534371cba72a6", "type": "electric_scooter", "name": "4f5a33c9e1ef32f8fcd534371cba72a6"}, {"is_disabled": 0, "is_reserved": 0, "fusion_lat": 0.0, "lat": 38.8973455, "fusion_lon": 0.0, "rental_uris": {"ios": "https://dc.lft.to/lastmile_qr_scan", "android": "https://dc.lft.to/lastmile_qr_scan"}, "lon": -77.01755983333334, "bike_id": "6d6e3153a642bb0f0fd852023cb2df53", "type": "electric_scooter", "name": "6d6e3153a642bb0f0fd852023cb2df53"}, {"is_disabled": 0, "is_reserved": 0, "fusion_lat": 0.0, "lat": 38.91473216666667, "fusion_lon": 0.0, "rental_uris": {"ios": "https://dc.lft.to/lastmile_qr_scan", "android": "https://dc.lft.to/lastmile_qr_scan"}, "lon": -77.03188183333333, "bike_id": "d1ad522ace07d084fb2bc2b3364cd656", "type": "electric_scooter", "name": "d1ad522ace07d084fb2bc2b3364cd656"}, {"is_disabled": 0, "is_reserved": 0, "fusion_lat": 0.0, "lat": 38.8649555, "fusion_lon": 0.0, "rental_uris": {"ios": "https://dc.lft.to/lastmile_qr_scan", "android": "https://dc.lft.to/lastmile_qr_scan"}, "lon": -76.96982716666666, "bike_id": "0603be4f4df4c1f010a39f4ae13c1bba", "type": "electric_bike", "name": "0603be4f4df4c1f010a39f4ae13c1bba"}, {"is_disabled": 0, "is_reserved": 0, "fusion_lat": 0.0, "lat": 38.9290325, "fusion_lon": 0.0, "rental_uris": {"ios": "https://dc.lft.to/lastmile_qr_scan", "android": "https://dc.lft.to/lastmile_qr_scan"}, "lon": -77.05455066666667, "bike_id": "081b46977d07b4ce5dd106a22a9f25da", "type": "electric_scooter", "name": "081b46977d07b4ce5dd106a22a9f25da"}, {"is_disabled": 0, "is_reserved": 0, "fusion_lat": 0.0, "lat": 38.878963, "fusion_lon": 0.0, "rental_uris": {"ios": "https://dc.lft.to/lastmile_qr_scan", "android": "https://dc.lft.to/lastmile_qr_scan"}, "lon": -76.9352695, "bike_id": "7d5f1f431addde98c763fd9822e36edb", "type": "electric_scooter", "name": "7d5f1f431addde98c763fd9822e36edb"}, {"is_disabled": 0, "is_reserved": 0, "fusion_lat": 0.0, "lat": 38.92982416666667, "fusion_lon": 0.0, "rental_uris": {"ios": "https://dc.lft.to/lastmile_qr_scan", "android": "https://dc.lft.to/lastmile_qr_scan"}, "lon": -77.0394115, "bike_id": "43295d4c4193b6311697c80d9d7458fd", "type": "electric_scooter", "name": "43295d4c4193b6311697c80d9d7458fd"}, {"is_disabled": 0, "is_reserved": 0, "fusion_lat": 0.0, "lat": 38.936715666666665, "fusion_lon": 0.0, "rental_uris": {"ios": "https://dc.lft.to/lastmile_qr_scan", "android": "https://dc.lft.to/lastmile_qr_scan"}, "lon": -77.03590366666667, "bike_id": "3dd646561591c4f89927080732f2be65", "type": "electric_scooter", "name": "3dd646561591c4f89927080732f2be65"}, {"is_disabled": 0, "is_reserved": 0, "fusion_lat": 0.0, "lat": 38.89511666666667, "fusion_lon": 0.0, "rental_uris": {"ios": "https://dc.lft.to/lastmile_qr_scan", "android": "https://dc.lft.to/lastmile_qr_scan"}, "lon": -77.02263566666667, "bike_id": "ab6dd30bb3d4dbcce3dd08c2a64ca8b9", "type": "electric_scooter", "name": "ab6dd30bb3d4dbcce3dd08c2a64ca8b9"}, {"is_disabled": 0, "is_reserved": 0, "fusion_lat": 0.0, "lat": 38.907268, "fusion_lon": 0.0, "rental_uris": {"ios": "https://dc.lft.to/lastmile_qr_scan", "android": "https://dc.lft.to/lastmile_qr_scan"}, "lon": -76.99813833333333, "bike_id": "e93eb58c603b6e5ec63f211319be51b6", "type": "electric_scooter", "name": "e93eb58c603b6e5ec63f211319be51b6"}, {"is_disabled": 0, "is_reserved": 0, "fusion_lat": 0.0, "lat": 38.922227666666664, "fusion_lon": 0.0, "rental_uris": {"ios": "https://dc.lft.to/lastmile_qr_scan", "android": "https://dc.lft.to/lastmile_qr_scan"}, "lon": -77.0390605, "bike_id": "7629e57319841b17373685aa12aef8c6", "type": "electric_scooter", "name": "7629e57319841b17373685aa12aef8c6"}, {"is_disabled": 0, "is_reserved": 0, "fusion_lat": 0.0, "lat": 38.93332016666667, "fusion_lon": 0.0, "rental_uris": {"ios": "https://dc.lft.to/lastmile_qr_scan", "android": "https://dc.lft.to/lastmile_qr_scan"}, "lon": -77.0398755, "bike_id": "be7b26fb41cc5909539dbc12208690b1", "type": "electric_bike", "name": "be7b26fb41cc5909539dbc12208690b1"}, {"is_disabled": 0, "is_reserved": 0, "fusion_lat": 0.0, "lat": 38.8052205, "fusion_lon": 0.0, "rental_uris": {"ios": "https://dc.lft.to/lastmile_qr_scan", "android": "https://dc.lft.to/lastmile_qr_scan"}, "lon": -77.043347, "bike_id": "2a167b30b12a5df7b34c59e899599e4b", "type": "electric_bike", "name": "2a167b30b12a5df7b34c59e899599e4b"}, {"is_disabled": 0, "is_reserved": 0, "fusion_lat": 0.0, "lat": 38.892249, "fusion_lon": 0.0, "rental_uris": {"ios": "https://dc.lft.to/lastmile_qr_scan", "android": "https://dc.lft.to/lastmile_qr_scan"}, "lon": -77.033408, "bike_id": "47b64d03897954fe698764ddae5761c5", "type": "electric_scooter", "name": "47b64d03897954fe698764ddae5761c5"}, {"is_disabled": 0, "is_reserved": 0, "fusion_lat": 0.0, "lat": 38.902474833333336, "fusion_lon": 0.0, "rental_uris": {"ios": "https://dc.lft.to/lastmile_qr_scan", "android": "https://dc.lft.to/lastmile_qr_scan"}, "lon": -77.01508316666667, "bike_id": "93afe4ec79a973e7248b8ff3e9cf2cd4", "type": "electric_scooter", "name": "93afe4ec79a973e7248b8ff3e9cf2cd4"}, {"is_disabled": 0, "is_reserved": 0, "fusion_lat": 0.0, "lat": 38.82764183333333, "fusion_lon": 0.0, "rental_uris": {"ios": "https://dc.lft.to/lastmile_qr_scan", "android": "https://dc.lft.to/lastmile_qr_scan"}, "lon": -77.0503005, "bike_id": "a35fad8e9e017e617f158345d4e2dbe0", "type": "electric_bike", "name": "a35fad8e9e017e617f158345d4e2dbe0"}, {"is_disabled": 0, "is_reserved": 0, "fusion_lat": 0.0, "lat": 38.9188495, "fusion_lon": 0.0, "rental_uris": {"ios": "https://dc.lft.to/lastmile_qr_scan", "android": "https://dc.lft.to/lastmile_qr_scan"}, "lon": -77.04176266666667, "bike_id": "983cc5ff8609ffd637028c8fb1528056", "type": "electric_scooter", "name": "983cc5ff8609ffd637028c8fb1528056"}, {"is_disabled": 0, "is_reserved": 0, "fusion_lat": 0.0, "lat": 38.91484066666666, "fusion_lon": 0.0, "rental_uris": {"ios": "https://dc.lft.to/lastmile_qr_scan", "android": "https://dc.lft.to/lastmile_qr_scan"}, "lon": -77.04293633333333, "bike_id": "d8d71853b88cd71f446f03e2e42c7e57", "type": "electric_scooter", "name": "d8d71853b88cd71f446f03e2e42c7e57"}, {"is_disabled": 0, "is_reserved": 0, "fusion_lat": 0.0, "lat": 38.91999, "fusion_lon": 0.0, "rental_uris": {"ios": "https://dc.lft.to/lastmile_qr_scan", "android": "https://dc.lft.to/lastmile_qr_scan"}, "lon": -77.0322065, "bike_id": "cd7dafcb8002a6b931fe84db52e111d5", "type": "electric_scooter", "name": "cd7dafcb8002a6b931fe84db52e111d5"}, {"is_disabled": 0, "is_reserved": 0, "fusion_lat": 0.0, "lat": 38.942780166666665, "fusion_lon": 0.0, "rental_uris": {"ios": "https://dc.lft.to/lastmile_qr_scan", "android": "https://dc.lft.to/lastmile_qr_scan"}, "lon": -77.0292575, "bike_id": "66171d41b6fe305a9fdf388a5c60d6f9", "type": "electric_scooter", "name": "66171d41b6fe305a9fdf388a5c60d6f9"}, {"is_disabled": 0, "is_reserved": 0, "fusion_lat": 0.0, "lat": 38.90454616666667, "fusion_lon": 0.0, "rental_uris": {"ios": "https://dc.lft.to/lastmile_qr_scan", "android": "https://dc.lft.to/lastmile_qr_scan"}, "lon": -76.93275933333334, "bike_id": "e96b8972f1d85daa206127febed6a8b2", "type": "electric_scooter", "name": "e96b8972f1d85daa206127febed6a8b2"}, {"is_disabled": 0, "is_reserved": 0, "fusion_lat": 0.0, "lat": 38.92200066666667, "fusion_lon": 0.0, "rental_uris": {"ios": "https://dc.lft.to/lastmile_qr_scan", "android": "https://dc.lft.to/lastmile_qr_scan"}, "lon": -77.01834866666667, "bike_id": "59c534b8fe5d0c428bac2186b61d34c7", "type": "electric_scooter", "name": "59c534b8fe5d0c428bac2186b61d34c7"}, {"is_disabled": 0, "is_reserved": 0, "fusion_lat": 0.0, "lat": 38.928731, "fusion_lon": 0.0, "rental_uris": {"ios": "https://dc.lft.to/lastmile_qr_scan", "android": "https://dc.lft.to/lastmile_qr_scan"}, "lon": -77.02969166666666, "bike_id": "5dbeecde409018fd5557993aae79b254", "type": "electric_scooter", "name": "5dbeecde409018fd5557993aae79b254"}, {"is_disabled": 0, "is_reserved": 0, "fusion_lat": 0.0, "lat": 38.9066665, "fusion_lon": 0.0, "rental_uris": {"ios": "https://dc.lft.to/lastmile_qr_scan", "android": "https://dc.lft.to/lastmile_qr_scan"}, "lon": -77.03447866666667, "bike_id": "41eeb9e54597ab0b7c16e6289a2e612c", "type": "electric_scooter", "name": "41eeb9e54597ab0b7c16e6289a2e612c"}, {"is_disabled": 0, "is_reserved": 0, "fusion_lat": 0.0, "lat": 38.939847666666665, "fusion_lon": 0.0, "rental_uris": {"ios": "https://dc.lft.to/lastmile_qr_scan", "android": "https://dc.lft.to/lastmile_qr_scan"}, "lon": -77.02891433333333, "bike_id": "af88c5a97ee0dd01b1d36ca7cd22fd6a", "type": "electric_scooter", "name": "af88c5a97ee0dd01b1d36ca7cd22fd6a"}, {"is_disabled": 0, "is_reserved": 0, "fusion_lat": 0.0, "lat": 38.95636966666667, "fusion_lon": 0.0, "rental_uris": {"ios": "https://dc.lft.to/lastmile_qr_scan", "android": "https://dc.lft.to/lastmile_qr_scan"}, "lon": -77.03631033333333, "bike_id": "651e5d495ea5cf65933dfe588d2047cb", "type": "electric_scooter", "name": "651e5d495ea5cf65933dfe588d2047cb"}, {"is_disabled": 0, "is_reserved": 0, "fusion_lat": 0.0, "lat": 38.92660683333333, "fusion_lon": 0.0, "rental_uris": {"ios": "https://dc.lft.to/lastmile_qr_scan", "android": "https://dc.lft.to/lastmile_qr_scan"}, "lon": -76.99296016666666, "bike_id": "894b8f1147ef3f1b7614107fbd31e05a", "type": "electric_scooter", "name": "894b8f1147ef3f1b7614107fbd31e05a"}, {"is_disabled": 0, "is_reserved": 0, "fusion_lat": 0.0, "lat": 38.893326, "fusion_lon": 0.0, "rental_uris": {"ios": "https://dc.lft.to/lastmile_qr_scan", "android": "https://dc.lft.to/lastmile_qr_scan"}, "lon": -76.92887533333334, "bike_id": "fbbcf710259f2b24b390ce7a0a7544c7", "type": "electric_scooter", "name": "fbbcf710259f2b24b390ce7a0a7544c7"}, {"is_disabled": 0, "is_reserved": 0, "fusion_lat": 0.0, "lat": 38.933681666666665, "fusion_lon": 0.0, "rental_uris": {"ios": "https://dc.lft.to/lastmile_qr_scan", "android": "https://dc.lft.to/lastmile_qr_scan"}, "lon": -77.03875733333334, "bike_id": "d4a02b64066b7f9bf6cc9e134f48f79f", "type": "electric_scooter", "name": "d4a02b64066b7f9bf6cc9e134f48f79f"}, {"is_disabled": 0, "is_reserved": 0, "fusion_lat": 0.0, "lat": 38.930013, "fusion_lon": 0.0, "rental_uris": {"ios": "https://dc.lft.to/lastmile_qr_scan", "android": "https://dc.lft.to/lastmile_qr_scan"}, "lon": -77.03802266666666, "bike_id": "ed11d1ec766b8815e7eda1f113be3e26", "type": "electric_scooter", "name": "ed11d1ec766b8815e7eda1f113be3e26"}, {"is_disabled": 0, "is_reserved": 0, "fusion_lat": 0.0, "lat": 38.914173, "fusion_lon": 0.0, "rental_uris": {"ios": "https://dc.lft.to/lastmile_qr_scan", "android": "https://dc.lft.to/lastmile_qr_scan"}, "lon": -77.03306116666667, "bike_id": "ca1d5d312b077a460fefb606dcc29573", "type": "electric_scooter", "name": "ca1d5d312b077a460fefb606dcc29573"}, {"is_disabled": 0, "is_reserved": 0, "fusion_lat": 0.0, "lat": 38.9111365, "fusion_lon": 0.0, "rental_uris": {"ios": "https://dc.lft.to/lastmile_qr_scan", "android": "https://dc.lft.to/lastmile_qr_scan"}, "lon": -77.04839416666667, "bike_id": "d7a8776770560b1bfaa077cfb41f0580", "type": "electric_scooter", "name": "d7a8776770560b1bfaa077cfb41f0580"}, {"is_disabled": 0, "is_reserved": 0, "fusion_lat": 0.0, "lat": 38.90182383333333, "fusion_lon": 0.0, "rental_uris": {"ios": "https://dc.lft.to/lastmile_qr_scan", "android": "https://dc.lft.to/lastmile_qr_scan"}, "lon": -76.9766955, "bike_id": "7b71e2680517442cd043cb3dbc03cd54", "type": "electric_scooter", "name": "7b71e2680517442cd043cb3dbc03cd54"}, {"is_disabled": 0, "is_reserved": 0, "fusion_lat": 0.0, "lat": 38.887152666666665, "fusion_lon": 0.0, "rental_uris": {"ios": "https://dc.lft.to/lastmile_qr_scan", "android": "https://dc.lft.to/lastmile_qr_scan"}, "lon": -76.98381783333333, "bike_id": "53bc390a318f58373bdb8ba263a669d4", "type": "electric_scooter", "name": "53bc390a318f58373bdb8ba263a669d4"}, {"is_disabled": 0, "is_reserved": 0, "fusion_lat": 0.0, "lat": 38.894852666666665, "fusion_lon": 0.0, "rental_uris": {"ios": "https://dc.lft.to/lastmile_qr_scan", "android": "https://dc.lft.to/lastmile_qr_scan"}, "lon": -77.01106116666666, "bike_id": "e4f1bdc01f49b048e21eafe9ce0075e1", "type": "electric_scooter", "name": "e4f1bdc01f49b048e21eafe9ce0075e1"}, {"is_disabled": 0, "is_reserved": 0, "fusion_lat": 0.0, "lat": 38.91364466666667, "fusion_lon": 0.0, "rental_uris": {"ios": "https://dc.lft.to/lastmile_qr_scan", "android": "https://dc.lft.to/lastmile_qr_scan"}, "lon": -77.04655033333333, "bike_id": "28ea422f1ddb7472c222b98eb8b149e6", "type": "electric_scooter", "name": "28ea422f1ddb7472c222b98eb8b149e6"}, {"is_disabled": 0, "is_reserved": 0, "fusion_lat": 0.0, "lat": 38.902476666666665, "fusion_lon": 0.0, "rental_uris": {"ios": "https://dc.lft.to/lastmile_qr_scan", "android": "https://dc.lft.to/lastmile_qr_scan"}, "lon": -77.03857216666667, "bike_id": "763d5fb80ee4c960d474ba4e7c51b66d", "type": "electric_scooter", "name": "763d5fb80ee4c960d474ba4e7c51b66d"}, {"is_disabled": 0, "is_reserved": 0, "fusion_lat": 0.0, "lat": 38.906501666666664, "fusion_lon": 0.0, "rental_uris": {"ios": "https://dc.lft.to/lastmile_qr_scan", "android": "https://dc.lft.to/lastmile_qr_scan"}, "lon": -77.0058875, "bike_id": "1f637f96cfd5924b281443e726febe6c", "type": "electric_scooter", "name": "1f637f96cfd5924b281443e726febe6c"}, {"is_disabled": 0, "is_reserved": 0, "fusion_lat": 0.0, "lat": 38.859474, "fusion_lon": 0.0, "rental_uris": {"ios": "https://dc.lft.to/lastmile_qr_scan", "android": "https://dc.lft.to/lastmile_qr_scan"}, "lon": -77.094253, "bike_id": "3628133e37ab57b02c25fc703614025a", "type": "electric_bike", "name": "3628133e37ab57b02c25fc703614025a"}, {"is_disabled": 0, "is_reserved": 0, "fusion_lat": 0.0, "lat": 38.935345, "fusion_lon": 0.0, "rental_uris": {"ios": "https://dc.lft.to/lastmile_qr_scan", "android": "https://dc.lft.to/lastmile_qr_scan"}, "lon": -77.05454666666667, "bike_id": "4849a61446d4cfff526b53f851ed7bd6", "type": "electric_scooter", "name": "4849a61446d4cfff526b53f851ed7bd6"}, {"is_disabled": 0, "is_reserved": 0, "fusion_lat": 0.0, "lat": 38.905705833333336, "fusion_lon": 0.0, "rental_uris": {"ios": "https://dc.lft.to/lastmile_qr_scan", "android": "https://dc.lft.to/lastmile_qr_scan"}, "lon": -77.020161, "bike_id": "7c0ff77833343ea8e9af04c038f6847b", "type": "electric_scooter", "name": "7c0ff77833343ea8e9af04c038f6847b"}, {"is_disabled": 0, "is_reserved": 0, "fusion_lat": 0.0, "lat": 38.87633733333333, "fusion_lon": 0.0, "rental_uris": {"ios": "https://dc.lft.to/lastmile_qr_scan", "android": "https://dc.lft.to/lastmile_qr_scan"}, "lon": -77.00954916666667, "bike_id": "aea180174f90f1e818cb54af13483728", "type": "electric_scooter", "name": "aea180174f90f1e818cb54af13483728"}, {"is_disabled": 0, "is_reserved": 0, "fusion_lat": 0.0, "lat": 38.93228716666667, "fusion_lon": 0.0, "rental_uris": {"ios": "https://dc.lft.to/lastmile_qr_scan", "android": "https://dc.lft.to/lastmile_qr_scan"}, "lon": -76.99722416666667, "bike_id": "fbd183ee701ab310e139118e473f02e9", "type": "electric_scooter", "name": "fbd183ee701ab310e139118e473f02e9"}, {"is_disabled": 0, "is_reserved": 0, "fusion_lat": 0.0, "lat": 38.885784, "fusion_lon": 0.0, "rental_uris": {"ios": "https://dc.lft.to/lastmile_qr_scan", "android": "https://dc.lft.to/lastmile_qr_scan"}, "lon": -77.01215183333333, "bike_id": "6c56489f82581b41601443b32f6f2b35", "type": "electric_scooter", "name": "6c56489f82581b41601443b32f6f2b35"}, {"is_disabled": 0, "is_reserved": 0, "fusion_lat": 0.0, "lat": 38.91056566666666, "fusion_lon": 0.0, "rental_uris": {"ios": "https://dc.lft.to/lastmile_qr_scan", "android": "https://dc.lft.to/lastmile_qr_scan"}, "lon": -77.0230225, "bike_id": "f13fa233132b59040dcac4c6983cff4d", "type": "electric_scooter", "name": "f13fa233132b59040dcac4c6983cff4d"}, {"is_disabled": 0, "is_reserved": 0, "fusion_lat": 0.0, "lat": 38.93188933333333, "fusion_lon": 0.0, "rental_uris": {"ios": "https://dc.lft.to/lastmile_qr_scan", "android": "https://dc.lft.to/lastmile_qr_scan"}, "lon": -77.03443866666667, "bike_id": "a4c92b5f48358e882ce0ede73d0bfe98", "type": "electric_scooter", "name": "a4c92b5f48358e882ce0ede73d0bfe98"}, {"is_disabled": 0, "is_reserved": 0, "fusion_lat": 0.0, "lat": 38.921654833333335, "fusion_lon": 0.0, "rental_uris": {"ios": "https://dc.lft.to/lastmile_qr_scan", "android": "https://dc.lft.to/lastmile_qr_scan"}, "lon": -77.032669, "bike_id": "669f9a8b02c1ff17a61250173da528aa", "type": "electric_scooter", "name": "669f9a8b02c1ff17a61250173da528aa"}, {"is_disabled": 0, "is_reserved": 0, "fusion_lat": 0.0, "lat": 38.91216266666667, "fusion_lon": 0.0, "rental_uris": {"ios": "https://dc.lft.to/lastmile_qr_scan", "android": "https://dc.lft.to/lastmile_qr_scan"}, "lon": -77.00156833333334, "bike_id": "ed2d8da341531152042fdca9d93b10db", "type": "electric_scooter", "name": "ed2d8da341531152042fdca9d93b10db"}, {"is_disabled": 0, "is_reserved": 0, "fusion_lat": 0.0, "lat": 38.928230666666664, "fusion_lon": 0.0, "rental_uris": {"ios": "https://dc.lft.to/lastmile_qr_scan", "android": "https://dc.lft.to/lastmile_qr_scan"}, "lon": -77.04361383333334, "bike_id": "a97a4fca8aaff96768353ea5dd054488", "type": "electric_scooter", "name": "a97a4fca8aaff96768353ea5dd054488"}, {"is_disabled": 0, "is_reserved": 0, "fusion_lat": 0.0, "lat": 38.89110633333333, "fusion_lon": 0.0, "rental_uris": {"ios": "https://dc.lft.to/lastmile_qr_scan", "android": "https://dc.lft.to/lastmile_qr_scan"}, "lon": -77.01441833333334, "bike_id": "3284fbbf75958332ea488c8732239f7c", "type": "electric_scooter", "name": "3284fbbf75958332ea488c8732239f7c"}, {"is_disabled": 0, "is_reserved": 0, "fusion_lat": 0.0, "lat": 38.902489833333334, "fusion_lon": 0.0, "rental_uris": {"ios": "https://dc.lft.to/lastmile_qr_scan", "android": "https://dc.lft.to/lastmile_qr_scan"}, "lon": -77.00771566666667, "bike_id": "642caac0808476b8df444cf9aa246751", "type": "electric_scooter", "name": "642caac0808476b8df444cf9aa246751"}, {"is_disabled": 0, "is_reserved": 0, "fusion_lat": 0.0, "lat": 38.9210345, "fusion_lon": 0.0, "rental_uris": {"ios": "https://dc.lft.to/lastmile_qr_scan", "android": "https://dc.lft.to/lastmile_qr_scan"}, "lon": -77.041722, "bike_id": "1c759d5d9013ad6b3f120648486518ae", "type": "electric_scooter", "name": "1c759d5d9013ad6b3f120648486518ae"}, {"is_disabled": 0, "is_reserved": 0, "fusion_lat": 0.0, "lat": 38.86081716666666, "fusion_lon": 0.0, "rental_uris": {"ios": "https://dc.lft.to/lastmile_qr_scan", "android": "https://dc.lft.to/lastmile_qr_scan"}, "lon": -76.98371016666667, "bike_id": "140829bcb9a0b7609a5146382be40511", "type": "electric_scooter", "name": "140829bcb9a0b7609a5146382be40511"}, {"is_disabled": 0, "is_reserved": 0, "fusion_lat": 0.0, "lat": 38.902641833333334, "fusion_lon": 0.0, "rental_uris": {"ios": "https://dc.lft.to/lastmile_qr_scan", "android": "https://dc.lft.to/lastmile_qr_scan"}, "lon": -77.00219583333333, "bike_id": "6c2929f2d9c2f066789d2dcbe18f22d4", "type": "electric_scooter", "name": "6c2929f2d9c2f066789d2dcbe18f22d4"}, {"is_disabled": 0, "is_reserved": 0, "fusion_lat": 0.0, "lat": 38.918668, "fusion_lon": 0.0, "rental_uris": {"ios": "https://dc.lft.to/lastmile_qr_scan", "android": "https://dc.lft.to/lastmile_qr_scan"}, "lon": -77.03555283333333, "bike_id": "eb6e07ba6ce7914da49721be6718d56a", "type": "electric_scooter", "name": "eb6e07ba6ce7914da49721be6718d56a"}, {"is_disabled": 0, "is_reserved": 0, "fusion_lat": 0.0, "lat": 38.92976866666667, "fusion_lon": 0.0, "rental_uris": {"ios": "https://dc.lft.to/lastmile_qr_scan", "android": "https://dc.lft.to/lastmile_qr_scan"}, "lon": -77.03081283333333, "bike_id": "9f567bf988b455f189e6da9742b56312", "type": "electric_scooter", "name": "9f567bf988b455f189e6da9742b56312"}, {"is_disabled": 0, "is_reserved": 0, "fusion_lat": 0.0, "lat": 38.927736333333335, "fusion_lon": 0.0, "rental_uris": {"ios": "https://dc.lft.to/lastmile_qr_scan", "android": "https://dc.lft.to/lastmile_qr_scan"}, "lon": -77.028004, "bike_id": "b1fd3427ab66d8d9f2872ef42aecc736", "type": "electric_scooter", "name": "b1fd3427ab66d8d9f2872ef42aecc736"}, {"is_disabled": 0, "is_reserved": 0, "fusion_lat": 0.0, "lat": 38.89960083333333, "fusion_lon": 0.0, "rental_uris": {"ios": "https://dc.lft.to/lastmile_qr_scan", "android": "https://dc.lft.to/lastmile_qr_scan"}, "lon": -77.05054566666666, "bike_id": "05d64c5393fbc05ccbe3823550309c99", "type": "electric_scooter", "name": "05d64c5393fbc05ccbe3823550309c99"}, {"is_disabled": 0, "is_reserved": 0, "fusion_lat": 0.0, "lat": 38.911092833333335, "fusion_lon": 0.0, "rental_uris": {"ios": "https://dc.lft.to/lastmile_qr_scan", "android": "https://dc.lft.to/lastmile_qr_scan"}, "lon": -77.02176733333333, "bike_id": "55f96035cda77eeb0c89cf50f60453bb", "type": "electric_scooter", "name": "55f96035cda77eeb0c89cf50f60453bb"}, {"is_disabled": 0, "is_reserved": 0, "fusion_lat": 0.0, "lat": 38.896087, "fusion_lon": 0.0, "rental_uris": {"ios": "https://dc.lft.to/lastmile_qr_scan", "android": "https://dc.lft.to/lastmile_qr_scan"}, "lon": -76.98313033333334, "bike_id": "2ed6c73c7680b09ce14be631f785b3df", "type": "electric_scooter", "name": "2ed6c73c7680b09ce14be631f785b3df"}, {"is_disabled": 0, "is_reserved": 0, "fusion_lat": 0.0, "lat": 38.86891516666667, "fusion_lon": 0.0, "rental_uris": {"ios": "https://dc.lft.to/lastmile_qr_scan", "android": "https://dc.lft.to/lastmile_qr_scan"}, "lon": -76.98999466666666, "bike_id": "be8d652c5ed1b1d2bcd49df33f8f72ab", "type": "electric_scooter", "name": "be8d652c5ed1b1d2bcd49df33f8f72ab"}, {"is_disabled": 0, "is_reserved": 0, "fusion_lat": 0.0, "lat": 38.90072133333334, "fusion_lon": 0.0, "rental_uris": {"ios": "https://dc.lft.to/lastmile_qr_scan", "android": "https://dc.lft.to/lastmile_qr_scan"}, "lon": -77.0507345, "bike_id": "f34a48bd3c4f865892898e4cc41c3f7b", "type": "electric_scooter", "name": "f34a48bd3c4f865892898e4cc41c3f7b"}, {"is_disabled": 0, "is_reserved": 0, "fusion_lat": 0.0, "lat": 38.917399833333334, "fusion_lon": 0.0, "rental_uris": {"ios": "https://dc.lft.to/lastmile_qr_scan", "android": "https://dc.lft.to/lastmile_qr_scan"}, "lon": -77.02617983333333, "bike_id": "64d9d14afb2229d5fc3b4e64b2a59f9a", "type": "electric_scooter", "name": "64d9d14afb2229d5fc3b4e64b2a59f9a"}, {"is_disabled": 0, "is_reserved": 0, "fusion_lat": 0.0, "lat": 38.923271166666666, "fusion_lon": 0.0, "rental_uris": {"ios": "https://dc.lft.to/lastmile_qr_scan", "android": "https://dc.lft.to/lastmile_qr_scan"}, "lon": -77.03813716666667, "bike_id": "49fb85d1be40fb7771b40e0ded4c70f9", "type": "electric_scooter", "name": "49fb85d1be40fb7771b40e0ded4c70f9"}, {"is_disabled": 0, "is_reserved": 0, "fusion_lat": 0.0, "lat": 38.8765035, "fusion_lon": 0.0, "rental_uris": {"ios": "https://dc.lft.to/lastmile_qr_scan", "android": "https://dc.lft.to/lastmile_qr_scan"}, "lon": -77.01590516666667, "bike_id": "f0bef3eb5edb3246ad341e711b4b3e6c", "type": "electric_scooter", "name": "f0bef3eb5edb3246ad341e711b4b3e6c"}, {"is_disabled": 0, "is_reserved": 0, "fusion_lat": 0.0, "lat": 38.91269916666667, "fusion_lon": 0.0, "rental_uris": {"ios": "https://dc.lft.to/lastmile_qr_scan", "android": "https://dc.lft.to/lastmile_qr_scan"}, "lon": -77.047121, "bike_id": "5db4047d58f518801c98ba0290a59421", "type": "electric_scooter", "name": "5db4047d58f518801c98ba0290a59421"}, {"is_disabled": 0, "is_reserved": 0, "fusion_lat": 0.0, "lat": 38.93868066666667, "fusion_lon": 0.0, "rental_uris": {"ios": "https://dc.lft.to/lastmile_qr_scan", "android": "https://dc.lft.to/lastmile_qr_scan"}, "lon": -77.03045816666666, "bike_id": "25a7fcdc7d7a5d7d14c09f9f3ca1bd20", "type": "electric_scooter", "name": "25a7fcdc7d7a5d7d14c09f9f3ca1bd20"}, {"is_disabled": 0, "is_reserved": 0, "fusion_lat": 0.0, "lat": 38.947151166666664, "fusion_lon": 0.0, "rental_uris": {"ios": "https://dc.lft.to/lastmile_qr_scan", "android": "https://dc.lft.to/lastmile_qr_scan"}, "lon": -77.02614366666667, "bike_id": "ea80d33d6a928ad44a1d8a2344c562cb", "type": "electric_scooter", "name": "ea80d33d6a928ad44a1d8a2344c562cb"}, {"is_disabled": 0, "is_reserved": 0, "fusion_lat": 0.0, "lat": 38.87446466666667, "fusion_lon": 0.0, "rental_uris": {"ios": "https://dc.lft.to/lastmile_qr_scan", "android": "https://dc.lft.to/lastmile_qr_scan"}, "lon": -77.00295583333333, "bike_id": "7a6cea8904b28de4d3feb8fc19e57624", "type": "electric_scooter", "name": "7a6cea8904b28de4d3feb8fc19e57624"}, {"is_disabled": 0, "is_reserved": 0, "fusion_lat": 0.0, "lat": 38.844754, "fusion_lon": 0.0, "rental_uris": {"ios": "https://dc.lft.to/lastmile_qr_scan", "android": "https://dc.lft.to/lastmile_qr_scan"}, "lon": -76.995849, "bike_id": "76e9036f19dbc252ceeec297f90b966f", "type": "electric_bike", "name": "76e9036f19dbc252ceeec297f90b966f"}, {"is_disabled": 0, "is_reserved": 0, "fusion_lat": 0.0, "lat": 38.876946833333335, "fusion_lon": 0.0, "rental_uris": {"ios": "https://dc.lft.to/lastmile_qr_scan", "android": "https://dc.lft.to/lastmile_qr_scan"}, "lon": -76.99625766666666, "bike_id": "4e8db702c16813b64033d5e41b763fff", "type": "electric_scooter", "name": "4e8db702c16813b64033d5e41b763fff"}, {"is_disabled": 0, "is_reserved": 0, "fusion_lat": 0.0, "lat": 38.922418, "fusion_lon": 0.0, "rental_uris": {"ios": "https://dc.lft.to/lastmile_qr_scan", "android": "https://dc.lft.to/lastmile_qr_scan"}, "lon": -77.03662716666666, "bike_id": "47b97f2e672bfe39db764e6ecc59a093", "type": "electric_scooter", "name": "47b97f2e672bfe39db764e6ecc59a093"}, {"is_disabled": 0, "is_reserved": 0, "fusion_lat": 0.0, "lat": 38.928305333333334, "fusion_lon": 0.0, "rental_uris": {"ios": "https://dc.lft.to/lastmile_qr_scan", "android": "https://dc.lft.to/lastmile_qr_scan"}, "lon": -77.05969416666667, "bike_id": "d30bed54adea51663251d4b1e6976d98", "type": "electric_bike", "name": "d30bed54adea51663251d4b1e6976d98"}, {"is_disabled": 0, "is_reserved": 0, "fusion_lat": 0.0, "lat": 38.9181005, "fusion_lon": 0.0, "rental_uris": {"ios": "https://dc.lft.to/lastmile_qr_scan", "android": "https://dc.lft.to/lastmile_qr_scan"}, "lon": -77.00008116666666, "bike_id": "e24431740d8d8c9be5e12b5fea77d7db", "type": "electric_scooter", "name": "e24431740d8d8c9be5e12b5fea77d7db"}, {"is_disabled": 0, "is_reserved": 0, "fusion_lat": 0.0, "lat": 38.889733666666665, "fusion_lon": 0.0, "rental_uris": {"ios": "https://dc.lft.to/lastmile_qr_scan", "android": "https://dc.lft.to/lastmile_qr_scan"}, "lon": -76.9817885, "bike_id": "bfbe7b86eadb52bf9dce10e83e352ea1", "type": "electric_scooter", "name": "bfbe7b86eadb52bf9dce10e83e352ea1"}, {"is_disabled": 0, "is_reserved": 0, "fusion_lat": 0.0, "lat": 38.911835833333335, "fusion_lon": 0.0, "rental_uris": {"ios": "https://dc.lft.to/lastmile_qr_scan", "android": "https://dc.lft.to/lastmile_qr_scan"}, "lon": -77.012057, "bike_id": "5a7089c1773c782164c137c2c8bb10d4", "type": "electric_scooter", "name": "5a7089c1773c782164c137c2c8bb10d4"}, {"is_disabled": 0, "is_reserved": 0, "fusion_lat": 0.0, "lat": 38.88191466666667, "fusion_lon": 0.0, "rental_uris": {"ios": "https://dc.lft.to/lastmile_qr_scan", "android": "https://dc.lft.to/lastmile_qr_scan"}, "lon": -77.00354666666667, "bike_id": "791647894fe95601801a97d8fbee37bb", "type": "electric_scooter", "name": "791647894fe95601801a97d8fbee37bb"}, {"is_disabled": 0, "is_reserved": 0, "fusion_lat": 0.0, "lat": 38.888383, "fusion_lon": 0.0, "rental_uris": {"ios": "https://dc.lft.to/lastmile_qr_scan", "android": "https://dc.lft.to/lastmile_qr_scan"}, "lon": -77.04902716666666, "bike_id": "7a32f2e3d743f72135acb1ff5af32f12", "type": "electric_scooter", "name": "7a32f2e3d743f72135acb1ff5af32f12"}, {"is_disabled": 0, "is_reserved": 0, "fusion_lat": 0.0, "lat": 38.92431883333333, "fusion_lon": 0.0, "rental_uris": {"ios": "https://dc.lft.to/lastmile_qr_scan", "android": "https://dc.lft.to/lastmile_qr_scan"}, "lon": -77.0195145, "bike_id": "ab642dba7aadd2691ba850a0637b6aa6", "type": "electric_scooter", "name": "ab642dba7aadd2691ba850a0637b6aa6"}, {"is_disabled": 0, "is_reserved": 0, "fusion_lat": 0.0, "lat": 38.89938983333333, "fusion_lon": 0.0, "rental_uris": {"ios": "https://dc.lft.to/lastmile_qr_scan", "android": "https://dc.lft.to/lastmile_qr_scan"}, "lon": -76.93758716666666, "bike_id": "d680b9e4f0abf13ae4660bd39d73a5c7", "type": "electric_scooter", "name": "d680b9e4f0abf13ae4660bd39d73a5c7"}, {"is_disabled": 0, "is_reserved": 0, "fusion_lat": 0.0, "lat": 38.91743616666667, "fusion_lon": 0.0, "rental_uris": {"ios": "https://dc.lft.to/lastmile_qr_scan", "android": "https://dc.lft.to/lastmile_qr_scan"}, "lon": -77.01078466666667, "bike_id": "c90d5185c9f383e597bb192603ba25be", "type": "electric_scooter", "name": "c90d5185c9f383e597bb192603ba25be"}, {"is_disabled": 0, "is_reserved": 0, "fusion_lat": 0.0, "lat": 38.870819833333336, "fusion_lon": 0.0, "rental_uris": {"ios": "https://dc.lft.to/lastmile_qr_scan", "android": "https://dc.lft.to/lastmile_qr_scan"}, "lon": -77.01081866666667, "bike_id": "3954ec5594d249e09ce680fb0cf866c0", "type": "electric_scooter", "name": "3954ec5594d249e09ce680fb0cf866c0"}, {"is_disabled": 0, "is_reserved": 0, "fusion_lat": 0.0, "lat": 38.876310333333336, "fusion_lon": 0.0, "rental_uris": {"ios": "https://dc.lft.to/lastmile_qr_scan", "android": "https://dc.lft.to/lastmile_qr_scan"}, "lon": -77.0020425, "bike_id": "609e0c982349ede98e2e7fa90097c895", "type": "electric_scooter", "name": "609e0c982349ede98e2e7fa90097c895"}, {"is_disabled": 0, "is_reserved": 0, "fusion_lat": 0.0, "lat": 38.936991166666665, "fusion_lon": 0.0, "rental_uris": {"ios": "https://dc.lft.to/lastmile_qr_scan", "android": "https://dc.lft.to/lastmile_qr_scan"}, "lon": -77.05600716666666, "bike_id": "b1db2dc722a1923880b2891c6dbeb8d2", "type": "electric_scooter", "name": "b1db2dc722a1923880b2891c6dbeb8d2"}, {"is_disabled": 0, "is_reserved": 0, "fusion_lat": 0.0, "lat": 38.92885066666667, "fusion_lon": 0.0, "rental_uris": {"ios": "https://dc.lft.to/lastmile_qr_scan", "android": "https://dc.lft.to/lastmile_qr_scan"}, "lon": -77.0336025, "bike_id": "9f38db21fea8627ba63e5dd4a7d908e0", "type": "electric_scooter", "name": "9f38db21fea8627ba63e5dd4a7d908e0"}, {"is_disabled": 0, "is_reserved": 0, "fusion_lat": 0.0, "lat": 38.95310633333333, "fusion_lon": 0.0, "rental_uris": {"ios": "https://dc.lft.to/lastmile_qr_scan", "android": "https://dc.lft.to/lastmile_qr_scan"}, "lon": -77.02025866666666, "bike_id": "d3fcc5ef607955cc23b2030cf80d9fa3", "type": "electric_scooter", "name": "d3fcc5ef607955cc23b2030cf80d9fa3"}, {"is_disabled": 0, "is_reserved": 0, "fusion_lat": 0.0, "lat": 38.903861666666664, "fusion_lon": 0.0, "rental_uris": {"ios": "https://dc.lft.to/lastmile_qr_scan", "android": "https://dc.lft.to/lastmile_qr_scan"}, "lon": -77.018465, "bike_id": "fc6ed65be610c5bbb50817686307e2fb", "type": "electric_scooter", "name": "fc6ed65be610c5bbb50817686307e2fb"}, {"is_disabled": 0, "is_reserved": 0, "fusion_lat": 0.0, "lat": 38.953724333333334, "fusion_lon": 0.0, "rental_uris": {"ios": "https://dc.lft.to/lastmile_qr_scan", "android": "https://dc.lft.to/lastmile_qr_scan"}, "lon": -76.99843416666667, "bike_id": "733cec71ed39bc8e519a43ec91344412", "type": "electric_scooter", "name": "733cec71ed39bc8e519a43ec91344412"}, {"is_disabled": 0, "is_reserved": 0, "fusion_lat": 0.0, "lat": 38.934581333333334, "fusion_lon": 0.0, "rental_uris": {"ios": "https://dc.lft.to/lastmile_qr_scan", "android": "https://dc.lft.to/lastmile_qr_scan"}, "lon": -77.0240665, "bike_id": "e8be008f9800dc67cc400fdafc46c687", "type": "electric_scooter", "name": "e8be008f9800dc67cc400fdafc46c687"}, {"is_disabled": 0, "is_reserved": 0, "fusion_lat": 0.0, "lat": 38.88582916666667, "fusion_lon": 0.0, "rental_uris": {"ios": "https://dc.lft.to/lastmile_qr_scan", "android": "https://dc.lft.to/lastmile_qr_scan"}, "lon": -77.01225783333334, "bike_id": "7d80d68f1c1523221f8fac9741b36826", "type": "electric_scooter", "name": "7d80d68f1c1523221f8fac9741b36826"}, {"is_disabled": 0, "is_reserved": 0, "fusion_lat": 0.0, "lat": 38.931930666666666, "fusion_lon": 0.0, "rental_uris": {"ios": "https://dc.lft.to/lastmile_qr_scan", "android": "https://dc.lft.to/lastmile_qr_scan"}, "lon": -77.02450333333333, "bike_id": "636f91c7d37d79323a18abf4e80d3a68", "type": "electric_scooter", "name": "636f91c7d37d79323a18abf4e80d3a68"}, {"is_disabled": 0, "is_reserved": 0, "fusion_lat": 0.0, "lat": 38.920782833333334, "fusion_lon": 0.0, "rental_uris": {"ios": "https://dc.lft.to/lastmile_qr_scan", "android": "https://dc.lft.to/lastmile_qr_scan"}, "lon": -77.004556, "bike_id": "8abc8d7942e7af6035fbf331fdde9d84", "type": "electric_scooter", "name": "8abc8d7942e7af6035fbf331fdde9d84"}, {"is_disabled": 0, "is_reserved": 0, "fusion_lat": 0.0, "lat": 38.9085175, "fusion_lon": 0.0, "rental_uris": {"ios": "https://dc.lft.to/lastmile_qr_scan", "android": "https://dc.lft.to/lastmile_qr_scan"}, "lon": -77.02060483333334, "bike_id": "48c09807a327a22f553eb5233c728a3e", "type": "electric_scooter", "name": "48c09807a327a22f553eb5233c728a3e"}, {"is_disabled": 0, "is_reserved": 0, "fusion_lat": 0.0, "lat": 38.94602283333333, "fusion_lon": 0.0, "rental_uris": {"ios": "https://dc.lft.to/lastmile_qr_scan", "android": "https://dc.lft.to/lastmile_qr_scan"}, "lon": -77.0173945, "bike_id": "770244261d8909fc70c5106bb4cb1950", "type": "electric_bike", "name": "770244261d8909fc70c5106bb4cb1950"}, {"is_disabled": 0, "is_reserved": 0, "fusion_lat": 0.0, "lat": 38.88525216666667, "fusion_lon": 0.0, "rental_uris": {"ios": "https://dc.lft.to/lastmile_qr_scan", "android": "https://dc.lft.to/lastmile_qr_scan"}, "lon": -76.996123, "bike_id": "4c214344cf92913a2b9ec02b738a2558", "type": "electric_scooter", "name": "4c214344cf92913a2b9ec02b738a2558"}, {"is_disabled": 0, "is_reserved": 0, "fusion_lat": 0.0, "lat": 38.90773183333334, "fusion_lon": 0.0, "rental_uris": {"ios": "https://dc.lft.to/lastmile_qr_scan", "android": "https://dc.lft.to/lastmile_qr_scan"}, "lon": -77.045274, "bike_id": "aaffa777f2400df0dff5167ea8686290", "type": "electric_scooter", "name": "aaffa777f2400df0dff5167ea8686290"}, {"is_disabled": 0, "is_reserved": 0, "fusion_lat": 0.0, "lat": 38.881063, "fusion_lon": 0.0, "rental_uris": {"ios": "https://dc.lft.to/lastmile_qr_scan", "android": "https://dc.lft.to/lastmile_qr_scan"}, "lon": -77.01235833333334, "bike_id": "79bb5f473ebdb86c3428731d99e20e4d", "type": "electric_scooter", "name": "79bb5f473ebdb86c3428731d99e20e4d"}, {"is_disabled": 0, "is_reserved": 0, "fusion_lat": 0.0, "lat": 38.877425, "fusion_lon": 0.0, "rental_uris": {"ios": "https://dc.lft.to/lastmile_qr_scan", "android": "https://dc.lft.to/lastmile_qr_scan"}, "lon": -77.148713, "bike_id": "584ce3e8121d9d5f3c25390393dc1e4d", "type": "electric_bike", "name": "584ce3e8121d9d5f3c25390393dc1e4d"}, {"is_disabled": 0, "is_reserved": 0, "fusion_lat": 0.0, "lat": 38.91204916666667, "fusion_lon": 0.0, "rental_uris": {"ios": "https://dc.lft.to/lastmile_qr_scan", "android": "https://dc.lft.to/lastmile_qr_scan"}, "lon": -77.00085, "bike_id": "4b13b8ed4cd318c76e41e78673387f96", "type": "electric_scooter", "name": "4b13b8ed4cd318c76e41e78673387f96"}, {"is_disabled": 0, "is_reserved": 0, "fusion_lat": 0.0, "lat": 39.00538483333333, "fusion_lon": 0.0, "rental_uris": {"ios": "https://dc.lft.to/lastmile_qr_scan", "android": "https://dc.lft.to/lastmile_qr_scan"}, "lon": -77.104019, "bike_id": "47011781c91e1d0e364a225c4e792d07", "type": "electric_bike", "name": "47011781c91e1d0e364a225c4e792d07"}, {"is_disabled": 0, "is_reserved": 0, "fusion_lat": 0.0, "lat": 38.900379666666666, "fusion_lon": 0.0, "rental_uris": {"ios": "https://dc.lft.to/lastmile_qr_scan", "android": "https://dc.lft.to/lastmile_qr_scan"}, "lon": -77.00370233333334, "bike_id": "b8aad654ee4d20e2a3f657d8ee5fb2c7", "type": "electric_scooter", "name": "b8aad654ee4d20e2a3f657d8ee5fb2c7"}, {"is_disabled": 0, "is_reserved": 0, "fusion_lat": 0.0, "lat": 38.872937666666665, "fusion_lon": 0.0, "rental_uris": {"ios": "https://dc.lft.to/lastmile_qr_scan", "android": "https://dc.lft.to/lastmile_qr_scan"}, "lon": -77.0098435, "bike_id": "daf75b703cfb9aa964109c8082519517", "type": "electric_scooter", "name": "daf75b703cfb9aa964109c8082519517"}, {"is_disabled": 0, "is_reserved": 0, "fusion_lat": 0.0, "lat": 38.926686833333335, "fusion_lon": 0.0, "rental_uris": {"ios": "https://dc.lft.to/lastmile_qr_scan", "android": "https://dc.lft.to/lastmile_qr_scan"}, "lon": -77.03024166666667, "bike_id": "09cebda3a3a1561476699815b4b24045", "type": "electric_scooter", "name": "09cebda3a3a1561476699815b4b24045"}, {"is_disabled": 0, "is_reserved": 0, "fusion_lat": 0.0, "lat": 38.935158333333334, "fusion_lon": 0.0, "rental_uris": {"ios": "https://dc.lft.to/lastmile_qr_scan", "android": "https://dc.lft.to/lastmile_qr_scan"}, "lon": -77.02843983333334, "bike_id": "68c47e8e522c64f90f03e647a90af63f", "type": "electric_scooter", "name": "68c47e8e522c64f90f03e647a90af63f"}, {"is_disabled": 0, "is_reserved": 0, "fusion_lat": 0.0, "lat": 38.91919816666667, "fusion_lon": 0.0, "rental_uris": {"ios": "https://dc.lft.to/lastmile_qr_scan", "android": "https://dc.lft.to/lastmile_qr_scan"}, "lon": -77.02329083333333, "bike_id": "84f92a9297c19a4049b26a2299bb48b6", "type": "electric_scooter", "name": "84f92a9297c19a4049b26a2299bb48b6"}, {"is_disabled": 0, "is_reserved": 0, "fusion_lat": 0.0, "lat": 38.92655166666667, "fusion_lon": 0.0, "rental_uris": {"ios": "https://dc.lft.to/lastmile_qr_scan", "android": "https://dc.lft.to/lastmile_qr_scan"}, "lon": -77.02450116666667, "bike_id": "97167c58071bcc3a9896ffb2bda67aa8", "type": "electric_scooter", "name": "97167c58071bcc3a9896ffb2bda67aa8"}, {"is_disabled": 0, "is_reserved": 0, "fusion_lat": 0.0, "lat": 38.931227166666666, "fusion_lon": 0.0, "rental_uris": {"ios": "https://dc.lft.to/lastmile_qr_scan", "android": "https://dc.lft.to/lastmile_qr_scan"}, "lon": -77.0206995, "bike_id": "d6e00811a5d4b8ee45b12dd82515ba30", "type": "electric_scooter", "name": "d6e00811a5d4b8ee45b12dd82515ba30"}, {"is_disabled": 0, "is_reserved": 0, "fusion_lat": 0.0, "lat": 38.9235825, "fusion_lon": 0.0, "rental_uris": {"ios": "https://dc.lft.to/lastmile_qr_scan", "android": "https://dc.lft.to/lastmile_qr_scan"}, "lon": -77.04388533333334, "bike_id": "b441abf86f1c5f77c2400255d3173780", "type": "electric_scooter", "name": "b441abf86f1c5f77c2400255d3173780"}, {"is_disabled": 0, "is_reserved": 0, "fusion_lat": 0.0, "lat": 38.92657166666667, "fusion_lon": 0.0, "rental_uris": {"ios": "https://dc.lft.to/lastmile_qr_scan", "android": "https://dc.lft.to/lastmile_qr_scan"}, "lon": -77.02424516666666, "bike_id": "9da217cdedf1ec118827c55be0d30dde", "type": "electric_scooter", "name": "9da217cdedf1ec118827c55be0d30dde"}, {"is_disabled": 0, "is_reserved": 0, "fusion_lat": 0.0, "lat": 38.911141666666666, "fusion_lon": 0.0, "rental_uris": {"ios": "https://dc.lft.to/lastmile_qr_scan", "android": "https://dc.lft.to/lastmile_qr_scan"}, "lon": -77.003801, "bike_id": "51fdef4879a49446616b39d7ba84d730", "type": "electric_scooter", "name": "51fdef4879a49446616b39d7ba84d730"}, {"is_disabled": 0, "is_reserved": 0, "fusion_lat": 0.0, "lat": 38.9207655, "fusion_lon": 0.0, "rental_uris": {"ios": "https://dc.lft.to/lastmile_qr_scan", "android": "https://dc.lft.to/lastmile_qr_scan"}, "lon": -77.023603, "bike_id": "a71db2fbb7fa64aa9feae81447d9354d", "type": "electric_scooter", "name": "a71db2fbb7fa64aa9feae81447d9354d"}, {"is_disabled": 0, "is_reserved": 0, "fusion_lat": 0.0, "lat": 38.923585833333334, "fusion_lon": 0.0, "rental_uris": {"ios": "https://dc.lft.to/lastmile_qr_scan", "android": "https://dc.lft.to/lastmile_qr_scan"}, "lon": -77.07305783333334, "bike_id": "f7de54783edfafaba681d39ab11ba0d6", "type": "electric_scooter", "name": "f7de54783edfafaba681d39ab11ba0d6"}, {"is_disabled": 0, "is_reserved": 0, "fusion_lat": 0.0, "lat": 38.936044333333335, "fusion_lon": 0.0, "rental_uris": {"ios": "https://dc.lft.to/lastmile_qr_scan", "android": "https://dc.lft.to/lastmile_qr_scan"}, "lon": -77.0558805, "bike_id": "76a7195df79d5b1fe83e2c09e461890c", "type": "electric_scooter", "name": "76a7195df79d5b1fe83e2c09e461890c"}, {"is_disabled": 0, "is_reserved": 0, "fusion_lat": 0.0, "lat": 38.93707233333333, "fusion_lon": 0.0, "rental_uris": {"ios": "https://dc.lft.to/lastmile_qr_scan", "android": "https://dc.lft.to/lastmile_qr_scan"}, "lon": -77.05597, "bike_id": "912214b52bad6341786e879d3d36ef32", "type": "electric_scooter", "name": "912214b52bad6341786e879d3d36ef32"}, {"is_disabled": 0, "is_reserved": 0, "fusion_lat": 0.0, "lat": 38.9141125, "fusion_lon": 0.0, "rental_uris": {"ios": "https://dc.lft.to/lastmile_qr_scan", "android": "https://dc.lft.to/lastmile_qr_scan"}, "lon": -77.04388866666666, "bike_id": "3e9f52186cd066fbe7cb4dc083def452", "type": "electric_scooter", "name": "3e9f52186cd066fbe7cb4dc083def452"}, {"is_disabled": 0, "is_reserved": 0, "fusion_lat": 0.0, "lat": 38.91133833333333, "fusion_lon": 0.0, "rental_uris": {"ios": "https://dc.lft.to/lastmile_qr_scan", "android": "https://dc.lft.to/lastmile_qr_scan"}, "lon": -76.99746133333333, "bike_id": "1650743ba5ef443d8181936fd64d87bc", "type": "electric_scooter", "name": "1650743ba5ef443d8181936fd64d87bc"}, {"is_disabled": 0, "is_reserved": 0, "fusion_lat": 0.0, "lat": 38.96772583333333, "fusion_lon": 0.0, "rental_uris": {"ios": "https://dc.lft.to/lastmile_qr_scan", "android": "https://dc.lft.to/lastmile_qr_scan"}, "lon": -76.99652316666666, "bike_id": "ead0c1c8f25ff64b344a0a642b00a7ef", "type": "electric_bike", "name": "ead0c1c8f25ff64b344a0a642b00a7ef"}, {"is_disabled": 0, "is_reserved": 0, "fusion_lat": 0.0, "lat": 38.905066, "fusion_lon": 0.0, "rental_uris": {"ios": "https://dc.lft.to/lastmile_qr_scan", "android": "https://dc.lft.to/lastmile_qr_scan"}, "lon": -77.061112, "bike_id": "d3ebdb7ce2a341e42def3321ea7ba9a0", "type": "electric_scooter", "name": "d3ebdb7ce2a341e42def3321ea7ba9a0"}, {"is_disabled": 0, "is_reserved": 0, "fusion_lat": 0.0, "lat": 38.9498075, "fusion_lon": 0.0, "rental_uris": {"ios": "https://dc.lft.to/lastmile_qr_scan", "android": "https://dc.lft.to/lastmile_qr_scan"}, "lon": -77.0244805, "bike_id": "b6dc125ca6181711eaf517cb336a24d3", "type": "electric_scooter", "name": "b6dc125ca6181711eaf517cb336a24d3"}, {"is_disabled": 0, "is_reserved": 0, "fusion_lat": 0.0, "lat": 38.912035, "fusion_lon": 0.0, "rental_uris": {"ios": "https://dc.lft.to/lastmile_qr_scan", "android": "https://dc.lft.to/lastmile_qr_scan"}, "lon": -77.001544, "bike_id": "8fb3e0c2f5628d01973b32ad8649bf4c", "type": "electric_scooter", "name": "8fb3e0c2f5628d01973b32ad8649bf4c"}, {"is_disabled": 0, "is_reserved": 0, "fusion_lat": 0.0, "lat": 38.88135583333333, "fusion_lon": 0.0, "rental_uris": {"ios": "https://dc.lft.to/lastmile_qr_scan", "android": "https://dc.lft.to/lastmile_qr_scan"}, "lon": -77.022689, "bike_id": "54bd5357367f42a97ff3398b24990984", "type": "electric_scooter", "name": "54bd5357367f42a97ff3398b24990984"}, {"is_disabled": 0, "is_reserved": 0, "fusion_lat": 0.0, "lat": 38.8845, "fusion_lon": 0.0, "rental_uris": {"ios": "https://dc.lft.to/lastmile_qr_scan", "android": "https://dc.lft.to/lastmile_qr_scan"}, "lon": -76.95096666666667, "bike_id": "4308f18ee759008c4e3b82ee07f2d601", "type": "electric_scooter", "name": "4308f18ee759008c4e3b82ee07f2d601"}, {"is_disabled": 0, "is_reserved": 0, "fusion_lat": 0.0, "lat": 38.898506, "fusion_lon": 0.0, "rental_uris": {"ios": "https://dc.lft.to/lastmile_qr_scan", "android": "https://dc.lft.to/lastmile_qr_scan"}, "lon": -77.02869183333334, "bike_id": "5a328d4aea18e69bc43f2ef4bf31228d", "type": "electric_scooter", "name": "5a328d4aea18e69bc43f2ef4bf31228d"}, {"is_disabled": 0, "is_reserved": 0, "fusion_lat": 0.0, "lat": 38.81330883333333, "fusion_lon": 0.0, "rental_uris": {"ios": "https://dc.lft.to/lastmile_qr_scan", "android": "https://dc.lft.to/lastmile_qr_scan"}, "lon": -77.050885, "bike_id": "168f02672676afb1157062ac5bf04094", "type": "electric_bike", "name": "168f02672676afb1157062ac5bf04094"}, {"is_disabled": 0, "is_reserved": 0, "fusion_lat": 0.0, "lat": 38.949187, "fusion_lon": 0.0, "rental_uris": {"ios": "https://dc.lft.to/lastmile_qr_scan", "android": "https://dc.lft.to/lastmile_qr_scan"}, "lon": -77.00801666666666, "bike_id": "bb4d20777b57c1828dc816e91fcd8f60", "type": "electric_bike", "name": "bb4d20777b57c1828dc816e91fcd8f60"}, {"is_disabled": 0, "is_reserved": 0, "fusion_lat": 0.0, "lat": 38.928948, "fusion_lon": 0.0, "rental_uris": {"ios": "https://dc.lft.to/lastmile_qr_scan", "android": "https://dc.lft.to/lastmile_qr_scan"}, "lon": -77.037584, "bike_id": "895da43a097728844987d387c8e6b54c", "type": "electric_scooter", "name": "895da43a097728844987d387c8e6b54c"}, {"is_disabled": 0, "is_reserved": 0, "fusion_lat": 0.0, "lat": 38.90445233333333, "fusion_lon": 0.0, "rental_uris": {"ios": "https://dc.lft.to/lastmile_qr_scan", "android": "https://dc.lft.to/lastmile_qr_scan"}, "lon": -77.04833116666667, "bike_id": "26a5b08fb2e7939588506fd9924bc717", "type": "electric_scooter", "name": "26a5b08fb2e7939588506fd9924bc717"}, {"is_disabled": 0, "is_reserved": 0, "fusion_lat": 0.0, "lat": 38.92874366666667, "fusion_lon": 0.0, "rental_uris": {"ios": "https://dc.lft.to/lastmile_qr_scan", "android": "https://dc.lft.to/lastmile_qr_scan"}, "lon": -77.03407566666667, "bike_id": "f0c5235ac95fd8ad34919f7addc561ac", "type": "electric_scooter", "name": "f0c5235ac95fd8ad34919f7addc561ac"}, {"is_disabled": 0, "is_reserved": 0, "fusion_lat": 0.0, "lat": 38.87468116666667, "fusion_lon": 0.0, "rental_uris": {"ios": "https://dc.lft.to/lastmile_qr_scan", "android": "https://dc.lft.to/lastmile_qr_scan"}, "lon": -77.00517566666667, "bike_id": "216251fb694f36cf414b06dfff7054f7", "type": "electric_scooter", "name": "216251fb694f36cf414b06dfff7054f7"}, {"is_disabled": 0, "is_reserved": 0, "fusion_lat": 0.0, "lat": 38.8923255, "fusion_lon": 0.0, "rental_uris": {"ios": "https://dc.lft.to/lastmile_qr_scan", "android": "https://dc.lft.to/lastmile_qr_scan"}, "lon": -77.02383583333334, "bike_id": "6129fbfa0890b5284cf05dec47b2d100", "type": "electric_scooter", "name": "6129fbfa0890b5284cf05dec47b2d100"}, {"is_disabled": 0, "is_reserved": 0, "fusion_lat": 0.0, "lat": 38.92166066666667, "fusion_lon": 0.0, "rental_uris": {"ios": "https://dc.lft.to/lastmile_qr_scan", "android": "https://dc.lft.to/lastmile_qr_scan"}, "lon": -77.018002, "bike_id": "b5b465de339e19d4cc03474877f93382", "type": "electric_scooter", "name": "b5b465de339e19d4cc03474877f93382"}, {"is_disabled": 0, "is_reserved": 0, "fusion_lat": 0.0, "lat": 38.94175966666667, "fusion_lon": 0.0, "rental_uris": {"ios": "https://dc.lft.to/lastmile_qr_scan", "android": "https://dc.lft.to/lastmile_qr_scan"}, "lon": -77.03391033333334, "bike_id": "ad73958cdc4d18cbf9ddb0f2dcada8db", "type": "electric_scooter", "name": "ad73958cdc4d18cbf9ddb0f2dcada8db"}, {"is_disabled": 0, "is_reserved": 0, "fusion_lat": 0.0, "lat": 38.915036, "fusion_lon": 0.0, "rental_uris": {"ios": "https://dc.lft.to/lastmile_qr_scan", "android": "https://dc.lft.to/lastmile_qr_scan"}, "lon": -76.983471, "bike_id": "601161ee74e610c4c3859ebf567988b4", "type": "electric_scooter", "name": "601161ee74e610c4c3859ebf567988b4"}, {"is_disabled": 0, "is_reserved": 0, "fusion_lat": 0.0, "lat": 38.92341233333333, "fusion_lon": 0.0, "rental_uris": {"ios": "https://dc.lft.to/lastmile_qr_scan", "android": "https://dc.lft.to/lastmile_qr_scan"}, "lon": -76.99876566666667, "bike_id": "9c451d9551183c504d0de308d558ee7d", "type": "electric_scooter", "name": "9c451d9551183c504d0de308d558ee7d"}, {"is_disabled": 0, "is_reserved": 0, "fusion_lat": 0.0, "lat": 38.86265933333333, "fusion_lon": 0.0, "rental_uris": {"ios": "https://dc.lft.to/lastmile_qr_scan", "android": "https://dc.lft.to/lastmile_qr_scan"}, "lon": -76.98353866666666, "bike_id": "159905288940967a12562378b35c590a", "type": "electric_bike", "name": "159905288940967a12562378b35c590a"}, {"is_disabled": 0, "is_reserved": 0, "fusion_lat": 0.0, "lat": 38.91909916666667, "fusion_lon": 0.0, "rental_uris": {"ios": "https://dc.lft.to/lastmile_qr_scan", "android": "https://dc.lft.to/lastmile_qr_scan"}, "lon": -77.05999933333334, "bike_id": "a26758d3d0bbc0d8fa1913a6daa051b7", "type": "electric_bike", "name": "a26758d3d0bbc0d8fa1913a6daa051b7"}, {"is_disabled": 0, "is_reserved": 0, "fusion_lat": 0.0, "lat": 38.8551755, "fusion_lon": 0.0, "rental_uris": {"ios": "https://dc.lft.to/lastmile_qr_scan", "android": "https://dc.lft.to/lastmile_qr_scan"}, "lon": -77.1198295, "bike_id": "2bafe6466e44d7a7c267b1f9fcfd9197", "type": "electric_bike", "name": "2bafe6466e44d7a7c267b1f9fcfd9197"}, {"is_disabled": 0, "is_reserved": 0, "fusion_lat": 0.0, "lat": 38.905119, "fusion_lon": 0.0, "rental_uris": {"ios": "https://dc.lft.to/lastmile_qr_scan", "android": "https://dc.lft.to/lastmile_qr_scan"}, "lon": -76.95189666666667, "bike_id": "777b1b181272fb2ddb6e94d79d46b17a", "type": "electric_scooter", "name": "777b1b181272fb2ddb6e94d79d46b17a"}, {"is_disabled": 0, "is_reserved": 0, "fusion_lat": 0.0, "lat": 38.860083833333334, "fusion_lon": 0.0, "rental_uris": {"ios": "https://dc.lft.to/lastmile_qr_scan", "android": "https://dc.lft.to/lastmile_qr_scan"}, "lon": -77.06526733333334, "bike_id": "c37d963fa3d1404af773004e22980ea7", "type": "electric_bike", "name": "c37d963fa3d1404af773004e22980ea7"}, {"is_disabled": 0, "is_reserved": 0, "fusion_lat": 0.0, "lat": 38.87460566666667, "fusion_lon": 0.0, "rental_uris": {"ios": "https://dc.lft.to/lastmile_qr_scan", "android": "https://dc.lft.to/lastmile_qr_scan"}, "lon": -77.009394, "bike_id": "25fb5a46a8cc58a73ac2c52e565d7803", "type": "electric_scooter", "name": "25fb5a46a8cc58a73ac2c52e565d7803"}, {"is_disabled": 0, "is_reserved": 0, "fusion_lat": 0.0, "lat": 38.8854575, "fusion_lon": 0.0, "rental_uris": {"ios": "https://dc.lft.to/lastmile_qr_scan", "android": "https://dc.lft.to/lastmile_qr_scan"}, "lon": -76.9596985, "bike_id": "ee8624012b198204ec623f767098159d", "type": "electric_scooter", "name": "ee8624012b198204ec623f767098159d"}, {"is_disabled": 0, "is_reserved": 0, "fusion_lat": 0.0, "lat": 38.8830025, "fusion_lon": 0.0, "rental_uris": {"ios": "https://dc.lft.to/lastmile_qr_scan", "android": "https://dc.lft.to/lastmile_qr_scan"}, "lon": -77.00890633333333, "bike_id": "e154ea3268bae86c47d6e340fcb4fbfd", "type": "electric_scooter", "name": "e154ea3268bae86c47d6e340fcb4fbfd"}, {"is_disabled": 0, "is_reserved": 0, "fusion_lat": 0.0, "lat": 38.896689333333335, "fusion_lon": 0.0, "rental_uris": {"ios": "https://dc.lft.to/lastmile_qr_scan", "android": "https://dc.lft.to/lastmile_qr_scan"}, "lon": -76.9320565, "bike_id": "79b43e829d22a169e436e5ec9b28ca9f", "type": "electric_scooter", "name": "79b43e829d22a169e436e5ec9b28ca9f"}, {"is_disabled": 0, "is_reserved": 0, "fusion_lat": 0.0, "lat": 38.9367535, "fusion_lon": 0.0, "rental_uris": {"ios": "https://dc.lft.to/lastmile_qr_scan", "android": "https://dc.lft.to/lastmile_qr_scan"}, "lon": -77.02283033333333, "bike_id": "0a85948e2980cad2ed5ce941148ed4e0", "type": "electric_scooter", "name": "0a85948e2980cad2ed5ce941148ed4e0"}, {"is_disabled": 0, "is_reserved": 0, "fusion_lat": 0.0, "lat": 38.91606816666667, "fusion_lon": 0.0, "rental_uris": {"ios": "https://dc.lft.to/lastmile_qr_scan", "android": "https://dc.lft.to/lastmile_qr_scan"}, "lon": -77.0229125, "bike_id": "8eafbf10a58bdc2857c88752c3bb0738", "type": "electric_scooter", "name": "8eafbf10a58bdc2857c88752c3bb0738"}, {"is_disabled": 0, "is_reserved": 0, "fusion_lat": 0.0, "lat": 38.9353015, "fusion_lon": 0.0, "rental_uris": {"ios": "https://dc.lft.to/lastmile_qr_scan", "android": "https://dc.lft.to/lastmile_qr_scan"}, "lon": -77.02355766666666, "bike_id": "b8109bd99ec3fd9b459807196b5a4d85", "type": "electric_scooter", "name": "b8109bd99ec3fd9b459807196b5a4d85"}, {"is_disabled": 0, "is_reserved": 0, "fusion_lat": 0.0, "lat": 38.918056, "fusion_lon": 0.0, "rental_uris": {"ios": "https://dc.lft.to/lastmile_qr_scan", "android": "https://dc.lft.to/lastmile_qr_scan"}, "lon": -77.024937, "bike_id": "1caf6bf4db1bebc453e070d1a086a167", "type": "electric_scooter", "name": "1caf6bf4db1bebc453e070d1a086a167"}, {"is_disabled": 0, "is_reserved": 0, "fusion_lat": 0.0, "lat": 38.926588, "fusion_lon": 0.0, "rental_uris": {"ios": "https://dc.lft.to/lastmile_qr_scan", "android": "https://dc.lft.to/lastmile_qr_scan"}, "lon": -77.05207966666667, "bike_id": "cbb36a3dd4196667a2ac1a13d3243992", "type": "electric_scooter", "name": "cbb36a3dd4196667a2ac1a13d3243992"}, {"is_disabled": 0, "is_reserved": 0, "fusion_lat": 0.0, "lat": 38.915589, "fusion_lon": 0.0, "rental_uris": {"ios": "https://dc.lft.to/lastmile_qr_scan", "android": "https://dc.lft.to/lastmile_qr_scan"}, "lon": -77.05100716666666, "bike_id": "d4389b234e90ead65f1792453d9f7e16", "type": "electric_scooter", "name": "d4389b234e90ead65f1792453d9f7e16"}, {"is_disabled": 0, "is_reserved": 0, "fusion_lat": 0.0, "lat": 38.916065, "fusion_lon": 0.0, "rental_uris": {"ios": "https://dc.lft.to/lastmile_qr_scan", "android": "https://dc.lft.to/lastmile_qr_scan"}, "lon": -77.0433635, "bike_id": "ea2596a5ff5a842c8faad3c42798a7c2", "type": "electric_scooter", "name": "ea2596a5ff5a842c8faad3c42798a7c2"},