{"data": {"bikes": [{"rental_uris": {"ios": "https://dc.lft.to/lastmile_qr_scan", "android": "https://dc.lft.to/lastmile_qr_scan"}, "type": "electric_bike", "name": "be82f04d1b8172c03af24ff94c370062", "is_reserved": 0, "lon": -76.98879033333333, "is_disabled": 0, "fusion_lat": 0.0, "lat": 38.921138666666664, "bike_id": "be82f04d1b8172c03af24ff94c370062", "fusion_lon": 0.0}, {"rental_uris": {"ios": "https://dc.lft.to/lastmile_qr_scan", "android": "https://dc.lft.to/lastmile_qr_scan"}, "type": "electric_scooter", "name": "54c3f3dcf76c3f32d409c6c59d1a0128", "is_reserved": 0, "lon": -77.04057783333333, "is_disabled": 0, "fusion_lat": 0.0, "lat": 38.917675833333334, "bike_id": "54c3f3dcf76c3f32d409c6c59d1a0128", "fusion_lon": 0.0}, {"rental_uris": {"ios": "https://dc.lft.to/lastmile_qr_scan", "android": "https://dc.lft.to/lastmile_qr_scan"}, "type": "electric_scooter", "name": "ea3ded0c7e6181fbf47f67cbeb8c9f6c", "is_reserved": 0, "lon": -77.03059716666667, "is_disabled": 0, "fusion_lat": 0.0, "lat": 38.90729316666667, "bike_id": "ea3ded0c7e6181fbf47f67cbeb8c9f6c", "fusion_lon": 0.0}, {"rental_uris": {"ios": "https://dc.lft.to/lastmile_qr_scan", "android": "https://dc.lft.to/lastmile_qr_scan"}, "type": "electric_scooter", "name": "552c6a0b042e0bf30b349aa0e8a53b0a", "is_reserved": 0, "lon": -77.058149, "is_disabled": 0, "fusion_lat": 0.0, "lat": 38.93517516666667, "bike_id": "552c6a0b042e0bf30b349aa0e8a53b0a", "fusion_lon": 0.0}, {"rental_uris": {"ios": "https://dc.lft.to/lastmile_qr_scan", "android": "https://dc.lft.to/lastmile_qr_scan"}, "type": "electric_scooter", "name": "bc61654fed1053788a9a085d1588bdbb", "is_reserved": 0, "lon": -77.0326795, "is_disabled": 0, "fusion_lat": 0.0, "lat": 38.9171205, "bike_id": "bc61654fed1053788a9a085d1588bdbb", "fusion_lon": 0.0}, {"rental_uris": {"ios": "https://dc.lft.to/lastmile_qr_scan", "android": "https://dc.lft.to/lastmile_qr_scan"}, "type": "electric_scooter", "name": "19520f32b06704ff60c228426e63ed98", "is_reserved": 0, "lon": -77.03464016666666, "is_disabled": 0, "fusion_lat": 0.0, "lat": 38.91181983333333, "bike_id": "19520f32b06704ff60c228426e63ed98", "fusion_lon": 0.0}, {"rental_uris": {"ios": "https://dc.lft.to/lastmile_qr_scan", "android": "https://dc.lft.to/lastmile_qr_scan"}, "type": "electric_scooter", "name": "69082be7d3078559208666198fb02118", "is_reserved": 0, "lon": -77.03281616666666, "is_disabled": 0, "fusion_lat": 0.0, "lat": 38.91994966666667, "bike_id": "69082be7d3078559208666198fb02118", "fusion_lon": 0.0}, {"rental_uris": {"ios": "https://dc.lft.to/lastmile_qr_scan", "android": "https://dc.lft.to/lastmile_qr_scan"}, "type": "electric_scooter", "name": "59822137860f2d15a08683716860b52e", "is_reserved": 0, "lon": -77.048097, "is_disabled": 0, "fusion_lat": 0.0, "lat": 38.92030533333333, "bike_id": "59822137860f2d15a08683716860b52e", "fusion_lon": 0.0}, {"rental_uris": {"ios": "https://dc.lft.to/lastmile_qr_scan", "android": "https://dc.lft.to/lastmile_qr_scan"}, "type": "electric_bike", "name": "71fd789feef2c7852156dc69d0f933ae", "is_reserved": 0, "lon": -77.0015015, "is_disabled": 0, "fusion_lat": 0.0, "lat": 38.941602333333336, "bike_id": "71fd789feef2c7852156dc69d0f933ae", "fusion_lon": 0.0}, {"rental_uris": {"ios": "https://dc.lft.to/lastmile_qr_scan", "android": "https://dc.lft.to/lastmile_qr_scan"}, "type": "electric_scooter", "name": "58651f1e26ae1f01ce3fd0b9e81a064c", "is_reserved": 0, "lon": -77.04807483333333, "is_disabled": 0, "fusion_lat": 0.0, "lat": 38.89953333333333, "bike_id": "58651f1e26ae1f01ce3fd0b9e81a064c", "fusion_lon": 0.0}, {"rental_uris": {"ios": "https://dc.lft.to/lastmile_qr_scan", "android": "https://dc.lft.to/lastmile_qr_scan"}, "type": "electric_scooter", "name": "e9cb3b8799946347d38267cd9c03e641", "is_reserved": 0, "lon": -77.03158483333333, "is_disabled": 0, "fusion_lat": 0.0, "lat": 38.9593415, "bike_id": "e9cb3b8799946347d38267cd9c03e641", "fusion_lon": 0.0}, {"rental_uris": {"ios": "https://dc.lft.to/lastmile_qr_scan", "android": "https://dc.lft.to/lastmile_qr_scan"}, "type": "electric_scooter", "name": "50d26197edf5456db22ab4857cc05484", "is_reserved": 0, "lon": -77.02180033333333, "is_disabled": 0, "fusion_lat": 0.0, "lat": 38.91481316666667, "bike_id": "50d26197edf5456db22ab4857cc05484", "fusion_lon": 0.0}, {"rental_uris": {"ios": "https://dc.lft.to/lastmile_qr_scan", "android": "https://dc.lft.to/lastmile_qr_scan"}, "type": "electric_scooter", "name": "f6e65a3deb909c193e48c3f42e687ffb", "is_reserved": 0, "lon": -77.03189283333333, "is_disabled": 0, "fusion_lat": 0.0, "lat": 38.89895533333333, "bike_id": "f6e65a3deb909c193e48c3f42e687ffb", "fusion_lon": 0.0}, {"rental_uris": {"ios": "https://dc.lft.to/lastmile_qr_scan", "android": "https://dc.lft.to/lastmile_qr_scan"}, "type": "electric_scooter", "name": "95565c31a220f1c50a40627ddd50d609", "is_reserved": 0, "lon": -77.04381766666667, "is_disabled": 0, "fusion_lat": 0.0, "lat": 38.934247, "bike_id": "95565c31a220f1c50a40627ddd50d609", "fusion_lon": 0.0}, {"rental_uris": {"ios": "https://dc.lft.to/lastmile_qr_scan", "android": "https://dc.lft.to/lastmile_qr_scan"}, "type": "electric_scooter", "name": "27b4be0af2b533598fd6604c88e14602", "is_reserved": 0, "lon": -77.01881316666666, "is_disabled": 0, "fusion_lat": 0.0, "lat": 38.89747583333333, "bike_id": "27b4be0af2b533598fd6604c88e14602", "fusion_lon": 0.0}, {"rental_uris": {"ios": "https://dc.lft.to/lastmile_qr_scan", "android": "https://dc.lft.to/lastmile_qr_scan"}, "type": "electric_scooter", "name": "2fdef32e0f716585e2235020d454e2d3", "is_reserved": 0, "lon": -76.99071083333334, "is_disabled": 0, "fusion_lat": 0.0, "lat": 38.904199, "bike_id": "2fdef32e0f716585e2235020d454e2d3", "fusion_lon": 0.0}, {"rental_uris": {"ios": "https://dc.lft.to/lastmile_qr_scan", "android": "https://dc.lft.to/lastmile_qr_scan"}, "type": "electric_scooter", "name": "4ea6747ff23b7aa0a94212475ca92a18", "is_reserved": 0, "lon": -76.98331666666667, "is_disabled": 0, "fusion_lat": 0.0, "lat": 38.900880666666666, "bike_id": "4ea6747ff23b7aa0a94212475ca92a18", "fusion_lon": 0.0}, {"rental_uris": {"ios": "https://dc.lft.to/lastmile_qr_scan", "android": "https://dc.lft.to/lastmile_qr_scan"}, "type": "electric_scooter", "name": "34613ae954f516943219166a7c4cad55", "is_reserved": 0, "lon": -77.03195833333334, "is_disabled": 0, "fusion_lat": 0.0, "lat": 38.914737, "bike_id": "34613ae954f516943219166a7c4cad55", "fusion_lon": 0.0}, {"rental_uris": {"ios": "https://dc.lft.to/lastmile_qr_scan", "android": "https://dc.lft.to/lastmile_qr_scan"}, "type": "electric_scooter", "name": "57cbacdc4183e2f27bc745441b6247a4", "is_reserved": 0, "lon": -77.019973, "is_disabled": 0, "fusion_lat": 0.0, "lat": 38.899031666666666, "bike_id": "57cbacdc4183e2f27bc745441b6247a4", "fusion_lon": 0.0}, {"rental_uris": {"ios": "https://dc.lft.to/lastmile_qr_scan", "android": "https://dc.lft.to/lastmile_qr_scan"}, "type": "electric_scooter", "name": "8616addb7d2450adef05532e90e36adf", "is_reserved": 0, "lon": -77.03387833333333, "is_disabled": 0, "fusion_lat": 0.0, "lat": 38.89952016666667, "bike_id": "8616addb7d2450adef05532e90e36adf", "fusion_lon": 0.0}, {"rental_uris": {"ios": "https://dc.lft.to/lastmile_qr_scan", "android": "https://dc.lft.to/lastmile_qr_scan"}, "type": "electric_scooter", "name": "c5e7afc518e22f6460b0cf0bf16c7a75", "is_reserved": 0, "lon": -77.03149633333334, "is_disabled": 0, "fusion_lat": 0.0, "lat": 38.88758933333333, "bike_id": "c5e7afc518e22f6460b0cf0bf16c7a75", "fusion_lon": 0.0}, {"rental_uris": {"ios": "https://dc.lft.to/lastmile_qr_scan", "android": "https://dc.lft.to/lastmile_qr_scan"}, "type": "electric_bike", "name": "60782f2048a2b8379023883f73a60f64", "is_reserved": 0, "lon": -76.96088966666667, "is_disabled": 0, "fusion_lat": 0.0, "lat": 38.949627166666666, "bike_id": "60782f2048a2b8379023883f73a60f64", "fusion_lon": 0.0}, {"rental_uris": {"ios": "https://dc.lft.to/lastmile_qr_scan", "android": "https://dc.lft.to/lastmile_qr_scan"}, "type": "electric_scooter", "name": "f72b776e9b8a41d5712089a1b8ba1bb0", "is_reserved": 0, "lon": -77.03186283333334, "is_disabled": 0, "fusion_lat": 0.0, "lat": 38.919265833333334, "bike_id": "f72b776e9b8a41d5712089a1b8ba1bb0", "fusion_lon": 0.0}, {"rental_uris": {"ios": "https://dc.lft.to/lastmile_qr_scan", "android": "https://dc.lft.to/lastmile_qr_scan"}, "type": "electric_scooter", "name": "0a6b13da0853e1cea553fb3c4f6aa023", "is_reserved": 0, "lon": -77.069921, "is_disabled": 0, "fusion_lat": 0.0, "lat": 38.95216216666667, "bike_id": "0a6b13da0853e1cea553fb3c4f6aa023", "fusion_lon": 0.0}, {"rental_uris": {"ios": "https://dc.lft.to/lastmile_qr_scan", "android": "https://dc.lft.to/lastmile_qr_scan"}, "type": "electric_scooter", "name": "07bf8f781fd0a3aee4542e80586d66cf", "is_reserved": 0, "lon": -77.00203516666667, "is_disabled": 0, "fusion_lat": 0.0, "lat": 38.901610833333336, "bike_id": "07bf8f781fd0a3aee4542e80586d66cf", "fusion_lon": 0.0}, {"rental_uris": {"ios": "https://dc.lft.to/lastmile_qr_scan", "android": "https://dc.lft.to/lastmile_qr_scan"}, "type": "electric_bike", "name": "bbba7fe8d0dff612e6a3b43b66910ec7", "is_reserved": 0, "lon": -76.98136833333334, "is_disabled": 0, "fusion_lat": 0.0, "lat": 38.934911166666666, "bike_id": "bbba7fe8d0dff612e6a3b43b66910ec7", "fusion_lon": 0.0}, {"rental_uris": {"ios": "https://dc.lft.to/lastmile_qr_scan", "android": "https://dc.lft.to/lastmile_qr_scan"}, "type": "electric_scooter", "name": "4d028e7f71990a41321600e0a50212de", "is_reserved": 0, "lon": -77.03502233333333, "is_disabled": 0, "fusion_lat": 0.0, "lat": 38.91868566666667, "bike_id": "4d028e7f71990a41321600e0a50212de", "fusion_lon": 0.0}, {"rental_uris": {"ios": "https://dc.lft.to/lastmile_qr_scan", "android": "https://dc.lft.to/lastmile_qr_scan"}, "type": "electric_scooter", "name": "cd74a2918d111cdf2ce9c565f5477b7a", "is_reserved": 0, "lon": -77.025039, "is_disabled": 0, "fusion_lat": 0.0, "lat": 38.91983333333334, "bike_id": "cd74a2918d111cdf2ce9c565f5477b7a", "fusion_lon": 0.0}, {"rental_uris": {"ios": "https://dc.lft.to/lastmile_qr_scan", "android": "https://dc.lft.to/lastmile_qr_scan"}, "type": "electric_scooter", "name": "9e2f96d5144b6c29baa838f2be6d9e48", "is_reserved": 0, "lon": -77.0110095, "is_disabled": 0, "fusion_lat": 0.0, "lat": 38.88539933333333, "bike_id": "9e2f96d5144b6c29baa838f2be6d9e48", "fusion_lon": 0.0}, {"rental_uris": {"ios": "https://dc.lft.to/lastmile_qr_scan", "android": "https://dc.lft.to/lastmile_qr_scan"}, "type": "electric_scooter", "name": "7887ef616a19785480c6c96501542be2", "is_reserved": 0, "lon": -77.016214, "is_disabled": 0, "fusion_lat": 0.0, "lat": 38.91070533333333, "bike_id": "7887ef616a19785480c6c96501542be2", "fusion_lon": 0.0}, {"rental_uris": {"ios": "https://dc.lft.to/lastmile_qr_scan", "android": "https://dc.lft.to/lastmile_qr_scan"}, "type": "electric_scooter", "name": "e2e931550ce1e77ed96c33dc3b5d2c41", "is_reserved": 0, "lon": -77.03226066666667, "is_disabled": 0, "fusion_lat": 0.0, "lat": 38.90511383333333, "bike_id": "e2e931550ce1e77ed96c33dc3b5d2c41", "fusion_lon": 0.0}, {"rental_uris": {"ios": "https://dc.lft.to/lastmile_qr_scan", "android": "https://dc.lft.to/lastmile_qr_scan"}, "type": "electric_scooter", "name": "112ac264ebb29baa258412baee715ac0", "is_reserved": 0, "lon": -77.01743516666667, "is_disabled": 0, "fusion_lat": 0.0, "lat": 38.887351333333335, "bike_id": "112ac264ebb29baa258412baee715ac0", "fusion_lon": 0.0}, {"rental_uris": {"ios": "https://dc.lft.to/lastmile_qr_scan", "android": "https://dc.lft.to/lastmile_qr_scan"}, "type": "electric_scooter", "name": "7fb914e709659ea0f9d07c7f5dc9db7f", "is_reserved": 0, "lon": -77.04084316666666, "is_disabled": 0, "fusion_lat": 0.0, "lat": 38.9306195, "bike_id": "7fb914e709659ea0f9d07c7f5dc9db7f", "fusion_lon": 0.0}, {"rental_uris": {"ios": "https://dc.lft.to/lastmile_qr_scan", "android": "https://dc.lft.to/lastmile_qr_scan"}, "type": "electric_scooter", "name": "0a07695d878a7ebb17dc39743d1e9da4", "is_reserved": 0, "lon": -77.04067066666667, "is_disabled": 0, "fusion_lat": 0.0, "lat": 38.9053125, "bike_id": "0a07695d878a7ebb17dc39743d1e9da4", "fusion_lon": 0.0}, {"rental_uris": {"ios": "https://dc.lft.to/lastmile_qr_scan", "android": "https://dc.lft.to/lastmile_qr_scan"}, "type": "electric_scooter", "name": "af8f48a9cfdd5ec6f3ac2d76d69f4627", "is_reserved": 0, "lon": -77.0464145, "is_disabled": 0, "fusion_lat": 0.0, "lat": 38.9007455, "bike_id": "af8f48a9cfdd5ec6f3ac2d76d69f4627", "fusion_lon": 0.0}, {"rental_uris": {"ios": "https://dc.lft.to/lastmile_qr_scan", "android": "https://dc.lft.to/lastmile_qr_scan"}, "type": "electric_scooter", "name": "5a5842a7863208b6e4e4e99386b4d6bf", "is_reserved": 0, "lon": -77.03541016666667, "is_disabled": 0, "fusion_lat": 0.0, "lat": 38.92340566666667, "bike_id": "5a5842a7863208b6e4e4e99386b4d6bf", "fusion_lon": 0.0}, {"rental_uris": {"ios": "https://dc.lft.to/lastmile_qr_scan", "android": "https://dc.lft.to/lastmile_qr_scan"}, "type": "electric_bike", "name": "4f05f697c92504766b7df058b2f32e0b", "is_reserved": 0, "lon": -76.902874, "is_disabled": 0, "fusion_lat": 0.0, "lat": 39.0029195, "bike_id": "4f05f697c92504766b7df058b2f32e0b", "fusion_lon": 0.0}, {"rental_uris": {"ios": "https://dc.lft.to/lastmile_qr_scan", "android": "https://dc.lft.to/lastmile_qr_scan"}, "type": "electric_scooter", "name": "d2e2b1c55d1f8cf877b302d45ba941bd", "is_reserved": 0, "lon": -77.01997316666667, "is_disabled": 0, "fusion_lat": 0.0, "lat": 38.90443333333333, "bike_id": "d2e2b1c55d1f8cf877b302d45ba941bd", "fusion_lon": 0.0}, {"rental_uris": {"ios": "https://dc.lft.to/lastmile_qr_scan", "android": "https://dc.lft.to/lastmile_qr_scan"}, "type": "electric_scooter", "name": "6eb4c73fe01676c603a2fe023a324ce8", "is_reserved": 0, "lon": -77.03719116666667, "is_disabled": 0, "fusion_lat": 0.0, "lat": 38.926419, "bike_id": "6eb4c73fe01676c603a2fe023a324ce8", "fusion_lon": 0.0}, {"rental_uris": {"ios": "https://dc.lft.to/lastmile_qr_scan", "android": "https://dc.lft.to/lastmile_qr_scan"}, "type": "electric_scooter", "name": "a81e0661989dbb96d2fb3f016563e8fb", "is_reserved": 0, "lon": -76.99414066666667, "is_disabled": 0, "fusion_lat": 0.0, "lat": 38.87790283333333, "bike_id": "a81e0661989dbb96d2fb3f016563e8fb", "fusion_lon": 0.0}, {"rental_uris": {"ios": "https://dc.lft.to/lastmile_qr_scan", "android": "https://dc.lft.to/lastmile_qr_scan"}, "type": "electric_scooter", "name": "360d7c95a80441a4799a63709bbaca29", "is_reserved": 0, "lon": -77.03857116666667, "is_disabled": 0, "fusion_lat": 0.0, "lat": 38.9155415, "bike_id": "360d7c95a80441a4799a63709bbaca29", "fusion_lon": 0.0}, {"rental_uris": {"ios": "https://dc.lft.to/lastmile_qr_scan", "android": "https://dc.lft.to/lastmile_qr_scan"}, "type": "electric_scooter", "name": "370e2298eb1e8f78429df830e6d16431", "is_reserved": 0, "lon": -77.04244733333333, "is_disabled": 0, "fusion_lat": 0.0, "lat": 38.922387666666665, "bike_id": "370e2298eb1e8f78429df830e6d16431", "fusion_lon": 0.0}, {"rental_uris": {"ios": "https://dc.lft.to/lastmile_qr_scan", "android": "https://dc.lft.to/lastmile_qr_scan"}, "type": "electric_scooter", "name": "9888c3a163b1a4e07a0f66e12004c9fb", "is_reserved": 0, "lon": -77.03548016666667, "is_disabled": 0, "fusion_lat": 0.0, "lat": 38.92337666666667, "bike_id": "9888c3a163b1a4e07a0f66e12004c9fb", "fusion_lon": 0.0}, {"rental_uris": {"ios": "https://dc.lft.to/lastmile_qr_scan", "android": "https://dc.lft.to/lastmile_qr_scan"}, "type": "electric_scooter", "name": "c58960c3a6b778b33b6364a2314197e0", "is_reserved": 0, "lon": -76.998368, "is_disabled": 0, "fusion_lat": 0.0, "lat": 38.90297733333333, "bike_id": "c58960c3a6b778b33b6364a2314197e0", "fusion_lon": 0.0}, {"rental_uris": {"ios": "https://dc.lft.to/lastmile_qr_scan", "android": "https://dc.lft.to/lastmile_qr_scan"}, "type": "electric_scooter", "name": "fcae78b3c4b006ff7d0fdebbe4247d83", "is_reserved": 0, "lon": -77.00212933333333, "is_disabled": 0, "fusion_lat": 0.0, "lat": 38.91564783333333, "bike_id": "fcae78b3c4b006ff7d0fdebbe4247d83", "fusion_lon": 0.0}, {"rental_uris": {"ios": "https://dc.lft.to/lastmile_qr_scan", "android": "https://dc.lft.to/lastmile_qr_scan"}, "type": "electric_scooter", "name": "75799e08e0c129102eace93b0c73072a", "is_reserved": 0, "lon": -76.99028566666667, "is_disabled": 0, "fusion_lat": 0.0, "lat": 38.88873383333333, "bike_id": "75799e08e0c129102eace93b0c73072a", "fusion_lon": 0.0}, {"rental_uris": {"ios": "https://dc.lft.to/lastmile_qr_scan", "android": "https://dc.lft.to/lastmile_qr_scan"}, "type": "electric_scooter", "name": "177889d803e2f9ae565a04c1e5c96bcd", "is_reserved": 0, "lon": -77.068035, "is_disabled": 0, "fusion_lat": 0.0, "lat": 38.905158666666665, "bike_id": "177889d803e2f9ae565a04c1e5c96bcd", "fusion_lon": 0.0}, {"rental_uris": {"ios": "https://dc.lft.to/lastmile_qr_scan", "android": "https://dc.lft.to/lastmile_qr_scan"}, "type": "electric_scooter", "name": "96c168c143fc7f7d66c2dca0400937c5", "is_reserved": 0, "lon": -77.0059155, "is_disabled": 0, "fusion_lat": 0.0, "lat": 38.9003515, "bike_id": "96c168c143fc7f7d66c2dca0400937c5", "fusion_lon": 0.0}, {"rental_uris": {"ios": "https://dc.lft.to/lastmile_qr_scan", "android": "https://dc.lft.to/lastmile_qr_scan"}, "type": "electric_scooter", "name": "e06609cba3be0a294478ac50f3e7ef9c", "is_reserved": 0, "lon": -77.00482133333334, "is_disabled": 0, "fusion_lat": 0.0, "lat": 38.87458433333333, "bike_id": "e06609cba3be0a294478ac50f3e7ef9c", "fusion_lon": 0.0}, {"rental_uris": {"ios": "https://dc.lft.to/lastmile_qr_scan", "android": "https://dc.lft.to/lastmile_qr_scan"}, "type": "electric_bike", "name": "ee2915c4908c584409771deee4115313", "is_reserved": 0, "lon": -77.04578483333333, "is_disabled": 0, "fusion_lat": 0.0, "lat": 38.9335685, "bike_id": "ee2915c4908c584409771deee4115313", "fusion_lon": 0.0}, {"rental_uris": {"ios": "https://dc.lft.to/lastmile_qr_scan", "android": "https://dc.lft.to/lastmile_qr_scan"}, "type": "electric_scooter", "name": "d3a5bee3dfd6950e4f3a5d5f68ac1152", "is_reserved": 0, "lon": -77.04151583333334, "is_disabled": 0, "fusion_lat": 0.0, "lat": 38.90852666666667, "bike_id": "d3a5bee3dfd6950e4f3a5d5f68ac1152", "fusion_lon": 0.0}, {"rental_uris": {"ios": "https://dc.lft.to/lastmile_qr_scan", "android": "https://dc.lft.to/lastmile_qr_scan"}, "type": "electric_scooter", "name": "03c5428477122cda469de6cfd054ab33", "is_reserved": 0, "lon": -77.0234625, "is_disabled": 0, "fusion_lat": 0.0, "lat": 38.88128316666667, "bike_id": "03c5428477122cda469de6cfd054ab33", "fusion_lon": 0.0}, {"rental_uris": {"ios": "https://dc.lft.to/lastmile_qr_scan", "android": "https://dc.lft.to/lastmile_qr_scan"}, "type": "electric_scooter", "name": "4bbdbaba71bab5caac61013fc094feab", "is_reserved": 0, "lon": -77.072, "is_disabled": 0, "fusion_lat": 0.0, "lat": 38.912678166666666, "bike_id": "4bbdbaba71bab5caac61013fc094feab", "fusion_lon": 0.0}, {"rental_uris": {"ios": "https://dc.lft.to/lastmile_qr_scan", "android": "https://dc.lft.to/lastmile_qr_scan"}, "type": "electric_scooter", "name": "641834b58db4ad554de796c8506f0e68", "is_reserved": 0, "lon": -77.0163575, "is_disabled": 0, "fusion_lat": 0.0, "lat": 38.915913, "bike_id": "641834b58db4ad554de796c8506f0e68", "fusion_lon": 0.0}, {"rental_uris": {"ios": "https://dc.lft.to/lastmile_qr_scan", "android": "https://dc.lft.to/lastmile_qr_scan"}, "type": "electric_scooter", "name": "5915bb51c8671ce12b9e40944dbccce7", "is_reserved": 0, "lon": -77.00406083333333, "is_disabled": 0, "fusion_lat": 0.0, "lat": 38.8747875, "bike_id": "5915bb51c8671ce12b9e40944dbccce7", "fusion_lon": 0.0}, {"rental_uris": {"ios": "https://dc.lft.to/lastmile_qr_scan", "android": "https://dc.lft.to/lastmile_qr_scan"}, "type": "electric_scooter", "name": "b70e6530ff0c9eaab7d68773cafa2c6c", "is_reserved": 0, "lon": -77.04595383333333, "is_disabled": 0, "fusion_lat": 0.0, "lat": 38.901362166666665, "bike_id": "b70e6530ff0c9eaab7d68773cafa2c6c", "fusion_lon": 0.0}, {"rental_uris": {"ios": "https://dc.lft.to/lastmile_qr_scan", "android": "https://dc.lft.to/lastmile_qr_scan"}, "type": "electric_scooter", "name": "b3c8ed697cfe0d14df52d9ae6d40df2c", "is_reserved": 0, "lon": -77.0368735, "is_disabled": 0, "fusion_lat": 0.0, "lat": 38.916786333333334, "bike_id": "b3c8ed697cfe0d14df52d9ae6d40df2c", "fusion_lon": 0.0}, {"rental_uris": {"ios": "https://dc.lft.to/lastmile_qr_scan", "android": "https://dc.lft.to/lastmile_qr_scan"}, "type": "electric_scooter", "name": "662ab2dd4a1b2d87ec830fabff02655d", "is_reserved": 0, "lon": -77.04128366666667, "is_disabled": 0, "fusion_lat": 0.0, "lat": 38.921092, "bike_id": "662ab2dd4a1b2d87ec830fabff02655d", "fusion_lon": 0.0}, {"rental_uris": {"ios": "https://dc.lft.to/lastmile_qr_scan", "android": "https://dc.lft.to/lastmile_qr_scan"}, "type": "electric_scooter", "name": "a7756d05c5fbc3dcc8b6146c1147be90", "is_reserved": 0, "lon": -77.044936, "is_disabled": 0, "fusion_lat": 0.0, "lat": 38.91605633333333, "bike_id": "a7756d05c5fbc3dcc8b6146c1147be90", "fusion_lon": 0.0}, {"rental_uris": {"ios": "https://dc.lft.to/lastmile_qr_scan", "android": "https://dc.lft.to/lastmile_qr_scan"}, "type": "electric_scooter", "name": "fa811fb666dbb3732048ee8f2fd96190", "is_reserved": 0, "lon": -77.02292633333333, "is_disabled": 0, "fusion_lat": 0.0, "lat": 38.89862083333333, "bike_id": "fa811fb666dbb3732048ee8f2fd96190", "fusion_lon": 0.0}, {"rental_uris": {"ios": "https://dc.lft.to/lastmile_qr_scan", "android": "https://dc.lft.to/lastmile_qr_scan"}, "type": "electric_bike", "name": "fd13dcda881e2efd6f883256acea9b30", "is_reserved": 0, "lon": -76.97330483333333, "is_disabled": 0, "fusion_lat": 0.0, "lat": 38.865194333333335, "bike_id": "fd13dcda881e2efd6f883256acea9b30", "fusion_lon": 0.0}, {"rental_uris": {"ios": "https://dc.lft.to/lastmile_qr_scan", "android": "https://dc.lft.to/lastmile_qr_scan"}, "type": "electric_scooter", "name": "50fbb9ac717b108d40cbf741d4a660f1", "is_reserved": 0, "lon": -77.03190916666667, "is_disabled": 0, "fusion_lat": 0.0, "lat": 38.92909783333333, "bike_id": "50fbb9ac717b108d40cbf741d4a660f1", "fusion_lon": 0.0}, {"rental_uris": {"ios": "https://dc.lft.to/lastmile_qr_scan", "android": "https://dc.lft.to/lastmile_qr_scan"}, "type": "electric_scooter", "name": "c45b86fa0aee06abc154c2f09ce57207", "is_reserved": 0, "lon": -77.0452055, "is_disabled": 0, "fusion_lat": 0.0, "lat": 38.91113083333333, "bike_id": "c45b86fa0aee06abc154c2f09ce57207", "fusion_lon": 0.0}, {"rental_uris": {"ios": "https://dc.lft.to/lastmile_qr_scan", "android": "https://dc.lft.to/lastmile_qr_scan"}, "type": "electric_scooter", "name": "25191dd962757c06d1b398c74ed09b81", "is_reserved": 0, "lon": -76.9853595, "is_disabled": 0, "fusion_lat": 0.0, "lat": 38.8585255, "bike_id": "25191dd962757c06d1b398c74ed09b81", "fusion_lon": 0.0}, {"rental_uris": {"ios": "https://dc.lft.to/lastmile_qr_scan", "android": "https://dc.lft.to/lastmile_qr_scan"}, "type": "electric_scooter", "name": "e133bd547989efd86eb5da73a15a5e0d", "is_reserved": 0, "lon": -77.03152516666667, "is_disabled": 0, "fusion_lat": 0.0, "lat": 38.9058655, "bike_id": "e133bd547989efd86eb5da73a15a5e0d", "fusion_lon": 0.0}, {"rental_uris": {"ios": "https://dc.lft.to/lastmile_qr_scan", "android": "https://dc.lft.to/lastmile_qr_scan"}, "type": "electric_scooter", "name": "c08754b530e76896109fbc91f3b0fdd7", "is_reserved": 0, "lon": -77.031679, "is_disabled": 0, "fusion_lat": 0.0, "lat": 38.894624, "bike_id": "c08754b530e76896109fbc91f3b0fdd7", "fusion_lon": 0.0}, {"rental_uris": {"ios": "https://dc.lft.to/lastmile_qr_scan", "android": "https://dc.lft.to/lastmile_qr_scan"}, "type": "electric_scooter", "name": "f3326aea8eaf8c199aad763252d6444b", "is_reserved": 0, "lon": -77.00217266666667, "is_disabled": 0, "fusion_lat": 0.0, "lat": 38.894506666666665, "bike_id": "f3326aea8eaf8c199aad763252d6444b", "fusion_lon": 0.0}, {"rental_uris": {"ios": "https://dc.lft.to/lastmile_qr_scan", "android": "https://dc.lft.to/lastmile_qr_scan"}, "type": "electric_bike", "name": "619253eb722ca3bdb88d3fbd34fc6ec1", "is_reserved": 0, "lon": -77.10075733333333, "is_disabled": 0, "fusion_lat": 0.0, "lat": 38.8573655, "bike_id": "619253eb722ca3bdb88d3fbd34fc6ec1", "fusion_lon": 0.0}, {"rental_uris": {"ios": "https://dc.lft.to/lastmile_qr_scan", "android": "https://dc.lft.to/lastmile_qr_scan"}, "type": "electric_scooter", "name": "7d0db7e2917c3bd6c56a31a46d68c4e7", "is_reserved": 0, "lon": -77.03376966666667, "is_disabled": 0, "fusion_lat": 0.0, "lat": 38.93858316666667, "bike_id": "7d0db7e2917c3bd6c56a31a46d68c4e7", "fusion_lon": 0.0}, {"rental_uris": {"ios": "https://dc.lft.to/lastmile_qr_scan", "android": "https://dc.lft.to/lastmile_qr_scan"}, "type": "electric_scooter", "name": "09a5066d1b6459745be97b026a511f24", "is_reserved": 0, "lon": -77.00275083333334, "is_disabled": 0, "fusion_lat": 0.0, "lat": 38.8876665, "bike_id": "09a5066d1b6459745be97b026a511f24", "fusion_lon": 0.0}, {"rental_uris": {"ios": "https://dc.lft.to/lastmile_qr_scan", "android": "https://dc.lft.to/lastmile_qr_scan"}, "type": "electric_scooter", "name": "7e718f07c1fdc96368a1a86f3889b1bc", "is_reserved": 0, "lon": -77.04950183333334, "is_disabled": 0, "fusion_lat": 0.0, "lat": 38.91593916666667, "bike_id": "7e718f07c1fdc96368a1a86f3889b1bc", "fusion_lon": 0.0}, {"rental_uris": {"ios": "https://dc.lft.to/lastmile_qr_scan", "android": "https://dc.lft.to/lastmile_qr_scan"}, "type": "electric_scooter", "name": "a8292aeed24194fa4caf66d8cb43885f", "is_reserved": 0, "lon": -77.003923, "is_disabled": 0, "fusion_lat": 0.0, "lat": 38.87748716666667, "bike_id": "a8292aeed24194fa4caf66d8cb43885f", "fusion_lon": 0.0}, {"rental_uris": {"ios": "https://dc.lft.to/lastmile_qr_scan", "android": "https://dc.lft.to/lastmile_qr_scan"}, "type": "electric_scooter", "name": "7bb34fef0b65be9e5560111a4b43f436", "is_reserved": 0, "lon": -77.0400835, "is_disabled": 0, "fusion_lat": 0.0, "lat": 38.9225025, "bike_id": "7bb34fef0b65be9e5560111a4b43f436", "fusion_lon": 0.0}, {"rental_uris": {"ios": "https://dc.lft.to/lastmile_qr_scan", "android": "https://dc.lft.to/lastmile_qr_scan"}, "type": "electric_bike", "name": "92809374d63ed66063361be76a882fd7", "is_reserved": 0, "lon": -77.02407133333334, "is_disabled": 0, "fusion_lat": 0.0, "lat": 38.898291, "bike_id": "92809374d63ed66063361be76a882fd7", "fusion_lon": 0.0}, {"rental_uris": {"ios": "https://dc.lft.to/lastmile_qr_scan", "android": "https://dc.lft.to/lastmile_qr_scan"}, "type": "electric_scooter", "name": "d625ae3f0c1b03585f6035f2335f4176", "is_reserved": 0, "lon": -77.05082716666666, "is_disabled": 0, "fusion_lat": 0.0, "lat": 38.90382833333334, "bike_id": "d625ae3f0c1b03585f6035f2335f4176", "fusion_lon": 0.0}, {"rental_uris": {"ios": "https://dc.lft.to/lastmile_qr_scan", "android": "https://dc.lft.to/lastmile_qr_scan"}, "type": "electric_scooter", "name": "dd315b30920f7c77da14f9fad0938f41", "is_reserved": 0, "lon": -77.02951516666667, "is_disabled": 0, "fusion_lat": 0.0, "lat": 38.916728666666664, "bike_id": "dd315b30920f7c77da14f9fad0938f41", "fusion_lon": 0.0}, {"rental_uris": {"ios": "https://dc.lft.to/lastmile_qr_scan", "android": "https://dc.lft.to/lastmile_qr_scan"}, "type": "electric_scooter", "name": "eac64cb4d9da085f0603539a250b8866", "is_reserved": 0, "lon": -77.00611033333334, "is_disabled": 0, "fusion_lat": 0.0, "lat": 38.87830566666667, "bike_id": "eac64cb4d9da085f0603539a250b8866", "fusion_lon": 0.0}, {"rental_uris": {"ios": "https://dc.lft.to/lastmile_qr_scan", "android": "https://dc.lft.to/lastmile_qr_scan"}, "type": "electric_scooter", "name": "b10ecbe4fda5d5a2569e294bdfa71688", "is_reserved": 0, "lon": -77.0277785, "is_disabled": 0, "fusion_lat": 0.0, "lat": 38.89239216666667, "bike_id": "b10ecbe4fda5d5a2569e294bdfa71688", "fusion_lon": 0.0}, {"rental_uris": {"ios": "https://dc.lft.to/lastmile_qr_scan", "android": "https://dc.lft.to/lastmile_qr_scan"}, "type": "electric_scooter", "name": "ce67ffbdc28e57f3e59a6abb701e6c3a", "is_reserved": 0, "lon": -77.0380775, "is_disabled": 0, "fusion_lat": 0.0, "lat": 38.931155333333336, "bike_id": "ce67ffbdc28e57f3e59a6abb701e6c3a", "fusion_lon": 0.0}, {"rental_uris": {"ios": "https://dc.lft.to/lastmile_qr_scan", "android": "https://dc.lft.to/lastmile_qr_scan"}, "type": "electric_scooter", "name": "c405450a54751a97fe3f28e2b1003118", "is_reserved": 0, "lon": -76.92937616666667, "is_disabled": 0, "fusion_lat": 0.0, "lat": 38.903313833333335, "bike_id": "c405450a54751a97fe3f28e2b1003118", "fusion_lon": 0.0}, {"rental_uris": {"ios": "https://dc.lft.to/lastmile_qr_scan", "android": "https://dc.lft.to/lastmile_qr_scan"}, "type": "electric_scooter", "name": "18787e67c98f008fe21460a34788ec4f", "is_reserved": 0, "lon": -77.06332983333333, "is_disabled": 0, "fusion_lat": 0.0, "lat": 38.943625833333336, "bike_id": "18787e67c98f008fe21460a34788ec4f", "fusion_lon": 0.0}, {"rental_uris": {"ios": "https://dc.lft.to/lastmile_qr_scan", "android": "https://dc.lft.to/lastmile_qr_scan"}, "type": "electric_scooter", "name": "0f997bf71895bcf1bf4ef7b104ff7e35", "is_reserved": 0, "lon": -77.07158566666666, "is_disabled": 0, "fusion_lat": 0.0, "lat": 38.907607666666664, "bike_id": "0f997bf71895bcf1bf4ef7b104ff7e35", "fusion_lon": 0.0}, {"rental_uris": {"ios": "https://dc.lft.to/lastmile_qr_scan", "android": "https://dc.lft.to/lastmile_qr_scan"}, "type": "electric_scooter", "name": "c2c782bca50c13ca311ee76a27456ed2", "is_reserved": 0, "lon": -77.02375, "is_disabled": 0, "fusion_lat": 0.0, "lat": 38.9064355, "bike_id": "c2c782bca50c13ca311ee76a27456ed2", "fusion_lon": 0.0}, {"rental_uris": {"ios": "https://dc.lft.to/lastmile_qr_scan", "android": "https://dc.lft.to/lastmile_qr_scan"}, "type": "electric_bike", "name": "e60d7f8c54cc76cdaf785307a369ac22", "is_reserved": 0, "lon": -76.963028, "is_disabled": 0, "fusion_lat": 0.0, "lat": 38.897007333333335, "bike_id": "e60d7f8c54cc76cdaf785307a369ac22", "fusion_lon": 0.0}, {"rental_uris": {"ios": "https://dc.lft.to/lastmile_qr_scan", "android": "https://dc.lft.to/lastmile_qr_scan"}, "type": "electric_scooter", "name": "2082627e846a25357303744357c80646", "is_reserved": 0, "lon": -77.015873, "is_disabled": 0, "fusion_lat": 0.0, "lat": 38.872229, "bike_id": "2082627e846a25357303744357c80646", "fusion_lon": 0.0}, {"rental_uris": {"ios": "https://dc.lft.to/lastmile_qr_scan", "android": "https://dc.lft.to/lastmile_qr_scan"}, "type": "electric_scooter", "name": "6a9ce5126690c7f7c688f3d4f3e877fd", "is_reserved": 0, "lon": -76.980955, "is_disabled": 0, "fusion_lat": 0.0, "lat": 38.857194666666665, "bike_id": "6a9ce5126690c7f7c688f3d4f3e877fd", "fusion_lon": 0.0}, {"rental_uris": {"ios": "https://dc.lft.to/lastmile_qr_scan", "android": "https://dc.lft.to/lastmile_qr_scan"}, "type": "electric_scooter", "name": "b15cfcdc3e0fb612c38f8f29da1ba956", "is_reserved": 0, "lon": -77.04872566666667, "is_disabled": 0, "fusion_lat": 0.0, "lat": 38.909760166666665, "bike_id": "b15cfcdc3e0fb612c38f8f29da1ba956", "fusion_lon": 0.0}, {"rental_uris": {"ios": "https://dc.lft.to/lastmile_qr_scan", "android": "https://dc.lft.to/lastmile_qr_scan"}, "type": "electric_scooter", "name": "13f460a67b2e89db36b6d9ec63d0d02a", "is_reserved": 0, "lon": -77.04462366666667, "is_disabled": 0, "fusion_lat": 0.0, "lat": 38.92318216666666, "bike_id": "13f460a67b2e89db36b6d9ec63d0d02a", "fusion_lon": 0.0}, {"rental_uris": {"ios": "https://dc.lft.to/lastmile_qr_scan", "android": "https://dc.lft.to/lastmile_qr_scan"}, "type": "electric_scooter", "name": "ccc079693d1fb8ed575fa4aeb39b92c8", "is_reserved": 0, "lon": -77.02195033333334, "is_disabled": 0, "fusion_lat": 0.0, "lat": 38.9054405, "bike_id": "ccc079693d1fb8ed575fa4aeb39b92c8", "fusion_lon": 0.0}, {"rental_uris": {"ios": "https://dc.lft.to/lastmile_qr_scan", "android": "https://dc.lft.to/lastmile_qr_scan"}, "type": "electric_scooter", "name": "a18b377a09902188fa507449a14f42ae", "is_reserved": 0, "lon": -77.0711715, "is_disabled": 0, "fusion_lat": 0.0, "lat": 38.905853666666665, "bike_id": "a18b377a09902188fa507449a14f42ae", "fusion_lon": 0.0}, {"rental_uris": {"ios": "https://dc.lft.to/lastmile_qr_scan", "android": "https://dc.lft.to/lastmile_qr_scan"}, "type": "electric_scooter", "name": "6267f77c57d65361d6527e06e8eb9133", "is_reserved": 0, "lon": -77.0450535, "is_disabled": 0, "fusion_lat": 0.0, "lat": 38.89222183333333, "bike_id": "6267f77c57d65361d6527e06e8eb9133", "fusion_lon": 0.0}, {"rental_uris": {"ios": "https://dc.lft.to/lastmile_qr_scan", "android": "https://dc.lft.to/lastmile_qr_scan"}, "type": "electric_scooter", "name": "be54867efdaac3de005b947404d83663", "is_reserved": 0, "lon": -77.0507075, "is_disabled": 0, "fusion_lat": 0.0, "lat": 38.900668, "bike_id": "be54867efdaac3de005b947404d83663", "fusion_lon": 0.0}, {"rental_uris": {"ios": "https://dc.lft.to/lastmile_qr_scan", "android": "https://dc.lft.to/lastmile_qr_scan"}, "type": "electric_scooter", "name": "94d18aa50b8f1dace7875d94ea9947df", "is_reserved": 0, "lon": -76.99099566666666, "is_disabled": 0, "fusion_lat": 0.0, "lat": 38.857287166666666, "bike_id": "94d18aa50b8f1dace7875d94ea9947df", "fusion_lon": 0.0}, {"rental_uris": {"ios": "https://dc.lft.to/lastmile_qr_scan", "android": "https://dc.lft.to/lastmile_qr_scan"}, "type": "electric_scooter", "name": "3e3bc6c02be9a01d00e4808ab2e63198", "is_reserved": 0, "lon": -77.03770816666666, "is_disabled": 0, "fusion_lat": 0.0, "lat": 38.90727783333333, "bike_id": "3e3bc6c02be9a01d00e4808ab2e63198", "fusion_lon": 0.0}, {"rental_uris": {"ios": "https://dc.lft.to/lastmile_qr_scan", "android": "https://dc.lft.to/lastmile_qr_scan"}, "type": "electric_scooter", "name": "3dfb734dca2b6aa8b5fbaeafea48f511", "is_reserved": 0, "lon": -77.02275916666666, "is_disabled": 0, "fusion_lat": 0.0, "lat": 38.92559816666667, "bike_id": "3dfb734dca2b6aa8b5fbaeafea48f511", "fusion_lon": 0.0}, {"rental_uris": {"ios": "https://dc.lft.to/lastmile_qr_scan", "android": "https://dc.lft.to/lastmile_qr_scan"}, "type": "electric_scooter", "name": "0102f9cd87672c5e14a03eb0e1b09f7f", "is_reserved": 0, "lon": -77.03334, "is_disabled": 0, "fusion_lat": 0.0, "lat": 38.91410916666667, "bike_id": "0102f9cd87672c5e14a03eb0e1b09f7f", "fusion_lon": 0.0}, {"rental_uris": {"ios": "https://dc.lft.to/lastmile_qr_scan", "android": "https://dc.lft.to/lastmile_qr_scan"}, "type": "electric_scooter", "name": "01f04a7955aacea751032839ca0e98a9", "is_reserved": 0, "lon": -77.04341916666667, "is_disabled": 0, "fusion_lat": 0.0, "lat": 38.921710833333336, "bike_id": "01f04a7955aacea751032839ca0e98a9", "fusion_lon": 0.0}, {"rental_uris": {"ios": "https://dc.lft.to/lastmile_qr_scan", "android": "https://dc.lft.to/lastmile_qr_scan"}, "type": "electric_scooter", "name": "bc8d7b32ba49b3fff245565b58ce2a6b", "is_reserved": 0, "lon": -77.02691316666667, "is_disabled": 0, "fusion_lat": 0.0, "lat": 38.9084335, "bike_id": "bc8d7b32ba49b3fff245565b58ce2a6b", "fusion_lon": 0.0}, {"rental_uris": {"ios": "https://dc.lft.to/lastmile_qr_scan", "android": "https://dc.lft.to/lastmile_qr_scan"}, "type": "electric_scooter", "name": "889ae0c97f1dcdc4cb13044160d46c24", "is_reserved": 0, "lon": -77.04746483333334, "is_disabled": 0, "fusion_lat": 0.0, "lat": 38.917733166666665, "bike_id": "889ae0c97f1dcdc4cb13044160d46c24", "fusion_lon": 0.0}, {"rental_uris": {"ios": "https://dc.lft.to/lastmile_qr_scan", "android": "https://dc.lft.to/lastmile_qr_scan"}, "type": "electric_scooter", "name": "21e72879188fb73882499a24603a4e07", "is_reserved": 0, "lon": -77.0263425, "is_disabled": 0, "fusion_lat": 0.0, "lat": 38.924790333333334, "bike_id": "21e72879188fb73882499a24603a4e07", "fusion_lon": 0.0}, {"rental_uris": {"ios": "https://dc.lft.to/lastmile_qr_scan", "android": "https://dc.lft.to/lastmile_qr_scan"}, "type": "electric_bike", "name": "7bc12ca344064834a98bc565b6a3f03c", "is_reserved": 0, "lon": -77.0170665, "is_disabled": 0, "fusion_lat": 0.0, "lat": 38.914332333333334, "bike_id": "7bc12ca344064834a98bc565b6a3f03c", "fusion_lon": 0.0}, {"rental_uris": {"ios": "https://dc.lft.to/lastmile_qr_scan", "android": "https://dc.lft.to/lastmile_qr_scan"}, "type": "electric_scooter", "name": "db2e9728d5d7ec24215d95a3ac6b4dff", "is_reserved": 0, "lon": -76.9948705, "is_disabled": 0, "fusion_lat": 0.0, "lat": 38.882255666666666, "bike_id": "db2e9728d5d7ec24215d95a3ac6b4dff", "fusion_lon": 0.0}, {"rental_uris": {"ios": "https://dc.lft.to/lastmile_qr_scan", "android": "https://dc.lft.to/lastmile_qr_scan"}, "type": "electric_bike", "name": "51eba7c1236305df437cfd3c0c1270fa", "is_reserved": 0, "lon": -76.98348, "is_disabled": 0, "fusion_lat": 0.0, "lat": 38.862611666666666, "bike_id": "51eba7c1236305df437cfd3c0c1270fa", "fusion_lon": 0.0}, {"rental_uris": {"ios": "https://dc.lft.to/lastmile_qr_scan", "android": "https://dc.lft.to/lastmile_qr_scan"}, "type": "electric_scooter", "name": "22b44b188d1e559dcb578f895273f63f", "is_reserved": 0, "lon": -77.04157716666667, "is_disabled": 0, "fusion_lat": 0.0, "lat": 38.91184533333333, "bike_id": "22b44b188d1e559dcb578f895273f63f", "fusion_lon": 0.0}, {"rental_uris": {"ios": "https://dc.lft.to/lastmile_qr_scan", "android": "https://dc.lft.to/lastmile_qr_scan"}, "type": "electric_bike", "name": "f0956efcb17653d5675a073180db3e31", "is_reserved": 0, "lon": -77.12898666666666, "is_disabled": 0, "fusion_lat": 0.0, "lat": 38.799679833333336, "bike_id": "f0956efcb17653d5675a073180db3e31", "fusion_lon": 0.0}, {"rental_uris": {"ios": "https://dc.lft.to/lastmile_qr_scan", "android": "https://dc.lft.to/lastmile_qr_scan"}, "type": "electric_scooter", "name": "d31bdac6936ded0addef5d8b563495b0", "is_reserved": 0, "lon": -77.04357966666667, "is_disabled": 0, "fusion_lat": 0.0, "lat": 38.922541833333334, "bike_id": "d31bdac6936ded0addef5d8b563495b0", "fusion_lon": 0.0}, {"rental_uris": {"ios": "https://dc.lft.to/lastmile_qr_scan", "android": "https://dc.lft.to/lastmile_qr_scan"}, "type": "electric_scooter", "name": "91f66d631cd175e19264605daf30265d", "is_reserved": 0, "lon": -77.006529, "is_disabled": 0, "fusion_lat": 0.0, "lat": 38.8766915, "bike_id": "91f66d631cd175e19264605daf30265d", "fusion_lon": 0.0}, {"rental_uris": {"ios": "https://dc.lft.to/lastmile_qr_scan", "android": "https://dc.lft.to/lastmile_qr_scan"}, "type": "electric_scooter", "name": "84b2ef9721667cde56f02a19141374f7", "is_reserved": 0, "lon": -77.0218575, "is_disabled": 0, "fusion_lat": 0.0, "lat": 38.91089683333333, "bike_id": "84b2ef9721667cde56f02a19141374f7", "fusion_lon": 0.0}, {"rental_uris": {"ios": "https://dc.lft.to/lastmile_qr_scan", "android": "https://dc.lft.to/lastmile_qr_scan"}, "type": "electric_scooter", "name": "c19f84ddbed4481418b14cb7fd9a2b63", "is_reserved": 0, "lon": -77.03643133333334, "is_disabled": 0, "fusion_lat": 0.0, "lat": 38.923070333333335, "bike_id": "c19f84ddbed4481418b14cb7fd9a2b63", "fusion_lon": 0.0}, {"rental_uris": {"ios": "https://dc.lft.to/lastmile_qr_scan", "android": "https://dc.lft.to/lastmile_qr_scan"}, "type": "electric_bike", "name": "3878c0aff59be62b61386cfa338f7b6f", "is_reserved": 0, "lon": -76.91803233333333, "is_disabled": 0, "fusion_lat": 0.0, "lat": 39.000030833333334, "bike_id": "3878c0aff59be62b61386cfa338f7b6f", "fusion_lon": 0.0}, {"rental_uris": {"ios": "https://dc.lft.to/lastmile_qr_scan", "android": "https://dc.lft.to/lastmile_qr_scan"}, "type": "electric_scooter", "name": "c00c9f3a406dcdeb0670995cd268f618", "is_reserved": 0, "lon": -77.01500683333333, "is_disabled": 0, "fusion_lat": 0.0, "lat": 38.92668066666667, "bike_id": "c00c9f3a406dcdeb0670995cd268f618", "fusion_lon": 0.0}, {"rental_uris": {"ios": "https://dc.lft.to/lastmile_qr_scan", "android": "https://dc.lft.to/lastmile_qr_scan"}, "type": "electric_scooter", "name": "00b6ce9ccc29e784c82101288add105a", "is_reserved": 0, "lon": -77.04035733333333, "is_disabled": 0, "fusion_lat": 0.0, "lat": 38.923091666666664, "bike_id": "00b6ce9ccc29e784c82101288add105a", "fusion_lon": 0.0}, {"rental_uris": {"ios": "https://dc.lft.to/lastmile_qr_scan", "android": "https://dc.lft.to/lastmile_qr_scan"}, "type": "electric_scooter", "name": "547622962f7eadb2431c4f7f5217f81b", "is_reserved": 0, "lon": -77.039129, "is_disabled": 0, "fusion_lat": 0.0, "lat": 38.91557933333333, "bike_id": "547622962f7eadb2431c4f7f5217f81b", "fusion_lon": 0.0}, {"rental_uris": {"ios": "https://dc.lft.to/lastmile_qr_scan", "android": "https://dc.lft.to/lastmile_qr_scan"}, "type": "electric_scooter", "name": "620349703e1d81d6f7eeffbfc188d163", "is_reserved": 0, "lon": -77.04370066666667, "is_disabled": 0, "fusion_lat": 0.0, "lat": 38.892238, "bike_id": "620349703e1d81d6f7eeffbfc188d163", "fusion_lon": 0.0}, {"rental_uris": {"ios": "https://dc.lft.to/lastmile_qr_scan", "android": "https://dc.lft.to/lastmile_qr_scan"}, "type": "electric_scooter", "name": "797455a76196850c10a32d3186f71e6e", "is_reserved": 0, "lon": -77.058143, "is_disabled": 0, "fusion_lat": 0.0, "lat": 38.9351935, "bike_id": "797455a76196850c10a32d3186f71e6e", "fusion_lon": 0.0}, {"rental_uris": {"ios": "https://dc.lft.to/lastmile_qr_scan", "android": "https://dc.lft.to/lastmile_qr_scan"}, "type": "electric_bike", "name": "8420e1bdc3223051ac71288a8657ce3a", "is_reserved": 0, "lon": -76.94150116666667, "is_disabled": 0, "fusion_lat": 0.0, "lat": 38.8902355, "bike_id": "8420e1bdc3223051ac71288a8657ce3a", "fusion_lon": 0.0}, {"rental_uris": {"ios": "https://dc.lft.to/lastmile_qr_scan", "android": "https://dc.lft.to/lastmile_qr_scan"}, "type": "electric_scooter", "name": "a8deee7539b29f03bb968ef894044535", "is_reserved": 0, "lon": -77.00046916666666, "is_disabled": 0, "fusion_lat": 0.0, "lat": 38.87445116666667, "bike_id": "a8deee7539b29f03bb968ef894044535", "fusion_lon": 0.0}, {"rental_uris": {"ios": "https://dc.lft.to/lastmile_qr_scan", "android": "https://dc.lft.to/lastmile_qr_scan"}, "type": "electric_scooter", "name": "9c9a3dab12a312f2049c322ec658a9b8", "is_reserved": 0, "lon": -77.00179016666667, "is_disabled": 0, "fusion_lat": 0.0, "lat": 38.91190816666666, "bike_id": "9c9a3dab12a312f2049c322ec658a9b8", "fusion_lon": 0.0}, {"rental_uris": {"ios": "https://dc.lft.to/lastmile_qr_scan", "android": "https://dc.lft.to/lastmile_qr_scan"}, "type": "electric_scooter", "name": "ce443b9dcdb7648d1ef1f6848542bd60", "is_reserved": 0, "lon": -76.99004183333334, "is_disabled": 0, "fusion_lat": 0.0, "lat": 38.864272166666666, "bike_id": "ce443b9dcdb7648d1ef1f6848542bd60", "fusion_lon": 0.0}, {"rental_uris": {"ios": "https://dc.lft.to/lastmile_qr_scan", "android": "https://dc.lft.to/lastmile_qr_scan"}, "type": "electric_scooter", "name": "1019023259db6d594ba23600dac12fba", "is_reserved": 0, "lon": -77.02166, "is_disabled": 0, "fusion_lat": 0.0, "lat": 38.92448533333334, "bike_id": "1019023259db6d594ba23600dac12fba", "fusion_lon": 0.0}, {"rental_uris": {"ios": "https://dc.lft.to/lastmile_qr_scan", "android": "https://dc.lft.to/lastmile_qr_scan"}, "type": "electric_scooter", "name": "1124547b05a74039570477941ed9e9eb", "is_reserved": 0, "lon": -76.93185066666666, "is_disabled": 0, "fusion_lat": 0.0, "lat": 38.898791, "bike_id": "1124547b05a74039570477941ed9e9eb", "fusion_lon": 0.0}, {"rental_uris": {"ios": "https://dc.lft.to/lastmile_qr_scan", "android": "https://dc.lft.to/lastmile_qr_scan"}, "type": "electric_scooter", "name": "542ce42c8fa5591e6798dfbb2f908526", "is_reserved": 0, "lon": -77.038275, "is_disabled": 0, "fusion_lat": 0.0, "lat": 38.96265283333334, "bike_id": "542ce42c8fa5591e6798dfbb2f908526", "fusion_lon": 0.0}, {"rental_uris": {"ios": "https://dc.lft.to/lastmile_qr_scan", "android": "https://dc.lft.to/lastmile_qr_scan"}, "type": "electric_bike", "name": "9bbfc31e47d1743f3523c59879cad406", "is_reserved": 0, "lon": -77.129311, "is_disabled": 0, "fusion_lat": 0.0, "lat": 38.8658555, "bike_id": "9bbfc31e47d1743f3523c59879cad406", "fusion_lon": 0.0}, {"rental_uris": {"ios": "https://dc.lft.to/lastmile_qr_scan", "android": "https://dc.lft.to/lastmile_qr_scan"}, "type": "electric_scooter", "name": "02af944e0f568b1b9f136db307d2081b", "is_reserved": 0, "lon": -77.0466765, "is_disabled": 0, "fusion_lat": 0.0, "lat": 38.9084365, "bike_id": "02af944e0f568b1b9f136db307d2081b", "fusion_lon": 0.0}, {"rental_uris": {"ios": "https://dc.lft.to/lastmile_qr_scan", "android": "https://dc.lft.to/lastmile_qr_scan"}, "type": "electric_scooter", "name": "21eb767405def80e40a63dc73104d7ea", "is_reserved": 0, "lon": -77.07009616666667, "is_disabled": 0, "fusion_lat": 0.0, "lat": 38.893106333333336, "bike_id": "21eb767405def80e40a63dc73104d7ea", "fusion_lon": 0.0}, {"rental_uris": {"ios": "https://dc.lft.to/lastmile_qr_scan", "android": "https://dc.lft.to/lastmile_qr_scan"}, "type": "electric_scooter", "name": "d8765558102082d96299c7597aed1384", "is_reserved": 0, "lon": -77.02866066666667, "is_disabled": 0, "fusion_lat": 0.0, "lat": 38.9125535, "bike_id": "d8765558102082d96299c7597aed1384", "fusion_lon": 0.0}, {"rental_uris": {"ios": "https://dc.lft.to/lastmile_qr_scan", "android": "https://dc.lft.to/lastmile_qr_scan"}, "type": "electric_scooter", "name": "6fe40a3007623e8ea18b56db9b55d511", "is_reserved": 0, "lon": -77.02409033333333, "is_disabled": 0, "fusion_lat": 0.0, "lat": 38.9057525, "bike_id": "6fe40a3007623e8ea18b56db9b55d511", "fusion_lon": 0.0}, {"rental_uris": {"ios": "https://dc.lft.to/lastmile_qr_scan", "android": "https://dc.lft.to/lastmile_qr_scan"}, "type": "electric_scooter", "name": "6432d68f0b022d509ae66fdf4f1350a1", "is_reserved": 0, "lon": -77.034917, "is_disabled": 0, "fusion_lat": 0.0, "lat": 38.90057766666666, "bike_id": "6432d68f0b022d509ae66fdf4f1350a1", "fusion_lon": 0.0}, {"rental_uris": {"ios": "https://dc.lft.to/lastmile_qr_scan", "android": "https://dc.lft.to/lastmile_qr_scan"}, "type": "electric_bike", "name": "fa42c8e817b22b8ed97f116d42d72066", "is_reserved": 0, "lon": -76.9171665, "is_disabled": 0, "fusion_lat": 0.0, "lat": 38.880258166666664, "bike_id": "fa42c8e817b22b8ed97f116d42d72066", "fusion_lon": 0.0}, {"rental_uris": {"ios": "https://dc.lft.to/lastmile_qr_scan", "android": "https://dc.lft.to/lastmile_qr_scan"}, "type": "electric_scooter", "name": "10468be4776efb05289dc04e46e832bc", "is_reserved": 0, "lon": -77.03064016666667, "is_disabled": 0, "fusion_lat": 0.0, "lat": 38.922589, "bike_id": "10468be4776efb05289dc04e46e832bc", "fusion_lon": 0.0}, {"rental_uris": {"ios": "https://dc.lft.to/lastmile_qr_scan", "android": "https://dc.lft.to/lastmile_qr_scan"}, "type": "electric_scooter", "name": "b5414df26941a2eba3ce5b8bf518e09a", "is_reserved": 0, "lon": -77.0345375, "is_disabled": 0, "fusion_lat": 0.0, "lat": 38.908033, "bike_id": "b5414df26941a2eba3ce5b8bf518e09a", "fusion_lon": 0.0}, {"rental_uris": {"ios": "https://dc.lft.to/lastmile_qr_scan", "android": "https://dc.lft.to/lastmile_qr_scan"}, "type": "electric_scooter", "name": "a631568a30d2aa8b33abbc71cb8add12", "is_reserved": 0, "lon": -77.0264555, "is_disabled": 0, "fusion_lat": 0.0, "lat": 38.9191605, "bike_id": "a631568a30d2aa8b33abbc71cb8add12", "fusion_lon": 0.0}, {"rental_uris": {"ios": "https://dc.lft.to/lastmile_qr_scan", "android": "https://dc.lft.to/lastmile_qr_scan"}, "type": "electric_scooter", "name": "43d468e90173c927cd79502609e3a815", "is_reserved": 0, "lon": -77.04690333333333, "is_disabled": 0, "fusion_lat": 0.0, "lat": 38.897431833333336, "bike_id": "43d468e90173c927cd79502609e3a815", "fusion_lon": 0.0}, {"rental_uris": {"ios": "https://dc.lft.to/lastmile_qr_scan", "android": "https://dc.lft.to/lastmile_qr_scan"}, "type": "electric_scooter", "name": "70b56557d3401c9f0afd8cef98cd32b9", "is_reserved": 0, "lon": -76.9903205, "is_disabled": 0, "fusion_lat": 0.0, "lat": 38.88876116666667, "bike_id": "70b56557d3401c9f0afd8cef98cd32b9", "fusion_lon": 0.0}, {"rental_uris": {"ios": "https://dc.lft.to/lastmile_qr_scan", "android": "https://dc.lft.to/lastmile_qr_scan"}, "type": "electric_scooter", "name": "5ac01e531622734ffdad6a5a0ca1d8c9", "is_reserved": 0, "lon": -77.01700183333334, "is_disabled": 0, "fusion_lat": 0.0, "lat": 38.913872833333336, "bike_id": "5ac01e531622734ffdad6a5a0ca1d8c9", "fusion_lon": 0.0}, {"rental_uris": {"ios": "https://dc.lft.to/lastmile_qr_scan", "android": "https://dc.lft.to/lastmile_qr_scan"}, "type": "electric_scooter", "name": "fb8fd405d1a29440978ee26db7d0137d", "is_reserved": 0, "lon": -77.03553283333333, "is_disabled": 0, "fusion_lat": 0.0, "lat": 38.926382333333336, "bike_id": "fb8fd405d1a29440978ee26db7d0137d", "fusion_lon": 0.0}, {"rental_uris": {"ios": "https://dc.lft.to/lastmile_qr_scan", "android": "https://dc.lft.to/lastmile_qr_scan"}, "type": "electric_scooter", "name": "556f387a5be8ddc0b573dde1bc5d36f3", "is_reserved": 0, "lon": -77.04456233333333, "is_disabled": 0, "fusion_lat": 0.0, "lat": 38.9246675, "bike_id": "556f387a5be8ddc0b573dde1bc5d36f3", "fusion_lon": 0.0}, {"rental_uris": {"ios": "https://dc.lft.to/lastmile_qr_scan", "android": "https://dc.lft.to/lastmile_qr_scan"}, "type": "electric_scooter", "name": "2373ee4dfae959a9f0eed814c6335442", "is_reserved": 0, "lon": -76.99743083333334, "is_disabled": 0, "fusion_lat": 0.0, "lat": 38.901254333333334, "bike_id": "2373ee4dfae959a9f0eed814c6335442", "fusion_lon": 0.0}, {"rental_uris": {"ios": "https://dc.lft.to/lastmile_qr_scan", "android": "https://dc.lft.to/lastmile_qr_scan"}, "type": "electric_scooter", "name": "976d655b823707c14c18c1931f8bf830", "is_reserved": 0, "lon": -77.0318345, "is_disabled": 0, "fusion_lat": 0.0, "lat": 38.8945845, "bike_id": "976d655b823707c14c18c1931f8bf830", "fusion_lon": 0.0}, {"rental_uris": {"ios": "https://dc.lft.to/lastmile_qr_scan", "android": "https://dc.lft.to/lastmile_qr_scan"}, "type": "electric_scooter", "name": "d23bd28537eb778a028d5dd7d3ec5c90", "is_reserved": 0, "lon": -77.01102116666667, "is_disabled": 0, "fusion_lat": 0.0, "lat": 38.895437, "bike_id": "d23bd28537eb778a028d5dd7d3ec5c90", "fusion_lon": 0.0}, {"rental_uris": {"ios": "https://dc.lft.to/lastmile_qr_scan", "android": "https://dc.lft.to/lastmile_qr_scan"}, "type": "electric_scooter", "name": "71383df2db5ca4881a38e3ba6a5e1d6e", "is_reserved": 0, "lon": -77.04871616666667, "is_disabled": 0, "fusion_lat": 0.0, "lat": 38.906512, "bike_id": "71383df2db5ca4881a38e3ba6a5e1d6e", "fusion_lon": 0.0}, {"rental_uris": {"ios": "https://dc.lft.to/lastmile_qr_scan", "android": "https://dc.lft.to/lastmile_qr_scan"}, "type": "electric_bike", "name": "ad304dc82cd3f3d2c5959e31e1a81437", "is_reserved": 0, "lon": -77.023423, "is_disabled": 0, "fusion_lat": 0.0, "lat": 38.88743633333333, "bike_id": "ad304dc82cd3f3d2c5959e31e1a81437", "fusion_lon": 0.0}, {"rental_uris": {"ios": "https://dc.lft.to/lastmile_qr_scan", "android": "https://dc.lft.to/lastmile_qr_scan"}, "type": "electric_scooter", "name": "4592a552c6af9bf8c83d646e94864faf", "is_reserved": 0, "lon": -77.03723, "is_disabled": 0, "fusion_lat": 0.0, "lat": 38.926393, "bike_id": "4592a552c6af9bf8c83d646e94864faf", "fusion_lon": 0.0}, {"rental_uris": {"ios": "https://dc.lft.to/lastmile_qr_scan", "android": "https://dc.lft.to/lastmile_qr_scan"}, "type": "electric_scooter", "name": "55883a83a507a7acbb3bbf98cb298029", "is_reserved": 0, "lon": -77.03483983333334, "is_disabled": 0, "fusion_lat": 0.0, "lat": 38.9082595, "bike_id": "55883a83a507a7acbb3bbf98cb298029", "fusion_lon": 0.0}, {"rental_uris": {"ios": "https://dc.lft.to/lastmile_qr_scan", "android": "https://dc.lft.to/lastmile_qr_scan"}, "type": "electric_scooter", "name": "d2e76e581842fbf3f89c689a7e49321c", "is_reserved": 0, "lon": -77.02613466666666, "is_disabled": 0, "fusion_lat": 0.0, "lat": 38.90366866666667, "bike_id": "d2e76e581842fbf3f89c689a7e49321c", "fusion_lon": 0.0}, {"rental_uris": {"ios": "https://dc.lft.to/lastmile_qr_scan", "android": "https://dc.lft.to/lastmile_qr_scan"}, "type": "electric_scooter", "name": "72d88f1ae1e49bc3a4797c981ad10f24", "is_reserved": 0, "lon": -77.01977283333333, "is_disabled": 0, "fusion_lat": 0.0, "lat": 38.887188, "bike_id": "72d88f1ae1e49bc3a4797c981ad10f24", "fusion_lon": 0.0}, {"rental_uris": {"ios": "https://dc.lft.to/lastmile_qr_scan", "android": "https://dc.lft.to/lastmile_qr_scan"}, "type": "electric_scooter", "name": "9da027da8b21e19f12d81c24241ddec1", "is_reserved": 0, "lon": -77.02688966666666, "is_disabled": 0, "fusion_lat": 0.0, "lat": 38.89557883333333, "bike_id": "9da027da8b21e19f12d81c24241ddec1", "fusion_lon": 0.0}, {"rental_uris": {"ios": "https://dc.lft.to/lastmile_qr_scan", "android": "https://dc.lft.to/lastmile_qr_scan"}, "type": "electric_scooter", "name": "c00c5b378fc7a8e35ab0542bffaae894", "is_reserved": 0, "lon": -77.02193916666667, "is_disabled": 0, "fusion_lat": 0.0, "lat": 38.91098266666667, "bike_id": "c00c5b378fc7a8e35ab0542bffaae894", "fusion_lon": 0.0}, {"rental_uris": {"ios": "https://dc.lft.to/lastmile_qr_scan", "android": "https://dc.lft.to/lastmile_qr_scan"}, "type": "electric_scooter", "name": "d5ef915da9c232d0fecfbde04945ffa6", "is_reserved": 0, "lon": -77.0240015, "is_disabled": 0, "fusion_lat": 0.0, "lat": 38.92750133333333, "bike_id": "d5ef915da9c232d0fecfbde04945ffa6", "fusion_lon": 0.0}, {"rental_uris": {"ios": "https://dc.lft.to/lastmile_qr_scan", "android": "https://dc.lft.to/lastmile_qr_scan"}, "type": "electric_scooter", "name": "88535903e15407f19e2c81d089ecc92d", "is_reserved": 0, "lon": -77.039995, "is_disabled": 0, "fusion_lat": 0.0, "lat": 38.914147, "bike_id": "88535903e15407f19e2c81d089ecc92d", "fusion_lon": 0.0}, {"rental_uris": {"ios": "https://dc.lft.to/lastmile_qr_scan", "android": "https://dc.lft.to/lastmile_qr_scan"}, "type": "electric_scooter", "name": "cdc7fe877baf933d40939f9370400008", "is_reserved": 0, "lon": -77.019895, "is_disabled": 0, "fusion_lat": 0.0, "lat": 38.930537, "bike_id": "cdc7fe877baf933d40939f9370400008", "fusion_lon": 0.0}, {"rental_uris": {"ios": "https://dc.lft.to/lastmile_qr_scan", "android": "https://dc.lft.to/lastmile_qr_scan"}, "type": "electric_scooter", "name": "adaa2e45d41faa57c0156d65ca888d94", "is_reserved": 0, "lon": -77.03265316666666, "is_disabled": 0, "fusion_lat": 0.0, "lat": 38.938733, "bike_id": "adaa2e45d41faa57c0156d65ca888d94", "fusion_lon": 0.0}, {"rental_uris": {"ios": "https://dc.lft.to/lastmile_qr_scan", "android": "https://dc.lft.to/lastmile_qr_scan"}, "type": "electric_scooter", "name": "57ccf79058d917b08bda4a38ece0fcdd", "is_reserved": 0, "lon": -77.07400216666667, "is_disabled": 0, "fusion_lat": 0.0, "lat": 38.937498, "bike_id": "57ccf79058d917b08bda4a38ece0fcdd", "fusion_lon": 0.0}, {"rental_uris": {"ios": "https://dc.lft.to/lastmile_qr_scan", "android": "https://dc.lft.to/lastmile_qr_scan"}, "type": "electric_scooter", "name": "366b601d9aee15ba09fb8a16fc0cf2c6", "is_reserved": 0, "lon": -76.98183066666667, "is_disabled": 0, "fusion_lat": 0.0, "lat": 38.905804833333335, "bike_id": "366b601d9aee15ba09fb8a16fc0cf2c6", "fusion_lon": 0.0}, {"rental_uris": {"ios": "https://dc.lft.to/lastmile_qr_scan", "android": "https://dc.lft.to/lastmile_qr_scan"}, "type": "electric_scooter", "name": "d13a4ea8c1fe3ea54b367ed6679228ba", "is_reserved": 0, "lon": -76.99302133333333, "is_disabled": 0, "fusion_lat": 0.0, "lat": 38.92000316666667, "bike_id": "d13a4ea8c1fe3ea54b367ed6679228ba", "fusion_lon": 0.0}, {"rental_uris": {"ios": "https://dc.lft.to/lastmile_qr_scan", "android": "https://dc.lft.to/lastmile_qr_scan"}, "type": "electric_scooter", "name": "f035683c1bffcce6f0c68c7d3584d21e", "is_reserved": 0, "lon": -77.02386883333334, "is_disabled": 0, "fusion_lat": 0.0, "lat": 38.917178666666665, "bike_id": "f035683c1bffcce6f0c68c7d3584d21e", "fusion_lon": 0.0}, {"rental_uris": {"ios": "https://dc.lft.to/lastmile_qr_scan", "android": "https://dc.lft.to/lastmile_qr_scan"}, "type": "electric_scooter", "name": "3f500af7af5b2d019a490e0685d465b1", "is_reserved": 0, "lon": -77.03133916666667, "is_disabled": 0, "fusion_lat": 0.0, "lat": 38.923860833333336, "bike_id": "3f500af7af5b2d019a490e0685d465b1", "fusion_lon": 0.0}, {"rental_uris": {"ios": "https://dc.lft.to/lastmile_qr_scan", "android": "https://dc.lft.to/lastmile_qr_scan"}, "type": "electric_scooter", "name": "b57bd108eafbea99e5196a5d82d6d8a3", "is_reserved": 0, "lon": -77.02358716666667, "is_disabled": 0, "fusion_lat": 0.0, "lat": 38.945223, "bike_id": "b57bd108eafbea99e5196a5d82d6d8a3", "fusion_lon": 0.0}, {"rental_uris": {"ios": "https://dc.lft.to/lastmile_qr_scan", "android": "https://dc.lft.to/lastmile_qr_scan"}, "type": "electric_scooter", "name": "10f2c6698382de1b9b5584f9a4878383", "is_reserved": 0, "lon": -77.04462416666667, "is_disabled": 0, "fusion_lat": 0.0, "lat": 38.909376, "bike_id": "10f2c6698382de1b9b5584f9a4878383", "fusion_lon": 0.0}, {"rental_uris": {"ios": "https://dc.lft.to/lastmile_qr_scan", "android": "https://dc.lft.to/lastmile_qr_scan"}, "type": "electric_bike", "name": "35925646e22032e6665367b1e7242071", "is_reserved": 0, "lon": -76.950618, "is_disabled": 0, "fusion_lat": 0.0, "lat": 39.0850875, "bike_id": "35925646e22032e6665367b1e7242071", "fusion_lon": 0.0}, {"rental_uris": {"ios": "https://dc.lft.to/lastmile_qr_scan", "android": "https://dc.lft.to/lastmile_qr_scan"}, "type": "electric_scooter", "name": "997e6914d7d1fc6ad9e7871afb8ce350", "is_reserved": 0, "lon": -76.98540783333334, "is_disabled": 0, "fusion_lat": 0.0, "lat": 38.912924833333335, "bike_id": "997e6914d7d1fc6ad9e7871afb8ce350", "fusion_lon": 0.0}, {"rental_uris": {"ios": "https://dc.lft.to/lastmile_qr_scan", "android": "https://dc.lft.to/lastmile_qr_scan"}, "type": "electric_scooter", "name": "624432cd0da8ff75c9f5741c5c875733", "is_reserved": 0, "lon": -77.02382066666667, "is_disabled": 0, "fusion_lat": 0.0, "lat": 38.9207605, "bike_id": "624432cd0da8ff75c9f5741c5c875733", "fusion_lon": 0.0}, {"rental_uris": {"ios": "https://dc.lft.to/lastmile_qr_scan", "android": "https://dc.lft.to/lastmile_qr_scan"}, "type": "electric_scooter", "name": "be7feb050d634d2b93632b386506b0d4", "is_reserved": 0, "lon": -77.02606966666667, "is_disabled": 0, "fusion_lat": 0.0, "lat": 38.924246833333335, "bike_id": "be7feb050d634d2b93632b386506b0d4", "fusion_lon": 0.0}, {"rental_uris": {"ios": "https://dc.lft.to/lastmile_qr_scan", "android": "https://dc.lft.to/lastmile_qr_scan"}, "type": "electric_scooter", "name": "02f3ae1d2f2abf07f35d4ee3421de75e", "is_reserved": 0, "lon": -76.95737616666666, "is_disabled": 0, "fusion_lat": 0.0, "lat": 38.883894833333336, "bike_id": "02f3ae1d2f2abf07f35d4ee3421de75e", "fusion_lon": 0.0}, {"rental_uris": {"ios": "https://dc.lft.to/lastmile_qr_scan", "android": "https://dc.lft.to/lastmile_qr_scan"}, "type": "electric_scooter", "name": "e0f5872b4543509872bf21c354cc688d", "is_reserved": 0, "lon": -77.03445833333333, "is_disabled": 0, "fusion_lat": 0.0, "lat": 38.91805433333333, "bike_id": "e0f5872b4543509872bf21c354cc688d", "fusion_lon": 0.0}, {"rental_uris": {"ios": "https://dc.lft.to/lastmile_qr_scan", "android": "https://dc.lft.to/lastmile_qr_scan"}, "type": "electric_scooter", "name": "9bc1b4dff9431372163e0b61ae4fa09a", "is_reserved": 0, "lon": -77.062842, "is_disabled": 0, "fusion_lat": 0.0, "lat": 38.912442666666664, "bike_id": "9bc1b4dff9431372163e0b61ae4fa09a", "fusion_lon": 0.0}, {"rental_uris": {"ios": "https://dc.lft.to/lastmile_qr_scan", "android": "https://dc.lft.to/lastmile_qr_scan"}, "type": "electric_scooter", "name": "7f47c7ce045e3cc6c5ec7db8dc5ef063", "is_reserved": 0, "lon": -77.02918916666667, "is_disabled": 0, "fusion_lat": 0.0, "lat": 38.904085333333335, "bike_id": "7f47c7ce045e3cc6c5ec7db8dc5ef063", "fusion_lon": 0.0}, {"rental_uris": {"ios": "https://dc.lft.to/lastmile_qr_scan", "android": "https://dc.lft.to/lastmile_qr_scan"}, "type": "electric_scooter", "name": "29838e05db4f06d28bb81fba365aa208", "is_reserved": 0, "lon": -77.016147, "is_disabled": 0, "fusion_lat": 0.0, "lat": 38.8997265, "bike_id": "29838e05db4f06d28bb81fba365aa208", "fusion_lon": 0.0}, {"rental_uris": {"ios": "https://dc.lft.to/lastmile_qr_scan", "android": "https://dc.lft.to/lastmile_qr_scan"}, "type": "electric_scooter", "name": "7f67e8ce21694bbc2c75fa42258f5772", "is_reserved": 0, "lon": -77.04520133333334, "is_disabled": 0, "fusion_lat": 0.0, "lat": 38.923199333333336, "bike_id": "7f67e8ce21694bbc2c75fa42258f5772", "fusion_lon": 0.0}, {"rental_uris": {"ios": "https://dc.lft.to/lastmile_qr_scan", "android": "https://dc.lft.to/lastmile_qr_scan"}, "type": "electric_scooter", "name": "6b4528e2bfaa3504b364f57887611a4e", "is_reserved": 0, "lon": -77.04705116666666, "is_disabled": 0, "fusion_lat": 0.0, "lat": 38.905674833333336, "bike_id": "6b4528e2bfaa3504b364f57887611a4e", "fusion_lon": 0.0}, {"rental_uris": {"ios": "https://dc.lft.to/lastmile_qr_scan", "android": "https://dc.lft.to/lastmile_qr_scan"}, "type": "electric_scooter", "name": "2e5c4a84cc38d69a4b942a96a5fd7729", "is_reserved": 0, "lon": -77.02823683333334, "is_disabled": 0, "fusion_lat": 0.0, "lat": 38.89903366666667, "bike_id": "2e5c4a84cc38d69a4b942a96a5fd7729", "fusion_lon": 0.0}, {"rental_uris": {"ios": "https://dc.lft.to/lastmile_qr_scan", "android": "https://dc.lft.to/lastmile_qr_scan"}, "type": "electric_scooter", "name": "7dc66202a6688fdc08c4c0af18de2f2c", "is_reserved": 0, "lon": -77.02109316666666, "is_disabled": 0, "fusion_lat": 0.0, "lat": 38.9269075, "bike_id": "7dc66202a6688fdc08c4c0af18de2f2c", "fusion_lon": 0.0}, {"rental_uris": {"ios": "https://dc.lft.to/lastmile_qr_scan", "android": "https://dc.lft.to/lastmile_qr_scan"}, "type": "electric_scooter", "name": "4c53fd741db9c1baea7f7f5e0ccd600e", "is_reserved": 0, "lon": -77.04336466666666, "is_disabled": 0, "fusion_lat": 0.0, "lat": 38.91308133333333, "bike_id": "4c53fd741db9c1baea7f7f5e0ccd600e", "fusion_lon": 0.0}, {"rental_uris": {"ios": "https://dc.lft.to/lastmile_qr_scan", "android": "https://dc.lft.to/lastmile_qr_scan"}, "type": "electric_scooter", "name": "b7e8188d8a5948cb1a6285b5470be771", "is_reserved": 0, "lon": -77.03661383333333, "is_disabled": 0, "fusion_lat": 0.0, "lat": 38.923593833333335, "bike_id": "b7e8188d8a5948cb1a6285b5470be771", "fusion_lon": 0.0}, {"rental_uris": {"ios": "https://dc.lft.to/lastmile_qr_scan", "android": "https://dc.lft.to/lastmile_qr_scan"}, "type": "electric_scooter", "name": "f659fd5d2ba1e212a550b8accf0a28fc", "is_reserved": 0, "lon": -77.008066, "is_disabled": 0, "fusion_lat": 0.0, "lat": 38.9169985, "bike_id": "f659fd5d2ba1e212a550b8accf0a28fc", "fusion_lon": 0.0}, {"rental_uris": {"ios": "https://dc.lft.to/lastmile_qr_scan", "android": "https://dc.lft.to/lastmile_qr_scan"}, "type": "electric_scooter", "name": "b1d750d635fc0ee83ee1642fdd767c36", "is_reserved": 0, "lon": -77.000725, "is_disabled": 0, "fusion_lat": 0.0, "lat": 38.87359283333333, "bike_id": "b1d750d635fc0ee83ee1642fdd767c36", "fusion_lon": 0.0}, {"rental_uris": {"ios": "https://dc.lft.to/lastmile_qr_scan", "android": "https://dc.lft.to/lastmile_qr_scan"}, "type": "electric_scooter", "name": "262ef4910299f5ce10b5c1285a3850d6", "is_reserved": 0, "lon": -77.02351333333333, "is_disabled": 0, "fusion_lat": 0.0, "lat": 38.941987833333336, "bike_id": "262ef4910299f5ce10b5c1285a3850d6", "fusion_lon": 0.0}, {"rental_uris": {"ios": "https://dc.lft.to/lastmile_qr_scan", "android": "https://dc.lft.to/lastmile_qr_scan"}, "type": "electric_scooter", "name": "81610864da569c150f551ccac5a76b6d", "is_reserved": 0, "lon": -77.005862, "is_disabled": 0, "fusion_lat": 0.0, "lat": 38.90663116666666, "bike_id": "81610864da569c150f551ccac5a76b6d", "fusion_lon": 0.0}, {"rental_uris": {"ios": "https://dc.lft.to/lastmile_qr_scan", "android": "https://dc.lft.to/lastmile_qr_scan"}, "type": "electric_scooter", "name": "ee9ba42c52a936568ec74556b31e5d09", "is_reserved": 0, "lon": -76.92893866666667, "is_disabled": 0, "fusion_lat": 0.0, "lat": 38.879439166666664, "bike_id": "ee9ba42c52a936568ec74556b31e5d09", "fusion_lon": 0.0}, {"rental_uris": {"ios": "https://dc.lft.to/lastmile_qr_scan", "android": "https://dc.lft.to/lastmile_qr_scan"}, "type": "electric_scooter", "name": "884cfb8b9f1e2517b08eae7751907136", "is_reserved": 0, "lon": -76.98495033333333, "is_disabled": 0, "fusion_lat": 0.0, "lat": 38.9035915, "bike_id": "884cfb8b9f1e2517b08eae7751907136", "fusion_lon": 0.0}, {"rental_uris": {"ios": "https://dc.lft.to/lastmile_qr_scan", "android": "https://dc.lft.to/lastmile_qr_scan"}, "type": "electric_scooter", "name": "d2c6be324d25db267502d17db54dabf3", "is_reserved": 0, "lon": -77.029726, "is_disabled": 0, "fusion_lat": 0.0, "lat": 38.907148666666664, "bike_id": "d2c6be324d25db267502d17db54dabf3", "fusion_lon": 0.0}, {"rental_uris": {"ios": "https://dc.lft.to/lastmile_qr_scan", "android": "https://dc.lft.to/lastmile_qr_scan"}, "type": "electric_scooter", "name": "dff0f95f5e33db2af4af316f2e4422d8", "is_reserved": 0, "lon": -77.000413, "is_disabled": 0, "fusion_lat": 0.0, "lat": 38.9001895, "bike_id": "dff0f95f5e33db2af4af316f2e4422d8", "fusion_lon": 0.0}, {"rental_uris": {"ios": "https://dc.lft.to/lastmile_qr_scan", "android": "https://dc.lft.to/lastmile_qr_scan"}, "type": "electric_scooter", "name": "5dab1e03ee9efc50721e5161e745ae43", "is_reserved": 0, "lon": -77.01141133333333, "is_disabled": 0, "fusion_lat": 0.0, "lat": 38.906439, "bike_id": "5dab1e03ee9efc50721e5161e745ae43", "fusion_lon": 0.0}, {"rental_uris": {"ios": "https://dc.lft.to/lastmile_qr_scan", "android": "https://dc.lft.to/lastmile_qr_scan"}, "type": "electric_scooter", "name": "365a9a3e0ddb25429003fde8abc3a232", "is_reserved": 0, "lon": -77.0419205, "is_disabled": 0, "fusion_lat": 0.0, "lat": 38.920466166666664, "bike_id": "365a9a3e0ddb25429003fde8abc3a232", "fusion_lon": 0.0}, {"rental_uris": {"ios": "https://dc.lft.to/lastmile_qr_scan", "android": "https://dc.lft.to/lastmile_qr_scan"}, "type": "electric_scooter", "name": "11f646317f587cdbee83498e1b51dd8b", "is_reserved": 0, "lon": -77.04129016666667, "is_disabled": 0, "fusion_lat": 0.0, "lat": 38.9104315, "bike_id": "11f646317f587cdbee83498e1b51dd8b", "fusion_lon": 0.0}, {"rental_uris": {"ios": "https://dc.lft.to/lastmile_qr_scan", "android": "https://dc.lft.to/lastmile_qr_scan"}, "type": "electric_scooter", "name": "10633036af9a7742465ee9c2fbec5adf", "is_reserved": 0, "lon": -77.02163616666667, "is_disabled": 0, "fusion_lat": 0.0, "lat": 38.89493183333333, "bike_id": "10633036af9a7742465ee9c2fbec5adf", "fusion_lon": 0.0}, {"rental_uris": {"ios": "https://dc.lft.to/lastmile_qr_scan", "android": "https://dc.lft.to/lastmile_qr_scan"}, "type": "electric_scooter", "name": "eca6a562e656caa019bf2cb95a59388f", "is_reserved": 0, "lon": -77.00586083333333, "is_disabled": 0, "fusion_lat": 0.0, "lat": 38.90645, "bike_id": "eca6a562e656caa019bf2cb95a59388f", "fusion_lon": 0.0}, {"rental_uris": {"ios": "https://dc.lft.to/lastmile_qr_scan", "android": "https://dc.lft.to/lastmile_qr_scan"}, "type": "electric_bike", "name": "1108c81ab3bdce2f3145033fc2d2053c", "is_reserved": 0, "lon": -77.06694316666666, "is_disabled": 0, "fusion_lat": 0.0, "lat": 38.831702666666665, "bike_id": "1108c81ab3bdce2f3145033fc2d2053c", "fusion_lon": 0.0}, {"rental_uris": {"ios": "https://dc.lft.to/lastmile_qr_scan", "android": "https://dc.lft.to/lastmile_qr_scan"}, "type": "electric_scooter", "name": "5c9ec29fae896660e944f8395488ec11", "is_reserved": 0, "lon": -77.0426295, "is_disabled": 0, "fusion_lat": 0.0, "lat": 38.922420333333335, "bike_id": "5c9ec29fae896660e944f8395488ec11", "fusion_lon": 0.0}, {"rental_uris": {"ios": "https://dc.lft.to/lastmile_qr_scan", "android": "https://dc.lft.to/lastmile_qr_scan"}, "type": "electric_scooter", "name": "5154597cfa26b98f9b52ca2eaa1df8a8", "is_reserved": 0, "lon": -77.01751833333333, "is_disabled": 0, "fusion_lat": 0.0, "lat": 38.87686583333333, "bike_id": "5154597cfa26b98f9b52ca2eaa1df8a8", "fusion_lon": 0.0}, {"rental_uris": {"ios": "https://dc.lft.to/lastmile_qr_scan", "android": "https://dc.lft.to/lastmile_qr_scan"}, "type": "electric_scooter", "name": "4f978ab42dc96b0f8e9c832326fb1ae1", "is_reserved": 0, "lon": -77.02795, "is_disabled": 0, "fusion_lat": 0.0, "lat": 38.956092, "bike_id": "4f978ab42dc96b0f8e9c832326fb1ae1", "fusion_lon": 0.0}, {"rental_uris": {"ios": "https://dc.lft.to/lastmile_qr_scan", "android": "https://dc.lft.to/lastmile_qr_scan"}, "type": "electric_scooter", "name": "6d88f36025f95525bda17b4c05133b22", "is_reserved": 0, "lon": -77.07212983333334, "is_disabled": 0, "fusion_lat": 0.0, "lat": 38.8990395, "bike_id": "6d88f36025f95525bda17b4c05133b22", "fusion_lon": 0.0}, {"rental_uris": {"ios": "https://dc.lft.to/lastmile_qr_scan", "android": "https://dc.lft.to/lastmile_qr_scan"}, "type": "electric_scooter", "name": "d99bba5eae6ffaa721cddb54c328170a", "is_reserved": 0, "lon": -77.0449765, "is_disabled": 0, "fusion_lat": 0.0, "lat": 38.890502833333336, "bike_id": "d99bba5eae6ffaa721cddb54c328170a", "fusion_lon": 0.0}, {"rental_uris": {"ios": "https://dc.lft.to/lastmile_qr_scan", "android": "https://dc.lft.to/lastmile_qr_scan"}, "type": "electric_scooter", "name": "71a6e065d46f19cfe7998abb8b63a10a", "is_reserved": 0, "lon": -77.018727, "is_disabled": 0, "fusion_lat": 0.0, "lat": 38.930561833333336, "bike_id": "71a6e065d46f19cfe7998abb8b63a10a", "fusion_lon": 0.0}, {"rental_uris": {"ios": "https://dc.lft.to/lastmile_qr_scan", "android": "https://dc.lft.to/lastmile_qr_scan"}, "type": "electric_scooter", "name": "9a5a6a81abd7680027da0ca2b6e468d4", "is_reserved": 0, "lon": -77.0333295, "is_disabled": 0, "fusion_lat": 0.0, "lat": 38.9197605, "bike_id": "9a5a6a81abd7680027da0ca2b6e468d4", "fusion_lon": 0.0}, {"rental_uris": {"ios": "https://dc.lft.to/lastmile_qr_scan", "android": "https://dc.lft.to/lastmile_qr_scan"}, "type": "electric_scooter", "name": "0e54209590a4e31219e5b876b19c786a", "is_reserved": 0, "lon": -76.97035883333334, "is_disabled": 0, "fusion_lat": 0.0, "lat": 38.87318283333333, "bike_id": "0e54209590a4e31219e5b876b19c786a", "fusion_lon": 0.0}, {"rental_uris": {"ios": "https://dc.lft.to/lastmile_qr_scan", "android": "https://dc.lft.to/lastmile_qr_scan"}, "type": "electric_scooter", "name": "b26faaa1c5b84fd9022d4c97c7f48d81", "is_reserved": 0, "lon": -77.031894, "is_disabled": 0, "fusion_lat": 0.0, "lat": 38.918032833333335, "bike_id": "b26faaa1c5b84fd9022d4c97c7f48d81", "fusion_lon": 0.0}, {"rental_uris": {"ios": "https://dc.lft.to/lastmile_qr_scan", "android": "https://dc.lft.to/lastmile_qr_scan"}, "type": "electric_scooter", "name": "703085a78f61272b221647f6d1e1d1d9", "is_reserved": 0, "lon": -77.029249, "is_disabled": 0, "fusion_lat": 0.0, "lat": 38.9403575, "bike_id": "703085a78f61272b221647f6d1e1d1d9", "fusion_lon": 0.0}, {"rental_uris": {"ios": "https://dc.lft.to/lastmile_qr_scan", "android": "https://dc.lft.to/lastmile_qr_scan"}, "type": "electric_scooter", "name": "f6cfbeb8867024e9ddf1c4f151b7b310", "is_reserved": 0, "lon": -77.02185733333333, "is_disabled": 0, "fusion_lat": 0.0, "lat": 38.911263, "bike_id": "f6cfbeb8867024e9ddf1c4f151b7b310", "fusion_lon": 0.0}, {"rental_uris": {"ios": "https://dc.lft.to/lastmile_qr_scan", "android": "https://dc.lft.to/lastmile_qr_scan"}, "type": "electric_scooter", "name": "d999983e88e71136e2fa8216ffac68fd", "is_reserved": 0, "lon": -76.93743916666666, "is_disabled": 0, "fusion_lat": 0.0, "lat": 38.89009333333333, "bike_id": "d999983e88e71136e2fa8216ffac68fd", "fusion_lon": 0.0}, {"rental_uris": {"ios": "https://dc.lft.to/lastmile_qr_scan", "android": "https://dc.lft.to/lastmile_qr_scan"}, "type": "electric_scooter", "name": "d11e6f31a1eab0b47209b23e6f8ac115", "is_reserved": 0, "lon": -77.008003, "is_disabled": 0, "fusion_lat": 0.0, "lat": 38.87826416666667, "bike_id": "d11e6f31a1eab0b47209b23e6f8ac115", "fusion_lon": 0.0}, {"rental_uris": {"ios": "https://dc.lft.to/lastmile_qr_scan", "android": "https://dc.lft.to/lastmile_qr_scan"}, "type": "electric_scooter", "name": "a687238ac4536eef3dae26001b67e563", "is_reserved": 0, "lon": -77.03210316666667, "is_disabled": 0, "fusion_lat": 0.0, "lat": 38.91638016666667, "bike_id": "a687238ac4536eef3dae26001b67e563", "fusion_lon": 0.0}, {"rental_uris": {"ios": "https://dc.lft.to/lastmile_qr_scan", "android": "https://dc.lft.to/lastmile_qr_scan"}, "type": "electric_scooter", "name": "1ae3c9a6124489ed60dd7f1fef998fa3", "is_reserved": 0, "lon": -77.03893866666667, "is_disabled": 0, "fusion_lat": 0.0, "lat": 38.931420833333334, "bike_id": "1ae3c9a6124489ed60dd7f1fef998fa3", "fusion_lon": 0.0}, {"rental_uris": {"ios": "https://dc.lft.to/lastmile_qr_scan", "android": "https://dc.lft.to/lastmile_qr_scan"}, "type": "electric_scooter", "name": "ec11d358007d09146d6bef346b136e24", "is_reserved": 0, "lon": -77.0094415, "is_disabled": 0, "fusion_lat": 0.0, "lat": 38.912585, "bike_id": "ec11d358007d09146d6bef346b136e24", "fusion_lon": 0.0}, {"rental_uris": {"ios": "https://dc.lft.to/lastmile_qr_scan", "android": "https://dc.lft.to/lastmile_qr_scan"}, "type": "electric_bike", "name": "9a72222fcf6642b6f7d75660f295cedb", "is_reserved": 0, "lon": -76.97855183333333, "is_disabled": 0, "fusion_lat": 0.0, "lat": 38.983798, "bike_id": "9a72222fcf6642b6f7d75660f295cedb", "fusion_lon": 0.0}, {"rental_uris": {"ios": "https://dc.lft.to/lastmile_qr_scan", "android": "https://dc.lft.to/lastmile_qr_scan"}, "type": "electric_scooter", "name": "e098d2d145e8a967e0a0d3994fe9cc77", "is_reserved": 0, "lon": -77.02653616666667, "is_disabled": 0, "fusion_lat": 0.0, "lat": 38.896085, "bike_id": "e098d2d145e8a967e0a0d3994fe9cc77", "fusion_lon": 0.0}, {"rental_uris": {"ios": "https://dc.lft.to/lastmile_qr_scan", "android": "https://dc.lft.to/lastmile_qr_scan"}, "type": "electric_scooter", "name": "90d1cbec4461c421938ce100e95a376d", "is_reserved": 0, "lon": -77.06331333333333, "is_disabled": 0, "fusion_lat": 0.0, "lat": 38.94363583333333, "bike_id": "90d1cbec4461c421938ce100e95a376d", "fusion_lon": 0.0}, {"rental_uris": {"ios": "https://dc.lft.to/lastmile_qr_scan", "android": "https://dc.lft.to/lastmile_qr_scan"}, "type": "electric_scooter", "name": "fb11aea7e4d137546e8a276b02f11561", "is_reserved": 0, "lon": -76.9793975, "is_disabled": 0, "fusion_lat": 0.0, "lat": 38.916056833333336, "bike_id": "fb11aea7e4d137546e8a276b02f11561", "fusion_lon": 0.0}, {"rental_uris": {"ios": "https://dc.lft.to/lastmile_qr_scan", "android": "https://dc.lft.to/lastmile_qr_scan"}, "type": "electric_scooter", "name": "5084737908e9d209252f916f587d7744", "is_reserved": 0, "lon": -76.9869515, "is_disabled": 0, "fusion_lat": 0.0, "lat": 38.8883795, "bike_id": "5084737908e9d209252f916f587d7744", "fusion_lon": 0.0}, {"rental_uris": {"ios": "https://dc.lft.to/lastmile_qr_scan", "android": "https://dc.lft.to/lastmile_qr_scan"}, "type": "electric_scooter", "name": "f9479bccc3c261c542b3f76cc68bf4a3", "is_reserved": 0, "lon": -77.01344883333333, "is_disabled": 0, "fusion_lat": 0.0, "lat": 38.91918233333333, "bike_id": "f9479bccc3c261c542b3f76cc68bf4a3", "fusion_lon": 0.0}, {"rental_uris": {"ios": "https://dc.lft.to/lastmile_qr_scan", "android": "https://dc.lft.to/lastmile_qr_scan"}, "type": "electric_bike", "name": "8bf7f241850e0fa4980ad7bf88e7a3e7", "is_reserved": 0, "lon": -77.0994795, "is_disabled": 0, "fusion_lat": 0.0, "lat": 38.857911666666666, "bike_id": "8bf7f241850e0fa4980ad7bf88e7a3e7", "fusion_lon": 0.0}, {"rental_uris": {"ios": "https://dc.lft.to/lastmile_qr_scan", "android": "https://dc.lft.to/lastmile_qr_scan"}, "type": "electric_scooter", "name": "c128fbf3b24ca40e67c57d60b4ffd224", "is_reserved": 0, "lon": -77.03277066666666, "is_disabled": 0, "fusion_lat": 0.0, "lat": 38.920005333333336, "bike_id": "c128fbf3b24ca40e67c57d60b4ffd224", "fusion_lon": 0.0}, {"rental_uris": {"ios": "https://dc.lft.to/lastmile_qr_scan", "android": "https://dc.lft.to/lastmile_qr_scan"}, "type": "electric_scooter", "name": "57120178b882f994c90a194600f1e535", "is_reserved": 0, "lon": -77.00572016666666, "is_disabled": 0, "fusion_lat": 0.0, "lat": 38.874516166666666, "bike_id": "57120178b882f994c90a194600f1e535", "fusion_lon": 0.0}, {"rental_uris": {"ios": "https://dc.lft.to/lastmile_qr_scan", "android": "https://dc.lft.to/lastmile_qr_scan"}, "type": "electric_scooter", "name": "fb2b1537e39ad8e3e148b2b70f492572", "is_reserved": 0, "lon": -77.042004, "is_disabled": 0, "fusion_lat": 0.0, "lat": 38.91699783333333, "bike_id": "fb2b1537e39ad8e3e148b2b70f492572", "fusion_lon": 0.0}, {"rental_uris": {"ios": "https://dc.lft.to/lastmile_qr_scan", "android": "https://dc.lft.to/lastmile_qr_scan"}, "type": "electric_scooter", "name": "32789369bf7bf0632fd1fcd7a6c099da", "is_reserved": 0, "lon": -77.0187225, "is_disabled": 0, "fusion_lat": 0.0, "lat": 38.8995025, "bike_id": "32789369bf7bf0632fd1fcd7a6c099da", "fusion_lon": 0.0}, {"rental_uris": {"ios": "https://dc.lft.to/lastmile_qr_scan", "android": "https://dc.lft.to/lastmile_qr_scan"}, "type": "electric_scooter", "name": "ddf981d8d3e6877224096e482289695b", "is_reserved": 0, "lon": -77.02473516666667, "is_disabled": 0, "fusion_lat": 0.0, "lat": 38.90379733333333, "bike_id": "ddf981d8d3e6877224096e482289695b", "fusion_lon": 0.0}, {"rental_uris": {"ios": "https://dc.lft.to/lastmile_qr_scan", "android": "https://dc.lft.to/lastmile_qr_scan"}, "type": "electric_scooter", "name": "a4c8bbaae90693d5ff3ad4e2a66a67e0", "is_reserved": 0, "lon": -77.02130566666666, "is_disabled": 0, "fusion_lat": 0.0, "lat": 38.89732933333333, "bike_id": "a4c8bbaae90693d5ff3ad4e2a66a67e0", "fusion_lon": 0.0}, {"rental_uris": {"ios": "https://dc.lft.to/lastmile_qr_scan", "android": "https://dc.lft.to/lastmile_qr_scan"}, "type": "electric_scooter", "name": "9d3990a0c8201bda1f74c7eab94f6f23", "is_reserved": 0, "lon": -77.02223083333334, "is_disabled": 0, "fusion_lat": 0.0, "lat": 38.92084833333333, "bike_id": "9d3990a0c8201bda1f74c7eab94f6f23", "fusion_lon": 0.0}, {"rental_uris": {"ios": "https://dc.lft.to/lastmile_qr_scan", "android": "https://dc.lft.to/lastmile_qr_scan"}, "type": "electric_scooter", "name": "7136ca898c968247007432da793a22c6", "is_reserved": 0, "lon": -77.03745816666667, "is_disabled": 0, "fusion_lat": 0.0, "lat": 38.928970666666665, "bike_id": "7136ca898c968247007432da793a22c6", "fusion_lon": 0.0}, {"rental_uris": {"ios": "https://dc.lft.to/lastmile_qr_scan", "android": "https://dc.lft.to/lastmile_qr_scan"}, "type": "electric_scooter", "name": "baf7446e4507d4accd94f85e8714c70f", "is_reserved": 0, "lon": -77.03065566666666, "is_disabled": 0, "fusion_lat": 0.0, "lat": 38.92665816666667, "bike_id": "baf7446e4507d4accd94f85e8714c70f", "fusion_lon": 0.0}, {"rental_uris": {"ios": "https://dc.lft.to/lastmile_qr_scan", "android": "https://dc.lft.to/lastmile_qr_scan"}, "type": "electric_bike", "name": "83253b20cd5cca703ba191a8d2600ab4", "is_reserved": 0, "lon": -77.1071785, "is_disabled": 0, "fusion_lat": 0.0, "lat": 38.855278, "bike_id": "83253b20cd5cca703ba191a8d2600ab4", "fusion_lon": 0.0}, {"rental_uris": {"ios": "https://dc.lft.to/lastmile_qr_scan", "android": "https://dc.lft.to/lastmile_qr_scan"}, "type": "electric_scooter", "name": "91ec4782c591f81cf86254133618d9b3", "is_reserved": 0, "lon": -77.0271065, "is_disabled": 0, "fusion_lat": 0.0, "lat": 38.91730166666667, "bike_id": "91ec4782c591f81cf86254133618d9b3", "fusion_lon": 0.0}, {"rental_uris": {"ios": "https://dc.lft.to/lastmile_qr_scan", "android": "https://dc.lft.to/lastmile_qr_scan"}, "type": "electric_scooter", "name": "4b817ec48738479e8b69b254425c5c22", "is_reserved": 0, "lon": -77.05521733333333, "is_disabled": 0, "fusion_lat": 0.0, "lat": 38.907713333333334, "bike_id": "4b817ec48738479e8b69b254425c5c22", "fusion_lon": 0.0}, {"rental_uris": {"ios": "https://dc.lft.to/lastmile_qr_scan", "android": "https://dc.lft.to/lastmile_qr_scan"}, "type": "electric_scooter", "name": "1b7c4e57d335ecd0de0e0cb33f88baf8", "is_reserved": 0, "lon": -77.07088616666667, "is_disabled": 0, "fusion_lat": 0.0, "lat": 38.95321716666667, "bike_id": "1b7c4e57d335ecd0de0e0cb33f88baf8", "fusion_lon": 0.0}, {"rental_uris": {"ios": "https://dc.lft.to/lastmile_qr_scan", "android": "https://dc.lft.to/lastmile_qr_scan"}, "type": "electric_scooter", "name": "f5b908582dff68235d3d62890b9bc73b", "is_reserved": 0, "lon": -76.929157, "is_disabled": 0, "fusion_lat": 0.0, "lat": 38.886574, "bike_id": "f5b908582dff68235d3d62890b9bc73b", "fusion_lon": 0.0}, {"rental_uris": {"ios": "https://dc.lft.to/lastmile_qr_scan", "android": "https://dc.lft.to/lastmile_qr_scan"}, "type": "electric_scooter", "name": "f727e0f00012e272b26c2820c98d9ca9", "is_reserved": 0, "lon": -77.019662, "is_disabled": 0, "fusion_lat": 0.0, "lat": 38.87612983333333, "bike_id": "f727e0f00012e272b26c2820c98d9ca9", "fusion_lon": 0.0}, {"rental_uris": {"ios": "https://dc.lft.to/lastmile_qr_scan", "android": "https://dc.lft.to/lastmile_qr_scan"}, "type": "electric_scooter", "name": "c6fc23b740b027f6c86d72f3d159137a", "is_reserved": 0, "lon": -76.98730216666667, "is_disabled": 0, "fusion_lat": 0.0, "lat": 38.842219666666665, "bike_id": "c6fc23b740b027f6c86d72f3d159137a", "fusion_lon": 0.0}, {"rental_uris": {"ios": "https://dc.lft.to/lastmile_qr_scan", "android": "https://dc.lft.to/lastmile_qr_scan"}, "type": "electric_scooter", "name": "bd9de5dbaa2d894c33f011f151b12df2", "is_reserved": 0, "lon": -77.0365285, "is_disabled": 0, "fusion_lat": 0.0, "lat": 38.95458816666667, "bike_id": "bd9de5dbaa2d894c33f011f151b12df2", "fusion_lon": 0.0}, {"rental_uris": {"ios": "https://dc.lft.to/lastmile_qr_scan", "android": "https://dc.lft.to/lastmile_qr_scan"}, "type": "electric_scooter", "name": "3b6cc467f6c58289c2e8a9c52a299570", "is_reserved": 0, "lon": -76.99553533333334, "is_disabled": 0, "fusion_lat": 0.0, "lat": 38.9268555, "bike_id": "3b6cc467f6c58289c2e8a9c52a299570", "fusion_lon": 0.0}, {"rental_uris": {"ios": "https://dc.lft.to/lastmile_qr_scan", "android": "https://dc.lft.to/lastmile_qr_scan"}, "type": "electric_scooter", "name": "7e50236d6a2967e6f16c11a4df5c4f56", "is_reserved": 0, "lon": -77.03949133333333, "is_disabled": 0, "fusion_lat": 0.0, "lat": 38.8982975, "bike_id": "7e50236d6a2967e6f16c11a4df5c4f56", "fusion_lon": 0.0}, {"rental_uris": {"ios": "https://dc.lft.to/lastmile_qr_scan", "android": "https://dc.lft.to/lastmile_qr_scan"}, "type": "electric_scooter", "name": "af32a2a8b76a2f1f01d2602a23dcc78d", "is_reserved": 0, "lon": -77.046751, "is_disabled": 0, "fusion_lat": 0.0, "lat": 38.892273, "bike_id": "af32a2a8b76a2f1f01d2602a23dcc78d", "fusion_lon": 0.0}, {"rental_uris": {"ios": "https://dc.lft.to/lastmile_qr_scan", "android": "https://dc.lft.to/lastmile_qr_scan"}, "type": "electric_scooter", "name": "ffe28dd6cef0a9272a8354b6b9aec40e", "is_reserved": 0, "lon": -77.02440316666667, "is_disabled": 0, "fusion_lat": 0.0, "lat": 38.95633983333333, "bike_id": "ffe28dd6cef0a9272a8354b6b9aec40e", "fusion_lon": 0.0}, {"rental_uris": {"ios": "https://dc.lft.to/lastmile_qr_scan", "android": "https://dc.lft.to/lastmile_qr_scan"}, "type": "electric_scooter", "name": "ce25b34e8ed1a5b9f636c58aff5b138a", "is_reserved": 0, "lon": -76.97134216666667, "is_disabled": 0, "fusion_lat": 0.0, "lat": 38.878639166666666, "bike_id": "ce25b34e8ed1a5b9f636c58aff5b138a", "fusion_lon": 0.0}, {"rental_uris": {"ios": "https://dc.lft.to/lastmile_qr_scan", "android": "https://dc.lft.to/lastmile_qr_scan"}, "type": "electric_scooter", "name": "ff2ac29a020f306b001f1ea400fe66cb", "is_reserved": 0, "lon": -77.072855, "is_disabled": 0, "fusion_lat": 0.0, "lat": 38.914424333333336, "bike_id": "ff2ac29a020f306b001f1ea400fe66cb", "fusion_lon": 0.0}, {"rental_uris": {"ios": "https://dc.lft.to/lastmile_qr_scan", "android": "https://dc.lft.to/lastmile_qr_scan"}, "type": "electric_scooter", "name": "96b1b21e6cc8a4990c01c23e348f13c5", "is_reserved": 0, "lon": -76.99142166666667, "is_disabled": 0, "fusion_lat": 0.0, "lat": 38.90120066666667, "bike_id": "96b1b21e6cc8a4990c01c23e348f13c5", "fusion_lon": 0.0}, {"rental_uris": {"ios": "https://dc.lft.to/lastmile_qr_scan", "android": "https://dc.lft.to/lastmile_qr_scan"}, "type": "electric_scooter", "name": "fd153ca749011699428d7bb1fd947ec9", "is_reserved": 0, "lon": -77.03369716666667, "is_disabled": 0, "fusion_lat": 0.0, "lat": 38.928693333333335, "bike_id": "fd153ca749011699428d7bb1fd947ec9", "fusion_lon": 0.0}, {"rental_uris": {"ios": "https://dc.lft.to/lastmile_qr_scan", "android": "https://dc.lft.to/lastmile_qr_scan"}, "type": "electric_scooter", "name": "821850db9699d1dd21d5077e87102571", "is_reserved": 0, "lon": -77.052985, "is_disabled": 0, "fusion_lat": 0.0, "lat": 38.90265766666667, "bike_id": "821850db9699d1dd21d5077e87102571", "fusion_lon": 0.0}, {"rental_uris": {"ios": "https://dc.lft.to/lastmile_qr_scan", "android": "https://dc.lft.to/lastmile_qr_scan"}, "type": "electric_scooter", "name": "feeb066d0590f640b6e366a6c9a469b1", "is_reserved": 0, "lon": -77.08780266666666, "is_disabled": 0, "fusion_lat": 0.0, "lat": 38.93560683333333, "bike_id": "feeb066d0590f640b6e366a6c9a469b1", "fusion_lon": 0.0}, {"rental_uris": {"ios": "https://dc.lft.to/lastmile_qr_scan", "android": "https://dc.lft.to/lastmile_qr_scan"}, "type": "electric_bike", "name": "80b4481c703bcb8f1d3cb4fcd8895c3a", "is_reserved": 0, "lon": -77.044601, "is_disabled": 0, "fusion_lat": 0.0, "lat": 38.92313, "bike_id": "80b4481c703bcb8f1d3cb4fcd8895c3a", "fusion_lon": 0.0}, {"rental_uris": {"ios": "https://dc.lft.to/lastmile_qr_scan", "android": "https://dc.lft.to/lastmile_qr_scan"}, "type": "electric_scooter", "name": "3d857f9cbc3048f3c555aafe5b7fc28f", "is_reserved": 0, "lon": -77.00819416666667, "is_disabled": 0, "fusion_lat": 0.0, "lat": 38.91563516666667, "bike_id": "3d857f9cbc3048f3c555aafe5b7fc28f", "fusion_lon": 0.0}, {"rental_uris": {"ios": "https://dc.lft.to/lastmile_qr_scan", "android": "https://dc.lft.to/lastmile_qr_scan"}, "type": "electric_scooter", "name": "befeec1b3d7e3c9351a164efc8e8f8e5", "is_reserved": 0, "lon": -77.063188, "is_disabled": 0, "fusion_lat": 0.0, "lat": 38.9134005, "bike_id": "befeec1b3d7e3c9351a164efc8e8f8e5", "fusion_lon": 0.0}, {"rental_uris": {"ios": "https://dc.lft.to/lastmile_qr_scan", "android": "https://dc.lft.to/lastmile_qr_scan"}, "type": "electric_bike", "name": "f5c676a826f3668ce2d33f7fdbeb54b3", "is_reserved": 0, "lon": -77.02005016666666, "is_disabled": 0, "fusion_lat": 0.0, "lat": 39.0262485, "bike_id": "f5c676a826f3668ce2d33f7fdbeb54b3", "fusion_lon": 0.0}, {"rental_uris": {"ios": "https://dc.lft.to/lastmile_qr_scan", "android": "https://dc.lft.to/lastmile_qr_scan"}, "type": "electric_scooter", "name": "b02d6831e81e42bfcb40b21510649e54", "is_reserved": 0, "lon": -77.043478, "is_disabled": 0, "fusion_lat": 0.0, "lat": 38.911285166666666, "bike_id": "b02d6831e81e42bfcb40b21510649e54", "fusion_lon": 0.0}, {"rental_uris": {"ios": "https://dc.lft.to/lastmile_qr_scan", "android": "https://dc.lft.to/lastmile_qr_scan"}, "type": "electric_scooter", "name": "22034e069df91bf460f9bf5fca20c9bd", "is_reserved": 0, "lon": -77.02184716666666, "is_disabled": 0, "fusion_lat": 0.0, "lat": 38.92912233333333, "bike_id": "22034e069df91bf460f9bf5fca20c9bd", "fusion_lon": 0.0}, {"rental_uris": {"ios": "https://dc.lft.to/lastmile_qr_scan", "android": "https://dc.lft.to/lastmile_qr_scan"}, "type": "electric_scooter", "name": "2342d7ab5e865015d3991f6cea56c577", "is_reserved": 0, "lon": -77.03050983333333, "is_disabled": 0, "fusion_lat": 0.0, "lat": 38.923785, "bike_id": "2342d7ab5e865015d3991f6cea56c577", "fusion_lon": 0.0}, {"rental_uris": {"ios": "https://dc.lft.to/lastmile_qr_scan", "android": "https://dc.lft.to/lastmile_qr_scan"}, "type": "electric_scooter", "name": "e47198437c957b73fbdf6e26e6a9a874", "is_reserved": 0, "lon": -77.04174816666666, "is_disabled": 0, "fusion_lat": 0.0, "lat": 38.91412783333333, "bike_id": "e47198437c957b73fbdf6e26e6a9a874", "fusion_lon": 0.0}, {"rental_uris": {"ios": "https://dc.lft.to/lastmile_qr_scan", "android": "https://dc.lft.to/lastmile_qr_scan"}, "type": "electric_bike", "name": "2c72b71fb4ffb1dd983ee059ab7111ed", "is_reserved": 0, "lon": -77.1128425, "is_disabled": 0, "fusion_lat": 0.0, "lat": 38.83104983333333, "bike_id": "2c72b71fb4ffb1dd983ee059ab7111ed", "fusion_lon": 0.0}, {"rental_uris": {"ios": "https://dc.lft.to/lastmile_qr_scan", "android": "https://dc.lft.to/lastmile_qr_scan"}, "type": "electric_scooter", "name": "bfe418862cd44edd12c71751fb4f9078", "is_reserved": 0, "lon": -77.03907583333333, "is_disabled": 0, "fusion_lat": 0.0, "lat": 38.89850916666666, "bike_id": "bfe418862cd44edd12c71751fb4f9078", "fusion_lon": 0.0}, {"rental_uris": {"ios": "https://dc.lft.to/lastmile_qr_scan", "android": "https://dc.lft.to/lastmile_qr_scan"}, "type": "electric_scooter", "name": "4811bf2e026aab6a07466ebff1960fd1", "is_reserved": 0, "lon": -77.02946816666666, "is_disabled": 0, "fusion_lat": 0.0, "lat": 38.91677083333333, "bike_id": "4811bf2e026aab6a07466ebff1960fd1", "fusion_lon": 0.0}, {"rental_uris": {"ios": "https://dc.lft.to/lastmile_qr_scan", "android": "https://dc.lft.to/lastmile_qr_scan"}, "type": "electric_scooter", "name": "d1a16132e12ca699ce0cb9c6e1ecbcb7", "is_reserved": 0, "lon": -77.02964083333333, "is_disabled": 0, "fusion_lat": 0.0, "lat": 38.923323833333335, "bike_id": "d1a16132e12ca699ce0cb9c6e1ecbcb7", "fusion_lon": 0.0}, {"rental_uris": {"ios": "https://dc.lft.to/lastmile_qr_scan", "android": "https://dc.lft.to/lastmile_qr_scan"}, "type": "electric_scooter", "name": "49367e13c61e8e189853f983003598a1", "is_reserved": 0, "lon": -77.04606433333333, "is_disabled": 0, "fusion_lat": 0.0, "lat": 38.90975533333334, "bike_id": "49367e13c61e8e189853f983003598a1", "fusion_lon": 0.0}, {"rental_uris": {"ios": "https://dc.lft.to/lastmile_qr_scan", "android": "https://dc.lft.to/lastmile_qr_scan"}, "type": "electric_scooter", "name": "96ecf6c314b189a0fdc76c0b7c823078", "is_reserved": 0, "lon": -77.0056755, "is_disabled": 0, "fusion_lat": 0.0, "lat": 38.876545166666666, "bike_id": "96ecf6c314b189a0fdc76c0b7c823078", "fusion_lon": 0.0}, {"rental_uris": {"ios": "https://dc.lft.to/lastmile_qr_scan", "android": "https://dc.lft.to/lastmile_qr_scan"}, "type": "electric_scooter", "name": "42e53c64bac2f3764c72dee304aa1d89", "is_reserved": 0, "lon": -76.98813933333334, "is_disabled": 0, "fusion_lat": 0.0, "lat": 38.90014083333333, "bike_id": "42e53c64bac2f3764c72dee304aa1d89", "fusion_lon": 0.0}, {"rental_uris": {"ios": "https://dc.lft.to/lastmile_qr_scan", "android": "https://dc.lft.to/lastmile_qr_scan"}, "type": "electric_scooter", "name": "0fe6a8b8189cd5f3a0a4a86194c6d87b", "is_reserved": 0, "lon": -77.0350535, "is_disabled": 0, "fusion_lat": 0.0, "lat": 38.91188066666667, "bike_id": "0fe6a8b8189cd5f3a0a4a86194c6d87b", "fusion_lon": 0.0}, {"rental_uris": {"ios": "https://dc.lft.to/lastmile_qr_scan", "android": "https://dc.lft.to/lastmile_qr_scan"}, "type": "electric_scooter", "name": "f89664df83a0c40546165e943e8310a1", "is_reserved": 0, "lon": -76.99884383333334, "is_disabled": 0, "fusion_lat": 0.0, "lat": 38.95291433333333, "bike_id": "f89664df83a0c40546165e943e8310a1", "fusion_lon": 0.0}, {"rental_uris": {"ios": "https://dc.lft.to/lastmile_qr_scan", "android": "https://dc.lft.to/lastmile_qr_scan"}, "type": "electric_scooter", "name": "61e5b1b133d8f200b7d9ae73a8dc934b", "is_reserved": 0, "lon": -76.94664983333334, "is_disabled": 0, "fusion_lat": 0.0, "lat": 38.89871266666667, "bike_id": "61e5b1b133d8f200b7d9ae73a8dc934b", "fusion_lon": 0.0}, {"rental_uris": {"ios": "https://dc.lft.to/lastmile_qr_scan", "android": "https://dc.lft.to/lastmile_qr_scan"}, "type": "electric_scooter", "name": "6a7ed2155dbe9d67c552277dd073d4f3", "is_reserved": 0, "lon": -77.0446135, "is_disabled": 0, "fusion_lat": 0.0, "lat": 38.91805883333333, "bike_id": "6a7ed2155dbe9d67c552277dd073d4f3", "fusion_lon": 0.0}, {"rental_uris": {"ios": "https://dc.lft.to/lastmile_qr_scan", "android": "https://dc.lft.to/lastmile_qr_scan"}, "type": "electric_scooter", "name": "eea64b84d677bde98193702af0119541", "is_reserved": 0, "lon": -77.02364566666667, "is_disabled": 0, "fusion_lat": 0.0, "lat": 38.902182, "bike_id": "eea64b84d677bde98193702af0119541", "fusion_lon": 0.0}, {"rental_uris": {"ios": "https://dc.lft.to/lastmile_qr_scan", "android": "https://dc.lft.to/lastmile_qr_scan"}, "type": "electric_scooter", "name": "06b69cee3af297687fbf4b06f28a8b4b", "is_reserved": 0, "lon": -76.9338515, "is_disabled": 0, "fusion_lat": 0.0, "lat": 38.899103333333336, "bike_id": "06b69cee3af297687fbf4b06f28a8b4b", "fusion_lon": 0.0}, {"rental_uris": {"ios": "https://dc.lft.to/lastmile_qr_scan", "android": "https://dc.lft.to/lastmile_qr_scan"}, "type": "electric_scooter", "name": "aed51af18c9e4477244c8bf85e608116", "is_reserved": 0, "lon": -77.04227866666666, "is_disabled": 0, "fusion_lat": 0.0, "lat": 38.9110745, "bike_id": "aed51af18c9e4477244c8bf85e608116", "fusion_lon": 0.0}, {"rental_uris": {"ios": "https://dc.lft.to/lastmile_qr_scan", "android": "https://dc.lft.to/lastmile_qr_scan"}, "type": "electric_bike", "name": "ad7ddc0de507f21556ed81627429503b", "is_reserved": 0, "lon": -77.00411716666666, "is_disabled": 0, "fusion_lat": 0.0, "lat": 38.98525566666667, "bike_id": "ad7ddc0de507f21556ed81627429503b", "fusion_lon": 0.0}, {"rental_uris": {"ios": "https://dc.lft.to/lastmile_qr_scan", "android": "https://dc.lft.to/lastmile_qr_scan"}, "type": "electric_scooter", "name": "ce89e71edddf0044b5a798ab07a250d6", "is_reserved": 0, "lon": -77.03397933333333, "is_disabled": 0, "fusion_lat": 0.0, "lat": 38.89962083333333, "bike_id": "ce89e71edddf0044b5a798ab07a250d6", "fusion_lon": 0.0}, {"rental_uris": {"ios": "https://dc.lft.to/lastmile_qr_scan", "android": "https://dc.lft.to/lastmile_qr_scan"}, "type": "electric_scooter", "name": "984bb07d294e7392539b5bf97e5afb62", "is_reserved": 0, "lon": -77.0594115, "is_disabled": 0, "fusion_lat": 0.0, "lat": 38.90495816666667, "bike_id": "984bb07d294e7392539b5bf97e5afb62", "fusion_lon": 0.0}, {"rental_uris": {"ios": "https://dc.lft.to/lastmile_qr_scan", "android": "https://dc.lft.to/lastmile_qr_scan"}, "type": "electric_scooter", "name": "8899224cfee2d4315957d1e2e3a278fe", "is_reserved": 0, "lon": -77.00386416666667, "is_disabled": 0, "fusion_lat": 0.0, "lat": 38.879397166666664, "bike_id": "8899224cfee2d4315957d1e2e3a278fe", "fusion_lon": 0.0}, {"rental_uris": {"ios": "https://dc.lft.to/lastmile_qr_scan", "android": "https://dc.lft.to/lastmile_qr_scan"}, "type": "electric_scooter", "name": "02798959d52ab15177900329e836e10c", "is_reserved": 0, "lon": -77.04087933333334, "is_disabled": 0, "fusion_lat": 0.0, "lat": 38.917184, "bike_id": "02798959d52ab15177900329e836e10c", "fusion_lon": 0.0}, {"rental_uris": {"ios": "https://dc.lft.to/lastmile_qr_scan", "android": "https://dc.lft.to/lastmile_qr_scan"}, "type": "electric_scooter", "name": "abd6d08be1cc18c31086b988adde9093", "is_reserved": 0, "lon": -77.0529985, "is_disabled": 0, "fusion_lat": 0.0, "lat": 38.902776833333334, "bike_id": "abd6d08be1cc18c31086b988adde9093", "fusion_lon": 0.0}, {"rental_uris": {"ios": "https://dc.lft.to/lastmile_qr_scan", "android": "https://dc.lft.to/lastmile_qr_scan"}, "type": "electric_scooter", "name": "2128686b0fe36716599dff3c006927cf", "is_reserved": 0, "lon": -77.02274966666667, "is_disabled": 0, "fusion_lat": 0.0, "lat": 38.92567416666667, "bike_id": "2128686b0fe36716599dff3c006927cf", "fusion_lon": 0.0}, {"rental_uris": {"ios": "https://dc.lft.to/lastmile_qr_scan", "android": "https://dc.lft.to/lastmile_qr_scan"}, "type": "electric_scooter", "name": "764cd21eaf4cbfb481577a3f1c67d491", "is_reserved": 0, "lon": -77.05721066666666, "is_disabled": 0, "fusion_lat": 0.0, "lat": 38.933556833333334, "bike_id": "764cd21eaf4cbfb481577a3f1c67d491", "fusion_lon": 0.0}, {"rental_uris": {"ios": "https://dc.lft.to/lastmile_qr_scan", "android": "https://dc.lft.to/lastmile_qr_scan"}, "type": "electric_scooter", "name": "a5e066f1b22fee13d38ba202ed79e620", "is_reserved": 0, "lon": -77.0060815, "is_disabled": 0, "fusion_lat": 0.0, "lat": 38.905694833333335, "bike_id": "a5e066f1b22fee13d38ba202ed79e620", "fusion_lon": 0.0}, {"rental_uris": {"ios": "https://dc.lft.to/lastmile_qr_scan", "android": "https://dc.lft.to/lastmile_qr_scan"}, "type": "electric_bike", "name": "35abd8894337af9437c9ea65a4fe3764", "is_reserved": 0, "lon": -76.99914216666667, "is_disabled": 0, "fusion_lat": 0.0, "lat": 38.86449366666667, "bike_id": "35abd8894337af9437c9ea65a4fe3764", "fusion_lon": 0.0}, {"rental_uris": {"ios": "https://dc.lft.to/lastmile_qr_scan", "android": "https://dc.lft.to/lastmile_qr_scan"}, "type": "electric_scooter", "name": "2d2a0116fa5f0975152e241e0e854fcc", "is_reserved": 0, "lon": -77.04914016666666, "is_disabled": 0, "fusion_lat": 0.0, "lat": 38.90078066666667, "bike_id": "2d2a0116fa5f0975152e241e0e854fcc", "fusion_lon": 0.0}, {"rental_uris": {"ios": "https://dc.lft.to/lastmile_qr_scan", "android": "https://dc.lft.to/lastmile_qr_scan"}, "type": "electric_scooter", "name": "201f2ec3bb233e3a45b76cfb7945ffd5", "is_reserved": 0, "lon": -77.02716233333334, "is_disabled": 0, "fusion_lat": 0.0, "lat": 38.90601483333333, "bike_id": "201f2ec3bb233e3a45b76cfb7945ffd5", "fusion_lon": 0.0}, {"rental_uris": {"ios": "https://dc.lft.to/lastmile_qr_scan", "android": "https://dc.lft.to/lastmile_qr_scan"}, "type": "electric_scooter", "name": "8d8ed5ce3f36086cac8c9d8cdbe2e532", "is_reserved": 0, "lon": -77.03868033333333, "is_disabled": 0, "fusion_lat": 0.0, "lat": 38.921502, "bike_id": "8d8ed5ce3f36086cac8c9d8cdbe2e532", "fusion_lon": 0.0}, {"rental_uris": {"ios": "https://dc.lft.to/lastmile_qr_scan", "android": "https://dc.lft.to/lastmile_qr_scan"}, "type": "electric_bike", "name": "4f61332b418680660af5cb7ab5b3fc06", "is_reserved": 0, "lon": -77.01229966666666, "is_disabled": 0, "fusion_lat": 0.0, "lat": 38.95085666666667, "bike_id": "4f61332b418680660af5cb7ab5b3fc06", "fusion_lon": 0.0}, {"rental_uris": {"ios": "https://dc.lft.to/lastmile_qr_scan", "android": "https://dc.lft.to/lastmile_qr_scan"}, "type": "electric_scooter", "name": "d60a4e686c4ebf66688983224e2657ca", "is_reserved": 0, "lon": -76.998651, "is_disabled": 0, "fusion_lat": 0.0, "lat": 38.900286666666666, "bike_id": "d60a4e686c4ebf66688983224e2657ca", "fusion_lon": 0.0}, {"rental_uris": {"ios": "https://dc.lft.to/lastmile_qr_scan", "android": "https://dc.lft.to/lastmile_qr_scan"}, "type": "electric_scooter", "name": "8164f161528a6f2f9dca6d1268e14a60", "is_reserved": 0, "lon": -77.02282566666666, "is_disabled": 0, "fusion_lat": 0.0, "lat": 38.892200333333335, "bike_id": "8164f161528a6f2f9dca6d1268e14a60", "fusion_lon": 0.0}, {"rental_uris": {"ios": "https://dc.lft.to/lastmile_qr_scan", "android": "https://dc.lft.to/lastmile_qr_scan"}, "type": "electric_scooter", "name": "de8320e3555efefa38ce76f406b72f37", "is_reserved": 0, "lon": -77.0318625, "is_disabled": 0, "fusion_lat": 0.0, "lat": 38.8997975, "bike_id": "de8320e3555efefa38ce76f406b72f37", "fusion_lon": 0.0}, {"rental_uris": {"ios": "https://dc.lft.to/lastmile_qr_scan", "android": "https://dc.lft.to/lastmile_qr_scan"}, "type": "electric_scooter", "name": "771772fe34fb70ad33b88b85167a8f1e", "is_reserved": 0, "lon": -77.03230016666667, "is_disabled": 0, "fusion_lat": 0.0, "lat": 38.91266683333333, "bike_id": "771772fe34fb70ad33b88b85167a8f1e", "fusion_lon": 0.0}, {"rental_uris": {"ios": "https://dc.lft.to/lastmile_qr_scan", "android": "https://dc.lft.to/lastmile_qr_scan"}, "type": "electric_scooter", "name": "22af5178b7b7c822512f24299adcbf50", "is_reserved": 0, "lon": -77.030246, "is_disabled": 0, "fusion_lat": 0.0, "lat": 38.92248933333333, "bike_id": "22af5178b7b7c822512f24299adcbf50", "fusion_lon": 0.0}, {"rental_uris": {"ios": "https://dc.lft.to/lastmile_qr_scan", "android": "https://dc.lft.to/lastmile_qr_scan"}, "type": "electric_bike", "name": "6b9cedf17384e602f4bff3cf5a6bd221", "is_reserved": 0, "lon": -77.04035566666667, "is_disabled": 0, "fusion_lat": 0.0, "lat": 38.902671166666664, "bike_id": "6b9cedf17384e602f4bff3cf5a6bd221", "fusion_lon": 0.0}, {"rental_uris": {"ios": "https://dc.lft.to/lastmile_qr_scan", "android": "https://dc.lft.to/lastmile_qr_scan"}, "type": "electric_scooter", "name": "da2ce896a478823bda4b08f1472b4fe5", "is_reserved": 0, "lon": -77.01791616666667, "is_disabled": 0, "fusion_lat": 0.0, "lat": 38.90242, "bike_id": "da2ce896a478823bda4b08f1472b4fe5", "fusion_lon": 0.0}, {"rental_uris": {"ios": "https://dc.lft.to/lastmile_qr_scan", "android": "https://dc.lft.to/lastmile_qr_scan"}, "type": "electric_scooter", "name": "ffabf99b6b99a06f061455ad75879f23", "is_reserved": 0, "lon": -77.020109, "is_disabled": 0, "fusion_lat": 0.0, "lat": 38.90061583333333, "bike_id": "ffabf99b6b99a06f061455ad75879f23", "fusion_lon": 0.0}, {"rental_uris": {"ios": "https://dc.lft.to/lastmile_qr_scan", "android": "https://dc.lft.to/lastmile_qr_scan"},