{"data": {"bikes": [{"lon": -77.032612, "name": "71105b0b58cb832ae0c1f6d9b1324dbd", "is_disabled": 0, "type": "electric_scooter", "is_reserved": 0, "fusion_lon": 0.0, "lat": 38.93250866666666, "rental_uris": {"ios": "https://dc.lft.to/lastmile_qr_scan", "android": "https://dc.lft.to/lastmile_qr_scan"}, "bike_id": "71105b0b58cb832ae0c1f6d9b1324dbd", "fusion_lat": 0.0}, {"lon": -77.0248555, "name": "cf8d5f149eee42b8520d4f99248257e2", "is_disabled": 0, "type": "electric_scooter", "is_reserved": 0, "fusion_lon": 0.0, "lat": 38.91815616666667, "rental_uris": {"ios": "https://dc.lft.to/lastmile_qr_scan", "android": "https://dc.lft.to/lastmile_qr_scan"}, "bike_id": "cf8d5f149eee42b8520d4f99248257e2", "fusion_lat": 0.0}, {"lon": -77.009, "name": "b58b87cae2b728ec364d10dc3e9de546", "is_disabled": 0, "type": "electric_scooter", "is_reserved": 0, "fusion_lon": 0.0, "lat": 38.900722333333334, "rental_uris": {"ios": "https://dc.lft.to/lastmile_qr_scan", "android": "https://dc.lft.to/lastmile_qr_scan"}, "bike_id": "b58b87cae2b728ec364d10dc3e9de546", "fusion_lat": 0.0}, {"lon": -77.0399095, "name": "e812222d499771aa475c9b44a2ebcd83", "is_disabled": 0, "type": "electric_scooter", "is_reserved": 0, "fusion_lon": 0.0, "lat": 38.91689733333333, "rental_uris": {"ios": "https://dc.lft.to/lastmile_qr_scan", "android": "https://dc.lft.to/lastmile_qr_scan"}, "bike_id": "e812222d499771aa475c9b44a2ebcd83", "fusion_lat": 0.0}, {"lon": -77.029746, "name": "b50d55c4f97051ffcda072ccba5e5a45", "is_disabled": 0, "type": "electric_scooter", "is_reserved": 0, "fusion_lon": 0.0, "lat": 38.94348516666667, "rental_uris": {"ios": "https://dc.lft.to/lastmile_qr_scan", "android": "https://dc.lft.to/lastmile_qr_scan"}, "bike_id": "b50d55c4f97051ffcda072ccba5e5a45", "fusion_lat": 0.0}, {"lon": -77.00288766666667, "name": "04363680da22bed78ef37295b6adbd1b", "is_disabled": 0, "type": "electric_scooter", "is_reserved": 0, "fusion_lon": 0.0, "lat": 38.892284333333336, "rental_uris": {"ios": "https://dc.lft.to/lastmile_qr_scan", "android": "https://dc.lft.to/lastmile_qr_scan"}, "bike_id": "04363680da22bed78ef37295b6adbd1b", "fusion_lat": 0.0}, {"lon": -77.02101633333334, "name": "4daed559d1a6002ebf984a7f71fdf176", "is_disabled": 0, "type": "electric_scooter", "is_reserved": 0, "fusion_lon": 0.0, "lat": 38.921516833333335, "rental_uris": {"ios": "https://dc.lft.to/lastmile_qr_scan", "android": "https://dc.lft.to/lastmile_qr_scan"}, "bike_id": "4daed559d1a6002ebf984a7f71fdf176", "fusion_lat": 0.0}, {"lon": -77.00441183333334, "name": "e80e6b3b714df01de30b9247081dae72", "is_disabled": 0, "type": "electric_scooter", "is_reserved": 0, "fusion_lon": 0.0, "lat": 38.87837433333333, "rental_uris": {"ios": "https://dc.lft.to/lastmile_qr_scan", "android": "https://dc.lft.to/lastmile_qr_scan"}, "bike_id": "e80e6b3b714df01de30b9247081dae72", "fusion_lat": 0.0}, {"lon": -76.98489883333333, "name": "93469a78c21410bb195639a26ea55f6e", "is_disabled": 0, "type": "electric_scooter", "is_reserved": 0, "fusion_lon": 0.0, "lat": 38.92030183333333, "rental_uris": {"ios": "https://dc.lft.to/lastmile_qr_scan", "android": "https://dc.lft.to/lastmile_qr_scan"}, "bike_id": "93469a78c21410bb195639a26ea55f6e", "fusion_lat": 0.0}, {"lon": -77.02213783333333, "name": "c19a78eb619c263eabdf3cca8495783e", "is_disabled": 0, "type": "electric_scooter", "is_reserved": 0, "fusion_lon": 0.0, "lat": 38.912683666666666, "rental_uris": {"ios": "https://dc.lft.to/lastmile_qr_scan", "android": "https://dc.lft.to/lastmile_qr_scan"}, "bike_id": "c19a78eb619c263eabdf3cca8495783e", "fusion_lat": 0.0}, {"lon": -77.04722033333333, "name": "e49dd437563c001b77a0dc21e7f274d0", "is_disabled": 0, "type": "electric_scooter", "is_reserved": 0, "fusion_lon": 0.0, "lat": 38.8996125, "rental_uris": {"ios": "https://dc.lft.to/lastmile_qr_scan", "android": "https://dc.lft.to/lastmile_qr_scan"}, "bike_id": "e49dd437563c001b77a0dc21e7f274d0", "fusion_lat": 0.0}, {"lon": -77.00213716666667, "name": "7f7bbdc34294d69bcb8ac326e18bd66c", "is_disabled": 0, "type": "electric_scooter", "is_reserved": 0, "fusion_lon": 0.0, "lat": 38.8980955, "rental_uris": {"ios": "https://dc.lft.to/lastmile_qr_scan", "android": "https://dc.lft.to/lastmile_qr_scan"}, "bike_id": "7f7bbdc34294d69bcb8ac326e18bd66c", "fusion_lat": 0.0}, {"lon": -76.99573016666666, "name": "d1451ed4badce63c1993f499e9654493", "is_disabled": 0, "type": "electric_bike", "is_reserved": 0, "fusion_lon": 0.0, "lat": 38.83158133333333, "rental_uris": {"ios": "https://dc.lft.to/lastmile_qr_scan", "android": "https://dc.lft.to/lastmile_qr_scan"}, "bike_id": "d1451ed4badce63c1993f499e9654493", "fusion_lat": 0.0}, {"lon": -77.013643, "name": "1065756f9bb6cfea6fdcae57cc59980b", "is_disabled": 0, "type": "electric_scooter", "is_reserved": 0, "fusion_lon": 0.0, "lat": 38.91330683333333, "rental_uris": {"ios": "https://dc.lft.to/lastmile_qr_scan", "android": "https://dc.lft.to/lastmile_qr_scan"}, "bike_id": "1065756f9bb6cfea6fdcae57cc59980b", "fusion_lat": 0.0}, {"lon": -77.03511216666666, "name": "b50a71e965204e6ca633d8b4a7744288", "is_disabled": 0, "type": "electric_scooter", "is_reserved": 0, "fusion_lon": 0.0, "lat": 38.90152716666667, "rental_uris": {"ios": "https://dc.lft.to/lastmile_qr_scan", "android": "https://dc.lft.to/lastmile_qr_scan"}, "bike_id": "b50a71e965204e6ca633d8b4a7744288", "fusion_lat": 0.0}, {"lon": -77.0187975, "name": "f97f95521700e37ed822abffa7f38bd5", "is_disabled": 0, "type": "electric_scooter", "is_reserved": 0, "fusion_lon": 0.0, "lat": 38.9110665, "rental_uris": {"ios": "https://dc.lft.to/lastmile_qr_scan", "android": "https://dc.lft.to/lastmile_qr_scan"}, "bike_id": "f97f95521700e37ed822abffa7f38bd5", "fusion_lat": 0.0}, {"lon": -76.97334383333333, "name": "fa8411451503f6058c9fa41b66a94392", "is_disabled": 0, "type": "electric_scooter", "is_reserved": 0, "fusion_lon": 0.0, "lat": 38.904104833333335, "rental_uris": {"ios": "https://dc.lft.to/lastmile_qr_scan", "android": "https://dc.lft.to/lastmile_qr_scan"}, "bike_id": "fa8411451503f6058c9fa41b66a94392", "fusion_lat": 0.0}, {"lon": -77.07468216666666, "name": "82b9745f5ad020d5abe48ca24389cf1d", "is_disabled": 0, "type": "electric_scooter", "is_reserved": 0, "fusion_lon": 0.0, "lat": 38.9224135, "rental_uris": {"ios": "https://dc.lft.to/lastmile_qr_scan", "android": "https://dc.lft.to/lastmile_qr_scan"}, "bike_id": "82b9745f5ad020d5abe48ca24389cf1d", "fusion_lat": 0.0}, {"lon": -77.03203366666666, "name": "a8193b65101fc94e89a16a9b9fe1a0cf", "is_disabled": 0, "type": "electric_scooter", "is_reserved": 0, "fusion_lon": 0.0, "lat": 38.907406, "rental_uris": {"ios": "https://dc.lft.to/lastmile_qr_scan", "android": "https://dc.lft.to/lastmile_qr_scan"}, "bike_id": "a8193b65101fc94e89a16a9b9fe1a0cf", "fusion_lat": 0.0}, {"lon": -77.04070933333334, "name": "3eb2c6e32d169ad5ac4eba1b5dabf724", "is_disabled": 0, "type": "electric_scooter", "is_reserved": 0, "fusion_lon": 0.0, "lat": 38.928877666666665, "rental_uris": {"ios": "https://dc.lft.to/lastmile_qr_scan", "android": "https://dc.lft.to/lastmile_qr_scan"}, "bike_id": "3eb2c6e32d169ad5ac4eba1b5dabf724", "fusion_lat": 0.0}, {"lon": -77.0252995, "name": "827d3700162baddb641008f42f775a98", "is_disabled": 0, "type": "electric_scooter", "is_reserved": 0, "fusion_lon": 0.0, "lat": 38.9208355, "rental_uris": {"ios": "https://dc.lft.to/lastmile_qr_scan", "android": "https://dc.lft.to/lastmile_qr_scan"}, "bike_id": "827d3700162baddb641008f42f775a98", "fusion_lat": 0.0}, {"lon": -77.0416995, "name": "2c42cbccc183b1624e8d96c43bcab4a5", "is_disabled": 0, "type": "electric_scooter", "is_reserved": 0, "fusion_lon": 0.0, "lat": 38.91703733333333, "rental_uris": {"ios": "https://dc.lft.to/lastmile_qr_scan", "android": "https://dc.lft.to/lastmile_qr_scan"}, "bike_id": "2c42cbccc183b1624e8d96c43bcab4a5", "fusion_lat": 0.0}, {"lon": -77.02705683333333, "name": "e61b694cc1e24d4531113a899ca2c168", "is_disabled": 0, "type": "electric_scooter", "is_reserved": 0, "fusion_lon": 0.0, "lat": 38.91684333333333, "rental_uris": {"ios": "https://dc.lft.to/lastmile_qr_scan", "android": "https://dc.lft.to/lastmile_qr_scan"}, "bike_id": "e61b694cc1e24d4531113a899ca2c168", "fusion_lat": 0.0}, {"lon": -77.0191665, "name": "e34ddfacdafed694f91910bb9a10dbe6", "is_disabled": 0, "type": "electric_scooter", "is_reserved": 0, "fusion_lon": 0.0, "lat": 38.932757333333335, "rental_uris": {"ios": "https://dc.lft.to/lastmile_qr_scan", "android": "https://dc.lft.to/lastmile_qr_scan"}, "bike_id": "e34ddfacdafed694f91910bb9a10dbe6", "fusion_lat": 0.0}, {"lon": -77.01758966666667, "name": "7a90810e7acd4600f57e86d43fe70e44", "is_disabled": 0, "type": "electric_bike", "is_reserved": 0, "fusion_lon": 0.0, "lat": 38.87862883333333, "rental_uris": {"ios": "https://dc.lft.to/lastmile_qr_scan", "android": "https://dc.lft.to/lastmile_qr_scan"}, "bike_id": "7a90810e7acd4600f57e86d43fe70e44", "fusion_lat": 0.0}, {"lon": -77.04600633333334, "name": "7f14629049a83882745b08bddd83ca37", "is_disabled": 0, "type": "electric_scooter", "is_reserved": 0, "fusion_lon": 0.0, "lat": 38.896142, "rental_uris": {"ios": "https://dc.lft.to/lastmile_qr_scan", "android": "https://dc.lft.to/lastmile_qr_scan"}, "bike_id": "7f14629049a83882745b08bddd83ca37", "fusion_lat": 0.0}, {"lon": -77.021595, "name": "c48dd28abc25d8005ca63c2efbf71e5a", "is_disabled": 0, "type": "electric_scooter", "is_reserved": 0, "fusion_lon": 0.0, "lat": 38.920076, "rental_uris": {"ios": "https://dc.lft.to/lastmile_qr_scan", "android": "https://dc.lft.to/lastmile_qr_scan"}, "bike_id": "c48dd28abc25d8005ca63c2efbf71e5a", "fusion_lat": 0.0}, {"lon": -77.04995683333334, "name": "b93b8cb904adc3ef3eb9b22cda48d130", "is_disabled": 0, "type": "electric_scooter", "is_reserved": 0, "fusion_lon": 0.0, "lat": 38.8923235, "rental_uris": {"ios": "https://dc.lft.to/lastmile_qr_scan", "android": "https://dc.lft.to/lastmile_qr_scan"}, "bike_id": "b93b8cb904adc3ef3eb9b22cda48d130", "fusion_lat": 0.0}, {"lon": -76.983535, "name": "1b4e9ba57f322dbb7fa89a6e1ac250bc", "is_disabled": 0, "type": "electric_bike", "is_reserved": 0, "fusion_lon": 0.0, "lat": 38.86259866666666, "rental_uris": {"ios": "https://dc.lft.to/lastmile_qr_scan", "android": "https://dc.lft.to/lastmile_qr_scan"}, "bike_id": "1b4e9ba57f322dbb7fa89a6e1ac250bc", "fusion_lat": 0.0}, {"lon": -76.97949516666667, "name": "5b7070bb30e279f847a2216d390aa010", "is_disabled": 0, "type": "electric_bike", "is_reserved": 0, "fusion_lon": 0.0, "lat": 38.92038933333333, "rental_uris": {"ios": "https://dc.lft.to/lastmile_qr_scan", "android": "https://dc.lft.to/lastmile_qr_scan"}, "bike_id": "5b7070bb30e279f847a2216d390aa010", "fusion_lat": 0.0}, {"lon": -77.02215816666667, "name": "f09fd911f1c0b22311a2e54c0efa35b1", "is_disabled": 0, "type": "electric_scooter", "is_reserved": 0, "fusion_lon": 0.0, "lat": 38.9247135, "rental_uris": {"ios": "https://dc.lft.to/lastmile_qr_scan", "android": "https://dc.lft.to/lastmile_qr_scan"}, "bike_id": "f09fd911f1c0b22311a2e54c0efa35b1", "fusion_lat": 0.0}, {"lon": -77.02192666666667, "name": "8dfcc3ced2f37945eb8e828b2f7f52bb", "is_disabled": 0, "type": "electric_scooter", "is_reserved": 0, "fusion_lon": 0.0, "lat": 38.920962, "rental_uris": {"ios": "https://dc.lft.to/lastmile_qr_scan", "android": "https://dc.lft.to/lastmile_qr_scan"}, "bike_id": "8dfcc3ced2f37945eb8e828b2f7f52bb", "fusion_lat": 0.0}, {"lon": -77.03391433333333, "name": "ebe3899c507a4b003c48f6b373723c2e", "is_disabled": 0, "type": "electric_scooter", "is_reserved": 0, "fusion_lon": 0.0, "lat": 38.90014266666667, "rental_uris": {"ios": "https://dc.lft.to/lastmile_qr_scan", "android": "https://dc.lft.to/lastmile_qr_scan"}, "bike_id": "ebe3899c507a4b003c48f6b373723c2e", "fusion_lat": 0.0}, {"lon": -76.98450216666667, "name": "113ba7e99d9e0cd829472d545bae6583", "is_disabled": 0, "type": "electric_scooter", "is_reserved": 0, "fusion_lon": 0.0, "lat": 38.892314999999996, "rental_uris": {"ios": "https://dc.lft.to/lastmile_qr_scan", "android": "https://dc.lft.to/lastmile_qr_scan"}, "bike_id": "113ba7e99d9e0cd829472d545bae6583", "fusion_lat": 0.0}, {"lon": -77.0342745, "name": "4185308ae311dae419f08b3d015c60ef", "is_disabled": 0, "type": "electric_scooter", "is_reserved": 0, "fusion_lon": 0.0, "lat": 38.90335983333333, "rental_uris": {"ios": "https://dc.lft.to/lastmile_qr_scan", "android": "https://dc.lft.to/lastmile_qr_scan"}, "bike_id": "4185308ae311dae419f08b3d015c60ef", "fusion_lat": 0.0}, {"lon": -76.998217, "name": "967a63533a7b763ce77411fc4ae64dbc", "is_disabled": 0, "type": "electric_scooter", "is_reserved": 0, "fusion_lon": 0.0, "lat": 38.906217, "rental_uris": {"ios": "https://dc.lft.to/lastmile_qr_scan", "android": "https://dc.lft.to/lastmile_qr_scan"}, "bike_id": "967a63533a7b763ce77411fc4ae64dbc", "fusion_lat": 0.0}, {"lon": -77.020714, "name": "882e0088471df4372f79f82d5366b79b", "is_disabled": 0, "type": "electric_scooter", "is_reserved": 0, "fusion_lon": 0.0, "lat": 38.92284566666667, "rental_uris": {"ios": "https://dc.lft.to/lastmile_qr_scan", "android": "https://dc.lft.to/lastmile_qr_scan"}, "bike_id": "882e0088471df4372f79f82d5366b79b", "fusion_lat": 0.0}, {"lon": -77.03658066666667, "name": "0afce9c597a4d4a940f97ed9cbf84601", "is_disabled": 0, "type": "electric_scooter", "is_reserved": 0, "fusion_lon": 0.0, "lat": 38.92334833333334, "rental_uris": {"ios": "https://dc.lft.to/lastmile_qr_scan", "android": "https://dc.lft.to/lastmile_qr_scan"}, "bike_id": "0afce9c597a4d4a940f97ed9cbf84601", "fusion_lat": 0.0}, {"lon": -77.019468, "name": "394c8ee49a577abc5c6e6bc726759f74", "is_disabled": 0, "type": "electric_scooter", "is_reserved": 0, "fusion_lon": 0.0, "lat": 38.92262, "rental_uris": {"ios": "https://dc.lft.to/lastmile_qr_scan", "android": "https://dc.lft.to/lastmile_qr_scan"}, "bike_id": "394c8ee49a577abc5c6e6bc726759f74", "fusion_lat": 0.0}, {"lon": -77.04359666666667, "name": "660858a79ab26c38cc579b524139b133", "is_disabled": 0, "type": "electric_scooter", "is_reserved": 0, "fusion_lon": 0.0, "lat": 38.9206195, "rental_uris": {"ios": "https://dc.lft.to/lastmile_qr_scan", "android": "https://dc.lft.to/lastmile_qr_scan"}, "bike_id": "660858a79ab26c38cc579b524139b133", "fusion_lat": 0.0}, {"lon": -77.0205655, "name": "e2f4208bc169b9f564d1f4ec5f2ade2f", "is_disabled": 0, "type": "electric_scooter", "is_reserved": 0, "fusion_lon": 0.0, "lat": 38.898698333333336, "rental_uris": {"ios": "https://dc.lft.to/lastmile_qr_scan", "android": "https://dc.lft.to/lastmile_qr_scan"}, "bike_id": "e2f4208bc169b9f564d1f4ec5f2ade2f", "fusion_lat": 0.0}, {"lon": -77.02507683333333, "name": "870eed2fe38761aa7f7f11487a954d95", "is_disabled": 0, "type": "electric_scooter", "is_reserved": 0, "fusion_lon": 0.0, "lat": 38.9041115, "rental_uris": {"ios": "https://dc.lft.to/lastmile_qr_scan", "android": "https://dc.lft.to/lastmile_qr_scan"}, "bike_id": "870eed2fe38761aa7f7f11487a954d95", "fusion_lat": 0.0}, {"lon": -77.02797333333334, "name": "33af6664f7d5b1c3586010e13206cf00", "is_disabled": 0, "type": "electric_scooter", "is_reserved": 0, "fusion_lon": 0.0, "lat": 38.938281, "rental_uris": {"ios": "https://dc.lft.to/lastmile_qr_scan", "android": "https://dc.lft.to/lastmile_qr_scan"}, "bike_id": "33af6664f7d5b1c3586010e13206cf00", "fusion_lat": 0.0}, {"lon": -77.0120415, "name": "7120ae3e94b7f521a5a80e097f7fbae1", "is_disabled": 0, "type": "electric_scooter", "is_reserved": 0, "fusion_lon": 0.0, "lat": 38.870965, "rental_uris": {"ios": "https://dc.lft.to/lastmile_qr_scan", "android": "https://dc.lft.to/lastmile_qr_scan"}, "bike_id": "7120ae3e94b7f521a5a80e097f7fbae1", "fusion_lat": 0.0}, {"lon": -76.985197, "name": "eddfe679e773663febce48917682f48c", "is_disabled": 0, "type": "electric_scooter", "is_reserved": 0, "fusion_lon": 0.0, "lat": 38.860045, "rental_uris": {"ios": "https://dc.lft.to/lastmile_qr_scan", "android": "https://dc.lft.to/lastmile_qr_scan"}, "bike_id": "eddfe679e773663febce48917682f48c", "fusion_lat": 0.0}, {"lon": -77.02131166666666, "name": "ddd3e5529d71dd862dd3f8a52e34d263", "is_disabled": 0, "type": "electric_scooter", "is_reserved": 0, "fusion_lon": 0.0, "lat": 38.92418683333333, "rental_uris": {"ios": "https://dc.lft.to/lastmile_qr_scan", "android": "https://dc.lft.to/lastmile_qr_scan"}, "bike_id": "ddd3e5529d71dd862dd3f8a52e34d263", "fusion_lat": 0.0}, {"lon": -77.03468683333334, "name": "be75eef0f1fafd7bcdddd29e38f870f9", "is_disabled": 0, "type": "electric_scooter", "is_reserved": 0, "fusion_lon": 0.0, "lat": 38.92982633333333, "rental_uris": {"ios": "https://dc.lft.to/lastmile_qr_scan", "android": "https://dc.lft.to/lastmile_qr_scan"}, "bike_id": "be75eef0f1fafd7bcdddd29e38f870f9", "fusion_lat": 0.0}, {"lon": -77.034344, "name": "479cc29704aac50d7da35aee63163620", "is_disabled": 0, "type": "electric_scooter", "is_reserved": 0, "fusion_lon": 0.0, "lat": 38.921567833333334, "rental_uris": {"ios": "https://dc.lft.to/lastmile_qr_scan", "android": "https://dc.lft.to/lastmile_qr_scan"}, "bike_id": "479cc29704aac50d7da35aee63163620", "fusion_lat": 0.0}, {"lon": -77.034101, "name": "6585ee055e39668a649b1cb2c25558fd", "is_disabled": 0, "type": "electric_scooter", "is_reserved": 0, "fusion_lon": 0.0, "lat": 38.923388833333334, "rental_uris": {"ios": "https://dc.lft.to/lastmile_qr_scan", "android": "https://dc.lft.to/lastmile_qr_scan"}, "bike_id": "6585ee055e39668a649b1cb2c25558fd", "fusion_lat": 0.0}, {"lon": -77.12885683333333, "name": "21522896bbbf905959921de02ba70db5", "is_disabled": 0, "type": "electric_bike", "is_reserved": 0, "fusion_lon": 0.0, "lat": 38.906096166666664, "rental_uris": {"ios": "https://dc.lft.to/lastmile_qr_scan", "android": "https://dc.lft.to/lastmile_qr_scan"}, "bike_id": "21522896bbbf905959921de02ba70db5", "fusion_lat": 0.0}, {"lon": -77.03187766666667, "name": "f71cd68c8a0d5abce96a555b4e52fdca", "is_disabled": 0, "type": "electric_scooter", "is_reserved": 0, "fusion_lon": 0.0, "lat": 38.916171, "rental_uris": {"ios": "https://dc.lft.to/lastmile_qr_scan", "android": "https://dc.lft.to/lastmile_qr_scan"}, "bike_id": "f71cd68c8a0d5abce96a555b4e52fdca", "fusion_lat": 0.0}, {"lon": -77.00571883333333, "name": "2deaa66182700bc4ced3f2811815e0fe", "is_disabled": 0, "type": "electric_scooter", "is_reserved": 0, "fusion_lon": 0.0, "lat": 38.90633566666666, "rental_uris": {"ios": "https://dc.lft.to/lastmile_qr_scan", "android": "https://dc.lft.to/lastmile_qr_scan"}, "bike_id": "2deaa66182700bc4ced3f2811815e0fe", "fusion_lat": 0.0}, {"lon": -76.97684266666667, "name": "cedd25a54c0d5cb7dda3abbb293e5925", "is_disabled": 0, "type": "electric_scooter", "is_reserved": 0, "fusion_lon": 0.0, "lat": 38.900918, "rental_uris": {"ios": "https://dc.lft.to/lastmile_qr_scan", "android": "https://dc.lft.to/lastmile_qr_scan"}, "bike_id": "cedd25a54c0d5cb7dda3abbb293e5925", "fusion_lat": 0.0}, {"lon": -77.0093, "name": "240215c7b3589cbd8001a39de19d1372", "is_disabled": 0, "type": "electric_scooter", "is_reserved": 0, "fusion_lon": 0.0, "lat": 38.895420333333334, "rental_uris": {"ios": "https://dc.lft.to/lastmile_qr_scan", "android": "https://dc.lft.to/lastmile_qr_scan"}, "bike_id": "240215c7b3589cbd8001a39de19d1372", "fusion_lat": 0.0}, {"lon": -77.0012665, "name": "e37b9a3a9756f7cef54a67fcaf0e6ce6", "is_disabled": 0, "type": "electric_scooter", "is_reserved": 0, "fusion_lon": 0.0, "lat": 38.87384483333334, "rental_uris": {"ios": "https://dc.lft.to/lastmile_qr_scan", "android": "https://dc.lft.to/lastmile_qr_scan"}, "bike_id": "e37b9a3a9756f7cef54a67fcaf0e6ce6", "fusion_lat": 0.0}, {"lon": -77.03251316666666, "name": "10e019f58cfb9cf45f86949821817508", "is_disabled": 0, "type": "electric_scooter", "is_reserved": 0, "fusion_lon": 0.0, "lat": 38.92105433333333, "rental_uris": {"ios": "https://dc.lft.to/lastmile_qr_scan", "android": "https://dc.lft.to/lastmile_qr_scan"}, "bike_id": "10e019f58cfb9cf45f86949821817508", "fusion_lat": 0.0}, {"lon": -77.0122095, "name": "c7b26aca4beefc8e85ac7708869c562e", "is_disabled": 0, "type": "electric_scooter", "is_reserved": 0, "fusion_lon": 0.0, "lat": 38.9151995, "rental_uris": {"ios": "https://dc.lft.to/lastmile_qr_scan", "android": "https://dc.lft.to/lastmile_qr_scan"}, "bike_id": "c7b26aca4beefc8e85ac7708869c562e", "fusion_lat": 0.0}, {"lon": -76.93002916666667, "name": "2bce3b968147150a65ebf6803206f3c7", "is_disabled": 0, "type": "electric_scooter", "is_reserved": 0, "fusion_lon": 0.0, "lat": 38.90714716666667, "rental_uris": {"ios": "https://dc.lft.to/lastmile_qr_scan", "android": "https://dc.lft.to/lastmile_qr_scan"}, "bike_id": "2bce3b968147150a65ebf6803206f3c7", "fusion_lat": 0.0}, {"lon": -77.035488, "name": "8c6376e928c7da991d27e27002647f23", "is_disabled": 0, "type": "electric_scooter", "is_reserved": 0, "fusion_lon": 0.0, "lat": 38.90485866666667, "rental_uris": {"ios": "https://dc.lft.to/lastmile_qr_scan", "android": "https://dc.lft.to/lastmile_qr_scan"}, "bike_id": "8c6376e928c7da991d27e27002647f23", "fusion_lat": 0.0}, {"lon": -77.0779645, "name": "8ab6b2b664b0b6100633d0a5d5d17289", "is_disabled": 0, "type": "electric_scooter", "is_reserved": 0, "fusion_lon": 0.0, "lat": 38.93849983333333, "rental_uris": {"ios": "https://dc.lft.to/lastmile_qr_scan", "android": "https://dc.lft.to/lastmile_qr_scan"}, "bike_id": "8ab6b2b664b0b6100633d0a5d5d17289", "fusion_lat": 0.0}, {"lon": -77.04998416666666, "name": "0b385fa005f0cee4d6b5fa5992aa6c42", "is_disabled": 0, "type": "electric_scooter", "is_reserved": 0, "fusion_lon": 0.0, "lat": 38.892293333333335, "rental_uris": {"ios": "https://dc.lft.to/lastmile_qr_scan", "android": "https://dc.lft.to/lastmile_qr_scan"}, "bike_id": "0b385fa005f0cee4d6b5fa5992aa6c42", "fusion_lat": 0.0}, {"lon": -77.03201433333334, "name": "709243d0db9fb9115603d2fad74075a5", "is_disabled": 0, "type": "electric_scooter", "is_reserved": 0, "fusion_lon": 0.0, "lat": 38.91913533333334, "rental_uris": {"ios": "https://dc.lft.to/lastmile_qr_scan", "android": "https://dc.lft.to/lastmile_qr_scan"}, "bike_id": "709243d0db9fb9115603d2fad74075a5", "fusion_lat": 0.0}, {"lon": -77.00579983333333, "name": "8af38ac52c3585779ac788f14b0aacec", "is_disabled": 0, "type": "electric_scooter", "is_reserved": 0, "fusion_lon": 0.0, "lat": 38.90567466666667, "rental_uris": {"ios": "https://dc.lft.to/lastmile_qr_scan", "android": "https://dc.lft.to/lastmile_qr_scan"}, "bike_id": "8af38ac52c3585779ac788f14b0aacec", "fusion_lat": 0.0}, {"lon": -77.00583983333334, "name": "10d6b4747201239c7ce04f5f3a8047c2", "is_disabled": 0, "type": "electric_scooter", "is_reserved": 0, "fusion_lon": 0.0, "lat": 38.872092333333335, "rental_uris": {"ios": "https://dc.lft.to/lastmile_qr_scan", "android": "https://dc.lft.to/lastmile_qr_scan"}, "bike_id": "10d6b4747201239c7ce04f5f3a8047c2", "fusion_lat": 0.0}, {"lon": -77.0678445, "name": "9fd2f771c3722b323f64fa8c3974acf9", "is_disabled": 0, "type": "electric_scooter", "is_reserved": 0, "fusion_lon": 0.0, "lat": 38.95207833333333, "rental_uris": {"ios": "https://dc.lft.to/lastmile_qr_scan", "android": "https://dc.lft.to/lastmile_qr_scan"}, "bike_id": "9fd2f771c3722b323f64fa8c3974acf9", "fusion_lat": 0.0}, {"lon": -77.00674466666666, "name": "8bd0e973ace29d4e58a42b6696677c6a", "is_disabled": 0, "type": "electric_bike", "is_reserved": 0, "fusion_lon": 0.0, "lat": 38.945081, "rental_uris": {"ios": "https://dc.lft.to/lastmile_qr_scan", "android": "https://dc.lft.to/lastmile_qr_scan"}, "bike_id": "8bd0e973ace29d4e58a42b6696677c6a", "fusion_lat": 0.0}, {"lon": -77.048665, "name": "0756d00afdecd8716e4a4a26d0a66aa1", "is_disabled": 0, "type": "electric_scooter", "is_reserved": 0, "fusion_lon": 0.0, "lat": 38.90649033333333, "rental_uris": {"ios": "https://dc.lft.to/lastmile_qr_scan", "android": "https://dc.lft.to/lastmile_qr_scan"}, "bike_id": "0756d00afdecd8716e4a4a26d0a66aa1", "fusion_lat": 0.0}, {"lon": -77.07897266666667, "name": "11ab2813de71110c55e0d0c1b3acf942", "is_disabled": 0, "type": "electric_bike", "is_reserved": 0, "fusion_lon": 0.0, "lat": 38.83929883333333, "rental_uris": {"ios": "https://dc.lft.to/lastmile_qr_scan", "android": "https://dc.lft.to/lastmile_qr_scan"}, "bike_id": "11ab2813de71110c55e0d0c1b3acf942", "fusion_lat": 0.0}, {"lon": -77.03360916666666, "name": "cec4c3e9f80d0bb4b36a275c3f485310", "is_disabled": 0, "type": "electric_scooter", "is_reserved": 0, "fusion_lon": 0.0, "lat": 38.92751416666667, "rental_uris": {"ios": "https://dc.lft.to/lastmile_qr_scan", "android": "https://dc.lft.to/lastmile_qr_scan"}, "bike_id": "cec4c3e9f80d0bb4b36a275c3f485310", "fusion_lat": 0.0}, {"lon": -76.99302633333333, "name": "e2302f86742e5a1d5384e47aee3d9411", "is_disabled": 0, "type": "electric_scooter", "is_reserved": 0, "fusion_lon": 0.0, "lat": 38.937734666666664, "rental_uris": {"ios": "https://dc.lft.to/lastmile_qr_scan", "android": "https://dc.lft.to/lastmile_qr_scan"}, "bike_id": "e2302f86742e5a1d5384e47aee3d9411", "fusion_lat": 0.0}, {"lon": -77.021927, "name": "5be1bce8f52b175395fe653f2de80bcb", "is_disabled": 0, "type": "electric_scooter", "is_reserved": 0, "fusion_lon": 0.0, "lat": 38.896275, "rental_uris": {"ios": "https://dc.lft.to/lastmile_qr_scan", "android": "https://dc.lft.to/lastmile_qr_scan"}, "bike_id": "5be1bce8f52b175395fe653f2de80bcb", "fusion_lat": 0.0}, {"lon": -77.026602, "name": "5390317dfab92a4844f94ef0f9ffc6bd", "is_disabled": 0, "type": "electric_scooter", "is_reserved": 0, "fusion_lon": 0.0, "lat": 38.92382533333333, "rental_uris": {"ios": "https://dc.lft.to/lastmile_qr_scan", "android": "https://dc.lft.to/lastmile_qr_scan"}, "bike_id": "5390317dfab92a4844f94ef0f9ffc6bd", "fusion_lat": 0.0}, {"lon": -76.98468716666666, "name": "e98e7c763c35a9ff9836c6e57b50bb22", "is_disabled": 0, "type": "electric_bike", "is_reserved": 0, "fusion_lon": 0.0, "lat": 38.912705833333334, "rental_uris": {"ios": "https://dc.lft.to/lastmile_qr_scan", "android": "https://dc.lft.to/lastmile_qr_scan"}, "bike_id": "e98e7c763c35a9ff9836c6e57b50bb22", "fusion_lat": 0.0}, {"lon": -77.02063483333333, "name": "73c7f53d92cb3852f44ca518c5031fee", "is_disabled": 0, "type": "electric_scooter", "is_reserved": 0, "fusion_lon": 0.0, "lat": 38.93261366666667, "rental_uris": {"ios": "https://dc.lft.to/lastmile_qr_scan", "android": "https://dc.lft.to/lastmile_qr_scan"}, "bike_id": "73c7f53d92cb3852f44ca518c5031fee", "fusion_lat": 0.0}, {"lon": -76.9978335, "name": "5675ec758da2524d58d03ab211c6df02", "is_disabled": 0, "type": "electric_scooter", "is_reserved": 0, "fusion_lon": 0.0, "lat": 38.9322175, "rental_uris": {"ios": "https://dc.lft.to/lastmile_qr_scan", "android": "https://dc.lft.to/lastmile_qr_scan"}, "bike_id": "5675ec758da2524d58d03ab211c6df02", "fusion_lat": 0.0}, {"lon": -77.04023616666667, "name": "f23fc39329940f810152b57fba0ea670", "is_disabled": 0, "type": "electric_scooter", "is_reserved": 0, "fusion_lon": 0.0, "lat": 38.904958666666666, "rental_uris": {"ios": "https://dc.lft.to/lastmile_qr_scan", "android": "https://dc.lft.to/lastmile_qr_scan"}, "bike_id": "f23fc39329940f810152b57fba0ea670", "fusion_lat": 0.0}, {"lon": -77.02169933333333, "name": "1e786b2cb1b30029d812820c34328368", "is_disabled": 0, "type": "electric_scooter", "is_reserved": 0, "fusion_lon": 0.0, "lat": 38.9140035, "rental_uris": {"ios": "https://dc.lft.to/lastmile_qr_scan", "android": "https://dc.lft.to/lastmile_qr_scan"}, "bike_id": "1e786b2cb1b30029d812820c34328368", "fusion_lat": 0.0}, {"lon": -76.93387433333334, "name": "d8f40b31bc8395f8f0718efd747039d7", "is_disabled": 0, "type": "electric_scooter", "is_reserved": 0, "fusion_lon": 0.0, "lat": 38.89905, "rental_uris": {"ios": "https://dc.lft.to/lastmile_qr_scan", "android": "https://dc.lft.to/lastmile_qr_scan"}, "bike_id": "d8f40b31bc8395f8f0718efd747039d7", "fusion_lat": 0.0}, {"lon": -77.0423525, "name": "69f975dc23c5af8e621ffceca290210c", "is_disabled": 0, "type": "electric_scooter", "is_reserved": 0, "fusion_lon": 0.0, "lat": 38.92156516666667, "rental_uris": {"ios": "https://dc.lft.to/lastmile_qr_scan", "android": "https://dc.lft.to/lastmile_qr_scan"}, "bike_id": "69f975dc23c5af8e621ffceca290210c", "fusion_lat": 0.0}, {"lon": -77.04309516666666, "name": "62c6fb616885b7ee7ba6e92c152a42f9", "is_disabled": 0, "type": "electric_scooter", "is_reserved": 0, "fusion_lon": 0.0, "lat": 38.89701383333333, "rental_uris": {"ios": "https://dc.lft.to/lastmile_qr_scan", "android": "https://dc.lft.to/lastmile_qr_scan"}, "bike_id": "62c6fb616885b7ee7ba6e92c152a42f9", "fusion_lat": 0.0}, {"lon": -77.02177283333333, "name": "a4aee313d149859acdd7b52722939d4d", "is_disabled": 0, "type": "electric_scooter", "is_reserved": 0, "fusion_lon": 0.0, "lat": 38.90191983333333, "rental_uris": {"ios": "https://dc.lft.to/lastmile_qr_scan", "android": "https://dc.lft.to/lastmile_qr_scan"}, "bike_id": "a4aee313d149859acdd7b52722939d4d", "fusion_lat": 0.0}, {"lon": -77.02377233333333, "name": "45904c542ec773f735e85ee86416bf73", "is_disabled": 0, "type": "electric_scooter", "is_reserved": 0, "fusion_lon": 0.0, "lat": 38.902085666666665, "rental_uris": {"ios": "https://dc.lft.to/lastmile_qr_scan", "android": "https://dc.lft.to/lastmile_qr_scan"}, "bike_id": "45904c542ec773f735e85ee86416bf73", "fusion_lat": 0.0}, {"lon": -77.06084383333334, "name": "785db864d545901b6c541f9906a2651b", "is_disabled": 0, "type": "electric_scooter", "is_reserved": 0, "fusion_lon": 0.0, "lat": 38.91189133333334, "rental_uris": {"ios": "https://dc.lft.to/lastmile_qr_scan", "android": "https://dc.lft.to/lastmile_qr_scan"}, "bike_id": "785db864d545901b6c541f9906a2651b", "fusion_lat": 0.0}, {"lon": -77.01883866666667, "name": "2725be440d4c6940cf858f7a89700a4b", "is_disabled": 0, "type": "electric_scooter", "is_reserved": 0, "fusion_lon": 0.0, "lat": 38.90911, "rental_uris": {"ios": "https://dc.lft.to/lastmile_qr_scan", "android": "https://dc.lft.to/lastmile_qr_scan"}, "bike_id": "2725be440d4c6940cf858f7a89700a4b", "fusion_lat": 0.0}, {"lon": -77.02063966666667, "name": "74d17ce0ebb5fd0ada4b79b9fb7f75ce", "is_disabled": 0, "type": "electric_scooter", "is_reserved": 0, "fusion_lon": 0.0, "lat": 38.92253783333334, "rental_uris": {"ios": "https://dc.lft.to/lastmile_qr_scan", "android": "https://dc.lft.to/lastmile_qr_scan"}, "bike_id": "74d17ce0ebb5fd0ada4b79b9fb7f75ce", "fusion_lat": 0.0}, {"lon": -77.02355583333333, "name": "0a46f35b607debf6e998d159d537225e", "is_disabled": 0, "type": "electric_scooter", "is_reserved": 0, "fusion_lon": 0.0, "lat": 38.920785333333335, "rental_uris": {"ios": "https://dc.lft.to/lastmile_qr_scan", "android": "https://dc.lft.to/lastmile_qr_scan"}, "bike_id": "0a46f35b607debf6e998d159d537225e", "fusion_lat": 0.0}, {"lon": -77.01225383333333, "name": "ccde1c9a624ed8478c0315f43b7d8e80", "is_disabled": 0, "type": "electric_scooter", "is_reserved": 0, "fusion_lon": 0.0, "lat": 38.90012983333333, "rental_uris": {"ios": "https://dc.lft.to/lastmile_qr_scan", "android": "https://dc.lft.to/lastmile_qr_scan"}, "bike_id": "ccde1c9a624ed8478c0315f43b7d8e80", "fusion_lat": 0.0}, {"lon": -77.00964183333333, "name": "b99e550bc744dd0ab75e8fbb757e7f29", "is_disabled": 0, "type": "electric_scooter", "is_reserved": 0, "fusion_lon": 0.0, "lat": 38.87633733333333, "rental_uris": {"ios": "https://dc.lft.to/lastmile_qr_scan", "android": "https://dc.lft.to/lastmile_qr_scan"}, "bike_id": "b99e550bc744dd0ab75e8fbb757e7f29", "fusion_lat": 0.0}, {"lon": -77.051183, "name": "15d141b14a02bd5eef2327c670ea84a2", "is_disabled": 0, "type": "electric_scooter", "is_reserved": 0, "fusion_lon": 0.0, "lat": 38.896721, "rental_uris": {"ios": "https://dc.lft.to/lastmile_qr_scan", "android": "https://dc.lft.to/lastmile_qr_scan"}, "bike_id": "15d141b14a02bd5eef2327c670ea84a2", "fusion_lat": 0.0}, {"lon": -77.02824783333334, "name": "ed76bf940b8fbf73eabca9abe89b19ac", "is_disabled": 0, "type": "electric_scooter", "is_reserved": 0, "fusion_lon": 0.0, "lat": 38.9222885, "rental_uris": {"ios": "https://dc.lft.to/lastmile_qr_scan", "android": "https://dc.lft.to/lastmile_qr_scan"}, "bike_id": "ed76bf940b8fbf73eabca9abe89b19ac", "fusion_lat": 0.0}, {"lon": -77.03282766666666, "name": "2047acacff23b3279d77b3156d35e603", "is_disabled": 0, "type": "electric_scooter", "is_reserved": 0, "fusion_lon": 0.0, "lat": 38.935394333333335, "rental_uris": {"ios": "https://dc.lft.to/lastmile_qr_scan", "android": "https://dc.lft.to/lastmile_qr_scan"}, "bike_id": "2047acacff23b3279d77b3156d35e603", "fusion_lat": 0.0}, {"lon": -77.0211515, "name": "4c309ca1bc7e51bba2bdd8e08b7dab41", "is_disabled": 0, "type": "electric_scooter", "is_reserved": 0, "fusion_lon": 0.0, "lat": 38.9173875, "rental_uris": {"ios": "https://dc.lft.to/lastmile_qr_scan", "android": "https://dc.lft.to/lastmile_qr_scan"}, "bike_id": "4c309ca1bc7e51bba2bdd8e08b7dab41", "fusion_lat": 0.0}, {"lon": -77.00328683333333, "name": "1e296ef02771e60984a1d257e2c39ddf", "is_disabled": 0, "type": "electric_scooter", "is_reserved": 0, "fusion_lon": 0.0, "lat": 38.876513, "rental_uris": {"ios": "https://dc.lft.to/lastmile_qr_scan", "android": "https://dc.lft.to/lastmile_qr_scan"}, "bike_id": "1e296ef02771e60984a1d257e2c39ddf", "fusion_lat": 0.0}, {"lon": -77.0216395, "name": "9443ba99d3543feabff6d80e1fbecfdc", "is_disabled": 0, "type": "electric_bike", "is_reserved": 0, "fusion_lon": 0.0, "lat": 38.957378166666665, "rental_uris": {"ios": "https://dc.lft.to/lastmile_qr_scan", "android": "https://dc.lft.to/lastmile_qr_scan"}, "bike_id": "9443ba99d3543feabff6d80e1fbecfdc", "fusion_lat": 0.0}, {"lon": -77.03081783333333, "name": "b2a7a26e251c94ec61d6721f80064c46", "is_disabled": 0, "type": "electric_scooter", "is_reserved": 0, "fusion_lon": 0.0, "lat": 38.93275333333333, "rental_uris": {"ios": "https://dc.lft.to/lastmile_qr_scan", "android": "https://dc.lft.to/lastmile_qr_scan"}, "bike_id": "b2a7a26e251c94ec61d6721f80064c46", "fusion_lat": 0.0}, {"lon": -77.02028483333333, "name": "6369143216703b0a3ca9e1600deb8442", "is_disabled": 0, "type": "electric_scooter", "is_reserved": 0, "fusion_lon": 0.0, "lat": 38.92123266666667, "rental_uris": {"ios": "https://dc.lft.to/lastmile_qr_scan", "android": "https://dc.lft.to/lastmile_qr_scan"}, "bike_id": "6369143216703b0a3ca9e1600deb8442", "fusion_lat": 0.0}, {"lon": -77.03203866666666, "name": "9355a6656efd7a7c842a25385827e1a4", "is_disabled": 0, "type": "electric_scooter", "is_reserved": 0, "fusion_lon": 0.0, "lat": 38.9123395, "rental_uris": {"ios": "https://dc.lft.to/lastmile_qr_scan", "android": "https://dc.lft.to/lastmile_qr_scan"}, "bike_id": "9355a6656efd7a7c842a25385827e1a4", "fusion_lat": 0.0}, {"lon": -77.03381383333334, "name": "e9be1afb88fc79ca1b7803f26f430e25", "is_disabled": 0, "type": "electric_scooter", "is_reserved": 0, "fusion_lon": 0.0, "lat": 38.921481166666666, "rental_uris": {"ios": "https://dc.lft.to/lastmile_qr_scan", "android": "https://dc.lft.to/lastmile_qr_scan"}, "bike_id": "e9be1afb88fc79ca1b7803f26f430e25", "fusion_lat": 0.0}, {"lon": -77.046264, "name": "6fdd8cca64756fb01018b9aeb060430e", "is_disabled": 0, "type": "electric_scooter", "is_reserved": 0, "fusion_lon": 0.0, "lat": 38.923376833333336, "rental_uris": {"ios": "https://dc.lft.to/lastmile_qr_scan", "android": "https://dc.lft.to/lastmile_qr_scan"}, "bike_id": "6fdd8cca64756fb01018b9aeb060430e", "fusion_lat": 0.0}, {"lon": -77.02084233333333, "name": "d9e97e072b78265c4d6778555be1f13a", "is_disabled": 0, "type": "electric_scooter", "is_reserved": 0, "fusion_lon": 0.0, "lat": 38.92719066666667, "rental_uris": {"ios": "https://dc.lft.to/lastmile_qr_scan", "android": "https://dc.lft.to/lastmile_qr_scan"}, "bike_id": "d9e97e072b78265c4d6778555be1f13a", "fusion_lat": 0.0}, {"lon": -77.04390866666667, "name": "53c4432fc71f5d408f01cc8b6f63fdf4", "is_disabled": 0, "type": "electric_scooter", "is_reserved": 0, "fusion_lon": 0.0, "lat": 38.92355416666667, "rental_uris": {"ios": "https://dc.lft.to/lastmile_qr_scan", "android": "https://dc.lft.to/lastmile_qr_scan"}, "bike_id": "53c4432fc71f5d408f01cc8b6f63fdf4", "fusion_lat": 0.0}, {"lon": -77.11317783333334, "name": "1fe23ef139e843c393bda1f8feeb6324", "is_disabled": 0, "type": "electric_bike", "is_reserved": 0, "fusion_lon": 0.0, "lat": 38.83135566666667, "rental_uris": {"ios": "https://dc.lft.to/lastmile_qr_scan", "android": "https://dc.lft.to/lastmile_qr_scan"}, "bike_id": "1fe23ef139e843c393bda1f8feeb6324", "fusion_lat": 0.0}, {"lon": -77.00367483333333, "name": "5d42fc3a3f072dcc1a45a107a17b6eff", "is_disabled": 0, "type": "electric_scooter", "is_reserved": 0, "fusion_lon": 0.0, "lat": 38.91107433333333, "rental_uris": {"ios": "https://dc.lft.to/lastmile_qr_scan", "android": "https://dc.lft.to/lastmile_qr_scan"}, "bike_id": "5d42fc3a3f072dcc1a45a107a17b6eff", "fusion_lat": 0.0}, {"lon": -77.0270905, "name": "c30258fb4246efd0ac04c9de0782beb0", "is_disabled": 0, "type": "electric_scooter", "is_reserved": 0, "fusion_lon": 0.0, "lat": 38.918866333333334, "rental_uris": {"ios": "https://dc.lft.to/lastmile_qr_scan", "android": "https://dc.lft.to/lastmile_qr_scan"}, "bike_id": "c30258fb4246efd0ac04c9de0782beb0", "fusion_lat": 0.0}, {"lon": -77.04513283333333, "name": "a46b103e8bd87ed70372e2ce57e67522", "is_disabled": 0, "type": "electric_scooter", "is_reserved": 0, "fusion_lon": 0.0, "lat": 38.91965033333334, "rental_uris": {"ios": "https://dc.lft.to/lastmile_qr_scan", "android": "https://dc.lft.to/lastmile_qr_scan"}, "bike_id": "a46b103e8bd87ed70372e2ce57e67522", "fusion_lat": 0.0}, {"lon": -77.04893, "name": "f05ab1df666a3af0bfb4c44c8b2240f4", "is_disabled": 0, "type": "electric_scooter", "is_reserved": 0, "fusion_lon": 0.0, "lat": 38.900763166666664, "rental_uris": {"ios": "https://dc.lft.to/lastmile_qr_scan", "android": "https://dc.lft.to/lastmile_qr_scan"}, "bike_id": "f05ab1df666a3af0bfb4c44c8b2240f4", "fusion_lat": 0.0}, {"lon": -77.02693916666666, "name": "bc85009361eaed9c69184c898792cc0a", "is_disabled": 0, "type": "electric_scooter", "is_reserved": 0, "fusion_lon": 0.0, "lat": 38.90585933333333, "rental_uris": {"ios": "https://dc.lft.to/lastmile_qr_scan", "android": "https://dc.lft.to/lastmile_qr_scan"}, "bike_id": "bc85009361eaed9c69184c898792cc0a", "fusion_lat": 0.0}, {"lon": -77.01452983333333, "name": "f8858b9cfd52cd00567333105d01dd76", "is_disabled": 0, "type": "electric_scooter", "is_reserved": 0, "fusion_lon": 0.0, "lat": 38.95812933333333, "rental_uris": {"ios": "https://dc.lft.to/lastmile_qr_scan", "android": "https://dc.lft.to/lastmile_qr_scan"}, "bike_id": "f8858b9cfd52cd00567333105d01dd76", "fusion_lat": 0.0}, {"lon": -77.0276055, "name": "20e7eb996f2afbd95bc7a4144281c004", "is_disabled": 0, "type": "electric_scooter", "is_reserved": 0, "fusion_lon": 0.0, "lat": 38.927676166666664, "rental_uris": {"ios": "https://dc.lft.to/lastmile_qr_scan", "android": "https://dc.lft.to/lastmile_qr_scan"}, "bike_id": "20e7eb996f2afbd95bc7a4144281c004", "fusion_lat": 0.0}, {"lon": -77.2317785, "name": "79934c37a2e9d97c553f65b93c072abc", "is_disabled": 0, "type": "electric_bike", "is_reserved": 0, "fusion_lon": 0.0, "lat": 38.9289535, "rental_uris": {"ios": "https://dc.lft.to/lastmile_qr_scan", "android": "https://dc.lft.to/lastmile_qr_scan"}, "bike_id": "79934c37a2e9d97c553f65b93c072abc", "fusion_lat": 0.0}, {"lon": -77.079168, "name": "c3c2364b6d3d130765d982dd5382c715", "is_disabled": 0, "type": "electric_bike", "is_reserved": 0, "fusion_lon": 0.0, "lat": 38.8382735, "rental_uris": {"ios": "https://dc.lft.to/lastmile_qr_scan", "android": "https://dc.lft.to/lastmile_qr_scan"}, "bike_id": "c3c2364b6d3d130765d982dd5382c715", "fusion_lat": 0.0}, {"lon": -77.0119255, "name": "de8eb123593484e4ad9c7068b0be97cd", "is_disabled": 0, "type": "electric_scooter", "is_reserved": 0, "fusion_lon": 0.0, "lat": 38.91692366666667, "rental_uris": {"ios": "https://dc.lft.to/lastmile_qr_scan", "android": "https://dc.lft.to/lastmile_qr_scan"}, "bike_id": "de8eb123593484e4ad9c7068b0be97cd", "fusion_lat": 0.0}, {"lon": -77.02140483333334, "name": "4e5866d063db6144e8423b6321c21fc3", "is_disabled": 0, "type": "electric_scooter", "is_reserved": 0, "fusion_lon": 0.0, "lat": 38.93300883333333, "rental_uris": {"ios": "https://dc.lft.to/lastmile_qr_scan", "android": "https://dc.lft.to/lastmile_qr_scan"}, "bike_id": "4e5866d063db6144e8423b6321c21fc3", "fusion_lat": 0.0}, {"lon": -77.01506416666666, "name": "6c15bf461e36afcaac8b6c9dcd70a818", "is_disabled": 0, "type": "electric_scooter", "is_reserved": 0, "fusion_lon": 0.0, "lat": 38.910025, "rental_uris": {"ios": "https://dc.lft.to/lastmile_qr_scan", "android": "https://dc.lft.to/lastmile_qr_scan"}, "bike_id": "6c15bf461e36afcaac8b6c9dcd70a818", "fusion_lat": 0.0}, {"lon": -77.0316755, "name": "da6c769ae5676b61b235b5b5901d0bc9", "is_disabled": 0, "type": "electric_scooter", "is_reserved": 0, "fusion_lon": 0.0, "lat": 38.89228716666667, "rental_uris": {"ios": "https://dc.lft.to/lastmile_qr_scan", "android": "https://dc.lft.to/lastmile_qr_scan"}, "bike_id": "da6c769ae5676b61b235b5b5901d0bc9", "fusion_lat": 0.0}, {"lon": -77.02183916666667, "name": "4a33c3859666e72246cfe0795fced25e", "is_disabled": 0, "type": "electric_scooter", "is_reserved": 0, "fusion_lon": 0.0, "lat": 38.914743666666666, "rental_uris": {"ios": "https://dc.lft.to/lastmile_qr_scan", "android": "https://dc.lft.to/lastmile_qr_scan"}, "bike_id": "4a33c3859666e72246cfe0795fced25e", "fusion_lat": 0.0}, {"lon": -77.02382916666667, "name": "12facd812959dbe24f774fa55b935899", "is_disabled": 0, "type": "electric_scooter", "is_reserved": 0, "fusion_lon": 0.0, "lat": 38.9163605, "rental_uris": {"ios": "https://dc.lft.to/lastmile_qr_scan", "android": "https://dc.lft.to/lastmile_qr_scan"}, "bike_id": "12facd812959dbe24f774fa55b935899", "fusion_lat": 0.0}, {"lon": -77.03429083333333, "name": "54244e682344bdc192c867e93e039d9a", "is_disabled": 0, "type": "electric_scooter", "is_reserved": 0, "fusion_lon": 0.0, "lat": 38.9025915, "rental_uris": {"ios": "https://dc.lft.to/lastmile_qr_scan", "android": "https://dc.lft.to/lastmile_qr_scan"}, "bike_id": "54244e682344bdc192c867e93e039d9a", "fusion_lat": 0.0}, {"lon": -77.0220145, "name": "7070da3ae3da92e6b218aaa2ed149b8a", "is_disabled": 0, "type": "electric_scooter", "is_reserved": 0, "fusion_lon": 0.0, "lat": 38.90574616666667, "rental_uris": {"ios": "https://dc.lft.to/lastmile_qr_scan", "android": "https://dc.lft.to/lastmile_qr_scan"}, "bike_id": "7070da3ae3da92e6b218aaa2ed149b8a", "fusion_lat": 0.0}, {"lon": -77.042451, "name": "672baee92802d00bbc19d1fdf44b95cd", "is_disabled": 0, "type": "electric_scooter", "is_reserved": 0, "fusion_lon": 0.0, "lat": 38.920664333333335, "rental_uris": {"ios": "https://dc.lft.to/lastmile_qr_scan", "android": "https://dc.lft.to/lastmile_qr_scan"}, "bike_id": "672baee92802d00bbc19d1fdf44b95cd", "fusion_lat": 0.0}, {"lon": -77.0178365, "name": "56bd959f1dbfaab06d8d1667859097ea", "is_disabled": 0, "type": "electric_scooter", "is_reserved": 0, "fusion_lon": 0.0, "lat": 38.91998233333333, "rental_uris": {"ios": "https://dc.lft.to/lastmile_qr_scan", "android": "https://dc.lft.to/lastmile_qr_scan"}, "bike_id": "56bd959f1dbfaab06d8d1667859097ea", "fusion_lat": 0.0}, {"lon": -77.0143665, "name": "3459426a9e502678a98280b75df4491c", "is_disabled": 0, "type": "electric_scooter", "is_reserved": 0, "fusion_lon": 0.0, "lat": 38.91951566666667, "rental_uris": {"ios": "https://dc.lft.to/lastmile_qr_scan", "android": "https://dc.lft.to/lastmile_qr_scan"}, "bike_id": "3459426a9e502678a98280b75df4491c", "fusion_lat": 0.0}, {"lon": -77.053251, "name": "e99841b3ab4f9cdd523e3e02d39ef92c", "is_disabled": 0, "type": "electric_scooter", "is_reserved": 0, "fusion_lon": 0.0, "lat": 38.90438066666667, "rental_uris": {"ios": "https://dc.lft.to/lastmile_qr_scan", "android": "https://dc.lft.to/lastmile_qr_scan"}, "bike_id": "e99841b3ab4f9cdd523e3e02d39ef92c", "fusion_lat": 0.0}, {"lon": -77.00324683333334, "name": "92086a3207a19938af70d485d4e9d5ef", "is_disabled": 0, "type": "electric_scooter", "is_reserved": 0, "fusion_lon": 0.0, "lat": 38.901326, "rental_uris": {"ios": "https://dc.lft.to/lastmile_qr_scan", "android": "https://dc.lft.to/lastmile_qr_scan"}, "bike_id": "92086a3207a19938af70d485d4e9d5ef", "fusion_lat": 0.0}, {"lon": -77.0358095, "name": "3a0c4c92eadab6953a27f836bd05a87e", "is_disabled": 0, "type": "electric_scooter", "is_reserved": 0, "fusion_lon": 0.0, "lat": 38.902147, "rental_uris": {"ios": "https://dc.lft.to/lastmile_qr_scan", "android": "https://dc.lft.to/lastmile_qr_scan"}, "bike_id": "3a0c4c92eadab6953a27f836bd05a87e", "fusion_lat": 0.0}, {"lon": -76.95830316666667, "name": "40435ae58e7585215526a635edd48e3b", "is_disabled": 0, "type": "electric_bike", "is_reserved": 0, "fusion_lon": 0.0, "lat": 38.850624833333335, "rental_uris": {"ios": "https://dc.lft.to/lastmile_qr_scan", "android": "https://dc.lft.to/lastmile_qr_scan"}, "bike_id": "40435ae58e7585215526a635edd48e3b", "fusion_lat": 0.0}, {"lon": -77.03925316666667, "name": "1fbbbefad47b79e4788f93ef7877cdc7", "is_disabled": 0, "type": "electric_scooter", "is_reserved": 0, "fusion_lon": 0.0, "lat": 38.91629183333333, "rental_uris": {"ios": "https://dc.lft.to/lastmile_qr_scan", "android": "https://dc.lft.to/lastmile_qr_scan"}, "bike_id": "1fbbbefad47b79e4788f93ef7877cdc7", "fusion_lat": 0.0}, {"lon": -77.03653983333334, "name": "4f0eae5ca835d0bb968344366a99acb4", "is_disabled": 0, "type": "electric_scooter", "is_reserved": 0, "fusion_lon": 0.0, "lat": 38.93352566666667, "rental_uris": {"ios": "https://dc.lft.to/lastmile_qr_scan", "android": "https://dc.lft.to/lastmile_qr_scan"}, "bike_id": "4f0eae5ca835d0bb968344366a99acb4", "fusion_lat": 0.0}, {"lon": -76.93743616666667, "name": "feb9a914f68f55e90891685f18933314", "is_disabled": 0, "type": "electric_scooter", "is_reserved": 0, "fusion_lon": 0.0, "lat": 38.8901465, "rental_uris": {"ios": "https://dc.lft.to/lastmile_qr_scan", "android": "https://dc.lft.to/lastmile_qr_scan"}, "bike_id": "feb9a914f68f55e90891685f18933314", "fusion_lat": 0.0}, {"lon": -77.02174083333334, "name": "88dce5f5e5d130e61394880239e423bc", "is_disabled": 0, "type": "electric_scooter", "is_reserved": 0, "fusion_lon": 0.0, "lat": 38.89969966666666, "rental_uris": {"ios": "https://dc.lft.to/lastmile_qr_scan", "android": "https://dc.lft.to/lastmile_qr_scan"}, "bike_id": "88dce5f5e5d130e61394880239e423bc", "fusion_lat": 0.0}, {"lon": -76.9837335, "name": "abe64c4662471ca18f61b354279748ad", "is_disabled": 0, "type": "electric_scooter", "is_reserved": 0, "fusion_lon": 0.0, "lat": 38.86082966666667, "rental_uris": {"ios": "https://dc.lft.to/lastmile_qr_scan", "android": "https://dc.lft.to/lastmile_qr_scan"}, "bike_id": "abe64c4662471ca18f61b354279748ad", "fusion_lat": 0.0}, {"lon": -77.023455, "name": "e8922fa58be45d23542db1e41add2872", "is_disabled": 0, "type": "electric_scooter", "is_reserved": 0, "fusion_lon": 0.0, "lat": 38.91783683333333, "rental_uris": {"ios": "https://dc.lft.to/lastmile_qr_scan", "android": "https://dc.lft.to/lastmile_qr_scan"}, "bike_id": "e8922fa58be45d23542db1e41add2872", "fusion_lat": 0.0}, {"lon": -77.0431735, "name": "34f087bbcb2836cdcb45e06ea9b62bf5", "is_disabled": 0, "type": "electric_bike", "is_reserved": 0, "fusion_lon": 0.0, "lat": 39.0343345, "rental_uris": {"ios": "https://dc.lft.to/lastmile_qr_scan", "android": "https://dc.lft.to/lastmile_qr_scan"}, "bike_id": "34f087bbcb2836cdcb45e06ea9b62bf5", "fusion_lat": 0.0}, {"lon": -77.01745633333333, "name": "0eeadb82fa471a20e42c789e58e5af48", "is_disabled": 0, "type": "electric_scooter", "is_reserved": 0, "fusion_lon": 0.0, "lat": 38.88333933333333, "rental_uris": {"ios": "https://dc.lft.to/lastmile_qr_scan", "android": "https://dc.lft.to/lastmile_qr_scan"}, "bike_id": "0eeadb82fa471a20e42c789e58e5af48", "fusion_lat": 0.0}, {"lon": -76.9466425, "name": "0a6fe77ef5f7628971def84b6f45e402", "is_disabled": 0, "type": "electric_scooter", "is_reserved": 0, "fusion_lon": 0.0, "lat": 38.8987, "rental_uris": {"ios": "https://dc.lft.to/lastmile_qr_scan", "android": "https://dc.lft.to/lastmile_qr_scan"}, "bike_id": "0a6fe77ef5f7628971def84b6f45e402", "fusion_lat": 0.0}, {"lon": -77.00136066666667, "name": "52acf71a2ee3303d018f224ea8da791d", "is_disabled": 0, "type": "electric_scooter", "is_reserved": 0, "fusion_lon": 0.0, "lat": 38.873726166666664, "rental_uris": {"ios": "https://dc.lft.to/lastmile_qr_scan", "android": "https://dc.lft.to/lastmile_qr_scan"}, "bike_id": "52acf71a2ee3303d018f224ea8da791d", "fusion_lat": 0.0}, {"lon": -77.03926216666666, "name": "b3b93becf86d25433999da24862ca09c", "is_disabled": 0, "type": "electric_scooter", "is_reserved": 0, "fusion_lon": 0.0, "lat": 38.898547666666666, "rental_uris": {"ios": "https://dc.lft.to/lastmile_qr_scan", "android": "https://dc.lft.to/lastmile_qr_scan"}, "bike_id": "b3b93becf86d25433999da24862ca09c", "fusion_lat": 0.0}, {"lon": -77.02710483333334, "name": "d4a45de958c2eabb42cf25038958d6f5", "is_disabled": 0, "type": "electric_scooter", "is_reserved": 0, "fusion_lon": 0.0, "lat": 38.916927333333334, "rental_uris": {"ios": "https://dc.lft.to/lastmile_qr_scan", "android": "https://dc.lft.to/lastmile_qr_scan"}, "bike_id": "d4a45de958c2eabb42cf25038958d6f5", "fusion_lat": 0.0}, {"lon": -77.03204733333334, "name": "8632acb32a1577a68c2d702015bd03d6", "is_disabled": 0, "type": "electric_scooter", "is_reserved": 0, "fusion_lon": 0.0, "lat": 38.9123235, "rental_uris": {"ios": "https://dc.lft.to/lastmile_qr_scan", "android": "https://dc.lft.to/lastmile_qr_scan"}, "bike_id": "8632acb32a1577a68c2d702015bd03d6", "fusion_lat": 0.0}, {"lon": -77.0213435, "name": "68e66fe75ba9ff825abcdd446ddc0d35", "is_disabled": 0, "type": "electric_scooter", "is_reserved": 0, "fusion_lon": 0.0, "lat": 38.9237025, "rental_uris": {"ios": "https://dc.lft.to/lastmile_qr_scan", "android": "https://dc.lft.to/lastmile_qr_scan"}, "bike_id": "68e66fe75ba9ff825abcdd446ddc0d35", "fusion_lat": 0.0}, {"lon": -77.02813316666666, "name": "dbb1ef2dbfcb6cec411933c565fa5251", "is_disabled": 0, "type": "electric_scooter", "is_reserved": 0, "fusion_lon": 0.0, "lat": 38.90706766666667, "rental_uris": {"ios": "https://dc.lft.to/lastmile_qr_scan", "android": "https://dc.lft.to/lastmile_qr_scan"}, "bike_id": "dbb1ef2dbfcb6cec411933c565fa5251", "fusion_lat": 0.0}, {"lon": -77.03201583333333, "name": "abdc9ddf173cd29cdfc506ef3dca6b53", "is_disabled": 0, "type": "electric_scooter", "is_reserved": 0, "fusion_lon": 0.0, "lat": 38.883788833333334, "rental_uris": {"ios": "https://dc.lft.to/lastmile_qr_scan", "android": "https://dc.lft.to/lastmile_qr_scan"}, "bike_id": "abdc9ddf173cd29cdfc506ef3dca6b53", "fusion_lat": 0.0}, {"lon": -77.02318833333334, "name": "9d0872fbb528a5ef55284a1860ba0a4e", "is_disabled": 0, "type": "electric_scooter", "is_reserved": 0, "fusion_lon": 0.0, "lat": 38.939882, "rental_uris": {"ios": "https://dc.lft.to/lastmile_qr_scan", "android": "https://dc.lft.to/lastmile_qr_scan"}, "bike_id": "9d0872fbb528a5ef55284a1860ba0a4e", "fusion_lat": 0.0}, {"lon": -77.03812333333333, "name": "361bdb7f4bec940fc9bc6a483e3c7ede", "is_disabled": 0, "type": "electric_scooter", "is_reserved": 0, "fusion_lon": 0.0, "lat": 38.925559666666665, "rental_uris": {"ios": "https://dc.lft.to/lastmile_qr_scan", "android": "https://dc.lft.to/lastmile_qr_scan"}, "bike_id": "361bdb7f4bec940fc9bc6a483e3c7ede", "fusion_lat": 0.0}, {"lon": -77.0251255, "name": "7741e5d856efcc6dd9cc75ef6a38e476", "is_disabled": 0, "type": "electric_scooter", "is_reserved": 0, "fusion_lon": 0.0, "lat": 38.91706466666667, "rental_uris": {"ios": "https://dc.lft.to/lastmile_qr_scan", "android": "https://dc.lft.to/lastmile_qr_scan"}, "bike_id": "7741e5d856efcc6dd9cc75ef6a38e476", "fusion_lat": 0.0}, {"lon": -76.99561383333334, "name": "cf82316519acb21e0b9767de9baf286f", "is_disabled": 0, "type": "electric_scooter", "is_reserved": 0, "fusion_lon": 0.0, "lat": 38.95070916666667, "rental_uris": {"ios": "https://dc.lft.to/lastmile_qr_scan", "android": "https://dc.lft.to/lastmile_qr_scan"}, "bike_id": "cf82316519acb21e0b9767de9baf286f", "fusion_lat": 0.0}, {"lon": -77.03253466666666, "name": "31e9550dfb6dc26757e8514ae0881b41", "is_disabled": 0, "type": "electric_scooter", "is_reserved": 0, "fusion_lon": 0.0, "lat": 38.90294983333333, "rental_uris": {"ios": "https://dc.lft.to/lastmile_qr_scan", "android": "https://dc.lft.to/lastmile_qr_scan"}, "bike_id": "31e9550dfb6dc26757e8514ae0881b41", "fusion_lat": 0.0}, {"lon": -77.05079266666667, "name": "cf99efaa6797e718a46c6fd3013b7817", "is_disabled": 0, "type": "electric_scooter", "is_reserved": 0, "fusion_lon": 0.0, "lat": 38.90095933333333, "rental_uris": {"ios": "https://dc.lft.to/lastmile_qr_scan", "android": "https://dc.lft.to/lastmile_qr_scan"}, "bike_id": "cf99efaa6797e718a46c6fd3013b7817", "fusion_lat": 0.0}, {"lon": -77.0089915, "name": "00d396792a6e8109a4b23863b2965a27", "is_disabled": 0, "type": "electric_scooter", "is_reserved": 0, "fusion_lon": 0.0, "lat": 38.909693833333336, "rental_uris": {"ios": "https://dc.lft.to/lastmile_qr_scan", "android": "https://dc.lft.to/lastmile_qr_scan"}, "bike_id": "00d396792a6e8109a4b23863b2965a27", "fusion_lat": 0.0}, {"lon": -76.9985195, "name": "1cfb5b725d9bb8cf9279cbf0c7cadc97", "is_disabled": 0, "type": "electric_scooter", "is_reserved": 0, "fusion_lon": 0.0, "lat": 38.90123666666667, "rental_uris": {"ios": "https://dc.lft.to/lastmile_qr_scan", "android": "https://dc.lft.to/lastmile_qr_scan"}, "bike_id": "1cfb5b725d9bb8cf9279cbf0c7cadc97", "fusion_lat": 0.0}, {"lon": -76.92631366666667, "name": "2c225bde2b3336fe69ced565839031e2", "is_disabled": 0, "type": "electric_scooter", "is_reserved": 0, "fusion_lon": 0.0, "lat": 38.88625583333334, "rental_uris": {"ios": "https://dc.lft.to/lastmile_qr_scan", "android": "https://dc.lft.to/lastmile_qr_scan"}, "bike_id": "2c225bde2b3336fe69ced565839031e2", "fusion_lat": 0.0}, {"lon": -77.00978766666667, "name": "468c94fa1e006818f42478eee1cafeac", "is_disabled": 0, "type": "electric_scooter", "is_reserved": 0, "fusion_lon": 0.0, "lat": 38.91401166666667, "rental_uris": {"ios": "https://dc.lft.to/lastmile_qr_scan", "android": "https://dc.lft.to/lastmile_qr_scan"}, "bike_id": "468c94fa1e006818f42478eee1cafeac", "fusion_lat": 0.0}, {"lon": -77.023035, "name": "5cc2c38b8aebe487d00a78cbfc02c8a9", "is_disabled": 0, "type": "electric_bike", "is_reserved": 0, "fusion_lon": 0.0, "lat": 38.96676133333333, "rental_uris": {"ios": "https://dc.lft.to/lastmile_qr_scan", "android": "https://dc.lft.to/lastmile_qr_scan"}, "bike_id": "5cc2c38b8aebe487d00a78cbfc02c8a9", "fusion_lat": 0.0}, {"lon": -77.04076666666667, "name": "40297a4b14c3bae3f98c6d41da9b480f", "is_disabled": 0, "type": "electric_bike", "is_reserved": 0, "fusion_lon": 0.0, "lat": 38.830638, "rental_uris": {"ios": "https://dc.lft.to/lastmile_qr_scan", "android": "https://dc.lft.to/lastmile_qr_scan"}, "bike_id": "40297a4b14c3bae3f98c6d41da9b480f", "fusion_lat": 0.0}, {"lon": -77.0121205, "name": "23745966e5757fa86c4e2191206dd1aa", "is_disabled": 0, "type": "electric_scooter", "is_reserved": 0, "fusion_lon": 0.0, "lat": 38.92120516666667, "rental_uris": {"ios": "https://dc.lft.to/lastmile_qr_scan", "android": "https://dc.lft.to/lastmile_qr_scan"}, "bike_id": "23745966e5757fa86c4e2191206dd1aa", "fusion_lat": 0.0}, {"lon": -77.02222133333333, "name": "e2b38ef2f59dce15c1e840622a465658", "is_disabled": 0, "type": "electric_scooter", "is_reserved": 0, "fusion_lon": 0.0, "lat": 38.89979916666667, "rental_uris": {"ios": "https://dc.lft.to/lastmile_qr_scan", "android": "https://dc.lft.to/lastmile_qr_scan"}, "bike_id": "e2b38ef2f59dce15c1e840622a465658", "fusion_lat": 0.0}, {"lon": -76.98540983333334, "name": "2032b554ef27c126bf6afb2b95bc2075", "is_disabled": 0, "type": "electric_scooter", "is_reserved": 0, "fusion_lon": 0.0, "lat": 38.8861185, "rental_uris": {"ios": "https://dc.lft.to/lastmile_qr_scan", "android": "https://dc.lft.to/lastmile_qr_scan"}, "bike_id": "2032b554ef27c126bf6afb2b95bc2075", "fusion_lat": 0.0}, {"lon": -77.02161033333333, "name": "0dbf4724db468aa5bb9948a94ec1963e", "is_disabled": 0, "type": "electric_scooter", "is_reserved": 0, "fusion_lon": 0.0, "lat": 38.89382616666666, "rental_uris": {"ios": "https://dc.lft.to/lastmile_qr_scan", "android": "https://dc.lft.to/lastmile_qr_scan"}, "bike_id": "0dbf4724db468aa5bb9948a94ec1963e", "fusion_lat": 0.0}, {"lon": -76.97207916666666, "name": "48be5e7eec3fe23517029e8573ce97c5", "is_disabled": 0, "type": "electric_scooter", "is_reserved": 0, "fusion_lon": 0.0, "lat": 38.925526166666664, "rental_uris": {"ios": "https://dc.lft.to/lastmile_qr_scan", "android": "https://dc.lft.to/lastmile_qr_scan"}, "bike_id": "48be5e7eec3fe23517029e8573ce97c5", "fusion_lat": 0.0}, {"lon": -76.9855585, "name": "a9cb9f1f8ff766a9b112c2bb09ac6a0a", "is_disabled": 0, "type": "electric_scooter", "is_reserved": 0, "fusion_lon": 0.0, "lat": 38.883496666666666, "rental_uris": {"ios": "https://dc.lft.to/lastmile_qr_scan", "android": "https://dc.lft.to/lastmile_qr_scan"}, "bike_id": "a9cb9f1f8ff766a9b112c2bb09ac6a0a", "fusion_lat": 0.0}, {"lon": -77.02714783333333, "name": "7153143cf0fc5d4a6235e302986eecf7", "is_disabled": 0, "type": "electric_scooter", "is_reserved": 0, "fusion_lon": 0.0, "lat": 38.924827666666665, "rental_uris": {"ios": "https://dc.lft.to/lastmile_qr_scan", "android": "https://dc.lft.to/lastmile_qr_scan"}, "bike_id": "7153143cf0fc5d4a6235e302986eecf7", "fusion_lat": 0.0}, {"lon": -77.04136833333334, "name": "dc061ffbffb56231f2179d921633eda4", "is_disabled": 0, "type": "electric_scooter", "is_reserved": 0, "fusion_lon": 0.0, "lat": 38.93468383333333, "rental_uris": {"ios": "https://dc.lft.to/lastmile_qr_scan", "android": "https://dc.lft.to/lastmile_qr_scan"}, "bike_id": "dc061ffbffb56231f2179d921633eda4", "fusion_lat": 0.0}, {"lon": -77.02790816666666, "name": "a9ad89fb8c35ef5f9c36cd3b2fc95c7b", "is_disabled": 0, "type": "electric_scooter", "is_reserved": 0, "fusion_lon": 0.0, "lat": 38.92469, "rental_uris": {"ios": "https://dc.lft.to/lastmile_qr_scan", "android": "https://dc.lft.to/lastmile_qr_scan"}, "bike_id": "a9ad89fb8c35ef5f9c36cd3b2fc95c7b", "fusion_lat": 0.0}, {"lon": -77.022162, "name": "ee8c69b7be856bf26b38c0254bf1953f", "is_disabled": 0, "type": "electric_scooter", "is_reserved": 0, "fusion_lon": 0.0, "lat": 38.9248295, "rental_uris": {"ios": "https://dc.lft.to/lastmile_qr_scan", "android": "https://dc.lft.to/lastmile_qr_scan"}, "bike_id": "ee8c69b7be856bf26b38c0254bf1953f", "fusion_lat": 0.0}, {"lon": -77.01906683333333, "name": "6451c602eb5819e4b6828ff48b9045a5", "is_disabled": 0, "type": "electric_scooter", "is_reserved": 0, "fusion_lon": 0.0, "lat": 38.923399833333335, "rental_uris": {"ios": "https://dc.lft.to/lastmile_qr_scan", "android": "https://dc.lft.to/lastmile_qr_scan"}, "bike_id": "6451c602eb5819e4b6828ff48b9045a5", "fusion_lat": 0.0}, {"lon": -77.02372083333333, "name": "05cb853eb43da22cec72c5cb70f1030b", "is_disabled": 0, "type": "electric_scooter", "is_reserved": 0, "fusion_lon": 0.0, "lat": 38.90207766666666, "rental_uris": {"ios": "https://dc.lft.to/lastmile_qr_scan", "android": "https://dc.lft.to/lastmile_qr_scan"}, "bike_id": "05cb853eb43da22cec72c5cb70f1030b", "fusion_lat": 0.0}, {"lon": -77.03179716666666, "name": "853f05a8cde027cc9e7971e8117f5f8e", "is_disabled": 0, "type": "electric_scooter", "is_reserved": 0, "fusion_lon": 0.0, "lat": 38.8924545, "rental_uris": {"ios": "https://dc.lft.to/lastmile_qr_scan", "android": "https://dc.lft.to/lastmile_qr_scan"}, "bike_id": "853f05a8cde027cc9e7971e8117f5f8e", "fusion_lat": 0.0}, {"lon": -77.03262716666667, "name": "9f588ada60e8d99002d3e29c5a925e0c", "is_disabled": 0, "type": "electric_scooter", "is_reserved": 0, "fusion_lon": 0.0, "lat": 38.9344505, "rental_uris": {"ios": "https://dc.lft.to/lastmile_qr_scan", "android": "https://dc.lft.to/lastmile_qr_scan"}, "bike_id": "9f588ada60e8d99002d3e29c5a925e0c", "fusion_lat": 0.0}, {"lon": -76.98836916666667, "name": "a80a896ab730a301cf4feadc6c594940", "is_disabled": 0, "type": "electric_scooter", "is_reserved": 0, "fusion_lon": 0.0, "lat": 38.8925045, "rental_uris": {"ios": "https://dc.lft.to/lastmile_qr_scan", "android": "https://dc.lft.to/lastmile_qr_scan"}, "bike_id": "a80a896ab730a301cf4feadc6c594940", "fusion_lat": 0.0}, {"lon": -76.983397, "name": "3e8cbe8a23ca07046ccc11eb5a33c4d8", "is_disabled": 0, "type": "electric_scooter", "is_reserved": 0, "fusion_lon": 0.0, "lat": 38.895444, "rental_uris": {"ios": "https://dc.lft.to/lastmile_qr_scan", "android": "https://dc.lft.to/lastmile_qr_scan"}, "bike_id": "3e8cbe8a23ca07046ccc11eb5a33c4d8", "fusion_lat": 0.0}, {"lon": -77.03226683333334, "name": "ace1ce54029d0507b770baaf6262cd5b", "is_disabled": 0, "type": "electric_scooter", "is_reserved": 0, "fusion_lon": 0.0, "lat": 38.923599, "rental_uris": {"ios": "https://dc.lft.to/lastmile_qr_scan", "android": "https://dc.lft.to/lastmile_qr_scan"}, "bike_id": "ace1ce54029d0507b770baaf6262cd5b", "fusion_lat": 0.0}, {"lon": -76.97856283333333, "name": "96c20d34152c7a2234f2cdb6c5ce8be0", "is_disabled": 0, "type": "electric_scooter", "is_reserved": 0, "fusion_lon": 0.0, "lat": 38.89716633333333, "rental_uris": {"ios": "https://dc.lft.to/lastmile_qr_scan", "android": "https://dc.lft.to/lastmile_qr_scan"}, "bike_id": "96c20d34152c7a2234f2cdb6c5ce8be0", "fusion_lat": 0.0}, {"lon": -77.02474133333334, "name": "3dc1ec4e3fb289b11289edd48327c659", "is_disabled": 0, "type": "electric_scooter", "is_reserved": 0, "fusion_lon": 0.0, "lat": 38.91838666666666, "rental_uris": {"ios": "https://dc.lft.to/lastmile_qr_scan", "android": "https://dc.lft.to/lastmile_qr_scan"}, "bike_id": "3dc1ec4e3fb289b11289edd48327c659", "fusion_lat": 0.0}, {"lon": -77.002124, "name": "0d1f4ca1995e67f0f361551bc0d296bb", "is_disabled": 0, "type": "electric_scooter", "is_reserved": 0, "fusion_lon": 0.0, "lat": 38.911798833333336, "rental_uris": {"ios": "https://dc.lft.to/lastmile_qr_scan", "android": "https://dc.lft.to/lastmile_qr_scan"}, "bike_id": "0d1f4ca1995e67f0f361551bc0d296bb", "fusion_lat": 0.0}, {"lon": -77.016854, "name": "4d03ea5c38f8a836a342a2e685499e35", "is_disabled": 0, "type": "electric_bike", "is_reserved": 0, "fusion_lon": 0.0, "lat": 38.88108916666667, "rental_uris": {"ios": "https://dc.lft.to/lastmile_qr_scan", "android": "https://dc.lft.to/lastmile_qr_scan"}, "bike_id": "4d03ea5c38f8a836a342a2e685499e35", "fusion_lat": 0.0}, {"lon": -76.9708145, "name": "f85b58fdf1f5c7c6b1b6544b7db08524", "is_disabled": 0, "type": "electric_scooter", "is_reserved": 0, "fusion_lon": 0.0, "lat": 38.86945333333333, "rental_uris": {"ios": "https://dc.lft.to/lastmile_qr_scan", "android": "https://dc.lft.to/lastmile_qr_scan"}, "bike_id": "f85b58fdf1f5c7c6b1b6544b7db08524", "fusion_lat": 0.0}, {"lon": -77.02133983333333, "name": "b5ba22ffb929d7f55bc7a7e412813e17", "is_disabled": 0, "type": "electric_scooter", "is_reserved": 0, "fusion_lon": 0.0, "lat": 38.9311465, "rental_uris": {"ios": "https://dc.lft.to/lastmile_qr_scan", "android": "https://dc.lft.to/lastmile_qr_scan"}, "bike_id": "b5ba22ffb929d7f55bc7a7e412813e17", "fusion_lat": 0.0}, {"lon": -76.98595133333333, "name": "040c58129216f8fd2f719c634fcccf7f", "is_disabled": 0, "type": "electric_scooter", "is_reserved": 0, "fusion_lon": 0.0, "lat": 38.90028316666667, "rental_uris": {"ios": "https://dc.lft.to/lastmile_qr_scan", "android": "https://dc.lft.to/lastmile_qr_scan"}, "bike_id": "040c58129216f8fd2f719c634fcccf7f", "fusion_lat": 0.0}, {"lon": -77.03179716666666, "name": "8dd04a443ce93af2c54bebda5256ef25", "is_disabled": 0, "type": "electric_scooter", "is_reserved": 0, "fusion_lon": 0.0, "lat": 38.91197116666667, "rental_uris": {"ios": "https://dc.lft.to/lastmile_qr_scan", "android": "https://dc.lft.to/lastmile_qr_scan"}, "bike_id": "8dd04a443ce93af2c54bebda5256ef25", "fusion_lat": 0.0}, {"lon": -77.038926, "name": "87fb9121512ed370a974eaa19ee0e734", "is_disabled": 0, "type": "electric_scooter", "is_reserved": 0, "fusion_lon": 0.0, "lat": 38.918407333333334, "rental_uris": {"ios": "https://dc.lft.to/lastmile_qr_scan", "android": "https://dc.lft.to/lastmile_qr_scan"}, "bike_id": "87fb9121512ed370a974eaa19ee0e734", "fusion_lat": 0.0}, {"lon": -77.054752, "name": "ae69f68ebe36ae1bf18e80f2c53827e9", "is_disabled": 0, "type": "electric_scooter", "is_reserved": 0, "fusion_lon": 0.0, "lat": 38.897261666666665, "rental_uris": {"ios": "https://dc.lft.to/lastmile_qr_scan", "android": "https://dc.lft.to/lastmile_qr_scan"}, "bike_id": "ae69f68ebe36ae1bf18e80f2c53827e9", "fusion_lat": 0.0}, {"lon": -77.02040783333334, "name": "d908a1623f53b8228438020df6552557", "is_disabled": 0, "type": "electric_scooter", "is_reserved": 0, "fusion_lon": 0.0, "lat": 38.92412383333333, "rental_uris": {"ios": "https://dc.lft.to/lastmile_qr_scan", "android": "https://dc.lft.to/lastmile_qr_scan"}, "bike_id": "d908a1623f53b8228438020df6552557", "fusion_lat": 0.0}, {"lon": -77.02446533333334, "name": "2ca8a7a185255727f0ee7bd7295b6e15", "is_disabled": 0, "type": "electric_scooter", "is_reserved": 0, "fusion_lon": 0.0, "lat": 38.9498035, "rental_uris": {"ios": "https://dc.lft.to/lastmile_qr_scan", "android": "https://dc.lft.to/lastmile_qr_scan"}, "bike_id": "2ca8a7a185255727f0ee7bd7295b6e15", "fusion_lat": 0.0}, {"lon": -77.02380333333333, "name": "6f1476ff7a97cd303cf6f8d9f5216377", "is_disabled": 0, "type": "electric_scooter", "is_reserved": 0, "fusion_lon": 0.0, "lat": 38.952744333333335, "rental_uris": {"ios": "https://dc.lft.to/lastmile_qr_scan", "android": "https://dc.lft.to/lastmile_qr_scan"}, "bike_id": "6f1476ff7a97cd303cf6f8d9f5216377", "fusion_lat": 0.0}, {"lon": -76.98557183333334, "name": "5f23a09f38efd291aa2efc3b953378b8", "is_disabled": 0, "type": "electric_scooter", "is_reserved": 0, "fusion_lon": 0.0, "lat": 38.90706816666667, "rental_uris": {"ios": "https://dc.lft.to/lastmile_qr_scan", "android": "https://dc.lft.to/lastmile_qr_scan"}, "bike_id": "5f23a09f38efd291aa2efc3b953378b8", "fusion_lat": 0.0}, {"lon": -77.00076783333333, "name": "11c01e6c70dc795471f1053747de0a38", "is_disabled": 0, "type": "electric_scooter", "is_reserved": 0, "fusion_lon": 0.0, "lat": 38.87554133333333, "rental_uris": {"ios": "https://dc.lft.to/lastmile_qr_scan", "android": "https://dc.lft.to/lastmile_qr_scan"}, "bike_id": "11c01e6c70dc795471f1053747de0a38", "fusion_lat": 0.0}, {"lon": -77.03858966666667, "name": "0cf37de9538f00eb284f587064d5dac2", "is_disabled": 0, "type": "electric_scooter", "is_reserved": 0, "fusion_lon": 0.0, "lat": 38.917200666666666, "rental_uris": {"ios": "https://dc.lft.to/lastmile_qr_scan", "android": "https://dc.lft.to/lastmile_qr_scan"}, "bike_id": "0cf37de9538f00eb284f587064d5dac2", "fusion_lat": 0.0}, {"lon": -77.03380166666666, "name": "92a0c532d5ad84fca685a7a06357acf8", "is_disabled": 0, "type": "electric_scooter", "is_reserved": 0, "fusion_lon": 0.0, "lat": 38.92154133333333, "rental_uris": {"ios": "https://dc.lft.to/lastmile_qr_scan", "android": "https://dc.lft.to/lastmile_qr_scan"}, "bike_id": "92a0c532d5ad84fca685a7a06357acf8", "fusion_lat": 0.0}, {"lon": -77.0221025, "name": "5e3563d0f70f8c8b42f9140223565a50", "is_disabled": 0, "type": "electric_scooter", "is_reserved": 0, "fusion_lon": 0.0, "lat": 38.912716, "rental_uris": {"ios": "https://dc.lft.to/lastmile_qr_scan", "android": "https://dc.lft.to/lastmile_qr_scan"}, "bike_id": "5e3563d0f70f8c8b42f9140223565a50", "fusion_lat": 0.0}, {"lon": -77.00741283333333, "name": "5c87452609b1b252d7b489c28a4b19ab", "is_disabled": 0, "type": "electric_scooter", "is_reserved": 0, "fusion_lon": 0.0, "lat": 38.903632, "rental_uris": {"ios": "https://dc.lft.to/lastmile_qr_scan", "android": "https://dc.lft.to/lastmile_qr_scan"}, "bike_id": "5c87452609b1b252d7b489c28a4b19ab", "fusion_lat": 0.0}, {"lon": -77.033605, "name": "d97b8c18530efba72107c03fff67747a", "is_disabled": 0, "type": "electric_scooter", "is_reserved": 0, "fusion_lon": 0.0, "lat": 38.92880516666666, "rental_uris": {"ios": "https://dc.lft.to/lastmile_qr_scan", "android": "https://dc.lft.to/lastmile_qr_scan"}, "bike_id": "d97b8c18530efba72107c03fff67747a", "fusion_lat": 0.0}, {"lon": -77.0338285, "name": "01bdb325af631621a9fa495ced2b7091", "is_disabled": 0, "type": "electric_scooter", "is_reserved": 0, "fusion_lon": 0.0, "lat": 38.92465816666667, "rental_uris": {"ios": "https://dc.lft.to/lastmile_qr_scan", "android": "https://dc.lft.to/lastmile_qr_scan"}, "bike_id": "01bdb325af631621a9fa495ced2b7091", "fusion_lat": 0.0}, {"lon": -77.06598333333334, "name": "2625a799c0515c758392e28b08e6a3cd", "is_disabled": 0, "type": "electric_scooter", "is_reserved": 0, "fusion_lon": 0.0, "lat": 38.9122575, "rental_uris": {"ios": "https://dc.lft.to/lastmile_qr_scan", "android": "https://dc.lft.to/lastmile_qr_scan"}, "bike_id": "2625a799c0515c758392e28b08e6a3cd", "fusion_lat": 0.0}, {"lon": -77.06699483333334, "name": "fe7e286deffdf12f208c9155c8f52345", "is_disabled": 0, "type": "electric_scooter", "is_reserved": 0, "fusion_lon": 0.0, "lat": 38.91411166666666, "rental_uris": {"ios": "https://dc.lft.to/lastmile_qr_scan", "android": "https://dc.lft.to/lastmile_qr_scan"}, "bike_id": "fe7e286deffdf12f208c9155c8f52345", "fusion_lat": 0.0}, {"lon": -77.01728383333334, "name": "b8dd4494978f17ae23572d160cc54fa0", "is_disabled": 0, "type": "electric_scooter", "is_reserved": 0, "fusion_lon": 0.0, "lat": 38.88074683333333, "rental_uris": {"ios": "https://dc.lft.to/lastmile_qr_scan", "android": "https://dc.lft.to/lastmile_qr_scan"}, "bike_id": "b8dd4494978f17ae23572d160cc54fa0", "fusion_lat": 0.0}, {"lon": -77.033787, "name": "7bbeaeb95c896ab2432b348ed9dcaa7b", "is_disabled": 0, "type": "electric_scooter", "is_reserved": 0, "fusion_lon": 0.0, "lat": 38.909532666666664, "rental_uris": {"ios": "https://dc.lft.to/lastmile_qr_scan", "android": "https://dc.lft.to/lastmile_qr_scan"}, "bike_id": "7bbeaeb95c896ab2432b348ed9dcaa7b", "fusion_lat": 0.0}, {"lon": -77.01987633333333, "name": "bfa4dc0bcca66edfffca89924ce63e41", "is_disabled": 0, "type": "electric_scooter", "is_reserved": 0, "fusion_lon": 0.0, "lat": 38.885475, "rental_uris": {"ios": "https://dc.lft.to/lastmile_qr_scan", "android": "https://dc.lft.to/lastmile_qr_scan"}, "bike_id": "bfa4dc0bcca66edfffca89924ce63e41", "fusion_lat": 0.0}, {"lon": -77.0177, "name": "929dfaa6026863b7f78c3d58379c2445", "is_disabled": 0, "type": "electric_scooter", "is_reserved": 0, "fusion_lon": 0.0, "lat": 38.9204185, "rental_uris": {"ios": "https://dc.lft.to/lastmile_qr_scan", "android": "https://dc.lft.to/lastmile_qr_scan"}, "bike_id": "929dfaa6026863b7f78c3d58379c2445", "fusion_lat": 0.0}, {"lon": -77.0754385, "name": "cf5f1812d78ae9440a45638d3af546f5", "is_disabled": 0, "type": "electric_scooter", "is_reserved": 0, "fusion_lon": 0.0, "lat": 38.9153965, "rental_uris": {"ios": "https://dc.lft.to/lastmile_qr_scan", "android": "https://dc.lft.to/lastmile_qr_scan"}, "bike_id": "cf5f1812d78ae9440a45638d3af546f5", "fusion_lat": 0.0}, {"lon": -76.91800683333334, "name": "d84e817ab6ba0279c0ebd156d745f520", "is_disabled": 0, "type": "electric_bike", "is_reserved": 0, "fusion_lon": 0.0, "lat": 39.00000266666667, "rental_uris": {"ios": "https://dc.lft.to/lastmile_qr_scan", "android": "https://dc.lft.to/lastmile_qr_scan"}, "bike_id": "d84e817ab6ba0279c0ebd156d745f520", "fusion_lat": 0.0}, {"lon": -77.02421783333334, "name": "2f6e61f89c93fc0e9c8efdb6c28641bb", "is_disabled": 0, "type": "electric_scooter", "is_reserved": 0, "fusion_lon": 0.0, "lat": 38.920788, "rental_uris": {"ios": "https://dc.lft.to/lastmile_qr_scan", "android": "https://dc.lft.to/lastmile_qr_scan"}, "bike_id": "2f6e61f89c93fc0e9c8efdb6c28641bb", "fusion_lat": 0.0}, {"lon": -76.99692433333334, "name": "2191231b2292bcc77a55e379a30c36e0", "is_disabled": 0, "type": "electric_scooter", "is_reserved": 0, "fusion_lon": 0.0, "lat": 38.90796733333333, "rental_uris": {"ios": "https://dc.lft.to/lastmile_qr_scan", "android": "https://dc.lft.to/lastmile_qr_scan"}, "bike_id": "2191231b2292bcc77a55e379a30c36e0", "fusion_lat": 0.0}, {"lon": -77.0004535, "name": "92e8798dae3ca99a3d985e2e210bec2c", "is_disabled": 0, "type": "electric_scooter", "is_reserved": 0, "fusion_lon": 0.0, "lat": 38.908143, "rental_uris": {"ios": "https://dc.lft.to/lastmile_qr_scan", "android": "https://dc.lft.to/lastmile_qr_scan"}, "bike_id": "92e8798dae3ca99a3d985e2e210bec2c", "fusion_lat": 0.0}, {"lon": -77.02174733333334, "name": "fffe718fd99e4a7637d503c5ecf81840", "is_disabled": 0, "type": "electric_scooter", "is_reserved": 0, "fusion_lon": 0.0, "lat": 38.901919, "rental_uris": {"ios": "https://dc.lft.to/lastmile_qr_scan", "android": "https://dc.lft.to/lastmile_qr_scan"}, "bike_id": "fffe718fd99e4a7637d503c5ecf81840", "fusion_lat": 0.0}, {"lon": -76.9732985, "name": "7a0de891cccf3e0b3805a600c7500ec1", "is_disabled": 0, "type": "electric_scooter", "is_reserved": 0, "fusion_lon": 0.0, "lat": 38.904084, "rental_uris": {"ios": "https://dc.lft.to/lastmile_qr_scan", "android": "https://dc.lft.to/lastmile_qr_scan"}, "bike_id": "7a0de891cccf3e0b3805a600c7500ec1", "fusion_lat": 0.0}, {"lon": -76.98375383333334, "name": "168f3c6728571e23c5db87a3ea84fa44", "is_disabled": 0, "type": "electric_scooter", "is_reserved": 0, "fusion_lon": 0.0, "lat": 38.860302, "rental_uris": {"ios": "https://dc.lft.to/lastmile_qr_scan", "android": "https://dc.lft.to/lastmile_qr_scan"}, "bike_id": "168f3c6728571e23c5db87a3ea84fa44", "fusion_lat": 0.0}, {"lon": -77.005317, "name": "8f290360856c391babd69eeabee44af3", "is_disabled": 0, "type": "electric_scooter", "is_reserved": 0, "fusion_lon": 0.0, "lat": 38.87545383333333, "rental_uris": {"ios": "https://dc.lft.to/lastmile_qr_scan", "android": "https://dc.lft.to/lastmile_qr_scan"}, "bike_id": "8f290360856c391babd69eeabee44af3", "fusion_lat": 0.0}, {"lon": -76.98233966666666, "name": "8d8138318421adb264dcd6e297ea7722", "is_disabled": 0, "type": "electric_scooter", "is_reserved": 0, "fusion_lon": 0.0, "lat": 38.90475466666667, "rental_uris": {"ios": "https://dc.lft.to/lastmile_qr_scan", "android": "https://dc.lft.to/lastmile_qr_scan"}, "bike_id": "8d8138318421adb264dcd6e297ea7722", "fusion_lat": 0.0}, {"lon": -77.07239983333334, "name": "5287557800a18fee5f98a19ce9166ed3", "is_disabled": 0, "type": "electric_scooter", "is_reserved": 0, "fusion_lon": 0.0, "lat": 38.94110766666667, "rental_uris": {"ios": "https://dc.lft.to/lastmile_qr_scan", "android": "https://dc.lft.to/lastmile_qr_scan"}, "bike_id": "5287557800a18fee5f98a19ce9166ed3", "fusion_lat": 0.0}, {"lon": -77.0239165, "name": "60f6aaa7a9c6de4e3175e1ab28153d3b", "is_disabled": 0, "type": "electric_scooter", "is_reserved": 0, "fusion_lon": 0.0, "lat": 38.89884583333333, "rental_uris": {"ios": "https://dc.lft.to/lastmile_qr_scan", "android": "https://dc.lft.to/lastmile_qr_scan"}, "bike_id": "60f6aaa7a9c6de4e3175e1ab28153d3b", "fusion_lat": 0.0}, {"lon": -77.0199165, "name": "2b3d85c0ad8a835756954ed177746346", "is_disabled": 0, "type": "electric_scooter", "is_reserved": 0, "fusion_lon": 0.0, "lat": 38.937826, "rental_uris": {"ios": "https://dc.lft.to/lastmile_qr_scan", "android": "https://dc.lft.to/lastmile_qr_scan"}, "bike_id": "2b3d85c0ad8a835756954ed177746346", "fusion_lat": 0.0}, {"lon": -77.02317333333333, "name": "95afc4dbbf5c3e7eefa46beb4b32fa4f", "is_disabled": 0, "type": "electric_scooter", "is_reserved": 0, "fusion_lon": 0.0, "lat": 38.92072133333333, "rental_uris": {"ios": "https://dc.lft.to/lastmile_qr_scan", "android": "https://dc.lft.to/lastmile_qr_scan"}, "bike_id": "95afc4dbbf5c3e7eefa46beb4b32fa4f", "fusion_lat": 0.0}, {"lon": -76.95065516666666, "name": "11fbb452ee3eece30748aab65963eadd", "is_disabled": 0, "type": "electric_bike", "is_reserved": 0, "fusion_lon": 0.0, "lat": 39.0851035, "rental_uris": {"ios": "https://dc.lft.to/lastmile_qr_scan", "android": "https://dc.lft.to/lastmile_qr_scan"}, "bike_id": "11fbb452ee3eece30748aab65963eadd", "fusion_lat": 0.0}, {"lon": -77.01946133333334, "name": "9c8cee1b37e2a416923647ca3ac67b2c", "is_disabled": 0, "type": "electric_scooter", "is_reserved": 0, "fusion_lon": 0.0, "lat": 38.97473183333334, "rental_uris": {"ios": "https://dc.lft.to/lastmile_qr_scan", "android": "https://dc.lft.to/lastmile_qr_scan"}, "bike_id": "9c8cee1b37e2a416923647ca3ac67b2c", "fusion_lat": 0.0}, {"lon": -76.98244666666666, "name": "5e99c8380ac8114b2a3c5b81d3767685", "is_disabled": 0, "type": "electric_scooter", "is_reserved": 0, "fusion_lon": 0.0, "lat": 38.8645845, "rental_uris": {"ios": "https://dc.lft.to/lastmile_qr_scan", "android": "https://dc.lft.to/lastmile_qr_scan"}, "bike_id": "5e99c8380ac8114b2a3c5b81d3767685", "fusion_lat": 0.0}, {"lon": -77.03186, "name": "0544de564c16184649263bbe811006d1", "is_disabled": 0, "type": "electric_scooter", "is_reserved": 0, "fusion_lon": 0.0, "lat": 38.89243916666667, "rental_uris": {"ios": "https://dc.lft.to/lastmile_qr_scan", "android": "https://dc.lft.to/lastmile_qr_scan"}, "bike_id": "0544de564c16184649263bbe811006d1", "fusion_lat": 0.0}, {"lon": -76.988735, "name": "9e922384288fb80d6f3fd0e96cd7e772", "is_disabled": 0, "type": "electric_scooter", "is_reserved": 0, "fusion_lon": 0.0, "lat": 38.913466, "rental_uris": {"ios": "https://dc.lft.to/lastmile_qr_scan", "android": "https://dc.lft.to/lastmile_qr_scan"}, "bike_id": "9e922384288fb80d6f3fd0e96cd7e772", "fusion_lat": 0.0}, {"lon": -77.048391, "name": "4c2b471b8b572f04dfb0db368a448190", "is_disabled": 0, "type": "electric_scooter", "is_reserved": 0, "fusion_lon": 0.0, "lat": 38.902197666666666, "rental_uris": {"ios": "https://dc.lft.to/lastmile_qr_scan", "android": "https://dc.lft.to/lastmile_qr_scan"}, "bike_id": "4c2b471b8b572f04dfb0db368a448190", "fusion_lat": 0.0}, {"lon": -77.0413855, "name": "48dd4673d2f87246e11c010bfd57a3f2", "is_disabled": 0, "type": "electric_scooter", "is_reserved": 0, "fusion_lon": 0.0, "lat": 38.923694, "rental_uris": {"ios": "https://dc.lft.to/lastmile_qr_scan", "android": "https://dc.lft.to/lastmile_qr_scan"}, "bike_id": "48dd4673d2f87246e11c010bfd57a3f2", "fusion_lat": 0.0}, {"lon": -77.0361475, "name": "4599761e91c6d5e966e43d80915e8624", "is_disabled": 0, "type": "electric_scooter", "is_reserved": 0, "fusion_lon": 0.0, "lat": 38.92337716666667, "rental_uris": {"ios": "https://dc.lft.to/lastmile_qr_scan", "android": "https://dc.lft.to/lastmile_qr_scan"}, "bike_id": "4599761e91c6d5e966e43d80915e8624", "fusion_lat": 0.0}, {"lon": -77.00147516666667, "name": "1eae1ef141969a6a2f6c39795ee9ed38", "is_disabled": 0, "type": "electric_scooter", "is_reserved": 0, "fusion_lon": 0.0, "lat": 38.867514666666665, "rental_uris": {"ios": "https://dc.lft.to/lastmile_qr_scan", "android": "https://dc.lft.to/lastmile_qr_scan"}, "bike_id": "1eae1ef141969a6a2f6c39795ee9ed38", "fusion_lat": 0.0}, {"lon": -77.00708233333333, "name": "485b80ba70314b5ecf9aac6e334356a5", "is_disabled": 0, "type": "electric_scooter", "is_reserved": 0, "fusion_lon": 0.0, "lat": 38.879151, "rental_uris": {"ios": "https://dc.lft.to/lastmile_qr_scan", "android": "https://dc.lft.to/lastmile_qr_scan"}, "bike_id": "485b80ba70314b5ecf9aac6e334356a5", "fusion_lat": 0.0}, {"lon": -77.03183266666667, "name": "d006bcf6756ff1bb17c635c16052cce5", "is_disabled": 0, "type": "electric_scooter", "is_reserved": 0, "fusion_lon": 0.0, "lat": 38.91326083333333, "rental_uris": {"ios": "https://dc.lft.to/lastmile_qr_scan", "android": "https://dc.lft.to/lastmile_qr_scan"}, "bike_id": "d006bcf6756ff1bb17c635c16052cce5", "fusion_lat": 0.0}, {"lon": -77.04508316666667, "name": "4ac2221f21e93a332a4abfe62a2ece91", "is_disabled": 0, "type": "electric_scooter", "is_reserved": 0, "fusion_lon": 0.0, "lat": 38.9101225, "rental_uris": {"ios": "https://dc.lft.to/lastmile_qr_scan", "android": "https://dc.lft.to/lastmile_qr_scan"}, "bike_id": "4ac2221f21e93a332a4abfe62a2ece91", "fusion_lat": 0.0}, {"lon": -77.00583966666666, "name": "ab32b54dbf25caedc0b8939a385d6174", "is_disabled": 0, "type": "electric_scooter", "is_reserved": 0, "fusion_lon": 0.0, "lat": 38.8721285, "rental_uris": {"ios": "https://dc.lft.to/lastmile_qr_scan", "android": "https://dc.lft.to/lastmile_qr_scan"}, "bike_id": "ab32b54dbf25caedc0b8939a385d6174", "fusion_lat": 0.0}, {"lon": -77.03183816666666, "name": "fa3c98bcfa3579a30ba515535576ffd4", "is_disabled": 0, "type": "electric_scooter", "is_reserved": 0, "fusion_lon": 0.0, "lat": 38.91330133333334, "rental_uris": {"ios": "https://dc.lft.to/lastmile_qr_scan", "android": "https://dc.lft.to/lastmile_qr_scan"}, "bike_id": "fa3c98bcfa3579a30ba515535576ffd4", "fusion_lat": 0.0}, {"lon": -77.02931933333333, "name": "e17aa63a71ec73f29f5d031fd7845f9b", "is_disabled": 0, "type": "electric_scooter", "is_reserved": 0, "fusion_lon": 0.0, "lat": 38.942824, "rental_uris": {"ios": "https://dc.lft.to/lastmile_qr_scan", "android": "https://dc.lft.to/lastmile_qr_scan"}, "bike_id": "e17aa63a71ec73f29f5d031fd7845f9b", "fusion_lat": 0.0}, {"lon": -77.04498516666666, "name": "43a662196aa541b8c2cfd8b9881667fb", "is_disabled": 0, "type": "electric_scooter", "is_reserved": 0, "fusion_lon": 0.0, "lat": 38.91274083333333, "rental_uris": {"ios": "https://dc.lft.to/lastmile_qr_scan", "android": "https://dc.lft.to/lastmile_qr_scan"}, "bike_id": "43a662196aa541b8c2cfd8b9881667fb", "fusion_lat": 0.0}, {"lon": -76.925812, "name": "b5fd753a1a18a6671e9a46d311c1b421", "is_disabled": 0, "type": "electric_scooter", "is_reserved": 0, "fusion_lon": 0.0, "lat": 38.89725516666667, "rental_uris": {"ios": "https://dc.lft.to/lastmile_qr_scan", "android": "https://dc.lft.to/lastmile_qr_scan"}, "bike_id": "b5fd753a1a18a6671e9a46d311c1b421", "fusion_lat": 0.0}, {"lon": -77.02710666666667, "name": "b8c12b9afde54cfb38e6bb86e2a6439d", "is_disabled": 0, "type": "electric_scooter", "is_reserved": 0, "fusion_lon": 0.0, "lat": 38.92782583333333, "rental_uris": {"ios": "https://dc.lft.to/lastmile_qr_scan", "android": "https://dc.lft.to/lastmile_qr_scan"}, "bike_id": "b8c12b9afde54cfb38e6bb86e2a6439d", "fusion_lat": 0.0}, {"lon": -76.937441, "name": "ea5358d3a57a464bea5fd2bda6548b59", "is_disabled": 0, "type": "electric_scooter", "is_reserved": 0, "fusion_lon": 0.0, "lat": 38.8901785, "rental_uris": {"ios": "https://dc.lft.to/lastmile_qr_scan", "android": "https://dc.lft.to/lastmile_qr_scan"}, "bike_id": "ea5358d3a57a464bea5fd2bda6548b59", "fusion_lat": 0.0}, {"lon": -77.0265145, "name": "b34cf89f45707df240c76fbb44925f95", "is_disabled": 0, "type": "electric_scooter", "is_reserved": 0, "fusion_lon": 0.0, "lat": 38.89771283333333, "rental_uris": {"ios": "https://dc.lft.to/lastmile_qr_scan", "android": "https://dc.lft.to/lastmile_qr_scan"}, "bike_id": "b34cf89f45707df240c76fbb44925f95", "fusion_lat": 0.0}, {"lon": -77.04126466666666, "name": "b29222e30f9bbf7ad01c7efb2d32591b", "is_disabled": 0, "type": "electric_scooter", "is_reserved": 0, "fusion_lon": 0.0, "lat": 38.90029066666666, "rental_uris": {"ios": "https://dc.lft.to/lastmile_qr_scan", "android": "https://dc.lft.to/lastmile_qr_scan"}, "bike_id": "b29222e30f9bbf7ad01c7efb2d32591b", "fusion_lat": 0.0}, {"lon": -77.02845866666667, "name": "9ea4eb4b03ee393818ca9ae2e34b7a7b", "is_disabled": 0, "type": "electric_scooter", "is_reserved": 0, "fusion_lon": 0.0, "lat": 38.92759083333333, "rental_uris": {"ios": "https://dc.lft.to/lastmile_qr_scan", "android": "https://dc.lft.to/lastmile_qr_scan"}, "bike_id": "9ea4eb4b03ee393818ca9ae2e34b7a7b", "fusion_lat": 0.0}, {"lon": -77.011045, "name": "086b92660c71bb97fd5f441afbe0e52d", "is_disabled": 0, "type": "electric_scooter", "is_reserved": 0, "fusion_lon": 0.0, "lat": 38.903578, "rental_uris": {"ios": "https://dc.lft.to/lastmile_qr_scan", "android": "https://dc.lft.to/lastmile_qr_scan"}, "bike_id": "086b92660c71bb97fd5f441afbe0e52d", "fusion_lat": 0.0}, {"lon": -77.03998133333333, "name": "db9a93e9a0a1b2b7a4645248d04e8ee8", "is_disabled": 0, "type": "electric_scooter", "is_reserved": 0, "fusion_lon": 0.0, "lat": 38.914127666666666, "rental_uris": {"ios": "https://dc.lft.to/lastmile_qr_scan", "android": "https://dc.lft.to/lastmile_qr_scan"}, "bike_id": "db9a93e9a0a1b2b7a4645248d04e8ee8", "fusion_lat": 0.0}, {"lon": -77.03208133333334, "name": "0507dc2b40b216989a53283b6c6dc741", "is_disabled": 0, "type": "electric_scooter", "is_reserved": 0, "fusion_lon": 0.0, "lat": 38.91733033333333, "rental_uris": {"ios": "https://dc.lft.to/lastmile_qr_scan", "android": "https://dc.lft.to/lastmile_qr_scan"}, "bike_id": "0507dc2b40b216989a53283b6c6dc741", "fusion_lat": 0.0}, {"lon": -77.026583, "name": "7e6b85b5cc1beed09d2c3c162b1b3e9a", "is_disabled": 0, "type": "electric_scooter", "is_reserved": 0, "fusion_lon": 0.0, "lat": 38.930978, "rental_uris": {"ios": "https://dc.lft.to/lastmile_qr_scan", "android": "https://dc.lft.to/lastmile_qr_scan"}, "bike_id": "7e6b85b5cc1beed09d2c3c162b1b3e9a", "fusion_lat": 0.0}, {"lon": -77.027219, "name": "45f4fb683c946a74a47d084bbd38a55f", "is_disabled": 0, "type": "electric_bike", "is_reserved": 0, "fusion_lon": 0.0, "lat": 38.97156016666667, "rental_uris": {"ios": "https://dc.lft.to/lastmile_qr_scan", "android": "https://dc.lft.to/lastmile_qr_scan"}, "bike_id": "45f4fb683c946a74a47d084bbd38a55f", "fusion_lat": 0.0}, {"lon": -77.03333433333333, "name": "f7521501d222fc3961763119d1891f24", "is_disabled": 0, "type": "electric_scooter", "is_reserved": 0, "fusion_lon": 0.0, "lat": 38.91916583333333, "rental_uris": {"ios": "https://dc.lft.to/lastmile_qr_scan", "android": "https://dc.lft.to/lastmile_qr_scan"}, "bike_id": "f7521501d222fc3961763119d1891f24", "fusion_lat": 0.0}, {"lon": -76.99520783333334, "name": "97b656539c38139485e950348dc5c413", "is_disabled": 0, "type": "electric_scooter", "is_reserved": 0, "fusion_lon": 0.0, "lat": 38.902656666666665, "rental_uris": {"ios": "https://dc.lft.to/lastmile_qr_scan", "android": "https://dc.lft.to/lastmile_qr_scan"}, "bike_id": "97b656539c38139485e950348dc5c413", "fusion_lat": 0.0}, {"lon": -77.10342083333333, "name": "8ded101042bb2c3e7a893ff223324a2a", "is_disabled": 0, "type": "electric_bike", "is_reserved": 0, "fusion_lon": 0.0, "lat": 38.8369175, "rental_uris": {"ios": "https://dc.lft.to/lastmile_qr_scan", "android": "https://dc.lft.to/lastmile_qr_scan"}, "bike_id": "8ded101042bb2c3e7a893ff223324a2a", "fusion_lat": 0.0}, {"lon": -76.98489083333334, "name": "abe565511975c31860391cc5be9c12ca", "is_disabled": 0, "type": "electric_scooter", "is_reserved": 0, "fusion_lon": 0.0, "lat": 38.903682, "rental_uris": {"ios": "https://dc.lft.to/lastmile_qr_scan", "android": "https://dc.lft.to/lastmile_qr_scan"}, "bike_id": "abe565511975c31860391cc5be9c12ca", "fusion_lat": 0.0}, {"lon": -77.019941, "name": "5f4e486f9c7c6d759d9637e58bb3613b", "is_disabled": 0, "type": "electric_scooter", "is_reserved": 0, "fusion_lon": 0.0, "lat": 38.911822666666666, "rental_uris": {"ios": "https://dc.lft.to/lastmile_qr_scan", "android": "https://dc.lft.to/lastmile_qr_scan"}, "bike_id": "5f4e486f9c7c6d759d9637e58bb3613b", "fusion_lat": 0.0}, {"lon": -77.003206, "name": "cdb8ab2528b56edf3a301ff73b3be4ac", "is_disabled": 0, "type": "electric_scooter", "is_reserved": 0, "fusion_lon": 0.0, "lat": 38.86122833333334, "rental_uris": {"ios": "https://dc.lft.to/lastmile_qr_scan", "android": "https://dc.lft.to/lastmile_qr_scan"}, "bike_id": "cdb8ab2528b56edf3a301ff73b3be4ac", "fusion_lat": 0.0}, {"lon": -76.9976, "name": "a9688fb62409ac610495723b5ab99df6", "is_disabled": 0, "type": "electric_scooter", "is_reserved": 0, "fusion_lon": 0.0, "lat": 38.9004125, "rental_uris": {"ios": "https://dc.lft.to/lastmile_qr_scan", "android": "https://dc.lft.to/lastmile_qr_scan"}, "bike_id": "a9688fb62409ac610495723b5ab99df6", "fusion_lat": 0.0}, {"lon": -77.03830466666666, "name": "645ec431945f9a06043b49e0c5f511b2", "is_disabled": 0, "type": "electric_scooter", "is_reserved": 0, "fusion_lon": 0.0, "lat": 38.91109216666667, "rental_uris": {"ios": "https://dc.lft.to/lastmile_qr_scan", "android": "https://dc.lft.to/lastmile_qr_scan"}, "bike_id": "645ec431945f9a06043b49e0c5f511b2", "fusion_lat": 0.0}, {"lon": -77.03196166666666, "name": "59efb8d4cd0185433052b8fa854f0f05", "is_disabled": 0, "type": "electric_scooter", "is_reserved": 0, "fusion_lon": 0.0, "lat": 38.91608316666667, "rental_uris": {"ios": "https://dc.lft.to/lastmile_qr_scan", "android": "https://dc.lft.to/lastmile_qr_scan"}, "bike_id": "59efb8d4cd0185433052b8fa854f0f05", "fusion_lat": 0.0}, {"lon": -76.98542083333334, "name": "737f47c9e2814af303635266eb7539c0", "is_disabled": 0, "type": "electric_scooter", "is_reserved": 0, "fusion_lon": 0.0, "lat": 38.886048833333334, "rental_uris": {"ios": "https://dc.lft.to/lastmile_qr_scan", "android": "https://dc.lft.to/lastmile_qr_scan"}, "bike_id": "737f47c9e2814af303635266eb7539c0", "fusion_lat": 0.0}, {"lon": -77.04239933333334, "name": "ce0379bc9db7ac6b3d9a65d687b9477e", "is_disabled": 0, "type": "electric_scooter", "is_reserved": 0, "fusion_lon": 0.0, "lat": 38.921602666666665, "rental_uris": {"ios": "https://dc.lft.to/lastmile_qr_scan", "android": "https://dc.lft.to/lastmile_qr_scan"}, "bike_id": "ce0379bc9db7ac6b3d9a65d687b9477e", "fusion_lat": 0.0}, {"lon": -77.00913616666666, "name": "08a0594b341f391d044d4b99ff39b329", "is_disabled": 0, "type": "electric_scooter", "is_reserved": 0, "fusion_lon": 0.0, "lat": 38.896047333333335, "rental_uris": {"ios": "https://dc.lft.to/lastmile_qr_scan", "android": "https://dc.lft.to/lastmile_qr_scan"}, "bike_id": "08a0594b341f391d044d4b99ff39b329", "fusion_lat": 0.0}, {"lon": -77.07235983333334, "name": "cbb4a5510d971c32a7138927d63fe0a5", "is_disabled": 0, "type": "electric_scooter", "is_reserved": 0, "fusion_lon": 0.0, "lat": 38.921549166666665, "rental_uris": {"ios": "https://dc.lft.to/lastmile_qr_scan", "android": "https://dc.lft.to/lastmile_qr_scan"}, "bike_id": "cbb4a5510d971c32a7138927d63fe0a5", "fusion_lat": 0.0}, {"lon": -77.017076, "name": "66959e2633b7d051f285aada276ffc52", "is_disabled": 0, "type": "electric_scooter", "is_reserved": 0, "fusion_lon": 0.0, "lat": 38.887471166666664, "rental_uris": {"ios": "https://dc.lft.to/lastmile_qr_scan", "android": "https://dc.lft.to/lastmile_qr_scan"}, "bike_id": "66959e2633b7d051f285aada276ffc52", "fusion_lat": 0.0}, {"lon": -77.02215583333333, "name": "895b55be0526e12d3a1035207721d044", "is_disabled": 0, "type": "electric_scooter", "is_reserved": 0, "fusion_lon": 0.0, "lat": 38.924701, "rental_uris": {"ios": "https://dc.lft.to/lastmile_qr_scan", "android": "https://dc.lft.to/lastmile_qr_scan"}, "bike_id": "895b55be0526e12d3a1035207721d044", "fusion_lat": 0.0}, {"lon": -77.04480133333334, "name": "9487f5afda1a38e6f2ec7d7c7b4ba7d7", "is_disabled": 0, "type": "electric_scooter", "is_reserved": 0, "fusion_lon": 0.0, "lat": 38.915440833333335, "rental_uris": {"ios": "https://dc.lft.to/lastmile_qr_scan", "android": "https://dc.lft.to/lastmile_qr_scan"}, "bike_id": "9487f5afda1a38e6f2ec7d7c7b4ba7d7", "fusion_lat": 0.0}, {"lon": -77.01033533333333, "name": "59e204ac6ce1d8cb5e718b1deb1ff330", "is_disabled": 0, "type": "electric_bike", "is_reserved": 0, "fusion_lon": 0.0, "lat": 38.9587955, "rental_uris": {"ios": "https://dc.lft.to/lastmile_qr_scan", "android": "https://dc.lft.to/lastmile_qr_scan"}, "bike_id": "59e204ac6ce1d8cb5e718b1deb1ff330", "fusion_lat": 0.0}, {"lon": -77.02436383333334, "name": "14168f5b2dd99377192a98416791d748", "is_disabled": 0, "type": "electric_scooter", "is_reserved": 0, "fusion_lon": 0.0, "lat": 38.9171065, "rental_uris": {"ios": "https://dc.lft.to/lastmile_qr_scan", "android": "https://dc.lft.to/lastmile_qr_scan"}, "bike_id": "14168f5b2dd99377192a98416791d748", "fusion_lat": 0.0}, {"lon": -76.9840915, "name": "990001262ba892cbcfda2a609cade5c6", "is_disabled": 0, "type": "electric_scooter", "is_reserved": 0, "fusion_lon": 0.0, "lat": 38.9138585, "rental_uris": {"ios": "https://dc.lft.to/lastmile_qr_scan", "android": "https://dc.lft.to/lastmile_qr_scan"}, "bike_id": "990001262ba892cbcfda2a609cade5c6", "fusion_lat": 0.0}, {"lon": -77.04981916666667, "name": "cce902edf8d3641d27ef5cef2dbf8876", "is_disabled": 0, "type": "electric_scooter", "is_reserved": 0, "fusion_lon": 0.0, "lat": 38.90572683333333, "rental_uris": {"ios": "https://dc.lft.to/lastmile_qr_scan", "android": "https://dc.lft.to/lastmile_qr_scan"}, "bike_id": "cce902edf8d3641d27ef5cef2dbf8876", "fusion_lat": 0.0}, {"lon": -77.02878683333333, "name": "f89a18d0d2874ec662e175b8c6bddbcb", "is_disabled": 0, "type": "electric_scooter", "is_reserved": 0, "fusion_lon": 0.0, "lat": 38.916356, "rental_uris": {"ios": "https://dc.lft.to/lastmile_qr_scan", "android": "https://dc.lft.to/lastmile_qr_scan"}, "bike_id": "f89a18d0d2874ec662e175b8c6bddbcb", "fusion_lat": 0.0}, {"lon": -77.03437466666666, "name": "05898a9c68fb8393eb53362c3a705b16", "is_disabled": 0, "type": "electric_scooter", "is_reserved": 0, "fusion_lon": 0.0, "lat": 38.92878416666667, "rental_uris": {"ios": "https://dc.lft.to/lastmile_qr_scan", "android": "https://dc.lft.to/lastmile_qr_scan"}, "bike_id": "05898a9c68fb8393eb53362c3a705b16", "fusion_lat": 0.0}, {"lon": -76.98708716666667, "name": "6318e87593c7f13379c4f6a2342041b7", "is_disabled": 0, "type": "electric_scooter", "is_reserved": 0, "fusion_lon": 0.0, "lat": 38.904932333333335, "rental_uris": {"ios": "https://dc.lft.to/lastmile_qr_scan", "android": "https://dc.lft.to/lastmile_qr_scan"}, "bike_id": "6318e87593c7f13379c4f6a2342041b7", "fusion_lat": 0.0}, {"lon": -76.99775016666666, "name": "04fcb0ff40500bb01bc5e296edef4774", "is_disabled": 0, "type": "electric_scooter", "is_reserved": 0, "fusion_lon": 0.0, "lat": 38.909125, "rental_uris": {"ios": "https://dc.lft.to/lastmile_qr_scan", "android": "https://dc.lft.to/lastmile_qr_scan"}, "bike_id": "04fcb0ff40500bb01bc5e296edef4774", "fusion_lat": 0.0}, {"lon": -77.07182466666667, "name": "44ca1cf202fe36aac18796855e12d0f8", "is_disabled": 0, "type": "electric_scooter", "is_reserved": 0, "fusion_lon": 0.0, "lat": 38.906672666666665, "rental_uris": {"ios": "https://dc.lft.to/lastmile_qr_scan", "android": "https://dc.lft.to/lastmile_qr_scan"}, "bike_id": "44ca1cf202fe36aac18796855e12d0f8", "fusion_lat": 0.0}, {"lon": -77.0318115, "name": "9869d64a4f4f58a627a31f82d240a8d8", "is_disabled": 0, "type": "electric_scooter", "is_reserved": 0, "fusion_lon": 0.0, "lat": 38.918018000000004, "rental_uris": {"ios": "https://dc.lft.to/lastmile_qr_scan", "android": "https://dc.lft.to/lastmile_qr_scan"}, "bike_id": "9869d64a4f4f58a627a31f82d240a8d8", "fusion_lat": 0.0}, {"lon": -77.019445, "name": "276d069409f0ecce5714e8d7acd2731e", "is_disabled": 0, "type": "electric_scooter", "is_reserved": 0, "fusion_lon": 0.0, "lat": 38.922585, "rental_uris": {"ios": "https://dc.lft.to/lastmile_qr_scan", "android": "https://dc.lft.to/lastmile_qr_scan"}, "bike_id": "276d069409f0ecce5714e8d7acd2731e", "fusion_lat": 0.0}, {"lon": -77.0353175, "name": "e319914144b78c970c9c601c72ccaac9", "is_disabled": 0, "type": "electric_scooter", "is_reserved": 0, "fusion_lon": 0.0, "lat": 38.91818983333334, "rental_uris": {"ios": "https://dc.lft.to/lastmile_qr_scan", "android": "https://dc.lft.to/lastmile_qr_scan"}, "bike_id": "e319914144b78c970c9c601c72ccaac9", "fusion_lat": 0.0}, {"lon": -77.04304116666667, "name": "85816a6fa6b900a5d74b389f1dd72e39", "is_disabled": 0, "type": "electric_scooter", "is_reserved": 0, "fusion_lon": 0.0, "lat": 38.92261583333333, "rental_uris": {"ios": "https://dc.lft.to/lastmile_qr_scan", "android": "https://dc.lft.to/lastmile_qr_scan"}, "bike_id": "85816a6fa6b900a5d74b389f1dd72e39", "fusion_lat": 0.0}, {"lon": -77.03658366666667, "name": "65a0b1cf07ca94098c47fae9c08c9c3d", "is_disabled": 0, "type": "electric_scooter", "is_reserved": 0, "fusion_lon": 0.0, "lat": 38.922913333333334, "rental_uris": {"ios": "https://dc.lft.to/lastmile_qr_scan", "android": "https://dc.lft.to/lastmile_qr_scan"}, "bike_id": "65a0b1cf07ca94098c47fae9c08c9c3d", "fusion_lat": 0.0}, {"lon": -77.04797983333333, "name": "a9195d26bf2dc2253aa984ee4ca9fa3b", "is_disabled": 0, "type": "electric_scooter", "is_reserved": 0, "fusion_lon": 0.0, "lat": 38.897192833333335, "rental_uris": {"ios": "https://dc.lft.to/lastmile_qr_scan", "android": "https://dc.lft.to/lastmile_qr_scan"}, "bike_id": "a9195d26bf2dc2253aa984ee4ca9fa3b", "fusion_lat": 0.0}, {"lon": -76.935931, "name": "5fb8ce5358d3c0f087f892fc14160b6b", "is_disabled": 0, "type": "electric_scooter", "is_reserved": 0, "fusion_lon": 0.0, "lat": 38.909502833333335, "rental_uris": {"ios": "https://dc.lft.to/lastmile_qr_scan", "android": "https://dc.lft.to/lastmile_qr_scan"}, "bike_id": "5fb8ce5358d3c0f087f892fc14160b6b", "fusion_lat": 0.0}, {"lon": -77.01304516666667, "name": "785728c4c9ba955f893e792634c04398", "is_disabled": 0, "type": "electric_bike", "is_reserved": 0, "fusion_lon": 0.0, "lat": 38.88150983333333, "rental_uris": {"ios": "https://dc.lft.to/lastmile_qr_scan", "android": "https://dc.lft.to/lastmile_qr_scan"}, "bike_id": "785728c4c9ba955f893e792634c04398", "fusion_lat": 0.0}, {"lon": -76.95156616666667, "name": "65f5559c5d6c85272ca7c43e3e526fc7", "is_disabled": 0, "type": "electric_bike", "is_reserved": 0, "fusion_lon": 0.0, "lat": 39.08435266666667, "rental_uris": {"ios": "https://dc.lft.to/lastmile_qr_scan", "android": "https://dc.lft.to/lastmile_qr_scan"}, "bike_id": "65f5559c5d6c85272ca7c43e3e526fc7", "fusion_lat": 0.0}, {"lon": -77.0366255, "name": "d97031ec0b46d98fcf31236f7f7315c8", "is_disabled": 0, "type": "electric_scooter", "is_reserved": 0, "fusion_lon": 0.0, "lat": 38.923824833333335, "rental_uris": {"ios": "https://dc.lft.to/lastmile_qr_scan", "android": "https://dc.lft.to/lastmile_qr_scan"}, "bike_id": "d97031ec0b46d98fcf31236f7f7315c8", "fusion_lat": 0.0}, {"lon": -77.03988716666667, "name": "e2cfd4c3b1217890d7d49a6e09679764", "is_disabled": 0, "type": "electric_bike", "is_reserved": 0, "fusion_lon": 0.0, "lat": 38.933364166666664, "rental_uris": {"ios": "https://dc.lft.to/lastmile_qr_scan", "android": "https://dc.lft.to/lastmile_qr_scan"}, "bike_id": "e2cfd4c3b1217890d7d49a6e09679764", "fusion_lat": 0.0}, {"lon": -76.9960795, "name": "1ea5fd7a657cd4f0659139fdf554cc35", "is_disabled": 0, "type": "electric_scooter", "is_reserved": 0, "fusion_lon": 0.0, "lat": 38.90145066666667, "rental_uris": {"ios": "https://dc.lft.to/lastmile_qr_scan", "android": "https://dc.lft.to/lastmile_qr_scan"}, "bike_id": "1ea5fd7a657cd4f0659139fdf554cc35", "fusion_lat": 0.0}, {"lon": -77.026878, "name": "f0c8f2673307605b7f1bf9b2982e375b", "is_disabled": 0, "type": "electric_scooter", "is_reserved": 0, "fusion_lon": 0.0, "lat": 38.90591883333333, "rental_uris": {"ios": "https://dc.lft.to/lastmile_qr_scan", "android": "https://dc.lft.to/lastmile_qr_scan"}, "bike_id": "f0c8f2673307605b7f1bf9b2982e375b", "fusion_lat": 0.0}, {"lon": -77.06875383333333, "name": "dd5372cb7940476c09f70a440d0a6869", "is_disabled": 0, "type": "electric_scooter", "is_reserved": 0, "fusion_lon": 0.0, "lat": 38.90517, "rental_uris": {"ios": "https://dc.lft.to/lastmile_qr_scan", "android": "https://dc.lft.to/lastmile_qr_scan"}, "bike_id": "dd5372cb7940476c09f70a440d0a6869", "fusion_lat": 0.0}, {"lon": -77.03191416666667, "name": "24841cc73f823005481bccc1a87ce6a7", "is_disabled": 0, "type": "electric_scooter", "is_reserved": 0, "fusion_lon": 0.0, "lat": 38.90996033333333, "rental_uris": {"ios": "https://dc.lft.to/lastmile_qr_scan", "android": "https://dc.lft.to/lastmile_qr_scan"}, "bike_id": "24841cc73f823005481bccc1a87ce6a7", "fusion_lat": 0.0}, {"lon": -77.03583683333333, "name": "7d6294b5bae705170ca2d27fdf24b616", "is_disabled": 0, "type": "electric_scooter", "is_reserved": 0, "fusion_lon": 0.0, "lat": 38.919168166666665, "rental_uris": {"ios": "https://dc.lft.to/lastmile_qr_scan", "android": "https://dc.lft.to/lastmile_qr_scan"}, "bike_id": "7d6294b5bae705170ca2d27fdf24b616", "fusion_lat": 0.0}, {"lon": -77.02214883333333, "name": "90935faf515a1fa8f200c922e6e35e6c", "is_disabled": 0, "type": "electric_scooter", "is_reserved": 0, "fusion_lon": 0.0, "lat": 38.899876666666664, "rental_uris": {"ios": "https://dc.lft.to/lastmile_qr_scan", "android": "https://dc.lft.to/lastmile_qr_scan"}, "bike_id": "90935faf515a1fa8f200c922e6e35e6c", "fusion_lat": 0.0}, {"lon": -77.02164133333333, "name": "c50f795b03ca2ef69f0404718f33e47c", "is_disabled": 0, "type": "electric_scooter", "is_reserved": 0, "fusion_lon": 0.0, "lat": 38.930722833333334, "rental_uris": {"ios": "https://dc.lft.to/lastmile_qr_scan", "android": "https://dc.lft.to/lastmile_qr_scan"}, "bike_id": "c50f795b03ca2ef69f0404718f33e47c", "fusion_lat": 0.0},