{"data": {"bikes": [{"lat": 38.89928033333333, "fusion_lat": 0.0, "type": "electric_bike", "name": "d2c73bd17769edaad0f21659196c9b37", "is_disabled": 0, "bike_id": "d2c73bd17769edaad0f21659196c9b37", "lon": -77.04484333333333, "rental_uris": {"android": "https://dc.lft.to/lastmile_qr_scan", "ios": "https://dc.lft.to/lastmile_qr_scan"}, "fusion_lon": 0.0, "is_reserved": 0}, {"lat": 38.919579666666664, "fusion_lat": 0.0, "type": "electric_scooter", "name": "991eb489985ad18e9d8e931f03c59d0e", "is_disabled": 0, "bike_id": "991eb489985ad18e9d8e931f03c59d0e", "lon": -77.023199, "rental_uris": {"android": "https://dc.lft.to/lastmile_qr_scan", "ios": "https://dc.lft.to/lastmile_qr_scan"}, "fusion_lon": 0.0, "is_reserved": 0}, {"lat": 38.948972833333336, "fusion_lat": 0.0, "type": "electric_bike", "name": "c171ff53757559c909b1bf5a2c5d7824", "is_disabled": 0, "bike_id": "c171ff53757559c909b1bf5a2c5d7824", "lon": -76.96376866666667, "rental_uris": {"android": "https://dc.lft.to/lastmile_qr_scan", "ios": "https://dc.lft.to/lastmile_qr_scan"}, "fusion_lon": 0.0, "is_reserved": 0}, {"lat": 38.899485166666665, "fusion_lat": 0.0, "type": "electric_scooter", "name": "3151f0208349b5be8dcfb57f86083e24", "is_disabled": 0, "bike_id": "3151f0208349b5be8dcfb57f86083e24", "lon": -77.04499166666666, "rental_uris": {"android": "https://dc.lft.to/lastmile_qr_scan", "ios": "https://dc.lft.to/lastmile_qr_scan"}, "fusion_lon": 0.0, "is_reserved": 0}, {"lat": 38.92359666666667, "fusion_lat": 0.0, "type": "electric_scooter", "name": "5dc1f3cea887cc04f2ee88f2029db6b8", "is_disabled": 0, "bike_id": "5dc1f3cea887cc04f2ee88f2029db6b8", "lon": -77.05225316666667, "rental_uris": {"android": "https://dc.lft.to/lastmile_qr_scan", "ios": "https://dc.lft.to/lastmile_qr_scan"}, "fusion_lon": 0.0, "is_reserved": 0}, {"lat": 38.921521166666665, "fusion_lat": 0.0, "type": "electric_scooter", "name": "fd66541030f6c4b97191e882c837bd54", "is_disabled": 0, "bike_id": "fd66541030f6c4b97191e882c837bd54", "lon": -77.020856, "rental_uris": {"android": "https://dc.lft.to/lastmile_qr_scan", "ios": "https://dc.lft.to/lastmile_qr_scan"}, "fusion_lon": 0.0, "is_reserved": 0}, {"lat": 38.900055, "fusion_lat": 0.0, "type": "electric_scooter", "name": "bdb9de07d7bb8dcc416314e29c624c99", "is_disabled": 0, "bike_id": "bdb9de07d7bb8dcc416314e29c624c99", "lon": -77.032623, "rental_uris": {"android": "https://dc.lft.to/lastmile_qr_scan", "ios": "https://dc.lft.to/lastmile_qr_scan"}, "fusion_lon": 0.0, "is_reserved": 0}, {"lat": 38.8842665, "fusion_lat": 0.0, "type": "electric_scooter", "name": "f26149662a01f4215cf48b9743a0120d", "is_disabled": 0, "bike_id": "f26149662a01f4215cf48b9743a0120d", "lon": -76.99699433333333, "rental_uris": {"android": "https://dc.lft.to/lastmile_qr_scan", "ios": "https://dc.lft.to/lastmile_qr_scan"}, "fusion_lon": 0.0, "is_reserved": 0}, {"lat": 38.866900666666666, "fusion_lat": 0.0, "type": "electric_scooter", "name": "70dee1b391d004aafd1a79bf46801068", "is_disabled": 0, "bike_id": "70dee1b391d004aafd1a79bf46801068", "lon": -76.985466, "rental_uris": {"android": "https://dc.lft.to/lastmile_qr_scan", "ios": "https://dc.lft.to/lastmile_qr_scan"}, "fusion_lon": 0.0, "is_reserved": 0}, {"lat": 38.941674666666664, "fusion_lat": 0.0, "type": "electric_scooter", "name": "3fb8d61ca39d9ce30f06f4ebb95ad88b", "is_disabled": 0, "bike_id": "3fb8d61ca39d9ce30f06f4ebb95ad88b", "lon": -77.02551883333334, "rental_uris": {"android": "https://dc.lft.to/lastmile_qr_scan", "ios": "https://dc.lft.to/lastmile_qr_scan"}, "fusion_lon": 0.0, "is_reserved": 0}, {"lat": 38.917755166666666, "fusion_lat": 0.0, "type": "electric_scooter", "name": "5c682bfa5cb36a8e5f01263f07eae511", "is_disabled": 0, "bike_id": "5c682bfa5cb36a8e5f01263f07eae511", "lon": -77.03211683333333, "rental_uris": {"android": "https://dc.lft.to/lastmile_qr_scan", "ios": "https://dc.lft.to/lastmile_qr_scan"}, "fusion_lon": 0.0, "is_reserved": 0}, {"lat": 38.9205475, "fusion_lat": 0.0, "type": "electric_scooter", "name": "792ad6e04154b480d36aeb2fde372094", "is_disabled": 0, "bike_id": "792ad6e04154b480d36aeb2fde372094", "lon": -77.0166985, "rental_uris": {"android": "https://dc.lft.to/lastmile_qr_scan", "ios": "https://dc.lft.to/lastmile_qr_scan"}, "fusion_lon": 0.0, "is_reserved": 0}, {"lat": 38.880757, "fusion_lat": 0.0, "type": "electric_scooter", "name": "b4642c8e9ced7578c5a42c67ab0bdf22", "is_disabled": 0, "bike_id": "b4642c8e9ced7578c5a42c67ab0bdf22", "lon": -77.0256795, "rental_uris": {"android": "https://dc.lft.to/lastmile_qr_scan", "ios": "https://dc.lft.to/lastmile_qr_scan"}, "fusion_lon": 0.0, "is_reserved": 0}, {"lat": 38.846424, "fusion_lat": 0.0, "type": "electric_scooter", "name": "21cf4d516e65ca9d3cfeb36a5356e55a", "is_disabled": 0, "bike_id": "21cf4d516e65ca9d3cfeb36a5356e55a", "lon": -76.99128416666667, "rental_uris": {"android": "https://dc.lft.to/lastmile_qr_scan", "ios": "https://dc.lft.to/lastmile_qr_scan"}, "fusion_lon": 0.0, "is_reserved": 0}, {"lat": 38.90959, "fusion_lat": 0.0, "type": "electric_scooter", "name": "86112bc82b5e2f21f6a38f70e28c0adf", "is_disabled": 0, "bike_id": "86112bc82b5e2f21f6a38f70e28c0adf", "lon": -77.04749816666667, "rental_uris": {"android": "https://dc.lft.to/lastmile_qr_scan", "ios": "https://dc.lft.to/lastmile_qr_scan"}, "fusion_lon": 0.0, "is_reserved": 0}, {"lat": 38.8994505, "fusion_lat": 0.0, "type": "electric_scooter", "name": "f001f50f3b9ecbe517c7313e86928997", "is_disabled": 0, "bike_id": "f001f50f3b9ecbe517c7313e86928997", "lon": -76.99725133333334, "rental_uris": {"android": "https://dc.lft.to/lastmile_qr_scan", "ios": "https://dc.lft.to/lastmile_qr_scan"}, "fusion_lon": 0.0, "is_reserved": 0}, {"lat": 38.85247833333333, "fusion_lat": 0.0, "type": "electric_bike", "name": "87577abad951d46d0cd47887e0d2ad3b", "is_disabled": 0, "bike_id": "87577abad951d46d0cd47887e0d2ad3b", "lon": -77.10785266666667, "rental_uris": {"android": "https://dc.lft.to/lastmile_qr_scan", "ios": "https://dc.lft.to/lastmile_qr_scan"}, "fusion_lon": 0.0, "is_reserved": 0}, {"lat": 38.89827566666666, "fusion_lat": 0.0, "type": "electric_scooter", "name": "86467a12ed9d359eaf11ba55936daeda", "is_disabled": 0, "bike_id": "86467a12ed9d359eaf11ba55936daeda", "lon": -76.946309, "rental_uris": {"android": "https://dc.lft.to/lastmile_qr_scan", "ios": "https://dc.lft.to/lastmile_qr_scan"}, "fusion_lon": 0.0, "is_reserved": 0}, {"lat": 38.904246666666666, "fusion_lat": 0.0, "type": "electric_scooter", "name": "37f595b920633496898b8d43737dc37b", "is_disabled": 0, "bike_id": "37f595b920633496898b8d43737dc37b", "lon": -77.02637933333334, "rental_uris": {"android": "https://dc.lft.to/lastmile_qr_scan", "ios": "https://dc.lft.to/lastmile_qr_scan"}, "fusion_lon": 0.0, "is_reserved": 0}, {"lat": 38.821770666666666, "fusion_lat": 0.0, "type": "electric_bike", "name": "3195fcbf5ec084e1b81826059cc57675", "is_disabled": 0, "bike_id": "3195fcbf5ec084e1b81826059cc57675", "lon": -76.995107, "rental_uris": {"android": "https://dc.lft.to/lastmile_qr_scan", "ios": "https://dc.lft.to/lastmile_qr_scan"}, "fusion_lon": 0.0, "is_reserved": 0}, {"lat": 38.87717933333333, "fusion_lat": 0.0, "type": "electric_scooter", "name": "201deed7b3b9e8518b84df6028425e95", "is_disabled": 0, "bike_id": "201deed7b3b9e8518b84df6028425e95", "lon": -77.017702, "rental_uris": {"android": "https://dc.lft.to/lastmile_qr_scan", "ios": "https://dc.lft.to/lastmile_qr_scan"}, "fusion_lon": 0.0, "is_reserved": 0}, {"lat": 38.908972, "fusion_lat": 0.0, "type": "electric_scooter", "name": "078859b4417fb87e06f03df0614b0c93", "is_disabled": 0, "bike_id": "078859b4417fb87e06f03df0614b0c93", "lon": -76.9977875, "rental_uris": {"android": "https://dc.lft.to/lastmile_qr_scan", "ios": "https://dc.lft.to/lastmile_qr_scan"}, "fusion_lon": 0.0, "is_reserved": 0}, {"lat": 38.915721833333336, "fusion_lat": 0.0, "type": "electric_scooter", "name": "192ec67f03a039072d4ef4b883e114cf", "is_disabled": 0, "bike_id": "192ec67f03a039072d4ef4b883e114cf", "lon": -77.0199545, "rental_uris": {"android": "https://dc.lft.to/lastmile_qr_scan", "ios": "https://dc.lft.to/lastmile_qr_scan"}, "fusion_lon": 0.0, "is_reserved": 0}, {"lat": 38.9212665, "fusion_lat": 0.0, "type": "electric_scooter", "name": "d355f4b9f4f3d1333540e7ec9c7b7a6b", "is_disabled": 0, "bike_id": "d355f4b9f4f3d1333540e7ec9c7b7a6b", "lon": -77.04358183333333, "rental_uris": {"android": "https://dc.lft.to/lastmile_qr_scan", "ios": "https://dc.lft.to/lastmile_qr_scan"}, "fusion_lon": 0.0, "is_reserved": 0}, {"lat": 38.94295066666667, "fusion_lat": 0.0, "type": "electric_scooter", "name": "6ed4902ddaf4a2b238cce9740980d1f0", "is_disabled": 0, "bike_id": "6ed4902ddaf4a2b238cce9740980d1f0", "lon": -77.0217035, "rental_uris": {"android": "https://dc.lft.to/lastmile_qr_scan", "ios": "https://dc.lft.to/lastmile_qr_scan"}, "fusion_lon": 0.0, "is_reserved": 0}, {"lat": 38.89224316666667, "fusion_lat": 0.0, "type": "electric_scooter", "name": "042ce8ac34c8bc3e5b7cb33d5d0003f6", "is_disabled": 0, "bike_id": "042ce8ac34c8bc3e5b7cb33d5d0003f6", "lon": -77.04639266666666, "rental_uris": {"android": "https://dc.lft.to/lastmile_qr_scan", "ios": "https://dc.lft.to/lastmile_qr_scan"}, "fusion_lon": 0.0, "is_reserved": 0}, {"lat": 38.9323935, "fusion_lat": 0.0, "type": "electric_bike", "name": "9949b456ea9bbab96c3e035d91d88ed3", "is_disabled": 0, "bike_id": "9949b456ea9bbab96c3e035d91d88ed3", "lon": -76.97423033333334, "rental_uris": {"android": "https://dc.lft.to/lastmile_qr_scan", "ios": "https://dc.lft.to/lastmile_qr_scan"}, "fusion_lon": 0.0, "is_reserved": 0}, {"lat": 38.903885333333335, "fusion_lat": 0.0, "type": "electric_scooter", "name": "e8b14ba48b42fd4454e2a71f98afae11", "is_disabled": 0, "bike_id": "e8b14ba48b42fd4454e2a71f98afae11", "lon": -77.04222216666666, "rental_uris": {"android": "https://dc.lft.to/lastmile_qr_scan", "ios": "https://dc.lft.to/lastmile_qr_scan"}, "fusion_lon": 0.0, "is_reserved": 0}, {"lat": 38.95055, "fusion_lat": 0.0, "type": "electric_bike", "name": "bacd8cb54bc096d305b370643bc9a1f1", "is_disabled": 0, "bike_id": "bacd8cb54bc096d305b370643bc9a1f1", "lon": -77.01385383333333, "rental_uris": {"android": "https://dc.lft.to/lastmile_qr_scan", "ios": "https://dc.lft.to/lastmile_qr_scan"}, "fusion_lon": 0.0, "is_reserved": 0}, {"lat": 38.87492366666667, "fusion_lat": 0.0, "type": "electric_bike", "name": "74ed731713aa03477a02dc2dff509b6e", "is_disabled": 0, "bike_id": "74ed731713aa03477a02dc2dff509b6e", "lon": -77.21124766666667, "rental_uris": {"android": "https://dc.lft.to/lastmile_qr_scan", "ios": "https://dc.lft.to/lastmile_qr_scan"}, "fusion_lon": 0.0, "is_reserved": 0}, {"lat": 38.90029883333333, "fusion_lat": 0.0, "type": "electric_scooter", "name": "18b4b1db61dd0e356a2ceeaaa4ab48d8", "is_disabled": 0, "bike_id": "18b4b1db61dd0e356a2ceeaaa4ab48d8", "lon": -77.03170716666666, "rental_uris": {"android": "https://dc.lft.to/lastmile_qr_scan", "ios": "https://dc.lft.to/lastmile_qr_scan"}, "fusion_lon": 0.0, "is_reserved": 0}, {"lat": 38.896144666666665, "fusion_lat": 0.0, "type": "electric_bike", "name": "6e038ba3a55d6716ef8c8b828e6abe6a", "is_disabled": 0, "bike_id": "6e038ba3a55d6716ef8c8b828e6abe6a", "lon": -76.90735, "rental_uris": {"android": "https://dc.lft.to/lastmile_qr_scan", "ios": "https://dc.lft.to/lastmile_qr_scan"}, "fusion_lon": 0.0, "is_reserved": 0}, {"lat": 38.892285333333334, "fusion_lat": 0.0, "type": "electric_scooter", "name": "1e063a7dc7170296150501ef7567d47a", "is_disabled": 0, "bike_id": "1e063a7dc7170296150501ef7567d47a", "lon": -77.04991433333333, "rental_uris": {"android": "https://dc.lft.to/lastmile_qr_scan", "ios": "https://dc.lft.to/lastmile_qr_scan"}, "fusion_lon": 0.0, "is_reserved": 0}, {"lat": 38.914137, "fusion_lat": 0.0, "type": "electric_scooter", "name": "6dfa09052055f14f9e208131b0f5508d", "is_disabled": 0, "bike_id": "6dfa09052055f14f9e208131b0f5508d", "lon": -77.0259295, "rental_uris": {"android": "https://dc.lft.to/lastmile_qr_scan", "ios": "https://dc.lft.to/lastmile_qr_scan"}, "fusion_lon": 0.0, "is_reserved": 0}, {"lat": 38.90557333333334, "fusion_lat": 0.0, "type": "electric_scooter", "name": "eacd652c75178f37e1a0f5a8bf8560da", "is_disabled": 0, "bike_id": "eacd652c75178f37e1a0f5a8bf8560da", "lon": -77.03465183333333, "rental_uris": {"android": "https://dc.lft.to/lastmile_qr_scan", "ios": "https://dc.lft.to/lastmile_qr_scan"}, "fusion_lon": 0.0, "is_reserved": 0}, {"lat": 38.93824166666667, "fusion_lat": 0.0, "type": "electric_scooter", "name": "4058f3c5870574de769121d838d5984f", "is_disabled": 0, "bike_id": "4058f3c5870574de769121d838d5984f", "lon": -77.0598665, "rental_uris": {"android": "https://dc.lft.to/lastmile_qr_scan", "ios": "https://dc.lft.to/lastmile_qr_scan"}, "fusion_lon": 0.0, "is_reserved": 0}, {"lat": 38.913805833333335, "fusion_lat": 0.0, "type": "electric_scooter", "name": "bdd39766f03732780422a7a6e44eecf2", "is_disabled": 0, "bike_id": "bdd39766f03732780422a7a6e44eecf2", "lon": -77.04135816666667, "rental_uris": {"android": "https://dc.lft.to/lastmile_qr_scan", "ios": "https://dc.lft.to/lastmile_qr_scan"}, "fusion_lon": 0.0, "is_reserved": 0}, {"lat": 38.9020385, "fusion_lat": 0.0, "type": "electric_scooter", "name": "480072221f66dadca0a14e44a74e906d", "is_disabled": 0, "bike_id": "480072221f66dadca0a14e44a74e906d", "lon": -77.06114016666666, "rental_uris": {"android": "https://dc.lft.to/lastmile_qr_scan", "ios": "https://dc.lft.to/lastmile_qr_scan"}, "fusion_lon": 0.0, "is_reserved": 0}, {"lat": 38.9389665, "fusion_lat": 0.0, "type": "electric_scooter", "name": "b71b55e121e1bea803b3abee69d53a0c", "is_disabled": 0, "bike_id": "b71b55e121e1bea803b3abee69d53a0c", "lon": -77.02486583333334, "rental_uris": {"android": "https://dc.lft.to/lastmile_qr_scan", "ios": "https://dc.lft.to/lastmile_qr_scan"}, "fusion_lon": 0.0, "is_reserved": 0}, {"lat": 38.884905833333335, "fusion_lat": 0.0, "type": "electric_bike", "name": "091b528b114c2b0ae4daa6f39a520f04", "is_disabled": 0, "bike_id": "091b528b114c2b0ae4daa6f39a520f04", "lon": -76.99712033333333, "rental_uris": {"android": "https://dc.lft.to/lastmile_qr_scan", "ios": "https://dc.lft.to/lastmile_qr_scan"}, "fusion_lon": 0.0, "is_reserved": 0}, {"lat": 38.898458833333336, "fusion_lat": 0.0, "type": "electric_scooter", "name": "8896c2b105980b1ce9ac09af660da4dc", "is_disabled": 0, "bike_id": "8896c2b105980b1ce9ac09af660da4dc", "lon": -77.0415565, "rental_uris": {"android": "https://dc.lft.to/lastmile_qr_scan", "ios": "https://dc.lft.to/lastmile_qr_scan"}, "fusion_lon": 0.0, "is_reserved": 0}, {"lat": 38.905692333333334, "fusion_lat": 0.0, "type": "electric_scooter", "name": "0cfa16cf7858f1b640934936b6a3d03a", "is_disabled": 0, "bike_id": "0cfa16cf7858f1b640934936b6a3d03a", "lon": -77.02235883333333, "rental_uris": {"android": "https://dc.lft.to/lastmile_qr_scan", "ios": "https://dc.lft.to/lastmile_qr_scan"}, "fusion_lon": 0.0, "is_reserved": 0}, {"lat": 38.899985666666666, "fusion_lat": 0.0, "type": "electric_scooter", "name": "ac7abce66d609fc2b7567e3783d906ce", "is_disabled": 0, "bike_id": "ac7abce66d609fc2b7567e3783d906ce", "lon": -76.980796, "rental_uris": {"android": "https://dc.lft.to/lastmile_qr_scan", "ios": "https://dc.lft.to/lastmile_qr_scan"}, "fusion_lon": 0.0, "is_reserved": 0}, {"lat": 38.891681166666665, "fusion_lat": 0.0, "type": "electric_scooter", "name": "91dd5c64de281833dcfdd199879ed122", "is_disabled": 0, "bike_id": "91dd5c64de281833dcfdd199879ed122", "lon": -77.0154105, "rental_uris": {"android": "https://dc.lft.to/lastmile_qr_scan", "ios": "https://dc.lft.to/lastmile_qr_scan"}, "fusion_lon": 0.0, "is_reserved": 0}, {"lat": 38.918895166666665, "fusion_lat": 0.0, "type": "electric_scooter", "name": "22ab5fabe9c3582ae20abb8cd4e4d332", "is_disabled": 0, "bike_id": "22ab5fabe9c3582ae20abb8cd4e4d332", "lon": -77.0416545, "rental_uris": {"android": "https://dc.lft.to/lastmile_qr_scan", "ios": "https://dc.lft.to/lastmile_qr_scan"}, "fusion_lon": 0.0, "is_reserved": 0}, {"lat": 38.883813, "fusion_lat": 0.0, "type": "electric_scooter", "name": "729f301b1f7d538076db874140490307", "is_disabled": 0, "bike_id": "729f301b1f7d538076db874140490307", "lon": -77.01903283333333, "rental_uris": {"android": "https://dc.lft.to/lastmile_qr_scan", "ios": "https://dc.lft.to/lastmile_qr_scan"}, "fusion_lon": 0.0, "is_reserved": 0}, {"lat": 38.80450783333333, "fusion_lat": 0.0, "type": "electric_bike", "name": "3d1c76f40babe0694dd4c4b130f16a8d", "is_disabled": 0, "bike_id": "3d1c76f40babe0694dd4c4b130f16a8d", "lon": -77.053941, "rental_uris": {"android": "https://dc.lft.to/lastmile_qr_scan", "ios": "https://dc.lft.to/lastmile_qr_scan"}, "fusion_lon": 0.0, "is_reserved": 0}, {"lat": 38.8973215, "fusion_lat": 0.0, "type": "electric_scooter", "name": "525bcce9df0c46a75d2d72c6116657f2", "is_disabled": 0, "bike_id": "525bcce9df0c46a75d2d72c6116657f2", "lon": -77.0477385, "rental_uris": {"android": "https://dc.lft.to/lastmile_qr_scan", "ios": "https://dc.lft.to/lastmile_qr_scan"}, "fusion_lon": 0.0, "is_reserved": 0}, {"lat": 38.926753, "fusion_lat": 0.0, "type": "electric_scooter", "name": "30250da368e63fab85ba9fe31fe4d08e", "is_disabled": 0, "bike_id": "30250da368e63fab85ba9fe31fe4d08e", "lon": -77.01490866666667, "rental_uris": {"android": "https://dc.lft.to/lastmile_qr_scan", "ios": "https://dc.lft.to/lastmile_qr_scan"}, "fusion_lon": 0.0, "is_reserved": 0}, {"lat": 38.905045666666666, "fusion_lat": 0.0, "type": "electric_scooter", "name": "5eef263f70de6071b8e8ddba06c282b2", "is_disabled": 0, "bike_id": "5eef263f70de6071b8e8ddba06c282b2", "lon": -77.03059416666666, "rental_uris": {"android": "https://dc.lft.to/lastmile_qr_scan", "ios": "https://dc.lft.to/lastmile_qr_scan"}, "fusion_lon": 0.0, "is_reserved": 0}, {"lat": 38.899587833333335, "fusion_lat": 0.0, "type": "electric_scooter", "name": "bb32442e2e18647c17a2d111655577d2", "is_disabled": 0, "bike_id": "bb32442e2e18647c17a2d111655577d2", "lon": -77.03068633333334, "rental_uris": {"android": "https://dc.lft.to/lastmile_qr_scan", "ios": "https://dc.lft.to/lastmile_qr_scan"}, "fusion_lon": 0.0, "is_reserved": 0}, {"lat": 38.884109, "fusion_lat": 0.0, "type": "electric_bike", "name": "f80a9909991b1b0bf7860b8f4097a527", "is_disabled": 0, "bike_id": "f80a9909991b1b0bf7860b8f4097a527", "lon": -76.95418933333333, "rental_uris": {"android": "https://dc.lft.to/lastmile_qr_scan", "ios": "https://dc.lft.to/lastmile_qr_scan"}, "fusion_lon": 0.0, "is_reserved": 0}, {"lat": 38.90680666666667, "fusion_lat": 0.0, "type": "electric_scooter", "name": "706d6ba3195ef0414d676ea272b5dbb4", "is_disabled": 0, "bike_id": "706d6ba3195ef0414d676ea272b5dbb4", "lon": -77.03526233333334, "rental_uris": {"android": "https://dc.lft.to/lastmile_qr_scan", "ios": "https://dc.lft.to/lastmile_qr_scan"}, "fusion_lon": 0.0, "is_reserved": 0}, {"lat": 38.908434666666665, "fusion_lat": 0.0, "type": "electric_scooter", "name": "7a3220b4a1345869556859efb7609d84", "is_disabled": 0, "bike_id": "7a3220b4a1345869556859efb7609d84", "lon": -77.04166316666667, "rental_uris": {"android": "https://dc.lft.to/lastmile_qr_scan", "ios": "https://dc.lft.to/lastmile_qr_scan"}, "fusion_lon": 0.0, "is_reserved": 0}, {"lat": 38.90339566666667, "fusion_lat": 0.0, "type": "electric_scooter", "name": "3044f4d8054dd3f111efdaa953dc3043", "is_disabled": 0, "bike_id": "3044f4d8054dd3f111efdaa953dc3043", "lon": -77.06186466666666, "rental_uris": {"android": "https://dc.lft.to/lastmile_qr_scan", "ios": "https://dc.lft.to/lastmile_qr_scan"}, "fusion_lon": 0.0, "is_reserved": 0}, {"lat": 38.91416516666666, "fusion_lat": 0.0, "type": "electric_scooter", "name": "1d86d30319f3c54ed0c3711c727fb34c", "is_disabled": 0, "bike_id": "1d86d30319f3c54ed0c3711c727fb34c", "lon": -77.0317275, "rental_uris": {"android": "https://dc.lft.to/lastmile_qr_scan", "ios": "https://dc.lft.to/lastmile_qr_scan"}, "fusion_lon": 0.0, "is_reserved": 0}, {"lat": 38.926426666666664, "fusion_lat": 0.0, "type": "electric_scooter", "name": "fa9a83364ee2213a9bf671239cdd6e1f", "is_disabled": 0, "bike_id": "fa9a83364ee2213a9bf671239cdd6e1f", "lon": -77.01340116666667, "rental_uris": {"android": "https://dc.lft.to/lastmile_qr_scan", "ios": "https://dc.lft.to/lastmile_qr_scan"}, "fusion_lon": 0.0, "is_reserved": 0}, {"lat": 38.91563383333333, "fusion_lat": 0.0, "type": "electric_scooter", "name": "e63690a33263235250a6b45bd71cfe08", "is_disabled": 0, "bike_id": "e63690a33263235250a6b45bd71cfe08", "lon": -77.0323445, "rental_uris": {"android": "https://dc.lft.to/lastmile_qr_scan", "ios": "https://dc.lft.to/lastmile_qr_scan"}, "fusion_lon": 0.0, "is_reserved": 0}, {"lat": 38.8850545, "fusion_lat": 0.0, "type": "electric_scooter", "name": "3a9c085f92c60878ec2036dd6d8e0c8e", "is_disabled": 0, "bike_id": "3a9c085f92c60878ec2036dd6d8e0c8e", "lon": -77.02099616666666, "rental_uris": {"android": "https://dc.lft.to/lastmile_qr_scan", "ios": "https://dc.lft.to/lastmile_qr_scan"}, "fusion_lon": 0.0, "is_reserved": 0}, {"lat": 38.88746483333333, "fusion_lat": 0.0, "type": "electric_scooter", "name": "20930519c58f57dd7b8189172aa6e70f", "is_disabled": 0, "bike_id": "20930519c58f57dd7b8189172aa6e70f", "lon": -77.02118083333333, "rental_uris": {"android": "https://dc.lft.to/lastmile_qr_scan", "ios": "https://dc.lft.to/lastmile_qr_scan"}, "fusion_lon": 0.0, "is_reserved": 0}, {"lat": 38.90752466666667, "fusion_lat": 0.0, "type": "electric_scooter", "name": "1b31aba4e8382f79f12f0215fdfacaaa", "is_disabled": 0, "bike_id": "1b31aba4e8382f79f12f0215fdfacaaa", "lon": -77.04144383333333, "rental_uris": {"android": "https://dc.lft.to/lastmile_qr_scan", "ios": "https://dc.lft.to/lastmile_qr_scan"}, "fusion_lon": 0.0, "is_reserved": 0}, {"lat": 38.905620166666665, "fusion_lat": 0.0, "type": "electric_scooter", "name": "ed3b49930457bed4da625abe50dcefc9", "is_disabled": 0, "bike_id": "ed3b49930457bed4da625abe50dcefc9", "lon": -77.00071683333333, "rental_uris": {"android": "https://dc.lft.to/lastmile_qr_scan", "ios": "https://dc.lft.to/lastmile_qr_scan"}, "fusion_lon": 0.0, "is_reserved": 0}, {"lat": 38.9036095, "fusion_lat": 0.0, "type": "electric_scooter", "name": "5d3396e7f6126b60efe39c99a933676c", "is_disabled": 0, "bike_id": "5d3396e7f6126b60efe39c99a933676c", "lon": -77.04554983333334, "rental_uris": {"android": "https://dc.lft.to/lastmile_qr_scan", "ios": "https://dc.lft.to/lastmile_qr_scan"}, "fusion_lon": 0.0, "is_reserved": 0}, {"lat": 38.897338, "fusion_lat": 0.0, "type": "electric_bike", "name": "b05982005fce11d233306b0b867ff01c", "is_disabled": 0, "bike_id": "b05982005fce11d233306b0b867ff01c", "lon": -77.0552345, "rental_uris": {"android": "https://dc.lft.to/lastmile_qr_scan", "ios": "https://dc.lft.to/lastmile_qr_scan"}, "fusion_lon": 0.0, "is_reserved": 0}, {"lat": 38.93060216666667, "fusion_lat": 0.0, "type": "electric_scooter", "name": "af1b665bbe3dd6da8f60f959a7d637b1", "is_disabled": 0, "bike_id": "af1b665bbe3dd6da8f60f959a7d637b1", "lon": -77.058558, "rental_uris": {"android": "https://dc.lft.to/lastmile_qr_scan", "ios": "https://dc.lft.to/lastmile_qr_scan"}, "fusion_lon": 0.0, "is_reserved": 0}, {"lat": 38.86665566666667, "fusion_lat": 0.0, "type": "electric_scooter", "name": "a54377a2838360ce33766305db284751", "is_disabled": 0, "bike_id": "a54377a2838360ce33766305db284751", "lon": -76.98888733333334, "rental_uris": {"android": "https://dc.lft.to/lastmile_qr_scan", "ios": "https://dc.lft.to/lastmile_qr_scan"}, "fusion_lon": 0.0, "is_reserved": 0}, {"lat": 38.896096666666665, "fusion_lat": 0.0, "type": "electric_scooter", "name": "54a4c43745d61c49d7f9fda5ade86aca", "is_disabled": 0, "bike_id": "54a4c43745d61c49d7f9fda5ade86aca", "lon": -77.00928166666667, "rental_uris": {"android": "https://dc.lft.to/lastmile_qr_scan", "ios": "https://dc.lft.to/lastmile_qr_scan"}, "fusion_lon": 0.0, "is_reserved": 0}, {"lat": 38.898885666666665, "fusion_lat": 0.0, "type": "electric_scooter", "name": "91b0782f226ed3d41328d877db94e4eb", "is_disabled": 0, "bike_id": "91b0782f226ed3d41328d877db94e4eb", "lon": -77.0323005, "rental_uris": {"android": "https://dc.lft.to/lastmile_qr_scan", "ios": "https://dc.lft.to/lastmile_qr_scan"}, "fusion_lon": 0.0, "is_reserved": 0}, {"lat": 38.895534166666664, "fusion_lat": 0.0, "type": "electric_scooter", "name": "81f7da5b8031d3e3a2ce02dbc30dda05", "is_disabled": 0, "bike_id": "81f7da5b8031d3e3a2ce02dbc30dda05", "lon": -77.04164416666667, "rental_uris": {"android": "https://dc.lft.to/lastmile_qr_scan", "ios": "https://dc.lft.to/lastmile_qr_scan"}, "fusion_lon": 0.0, "is_reserved": 0}, {"lat": 38.89231733333333, "fusion_lat": 0.0, "type": "electric_scooter", "name": "e934eb5eaf4eaeda86ba66514626423c", "is_disabled": 0, "bike_id": "e934eb5eaf4eaeda86ba66514626423c", "lon": -77.02203916666667, "rental_uris": {"android": "https://dc.lft.to/lastmile_qr_scan", "ios": "https://dc.lft.to/lastmile_qr_scan"}, "fusion_lon": 0.0, "is_reserved": 0}, {"lat": 38.924267666666665, "fusion_lat": 0.0, "type": "electric_scooter", "name": "4f3a4f3bb5917f625ba625d984bf1f2c", "is_disabled": 0, "bike_id": "4f3a4f3bb5917f625ba625d984bf1f2c", "lon": -77.0517835, "rental_uris": {"android": "https://dc.lft.to/lastmile_qr_scan", "ios": "https://dc.lft.to/lastmile_qr_scan"}, "fusion_lon": 0.0, "is_reserved": 0}, {"lat": 38.94185816666667, "fusion_lat": 0.0, "type": "electric_scooter", "name": "a9fffbce95e3e8e233393b7f7a3176de", "is_disabled": 0, "bike_id": "a9fffbce95e3e8e233393b7f7a3176de", "lon": -77.02405933333333, "rental_uris": {"android": "https://dc.lft.to/lastmile_qr_scan", "ios": "https://dc.lft.to/lastmile_qr_scan"}, "fusion_lon": 0.0, "is_reserved": 0}, {"lat": 38.9008995, "fusion_lat": 0.0, "type": "electric_scooter", "name": "fc35afec6867147c44bf3cb87fe0bde4", "is_disabled": 0, "bike_id": "fc35afec6867147c44bf3cb87fe0bde4", "lon": -77.0252485, "rental_uris": {"android": "https://dc.lft.to/lastmile_qr_scan", "ios": "https://dc.lft.to/lastmile_qr_scan"}, "fusion_lon": 0.0, "is_reserved": 0}, {"lat": 38.907552, "fusion_lat": 0.0, "type": "electric_scooter", "name": "9ce9c89ae46c5c9443105b0dc44ac2e2", "is_disabled": 0, "bike_id": "9ce9c89ae46c5c9443105b0dc44ac2e2", "lon": -77.03065566666666, "rental_uris": {"android": "https://dc.lft.to/lastmile_qr_scan", "ios": "https://dc.lft.to/lastmile_qr_scan"}, "fusion_lon": 0.0, "is_reserved": 0}, {"lat": 38.89714166666667, "fusion_lat": 0.0, "type": "electric_scooter", "name": "a93a8128da86fd92af9404cfcd066f04", "is_disabled": 0, "bike_id": "a93a8128da86fd92af9404cfcd066f04", "lon": -77.0214425, "rental_uris": {"android": "https://dc.lft.to/lastmile_qr_scan", "ios": "https://dc.lft.to/lastmile_qr_scan"}, "fusion_lon": 0.0, "is_reserved": 0}, {"lat": 38.89849366666667, "fusion_lat": 0.0, "type": "electric_scooter", "name": "95a2bdc65cce7e8723d071a730b14df1", "is_disabled": 0, "bike_id": "95a2bdc65cce7e8723d071a730b14df1", "lon": -77.03923033333334, "rental_uris": {"android": "https://dc.lft.to/lastmile_qr_scan", "ios": "https://dc.lft.to/lastmile_qr_scan"}, "fusion_lon": 0.0, "is_reserved": 0}, {"lat": 38.909135166666665, "fusion_lat": 0.0, "type": "electric_scooter", "name": "2a274682e3660d87c46619dd04901a65", "is_disabled": 0, "bike_id": "2a274682e3660d87c46619dd04901a65", "lon": -77.07271283333333, "rental_uris": {"android": "https://dc.lft.to/lastmile_qr_scan", "ios": "https://dc.lft.to/lastmile_qr_scan"}, "fusion_lon": 0.0, "is_reserved": 0}, {"lat": 38.936069, "fusion_lat": 0.0, "type": "electric_scooter", "name": "3296cfa5e5906710cf61d41e7ad2430b", "is_disabled": 0, "bike_id": "3296cfa5e5906710cf61d41e7ad2430b", "lon": -77.058569, "rental_uris": {"android": "https://dc.lft.to/lastmile_qr_scan", "ios": "https://dc.lft.to/lastmile_qr_scan"}, "fusion_lon": 0.0, "is_reserved": 0}, {"lat": 38.8639085, "fusion_lat": 0.0, "type": "electric_scooter", "name": "624d13765d9254c6e81fd899a3761463", "is_disabled": 0, "bike_id": "624d13765d9254c6e81fd899a3761463", "lon": -76.9903975, "rental_uris": {"android": "https://dc.lft.to/lastmile_qr_scan", "ios": "https://dc.lft.to/lastmile_qr_scan"}, "fusion_lon": 0.0, "is_reserved": 0}, {"lat": 38.90125583333333, "fusion_lat": 0.0, "type": "electric_scooter", "name": "a7d61b89e4432418d28ec3917720ae72", "is_disabled": 0, "bike_id": "a7d61b89e4432418d28ec3917720ae72", "lon": -77.05017083333334, "rental_uris": {"android": "https://dc.lft.to/lastmile_qr_scan", "ios": "https://dc.lft.to/lastmile_qr_scan"}, "fusion_lon": 0.0, "is_reserved": 0}, {"lat": 38.897283, "fusion_lat": 0.0, "type": "electric_scooter", "name": "ae28bd1a6f38a632de4cb14b8547e73d", "is_disabled": 0, "bike_id": "ae28bd1a6f38a632de4cb14b8547e73d", "lon": -76.94703716666666, "rental_uris": {"android": "https://dc.lft.to/lastmile_qr_scan", "ios": "https://dc.lft.to/lastmile_qr_scan"}, "fusion_lon": 0.0, "is_reserved": 0}, {"lat": 38.902783, "fusion_lat": 0.0, "type": "electric_scooter", "name": "f99fa155fa830b347704f8de54296474", "is_disabled": 0, "bike_id": "f99fa155fa830b347704f8de54296474", "lon": -77.038331, "rental_uris": {"android": "https://dc.lft.to/lastmile_qr_scan", "ios": "https://dc.lft.to/lastmile_qr_scan"}, "fusion_lon": 0.0, "is_reserved": 0}, {"lat": 38.909540166666666, "fusion_lat": 0.0, "type": "electric_scooter", "name": "2c7ac09a8ce6682123c6957791b7b7ef", "is_disabled": 0, "bike_id": "2c7ac09a8ce6682123c6957791b7b7ef", "lon": -77.0547155, "rental_uris": {"android": "https://dc.lft.to/lastmile_qr_scan", "ios": "https://dc.lft.to/lastmile_qr_scan"}, "fusion_lon": 0.0, "is_reserved": 0}, {"lat": 38.90793, "fusion_lat": 0.0, "type": "electric_scooter", "name": "2560aff9b1853839f5a175936bf1bab2", "is_disabled": 0, "bike_id": "2560aff9b1853839f5a175936bf1bab2", "lon": -76.99229833333334, "rental_uris": {"android": "https://dc.lft.to/lastmile_qr_scan", "ios": "https://dc.lft.to/lastmile_qr_scan"}, "fusion_lon": 0.0, "is_reserved": 0}, {"lat": 39.050984666666665, "fusion_lat": 0.0, "type": "electric_bike", "name": "425091aa9125fc4b84b4fc0f8d2c2a3e", "is_disabled": 0, "bike_id": "425091aa9125fc4b84b4fc0f8d2c2a3e", "lon": -77.1173985, "rental_uris": {"android": "https://dc.lft.to/lastmile_qr_scan", "ios": "https://dc.lft.to/lastmile_qr_scan"}, "fusion_lon": 0.0, "is_reserved": 0}, {"lat": 38.985332166666666, "fusion_lat": 0.0, "type": "electric_scooter", "name": "3312cfe57a59924f2f5f5d1df77dcbe8", "is_disabled": 0, "bike_id": "3312cfe57a59924f2f5f5d1df77dcbe8", "lon": -77.03657816666667, "rental_uris": {"android": "https://dc.lft.to/lastmile_qr_scan", "ios": "https://dc.lft.to/lastmile_qr_scan"}, "fusion_lon": 0.0, "is_reserved": 0}, {"lat": 38.86391866666666, "fusion_lat": 0.0, "type": "electric_scooter", "name": "60876415b4f58f05ef9e0cd6368e1e20", "is_disabled": 0, "bike_id": "60876415b4f58f05ef9e0cd6368e1e20", "lon": -76.99035966666666, "rental_uris": {"android": "https://dc.lft.to/lastmile_qr_scan", "ios": "https://dc.lft.to/lastmile_qr_scan"}, "fusion_lon": 0.0, "is_reserved": 0}, {"lat": 38.90010016666667, "fusion_lat": 0.0, "type": "electric_scooter", "name": "70570a5fcbbdd96e947ecd4c615977a7", "is_disabled": 0, "bike_id": "70570a5fcbbdd96e947ecd4c615977a7", "lon": -77.03198633333334, "rental_uris": {"android": "https://dc.lft.to/lastmile_qr_scan", "ios": "https://dc.lft.to/lastmile_qr_scan"}, "fusion_lon": 0.0, "is_reserved": 0}, {"lat": 38.898989, "fusion_lat": 0.0, "type": "electric_scooter", "name": "ee994f0cf1759d299c15431c1629fdfa", "is_disabled": 0, "bike_id": "ee994f0cf1759d299c15431c1629fdfa", "lon": -77.03269233333333, "rental_uris": {"android": "https://dc.lft.to/lastmile_qr_scan", "ios": "https://dc.lft.to/lastmile_qr_scan"}, "fusion_lon": 0.0, "is_reserved": 0}, {"lat": 38.884002833333334, "fusion_lat": 0.0, "type": "electric_bike", "name": "5d1eeb4f212f999c1c3842b89c28384b", "is_disabled": 0, "bike_id": "5d1eeb4f212f999c1c3842b89c28384b", "lon": -76.96052833333333, "rental_uris": {"android": "https://dc.lft.to/lastmile_qr_scan", "ios": "https://dc.lft.to/lastmile_qr_scan"}, "fusion_lon": 0.0, "is_reserved": 0}, {"lat": 38.915689666666665, "fusion_lat": 0.0, "type": "electric_scooter", "name": "bbecb80989824bc07747fe293ff98e19", "is_disabled": 0, "bike_id": "bbecb80989824bc07747fe293ff98e19", "lon": -77.01191966666667, "rental_uris": {"android": "https://dc.lft.to/lastmile_qr_scan", "ios": "https://dc.lft.to/lastmile_qr_scan"}, "fusion_lon": 0.0, "is_reserved": 0}, {"lat": 38.84450266666666, "fusion_lat": 0.0, "type": "electric_bike", "name": "1d0b069661fbab467745831e0e34685d", "is_disabled": 0, "bike_id": "1d0b069661fbab467745831e0e34685d", "lon": -77.00164516666666, "rental_uris": {"android": "https://dc.lft.to/lastmile_qr_scan", "ios": "https://dc.lft.to/lastmile_qr_scan"}, "fusion_lon": 0.0, "is_reserved": 0}, {"lat": 38.9181685, "fusion_lat": 0.0, "type": "electric_scooter", "name": "568103df28e46ded887c2fdc649bb82f", "is_disabled": 0, "bike_id": "568103df28e46ded887c2fdc649bb82f", "lon": -77.041766, "rental_uris": {"android": "https://dc.lft.to/lastmile_qr_scan", "ios": "https://dc.lft.to/lastmile_qr_scan"}, "fusion_lon": 0.0, "is_reserved": 0}, {"lat": 38.91266066666667, "fusion_lat": 0.0, "type": "electric_scooter", "name": "190fbf1f5c80036c705a17f2758bc621", "is_disabled": 0, "bike_id": "190fbf1f5c80036c705a17f2758bc621", "lon": -77.0386695, "rental_uris": {"android": "https://dc.lft.to/lastmile_qr_scan", "ios": "https://dc.lft.to/lastmile_qr_scan"}, "fusion_lon": 0.0, "is_reserved": 0}, {"lat": 38.907851666666666, "fusion_lat": 0.0, "type": "electric_scooter", "name": "9ea299f686ef5311db9d7e26e6687d6e", "is_disabled": 0, "bike_id": "9ea299f686ef5311db9d7e26e6687d6e", "lon": -77.0467065, "rental_uris": {"android": "https://dc.lft.to/lastmile_qr_scan", "ios": "https://dc.lft.to/lastmile_qr_scan"}, "fusion_lon": 0.0, "is_reserved": 0}, {"lat": 38.865051, "fusion_lat": 0.0, "type": "electric_scooter", "name": "a72c9071866ef654ee50e082d62fc035", "is_disabled": 0, "bike_id": "a72c9071866ef654ee50e082d62fc035", "lon": -76.99000333333333, "rental_uris": {"android": "https://dc.lft.to/lastmile_qr_scan", "ios": "https://dc.lft.to/lastmile_qr_scan"}, "fusion_lon": 0.0, "is_reserved": 0}, {"lat": 38.914059, "fusion_lat": 0.0, "type": "electric_scooter", "name": "5394512709fe8d89e2551216bd5ed857", "is_disabled": 0, "bike_id": "5394512709fe8d89e2551216bd5ed857", "lon": -77.015539, "rental_uris": {"android": "https://dc.lft.to/lastmile_qr_scan", "ios": "https://dc.lft.to/lastmile_qr_scan"}, "fusion_lon": 0.0, "is_reserved": 0}, {"lat": 38.9013825, "fusion_lat": 0.0, "type": "electric_scooter", "name": "f1d55866d884b8e4f51dc3842f760399", "is_disabled": 0, "bike_id": "f1d55866d884b8e4f51dc3842f760399", "lon": -77.00271033333334, "rental_uris": {"android": "https://dc.lft.to/lastmile_qr_scan", "ios": "https://dc.lft.to/lastmile_qr_scan"}, "fusion_lon": 0.0, "is_reserved": 0}, {"lat": 38.89736333333333, "fusion_lat": 0.0, "type": "electric_scooter", "name": "12d1a1d567be8ad44f36c5d696e9302b", "is_disabled": 0, "bike_id": "12d1a1d567be8ad44f36c5d696e9302b", "lon": -77.04537883333333, "rental_uris": {"android": "https://dc.lft.to/lastmile_qr_scan", "ios": "https://dc.lft.to/lastmile_qr_scan"}, "fusion_lon": 0.0, "is_reserved": 0}, {"lat": 38.890577, "fusion_lat": 0.0, "type": "electric_scooter", "name": "4a4c2b58929701cc76523a76787ee10e", "is_disabled": 0, "bike_id": "4a4c2b58929701cc76523a76787ee10e", "lon": -76.9375495, "rental_uris": {"android": "https://dc.lft.to/lastmile_qr_scan", "ios": "https://dc.lft.to/lastmile_qr_scan"}, "fusion_lon": 0.0, "is_reserved": 0}, {"lat": 38.934782166666665, "fusion_lat": 0.0, "type": "electric_scooter", "name": "dc61d54687b69f770402af4fc069a832", "is_disabled": 0, "bike_id": "dc61d54687b69f770402af4fc069a832", "lon": -77.07282366666666, "rental_uris": {"android": "https://dc.lft.to/lastmile_qr_scan", "ios": "https://dc.lft.to/lastmile_qr_scan"}, "fusion_lon": 0.0, "is_reserved": 0}, {"lat": 38.88452766666666, "fusion_lat": 0.0, "type": "electric_scooter", "name": "ed3ceadf3c9097dd978340c636e8abfe", "is_disabled": 0, "bike_id": "ed3ceadf3c9097dd978340c636e8abfe", "lon": -76.950972, "rental_uris": {"android": "https://dc.lft.to/lastmile_qr_scan", "ios": "https://dc.lft.to/lastmile_qr_scan"}, "fusion_lon": 0.0, "is_reserved": 0}, {"lat": 38.9228025, "fusion_lat": 0.0, "type": "electric_scooter", "name": "61dfa16a27304fc2ec1306a1e16d6315", "is_disabled": 0, "bike_id": "61dfa16a27304fc2ec1306a1e16d6315", "lon": -77.042429, "rental_uris": {"android": "https://dc.lft.to/lastmile_qr_scan", "ios": "https://dc.lft.to/lastmile_qr_scan"}, "fusion_lon": 0.0, "is_reserved": 0}, {"lat": 38.8763775, "fusion_lat": 0.0, "type": "electric_scooter", "name": "255147d5200f965c2adaddbfa5d385ef", "is_disabled": 0, "bike_id": "255147d5200f965c2adaddbfa5d385ef", "lon": -77.00383533333333, "rental_uris": {"android": "https://dc.lft.to/lastmile_qr_scan", "ios": "https://dc.lft.to/lastmile_qr_scan"}, "fusion_lon": 0.0, "is_reserved": 0}, {"lat": 38.8965235, "fusion_lat": 0.0, "type": "electric_scooter", "name": "8d2530718fb0d3ab11506563c62a02c2", "is_disabled": 0, "bike_id": "8d2530718fb0d3ab11506563c62a02c2", "lon": -77.018538, "rental_uris": {"android": "https://dc.lft.to/lastmile_qr_scan", "ios": "https://dc.lft.to/lastmile_qr_scan"}, "fusion_lon": 0.0, "is_reserved": 0}, {"lat": 38.9241715, "fusion_lat": 0.0, "type": "electric_scooter", "name": "d9490acc091173698ddf2bcdefc85a92", "is_disabled": 0, "bike_id": "d9490acc091173698ddf2bcdefc85a92", "lon": -77.02290016666667, "rental_uris": {"android": "https://dc.lft.to/lastmile_qr_scan", "ios": "https://dc.lft.to/lastmile_qr_scan"}, "fusion_lon": 0.0, "is_reserved": 0}, {"lat": 38.931778666666666, "fusion_lat": 0.0, "type": "electric_scooter", "name": "77eb3b1fb323f0cb557008b236b60b0c", "is_disabled": 0, "bike_id": "77eb3b1fb323f0cb557008b236b60b0c", "lon": -77.043021, "rental_uris": {"android": "https://dc.lft.to/lastmile_qr_scan", "ios": "https://dc.lft.to/lastmile_qr_scan"}, "fusion_lon": 0.0, "is_reserved": 0}, {"lat": 38.88582233333333, "fusion_lat": 0.0, "type": "electric_scooter", "name": "0e34db85c2ec1573326373b126d98402", "is_disabled": 0, "bike_id": "0e34db85c2ec1573326373b126d98402", "lon": -77.01545033333333, "rental_uris": {"android": "https://dc.lft.to/lastmile_qr_scan", "ios": "https://dc.lft.to/lastmile_qr_scan"}, "fusion_lon": 0.0, "is_reserved": 0}, {"lat": 38.899604333333336, "fusion_lat": 0.0, "type": "electric_scooter", "name": "6b486e69e6d89515c2f192c69587fda1", "is_disabled": 0, "bike_id": "6b486e69e6d89515c2f192c69587fda1", "lon": -77.0448305, "rental_uris": {"android": "https://dc.lft.to/lastmile_qr_scan", "ios": "https://dc.lft.to/lastmile_qr_scan"}, "fusion_lon": 0.0, "is_reserved": 0}, {"lat": 38.890825, "fusion_lat": 0.0, "type": "electric_scooter", "name": "a6bd840596bac636a0b6958bb7615d04", "is_disabled": 0, "bike_id": "a6bd840596bac636a0b6958bb7615d04", "lon": -76.98821783333334, "rental_uris": {"android": "https://dc.lft.to/lastmile_qr_scan", "ios": "https://dc.lft.to/lastmile_qr_scan"}, "fusion_lon": 0.0, "is_reserved": 0}, {"lat": 38.941267333333336, "fusion_lat": 0.0, "type": "electric_scooter", "name": "4d4c322a3462c3530051685422a93c31", "is_disabled": 0, "bike_id": "4d4c322a3462c3530051685422a93c31", "lon": -77.01539633333333, "rental_uris": {"android": "https://dc.lft.to/lastmile_qr_scan", "ios": "https://dc.lft.to/lastmile_qr_scan"}, "fusion_lon": 0.0, "is_reserved": 0}, {"lat": 38.91255966666667, "fusion_lat": 0.0, "type": "electric_scooter", "name": "cd122d9c690f15641278a458f9da3483", "is_disabled": 0, "bike_id": "cd122d9c690f15641278a458f9da3483", "lon": -77.02201316666667, "rental_uris": {"android": "https://dc.lft.to/lastmile_qr_scan", "ios": "https://dc.lft.to/lastmile_qr_scan"}, "fusion_lon": 0.0, "is_reserved": 0}, {"lat": 38.89899283333333, "fusion_lat": 0.0, "type": "electric_scooter", "name": "6d61b84d576207e9599b20f481c7280d", "is_disabled": 0, "bike_id": "6d61b84d576207e9599b20f481c7280d", "lon": -77.03277283333334, "rental_uris": {"android": "https://dc.lft.to/lastmile_qr_scan", "ios": "https://dc.lft.to/lastmile_qr_scan"}, "fusion_lon": 0.0, "is_reserved": 0}, {"lat": 38.923093333333334, "fusion_lat": 0.0, "type": "electric_scooter", "name": "802bd5a9fd0448c003759a64a57f1daf", "is_disabled": 0, "bike_id": "802bd5a9fd0448c003759a64a57f1daf", "lon": -77.042286, "rental_uris": {"android": "https://dc.lft.to/lastmile_qr_scan", "ios": "https://dc.lft.to/lastmile_qr_scan"}, "fusion_lon": 0.0, "is_reserved": 0}, {"lat": 38.961775833333334, "fusion_lat": 0.0, "type": "electric_scooter", "name": "d1fb8a2e5d41fb34ae8bafa0880fb56b", "is_disabled": 0, "bike_id": "d1fb8a2e5d41fb34ae8bafa0880fb56b", "lon": -77.02801366666667, "rental_uris": {"android": "https://dc.lft.to/lastmile_qr_scan", "ios": "https://dc.lft.to/lastmile_qr_scan"}, "fusion_lon": 0.0, "is_reserved": 0}, {"lat": 38.894811, "fusion_lat": 0.0, "type": "electric_scooter", "name": "69709dcff023c901729bbf10068e3c98", "is_disabled": 0, "bike_id": "69709dcff023c901729bbf10068e3c98", "lon": -76.94859616666666, "rental_uris": {"android": "https://dc.lft.to/lastmile_qr_scan", "ios": "https://dc.lft.to/lastmile_qr_scan"}, "fusion_lon": 0.0, "is_reserved": 0}, {"lat": 38.91166833333333, "fusion_lat": 0.0, "type": "electric_scooter", "name": "8afd6bdc9f252dc0627527bbb1b16a7b", "is_disabled": 0, "bike_id": "8afd6bdc9f252dc0627527bbb1b16a7b", "lon": -77.07756033333334, "rental_uris": {"android": "https://dc.lft.to/lastmile_qr_scan", "ios": "https://dc.lft.to/lastmile_qr_scan"}, "fusion_lon": 0.0, "is_reserved": 0}, {"lat": 38.901241666666664, "fusion_lat": 0.0, "type": "electric_scooter", "name": "8e3de1d04bfc994bce44183f6b5c6d2b", "is_disabled": 0, "bike_id": "8e3de1d04bfc994bce44183f6b5c6d2b", "lon": -77.0325105, "rental_uris": {"android": "https://dc.lft.to/lastmile_qr_scan", "ios": "https://dc.lft.to/lastmile_qr_scan"}, "fusion_lon": 0.0, "is_reserved": 0}, {"lat": 38.94022233333333, "fusion_lat": 0.0, "type": "electric_scooter", "name": "21cdec12aeff01b504343ba38473a5c2", "is_disabled": 0, "bike_id": "21cdec12aeff01b504343ba38473a5c2", "lon": -76.9760945, "rental_uris": {"android": "https://dc.lft.to/lastmile_qr_scan", "ios": "https://dc.lft.to/lastmile_qr_scan"}, "fusion_lon": 0.0, "is_reserved": 0}, {"lat": 38.916927333333334, "fusion_lat": 0.0, "type": "electric_scooter", "name": "526182de47b66b31f2453cdc6ccedde9", "is_disabled": 0, "bike_id": "526182de47b66b31f2453cdc6ccedde9", "lon": -77.02797133333333, "rental_uris": {"android": "https://dc.lft.to/lastmile_qr_scan", "ios": "https://dc.lft.to/lastmile_qr_scan"}, "fusion_lon": 0.0, "is_reserved": 0}, {"lat": 38.877199, "fusion_lat": 0.0, "type": "electric_scooter", "name": "f2f0d1c6715826ac11fc958e81d91568", "is_disabled": 0, "bike_id": "f2f0d1c6715826ac11fc958e81d91568", "lon": -77.00530916666666, "rental_uris": {"android": "https://dc.lft.to/lastmile_qr_scan", "ios": "https://dc.lft.to/lastmile_qr_scan"}, "fusion_lon": 0.0, "is_reserved": 0}, {"lat": 38.86267133333333, "fusion_lat": 0.0, "type": "electric_bike", "name": "81b811093be4e1b88b2c22d01c68aff3", "is_disabled": 0, "bike_id": "81b811093be4e1b88b2c22d01c68aff3", "lon": -76.98349716666667, "rental_uris": {"android": "https://dc.lft.to/lastmile_qr_scan", "ios": "https://dc.lft.to/lastmile_qr_scan"}, "fusion_lon": 0.0, "is_reserved": 0}, {"lat": 38.93913166666667, "fusion_lat": 0.0, "type": "electric_scooter", "name": "fbba15b3638bf11d77822ba9da563515", "is_disabled": 0, "bike_id": "fbba15b3638bf11d77822ba9da563515", "lon": -77.06038416666667, "rental_uris": {"android": "https://dc.lft.to/lastmile_qr_scan", "ios": "https://dc.lft.to/lastmile_qr_scan"}, "fusion_lon": 0.0, "is_reserved": 0}, {"lat": 38.86238733333333, "fusion_lat": 0.0, "type": "electric_bike", "name": "c850eef9ab39ac4d2442d8081f29b728", "is_disabled": 0, "bike_id": "c850eef9ab39ac4d2442d8081f29b728", "lon": -76.95276816666667, "rental_uris": {"android": "https://dc.lft.to/lastmile_qr_scan", "ios": "https://dc.lft.to/lastmile_qr_scan"}, "fusion_lon": 0.0, "is_reserved": 0}, {"lat": 38.92254883333333, "fusion_lat": 0.0, "type": "electric_scooter", "name": "02bd62c7e276e9797dd8bc86486635ac", "is_disabled": 0, "bike_id": "02bd62c7e276e9797dd8bc86486635ac", "lon": -77.035229, "rental_uris": {"android": "https://dc.lft.to/lastmile_qr_scan", "ios": "https://dc.lft.to/lastmile_qr_scan"}, "fusion_lon": 0.0, "is_reserved": 0}, {"lat": 38.90381683333333, "fusion_lat": 0.0, "type": "electric_scooter", "name": "a00575411959356e94148584045891a2", "is_disabled": 0, "bike_id": "a00575411959356e94148584045891a2", "lon": -77.04519, "rental_uris": {"android": "https://dc.lft.to/lastmile_qr_scan", "ios": "https://dc.lft.to/lastmile_qr_scan"}, "fusion_lon": 0.0, "is_reserved": 0}, {"lat": 38.90748516666667, "fusion_lat": 0.0, "type": "electric_scooter", "name": "e61444532b9440834269446cc12687ec", "is_disabled": 0, "bike_id": "e61444532b9440834269446cc12687ec", "lon": -77.04289866666667, "rental_uris": {"android": "https://dc.lft.to/lastmile_qr_scan", "ios": "https://dc.lft.to/lastmile_qr_scan"}, "fusion_lon": 0.0, "is_reserved": 0}, {"lat": 38.91321833333333, "fusion_lat": 0.0, "type": "electric_scooter", "name": "c817a11969b6e537b3a896dccfe7a9f3", "is_disabled": 0, "bike_id": "c817a11969b6e537b3a896dccfe7a9f3", "lon": -77.0332125, "rental_uris": {"android": "https://dc.lft.to/lastmile_qr_scan", "ios": "https://dc.lft.to/lastmile_qr_scan"}, "fusion_lon": 0.0, "is_reserved": 0}, {"lat": 38.865118, "fusion_lat": 0.0, "type": "electric_scooter", "name": "f2becfe86c8bd8269d681716066f037c", "is_disabled": 0, "bike_id": "f2becfe86c8bd8269d681716066f037c", "lon": -76.9900405, "rental_uris": {"android": "https://dc.lft.to/lastmile_qr_scan", "ios": "https://dc.lft.to/lastmile_qr_scan"}, "fusion_lon": 0.0, "is_reserved": 0}, {"lat": 38.893564166666664, "fusion_lat": 0.0, "type": "electric_bike", "name": "13054f827f33176c8062a6b7dc574487", "is_disabled": 0, "bike_id": "13054f827f33176c8062a6b7dc574487", "lon": -77.18740733333334, "rental_uris": {"android": "https://dc.lft.to/lastmile_qr_scan", "ios": "https://dc.lft.to/lastmile_qr_scan"}, "fusion_lon": 0.0, "is_reserved": 0}, {"lat": 38.906730333333336, "fusion_lat": 0.0, "type": "electric_scooter", "name": "1e2aa0259b64ac94297f904365d66c11", "is_disabled": 0, "bike_id": "1e2aa0259b64ac94297f904365d66c11", "lon": -77.02702883333333, "rental_uris": {"android": "https://dc.lft.to/lastmile_qr_scan", "ios": "https://dc.lft.to/lastmile_qr_scan"}, "fusion_lon": 0.0, "is_reserved": 0}, {"lat": 38.92333383333333, "fusion_lat": 0.0, "type": "electric_scooter", "name": "324277d19343b76728eac50420e968e7", "is_disabled": 0, "bike_id": "324277d19343b76728eac50420e968e7", "lon": -77.01900733333333, "rental_uris": {"android": "https://dc.lft.to/lastmile_qr_scan", "ios": "https://dc.lft.to/lastmile_qr_scan"}, "fusion_lon": 0.0, "is_reserved": 0}, {"lat": 38.9259765, "fusion_lat": 0.0, "type": "electric_scooter", "name": "0e3d57f386fff8b488c023fb2d65f137", "is_disabled": 0, "bike_id": "0e3d57f386fff8b488c023fb2d65f137", "lon": -77.03227416666667, "rental_uris": {"android": "https://dc.lft.to/lastmile_qr_scan", "ios": "https://dc.lft.to/lastmile_qr_scan"}, "fusion_lon": 0.0, "is_reserved": 0}, {"lat": 38.896254166666665, "fusion_lat": 0.0, "type": "electric_scooter", "name": "98a41cbd8b7627a27765f3e63d8d5737", "is_disabled": 0, "bike_id": "98a41cbd8b7627a27765f3e63d8d5737", "lon": -77.03948683333333, "rental_uris": {"android": "https://dc.lft.to/lastmile_qr_scan", "ios": "https://dc.lft.to/lastmile_qr_scan"}, "fusion_lon": 0.0, "is_reserved": 0}, {"lat": 38.9227575, "fusion_lat": 0.0, "type": "electric_scooter", "name": "12cccf7f6ef943a5c47408a05b08a79e", "is_disabled": 0, "bike_id": "12cccf7f6ef943a5c47408a05b08a79e", "lon": -77.0211575, "rental_uris": {"android": "https://dc.lft.to/lastmile_qr_scan", "ios": "https://dc.lft.to/lastmile_qr_scan"}, "fusion_lon": 0.0, "is_reserved": 0}, {"lat": 38.919335833333335, "fusion_lat": 0.0, "type": "electric_scooter", "name": "169bdf519a0fe47e1f6fffd7bbf1c935", "is_disabled": 0, "bike_id": "169bdf519a0fe47e1f6fffd7bbf1c935", "lon": -77.02088333333333, "rental_uris": {"android": "https://dc.lft.to/lastmile_qr_scan", "ios": "https://dc.lft.to/lastmile_qr_scan"}, "fusion_lon": 0.0, "is_reserved": 0}, {"lat": 38.833759666666666, "fusion_lat": 0.0, "type": "electric_bike", "name": "d385d227b66696cf52c594da328d5f8e", "is_disabled": 0, "bike_id": "d385d227b66696cf52c594da328d5f8e", "lon": -77.002926, "rental_uris": {"android": "https://dc.lft.to/lastmile_qr_scan", "ios": "https://dc.lft.to/lastmile_qr_scan"}, "fusion_lon": 0.0, "is_reserved": 0}, {"lat": 38.938838, "fusion_lat": 0.0, "type": "electric_bike", "name": "932ae618602acb5590d81453a017ebe3", "is_disabled": 0, "bike_id": "932ae618602acb5590d81453a017ebe3", "lon": -77.02932083333333, "rental_uris": {"android": "https://dc.lft.to/lastmile_qr_scan", "ios": "https://dc.lft.to/lastmile_qr_scan"}, "fusion_lon": 0.0, "is_reserved": 0}, {"lat": 38.89889633333333, "fusion_lat": 0.0, "type": "electric_scooter", "name": "87a6785e05450328e6731e9869f2ffca", "is_disabled": 0, "bike_id": "87a6785e05450328e6731e9869f2ffca", "lon": -77.00927866666666, "rental_uris": {"android": "https://dc.lft.to/lastmile_qr_scan", "ios": "https://dc.lft.to/lastmile_qr_scan"}, "fusion_lon": 0.0, "is_reserved": 0}, {"lat": 38.90317316666667, "fusion_lat": 0.0, "type": "electric_scooter", "name": "800f8bebfeffaa5289872b632af2477b", "is_disabled": 0, "bike_id": "800f8bebfeffaa5289872b632af2477b", "lon": -77.03432716666667, "rental_uris": {"android": "https://dc.lft.to/lastmile_qr_scan", "ios": "https://dc.lft.to/lastmile_qr_scan"}, "fusion_lon": 0.0, "is_reserved": 0}, {"lat": 38.877266, "fusion_lat": 0.0, "type": "electric_scooter", "name": "a603c65df6f16c590d72fc4c9e9ce56f", "is_disabled": 0, "bike_id": "a603c65df6f16c590d72fc4c9e9ce56f", "lon": -77.0034215, "rental_uris": {"android": "https://dc.lft.to/lastmile_qr_scan", "ios": "https://dc.lft.to/lastmile_qr_scan"}, "fusion_lon": 0.0, "is_reserved": 0}, {"lat": 38.93155933333333, "fusion_lat": 0.0, "type": "electric_scooter", "name": "1337330d38485ed029bf6fd769baae34", "is_disabled": 0, "bike_id": "1337330d38485ed029bf6fd769baae34", "lon": -77.03611216666667, "rental_uris": {"android": "https://dc.lft.to/lastmile_qr_scan", "ios": "https://dc.lft.to/lastmile_qr_scan"}, "fusion_lon": 0.0, "is_reserved": 0}, {"lat": 38.90007716666667, "fusion_lat": 0.0, "type": "electric_scooter", "name": "b840684c985e4a6ecbd8715437430c5f", "is_disabled": 0, "bike_id": "b840684c985e4a6ecbd8715437430c5f", "lon": -77.04011016666666, "rental_uris": {"android": "https://dc.lft.to/lastmile_qr_scan", "ios": "https://dc.lft.to/lastmile_qr_scan"}, "fusion_lon": 0.0, "is_reserved": 0}, {"lat": 38.9170925, "fusion_lat": 0.0, "type": "electric_scooter", "name": "65da6f80f9762e20f9e6eaaa0e8eb456", "is_disabled": 0, "bike_id": "65da6f80f9762e20f9e6eaaa0e8eb456", "lon": -77.04169416666667, "rental_uris": {"android": "https://dc.lft.to/lastmile_qr_scan", "ios": "https://dc.lft.to/lastmile_qr_scan"}, "fusion_lon": 0.0, "is_reserved": 0}, {"lat": 38.894918833333335, "fusion_lat": 0.0, "type": "electric_scooter", "name": "2dae89ccd35837714e483588753e8336", "is_disabled": 0, "bike_id": "2dae89ccd35837714e483588753e8336", "lon": -77.0029885, "rental_uris": {"android": "https://dc.lft.to/lastmile_qr_scan", "ios": "https://dc.lft.to/lastmile_qr_scan"}, "fusion_lon": 0.0, "is_reserved": 0}, {"lat": 38.89689283333333, "fusion_lat": 0.0, "type": "electric_scooter", "name": "651ca8361ee0cc5f09707392f78d1594", "is_disabled": 0, "bike_id": "651ca8361ee0cc5f09707392f78d1594", "lon": -77.024117, "rental_uris": {"android": "https://dc.lft.to/lastmile_qr_scan", "ios": "https://dc.lft.to/lastmile_qr_scan"}, "fusion_lon": 0.0, "is_reserved": 0}, {"lat": 38.90018416666667, "fusion_lat": 0.0, "type": "electric_scooter", "name": "6c793567681e3fa8f7204648e0f650aa", "is_disabled": 0, "bike_id": "6c793567681e3fa8f7204648e0f650aa", "lon": -77.01190483333333, "rental_uris": {"android": "https://dc.lft.to/lastmile_qr_scan", "ios": "https://dc.lft.to/lastmile_qr_scan"}, "fusion_lon": 0.0, "is_reserved": 0}, {"lat": 38.874358666666666, "fusion_lat": 0.0, "type": "electric_scooter", "name": "caed3e75fe6b51e203c11b6113a285e6", "is_disabled": 0, "bike_id": "caed3e75fe6b51e203c11b6113a285e6", "lon": -77.00034933333333, "rental_uris": {"android": "https://dc.lft.to/lastmile_qr_scan", "ios": "https://dc.lft.to/lastmile_qr_scan"}, "fusion_lon": 0.0, "is_reserved": 0}, {"lat": 38.905168, "fusion_lat": 0.0, "type": "electric_scooter", "name": "6c959d4bb94b42c854964c9f6a8fc986", "is_disabled": 0, "bike_id": "6c959d4bb94b42c854964c9f6a8fc986", "lon": -77.04141216666666, "rental_uris": {"android": "https://dc.lft.to/lastmile_qr_scan", "ios": "https://dc.lft.to/lastmile_qr_scan"}, "fusion_lon": 0.0, "is_reserved": 0}, {"lat": 38.92071033333333, "fusion_lat": 0.0, "type": "electric_bike", "name": "5a909c4bb05fbb8ad4db5eba3eb4a675", "is_disabled": 0, "bike_id": "5a909c4bb05fbb8ad4db5eba3eb4a675", "lon": -77.07449483333333, "rental_uris": {"android": "https://dc.lft.to/lastmile_qr_scan", "ios": "https://dc.lft.to/lastmile_qr_scan"}, "fusion_lon": 0.0, "is_reserved": 0}, {"lat": 38.93865016666667, "fusion_lat": 0.0, "type": "electric_scooter", "name": "63cca8939dfa088477211a5780d0380c", "is_disabled": 0, "bike_id": "63cca8939dfa088477211a5780d0380c", "lon": -77.02646583333333, "rental_uris": {"android": "https://dc.lft.to/lastmile_qr_scan", "ios": "https://dc.lft.to/lastmile_qr_scan"}, "fusion_lon": 0.0, "is_reserved": 0}, {"lat": 38.915678666666665, "fusion_lat": 0.0, "type": "electric_scooter", "name": "2b7f90b7366ef34f8b62894e14ff6f61", "is_disabled": 0, "bike_id": "2b7f90b7366ef34f8b62894e14ff6f61", "lon": -77.01197516666667, "rental_uris": {"android": "https://dc.lft.to/lastmile_qr_scan", "ios": "https://dc.lft.to/lastmile_qr_scan"}, "fusion_lon": 0.0, "is_reserved": 0}, {"lat": 38.9058625, "fusion_lat": 0.0, "type": "electric_scooter", "name": "2477b6e257bac07f5154dc56ad14ee27", "is_disabled": 0, "bike_id": "2477b6e257bac07f5154dc56ad14ee27", "lon": -77.03487083333333, "rental_uris": {"android": "https://dc.lft.to/lastmile_qr_scan", "ios": "https://dc.lft.to/lastmile_qr_scan"}, "fusion_lon": 0.0, "is_reserved": 0}, {"lat": 38.911313666666665, "fusion_lat": 0.0, "type": "electric_scooter", "name": "68b98aea71d17cef0a14bc9e437cebb7", "is_disabled": 0, "bike_id": "68b98aea71d17cef0a14bc9e437cebb7", "lon": -77.043513, "rental_uris": {"android": "https://dc.lft.to/lastmile_qr_scan", "ios": "https://dc.lft.to/lastmile_qr_scan"}, "fusion_lon": 0.0, "is_reserved": 0}, {"lat": 38.900941833333334, "fusion_lat": 0.0, "type": "electric_scooter", "name": "583af1294831330d9f26a654d6d31e63", "is_disabled": 0, "bike_id": "583af1294831330d9f26a654d6d31e63", "lon": -77.04770483333333, "rental_uris": {"android": "https://dc.lft.to/lastmile_qr_scan", "ios": "https://dc.lft.to/lastmile_qr_scan"}, "fusion_lon": 0.0, "is_reserved": 0}, {"lat": 38.87689066666667, "fusion_lat": 0.0, "type": "electric_scooter", "name": "f96b07c474745c663a6ad312658038f7", "is_disabled": 0, "bike_id": "f96b07c474745c663a6ad312658038f7", "lon": -77.00060133333334, "rental_uris": {"android": "https://dc.lft.to/lastmile_qr_scan", "ios": "https://dc.lft.to/lastmile_qr_scan"}, "fusion_lon": 0.0, "is_reserved": 0}, {"lat": 38.897022166666666, "fusion_lat": 0.0, "type": "electric_scooter", "name": "8cf2eac3663a337b850ce81991bb2616", "is_disabled": 0, "bike_id": "8cf2eac3663a337b850ce81991bb2616", "lon": -77.0502515, "rental_uris": {"android": "https://dc.lft.to/lastmile_qr_scan", "ios": "https://dc.lft.to/lastmile_qr_scan"}, "fusion_lon": 0.0, "is_reserved": 0}, {"lat": 38.892276, "fusion_lat": 0.0, "type": "electric_scooter", "name": "d813a49dd005e69a3d3624abd7074c45", "is_disabled": 0, "bike_id": "d813a49dd005e69a3d3624abd7074c45", "lon": -76.97967233333334, "rental_uris": {"android": "https://dc.lft.to/lastmile_qr_scan", "ios": "https://dc.lft.to/lastmile_qr_scan"}, "fusion_lon": 0.0, "is_reserved": 0}, {"lat": 38.894893, "fusion_lat": 0.0, "type": "electric_scooter", "name": "3fadcb6ba9a88893ae1c2bd8b71c0c66", "is_disabled": 0, "bike_id": "3fadcb6ba9a88893ae1c2bd8b71c0c66", "lon": -77.02280133333333, "rental_uris": {"android": "https://dc.lft.to/lastmile_qr_scan", "ios": "https://dc.lft.to/lastmile_qr_scan"}, "fusion_lon": 0.0, "is_reserved": 0}, {"lat": 38.923182, "fusion_lat": 0.0, "type": "electric_scooter", "name": "cdf75999cdd929100b1a1f45a2aaac21", "is_disabled": 0, "bike_id": "cdf75999cdd929100b1a1f45a2aaac21", "lon": -77.02128916666666, "rental_uris": {"android": "https://dc.lft.to/lastmile_qr_scan", "ios": "https://dc.lft.to/lastmile_qr_scan"}, "fusion_lon": 0.0, "is_reserved": 0}, {"lat": 38.89980583333333, "fusion_lat": 0.0, "type": "electric_scooter", "name": "765b156ccd5bfd1139eff3187425c32e", "is_disabled": 0, "bike_id": "765b156ccd5bfd1139eff3187425c32e", "lon": -77.04833766666667, "rental_uris": {"android": "https://dc.lft.to/lastmile_qr_scan", "ios": "https://dc.lft.to/lastmile_qr_scan"}, "fusion_lon": 0.0, "is_reserved": 0}, {"lat": 38.917001, "fusion_lat": 0.0, "type": "electric_scooter", "name": "790f4112443e63fc04b52485bc9ec675", "is_disabled": 0, "bike_id": "790f4112443e63fc04b52485bc9ec675", "lon": -77.027613, "rental_uris": {"android": "https://dc.lft.to/lastmile_qr_scan", "ios": "https://dc.lft.to/lastmile_qr_scan"}, "fusion_lon": 0.0, "is_reserved": 0}, {"lat": 38.90550416666667, "fusion_lat": 0.0, "type": "electric_scooter", "name": "6256f9b97bd1306bf062a3c574cce488", "is_disabled": 0, "bike_id": "6256f9b97bd1306bf062a3c574cce488", "lon": -77.04424566666667, "rental_uris": {"android": "https://dc.lft.to/lastmile_qr_scan", "ios": "https://dc.lft.to/lastmile_qr_scan"}, "fusion_lon": 0.0, "is_reserved": 0}, {"lat": 38.89964633333334, "fusion_lat": 0.0, "type": "electric_bike", "name": "4a004d044d2027f9c1d7178e57cec1e9", "is_disabled": 0, "bike_id": "4a004d044d2027f9c1d7178e57cec1e9", "lon": -77.04815233333333, "rental_uris": {"android": "https://dc.lft.to/lastmile_qr_scan", "ios": "https://dc.lft.to/lastmile_qr_scan"}, "fusion_lon": 0.0, "is_reserved": 0}, {"lat": 38.93749, "fusion_lat": 0.0, "type": "electric_scooter", "name": "6dd7dc2b3ae8713b0fce0c8a2774dc7b", "is_disabled": 0, "bike_id": "6dd7dc2b3ae8713b0fce0c8a2774dc7b", "lon": -77.08573716666666, "rental_uris": {"android": "https://dc.lft.to/lastmile_qr_scan", "ios": "https://dc.lft.to/lastmile_qr_scan"}, "fusion_lon": 0.0, "is_reserved": 0}, {"lat": 38.91268016666667, "fusion_lat": 0.0, "type": "electric_scooter", "name": "a4819286628c4cb64c552a98e8cfed66", "is_disabled": 0, "bike_id": "a4819286628c4cb64c552a98e8cfed66", "lon": -77.033509, "rental_uris": {"android": "https://dc.lft.to/lastmile_qr_scan", "ios": "https://dc.lft.to/lastmile_qr_scan"}, "fusion_lon": 0.0, "is_reserved": 0}, {"lat": 38.881195166666664, "fusion_lat": 0.0, "type": "electric_scooter", "name": "dc6f450ae4a8f69ed0538bdb5dcb75c1", "is_disabled": 0, "bike_id": "dc6f450ae4a8f69ed0538bdb5dcb75c1", "lon": -76.98706333333334, "rental_uris": {"android": "https://dc.lft.to/lastmile_qr_scan", "ios": "https://dc.lft.to/lastmile_qr_scan"}, "fusion_lon": 0.0, "is_reserved": 0}, {"lat": 38.996214333333334, "fusion_lat": 0.0, "type": "electric_bike", "name": "bd217ee3915745fbef0bb96c0d0251ce", "is_disabled": 0, "bike_id": "bd217ee3915745fbef0bb96c0d0251ce", "lon": -77.03978266666667, "rental_uris": {"android": "https://dc.lft.to/lastmile_qr_scan", "ios": "https://dc.lft.to/lastmile_qr_scan"}, "fusion_lon": 0.0, "is_reserved": 0}, {"lat": 38.91649233333333, "fusion_lat": 0.0, "type": "electric_scooter", "name": "4c53e9d38a8b8584738c841acb803d0e", "is_disabled": 0, "bike_id": "4c53e9d38a8b8584738c841acb803d0e", "lon": -77.02807616666666, "rental_uris": {"android": "https://dc.lft.to/lastmile_qr_scan", "ios": "https://dc.lft.to/lastmile_qr_scan"}, "fusion_lon": 0.0, "is_reserved": 0}, {"lat": 38.87771866666667, "fusion_lat": 0.0, "type": "electric_scooter", "name": "49707eab4127b4d4d71b29e0b695a5d3", "is_disabled": 0, "bike_id": "49707eab4127b4d4d71b29e0b695a5d3", "lon": -77.006818, "rental_uris": {"android": "https://dc.lft.to/lastmile_qr_scan", "ios": "https://dc.lft.to/lastmile_qr_scan"}, "fusion_lon": 0.0, "is_reserved": 0}, {"lat": 38.901376666666664, "fusion_lat": 0.0, "type": "electric_scooter", "name": "79e4a52e1016bf5c3583039f2cf3b91d", "is_disabled": 0, "bike_id": "79e4a52e1016bf5c3583039f2cf3b91d", "lon": -77.0319805, "rental_uris": {"android": "https://dc.lft.to/lastmile_qr_scan", "ios": "https://dc.lft.to/lastmile_qr_scan"}, "fusion_lon": 0.0, "is_reserved": 0}, {"lat": 38.91112533333333, "fusion_lat": 0.0, "type": "electric_scooter", "name": "5af7757a8676cd1ce97eb57a803d39aa", "is_disabled": 0, "bike_id": "5af7757a8676cd1ce97eb57a803d39aa", "lon": -77.03835616666667, "rental_uris": {"android": "https://dc.lft.to/lastmile_qr_scan", "ios": "https://dc.lft.to/lastmile_qr_scan"}, "fusion_lon": 0.0, "is_reserved": 0}, {"lat": 38.9229765, "fusion_lat": 0.0, "type": "electric_scooter", "name": "5adf9c4a643d84161beb260d0524b321", "is_disabled": 0, "bike_id": "5adf9c4a643d84161beb260d0524b321", "lon": -77.02524133333333, "rental_uris": {"android": "https://dc.lft.to/lastmile_qr_scan", "ios": "https://dc.lft.to/lastmile_qr_scan"}, "fusion_lon": 0.0, "is_reserved": 0}, {"lat": 38.92084583333333, "fusion_lat": 0.0, "type": "electric_scooter", "name": "613fd37b8323f8391c343c53879178db", "is_disabled": 0, "bike_id": "613fd37b8323f8391c343c53879178db", "lon": -77.02292316666667, "rental_uris": {"android": "https://dc.lft.to/lastmile_qr_scan", "ios": "https://dc.lft.to/lastmile_qr_scan"}, "fusion_lon": 0.0, "is_reserved": 0}, {"lat": 38.86562933333333, "fusion_lat": 0.0, "type": "electric_scooter", "name": "1eb3670e8ad65573e45c5f5f82505c22", "is_disabled": 0, "bike_id": "1eb3670e8ad65573e45c5f5f82505c22", "lon": -76.98337166666667, "rental_uris": {"android": "https://dc.lft.to/lastmile_qr_scan", "ios": "https://dc.lft.to/lastmile_qr_scan"}, "fusion_lon": 0.0, "is_reserved": 0}, {"lat": 38.904764166666666, "fusion_lat": 0.0, "type": "electric_bike", "name": "c0630ef4931ac326026edd5a657b34ed", "is_disabled": 0, "bike_id": "c0630ef4931ac326026edd5a657b34ed", "lon": -77.05487583333333, "rental_uris": {"android": "https://dc.lft.to/lastmile_qr_scan", "ios": "https://dc.lft.to/lastmile_qr_scan"}, "fusion_lon": 0.0, "is_reserved": 0}, {"lat": 38.90295166666667, "fusion_lat": 0.0, "type": "electric_scooter", "name": "08239d64c149e40db3e36927a71105a6", "is_disabled": 0, "bike_id": "08239d64c149e40db3e36927a71105a6", "lon": -77.034184, "rental_uris": {"android": "https://dc.lft.to/lastmile_qr_scan", "ios": "https://dc.lft.to/lastmile_qr_scan"}, "fusion_lon": 0.0, "is_reserved": 0}, {"lat": 38.9147175, "fusion_lat": 0.0, "type": "electric_scooter", "name": "3d30711254f0868173a7b7baf65aa20a", "is_disabled": 0, "bike_id": "3d30711254f0868173a7b7baf65aa20a", "lon": -77.01428033333333, "rental_uris": {"android": "https://dc.lft.to/lastmile_qr_scan", "ios": "https://dc.lft.to/lastmile_qr_scan"}, "fusion_lon": 0.0, "is_reserved": 0}, {"lat": 38.89222983333333, "fusion_lat": 0.0, "type": "electric_scooter", "name": "b9e89faef2d8fba517bd7308b91d7491", "is_disabled": 0, "bike_id": "b9e89faef2d8fba517bd7308b91d7491", "lon": -77.045152, "rental_uris": {"android": "https://dc.lft.to/lastmile_qr_scan", "ios": "https://dc.lft.to/lastmile_qr_scan"}, "fusion_lon": 0.0, "is_reserved": 0}, {"lat": 38.8922395, "fusion_lat": 0.0, "type": "electric_scooter", "name": "0aa4cf44a96b449f77e90aded7e0ad62", "is_disabled": 0, "bike_id": "0aa4cf44a96b449f77e90aded7e0ad62", "lon": -77.04690966666666, "rental_uris": {"android": "https://dc.lft.to/lastmile_qr_scan", "ios": "https://dc.lft.to/lastmile_qr_scan"}, "fusion_lon": 0.0, "is_reserved": 0}, {"lat": 38.90435683333333, "fusion_lat": 0.0, "type": "electric_scooter", "name": "35c1db6305cd5bd65f5f8991bc45583a", "is_disabled": 0, "bike_id": "35c1db6305cd5bd65f5f8991bc45583a", "lon": -77.031346, "rental_uris": {"android": "https://dc.lft.to/lastmile_qr_scan", "ios": "https://dc.lft.to/lastmile_qr_scan"}, "fusion_lon": 0.0, "is_reserved": 0}, {"lat": 38.87469216666667, "fusion_lat": 0.0, "type": "electric_scooter", "name": "57434b9898b420924c53b18ede699c1e", "is_disabled": 0, "bike_id": "57434b9898b420924c53b18ede699c1e", "lon": -77.004884, "rental_uris": {"android": "https://dc.lft.to/lastmile_qr_scan", "ios": "https://dc.lft.to/lastmile_qr_scan"}, "fusion_lon": 0.0, "is_reserved": 0}, {"lat": 38.920899166666665, "fusion_lat": 0.0, "type": "electric_scooter", "name": "6abda65ff722bd37521550ac4ce488d7", "is_disabled": 0, "bike_id": "6abda65ff722bd37521550ac4ce488d7", "lon": -77.02039783333333, "rental_uris": {"android": "https://dc.lft.to/lastmile_qr_scan", "ios": "https://dc.lft.to/lastmile_qr_scan"}, "fusion_lon": 0.0, "is_reserved": 0}, {"lat": 38.92745383333333, "fusion_lat": 0.0, "type": "electric_bike", "name": "8836c816268cd506fc0fd7583dc6239f", "is_disabled": 0, "bike_id": "8836c816268cd506fc0fd7583dc6239f", "lon": -77.03634883333334, "rental_uris": {"android": "https://dc.lft.to/lastmile_qr_scan", "ios": "https://dc.lft.to/lastmile_qr_scan"}, "fusion_lon": 0.0, "is_reserved": 0}, {"lat": 38.90022966666667, "fusion_lat": 0.0, "type": "electric_scooter", "name": "0a654d6f8f69be617db5e80c1b909039", "is_disabled": 0, "bike_id": "0a654d6f8f69be617db5e80c1b909039", "lon": -77.00026933333334, "rental_uris": {"android": "https://dc.lft.to/lastmile_qr_scan", "ios": "https://dc.lft.to/lastmile_qr_scan"}, "fusion_lon": 0.0, "is_reserved": 0}, {"lat": 38.897448, "fusion_lat": 0.0, "type": "electric_scooter", "name": "20f02f6c92310ecb2b39e0b48eb40fef", "is_disabled": 0, "bike_id": "20f02f6c92310ecb2b39e0b48eb40fef", "lon": -77.00951283333333, "rental_uris": {"android": "https://dc.lft.to/lastmile_qr_scan", "ios": "https://dc.lft.to/lastmile_qr_scan"}, "fusion_lon": 0.0, "is_reserved": 0}, {"lat": 38.922672666666664, "fusion_lat": 0.0, "type": "electric_scooter", "name": "91a90db456aa73713a0033e0b760b971", "is_disabled": 0, "bike_id": "91a90db456aa73713a0033e0b760b971", "lon": -77.024361, "rental_uris": {"android": "https://dc.lft.to/lastmile_qr_scan", "ios": "https://dc.lft.to/lastmile_qr_scan"}, "fusion_lon": 0.0, "is_reserved": 0}, {"lat": 38.90420183333333, "fusion_lat": 0.0, "type": "electric_scooter", "name": "8201a6d37947eda8e85603ff8a4084ea", "is_disabled": 0, "bike_id": "8201a6d37947eda8e85603ff8a4084ea", "lon": -77.04339283333333, "rental_uris": {"android": "https://dc.lft.to/lastmile_qr_scan", "ios": "https://dc.lft.to/lastmile_qr_scan"}, "fusion_lon": 0.0, "is_reserved": 0}, {"lat": 38.9573945, "fusion_lat": 0.0, "type": "electric_scooter", "name": "3481b95f8ab38ce7226d8ae81322f21c", "is_disabled": 0, "bike_id": "3481b95f8ab38ce7226d8ae81322f21c", "lon": -77.00221183333333, "rental_uris": {"android": "https://dc.lft.to/lastmile_qr_scan", "ios": "https://dc.lft.to/lastmile_qr_scan"}, "fusion_lon": 0.0, "is_reserved": 0}, {"lat": 38.9205015, "fusion_lat": 0.0, "type": "electric_scooter", "name": "972d649d61ef40672d3a06e35c679ff9", "is_disabled": 0, "bike_id": "972d649d61ef40672d3a06e35c679ff9", "lon": -77.04187366666666, "rental_uris": {"android": "https://dc.lft.to/lastmile_qr_scan", "ios": "https://dc.lft.to/lastmile_qr_scan"}, "fusion_lon": 0.0, "is_reserved": 0}, {"lat": 38.9397005, "fusion_lat": 0.0, "type": "electric_scooter", "name": "4430f8f6c7efd9aa47b75d4a6589ee35", "is_disabled": 0, "bike_id": "4430f8f6c7efd9aa47b75d4a6589ee35", "lon": -77.02477083333333, "rental_uris": {"android": "https://dc.lft.to/lastmile_qr_scan", "ios": "https://dc.lft.to/lastmile_qr_scan"}, "fusion_lon": 0.0, "is_reserved": 0}, {"lat": 38.91850683333333, "fusion_lat": 0.0, "type": "electric_scooter", "name": "c90eb8645be2ae1038c58dce94fc9f8b", "is_disabled": 0, "bike_id": "c90eb8645be2ae1038c58dce94fc9f8b", "lon": -77.06196133333333, "rental_uris": {"android": "https://dc.lft.to/lastmile_qr_scan", "ios": "https://dc.lft.to/lastmile_qr_scan"}, "fusion_lon": 0.0, "is_reserved": 0}, {"lat": 38.942527166666665, "fusion_lat": 0.0, "type": "electric_scooter", "name": "e5b44b8f3660a4418142f16256b7369d", "is_disabled": 0, "bike_id": "e5b44b8f3660a4418142f16256b7369d", "lon": -77.0905445, "rental_uris": {"android": "https://dc.lft.to/lastmile_qr_scan", "ios": "https://dc.lft.to/lastmile_qr_scan"}, "fusion_lon": 0.0, "is_reserved": 0}, {"lat": 38.926773, "fusion_lat": 0.0, "type": "electric_scooter", "name": "6993af5a605da60086e341f8ec0615c4", "is_disabled": 0, "bike_id": "6993af5a605da60086e341f8ec0615c4", "lon": -77.026883, "rental_uris": {"android": "https://dc.lft.to/lastmile_qr_scan", "ios": "https://dc.lft.to/lastmile_qr_scan"}, "fusion_lon": 0.0, "is_reserved": 0}, {"lat": 38.92477016666667, "fusion_lat": 0.0, "type": "electric_scooter", "name": "eb3a35c5517c561d1a3e43133a982482", "is_disabled": 0, "bike_id": "eb3a35c5517c561d1a3e43133a982482", "lon": -77.02235916666666, "rental_uris": {"android": "https://dc.lft.to/lastmile_qr_scan", "ios": "https://dc.lft.to/lastmile_qr_scan"}, "fusion_lon": 0.0, "is_reserved": 0}, {"lat": 38.86687633333333, "fusion_lat": 0.0, "type": "electric_scooter", "name": "db3fd9ba4e2993dba60452d1f7dc3f81", "is_disabled": 0, "bike_id": "db3fd9ba4e2993dba60452d1f7dc3f81", "lon": -76.98539083333333, "rental_uris": {"android": "https://dc.lft.to/lastmile_qr_scan", "ios": "https://dc.lft.to/lastmile_qr_scan"}, "fusion_lon": 0.0, "is_reserved": 0}, {"lat": 38.892312833333335, "fusion_lat": 0.0, "type": "electric_scooter", "name": "e62948f2af59830bb8f0df492a7f3375", "is_disabled": 0, "bike_id": "e62948f2af59830bb8f0df492a7f3375", "lon": -77.0238645, "rental_uris": {"android": "https://dc.lft.to/lastmile_qr_scan", "ios": "https://dc.lft.to/lastmile_qr_scan"}, "fusion_lon": 0.0, "is_reserved": 0}, {"lat": 38.92464116666667, "fusion_lat": 0.0, "type": "electric_scooter", "name": "d8c39b22c29bc6030eb06e8acc0b065b", "is_disabled": 0, "bike_id": "d8c39b22c29bc6030eb06e8acc0b065b", "lon": -77.05229383333334, "rental_uris": {"android": "https://dc.lft.to/lastmile_qr_scan", "ios": "https://dc.lft.to/lastmile_qr_scan"}, "fusion_lon": 0.0, "is_reserved": 0}, {"lat": 38.83551883333333, "fusion_lat": 0.0, "type": "electric_bike", "name": "efee0008b94c0ead4749ecac54defb3d", "is_disabled": 0, "bike_id": "efee0008b94c0ead4749ecac54defb3d", "lon": -76.9872205, "rental_uris": {"android": "https://dc.lft.to/lastmile_qr_scan", "ios": "https://dc.lft.to/lastmile_qr_scan"}, "fusion_lon": 0.0, "is_reserved": 0}, {"lat": 38.94982666666667, "fusion_lat": 0.0, "type": "electric_scooter", "name": "20a5508ff6e70dfbb7775b86953ef8f3", "is_disabled": 0, "bike_id": "20a5508ff6e70dfbb7775b86953ef8f3", "lon": -77.0269935, "rental_uris": {"android": "https://dc.lft.to/lastmile_qr_scan", "ios": "https://dc.lft.to/lastmile_qr_scan"}, "fusion_lon": 0.0, "is_reserved": 0}, {"lat": 38.8972985, "fusion_lat": 0.0, "type": "electric_scooter", "name": "3cb0302d89b573d70150040b8dd73e3d", "is_disabled": 0, "bike_id": "3cb0302d89b573d70150040b8dd73e3d", "lon": -77.02272783333333, "rental_uris": {"android": "https://dc.lft.to/lastmile_qr_scan", "ios": "https://dc.lft.to/lastmile_qr_scan"}, "fusion_lon": 0.0, "is_reserved": 0}, {"lat": 38.8922585, "fusion_lat": 0.0, "type": "electric_scooter", "name": "c81c5e502f5e750f4151aede59563d68", "is_disabled": 0, "bike_id": "c81c5e502f5e750f4151aede59563d68", "lon": -77.041957, "rental_uris": {"android": "https://dc.lft.to/lastmile_qr_scan", "ios": "https://dc.lft.to/lastmile_qr_scan"}, "fusion_lon": 0.0, "is_reserved": 0}, {"lat": 38.911168333333336, "fusion_lat": 0.0, "type": "electric_scooter", "name": "1f0e7e1c8cbe677ce10006b15086f51b", "is_disabled": 0, "bike_id": "1f0e7e1c8cbe677ce10006b15086f51b", "lon": -77.03922766666666, "rental_uris": {"android": "https://dc.lft.to/lastmile_qr_scan", "ios": "https://dc.lft.to/lastmile_qr_scan"}, "fusion_lon": 0.0, "is_reserved": 0}, {"lat": 38.946192333333336, "fusion_lat": 0.0, "type": "electric_bike", "name": "4b08110874d8ef45f633cf86c6bdf015", "is_disabled": 0, "bike_id": "4b08110874d8ef45f633cf86c6bdf015", "lon": -77.09669866666667, "rental_uris": {"android": "https://dc.lft.to/lastmile_qr_scan", "ios": "https://dc.lft.to/lastmile_qr_scan"}, "fusion_lon": 0.0, "is_reserved": 0}, {"lat": 38.88715233333333, "fusion_lat": 0.0, "type": "electric_scooter", "name": "c78438fb7af273a03305a70c01f7a2c2", "is_disabled": 0, "bike_id": "c78438fb7af273a03305a70c01f7a2c2", "lon": -77.01778116666667, "rental_uris": {"android": "https://dc.lft.to/lastmile_qr_scan", "ios": "https://dc.lft.to/lastmile_qr_scan"}, "fusion_lon": 0.0, "is_reserved": 0}, {"lat": 38.933654, "fusion_lat": 0.0, "type": "electric_scooter", "name": "9b563ea1e383ddc82627f5843a45a7ff", "is_disabled": 0, "bike_id": "9b563ea1e383ddc82627f5843a45a7ff", "lon": -77.05729483333333, "rental_uris": {"android": "https://dc.lft.to/lastmile_qr_scan", "ios": "https://dc.lft.to/lastmile_qr_scan"}, "fusion_lon": 0.0, "is_reserved": 0}, {"lat": 38.900859833333335, "fusion_lat": 0.0, "type": "electric_scooter", "name": "b879a730b15e3a3ebc51ee982b558eb5", "is_disabled": 0, "bike_id": "b879a730b15e3a3ebc51ee982b558eb5", "lon": -77.03958016666667, "rental_uris": {"android": "https://dc.lft.to/lastmile_qr_scan", "ios": "https://dc.lft.to/lastmile_qr_scan"}, "fusion_lon": 0.0, "is_reserved": 0}, {"lat": 38.89857816666667, "fusion_lat": 0.0, "type": "electric_scooter", "name": "fb03a37eb0036c1d544c9e47d15e556d", "is_disabled": 0, "bike_id": "fb03a37eb0036c1d544c9e47d15e556d", "lon": -77.00735666666667, "rental_uris": {"android": "https://dc.lft.to/lastmile_qr_scan", "ios": "https://dc.lft.to/lastmile_qr_scan"}, "fusion_lon": 0.0, "is_reserved": 0}, {"lat": 38.895474, "fusion_lat": 0.0, "type": "electric_scooter", "name": "82a0b89fed864d65c756c9ec150f3011", "is_disabled": 0, "bike_id": "82a0b89fed864d65c756c9ec150f3011", "lon": -76.98339233333333, "rental_uris": {"android": "https://dc.lft.to/lastmile_qr_scan", "ios": "https://dc.lft.to/lastmile_qr_scan"}, "fusion_lon": 0.0, "is_reserved": 0}, {"lat": 38.92705016666667, "fusion_lat": 0.0, "type": "electric_scooter", "name": "ed698b45dc2f35f0ff9ce871c89c5334", "is_disabled": 0, "bike_id": "ed698b45dc2f35f0ff9ce871c89c5334", "lon": -77.03785766666667, "rental_uris": {"android": "https://dc.lft.to/lastmile_qr_scan", "ios": "https://dc.lft.to/lastmile_qr_scan"}, "fusion_lon": 0.0, "is_reserved": 0}, {"lat": 38.900391, "fusion_lat": 0.0, "type": "electric_scooter", "name": "8d3e024886daf36962a71829e32f3d22", "is_disabled": 0, "bike_id": "8d3e024886daf36962a71829e32f3d22", "lon": -77.00187616666666, "rental_uris": {"android": "https://dc.lft.to/lastmile_qr_scan", "ios": "https://dc.lft.to/lastmile_qr_scan"}, "fusion_lon": 0.0, "is_reserved": 0}, {"lat": 38.860080833333335, "fusion_lat": 0.0, "type": "electric_scooter", "name": "1a21116c22ffb261cb4d015ce4a0a2a7", "is_disabled": 0, "bike_id": "1a21116c22ffb261cb4d015ce4a0a2a7", "lon": -76.99653483333333, "rental_uris": {"android": "https://dc.lft.to/lastmile_qr_scan", "ios": "https://dc.lft.to/lastmile_qr_scan"}, "fusion_lon": 0.0, "is_reserved": 0}, {"lat": 38.923611666666666, "fusion_lat": 0.0, "type": "electric_scooter", "name": "decd09aebef38b35afc107de238b6f2a", "is_disabled": 0, "bike_id": "decd09aebef38b35afc107de238b6f2a", "lon": -77.0510455, "rental_uris": {"android": "https://dc.lft.to/lastmile_qr_scan", "ios": "https://dc.lft.to/lastmile_qr_scan"}, "fusion_lon": 0.0, "is_reserved": 0}, {"lat": 38.89080716666667, "fusion_lat": 0.0, "type": "electric_scooter", "name": "25aa47f74db7f2f543f267e7288787dc", "is_disabled": 0, "bike_id": "25aa47f74db7f2f543f267e7288787dc", "lon": -76.98822016666666, "rental_uris": {"android": "https://dc.lft.to/lastmile_qr_scan", "ios": "https://dc.lft.to/lastmile_qr_scan"}, "fusion_lon": 0.0, "is_reserved": 0}, {"lat": 38.86242216666667, "fusion_lat": 0.0, "type": "electric_scooter", "name": "3e0f08a90e521a09eff3052428c934f2", "is_disabled": 0, "bike_id": "3e0f08a90e521a09eff3052428c934f2", "lon": -76.99492933333333, "rental_uris": {"android": "https://dc.lft.to/lastmile_qr_scan", "ios": "https://dc.lft.to/lastmile_qr_scan"}, "fusion_lon": 0.0, "is_reserved": 0}, {"lat": 38.876600833333335, "fusion_lat": 0.0, "type": "electric_scooter", "name": "dfaacfd86bf074e467733bc5cb547347", "is_disabled": 0, "bike_id": "dfaacfd86bf074e467733bc5cb547347", "lon": -77.004586, "rental_uris": {"android": "https://dc.lft.to/lastmile_qr_scan", "ios": "https://dc.lft.to/lastmile_qr_scan"}, "fusion_lon": 0.0, "is_reserved": 0}, {"lat": 38.92845833333333, "fusion_lat": 0.0, "type": "electric_scooter", "name": "568521cb415bc082c0bdef535908adf8", "is_disabled": 0, "bike_id": "568521cb415bc082c0bdef535908adf8", "lon": -77.02606133333333, "rental_uris": {"android": "https://dc.lft.to/lastmile_qr_scan", "ios": "https://dc.lft.to/lastmile_qr_scan"}, "fusion_lon": 0.0, "is_reserved": 0}, {"lat": 38.90141116666667, "fusion_lat": 0.0, "type": "electric_scooter", "name": "088e9ca0ad733dec2df778cd336f8a22", "is_disabled": 0, "bike_id": "088e9ca0ad733dec2df778cd336f8a22", "lon": -77.03624833333333, "rental_uris": {"android": "https://dc.lft.to/lastmile_qr_scan", "ios": "https://dc.lft.to/lastmile_qr_scan"}, "fusion_lon": 0.0, "is_reserved": 0}, {"lat": 38.875493166666665, "fusion_lat": 0.0, "type": "electric_scooter", "name": "7776ae24e27ad52b7c65294bd4bf6c7f", "is_disabled": 0, "bike_id": "7776ae24e27ad52b7c65294bd4bf6c7f", "lon": -77.00076883333334, "rental_uris": {"android": "https://dc.lft.to/lastmile_qr_scan", "ios": "https://dc.lft.to/lastmile_qr_scan"}, "fusion_lon": 0.0, "is_reserved": 0}, {"lat": 38.894850166666664, "fusion_lat": 0.0, "type": "electric_scooter", "name": "aef0f54b30bd5a9140afb40eb66377d8", "is_disabled": 0, "bike_id": "aef0f54b30bd5a9140afb40eb66377d8", "lon": -77.00224083333333, "rental_uris": {"android": "https://dc.lft.to/lastmile_qr_scan", "ios": "https://dc.lft.to/lastmile_qr_scan"}, "fusion_lon": 0.0, "is_reserved": 0}, {"lat": 38.8825945, "fusion_lat": 0.0, "type": "electric_scooter", "name": "b2120e1ef00b3876b2cc7a081cbb529d", "is_disabled": 0, "bike_id": "b2120e1ef00b3876b2cc7a081cbb529d", "lon": -76.935568, "rental_uris": {"android": "https://dc.lft.to/lastmile_qr_scan", "ios": "https://dc.lft.to/lastmile_qr_scan"}, "fusion_lon": 0.0, "is_reserved": 0}, {"lat": 38.941864333333335, "fusion_lat": 0.0, "type": "electric_scooter", "name": "66fd97478618d2bcf2a4dd2202127fa7", "is_disabled": 0, "bike_id": "66fd97478618d2bcf2a4dd2202127fa7", "lon": -77.02483883333333, "rental_uris": {"android": "https://dc.lft.to/lastmile_qr_scan", "ios": "https://dc.lft.to/lastmile_qr_scan"}, "fusion_lon": 0.0, "is_reserved": 0}, {"lat": 38.884051666666664, "fusion_lat": 0.0, "type": "electric_scooter", "name": "078dc79e2b54a7a14528bda8020874bb", "is_disabled": 0, "bike_id": "078dc79e2b54a7a14528bda8020874bb", "lon": -76.985856, "rental_uris": {"android": "https://dc.lft.to/lastmile_qr_scan", "ios": "https://dc.lft.to/lastmile_qr_scan"}, "fusion_lon": 0.0, "is_reserved": 0}, {"lat": 38.89518483333333, "fusion_lat": 0.0, "type": "electric_scooter", "name": "a1ccedf36981f1189920c8e4b7516df5", "is_disabled": 0, "bike_id": "a1ccedf36981f1189920c8e4b7516df5", "lon": -77.00205066666666, "rental_uris": {"android": "https://dc.lft.to/lastmile_qr_scan", "ios": "https://dc.lft.to/lastmile_qr_scan"}, "fusion_lon": 0.0, "is_reserved": 0}, {"lat": 38.93522866666667, "fusion_lat": 0.0, "type": "electric_scooter", "name": "2e51dc1497115a56cb22c1c9a4b5d476", "is_disabled": 0, "bike_id": "2e51dc1497115a56cb22c1c9a4b5d476", "lon": -77.0869955, "rental_uris": {"android": "https://dc.lft.to/lastmile_qr_scan", "ios": "https://dc.lft.to/lastmile_qr_scan"}, "fusion_lon": 0.0, "is_reserved": 0}, {"lat": 38.90835383333334, "fusion_lat": 0.0, "type": "electric_scooter", "name": "b137869ab2990370e8eb0c52bd5ecdd9", "is_disabled": 0, "bike_id": "b137869ab2990370e8eb0c52bd5ecdd9", "lon": -77.036698, "rental_uris": {"android": "https://dc.lft.to/lastmile_qr_scan", "ios": "https://dc.lft.to/lastmile_qr_scan"}, "fusion_lon": 0.0, "is_reserved": 0}, {"lat": 38.92871733333333, "fusion_lat": 0.0, "type": "electric_scooter", "name": "ef210475331c347e01c06f6634e0a82d", "is_disabled": 0, "bike_id": "ef210475331c347e01c06f6634e0a82d", "lon": -77.023275, "rental_uris": {"android": "https://dc.lft.to/lastmile_qr_scan", "ios": "https://dc.lft.to/lastmile_qr_scan"}, "fusion_lon": 0.0, "is_reserved": 0}, {"lat": 38.88469, "fusion_lat": 0.0, "type": "electric_scooter", "name": "774046ca827c2d431d8654f7c79b9eb2", "is_disabled": 0, "bike_id": "774046ca827c2d431d8654f7c79b9eb2", "lon": -76.949827, "rental_uris": {"android": "https://dc.lft.to/lastmile_qr_scan", "ios": "https://dc.lft.to/lastmile_qr_scan"}, "fusion_lon": 0.0, "is_reserved": 0}, {"lat": 38.9248495, "fusion_lat": 0.0, "type": "electric_scooter", "name": "1d2f4b2f9fc4bd35948b679d907bb00e", "is_disabled": 0, "bike_id": "1d2f4b2f9fc4bd35948b679d907bb00e", "lon": -77.03178916666667, "rental_uris": {"android": "https://dc.lft.to/lastmile_qr_scan", "ios": "https://dc.lft.to/lastmile_qr_scan"}, "fusion_lon": 0.0, "is_reserved": 0}, {"lat": 38.913640666666666, "fusion_lat": 0.0, "type": "electric_scooter", "name": "9ea70b245d3dcbbb4be811ab63ca9cb8", "is_disabled": 0, "bike_id": "9ea70b245d3dcbbb4be811ab63ca9cb8", "lon": -77.07225466666667, "rental_uris": {"android": "https://dc.lft.to/lastmile_qr_scan", "ios": "https://dc.lft.to/lastmile_qr_scan"}, "fusion_lon": 0.0, "is_reserved": 0}, {"lat": 38.899092333333336, "fusion_lat": 0.0, "type": "electric_scooter", "name": "fcd50d5700e50d07b6b6c90e852503ec", "is_disabled": 0, "bike_id": "fcd50d5700e50d07b6b6c90e852503ec", "lon": -77.02820283333334, "rental_uris": {"android": "https://dc.lft.to/lastmile_qr_scan", "ios": "https://dc.lft.to/lastmile_qr_scan"}, "fusion_lon": 0.0, "is_reserved": 0}, {"lat": 38.906425, "fusion_lat": 0.0, "type": "electric_scooter", "name": "064fa594749ae393a7a90a953b578ddf", "is_disabled": 0, "bike_id": "064fa594749ae393a7a90a953b578ddf", "lon": -77.00587566666667, "rental_uris": {"android": "https://dc.lft.to/lastmile_qr_scan", "ios": "https://dc.lft.to/lastmile_qr_scan"}, "fusion_lon": 0.0, "is_reserved": 0}, {"lat": 38.94461016666666, "fusion_lat": 0.0, "type": "electric_scooter", "name": "0b915eb6121ed4cae8e0fb6b47b4e2bf", "is_disabled": 0, "bike_id": "0b915eb6121ed4cae8e0fb6b47b4e2bf", "lon": -77.06416433333334, "rental_uris": {"android": "https://dc.lft.to/lastmile_qr_scan", "ios": "https://dc.lft.to/lastmile_qr_scan"}, "fusion_lon": 0.0, "is_reserved": 0}, {"lat": 38.9171825, "fusion_lat": 0.0, "type": "electric_scooter", "name": "e20a5f15d4c4238a79ada505277085bd", "is_disabled": 0, "bike_id": "e20a5f15d4c4238a79ada505277085bd", "lon": -77.040832, "rental_uris": {"android": "https://dc.lft.to/lastmile_qr_scan", "ios": "https://dc.lft.to/lastmile_qr_scan"}, "fusion_lon": 0.0, "is_reserved": 0}, {"lat": 38.91754983333333, "fusion_lat": 0.0, "type": "electric_scooter", "name": "1aa259f4da77d12fbe4c17aa933be405", "is_disabled": 0, "bike_id": "1aa259f4da77d12fbe4c17aa933be405", "lon": -77.02805933333333, "rental_uris": {"android": "https://dc.lft.to/lastmile_qr_scan", "ios": "https://dc.lft.to/lastmile_qr_scan"}, "fusion_lon": 0.0, "is_reserved": 0}, {"lat": 38.90393183333333, "fusion_lat": 0.0, "type": "electric_scooter", "name": "0c07ace211a8dc56b8b24ed2975963f5", "is_disabled": 0, "bike_id": "0c07ace211a8dc56b8b24ed2975963f5", "lon": -77.03452233333333, "rental_uris": {"android": "https://dc.lft.to/lastmile_qr_scan", "ios": "https://dc.lft.to/lastmile_qr_scan"}, "fusion_lon": 0.0, "is_reserved": 0}, {"lat": 38.92349383333333, "fusion_lat": 0.0, "type": "electric_scooter", "name": "914757fbbcb9dccda80b5663ac784c7b", "is_disabled": 0, "bike_id": "914757fbbcb9dccda80b5663ac784c7b", "lon": -77.03498416666666, "rental_uris": {"android": "https://dc.lft.to/lastmile_qr_scan", "ios": "https://dc.lft.to/lastmile_qr_scan"}, "fusion_lon": 0.0, "is_reserved": 0}, {"lat": 38.898944, "fusion_lat": 0.0, "type": "electric_scooter", "name": "4842a1b2b1195f6e61b1416851224775", "is_disabled": 0, "bike_id": "4842a1b2b1195f6e61b1416851224775", "lon": -76.93396216666666, "rental_uris": {"android": "https://dc.lft.to/lastmile_qr_scan", "ios": "https://dc.lft.to/lastmile_qr_scan"}, "fusion_lon": 0.0, "is_reserved": 0}, {"lat": 38.90823316666667, "fusion_lat": 0.0, "type": "electric_scooter", "name": "98f9105133dc1b0d4e7c8efab44290af", "is_disabled": 0, "bike_id": "98f9105133dc1b0d4e7c8efab44290af", "lon": -77.03896316666666, "rental_uris": {"android": "https://dc.lft.to/lastmile_qr_scan", "ios": "https://dc.lft.to/lastmile_qr_scan"}, "fusion_lon": 0.0, "is_reserved": 0}, {"lat": 38.8988545, "fusion_lat": 0.0, "type": "electric_scooter", "name": "a2349fd946f1d6403f554908e34c7f8a", "is_disabled": 0, "bike_id": "a2349fd946f1d6403f554908e34c7f8a", "lon": -77.04653066666667, "rental_uris": {"android": "https://dc.lft.to/lastmile_qr_scan", "ios": "https://dc.lft.to/lastmile_qr_scan"}, "fusion_lon": 0.0, "is_reserved": 0}, {"lat": 38.99485333333333, "fusion_lat": 0.0, "type": "electric_bike", "name": "e68f1bde948b38af75818ee5a585b01a", "is_disabled": 0, "bike_id": "e68f1bde948b38af75818ee5a585b01a", "lon": -77.02898566666667, "rental_uris": {"android": "https://dc.lft.to/lastmile_qr_scan", "ios": "https://dc.lft.to/lastmile_qr_scan"}, "fusion_lon": 0.0, "is_reserved": 0}, {"lat": 38.931094, "fusion_lat": 0.0, "type": "electric_scooter", "name": "f7df430553efdf899e0eb59c9e1b9b06", "is_disabled": 0, "bike_id": "f7df430553efdf899e0eb59c9e1b9b06", "lon": -77.0241415, "rental_uris": {"android": "https://dc.lft.to/lastmile_qr_scan", "ios": "https://dc.lft.to/lastmile_qr_scan"}, "fusion_lon": 0.0, "is_reserved": 0}, {"lat": 38.92174633333333, "fusion_lat": 0.0, "type": "electric_scooter", "name": "3a674433bf4dc2a1f385abe4691b58cb", "is_disabled": 0, "bike_id": "3a674433bf4dc2a1f385abe4691b58cb", "lon": -77.03828083333333, "rental_uris": {"android": "https://dc.lft.to/lastmile_qr_scan", "ios": "https://dc.lft.to/lastmile_qr_scan"}, "fusion_lon": 0.0, "is_reserved": 0}, {"lat": 38.900155166666664, "fusion_lat": 0.0, "type": "electric_scooter", "name": "14bf069b8571680b036eb2f643474562", "is_disabled": 0, "bike_id": "14bf069b8571680b036eb2f643474562", "lon": -76.987005, "rental_uris": {"android": "https://dc.lft.to/lastmile_qr_scan", "ios": "https://dc.lft.to/lastmile_qr_scan"}, "fusion_lon": 0.0, "is_reserved": 0}, {"lat": 38.8443835, "fusion_lat": 0.0, "type": "electric_scooter", "name": "574f9d4e3cd8aa63030b957ef899f94f", "is_disabled": 0, "bike_id": "574f9d4e3cd8aa63030b957ef899f94f", "lon": -76.99780183333333, "rental_uris": {"android": "https://dc.lft.to/lastmile_qr_scan", "ios": "https://dc.lft.to/lastmile_qr_scan"}, "fusion_lon": 0.0, "is_reserved": 0}, {"lat": 38.9171875, "fusion_lat": 0.0, "type": "electric_scooter", "name": "908d29bb3ff1f9a613c397e1ea525cb3", "is_disabled": 0, "bike_id": "908d29bb3ff1f9a613c397e1ea525cb3", "lon": -77.0271055, "rental_uris": {"android": "https://dc.lft.to/lastmile_qr_scan", "ios": "https://dc.lft.to/lastmile_qr_scan"}, "fusion_lon": 0.0, "is_reserved": 0}, {"lat": 38.9240475, "fusion_lat": 0.0, "type": "electric_scooter", "name": "05afad20b997552cbfe4fcdc070e5a50", "is_disabled": 0, "bike_id": "05afad20b997552cbfe4fcdc070e5a50", "lon": -77.05167083333333, "rental_uris": {"android": "https://dc.lft.to/lastmile_qr_scan", "ios": "https://dc.lft.to/lastmile_qr_scan"}, "fusion_lon": 0.0, "is_reserved": 0}, {"lat": 38.994221, "fusion_lat": 0.0, "type": "electric_bike", "name": "874e0bc0ba315b367ef7e6d892b1b523", "is_disabled": 0, "bike_id": "874e0bc0ba315b367ef7e6d892b1b523", "lon": -77.07692816666666, "rental_uris": {"android": "https://dc.lft.to/lastmile_qr_scan", "ios": "https://dc.lft.to/lastmile_qr_scan"}, "fusion_lon": 0.0, "is_reserved": 0}, {"lat": 38.9430275, "fusion_lat": 0.0, "type": "electric_scooter", "name": "b0e37f8836e3f2df4a9b13005ae425af", "is_disabled": 0, "bike_id": "b0e37f8836e3f2df4a9b13005ae425af", "lon": -77.02742916666666, "rental_uris": {"android": "https://dc.lft.to/lastmile_qr_scan", "ios": "https://dc.lft.to/lastmile_qr_scan"}, "fusion_lon": 0.0, "is_reserved": 0}, {"lat": 38.92249133333333, "fusion_lat": 0.0, "type": "electric_scooter", "name": "6679fe32ed2ba784cf2a3afa12ff813f", "is_disabled": 0, "bike_id": "6679fe32ed2ba784cf2a3afa12ff813f", "lon": -77.0425705, "rental_uris": {"android": "https://dc.lft.to/lastmile_qr_scan", "ios": "https://dc.lft.to/lastmile_qr_scan"}, "fusion_lon": 0.0, "is_reserved": 0}, {"lat": 38.911892333333334, "fusion_lat": 0.0, "type": "electric_scooter", "name": "436114eb8c283a860caee969e5f971a6", "is_disabled": 0, "bike_id": "436114eb8c283a860caee969e5f971a6", "lon": -77.041225, "rental_uris": {"android": "https://dc.lft.to/lastmile_qr_scan", "ios": "https://dc.lft.to/lastmile_qr_scan"}, "fusion_lon": 0.0, "is_reserved": 0}, {"lat": 38.88182283333333, "fusion_lat": 0.0, "type": "electric_scooter", "name": "9ecb3ba9e76e991f9c949de86979d58b", "is_disabled": 0, "bike_id": "9ecb3ba9e76e991f9c949de86979d58b", "lon": -77.01746766666666, "rental_uris": {"android": "https://dc.lft.to/lastmile_qr_scan", "ios": "https://dc.lft.to/lastmile_qr_scan"}, "fusion_lon": 0.0, "is_reserved": 0}, {"lat": 38.955054, "fusion_lat": 0.0, "type": "electric_scooter", "name": "42a13b0377f8216845afe5c5f2680720", "is_disabled": 0, "bike_id": "42a13b0377f8216845afe5c5f2680720", "lon": -77.02679266666667, "rental_uris": {"android": "https://dc.lft.to/lastmile_qr_scan", "ios": "https://dc.lft.to/lastmile_qr_scan"}, "fusion_lon": 0.0, "is_reserved": 0}, {"lat": 38.927689, "fusion_lat": 0.0, "type": "electric_scooter", "name": "6996abb20cc6c7bbdaa3c0e9474ce108", "is_disabled": 0, "bike_id": "6996abb20cc6c7bbdaa3c0e9474ce108", "lon": -77.02742916666666, "rental_uris": {"android": "https://dc.lft.to/lastmile_qr_scan", "ios": "https://dc.lft.to/lastmile_qr_scan"}, "fusion_lon": 0.0, "is_reserved": 0}, {"lat": 38.931964666666666, "fusion_lat": 0.0, "type": "electric_bike", "name": "13486f9f4f1f0a91758fa9baa9e5bebb", "is_disabled": 0, "bike_id": "13486f9f4f1f0a91758fa9baa9e5bebb", "lon": -77.22926766666667, "rental_uris": {"android": "https://dc.lft.to/lastmile_qr_scan", "ios": "https://dc.lft.to/lastmile_qr_scan"}, "fusion_lon": 0.0, "is_reserved": 0}, {"lat": 38.89688533333333, "fusion_lat": 0.0, "type": "electric_scooter", "name": "6224a438ae896612a49e58a63586946f", "is_disabled": 0, "bike_id": "6224a438ae896612a49e58a63586946f", "lon": -77.05098783333334, "rental_uris": {"android": "https://dc.lft.to/lastmile_qr_scan", "ios": "https://dc.lft.to/lastmile_qr_scan"}, "fusion_lon": 0.0, "is_reserved": 0}, {"lat": 38.892497666666664, "fusion_lat": 0.0, "type": "electric_scooter", "name": "813d8737e55e1ee96eca62b3007383f0", "is_disabled": 0, "bike_id": "813d8737e55e1ee96eca62b3007383f0", "lon": -77.03343616666666, "rental_uris": {"android": "https://dc.lft.to/lastmile_qr_scan", "ios": "https://dc.lft.to/lastmile_qr_scan"}, "fusion_lon": 0.0, "is_reserved": 0}, {"lat": 38.9473015, "fusion_lat": 0.0, "type": "electric_bike", "name": "d6e7379810de8b549002d30ad3560569", "is_disabled": 0, "bike_id": "d6e7379810de8b549002d30ad3560569", "lon": -77.02584216666666, "rental_uris": {"android": "https://dc.lft.to/lastmile_qr_scan", "ios": "https://dc.lft.to/lastmile_qr_scan"}, "fusion_lon": 0.0, "is_reserved": 0}, {"lat": 38.912866, "fusion_lat": 0.0, "type": "electric_scooter", "name": "b982b90512c8531aa40352a6d9629bed", "is_disabled": 0, "bike_id": "b982b90512c8531aa40352a6d9629bed", "lon": -77.03213516666666, "rental_uris": {"android": "https://dc.lft.to/lastmile_qr_scan", "ios": "https://dc.lft.to/lastmile_qr_scan"}, "fusion_lon": 0.0, "is_reserved": 0}, {"lat": 38.90504966666666, "fusion_lat": 0.0, "type": "electric_scooter", "name": "71db7748a96a91bb651137bf18bdd998", "is_disabled": 0, "bike_id": "71db7748a96a91bb651137bf18bdd998", "lon": -77.04920783333333, "rental_uris": {"android": "https://dc.lft.to/lastmile_qr_scan", "ios": "https://dc.lft.to/lastmile_qr_scan"}, "fusion_lon": 0.0, "is_reserved": 0}, {"lat": 38.9001735, "fusion_lat": 0.0, "type": "electric_scooter", "name": "1b4dc180fb8989ed4f36032dca9eb030", "is_disabled": 0, "bike_id": "1b4dc180fb8989ed4f36032dca9eb030", "lon": -77.01110333333334, "rental_uris": {"android": "https://dc.lft.to/lastmile_qr_scan", "ios": "https://dc.lft.to/lastmile_qr_scan"}, "fusion_lon": 0.0, "is_reserved": 0}, {"lat": 38.9057265, "fusion_lat": 0.0, "type": "electric_scooter", "name": "2f6efcfd545ffda69d67b5eca4bbf01f", "is_disabled": 0, "bike_id": "2f6efcfd545ffda69d67b5eca4bbf01f", "lon": -77.00561016666667, "rental_uris": {"android": "https://dc.lft.to/lastmile_qr_scan", "ios": "https://dc.lft.to/lastmile_qr_scan"}, "fusion_lon": 0.0, "is_reserved": 0}, {"lat": 38.92765983333334, "fusion_lat": 0.0, "type": "electric_scooter", "name": "fc7b0cc2a803a4e0361eeef6210c3ce5", "is_disabled": 0, "bike_id": "fc7b0cc2a803a4e0361eeef6210c3ce5", "lon": -77.01194233333334, "rental_uris": {"android": "https://dc.lft.to/lastmile_qr_scan", "ios": "https://dc.lft.to/lastmile_qr_scan"}, "fusion_lon": 0.0, "is_reserved": 0}, {"lat": 38.9119205, "fusion_lat": 0.0, "type": "electric_scooter", "name": "0c184dc9df4310033eb5c414348c5548", "is_disabled": 0, "bike_id": "0c184dc9df4310033eb5c414348c5548", "lon": -77.03830016666667, "rental_uris": {"android": "https://dc.lft.to/lastmile_qr_scan", "ios": "https://dc.lft.to/lastmile_qr_scan"}, "fusion_lon": 0.0, "is_reserved": 0}, {"lat": 38.8923025, "fusion_lat": 0.0, "type": "electric_scooter", "name": "05e401c80433d100ae86823800bf265e", "is_disabled": 0, "bike_id": "05e401c80433d100ae86823800bf265e", "lon": -77.02207433333334, "rental_uris": {"android": "https://dc.lft.to/lastmile_qr_scan", "ios": "https://dc.lft.to/lastmile_qr_scan"}, "fusion_lon": 0.0, "is_reserved": 0}, {"lat": 38.88271783333333, "fusion_lat": 0.0, "type": "electric_scooter", "name": "79fd738362ec2a02c8a29f7e829cb5c9", "is_disabled": 0, "bike_id": "79fd738362ec2a02c8a29f7e829cb5c9", "lon": -76.990154, "rental_uris": {"android": "https://dc.lft.to/lastmile_qr_scan", "ios": "https://dc.lft.to/lastmile_qr_scan"}, "fusion_lon": 0.0, "is_reserved": 0}, {"lat": 38.932389666666666, "fusion_lat": 0.0, "type": "electric_scooter", "name": "e62e050f931e89157519f0b225b75468", "is_disabled": 0, "bike_id": "e62e050f931e89157519f0b225b75468", "lon": -77.02959066666666, "rental_uris": {"android": "https://dc.lft.to/lastmile_qr_scan", "ios": "https://dc.lft.to/lastmile_qr_scan"}, "fusion_lon": 0.0, "is_reserved": 0}, {"lat": 38.97382433333333, "fusion_lat": 0.0, "type": "electric_bike", "name": "eac29516ccb00817cd25b88049ece351", "is_disabled": 0, "bike_id": "eac29516ccb00817cd25b88049ece351", "lon": -77.06473266666667, "rental_uris": {"android": "https://dc.lft.to/lastmile_qr_scan", "ios": "https://dc.lft.to/lastmile_qr_scan"}, "fusion_lon": 0.0, "is_reserved": 0}, {"lat": 38.924523666666666, "fusion_lat": 0.0, "type": "electric_scooter", "name": "18cfcfa2d6cf056b22c56349a4e99ed4", "is_disabled": 0, "bike_id": "18cfcfa2d6cf056b22c56349a4e99ed4", "lon": -77.0521865, "rental_uris": {"android": "https://dc.lft.to/lastmile_qr_scan", "ios": "https://dc.lft.to/lastmile_qr_scan"}, "fusion_lon": 0.0, "is_reserved": 0}, {"lat": 38.92839933333333, "fusion_lat": 0.0, "type": "electric_scooter", "name": "045ee53906f88f080bb8274f2a4a4b68", "is_disabled": 0, "bike_id": "045ee53906f88f080bb8274f2a4a4b68", "lon": -77.05507366666667, "rental_uris": {"android": "https://dc.lft.to/lastmile_qr_scan", "ios": "https://dc.lft.to/lastmile_qr_scan"}, "fusion_lon": 0.0, "is_reserved": 0}, {"lat": 38.9053215, "fusion_lat": 0.0, "type": "electric_scooter", "name": "dedcef191d83f821baa7dba1e7ec1f72", "is_disabled": 0, "bike_id": "dedcef191d83f821baa7dba1e7ec1f72", "lon": -77.02707066666666, "rental_uris": {"android": "https://dc.lft.to/lastmile_qr_scan", "ios": "https://dc.lft.to/lastmile_qr_scan"}, "fusion_lon": 0.0, "is_reserved": 0}, {"lat": 38.90354283333333, "fusion_lat": 0.0, "type": "electric_scooter", "name": "0a211b7b2527c7b6c4e351d14374e008", "is_disabled": 0, "bike_id": "0a211b7b2527c7b6c4e351d14374e008", "lon": -77.04255083333334, "rental_uris": {"android": "https://dc.lft.to/lastmile_qr_scan", "ios": "https://dc.lft.to/lastmile_qr_scan"}, "fusion_lon": 0.0, "is_reserved": 0}, {"lat": 38.902802333333334, "fusion_lat": 0.0, "type": "electric_scooter", "name": "8b440e96d1d2fe51d3e6c2ed80a23438", "is_disabled": 0, "bike_id": "8b440e96d1d2fe51d3e6c2ed80a23438", "lon": -77.03829583333334, "rental_uris": {"android": "https://dc.lft.to/lastmile_qr_scan", "ios": "https://dc.lft.to/lastmile_qr_scan"}, "fusion_lon": 0.0, "is_reserved": 0}, {"lat": 38.89864033333333, "fusion_lat": 0.0, "type": "electric_scooter", "name": "5bc57e3b7af90b73d9264ef976f26249", "is_disabled": 0, "bike_id": "5bc57e3b7af90b73d9264ef976f26249", "lon": -76.94629633333334, "rental_uris": {"android": "https://dc.lft.to/lastmile_qr_scan", "ios": "https://dc.lft.to/lastmile_qr_scan"}, "fusion_lon": 0.0, "is_reserved": 0}, {"lat": 38.90154533333333, "fusion_lat": 0.0, "type": "electric_scooter", "name": "7782f992d00a92fc8bbdce163d09d0be", "is_disabled": 0, "bike_id": "7782f992d00a92fc8bbdce163d09d0be", "lon": -77.03938266666667, "rental_uris": {"android": "https://dc.lft.to/lastmile_qr_scan", "ios": "https://dc.lft.to/lastmile_qr_scan"}, "fusion_lon": 0.0, "is_reserved": 0}, {"lat": 38.91276283333333, "fusion_lat": 0.0, "type": "electric_scooter", "name": "75779714667872231f8de68564fe7468", "is_disabled": 0, "bike_id": "75779714667872231f8de68564fe7468", "lon": -77.02388566666667, "rental_uris": {"android": "https://dc.lft.to/lastmile_qr_scan", "ios": "https://dc.lft.to/lastmile_qr_scan"}, "fusion_lon": 0.0, "is_reserved": 0}, {"lat": 38.8837595, "fusion_lat": 0.0, "type": "electric_scooter", "name": "4242793d9fae8d7f0f8f443d33e7af5a", "is_disabled": 0, "bike_id": "4242793d9fae8d7f0f8f443d33e7af5a", "lon": -76.98560233333333, "rental_uris": {"android": "https://dc.lft.to/lastmile_qr_scan", "ios": "https://dc.lft.to/lastmile_qr_scan"}, "fusion_lon": 0.0, "is_reserved": 0}, {"lat": 38.9080765, "fusion_lat": 0.0, "type": "electric_bike", "name": "f41162e14cf4b88a5f1f895d10354dfc", "is_disabled": 0, "bike_id": "f41162e14cf4b88a5f1f895d10354dfc", "lon": -77.03905783333333, "rental_uris": {"android": "https://dc.lft.to/lastmile_qr_scan", "ios": "https://dc.lft.to/lastmile_qr_scan"}, "fusion_lon": 0.0, "is_reserved": 0}, {"lat": 38.89840783333333, "fusion_lat": 0.0, "type": "electric_scooter", "name": "fc63500fbe22256a2b9548ee35e9e215", "is_disabled": 0, "bike_id": "fc63500fbe22256a2b9548ee35e9e215", "lon": -77.03313583333333, "rental_uris": {"android": "https://dc.lft.to/lastmile_qr_scan", "ios": "https://dc.lft.to/lastmile_qr_scan"}, "fusion_lon": 0.0, "is_reserved": 0}, {"lat": 38.866844666666665, "fusion_lat": 0.0, "type": "electric_scooter", "name": "9587472f758e7346cdd8dac26bf21da7", "is_disabled": 0, "bike_id": "9587472f758e7346cdd8dac26bf21da7", "lon": -76.9856095, "rental_uris": {"android": "https://dc.lft.to/lastmile_qr_scan", "ios": "https://dc.lft.to/lastmile_qr_scan"}, "fusion_lon": 0.0, "is_reserved": 0}, {"lat": 38.990957333333334, "fusion_lat": 0.0, "type": "electric_bike", "name": "d7cb4ee7906e8ffcc365b5ae2a9afcb3", "is_disabled": 0, "bike_id": "d7cb4ee7906e8ffcc365b5ae2a9afcb3", "lon": -76.9936615, "rental_uris": {"android": "https://dc.lft.to/lastmile_qr_scan", "ios": "https://dc.lft.to/lastmile_qr_scan"}, "fusion_lon": 0.0, "is_reserved": 0}, {"lat": 38.87083833333333, "fusion_lat": 0.0, "type": "electric_bike", "name": "08ba14e0bd656f39894024d85b85d5e1", "is_disabled": 0, "bike_id": "08ba14e0bd656f39894024d85b85d5e1", "lon": -77.01213866666667, "rental_uris": {"android": "https://dc.lft.to/lastmile_qr_scan", "ios": "https://dc.lft.to/lastmile_qr_scan"}, "fusion_lon": 0.0, "is_reserved": 0},