{"data": {"bikes": [{"name": "35eef49b816c6280b2e42d725a131e3c", "type": "electric_scooter", "lat": 38.932317, "is_reserved": 0, "lon": -77.038141, "fusion_lon": 0.0, "is_disabled": 0, "fusion_lat": 0.0, "bike_id": "35eef49b816c6280b2e42d725a131e3c", "rental_uris": {"ios": "https://dc.lft.to/lastmile_qr_scan", "android": "https://dc.lft.to/lastmile_qr_scan"}}, {"name": "f88f6c2e4f2488b1c12334712702ca75", "type": "electric_bike", "lat": 38.842749, "is_reserved": 0, "lon": -76.988445, "fusion_lon": 0.0, "is_disabled": 0, "fusion_lat": 0.0, "bike_id": "f88f6c2e4f2488b1c12334712702ca75", "rental_uris": {"ios": "https://dc.lft.to/lastmile_qr_scan", "android": "https://dc.lft.to/lastmile_qr_scan"}}, {"name": "ac095c771c012a5b2c800074d49da625", "type": "electric_scooter", "lat": 38.91110966666667, "is_reserved": 0, "lon": -77.03477116666667, "fusion_lon": 0.0, "is_disabled": 0, "fusion_lat": 0.0, "bike_id": "ac095c771c012a5b2c800074d49da625", "rental_uris": {"ios": "https://dc.lft.to/lastmile_qr_scan", "android": "https://dc.lft.to/lastmile_qr_scan"}}, {"name": "6666baf696f8a0a916f44b7b3d184aad", "type": "electric_scooter", "lat": 38.939826833333335, "is_reserved": 0, "lon": -77.02593466666667, "fusion_lon": 0.0, "is_disabled": 0, "fusion_lat": 0.0, "bike_id": "6666baf696f8a0a916f44b7b3d184aad", "rental_uris": {"ios": "https://dc.lft.to/lastmile_qr_scan", "android": "https://dc.lft.to/lastmile_qr_scan"}}, {"name": "47d3d361b6b08d1930fbaba5305eecd5", "type": "electric_scooter", "lat": 38.91493783333333, "is_reserved": 0, "lon": -77.0393405, "fusion_lon": 0.0, "is_disabled": 0, "fusion_lat": 0.0, "bike_id": "47d3d361b6b08d1930fbaba5305eecd5", "rental_uris": {"ios": "https://dc.lft.to/lastmile_qr_scan", "android": "https://dc.lft.to/lastmile_qr_scan"}}, {"name": "14c488f3cdfa87dd0c85902691b28ca8", "type": "electric_scooter", "lat": 38.915683, "is_reserved": 0, "lon": -77.02205333333333, "fusion_lon": 0.0, "is_disabled": 0, "fusion_lat": 0.0, "bike_id": "14c488f3cdfa87dd0c85902691b28ca8", "rental_uris": {"ios": "https://dc.lft.to/lastmile_qr_scan", "android": "https://dc.lft.to/lastmile_qr_scan"}}, {"name": "8cd331d2ef5d0d619224a1d698b980c0", "type": "electric_scooter", "lat": 38.9059415, "is_reserved": 0, "lon": -77.0161285, "fusion_lon": 0.0, "is_disabled": 0, "fusion_lat": 0.0, "bike_id": "8cd331d2ef5d0d619224a1d698b980c0", "rental_uris": {"ios": "https://dc.lft.to/lastmile_qr_scan", "android": "https://dc.lft.to/lastmile_qr_scan"}}, {"name": "cf45f9a067264028d5df5e45b79b5d99", "type": "electric_bike", "lat": 38.88042083333333, "is_reserved": 0, "lon": -77.01325216666666, "fusion_lon": 0.0, "is_disabled": 0, "fusion_lat": 0.0, "bike_id": "cf45f9a067264028d5df5e45b79b5d99", "rental_uris": {"ios": "https://dc.lft.to/lastmile_qr_scan", "android": "https://dc.lft.to/lastmile_qr_scan"}}, {"name": "08c439d139d4faf2d6b2a64cbbfdab12", "type": "electric_scooter", "lat": 38.9146095, "is_reserved": 0, "lon": -77.038437, "fusion_lon": 0.0, "is_disabled": 0, "fusion_lat": 0.0, "bike_id": "08c439d139d4faf2d6b2a64cbbfdab12", "rental_uris": {"ios": "https://dc.lft.to/lastmile_qr_scan", "android": "https://dc.lft.to/lastmile_qr_scan"}}, {"name": "817e5a5776bc68e51f88e0dd6dc51c92", "type": "electric_scooter", "lat": 38.90041316666667, "is_reserved": 0, "lon": -77.0115465, "fusion_lon": 0.0, "is_disabled": 0, "fusion_lat": 0.0, "bike_id": "817e5a5776bc68e51f88e0dd6dc51c92", "rental_uris": {"ios": "https://dc.lft.to/lastmile_qr_scan", "android": "https://dc.lft.to/lastmile_qr_scan"}}, {"name": "5e52067c24b2febc273e82baa60ec784", "type": "electric_scooter", "lat": 38.898153, "is_reserved": 0, "lon": -77.03294783333334, "fusion_lon": 0.0, "is_disabled": 0, "fusion_lat": 0.0, "bike_id": "5e52067c24b2febc273e82baa60ec784", "rental_uris": {"ios": "https://dc.lft.to/lastmile_qr_scan", "android": "https://dc.lft.to/lastmile_qr_scan"}}, {"name": "715cf1fd093911faec100ba40dce81bd", "type": "electric_bike", "lat": 38.839341833333336, "is_reserved": 0, "lon": -77.079057, "fusion_lon": 0.0, "is_disabled": 0, "fusion_lat": 0.0, "bike_id": "715cf1fd093911faec100ba40dce81bd", "rental_uris": {"ios": "https://dc.lft.to/lastmile_qr_scan", "android": "https://dc.lft.to/lastmile_qr_scan"}}, {"name": "a76a56a42e39885fc5ff5f8423a2509b", "type": "electric_scooter", "lat": 38.9031485, "is_reserved": 0, "lon": -77.033183, "fusion_lon": 0.0, "is_disabled": 0, "fusion_lat": 0.0, "bike_id": "a76a56a42e39885fc5ff5f8423a2509b", "rental_uris": {"ios": "https://dc.lft.to/lastmile_qr_scan", "android": "https://dc.lft.to/lastmile_qr_scan"}}, {"name": "4afdd471d55be248be96e8f855deffce", "type": "electric_scooter", "lat": 38.90494283333334, "is_reserved": 0, "lon": -77.02959266666667, "fusion_lon": 0.0, "is_disabled": 0, "fusion_lat": 0.0, "bike_id": "4afdd471d55be248be96e8f855deffce", "rental_uris": {"ios": "https://dc.lft.to/lastmile_qr_scan", "android": "https://dc.lft.to/lastmile_qr_scan"}}, {"name": "38ba30954d56179224fb63bda505f046", "type": "electric_scooter", "lat": 38.901190166666666, "is_reserved": 0, "lon": -77.03333166666667, "fusion_lon": 0.0, "is_disabled": 0, "fusion_lat": 0.0, "bike_id": "38ba30954d56179224fb63bda505f046", "rental_uris": {"ios": "https://dc.lft.to/lastmile_qr_scan", "android": "https://dc.lft.to/lastmile_qr_scan"}}, {"name": "b85e5a4c172ea3c0e30ef0e1f4582915", "type": "electric_scooter", "lat": 38.9157075, "is_reserved": 0, "lon": -77.0219995, "fusion_lon": 0.0, "is_disabled": 0, "fusion_lat": 0.0, "bike_id": "b85e5a4c172ea3c0e30ef0e1f4582915", "rental_uris": {"ios": "https://dc.lft.to/lastmile_qr_scan", "android": "https://dc.lft.to/lastmile_qr_scan"}}, {"name": "fd97f1bc2fe940b714e3c2bc9d25bb9b", "type": "electric_scooter", "lat": 38.90531166666667, "is_reserved": 0, "lon": -77.06531533333333, "fusion_lon": 0.0, "is_disabled": 0, "fusion_lat": 0.0, "bike_id": "fd97f1bc2fe940b714e3c2bc9d25bb9b", "rental_uris": {"ios": "https://dc.lft.to/lastmile_qr_scan", "android": "https://dc.lft.to/lastmile_qr_scan"}}, {"name": "c7791cb8b88f12a8d227779cf6df2367", "type": "electric_scooter", "lat": 38.92554783333333, "is_reserved": 0, "lon": -77.0009605, "fusion_lon": 0.0, "is_disabled": 0, "fusion_lat": 0.0, "bike_id": "c7791cb8b88f12a8d227779cf6df2367", "rental_uris": {"ios": "https://dc.lft.to/lastmile_qr_scan", "android": "https://dc.lft.to/lastmile_qr_scan"}}, {"name": "445dd964129eda196b33ffea7f9d46ca", "type": "electric_scooter", "lat": 38.92723733333333, "is_reserved": 0, "lon": -77.03972133333333, "fusion_lon": 0.0, "is_disabled": 0, "fusion_lat": 0.0, "bike_id": "445dd964129eda196b33ffea7f9d46ca", "rental_uris": {"ios": "https://dc.lft.to/lastmile_qr_scan", "android": "https://dc.lft.to/lastmile_qr_scan"}}, {"name": "fd5b80ae87b179ac4f95d24d990b1bd3", "type": "electric_scooter", "lat": 38.899524166666666, "is_reserved": 0, "lon": -77.05272116666667, "fusion_lon": 0.0, "is_disabled": 0, "fusion_lat": 0.0, "bike_id": "fd5b80ae87b179ac4f95d24d990b1bd3", "rental_uris": {"ios": "https://dc.lft.to/lastmile_qr_scan", "android": "https://dc.lft.to/lastmile_qr_scan"}}, {"name": "5f1f51abd7b422222758e3b87e1bcde4", "type": "electric_scooter", "lat": 38.90561, "is_reserved": 0, "lon": -77.02172916666666, "fusion_lon": 0.0, "is_disabled": 0, "fusion_lat": 0.0, "bike_id": "5f1f51abd7b422222758e3b87e1bcde4", "rental_uris": {"ios": "https://dc.lft.to/lastmile_qr_scan", "android": "https://dc.lft.to/lastmile_qr_scan"}}, {"name": "66fe36193ff0296dc597f9815c886b85", "type": "electric_scooter", "lat": 38.900156, "is_reserved": 0, "lon": -76.99081133333334, "fusion_lon": 0.0, "is_disabled": 0, "fusion_lat": 0.0, "bike_id": "66fe36193ff0296dc597f9815c886b85", "rental_uris": {"ios": "https://dc.lft.to/lastmile_qr_scan", "android": "https://dc.lft.to/lastmile_qr_scan"}}, {"name": "b5a82efec747212967abd54c303f8e88", "type": "electric_scooter", "lat": 38.91495883333333, "is_reserved": 0, "lon": -77.0325, "fusion_lon": 0.0, "is_disabled": 0, "fusion_lat": 0.0, "bike_id": "b5a82efec747212967abd54c303f8e88", "rental_uris": {"ios": "https://dc.lft.to/lastmile_qr_scan", "android": "https://dc.lft.to/lastmile_qr_scan"}}, {"name": "0988e0c178106de6011719b884abc2b4", "type": "electric_scooter", "lat": 38.95529883333333, "is_reserved": 0, "lon": -77.02465733333334, "fusion_lon": 0.0, "is_disabled": 0, "fusion_lat": 0.0, "bike_id": "0988e0c178106de6011719b884abc2b4", "rental_uris": {"ios": "https://dc.lft.to/lastmile_qr_scan", "android": "https://dc.lft.to/lastmile_qr_scan"}}, {"name": "dca3977756f0380afebaece19cef2488", "type": "electric_scooter", "lat": 38.91719466666667, "is_reserved": 0, "lon": -77.01862916666667, "fusion_lon": 0.0, "is_disabled": 0, "fusion_lat": 0.0, "bike_id": "dca3977756f0380afebaece19cef2488", "rental_uris": {"ios": "https://dc.lft.to/lastmile_qr_scan", "android": "https://dc.lft.to/lastmile_qr_scan"}}, {"name": "ccbc384277fff2a3a327b5aa2181cb45", "type": "electric_bike", "lat": 38.902953333333336, "is_reserved": 0, "lon": -76.94444216666666, "fusion_lon": 0.0, "is_disabled": 0, "fusion_lat": 0.0, "bike_id": "ccbc384277fff2a3a327b5aa2181cb45", "rental_uris": {"ios": "https://dc.lft.to/lastmile_qr_scan", "android": "https://dc.lft.to/lastmile_qr_scan"}}, {"name": "8147cdfe751f786a77d825c3c185e6e0", "type": "electric_scooter", "lat": 38.91726, "is_reserved": 0, "lon": -77.02294583333334, "fusion_lon": 0.0, "is_disabled": 0, "fusion_lat": 0.0, "bike_id": "8147cdfe751f786a77d825c3c185e6e0", "rental_uris": {"ios": "https://dc.lft.to/lastmile_qr_scan", "android": "https://dc.lft.to/lastmile_qr_scan"}}, {"name": "34a8d11679f6ae1ffb8406fe711c5773", "type": "electric_scooter", "lat": 38.922899666666666, "is_reserved": 0, "lon": -77.04256966666667, "fusion_lon": 0.0, "is_disabled": 0, "fusion_lat": 0.0, "bike_id": "34a8d11679f6ae1ffb8406fe711c5773", "rental_uris": {"ios": "https://dc.lft.to/lastmile_qr_scan", "android": "https://dc.lft.to/lastmile_qr_scan"}}, {"name": "d8ce2c6d54407bb17b92d4de58c75b30", "type": "electric_scooter", "lat": 38.898414, "is_reserved": 0, "lon": -77.03315566666667, "fusion_lon": 0.0, "is_disabled": 0, "fusion_lat": 0.0, "bike_id": "d8ce2c6d54407bb17b92d4de58c75b30", "rental_uris": {"ios": "https://dc.lft.to/lastmile_qr_scan", "android": "https://dc.lft.to/lastmile_qr_scan"}}, {"name": "d9f345e8700381efe4a3672c96923b7d", "type": "electric_scooter", "lat": 38.89343733333333, "is_reserved": 0, "lon": -76.991441, "fusion_lon": 0.0, "is_disabled": 0, "fusion_lat": 0.0, "bike_id": "d9f345e8700381efe4a3672c96923b7d", "rental_uris": {"ios": "https://dc.lft.to/lastmile_qr_scan", "android": "https://dc.lft.to/lastmile_qr_scan"}}, {"name": "5d0abb390ce9a18372771d291d6f6d54", "type": "electric_scooter", "lat": 38.9037645, "is_reserved": 0, "lon": -77.03886183333333, "fusion_lon": 0.0, "is_disabled": 0, "fusion_lat": 0.0, "bike_id": "5d0abb390ce9a18372771d291d6f6d54", "rental_uris": {"ios": "https://dc.lft.to/lastmile_qr_scan", "android": "https://dc.lft.to/lastmile_qr_scan"}}, {"name": "0af273e02abb07cafe8fafaee4828781", "type": "electric_scooter", "lat": 38.92473583333334, "is_reserved": 0, "lon": -77.02832833333333, "fusion_lon": 0.0, "is_disabled": 0, "fusion_lat": 0.0, "bike_id": "0af273e02abb07cafe8fafaee4828781", "rental_uris": {"ios": "https://dc.lft.to/lastmile_qr_scan", "android": "https://dc.lft.to/lastmile_qr_scan"}}, {"name": "7d230aebba284252ccc5ca699de2322a", "type": "electric_scooter", "lat": 38.92871266666667, "is_reserved": 0, "lon": -77.03479066666667, "fusion_lon": 0.0, "is_disabled": 0, "fusion_lat": 0.0, "bike_id": "7d230aebba284252ccc5ca699de2322a", "rental_uris": {"ios": "https://dc.lft.to/lastmile_qr_scan", "android": "https://dc.lft.to/lastmile_qr_scan"}}, {"name": "39634191ae3b1a520c381d52431fa882", "type": "electric_scooter", "lat": 38.92275166666667, "is_reserved": 0, "lon": -77.0366655, "fusion_lon": 0.0, "is_disabled": 0, "fusion_lat": 0.0, "bike_id": "39634191ae3b1a520c381d52431fa882", "rental_uris": {"ios": "https://dc.lft.to/lastmile_qr_scan", "android": "https://dc.lft.to/lastmile_qr_scan"}}, {"name": "f432eaca163e969e096caf5a6e2c737f", "type": "electric_scooter", "lat": 38.902639, "is_reserved": 0, "lon": -77.05406416666666, "fusion_lon": 0.0, "is_disabled": 0, "fusion_lat": 0.0, "bike_id": "f432eaca163e969e096caf5a6e2c737f", "rental_uris": {"ios": "https://dc.lft.to/lastmile_qr_scan", "android": "https://dc.lft.to/lastmile_qr_scan"}}, {"name": "e76fffcd09e1c102415b8ebf9b1a5c8a", "type": "electric_scooter", "lat": 38.879157666666664, "is_reserved": 0, "lon": -77.01737566666667, "fusion_lon": 0.0, "is_disabled": 0, "fusion_lat": 0.0, "bike_id": "e76fffcd09e1c102415b8ebf9b1a5c8a", "rental_uris": {"ios": "https://dc.lft.to/lastmile_qr_scan", "android": "https://dc.lft.to/lastmile_qr_scan"}}, {"name": "44bb8ba50c6b57028e9fc93552846d40", "type": "electric_scooter", "lat": 38.894808833333336, "is_reserved": 0, "lon": -76.99540483333334, "fusion_lon": 0.0, "is_disabled": 0, "fusion_lat": 0.0, "bike_id": "44bb8ba50c6b57028e9fc93552846d40", "rental_uris": {"ios": "https://dc.lft.to/lastmile_qr_scan", "android": "https://dc.lft.to/lastmile_qr_scan"}}, {"name": "988604fe91e5d76c194a12690b9c2eb6", "type": "electric_scooter", "lat": 38.885827166666665, "is_reserved": 0, "lon": -77.01977466666666, "fusion_lon": 0.0, "is_disabled": 0, "fusion_lat": 0.0, "bike_id": "988604fe91e5d76c194a12690b9c2eb6", "rental_uris": {"ios": "https://dc.lft.to/lastmile_qr_scan", "android": "https://dc.lft.to/lastmile_qr_scan"}}, {"name": "263cb10217ae5102c1a5e44edb22cec6", "type": "electric_scooter", "lat": 38.8950755, "is_reserved": 0, "lon": -77.00338316666667, "fusion_lon": 0.0, "is_disabled": 0, "fusion_lat": 0.0, "bike_id": "263cb10217ae5102c1a5e44edb22cec6", "rental_uris": {"ios": "https://dc.lft.to/lastmile_qr_scan", "android": "https://dc.lft.to/lastmile_qr_scan"}}, {"name": "842b5ef90a7d6d7f541712fca3197753", "type": "electric_scooter", "lat": 38.894728666666666, "is_reserved": 0, "lon": -77.001355, "fusion_lon": 0.0, "is_disabled": 0, "fusion_lat": 0.0, "bike_id": "842b5ef90a7d6d7f541712fca3197753", "rental_uris": {"ios": "https://dc.lft.to/lastmile_qr_scan", "android": "https://dc.lft.to/lastmile_qr_scan"}}, {"name": "c1a3db2727b3c47872ad1509caba444a", "type": "electric_scooter", "lat": 38.9207125, "is_reserved": 0, "lon": -77.022135, "fusion_lon": 0.0, "is_disabled": 0, "fusion_lat": 0.0, "bike_id": "c1a3db2727b3c47872ad1509caba444a", "rental_uris": {"ios": "https://dc.lft.to/lastmile_qr_scan", "android": "https://dc.lft.to/lastmile_qr_scan"}}, {"name": "757abc63f59818504fa079b222564ff5", "type": "electric_bike", "lat": 38.964988, "is_reserved": 0, "lon": -77.06487716666666, "fusion_lon": 0.0, "is_disabled": 0, "fusion_lat": 0.0, "bike_id": "757abc63f59818504fa079b222564ff5", "rental_uris": {"ios": "https://dc.lft.to/lastmile_qr_scan", "android": "https://dc.lft.to/lastmile_qr_scan"}}, {"name": "94a53713c7c721f62b4496e5a966b7e5", "type": "electric_scooter", "lat": 38.89038083333333, "is_reserved": 0, "lon": -77.02974116666667, "fusion_lon": 0.0, "is_disabled": 0, "fusion_lat": 0.0, "bike_id": "94a53713c7c721f62b4496e5a966b7e5", "rental_uris": {"ios": "https://dc.lft.to/lastmile_qr_scan", "android": "https://dc.lft.to/lastmile_qr_scan"}}, {"name": "c8d00b439d099b2974d04b18c3f0fb61", "type": "electric_scooter", "lat": 38.920823166666665, "is_reserved": 0, "lon": -77.02538733333333, "fusion_lon": 0.0, "is_disabled": 0, "fusion_lat": 0.0, "bike_id": "c8d00b439d099b2974d04b18c3f0fb61", "rental_uris": {"ios": "https://dc.lft.to/lastmile_qr_scan", "android": "https://dc.lft.to/lastmile_qr_scan"}}, {"name": "453ee9d3c0cb03a99ffec77871847a6b", "type": "electric_scooter", "lat": 38.91498583333333, "is_reserved": 0, "lon": -77.0122495, "fusion_lon": 0.0, "is_disabled": 0, "fusion_lat": 0.0, "bike_id": "453ee9d3c0cb03a99ffec77871847a6b", "rental_uris": {"ios": "https://dc.lft.to/lastmile_qr_scan", "android": "https://dc.lft.to/lastmile_qr_scan"}}, {"name": "af0ab771b320fffe8e689bac84f56cf0", "type": "electric_scooter", "lat": 38.895354166666664, "is_reserved": 0, "lon": -77.0335405, "fusion_lon": 0.0, "is_disabled": 0, "fusion_lat": 0.0, "bike_id": "af0ab771b320fffe8e689bac84f56cf0", "rental_uris": {"ios": "https://dc.lft.to/lastmile_qr_scan", "android": "https://dc.lft.to/lastmile_qr_scan"}}, {"name": "bd5d3ea489d05ff7f2fed6fe833d8d6f", "type": "electric_scooter", "lat": 38.923425333333334, "is_reserved": 0, "lon": -77.05067383333333, "fusion_lon": 0.0, "is_disabled": 0, "fusion_lat": 0.0, "bike_id": "bd5d3ea489d05ff7f2fed6fe833d8d6f", "rental_uris": {"ios": "https://dc.lft.to/lastmile_qr_scan", "android": "https://dc.lft.to/lastmile_qr_scan"}}, {"name": "b146fd70551ea8d44b56e003cc14b14d", "type": "electric_scooter", "lat": 38.9129455, "is_reserved": 0, "lon": -77.06116433333334, "fusion_lon": 0.0, "is_disabled": 0, "fusion_lat": 0.0, "bike_id": "b146fd70551ea8d44b56e003cc14b14d", "rental_uris": {"ios": "https://dc.lft.to/lastmile_qr_scan", "android": "https://dc.lft.to/lastmile_qr_scan"}}, {"name": "15caa92029ab93b82656bb41f9d042bd", "type": "electric_scooter", "lat": 38.92092016666667, "is_reserved": 0, "lon": -77.0259725, "fusion_lon": 0.0, "is_disabled": 0, "fusion_lat": 0.0, "bike_id": "15caa92029ab93b82656bb41f9d042bd", "rental_uris": {"ios": "https://dc.lft.to/lastmile_qr_scan", "android": "https://dc.lft.to/lastmile_qr_scan"}}, {"name": "d87030b124dbcae12b4ec3fa558b965d", "type": "electric_scooter", "lat": 38.864365, "is_reserved": 0, "lon": -76.98005016666667, "fusion_lon": 0.0, "is_disabled": 0, "fusion_lat": 0.0, "bike_id": "d87030b124dbcae12b4ec3fa558b965d", "rental_uris": {"ios": "https://dc.lft.to/lastmile_qr_scan", "android": "https://dc.lft.to/lastmile_qr_scan"}}, {"name": "894e60010c68c63a7ba54cae81845704", "type": "electric_scooter", "lat": 38.936164166666664, "is_reserved": 0, "lon": -77.03217166666667, "fusion_lon": 0.0, "is_disabled": 0, "fusion_lat": 0.0, "bike_id": "894e60010c68c63a7ba54cae81845704", "rental_uris": {"ios": "https://dc.lft.to/lastmile_qr_scan", "android": "https://dc.lft.to/lastmile_qr_scan"}}, {"name": "4f514fbfa6afe7cbe671b569821d4c0d", "type": "electric_scooter", "lat": 38.91918016666666, "is_reserved": 0, "lon": -77.034216, "fusion_lon": 0.0, "is_disabled": 0, "fusion_lat": 0.0, "bike_id": "4f514fbfa6afe7cbe671b569821d4c0d", "rental_uris": {"ios": "https://dc.lft.to/lastmile_qr_scan", "android": "https://dc.lft.to/lastmile_qr_scan"}}, {"name": "3b9557f359fc44bdafdbaf6f3374c3bf", "type": "electric_scooter", "lat": 38.90290133333333, "is_reserved": 0, "lon": -77.03992166666667, "fusion_lon": 0.0, "is_disabled": 0, "fusion_lat": 0.0, "bike_id": "3b9557f359fc44bdafdbaf6f3374c3bf", "rental_uris": {"ios": "https://dc.lft.to/lastmile_qr_scan", "android": "https://dc.lft.to/lastmile_qr_scan"}}, {"name": "6922afe390d7ae3bb5f6da85af21bf84", "type": "electric_scooter", "lat": 38.93349383333333, "is_reserved": 0, "lon": -77.05866533333334, "fusion_lon": 0.0, "is_disabled": 0, "fusion_lat": 0.0, "bike_id": "6922afe390d7ae3bb5f6da85af21bf84", "rental_uris": {"ios": "https://dc.lft.to/lastmile_qr_scan", "android": "https://dc.lft.to/lastmile_qr_scan"}}, {"name": "e040b9422208750c2b28264582503e10", "type": "electric_scooter", "lat": 38.9160455, "is_reserved": 0, "lon": -77.04599266666666, "fusion_lon": 0.0, "is_disabled": 0, "fusion_lat": 0.0, "bike_id": "e040b9422208750c2b28264582503e10", "rental_uris": {"ios": "https://dc.lft.to/lastmile_qr_scan", "android": "https://dc.lft.to/lastmile_qr_scan"}}, {"name": "bfcad276536171e460fd3b9af4670f58", "type": "electric_scooter", "lat": 38.89754216666667, "is_reserved": 0, "lon": -77.05160583333333, "fusion_lon": 0.0, "is_disabled": 0, "fusion_lat": 0.0, "bike_id": "bfcad276536171e460fd3b9af4670f58", "rental_uris": {"ios": "https://dc.lft.to/lastmile_qr_scan", "android": "https://dc.lft.to/lastmile_qr_scan"}}, {"name": "0c0093781b0c5c789d9ecd5c490e3cce", "type": "electric_scooter", "lat": 38.952956666666665, "is_reserved": 0, "lon": -77.06840416666667, "fusion_lon": 0.0, "is_disabled": 0, "fusion_lat": 0.0, "bike_id": "0c0093781b0c5c789d9ecd5c490e3cce", "rental_uris": {"ios": "https://dc.lft.to/lastmile_qr_scan", "android": "https://dc.lft.to/lastmile_qr_scan"}}, {"name": "036dd86707dc22331c73182f70829f96", "type": "electric_scooter", "lat": 38.91821, "is_reserved": 0, "lon": -77.03443016666667, "fusion_lon": 0.0, "is_disabled": 0, "fusion_lat": 0.0, "bike_id": "036dd86707dc22331c73182f70829f96", "rental_uris": {"ios": "https://dc.lft.to/lastmile_qr_scan", "android": "https://dc.lft.to/lastmile_qr_scan"}}, {"name": "15c15c55bb3bbf558c5a9cd08d08c7a6", "type": "electric_scooter", "lat": 38.903658666666665, "is_reserved": 0, "lon": -77.04033366666667, "fusion_lon": 0.0, "is_disabled": 0, "fusion_lat": 0.0, "bike_id": "15c15c55bb3bbf558c5a9cd08d08c7a6", "rental_uris": {"ios": "https://dc.lft.to/lastmile_qr_scan", "android": "https://dc.lft.to/lastmile_qr_scan"}}, {"name": "a2ed3fb704c6c87eb3d7588db4e72323", "type": "electric_scooter", "lat": 38.932984833333336, "is_reserved": 0, "lon": -77.028048, "fusion_lon": 0.0, "is_disabled": 0, "fusion_lat": 0.0, "bike_id": "a2ed3fb704c6c87eb3d7588db4e72323", "rental_uris": {"ios": "https://dc.lft.to/lastmile_qr_scan", "android": "https://dc.lft.to/lastmile_qr_scan"}}, {"name": "42ebbe81a7214e7be8a3bea6d0b083cd", "type": "electric_bike", "lat": 38.85802316666667, "is_reserved": 0, "lon": -76.98751483333334, "fusion_lon": 0.0, "is_disabled": 0, "fusion_lat": 0.0, "bike_id": "42ebbe81a7214e7be8a3bea6d0b083cd", "rental_uris": {"ios": "https://dc.lft.to/lastmile_qr_scan", "android": "https://dc.lft.to/lastmile_qr_scan"}}, {"name": "b652771841733a15561b0f82e74a1310", "type": "electric_scooter", "lat": 38.92029983333333, "is_reserved": 0, "lon": -77.01120883333333, "fusion_lon": 0.0, "is_disabled": 0, "fusion_lat": 0.0, "bike_id": "b652771841733a15561b0f82e74a1310", "rental_uris": {"ios": "https://dc.lft.to/lastmile_qr_scan", "android": "https://dc.lft.to/lastmile_qr_scan"}}, {"name": "b0defd44e6d413b76002bfa35d8c2d44", "type": "electric_scooter", "lat": 38.91551466666667, "is_reserved": 0, "lon": -77.07271383333334, "fusion_lon": 0.0, "is_disabled": 0, "fusion_lat": 0.0, "bike_id": "b0defd44e6d413b76002bfa35d8c2d44", "rental_uris": {"ios": "https://dc.lft.to/lastmile_qr_scan", "android": "https://dc.lft.to/lastmile_qr_scan"}}, {"name": "4255f9c6822f831883761366d3f321c9", "type": "electric_scooter", "lat": 38.842918833333336, "is_reserved": 0, "lon": -76.999507, "fusion_lon": 0.0, "is_disabled": 0, "fusion_lat": 0.0, "bike_id": "4255f9c6822f831883761366d3f321c9", "rental_uris": {"ios": "https://dc.lft.to/lastmile_qr_scan", "android": "https://dc.lft.to/lastmile_qr_scan"}}, {"name": "15afa296976bb6656c2e9c872e2c40ec", "type": "electric_scooter", "lat": 38.89737983333333, "is_reserved": 0, "lon": -76.94722983333334, "fusion_lon": 0.0, "is_disabled": 0, "fusion_lat": 0.0, "bike_id": "15afa296976bb6656c2e9c872e2c40ec", "rental_uris": {"ios": "https://dc.lft.to/lastmile_qr_scan", "android": "https://dc.lft.to/lastmile_qr_scan"}}, {"name": "de7b9fa08af8738bffea90bd1e77e94c", "type": "electric_scooter", "lat": 38.97476983333333, "is_reserved": 0, "lon": -77.01898416666667, "fusion_lon": 0.0, "is_disabled": 0, "fusion_lat": 0.0, "bike_id": "de7b9fa08af8738bffea90bd1e77e94c", "rental_uris": {"ios": "https://dc.lft.to/lastmile_qr_scan", "android": "https://dc.lft.to/lastmile_qr_scan"}}, {"name": "da0fb835ff9545eac47aad4fb82ba1c9", "type": "electric_scooter", "lat": 38.9013775, "is_reserved": 0, "lon": -77.04444033333333, "fusion_lon": 0.0, "is_disabled": 0, "fusion_lat": 0.0, "bike_id": "da0fb835ff9545eac47aad4fb82ba1c9", "rental_uris": {"ios": "https://dc.lft.to/lastmile_qr_scan", "android": "https://dc.lft.to/lastmile_qr_scan"}}, {"name": "756d4b7ca4d1151c7ce30c039bc2f58a", "type": "electric_scooter", "lat": 38.93445416666667, "is_reserved": 0, "lon": -77.02844516666667, "fusion_lon": 0.0, "is_disabled": 0, "fusion_lat": 0.0, "bike_id": "756d4b7ca4d1151c7ce30c039bc2f58a", "rental_uris": {"ios": "https://dc.lft.to/lastmile_qr_scan", "android": "https://dc.lft.to/lastmile_qr_scan"}}, {"name": "3b6e5a8ea79e11d845e4e77450374be3", "type": "electric_scooter", "lat": 38.922337, "is_reserved": 0, "lon": -77.038898, "fusion_lon": 0.0, "is_disabled": 0, "fusion_lat": 0.0, "bike_id": "3b6e5a8ea79e11d845e4e77450374be3", "rental_uris": {"ios": "https://dc.lft.to/lastmile_qr_scan", "android": "https://dc.lft.to/lastmile_qr_scan"}}, {"name": "cb8265f0eb959bc25df2426f42d8129f", "type": "electric_scooter", "lat": 38.89768633333333, "is_reserved": 0, "lon": -77.02690783333334, "fusion_lon": 0.0, "is_disabled": 0, "fusion_lat": 0.0, "bike_id": "cb8265f0eb959bc25df2426f42d8129f", "rental_uris": {"ios": "https://dc.lft.to/lastmile_qr_scan", "android": "https://dc.lft.to/lastmile_qr_scan"}}, {"name": "183b2022d0449169554f8182ca7e5e1a", "type": "electric_scooter", "lat": 38.8670075, "is_reserved": 0, "lon": -76.987159, "fusion_lon": 0.0, "is_disabled": 0, "fusion_lat": 0.0, "bike_id": "183b2022d0449169554f8182ca7e5e1a", "rental_uris": {"ios": "https://dc.lft.to/lastmile_qr_scan", "android": "https://dc.lft.to/lastmile_qr_scan"}}, {"name": "7df2bd833ebbccf81ac1cb7f319e9b87", "type": "electric_scooter", "lat": 38.930935166666664, "is_reserved": 0, "lon": -77.034448, "fusion_lon": 0.0, "is_disabled": 0, "fusion_lat": 0.0, "bike_id": "7df2bd833ebbccf81ac1cb7f319e9b87", "rental_uris": {"ios": "https://dc.lft.to/lastmile_qr_scan", "android": "https://dc.lft.to/lastmile_qr_scan"}}, {"name": "d35fc66b8a7e7713c33c81bf3dcaeaab", "type": "electric_scooter", "lat": 38.93252666666667, "is_reserved": 0, "lon": -77.029528, "fusion_lon": 0.0, "is_disabled": 0, "fusion_lat": 0.0, "bike_id": "d35fc66b8a7e7713c33c81bf3dcaeaab", "rental_uris": {"ios": "https://dc.lft.to/lastmile_qr_scan", "android": "https://dc.lft.to/lastmile_qr_scan"}}, {"name": "2e1a754e252ec40850108e9bb86f79f1", "type": "electric_scooter", "lat": 38.905881, "is_reserved": 0, "lon": -77.00603366666667, "fusion_lon": 0.0, "is_disabled": 0, "fusion_lat": 0.0, "bike_id": "2e1a754e252ec40850108e9bb86f79f1", "rental_uris": {"ios": "https://dc.lft.to/lastmile_qr_scan", "android": "https://dc.lft.to/lastmile_qr_scan"}}, {"name": "4dd3a5ed956bf322712621b9bff0f490", "type": "electric_scooter", "lat": 38.93122966666667, "is_reserved": 0, "lon": -77.03604066666666, "fusion_lon": 0.0, "is_disabled": 0, "fusion_lat": 0.0, "bike_id": "4dd3a5ed956bf322712621b9bff0f490", "rental_uris": {"ios": "https://dc.lft.to/lastmile_qr_scan", "android": "https://dc.lft.to/lastmile_qr_scan"}}, {"name": "6582a42437e9c8c1a6826f186fd0cff8", "type": "electric_scooter", "lat": 38.9064975, "is_reserved": 0, "lon": -77.02957683333334, "fusion_lon": 0.0, "is_disabled": 0, "fusion_lat": 0.0, "bike_id": "6582a42437e9c8c1a6826f186fd0cff8", "rental_uris": {"ios": "https://dc.lft.to/lastmile_qr_scan", "android": "https://dc.lft.to/lastmile_qr_scan"}}, {"name": "258d8bec2e01ca99888985ca3ad268e6", "type": "electric_bike", "lat": 38.89769883333334, "is_reserved": 0, "lon": -76.90436433333333, "fusion_lon": 0.0, "is_disabled": 0, "fusion_lat": 0.0, "bike_id": "258d8bec2e01ca99888985ca3ad268e6", "rental_uris": {"ios": "https://dc.lft.to/lastmile_qr_scan", "android": "https://dc.lft.to/lastmile_qr_scan"}}, {"name": "78b26cec7f2cc5e80e86a287f1e85e13", "type": "electric_scooter", "lat": 38.89666183333333, "is_reserved": 0, "lon": -77.011927, "fusion_lon": 0.0, "is_disabled": 0, "fusion_lat": 0.0, "bike_id": "78b26cec7f2cc5e80e86a287f1e85e13", "rental_uris": {"ios": "https://dc.lft.to/lastmile_qr_scan", "android": "https://dc.lft.to/lastmile_qr_scan"}}, {"name": "9c0ab5ee7ae2d6d9947ed2a98dc7279b", "type": "electric_bike", "lat": 38.94624566666667, "is_reserved": 0, "lon": -76.94628033333333, "fusion_lon": 0.0, "is_disabled": 0, "fusion_lat": 0.0, "bike_id": "9c0ab5ee7ae2d6d9947ed2a98dc7279b", "rental_uris": {"ios": "https://dc.lft.to/lastmile_qr_scan", "android": "https://dc.lft.to/lastmile_qr_scan"}}, {"name": "2fe1a8ce3599527985165024f91ecbc3", "type": "electric_scooter", "lat": 38.89943183333333, "is_reserved": 0, "lon": -77.03177633333334, "fusion_lon": 0.0, "is_disabled": 0, "fusion_lat": 0.0, "bike_id": "2fe1a8ce3599527985165024f91ecbc3", "rental_uris": {"ios": "https://dc.lft.to/lastmile_qr_scan", "android": "https://dc.lft.to/lastmile_qr_scan"}}, {"name": "ab0a29f2c5aeaac5e9f5ac12d2ed1159", "type": "electric_scooter", "lat": 38.90394783333333, "is_reserved": 0, "lon": -76.98073183333334, "fusion_lon": 0.0, "is_disabled": 0, "fusion_lat": 0.0, "bike_id": "ab0a29f2c5aeaac5e9f5ac12d2ed1159", "rental_uris": {"ios": "https://dc.lft.to/lastmile_qr_scan", "android": "https://dc.lft.to/lastmile_qr_scan"}}, {"name": "a320698b0732e62909b26dc6d8a6e803", "type": "electric_scooter", "lat": 38.8708625, "is_reserved": 0, "lon": -77.01208566666666, "fusion_lon": 0.0, "is_disabled": 0, "fusion_lat": 0.0, "bike_id": "a320698b0732e62909b26dc6d8a6e803", "rental_uris": {"ios": "https://dc.lft.to/lastmile_qr_scan", "android": "https://dc.lft.to/lastmile_qr_scan"}}, {"name": "e8eeb219f82fc225a4eb5dbe4d9803b3", "type": "electric_scooter", "lat": 38.92135116666667, "is_reserved": 0, "lon": -77.02422816666666, "fusion_lon": 0.0, "is_disabled": 0, "fusion_lat": 0.0, "bike_id": "e8eeb219f82fc225a4eb5dbe4d9803b3", "rental_uris": {"ios": "https://dc.lft.to/lastmile_qr_scan", "android": "https://dc.lft.to/lastmile_qr_scan"}}, {"name": "06e94f52d1b210dfaec0851b1e42a2e4", "type": "electric_scooter", "lat": 38.924746166666665, "is_reserved": 0, "lon": -77.03773916666667, "fusion_lon": 0.0, "is_disabled": 0, "fusion_lat": 0.0, "bike_id": "06e94f52d1b210dfaec0851b1e42a2e4", "rental_uris": {"ios": "https://dc.lft.to/lastmile_qr_scan", "android": "https://dc.lft.to/lastmile_qr_scan"}}, {"name": "89c3ba3bd97a4755dbd78d02e365a774", "type": "electric_scooter", "lat": 38.907888166666666, "is_reserved": 0, "lon": -77.0097395, "fusion_lon": 0.0, "is_disabled": 0, "fusion_lat": 0.0, "bike_id": "89c3ba3bd97a4755dbd78d02e365a774", "rental_uris": {"ios": "https://dc.lft.to/lastmile_qr_scan", "android": "https://dc.lft.to/lastmile_qr_scan"}}, {"name": "71f557f2d75f61fd5dc762417f0cda4e", "type": "electric_scooter", "lat": 38.91737633333334, "is_reserved": 0, "lon": -77.0102375, "fusion_lon": 0.0, "is_disabled": 0, "fusion_lat": 0.0, "bike_id": "71f557f2d75f61fd5dc762417f0cda4e", "rental_uris": {"ios": "https://dc.lft.to/lastmile_qr_scan", "android": "https://dc.lft.to/lastmile_qr_scan"}}, {"name": "4c34805133613a3d724ea3455cac8e08", "type": "electric_scooter", "lat": 38.90561816666667, "is_reserved": 0, "lon": -77.02816683333333, "fusion_lon": 0.0, "is_disabled": 0, "fusion_lat": 0.0, "bike_id": "4c34805133613a3d724ea3455cac8e08", "rental_uris": {"ios": "https://dc.lft.to/lastmile_qr_scan", "android": "https://dc.lft.to/lastmile_qr_scan"}}, {"name": "e84293157b246a4354fb76ef9f5d3b88", "type": "electric_bike", "lat": 38.96125583333333, "is_reserved": 0, "lon": -77.03275166666667, "fusion_lon": 0.0, "is_disabled": 0, "fusion_lat": 0.0, "bike_id": "e84293157b246a4354fb76ef9f5d3b88", "rental_uris": {"ios": "https://dc.lft.to/lastmile_qr_scan", "android": "https://dc.lft.to/lastmile_qr_scan"}}, {"name": "9c4e49fd6f22402ce40916857033b8b4", "type": "electric_scooter", "lat": 38.924475666666666, "is_reserved": 0, "lon": -76.99336183333334, "fusion_lon": 0.0, "is_disabled": 0, "fusion_lat": 0.0, "bike_id": "9c4e49fd6f22402ce40916857033b8b4", "rental_uris": {"ios": "https://dc.lft.to/lastmile_qr_scan", "android": "https://dc.lft.to/lastmile_qr_scan"}}, {"name": "d688f0c072a04b25bbbb001936a474ca", "type": "electric_scooter", "lat": 38.915533833333335, "is_reserved": 0, "lon": -77.04612483333334, "fusion_lon": 0.0, "is_disabled": 0, "fusion_lat": 0.0, "bike_id": "d688f0c072a04b25bbbb001936a474ca", "rental_uris": {"ios": "https://dc.lft.to/lastmile_qr_scan", "android": "https://dc.lft.to/lastmile_qr_scan"}}, {"name": "3735d10b1543de5fee62ff1f89eb6ea0", "type": "electric_scooter", "lat": 38.90889216666667, "is_reserved": 0, "lon": -77.00572116666666, "fusion_lon": 0.0, "is_disabled": 0, "fusion_lat": 0.0, "bike_id": "3735d10b1543de5fee62ff1f89eb6ea0", "rental_uris": {"ios": "https://dc.lft.to/lastmile_qr_scan", "android": "https://dc.lft.to/lastmile_qr_scan"}}, {"name": "7a21c6cfcd56cdc7969d3b8775134200", "type": "electric_scooter", "lat": 38.91259816666667, "is_reserved": 0, "lon": -77.033294, "fusion_lon": 0.0, "is_disabled": 0, "fusion_lat": 0.0, "bike_id": "7a21c6cfcd56cdc7969d3b8775134200", "rental_uris": {"ios": "https://dc.lft.to/lastmile_qr_scan", "android": "https://dc.lft.to/lastmile_qr_scan"}}, {"name": "70ae4c4bd077fe6115d22f357dc278cd", "type": "electric_scooter", "lat": 38.89877333333333, "is_reserved": 0, "lon": -76.9315845, "fusion_lon": 0.0, "is_disabled": 0, "fusion_lat": 0.0, "bike_id": "70ae4c4bd077fe6115d22f357dc278cd", "rental_uris": {"ios": "https://dc.lft.to/lastmile_qr_scan", "android": "https://dc.lft.to/lastmile_qr_scan"}}, {"name": "838d0800ad83fe9d717b04356ea893c2", "type": "electric_scooter", "lat": 38.94400866666667, "is_reserved": 0, "lon": -77.0389575, "fusion_lon": 0.0, "is_disabled": 0, "fusion_lat": 0.0, "bike_id": "838d0800ad83fe9d717b04356ea893c2", "rental_uris": {"ios": "https://dc.lft.to/lastmile_qr_scan", "android": "https://dc.lft.to/lastmile_qr_scan"}}, {"name": "40598a42bcb21fe9a0ea7be26a67b55e", "type": "electric_scooter", "lat": 38.919008166666664, "is_reserved": 0, "lon": -77.04173683333333, "fusion_lon": 0.0, "is_disabled": 0, "fusion_lat": 0.0, "bike_id": "40598a42bcb21fe9a0ea7be26a67b55e", "rental_uris": {"ios": "https://dc.lft.to/lastmile_qr_scan", "android": "https://dc.lft.to/lastmile_qr_scan"}}, {"name": "a70106d29a604cf6c36448f95e3846d5", "type": "electric_scooter", "lat": 38.92754633333333, "is_reserved": 0, "lon": -77.02424016666667, "fusion_lon": 0.0, "is_disabled": 0, "fusion_lat": 0.0, "bike_id": "a70106d29a604cf6c36448f95e3846d5", "rental_uris": {"ios": "https://dc.lft.to/lastmile_qr_scan", "android": "https://dc.lft.to/lastmile_qr_scan"}}, {"name": "8d7af5b1802bf810aa012a07df582bda", "type": "electric_scooter", "lat": 38.90241733333333, "is_reserved": 0, "lon": -77.00201433333334, "fusion_lon": 0.0, "is_disabled": 0, "fusion_lat": 0.0, "bike_id": "8d7af5b1802bf810aa012a07df582bda", "rental_uris": {"ios": "https://dc.lft.to/lastmile_qr_scan", "android": "https://dc.lft.to/lastmile_qr_scan"}}, {"name": "253962a25871723b5a3cab7f30fc8ae8", "type": "electric_scooter", "lat": 38.908668, "is_reserved": 0, "lon": -77.02502516666667, "fusion_lon": 0.0, "is_disabled": 0, "fusion_lat": 0.0, "bike_id": "253962a25871723b5a3cab7f30fc8ae8", "rental_uris": {"ios": "https://dc.lft.to/lastmile_qr_scan", "android": "https://dc.lft.to/lastmile_qr_scan"}}, {"name": "d53743215662877629ce4be56a17197d", "type": "electric_scooter", "lat": 38.903704166666664, "is_reserved": 0, "lon": -77.04476833333334, "fusion_lon": 0.0, "is_disabled": 0, "fusion_lat": 0.0, "bike_id": "d53743215662877629ce4be56a17197d", "rental_uris": {"ios": "https://dc.lft.to/lastmile_qr_scan", "android": "https://dc.lft.to/lastmile_qr_scan"}}, {"name": "546fb0f9eaf7617b64461ef9dd95b932", "type": "electric_scooter", "lat": 38.91760716666667, "is_reserved": 0, "lon": -77.02700933333334, "fusion_lon": 0.0, "is_disabled": 0, "fusion_lat": 0.0, "bike_id": "546fb0f9eaf7617b64461ef9dd95b932", "rental_uris": {"ios": "https://dc.lft.to/lastmile_qr_scan", "android": "https://dc.lft.to/lastmile_qr_scan"}}, {"name": "8287562abfc240b21ac69b76f1063df6", "type": "electric_bike", "lat": 38.8808065, "is_reserved": 0, "lon": -76.98535883333334, "fusion_lon": 0.0, "is_disabled": 0, "fusion_lat": 0.0, "bike_id": "8287562abfc240b21ac69b76f1063df6", "rental_uris": {"ios": "https://dc.lft.to/lastmile_qr_scan", "android": "https://dc.lft.to/lastmile_qr_scan"}}, {"name": "e94003cfbb0e1e8012cc295d34439b06", "type": "electric_scooter", "lat": 38.915713833333335, "is_reserved": 0, "lon": -77.046228, "fusion_lon": 0.0, "is_disabled": 0, "fusion_lat": 0.0, "bike_id": "e94003cfbb0e1e8012cc295d34439b06", "rental_uris": {"ios": "https://dc.lft.to/lastmile_qr_scan", "android": "https://dc.lft.to/lastmile_qr_scan"}}, {"name": "632e092cde09040c93db701cdc4583c4", "type": "electric_scooter", "lat": 38.9170615, "is_reserved": 0, "lon": -77.03127866666667, "fusion_lon": 0.0, "is_disabled": 0, "fusion_lat": 0.0, "bike_id": "632e092cde09040c93db701cdc4583c4", "rental_uris": {"ios": "https://dc.lft.to/lastmile_qr_scan", "android": "https://dc.lft.to/lastmile_qr_scan"}}, {"name": "4f9d14fcef7d7dee696481a29957e686", "type": "electric_scooter", "lat": 38.922425, "is_reserved": 0, "lon": -77.03089866666667, "fusion_lon": 0.0, "is_disabled": 0, "fusion_lat": 0.0, "bike_id": "4f9d14fcef7d7dee696481a29957e686", "rental_uris": {"ios": "https://dc.lft.to/lastmile_qr_scan", "android": "https://dc.lft.to/lastmile_qr_scan"}}, {"name": "b540fb7fb07393fedc7a785955ccb289", "type": "electric_scooter", "lat": 38.885189, "is_reserved": 0, "lon": -77.00570616666667, "fusion_lon": 0.0, "is_disabled": 0, "fusion_lat": 0.0, "bike_id": "b540fb7fb07393fedc7a785955ccb289", "rental_uris": {"ios": "https://dc.lft.to/lastmile_qr_scan", "android": "https://dc.lft.to/lastmile_qr_scan"}}, {"name": "0367ab75a5761f9fb5bba2f8c809535b", "type": "electric_scooter", "lat": 38.926876, "is_reserved": 0, "lon": -77.06650983333333, "fusion_lon": 0.0, "is_disabled": 0, "fusion_lat": 0.0, "bike_id": "0367ab75a5761f9fb5bba2f8c809535b", "rental_uris": {"ios": "https://dc.lft.to/lastmile_qr_scan", "android": "https://dc.lft.to/lastmile_qr_scan"}}, {"name": "5695a9b2dc343427a50b1a2cddb5cdf9", "type": "electric_scooter", "lat": 38.9140525, "is_reserved": 0, "lon": -77.0084325, "fusion_lon": 0.0, "is_disabled": 0, "fusion_lat": 0.0, "bike_id": "5695a9b2dc343427a50b1a2cddb5cdf9", "rental_uris": {"ios": "https://dc.lft.to/lastmile_qr_scan", "android": "https://dc.lft.to/lastmile_qr_scan"}}, {"name": "1c0a47af0c9f9bf4d297fe83987f5816", "type": "electric_scooter", "lat": 38.89814166666667, "is_reserved": 0, "lon": -77.03116483333334, "fusion_lon": 0.0, "is_disabled": 0, "fusion_lat": 0.0, "bike_id": "1c0a47af0c9f9bf4d297fe83987f5816", "rental_uris": {"ios": "https://dc.lft.to/lastmile_qr_scan", "android": "https://dc.lft.to/lastmile_qr_scan"}}, {"name": "921d12ad19539e5ab3aa118278688be2", "type": "electric_scooter", "lat": 38.8950845, "is_reserved": 0, "lon": -77.01094833333333, "fusion_lon": 0.0, "is_disabled": 0, "fusion_lat": 0.0, "bike_id": "921d12ad19539e5ab3aa118278688be2", "rental_uris": {"ios": "https://dc.lft.to/lastmile_qr_scan", "android": "https://dc.lft.to/lastmile_qr_scan"}}, {"name": "ae327bb4ec48c849f2aa6448071721bf", "type": "electric_scooter", "lat": 38.903737666666665, "is_reserved": 0, "lon": -77.01742066666667, "fusion_lon": 0.0, "is_disabled": 0, "fusion_lat": 0.0, "bike_id": "ae327bb4ec48c849f2aa6448071721bf", "rental_uris": {"ios": "https://dc.lft.to/lastmile_qr_scan", "android": "https://dc.lft.to/lastmile_qr_scan"}}, {"name": "dc275a94ae5e5f3fe9bed9b12d701974", "type": "electric_scooter", "lat": 38.929851166666666, "is_reserved": 0, "lon": -77.03472133333334, "fusion_lon": 0.0, "is_disabled": 0, "fusion_lat": 0.0, "bike_id": "dc275a94ae5e5f3fe9bed9b12d701974", "rental_uris": {"ios": "https://dc.lft.to/lastmile_qr_scan", "android": "https://dc.lft.to/lastmile_qr_scan"}}, {"name": "7a924fd3128b6caef8474106c0b8aabd", "type": "electric_bike", "lat": 38.87734416666667, "is_reserved": 0, "lon": -77.11845816666667, "fusion_lon": 0.0, "is_disabled": 0, "fusion_lat": 0.0, "bike_id": "7a924fd3128b6caef8474106c0b8aabd", "rental_uris": {"ios": "https://dc.lft.to/lastmile_qr_scan", "android": "https://dc.lft.to/lastmile_qr_scan"}}, {"name": "4b70de194667e137823f0198fb07d47e", "type": "electric_scooter", "lat": 38.93067333333333, "is_reserved": 0, "lon": -77.0380215, "fusion_lon": 0.0, "is_disabled": 0, "fusion_lat": 0.0, "bike_id": "4b70de194667e137823f0198fb07d47e", "rental_uris": {"ios": "https://dc.lft.to/lastmile_qr_scan", "android": "https://dc.lft.to/lastmile_qr_scan"}}, {"name": "db026795186bdd3832f5aa1780377051", "type": "electric_scooter", "lat": 38.911186666666666, "is_reserved": 0, "lon": -77.00249883333333, "fusion_lon": 0.0, "is_disabled": 0, "fusion_lat": 0.0, "bike_id": "db026795186bdd3832f5aa1780377051", "rental_uris": {"ios": "https://dc.lft.to/lastmile_qr_scan", "android": "https://dc.lft.to/lastmile_qr_scan"}}, {"name": "180bac907984694d0f9ccea039ac57b4", "type": "electric_scooter", "lat": 38.9121455, "is_reserved": 0, "lon": -77.02803833333333, "fusion_lon": 0.0, "is_disabled": 0, "fusion_lat": 0.0, "bike_id": "180bac907984694d0f9ccea039ac57b4", "rental_uris": {"ios": "https://dc.lft.to/lastmile_qr_scan", "android": "https://dc.lft.to/lastmile_qr_scan"}}, {"name": "34ad2e760f328e909ee64a51bed3334d", "type": "electric_scooter", "lat": 38.883528, "is_reserved": 0, "lon": -76.98557966666667, "fusion_lon": 0.0, "is_disabled": 0, "fusion_lat": 0.0, "bike_id": "34ad2e760f328e909ee64a51bed3334d", "rental_uris": {"ios": "https://dc.lft.to/lastmile_qr_scan", "android": "https://dc.lft.to/lastmile_qr_scan"}}, {"name": "be44a2f7442e9110bbe134b01060c9c7", "type": "electric_scooter", "lat": 38.9320985, "is_reserved": 0, "lon": -77.02389333333333, "fusion_lon": 0.0, "is_disabled": 0, "fusion_lat": 0.0, "bike_id": "be44a2f7442e9110bbe134b01060c9c7", "rental_uris": {"ios": "https://dc.lft.to/lastmile_qr_scan", "android": "https://dc.lft.to/lastmile_qr_scan"}}, {"name": "ca03b42d4f63c1f609a9073a9a0db875", "type": "electric_scooter", "lat": 38.878871833333335, "is_reserved": 0, "lon": -77.02285133333334, "fusion_lon": 0.0, "is_disabled": 0, "fusion_lat": 0.0, "bike_id": "ca03b42d4f63c1f609a9073a9a0db875", "rental_uris": {"ios": "https://dc.lft.to/lastmile_qr_scan", "android": "https://dc.lft.to/lastmile_qr_scan"}}, {"name": "f1265de6d66aa42f86830cd963aa1a16", "type": "electric_scooter", "lat": 38.93898133333333, "is_reserved": 0, "lon": -77.01760133333333, "fusion_lon": 0.0, "is_disabled": 0, "fusion_lat": 0.0, "bike_id": "f1265de6d66aa42f86830cd963aa1a16", "rental_uris": {"ios": "https://dc.lft.to/lastmile_qr_scan", "android": "https://dc.lft.to/lastmile_qr_scan"}}, {"name": "0a2e6a478494e12fb64d2abc02040e9c", "type": "electric_scooter", "lat": 38.9396435, "is_reserved": 0, "lon": -77.05321466666666, "fusion_lon": 0.0, "is_disabled": 0, "fusion_lat": 0.0, "bike_id": "0a2e6a478494e12fb64d2abc02040e9c", "rental_uris": {"ios": "https://dc.lft.to/lastmile_qr_scan", "android": "https://dc.lft.to/lastmile_qr_scan"}}, {"name": "c0e6cf53d41308d9ffe67a167c5a749c", "type": "electric_scooter", "lat": 38.903024333333335, "is_reserved": 0, "lon": -77.06028066666667, "fusion_lon": 0.0, "is_disabled": 0, "fusion_lat": 0.0, "bike_id": "c0e6cf53d41308d9ffe67a167c5a749c", "rental_uris": {"ios": "https://dc.lft.to/lastmile_qr_scan", "android": "https://dc.lft.to/lastmile_qr_scan"}}, {"name": "c59247363518341cebe009ab98634c53", "type": "electric_scooter", "lat": 38.8972875, "is_reserved": 0, "lon": -77.00151733333334, "fusion_lon": 0.0, "is_disabled": 0, "fusion_lat": 0.0, "bike_id": "c59247363518341cebe009ab98634c53", "rental_uris": {"ios": "https://dc.lft.to/lastmile_qr_scan", "android": "https://dc.lft.to/lastmile_qr_scan"}}, {"name": "4cbe4b68201c2e3ff18a381a49530264", "type": "electric_scooter", "lat": 38.90610266666667, "is_reserved": 0, "lon": -77.05119883333333, "fusion_lon": 0.0, "is_disabled": 0, "fusion_lat": 0.0, "bike_id": "4cbe4b68201c2e3ff18a381a49530264", "rental_uris": {"ios": "https://dc.lft.to/lastmile_qr_scan", "android": "https://dc.lft.to/lastmile_qr_scan"}}, {"name": "e98788c2285e36b9e725a13bc9ed0969", "type": "electric_scooter", "lat": 38.90730216666667, "is_reserved": 0, "lon": -77.0421375, "fusion_lon": 0.0, "is_disabled": 0, "fusion_lat": 0.0, "bike_id": "e98788c2285e36b9e725a13bc9ed0969", "rental_uris": {"ios": "https://dc.lft.to/lastmile_qr_scan", "android": "https://dc.lft.to/lastmile_qr_scan"}}, {"name": "be916103bb4030870002260c0748d27d", "type": "electric_scooter", "lat": 38.92456083333333, "is_reserved": 0, "lon": -76.9990595, "fusion_lon": 0.0, "is_disabled": 0, "fusion_lat": 0.0, "bike_id": "be916103bb4030870002260c0748d27d", "rental_uris": {"ios": "https://dc.lft.to/lastmile_qr_scan", "android": "https://dc.lft.to/lastmile_qr_scan"}}, {"name": "80269eaa52fe2e638776bac7bd542be0", "type": "electric_scooter", "lat": 38.900937166666665, "is_reserved": 0, "lon": -77.02159233333333, "fusion_lon": 0.0, "is_disabled": 0, "fusion_lat": 0.0, "bike_id": "80269eaa52fe2e638776bac7bd542be0", "rental_uris": {"ios": "https://dc.lft.to/lastmile_qr_scan", "android": "https://dc.lft.to/lastmile_qr_scan"}}, {"name": "937b0d36c934396d980d99d546c37745", "type": "electric_scooter", "lat": 38.9084745, "is_reserved": 0, "lon": -77.02062233333334, "fusion_lon": 0.0, "is_disabled": 0, "fusion_lat": 0.0, "bike_id": "937b0d36c934396d980d99d546c37745", "rental_uris": {"ios": "https://dc.lft.to/lastmile_qr_scan", "android": "https://dc.lft.to/lastmile_qr_scan"}}, {"name": "c1f5b746648aaec17d217e0fa6ace999", "type": "electric_scooter", "lat": 38.9311635, "is_reserved": 0, "lon": -77.02104766666666, "fusion_lon": 0.0, "is_disabled": 0, "fusion_lat": 0.0, "bike_id": "c1f5b746648aaec17d217e0fa6ace999", "rental_uris": {"ios": "https://dc.lft.to/lastmile_qr_scan", "android": "https://dc.lft.to/lastmile_qr_scan"}}, {"name": "86029a26eeccecd567f62d002c7870a7", "type": "electric_scooter", "lat": 38.918639166666665, "is_reserved": 0, "lon": -77.023076, "fusion_lon": 0.0, "is_disabled": 0, "fusion_lat": 0.0, "bike_id": "86029a26eeccecd567f62d002c7870a7", "rental_uris": {"ios": "https://dc.lft.to/lastmile_qr_scan", "android": "https://dc.lft.to/lastmile_qr_scan"}}, {"name": "16d9282538e2b682accb6f5940cf8960", "type": "electric_scooter", "lat": 38.88327016666667, "is_reserved": 0, "lon": -77.01762316666667, "fusion_lon": 0.0, "is_disabled": 0, "fusion_lat": 0.0, "bike_id": "16d9282538e2b682accb6f5940cf8960", "rental_uris": {"ios": "https://dc.lft.to/lastmile_qr_scan", "android": "https://dc.lft.to/lastmile_qr_scan"}}, {"name": "50cb55a42900c8e5ce5661883b8e53fa", "type": "electric_scooter", "lat": 38.94929966666667, "is_reserved": 0, "lon": -77.0193875, "fusion_lon": 0.0, "is_disabled": 0, "fusion_lat": 0.0, "bike_id": "50cb55a42900c8e5ce5661883b8e53fa", "rental_uris": {"ios": "https://dc.lft.to/lastmile_qr_scan", "android": "https://dc.lft.to/lastmile_qr_scan"}}, {"name": "f15bfc855d5d390399ac1471a1ac3da3", "type": "electric_scooter", "lat": 38.90980366666667, "is_reserved": 0, "lon": -77.06712416666667, "fusion_lon": 0.0, "is_disabled": 0, "fusion_lat": 0.0, "bike_id": "f15bfc855d5d390399ac1471a1ac3da3", "rental_uris": {"ios": "https://dc.lft.to/lastmile_qr_scan", "android": "https://dc.lft.to/lastmile_qr_scan"}}, {"name": "92959b0d75060482ae211f21d8f433ef", "type": "electric_scooter", "lat": 38.917874166666664, "is_reserved": 0, "lon": -77.02303183333333, "fusion_lon": 0.0, "is_disabled": 0, "fusion_lat": 0.0, "bike_id": "92959b0d75060482ae211f21d8f433ef", "rental_uris": {"ios": "https://dc.lft.to/lastmile_qr_scan", "android": "https://dc.lft.to/lastmile_qr_scan"}}, {"name": "7d3afed8fc677e1a474dfe9f9c8725a0", "type": "electric_scooter", "lat": 38.93489666666667, "is_reserved": 0, "lon": -77.07248116666666, "fusion_lon": 0.0, "is_disabled": 0, "fusion_lat": 0.0, "bike_id": "7d3afed8fc677e1a474dfe9f9c8725a0", "rental_uris": {"ios": "https://dc.lft.to/lastmile_qr_scan", "android": "https://dc.lft.to/lastmile_qr_scan"}}, {"name": "87c622d25ac06e0fa9bd0735b04e3272", "type": "electric_scooter", "lat": 38.91706716666667, "is_reserved": 0, "lon": -77.03467116666667, "fusion_lon": 0.0, "is_disabled": 0, "fusion_lat": 0.0, "bike_id": "87c622d25ac06e0fa9bd0735b04e3272", "rental_uris": {"ios": "https://dc.lft.to/lastmile_qr_scan", "android": "https://dc.lft.to/lastmile_qr_scan"}}, {"name": "d9912be28daece320a605c258a04bb8a", "type": "electric_scooter", "lat": 38.90814683333333, "is_reserved": 0, "lon": -77.00053366666667, "fusion_lon": 0.0, "is_disabled": 0, "fusion_lat": 0.0, "bike_id": "d9912be28daece320a605c258a04bb8a", "rental_uris": {"ios": "https://dc.lft.to/lastmile_qr_scan", "android": "https://dc.lft.to/lastmile_qr_scan"}}, {"name": "5ad7063c066f9800c4af45ef3599fc99", "type": "electric_scooter", "lat": 38.884977166666665, "is_reserved": 0, "lon": -77.00728333333333, "fusion_lon": 0.0, "is_disabled": 0, "fusion_lat": 0.0, "bike_id": "5ad7063c066f9800c4af45ef3599fc99", "rental_uris": {"ios": "https://dc.lft.to/lastmile_qr_scan", "android": "https://dc.lft.to/lastmile_qr_scan"}}, {"name": "3a375dcdafdb0df7e21f291121431fdd", "type": "electric_scooter", "lat": 38.90788466666667, "is_reserved": 0, "lon": -77.009633, "fusion_lon": 0.0, "is_disabled": 0, "fusion_lat": 0.0, "bike_id": "3a375dcdafdb0df7e21f291121431fdd", "rental_uris": {"ios": "https://dc.lft.to/lastmile_qr_scan", "android": "https://dc.lft.to/lastmile_qr_scan"}}, {"name": "606aec8b234833804d79854ae09491ef", "type": "electric_scooter", "lat": 38.90655533333333, "is_reserved": 0, "lon": -77.008939, "fusion_lon": 0.0, "is_disabled": 0, "fusion_lat": 0.0, "bike_id": "606aec8b234833804d79854ae09491ef", "rental_uris": {"ios": "https://dc.lft.to/lastmile_qr_scan", "android": "https://dc.lft.to/lastmile_qr_scan"}}, {"name": "59301fcefadb909dad37869dc9bf916a", "type": "electric_scooter", "lat": 38.92790933333333, "is_reserved": 0, "lon": -77.0398695, "fusion_lon": 0.0, "is_disabled": 0, "fusion_lat": 0.0, "bike_id": "59301fcefadb909dad37869dc9bf916a", "rental_uris": {"ios": "https://dc.lft.to/lastmile_qr_scan", "android": "https://dc.lft.to/lastmile_qr_scan"}}, {"name": "62a00b5021413a9316f4a3774a89426c", "type": "electric_scooter", "lat": 38.90274, "is_reserved": 0, "lon": -77.059625, "fusion_lon": 0.0, "is_disabled": 0, "fusion_lat": 0.0, "bike_id": "62a00b5021413a9316f4a3774a89426c", "rental_uris": {"ios": "https://dc.lft.to/lastmile_qr_scan", "android": "https://dc.lft.to/lastmile_qr_scan"}}, {"name": "df5f9c3aa76ad64bc261fd9a7b250657", "type": "electric_scooter", "lat": 38.92989933333333, "is_reserved": 0, "lon": -77.0248715, "fusion_lon": 0.0, "is_disabled": 0, "fusion_lat": 0.0, "bike_id": "df5f9c3aa76ad64bc261fd9a7b250657", "rental_uris": {"ios": "https://dc.lft.to/lastmile_qr_scan", "android": "https://dc.lft.to/lastmile_qr_scan"}}, {"name": "98d71eb1ff04d6cfef9dce2af2a70819", "type": "electric_scooter", "lat": 38.9119695, "is_reserved": 0, "lon": -77.06097966666667, "fusion_lon": 0.0, "is_disabled": 0, "fusion_lat": 0.0, "bike_id": "98d71eb1ff04d6cfef9dce2af2a70819", "rental_uris": {"ios": "https://dc.lft.to/lastmile_qr_scan", "android": "https://dc.lft.to/lastmile_qr_scan"}}, {"name": "522ad5bae45bafb84c1131dc649c2a1f", "type": "electric_scooter", "lat": 38.90400983333333, "is_reserved": 0, "lon": -77.04358033333334, "fusion_lon": 0.0, "is_disabled": 0, "fusion_lat": 0.0, "bike_id": "522ad5bae45bafb84c1131dc649c2a1f", "rental_uris": {"ios": "https://dc.lft.to/lastmile_qr_scan", "android": "https://dc.lft.to/lastmile_qr_scan"}}, {"name": "d739bc6c7434b8790e2408572f5be37a", "type": "electric_scooter", "lat": 38.904608833333334, "is_reserved": 0, "lon": -77.01427216666667, "fusion_lon": 0.0, "is_disabled": 0, "fusion_lat": 0.0, "bike_id": "d739bc6c7434b8790e2408572f5be37a", "rental_uris": {"ios": "https://dc.lft.to/lastmile_qr_scan", "android": "https://dc.lft.to/lastmile_qr_scan"}}, {"name": "71e298d1cae6e3ec8cbb6499ca512845", "type": "electric_scooter", "lat": 38.9157155, "is_reserved": 0, "lon": -77.039453, "fusion_lon": 0.0, "is_disabled": 0, "fusion_lat": 0.0, "bike_id": "71e298d1cae6e3ec8cbb6499ca512845", "rental_uris": {"ios": "https://dc.lft.to/lastmile_qr_scan", "android": "https://dc.lft.to/lastmile_qr_scan"}}, {"name": "29c08235647330b65bc524f5c54ac4a1", "type": "electric_bike", "lat": 38.929087833333334, "is_reserved": 0, "lon": -77.065034, "fusion_lon": 0.0, "is_disabled": 0, "fusion_lat": 0.0, "bike_id": "29c08235647330b65bc524f5c54ac4a1", "rental_uris": {"ios": "https://dc.lft.to/lastmile_qr_scan", "android": "https://dc.lft.to/lastmile_qr_scan"}}, {"name": "24660f55e7c9da744fca47ddcdd8f83f", "type": "electric_scooter", "lat": 38.92847366666667, "is_reserved": 0, "lon": -77.05427266666666, "fusion_lon": 0.0, "is_disabled": 0, "fusion_lat": 0.0, "bike_id": "24660f55e7c9da744fca47ddcdd8f83f", "rental_uris": {"ios": "https://dc.lft.to/lastmile_qr_scan", "android": "https://dc.lft.to/lastmile_qr_scan"}}, {"name": "c5de6824e40e6521109ceac6e10a8b45", "type": "electric_scooter", "lat": 38.8955, "is_reserved": 0, "lon": -77.00918616666667, "fusion_lon": 0.0, "is_disabled": 0, "fusion_lat": 0.0, "bike_id": "c5de6824e40e6521109ceac6e10a8b45", "rental_uris": {"ios": "https://dc.lft.to/lastmile_qr_scan", "android": "https://dc.lft.to/lastmile_qr_scan"}}, {"name": "07ef482b15a9266cd64d45c4e6288e44", "type": "electric_scooter", "lat": 38.895082333333335, "is_reserved": 0, "lon": -77.00336566666667, "fusion_lon": 0.0, "is_disabled": 0, "fusion_lat": 0.0, "bike_id": "07ef482b15a9266cd64d45c4e6288e44", "rental_uris": {"ios": "https://dc.lft.to/lastmile_qr_scan", "android": "https://dc.lft.to/lastmile_qr_scan"}}, {"name": "89f329c09c6a75edb095b78f6da6f47d", "type": "electric_scooter", "lat": 38.92959716666667, "is_reserved": 0, "lon": -77.02341983333334, "fusion_lon": 0.0, "is_disabled": 0, "fusion_lat": 0.0, "bike_id": "89f329c09c6a75edb095b78f6da6f47d", "rental_uris": {"ios": "https://dc.lft.to/lastmile_qr_scan", "android": "https://dc.lft.to/lastmile_qr_scan"}}, {"name": "d9624b2cf9c6cee85521248ed4671f0c", "type": "electric_bike", "lat": 38.959563833333334, "is_reserved": 0, "lon": -77.10094, "fusion_lon": 0.0, "is_disabled": 0, "fusion_lat": 0.0, "bike_id": "d9624b2cf9c6cee85521248ed4671f0c", "rental_uris": {"ios": "https://dc.lft.to/lastmile_qr_scan", "android": "https://dc.lft.to/lastmile_qr_scan"}}, {"name": "df7d53691c9cbe22cb682b2914b4d297", "type": "electric_scooter", "lat": 38.89385033333333, "is_reserved": 0, "lon": -76.94974383333333, "fusion_lon": 0.0, "is_disabled": 0, "fusion_lat": 0.0, "bike_id": "df7d53691c9cbe22cb682b2914b4d297", "rental_uris": {"ios": "https://dc.lft.to/lastmile_qr_scan", "android": "https://dc.lft.to/lastmile_qr_scan"}}, {"name": "adade044f7f4555d698f8bc36ea470cc", "type": "electric_scooter", "lat": 38.89798283333333, "is_reserved": 0, "lon": -77.02721883333334, "fusion_lon": 0.0, "is_disabled": 0, "fusion_lat": 0.0, "bike_id": "adade044f7f4555d698f8bc36ea470cc", "rental_uris": {"ios": "https://dc.lft.to/lastmile_qr_scan", "android": "https://dc.lft.to/lastmile_qr_scan"}}, {"name": "1ec358d09041494bed0c1b5eb5f2a86c", "type": "electric_scooter", "lat": 38.88209666666667, "is_reserved": 0, "lon": -77.0144745, "fusion_lon": 0.0, "is_disabled": 0, "fusion_lat": 0.0, "bike_id": "1ec358d09041494bed0c1b5eb5f2a86c", "rental_uris": {"ios": "https://dc.lft.to/lastmile_qr_scan", "android": "https://dc.lft.to/lastmile_qr_scan"}}, {"name": "1d3d7f6d3a3bde4a1b1532e9cc3dff6c", "type": "electric_scooter", "lat": 38.92716566666667, "is_reserved": 0, "lon": -77.0211135, "fusion_lon": 0.0, "is_disabled": 0, "fusion_lat": 0.0, "bike_id": "1d3d7f6d3a3bde4a1b1532e9cc3dff6c", "rental_uris": {"ios": "https://dc.lft.to/lastmile_qr_scan", "android": "https://dc.lft.to/lastmile_qr_scan"}}, {"name": "1f14fcd1f5264a68dd2dc2c0d2cce190", "type": "electric_scooter", "lat": 38.905331333333336, "is_reserved": 0, "lon": -77.05135133333333, "fusion_lon": 0.0, "is_disabled": 0, "fusion_lat": 0.0, "bike_id": "1f14fcd1f5264a68dd2dc2c0d2cce190", "rental_uris": {"ios": "https://dc.lft.to/lastmile_qr_scan", "android": "https://dc.lft.to/lastmile_qr_scan"}}, {"name": "3591aa8b66776892713e283509540274", "type": "electric_scooter", "lat": 38.921667666666664, "is_reserved": 0, "lon": -77.026782, "fusion_lon": 0.0, "is_disabled": 0, "fusion_lat": 0.0, "bike_id": "3591aa8b66776892713e283509540274", "rental_uris": {"ios": "https://dc.lft.to/lastmile_qr_scan", "android": "https://dc.lft.to/lastmile_qr_scan"}}, {"name": "c1a74667b3be151fe49ac37ccbdbd6b7", "type": "electric_scooter", "lat": 38.90678, "is_reserved": 0, "lon": -77.038157, "fusion_lon": 0.0, "is_disabled": 0, "fusion_lat": 0.0, "bike_id": "c1a74667b3be151fe49ac37ccbdbd6b7", "rental_uris": {"ios": "https://dc.lft.to/lastmile_qr_scan", "android": "https://dc.lft.to/lastmile_qr_scan"}}, {"name": "34ef3c98604593f02d6a97ce18604840", "type": "electric_scooter", "lat": 38.908405333333334, "is_reserved": 0, "lon": -77.02699616666666, "fusion_lon": 0.0, "is_disabled": 0, "fusion_lat": 0.0, "bike_id": "34ef3c98604593f02d6a97ce18604840", "rental_uris": {"ios": "https://dc.lft.to/lastmile_qr_scan", "android": "https://dc.lft.to/lastmile_qr_scan"}}, {"name": "450898086672eb1f52665aeaebde2450", "type": "electric_scooter", "lat": 38.925401, "is_reserved": 0, "lon": -77.0351965, "fusion_lon": 0.0, "is_disabled": 0, "fusion_lat": 0.0, "bike_id": "450898086672eb1f52665aeaebde2450", "rental_uris": {"ios": "https://dc.lft.to/lastmile_qr_scan", "android": "https://dc.lft.to/lastmile_qr_scan"}}, {"name": "601538aa316e9f8a26653f9eea1ccae8", "type": "electric_scooter", "lat": 38.912039166666666, "is_reserved": 0, "lon": -77.00651283333333, "fusion_lon": 0.0, "is_disabled": 0, "fusion_lat": 0.0, "bike_id": "601538aa316e9f8a26653f9eea1ccae8", "rental_uris": {"ios": "https://dc.lft.to/lastmile_qr_scan", "android": "https://dc.lft.to/lastmile_qr_scan"}}, {"name": "fb7e26557eceaa7adb4275ba16dbc122", "type": "electric_scooter", "lat": 38.919612, "is_reserved": 0, "lon": -77.014411, "fusion_lon": 0.0, "is_disabled": 0, "fusion_lat": 0.0, "bike_id": "fb7e26557eceaa7adb4275ba16dbc122", "rental_uris": {"ios": "https://dc.lft.to/lastmile_qr_scan", "android": "https://dc.lft.to/lastmile_qr_scan"}}, {"name": "3eca52713948b3f41388f261cf2aaeb3", "type": "electric_bike", "lat": 38.8747995, "is_reserved": 0, "lon": -76.96536783333333, "fusion_lon": 0.0, "is_disabled": 0, "fusion_lat": 0.0, "bike_id": "3eca52713948b3f41388f261cf2aaeb3", "rental_uris": {"ios": "https://dc.lft.to/lastmile_qr_scan", "android": "https://dc.lft.to/lastmile_qr_scan"}}, {"name": "b3ec4d473410513cbf170655dcb16112", "type": "electric_bike", "lat": 38.9371535, "is_reserved": 0, "lon": -77.02098866666667, "fusion_lon": 0.0, "is_disabled": 0, "fusion_lat": 0.0, "bike_id": "b3ec4d473410513cbf170655dcb16112", "rental_uris": {"ios": "https://dc.lft.to/lastmile_qr_scan", "android": "https://dc.lft.to/lastmile_qr_scan"}}, {"name": "5c2eb3256e3cd2ed62143baa9b2d99dc", "type": "electric_scooter", "lat": 38.902285666666664, "is_reserved": 0, "lon": -77.0534725, "fusion_lon": 0.0, "is_disabled": 0, "fusion_lat": 0.0, "bike_id": "5c2eb3256e3cd2ed62143baa9b2d99dc", "rental_uris": {"ios": "https://dc.lft.to/lastmile_qr_scan", "android": "https://dc.lft.to/lastmile_qr_scan"}}, {"name": "e61e176a2f27a3d8e69cc970d53077e9", "type": "electric_scooter", "lat": 38.90647233333333, "is_reserved": 0, "lon": -77.03838583333334, "fusion_lon": 0.0, "is_disabled": 0, "fusion_lat": 0.0, "bike_id": "e61e176a2f27a3d8e69cc970d53077e9", "rental_uris": {"ios": "https://dc.lft.to/lastmile_qr_scan", "android": "https://dc.lft.to/lastmile_qr_scan"}}, {"name": "6d8ea60bd63046e4f748f65ba6148733", "type": "electric_scooter", "lat": 38.92719, "is_reserved": 0, "lon": -77.03081216666666, "fusion_lon": 0.0, "is_disabled": 0, "fusion_lat": 0.0, "bike_id": "6d8ea60bd63046e4f748f65ba6148733", "rental_uris": {"ios": "https://dc.lft.to/lastmile_qr_scan", "android": "https://dc.lft.to/lastmile_qr_scan"}}, {"name": "f806bdba0579f7d5841aa3f6a73b6f70", "type": "electric_scooter", "lat": 38.9064025, "is_reserved": 0, "lon": -76.98577333333333, "fusion_lon": 0.0, "is_disabled": 0, "fusion_lat": 0.0, "bike_id": "f806bdba0579f7d5841aa3f6a73b6f70", "rental_uris": {"ios": "https://dc.lft.to/lastmile_qr_scan", "android": "https://dc.lft.to/lastmile_qr_scan"}}, {"name": "82e00d62ac22b34c5c5a9a1a59f92421", "type": "electric_scooter", "lat": 38.932500833333336, "is_reserved": 0, "lon": -77.03272283333334, "fusion_lon": 0.0, "is_disabled": 0, "fusion_lat": 0.0, "bike_id": "82e00d62ac22b34c5c5a9a1a59f92421", "rental_uris": {"ios": "https://dc.lft.to/lastmile_qr_scan", "android": "https://dc.lft.to/lastmile_qr_scan"}}, {"name": "d8490eeae4423e9a4d1e416f007b7da2", "type": "electric_scooter", "lat": 38.92185633333333, "is_reserved": 0, "lon": -77.040167, "fusion_lon": 0.0, "is_disabled": 0, "fusion_lat": 0.0, "bike_id": "d8490eeae4423e9a4d1e416f007b7da2", "rental_uris": {"ios": "https://dc.lft.to/lastmile_qr_scan", "android": "https://dc.lft.to/lastmile_qr_scan"}}, {"name": "22cf85ad4e866e1491bb692210f3247b", "type": "electric_scooter", "lat": 38.9182285, "is_reserved": 0, "lon": -77.03444966666666, "fusion_lon": 0.0, "is_disabled": 0, "fusion_lat": 0.0, "bike_id": "22cf85ad4e866e1491bb692210f3247b", "rental_uris": {"ios": "https://dc.lft.to/lastmile_qr_scan", "android": "https://dc.lft.to/lastmile_qr_scan"}}, {"name": "9c4c560268f91526c282ce84608a96be", "type": "electric_scooter", "lat": 38.91110466666667, "is_reserved": 0, "lon": -77.03623966666666, "fusion_lon": 0.0, "is_disabled": 0, "fusion_lat": 0.0, "bike_id": "9c4c560268f91526c282ce84608a96be", "rental_uris": {"ios": "https://dc.lft.to/lastmile_qr_scan", "android": "https://dc.lft.to/lastmile_qr_scan"}}, {"name": "29b4e4cfd4d1340a80a25cfe50a9b9e1", "type": "electric_scooter", "lat": 38.906837, "is_reserved": 0, "lon": -77.01346466666666, "fusion_lon": 0.0, "is_disabled": 0, "fusion_lat": 0.0, "bike_id": "29b4e4cfd4d1340a80a25cfe50a9b9e1", "rental_uris": {"ios": "https://dc.lft.to/lastmile_qr_scan", "android": "https://dc.lft.to/lastmile_qr_scan"}}, {"name": "0bae88eac5bd6f684c0566d79e1abda6", "type": "electric_scooter", "lat": 38.90276016666667, "is_reserved": 0, "lon": -77.0591185, "fusion_lon": 0.0, "is_disabled": 0, "fusion_lat": 0.0, "bike_id": "0bae88eac5bd6f684c0566d79e1abda6", "rental_uris": {"ios": "https://dc.lft.to/lastmile_qr_scan", "android": "https://dc.lft.to/lastmile_qr_scan"}}, {"name": "f3596d1f4a8313f93baf9e234fef5f02", "type": "electric_scooter", "lat": 38.91547383333333, "is_reserved": 0, "lon": -77.03857316666667, "fusion_lon": 0.0, "is_disabled": 0, "fusion_lat": 0.0, "bike_id": "f3596d1f4a8313f93baf9e234fef5f02", "rental_uris": {"ios": "https://dc.lft.to/lastmile_qr_scan", "android": "https://dc.lft.to/lastmile_qr_scan"}}, {"name": "35de562a15981ed2ae65749ef18f43c3", "type": "electric_scooter", "lat": 38.91646583333333, "is_reserved": 0, "lon": -77.03176266666667, "fusion_lon": 0.0, "is_disabled": 0, "fusion_lat": 0.0, "bike_id": "35de562a15981ed2ae65749ef18f43c3", "rental_uris": {"ios": "https://dc.lft.to/lastmile_qr_scan", "android": "https://dc.lft.to/lastmile_qr_scan"}}, {"name": "01bc34ae648d5b6fc0b5c401ba1cb54d", "type": "electric_scooter", "lat": 38.932536666666664, "is_reserved": 0, "lon": -77.03275333333333, "fusion_lon": 0.0, "is_disabled": 0, "fusion_lat": 0.0, "bike_id": "01bc34ae648d5b6fc0b5c401ba1cb54d", "rental_uris": {"ios": "https://dc.lft.to/lastmile_qr_scan", "android": "https://dc.lft.to/lastmile_qr_scan"}}, {"name": "1daa4dc0cc82822f7c1d81c2f6d581e3", "type": "electric_scooter", "lat": 38.896097166666664, "is_reserved": 0, "lon": -77.02843783333333, "fusion_lon": 0.0, "is_disabled": 0, "fusion_lat": 0.0, "bike_id": "1daa4dc0cc82822f7c1d81c2f6d581e3", "rental_uris": {"ios": "https://dc.lft.to/lastmile_qr_scan", "android": "https://dc.lft.to/lastmile_qr_scan"}}, {"name": "dc6c768dc3c98461a9bd2a5152ed8b47", "type": "electric_scooter", "lat": 38.91243083333333, "is_reserved": 0, "lon": -77.00109583333334, "fusion_lon": 0.0, "is_disabled": 0, "fusion_lat": 0.0, "bike_id": "dc6c768dc3c98461a9bd2a5152ed8b47", "rental_uris": {"ios": "https://dc.lft.to/lastmile_qr_scan", "android": "https://dc.lft.to/lastmile_qr_scan"}}, {"name": "a91f446f1ec92a9a358b48ebcf588e8a", "type": "electric_scooter", "lat": 38.906458, "is_reserved": 0, "lon": -77.0114225, "fusion_lon": 0.0, "is_disabled": 0, "fusion_lat": 0.0, "bike_id": "a91f446f1ec92a9a358b48ebcf588e8a", "rental_uris": {"ios": "https://dc.lft.to/lastmile_qr_scan", "android": "https://dc.lft.to/lastmile_qr_scan"}}, {"name": "d5a6a70f8dd92baa4d6f034617932357", "type": "electric_bike", "lat": 38.86365816666667, "is_reserved": 0, "lon": -76.97011616666667, "fusion_lon": 0.0, "is_disabled": 0, "fusion_lat": 0.0, "bike_id": "d5a6a70f8dd92baa4d6f034617932357", "rental_uris": {"ios": "https://dc.lft.to/lastmile_qr_scan", "android": "https://dc.lft.to/lastmile_qr_scan"}}, {"name": "9b9d5c94522d51ae2ff93fd56808e211", "type": "electric_scooter", "lat": 38.90267716666666, "is_reserved": 0, "lon": -77.031702, "fusion_lon": 0.0, "is_disabled": 0, "fusion_lat": 0.0, "bike_id": "9b9d5c94522d51ae2ff93fd56808e211", "rental_uris": {"ios": "https://dc.lft.to/lastmile_qr_scan", "android": "https://dc.lft.to/lastmile_qr_scan"}}, {"name": "15061ba703aedfe9b8b3be36b469e81c", "type": "electric_scooter", "lat": 38.90848066666667, "is_reserved": 0, "lon": -77.04409433333333, "fusion_lon": 0.0, "is_disabled": 0, "fusion_lat": 0.0, "bike_id": "15061ba703aedfe9b8b3be36b469e81c", "rental_uris": {"ios": "https://dc.lft.to/lastmile_qr_scan", "android": "https://dc.lft.to/lastmile_qr_scan"}}, {"name": "2f94d3434e9eb10180d8d2cee53d77dc", "type": "electric_scooter", "lat": 38.8922205, "is_reserved": 0, "lon": -77.04265583333333, "fusion_lon": 0.0, "is_disabled": 0, "fusion_lat": 0.0, "bike_id": "2f94d3434e9eb10180d8d2cee53d77dc", "rental_uris": {"ios": "https://dc.lft.to/lastmile_qr_scan", "android": "https://dc.lft.to/lastmile_qr_scan"}}, {"name": "1fe440b4a57403e7ff7d1cc1a4b48e5f", "type": "electric_bike", "lat": 38.86906183333333, "is_reserved": 0, "lon": -77.13180683333333, "fusion_lon": 0.0, "is_disabled": 0, "fusion_lat": 0.0, "bike_id": "1fe440b4a57403e7ff7d1cc1a4b48e5f", "rental_uris": {"ios": "https://dc.lft.to/lastmile_qr_scan", "android": "https://dc.lft.to/lastmile_qr_scan"}}, {"name": "2d65603ddf2747f2138ac1841c9ae240", "type": "electric_scooter", "lat": 38.92246016666667, "is_reserved": 0, "lon": -77.01012666666666, "fusion_lon": 0.0, "is_disabled": 0, "fusion_lat": 0.0, "bike_id": "2d65603ddf2747f2138ac1841c9ae240", "rental_uris": {"ios": "https://dc.lft.to/lastmile_qr_scan", "android": "https://dc.lft.to/lastmile_qr_scan"}}, {"name": "d426a9f7aae0dacc8b428b70fba96bf1", "type": "electric_scooter", "lat": 38.867011166666664, "is_reserved": 0, "lon": -76.98714, "fusion_lon": 0.0, "is_disabled": 0, "fusion_lat": 0.0, "bike_id": "d426a9f7aae0dacc8b428b70fba96bf1", "rental_uris": {"ios": "https://dc.lft.to/lastmile_qr_scan", "android": "https://dc.lft.to/lastmile_qr_scan"}}, {"name": "562f69ef13f3b4176e348f476fa5f351", "type": "electric_scooter", "lat": 38.900063, "is_reserved": 0, "lon": -76.99160883333333, "fusion_lon": 0.0, "is_disabled": 0, "fusion_lat": 0.0, "bike_id": "562f69ef13f3b4176e348f476fa5f351", "rental_uris": {"ios": "https://dc.lft.to/lastmile_qr_scan", "android": "https://dc.lft.to/lastmile_qr_scan"}}, {"name": "2504353ee75590d2ce917b51405bb862", "type": "electric_bike", "lat": 38.99939166666667, "is_reserved": 0, "lon": -77.01769566666667, "fusion_lon": 0.0, "is_disabled": 0, "fusion_lat": 0.0, "bike_id": "2504353ee75590d2ce917b51405bb862", "rental_uris": {"ios": "https://dc.lft.to/lastmile_qr_scan", "android": "https://dc.lft.to/lastmile_qr_scan"}}, {"name": "1e369c0e831e97e7b6f38a190a869888", "type": "electric_bike", "lat": 38.966248, "is_reserved": 0, "lon": -76.97670883333333, "fusion_lon": 0.0, "is_disabled": 0, "fusion_lat": 0.0, "bike_id": "1e369c0e831e97e7b6f38a190a869888", "rental_uris": {"ios": "https://dc.lft.to/lastmile_qr_scan", "android": "https://dc.lft.to/lastmile_qr_scan"}}, {"name": "d6ad700568c4786f654715a286d50ecc", "type": "electric_scooter", "lat": 38.933846833333334, "is_reserved": 0, "lon": -77.0296975, "fusion_lon": 0.0, "is_disabled": 0, "fusion_lat": 0.0, "bike_id": "d6ad700568c4786f654715a286d50ecc", "rental_uris": {"ios": "https://dc.lft.to/lastmile_qr_scan", "android": "https://dc.lft.to/lastmile_qr_scan"}}, {"name": "fab467ea3816f6d9126a280cf59f12c3", "type": "electric_scooter", "lat": 38.921822666666664, "is_reserved": 0, "lon": -77.02654666666666, "fusion_lon": 0.0, "is_disabled": 0, "fusion_lat": 0.0, "bike_id": "fab467ea3816f6d9126a280cf59f12c3", "rental_uris": {"ios": "https://dc.lft.to/lastmile_qr_scan", "android": "https://dc.lft.to/lastmile_qr_scan"}}, {"name": "1853104c87b40f83ef58f8cbdf232530", "type": "electric_scooter", "lat": 38.9235385, "is_reserved": 0, "lon": -77.04149133333334, "fusion_lon": 0.0, "is_disabled": 0, "fusion_lat": 0.0, "bike_id": "1853104c87b40f83ef58f8cbdf232530", "rental_uris": {"ios": "https://dc.lft.to/lastmile_qr_scan", "android": "https://dc.lft.to/lastmile_qr_scan"}}, {"name": "05bd3f2d614641f2111d78b1ca5acd19", "type": "electric_scooter", "lat": 38.9205435, "is_reserved": 0, "lon": -77.0334995, "fusion_lon": 0.0, "is_disabled": 0, "fusion_lat": 0.0, "bike_id": "05bd3f2d614641f2111d78b1ca5acd19", "rental_uris": {"ios": "https://dc.lft.to/lastmile_qr_scan", "android": "https://dc.lft.to/lastmile_qr_scan"}}, {"name": "46435a0d042dfb8568f7fd1f951e349e", "type": "electric_bike", "lat": 38.858529833333336, "is_reserved": 0, "lon": -77.09751933333334, "fusion_lon": 0.0, "is_disabled": 0, "fusion_lat": 0.0, "bike_id": "46435a0d042dfb8568f7fd1f951e349e", "rental_uris": {"ios": "https://dc.lft.to/lastmile_qr_scan", "android": "https://dc.lft.to/lastmile_qr_scan"}}, {"name": "fe6baa6fd6c4d95640b5dec301957331", "type": "electric_scooter", "lat": 38.9398375, "is_reserved": 0, "lon": -77.02895166666667, "fusion_lon": 0.0, "is_disabled": 0, "fusion_lat": 0.0, "bike_id": "fe6baa6fd6c4d95640b5dec301957331", "rental_uris": {"ios": "https://dc.lft.to/lastmile_qr_scan", "android": "https://dc.lft.to/lastmile_qr_scan"}}, {"name": "f4f976cbdf0ab6b85a48bcb84e64ffc7", "type": "electric_scooter", "lat": 38.9206525, "is_reserved": 0, "lon": -77.034631, "fusion_lon": 0.0, "is_disabled": 0, "fusion_lat": 0.0, "bike_id": "f4f976cbdf0ab6b85a48bcb84e64ffc7", "rental_uris": {"ios": "https://dc.lft.to/lastmile_qr_scan", "android": "https://dc.lft.to/lastmile_qr_scan"}}, {"name": "3ee7136c0ef59ca734cdadf03da04b81", "type": "electric_scooter", "lat": 38.911026, "is_reserved": 0, "lon": -77.00215683333333, "fusion_lon": 0.0, "is_disabled": 0, "fusion_lat": 0.0, "bike_id": "3ee7136c0ef59ca734cdadf03da04b81", "rental_uris": {"ios": "https://dc.lft.to/lastmile_qr_scan", "android": "https://dc.lft.to/lastmile_qr_scan"}}, {"name": "27dc21becd5a6a34739beeb5f5c7028c", "type": "electric_scooter", "lat": 38.94172183333333, "is_reserved": 0, "lon": -77.04136333333334, "fusion_lon": 0.0, "is_disabled": 0, "fusion_lat": 0.0, "bike_id": "27dc21becd5a6a34739beeb5f5c7028c", "rental_uris": {"ios": "https://dc.lft.to/lastmile_qr_scan", "android": "https://dc.lft.to/lastmile_qr_scan"}}, {"name": "fc49ba2b52bb7ffb19477ec624d75cc0", "type": "electric_bike", "lat": 38.8819235, "is_reserved": 0, "lon": -76.9994855, "fusion_lon": 0.0, "is_disabled": 0, "fusion_lat": 0.0, "bike_id": "fc49ba2b52bb7ffb19477ec624d75cc0", "rental_uris": {"ios": "https://dc.lft.to/lastmile_qr_scan", "android": "https://dc.lft.to/lastmile_qr_scan"}}, {"name": "182e34c12917ab70cf515e7360dfb742", "type": "electric_scooter", "lat": 38.90374933333333, "is_reserved": 0, "lon": -77.01114483333333, "fusion_lon": 0.0, "is_disabled": 0, "fusion_lat": 0.0, "bike_id": "182e34c12917ab70cf515e7360dfb742", "rental_uris": {"ios": "https://dc.lft.to/lastmile_qr_scan", "android": "https://dc.lft.to/lastmile_qr_scan"}}, {"name": "300cba54263923cc7ffa469d8f221615", "type": "electric_scooter", "lat": 38.928992666666666, "is_reserved": 0, "lon": -77.05457433333333, "fusion_lon": 0.0, "is_disabled": 0, "fusion_lat": 0.0, "bike_id": "300cba54263923cc7ffa469d8f221615", "rental_uris": {"ios": "https://dc.lft.to/lastmile_qr_scan", "android": "https://dc.lft.to/lastmile_qr_scan"}}, {"name": "17cea9ac9d569aaab017a93a32cc73ec", "type": "electric_scooter", "lat": 38.919947, "is_reserved": 0, "lon": -77.03973716666667, "fusion_lon": 0.0, "is_disabled": 0, "fusion_lat": 0.0, "bike_id": "17cea9ac9d569aaab017a93a32cc73ec", "rental_uris": {"ios": "https://dc.lft.to/lastmile_qr_scan", "android": "https://dc.lft.to/lastmile_qr_scan"}}, {"name": "8b07e83421dee9e0f3327d47bf8a81a7", "type": "electric_scooter", "lat": 38.90340316666666, "is_reserved": 0, "lon": -77.0664855, "fusion_lon": 0.0, "is_disabled": 0, "fusion_lat": 0.0, "bike_id": "8b07e83421dee9e0f3327d47bf8a81a7", "rental_uris": {"ios": "https://dc.lft.to/lastmile_qr_scan", "android": "https://dc.lft.to/lastmile_qr_scan"}}, {"name": "88f671f6c084c86fa0ac66c8c544cf4e", "type": "electric_bike", "lat": 38.949022, "is_reserved": 0, "lon": -76.963679, "fusion_lon": 0.0, "is_disabled": 0, "fusion_lat": 0.0, "bike_id": "88f671f6c084c86fa0ac66c8c544cf4e", "rental_uris": {"ios": "https://dc.lft.to/lastmile_qr_scan", "android": "https://dc.lft.to/lastmile_qr_scan"}}, {"name": "8486583678eba82e850cd156ed0a9a80", "type": "electric_scooter", "lat": 38.91029233333333, "is_reserved": 0, "lon": -77.04812233333334, "fusion_lon": 0.0, "is_disabled": 0, "fusion_lat": 0.0, "bike_id": "8486583678eba82e850cd156ed0a9a80", "rental_uris": {"ios": "https://dc.lft.to/lastmile_qr_scan", "android": "https://dc.lft.to/lastmile_qr_scan"}}, {"name": "aa6f435ffc9d637eda8251d09598302b", "type": "electric_scooter", "lat": 38.92639333333333, "is_reserved": 0, "lon": -77.03396516666666, "fusion_lon": 0.0, "is_disabled": 0, "fusion_lat": 0.0, "bike_id": "aa6f435ffc9d637eda8251d09598302b", "rental_uris": {"ios": "https://dc.lft.to/lastmile_qr_scan", "android": "https://dc.lft.to/lastmile_qr_scan"}}, {"name": "7a045fec2b76f52428f744a95c85caa4", "type": "electric_scooter", "lat": 38.856356166666664, "is_reserved": 0, "lon": -76.974563, "fusion_lon": 0.0, "is_disabled": 0, "fusion_lat": 0.0, "bike_id": "7a045fec2b76f52428f744a95c85caa4", "rental_uris": {"ios": "https://dc.lft.to/lastmile_qr_scan", "android": "https://dc.lft.to/lastmile_qr_scan"}}, {"name": "bf9cbe3c165c8539ea56e9472b03d74e", "type": "electric_scooter", "lat": 38.89877216666667, "is_reserved": 0, "lon": -76.9315975, "fusion_lon": 0.0, "is_disabled": 0, "fusion_lat": 0.0, "bike_id": "bf9cbe3c165c8539ea56e9472b03d74e", "rental_uris": {"ios": "https://dc.lft.to/lastmile_qr_scan", "android": "https://dc.lft.to/lastmile_qr_scan"}}, {"name": "89a8dec6ea8d7c643da3ce6831c0ec5d", "type": "electric_scooter", "lat": 38.91961383333334, "is_reserved": 0, "lon": -77.03375333333334, "fusion_lon": 0.0, "is_disabled": 0, "fusion_lat": 0.0, "bike_id": "89a8dec6ea8d7c643da3ce6831c0ec5d", "rental_uris": {"ios": "https://dc.lft.to/lastmile_qr_scan", "android": "https://dc.lft.to/lastmile_qr_scan"}}, {"name": "41cda4d13b665ef129c4f86cd07e33b9", "type": "electric_scooter", "lat": 38.925130833333334, "is_reserved": 0, "lon": -77.03325133333334, "fusion_lon": 0.0, "is_disabled": 0, "fusion_lat": 0.0, "bike_id": "41cda4d13b665ef129c4f86cd07e33b9", "rental_uris": {"ios": "https://dc.lft.to/lastmile_qr_scan", "android": "https://dc.lft.to/lastmile_qr_scan"}}, {"name": "dd75b1bd901e30de67566cf70ba2b4d0", "type": "electric_scooter", "lat": 38.91267783333333, "is_reserved": 0, "lon": -77.03721383333334, "fusion_lon": 0.0, "is_disabled": 0, "fusion_lat": 0.0, "bike_id": "dd75b1bd901e30de67566cf70ba2b4d0", "rental_uris": {"ios": "https://dc.lft.to/lastmile_qr_scan", "android": "https://dc.lft.to/lastmile_qr_scan"}}, {"name": "f382d3a3fbf3ad9b11c9cc993adcf7bf", "type": "electric_scooter", "lat": 38.90592683333333, "is_reserved": 0, "lon": -77.04150133333333, "fusion_lon": 0.0, "is_disabled": 0, "fusion_lat": 0.0, "bike_id": "f382d3a3fbf3ad9b11c9cc993adcf7bf", "rental_uris": {"ios": "https://dc.lft.to/lastmile_qr_scan", "android": "https://dc.lft.to/lastmile_qr_scan"}}, {"name": "a0243e198a517e4de5d93d97014c281e", "type": "electric_scooter", "lat": 38.892247833333336, "is_reserved": 0, "lon": -77.04335633333334, "fusion_lon": 0.0, "is_disabled": 0, "fusion_lat": 0.0, "bike_id": "a0243e198a517e4de5d93d97014c281e", "rental_uris": {"ios": "https://dc.lft.to/lastmile_qr_scan", "android": "https://dc.lft.to/lastmile_qr_scan"}}, {"name": "b973087feafaf75d9d9fe1be4c2be0ba", "type": "electric_scooter", "lat": 38.906139833333334, "is_reserved": 0, "lon": -77.074923, "fusion_lon": 0.0, "is_disabled": 0, "fusion_lat": 0.0, "bike_id": "b973087feafaf75d9d9fe1be4c2be0ba", "rental_uris": {"ios": "https://dc.lft.to/lastmile_qr_scan", "android": "https://dc.lft.to/lastmile_qr_scan"}}, {"name": "7317534cf8f969eea0d0091fb8988c21", "type": "electric_scooter", "lat": 38.9274, "is_reserved": 0, "lon": -77.02264116666667, "fusion_lon": 0.0, "is_disabled": 0, "fusion_lat": 0.0, "bike_id": "7317534cf8f969eea0d0091fb8988c21", "rental_uris": {"ios": "https://dc.lft.to/lastmile_qr_scan", "android": "https://dc.lft.to/lastmile_qr_scan"}}, {"name": "ef9f71da2a5c8b5ebe16be733b2ccce7", "type": "electric_scooter", "lat": 38.8665935, "is_reserved": 0, "lon": -76.98887833333333, "fusion_lon": 0.0, "is_disabled": 0, "fusion_lat": 0.0, "bike_id": "ef9f71da2a5c8b5ebe16be733b2ccce7", "rental_uris": {"ios": "https://dc.lft.to/lastmile_qr_scan", "android": "https://dc.lft.to/lastmile_qr_scan"}}, {"name": "ece8ec49cc059cd034f757b2eed05463", "type": "electric_scooter", "lat": 38.92516633333334, "is_reserved": 0, "lon": -77.0017685, "fusion_lon": 0.0, "is_disabled": 0, "fusion_lat": 0.0, "bike_id": "ece8ec49cc059cd034f757b2eed05463", "rental_uris": {"ios": "https://dc.lft.to/lastmile_qr_scan", "android": "https://dc.lft.to/lastmile_qr_scan"}}, {"name": "86c2cc9c46c72b90ee475c93a3e53214", "type": "electric_scooter", "lat": 38.92115883333334, "is_reserved": 0, "lon": -77.03661966666667, "fusion_lon": 0.0, "is_disabled": 0, "fusion_lat": 0.0, "bike_id": "86c2cc9c46c72b90ee475c93a3e53214", "rental_uris": {"ios": "https://dc.lft.to/lastmile_qr_scan", "android": "https://dc.lft.to/lastmile_qr_scan"}}, {"name": "3a5590d4a12f640c2ca733052873c4e9", "type": "electric_scooter", "lat": 38.88374016666667, "is_reserved": 0, "lon": -76.92373616666667, "fusion_lon": 0.0, "is_disabled": 0, "fusion_lat": 0.0, "bike_id": "3a5590d4a12f640c2ca733052873c4e9", "rental_uris": {"ios": "https://dc.lft.to/lastmile_qr_scan", "android": "https://dc.lft.to/lastmile_qr_scan"}}, {"name": "08c16f42bffe6874cd438585b23cfd61", "type": "electric_scooter", "lat": 38.89609566666667, "is_reserved": 0, "lon": -77.00930166666667, "fusion_lon": 0.0, "is_disabled": 0, "fusion_lat": 0.0, "bike_id": "08c16f42bffe6874cd438585b23cfd61", "rental_uris": {"ios": "https://dc.lft.to/lastmile_qr_scan", "android": "https://dc.lft.to/lastmile_qr_scan"}}, {"name": "d3fd4f5e9893748604a7d132f0d1e8c5", "type": "electric_scooter", "lat": 38.92363616666667, "is_reserved": 0, "lon": -77.0584115, "fusion_lon": 0.0, "is_disabled": 0, "fusion_lat": 0.0, "bike_id": "d3fd4f5e9893748604a7d132f0d1e8c5", "rental_uris": {"ios": "https://dc.lft.to/lastmile_qr_scan", "android": "https://dc.lft.to/lastmile_qr_scan"}}, {"name": "7db6723b9461a8162933914469365686", "type": "electric_bike", "lat": 38.90861366666667, "is_reserved": 0, "lon": -77.08078416666666, "fusion_lon": 0.0, "is_disabled": 0, "fusion_lat": 0.0, "bike_id": "7db6723b9461a8162933914469365686", "rental_uris": {"ios": "https://dc.lft.to/lastmile_qr_scan", "android": "https://dc.lft.to/lastmile_qr_scan"}}, {"name": "229b1840051d9cb1c17109ec19b35eae", "type": "electric_scooter", "lat": 38.9157465, "is_reserved": 0, "lon": -77.0218555, "fusion_lon": 0.0, "is_disabled": 0, "fusion_lat": 0.0, "bike_id": "229b1840051d9cb1c17109ec19b35eae", "rental_uris": {"ios": "https://dc.lft.to/lastmile_qr_scan", "android": "https://dc.lft.to/lastmile_qr_scan"}}, {"name": "ae0a6f274eff1cd87ae1461e2c82e999", "type": "electric_scooter", "lat": 38.91873833333333, "is_reserved": 0, "lon": -77.04354766666667, "fusion_lon": 0.0, "is_disabled": 0, "fusion_lat": 0.0, "bike_id": "ae0a6f274eff1cd87ae1461e2c82e999", "rental_uris": {"ios": "https://dc.lft.to/lastmile_qr_scan", "android": "https://dc.lft.to/lastmile_qr_scan"}}, {"name": "02838eb85c59e91942eefc10b56b1151", "type": "electric_scooter", "lat": 38.854474833333335, "is_reserved": 0, "lon": -76.98578266666667, "fusion_lon": 0.0, "is_disabled": 0, "fusion_lat": 0.0, "bike_id": "02838eb85c59e91942eefc10b56b1151", "rental_uris": {"ios": "https://dc.lft.to/lastmile_qr_scan", "android": "https://dc.lft.to/lastmile_qr_scan"}}, {"name": "03c5df4b8c0612b287cd603de33ac93f", "type": "electric_scooter", "lat": 38.92881666666667, "is_reserved": 0, "lon": -77.0376295, "fusion_lon": 0.0, "is_disabled": 0, "fusion_lat": 0.0, "bike_id": "03c5df4b8c0612b287cd603de33ac93f", "rental_uris": {"ios": "https://dc.lft.to/lastmile_qr_scan", "android": "https://dc.lft.to/lastmile_qr_scan"}}, {"name": "ab9d7f9a9a97e55f6265d5adbfb9cea5", "type": "electric_scooter", "lat": 38.924809, "is_reserved": 0, "lon": -77.02839883333333, "fusion_lon": 0.0, "is_disabled": 0, "fusion_lat": 0.0, "bike_id": "ab9d7f9a9a97e55f6265d5adbfb9cea5", "rental_uris": {"ios": "https://dc.lft.to/lastmile_qr_scan", "android": "https://dc.lft.to/lastmile_qr_scan"}}, {"name": "74c01b225c5a596e49b84ecc7c4ac060", "type": "electric_scooter", "lat": 38.8969785, "is_reserved": 0, "lon": -77.05195716666667, "fusion_lon": 0.0, "is_disabled": 0, "fusion_lat": 0.0, "bike_id": "74c01b225c5a596e49b84ecc7c4ac060", "rental_uris": {"ios": "https://dc.lft.to/lastmile_qr_scan", "android": "https://dc.lft.to/lastmile_qr_scan"}}, {"name": "6984fcb750c5b9609c6c96a60515a553", "type": "electric_scooter", "lat": 38.940979, "is_reserved": 0, "lon": -77.02110166666667, "fusion_lon": 0.0, "is_disabled": 0, "fusion_lat": 0.0, "bike_id": "6984fcb750c5b9609c6c96a60515a553", "rental_uris": {"ios": "https://dc.lft.to/lastmile_qr_scan", "android": "https://dc.lft.to/lastmile_qr_scan"}}, {"name": "9bd1f6160d6eb6afdf0ec88a8c6d0a14", "type": "electric_scooter", "lat": 38.878483333333335, "is_reserved": 0, "lon": -77.019632, "fusion_lon": 0.0, "is_disabled": 0, "fusion_lat": 0.0, "bike_id": "9bd1f6160d6eb6afdf0ec88a8c6d0a14", "rental_uris": {"ios": "https://dc.lft.to/lastmile_qr_scan", "android": "https://dc.lft.to/lastmile_qr_scan"}}, {"name": "81361f75332b940d193d0b471d3b1aef", "type": "electric_bike", "lat": 38.959100666666664, "is_reserved": 0, "lon": -77.0015365, "fusion_lon": 0.0, "is_disabled": 0, "fusion_lat": 0.0, "bike_id": "81361f75332b940d193d0b471d3b1aef", "rental_uris": {"ios": "https://dc.lft.to/lastmile_qr_scan", "android": "https://dc.lft.to/lastmile_qr_scan"}}, {"name": "9b0c3472ba0915abda891fe8b5ac261c", "type": "electric_scooter", "lat": 38.89927633333333, "is_reserved": 0, "lon": -77.03105816666667, "fusion_lon": 0.0, "is_disabled": 0, "fusion_lat": 0.0, "bike_id": "9b0c3472ba0915abda891fe8b5ac261c", "rental_uris": {"ios": "https://dc.lft.to/lastmile_qr_scan", "android": "https://dc.lft.to/lastmile_qr_scan"}}, {"name": "31cda39184df7e63beceb1b96e22c8ed", "type": "electric_scooter", "lat": 38.87231083333333, "is_reserved": 0, "lon": -77.01166166666667, "fusion_lon": 0.0, "is_disabled": 0, "fusion_lat": 0.0, "bike_id": "31cda39184df7e63beceb1b96e22c8ed", "rental_uris": {"ios": "https://dc.lft.to/lastmile_qr_scan", "android": "https://dc.lft.to/lastmile_qr_scan"}}, {"name": "4a9402be6b77f866e8b4e2f889540725", "type": "electric_scooter", "lat": 38.93353483333333, "is_reserved": 0, "lon": -77.029794, "fusion_lon": 0.0, "is_disabled": 0, "fusion_lat": 0.0, "bike_id": "4a9402be6b77f866e8b4e2f889540725", "rental_uris": {"ios": "https://dc.lft.to/lastmile_qr_scan", "android": "https://dc.lft.to/lastmile_qr_scan"}}, {"name": "a5bc2180c6d3a68117181a563ac554b7", "type": "electric_scooter", "lat": 38.88751583333333, "is_reserved": 0, "lon": -76.97983433333333, "fusion_lon": 0.0, "is_disabled": 0, "fusion_lat": 0.0, "bike_id": "a5bc2180c6d3a68117181a563ac554b7", "rental_uris": {"ios": "https://dc.lft.to/lastmile_qr_scan", "android": "https://dc.lft.to/lastmile_qr_scan"}}, {"name": "409874287e388fcc6b63ef714c87d0e5", "type": "electric_scooter", "lat": 38.88396266666667, "is_reserved": 0, "lon": -76.93041883333333, "fusion_lon": 0.0, "is_disabled": 0, "fusion_lat": 0.0, "bike_id": "409874287e388fcc6b63ef714c87d0e5", "rental_uris": {"ios": "https://dc.lft.to/lastmile_qr_scan", "android": "https://dc.lft.to/lastmile_qr_scan"}}, {"name": "51c7f3654f62d1f2f770a85737a7824b", "type": "electric_scooter", "lat": 38.94367533333333, "is_reserved": 0, "lon": -77.02180666666666, "fusion_lon": 0.0, "is_disabled": 0, "fusion_lat": 0.0, "bike_id": "51c7f3654f62d1f2f770a85737a7824b", "rental_uris": {"ios": "https://dc.lft.to/lastmile_qr_scan", "android": "https://dc.lft.to/lastmile_qr_scan"}}, {"name": "73db28f0a4a2f6e72e0a44a04a1d8121", "type": "electric_scooter", "lat": 38.896444333333335, "is_reserved": 0, "lon": -77.032194, "fusion_lon": 0.0, "is_disabled": 0, "fusion_lat": 0.0, "bike_id": "73db28f0a4a2f6e72e0a44a04a1d8121", "rental_uris": {"ios": "https://dc.lft.to/lastmile_qr_scan", "android": "https://dc.lft.to/lastmile_qr_scan"}}, {"name": "970ee37981b869f08d9582273eecb8db", "type": "electric_bike", "lat": 38.92211366666667, "is_reserved": 0, "lon": -76.9879655, "fusion_lon": 0.0, "is_disabled": 0, "fusion_lat": 0.0, "bike_id": "970ee37981b869f08d9582273eecb8db", "rental_uris": {"ios": "https://dc.lft.to/lastmile_qr_scan", "android": "https://dc.lft.to/lastmile_qr_scan"}}, {"name": "264ab6573578029866b56f7478394759", "type": "electric_scooter", "lat": 38.89494033333333, "is_reserved": 0, "lon": -77.010155, "fusion_lon": 0.0, "is_disabled": 0, "fusion_lat": 0.0, "bike_id": "264ab6573578029866b56f7478394759", "rental_uris": {"ios": "https://dc.lft.to/lastmile_qr_scan", "android": "https://dc.lft.to/lastmile_qr_scan"}}, {"name": "cffb79c92acff45f052f7120dacd3067", "type": "electric_bike", "lat": 38.875878166666666, "is_reserved": 0, "lon": -77.10571816666666, "fusion_lon": 0.0, "is_disabled": 0, "fusion_lat": 0.0, "bike_id": "cffb79c92acff45f052f7120dacd3067", "rental_uris": {"ios": "https://dc.lft.to/lastmile_qr_scan", "android": "https://dc.lft.to/lastmile_qr_scan"}}, {"name": "95d75b19b6a4ee23f0345472619d825d", "type": "electric_scooter", "lat": 38.91812133333333, "is_reserved": 0, "lon": -77.0315125, "fusion_lon": 0.0, "is_disabled": 0, "fusion_lat": 0.0, "bike_id": "95d75b19b6a4ee23f0345472619d825d", "rental_uris": {"ios": "https://dc.lft.to/lastmile_qr_scan", "android": "https://dc.lft.to/lastmile_qr_scan"}}, {"name": "fc9688a3bef6d63761e021cdf9eb12d3", "type": "electric_scooter", "lat": 38.93504166666666, "is_reserved": 0, "lon": -77.01999666666667, "fusion_lon": 0.0, "is_disabled": 0, "fusion_lat": 0.0, "bike_id": "fc9688a3bef6d63761e021cdf9eb12d3", "rental_uris": {"ios": "https://dc.lft.to/lastmile_qr_scan", "android": "https://dc.lft.to/lastmile_qr_scan"}}, {"name": "83d84628410077f847df4cf48cabec36", "type": "electric_scooter", "lat": 38.90280683333334, "is_reserved": 0, "lon": -77.00326483333333, "fusion_lon": 0.0, "is_disabled": 0, "fusion_lat": 0.0, "bike_id": "83d84628410077f847df4cf48cabec36", "rental_uris": {"ios": "https://dc.lft.to/lastmile_qr_scan", "android": "https://dc.lft.to/lastmile_qr_scan"}}, {"name": "0158687e5e507019963906fa75e78d54", "type": "electric_scooter", "lat": 38.900822833333336, "is_reserved": 0, "lon": -77.04826783333333, "fusion_lon": 0.0, "is_disabled": 0, "fusion_lat": 0.0, "bike_id": "0158687e5e507019963906fa75e78d54", "rental_uris": {"ios": "https://dc.lft.to/lastmile_qr_scan", "android": "https://dc.lft.to/lastmile_qr_scan"}}, {"name": "f04abac03c32e1a2907dc6a3bc931a0e", "type": "electric_scooter", "lat": 38.90383533333333, "is_reserved": 0, "lon": -77.016418, "fusion_lon": 0.0, "is_disabled": 0, "fusion_lat": 0.0, "bike_id": "f04abac03c32e1a2907dc6a3bc931a0e", "rental_uris": {"ios": "https://dc.lft.to/lastmile_qr_scan", "android": "https://dc.lft.to/lastmile_qr_scan"}}, {"name": "80c29b31cdc61c2ce76c557782225a38", "type": "electric_scooter", "lat": 38.920928833333335, "is_reserved": 0, "lon": -77.03749883333333, "fusion_lon": 0.0, "is_disabled": 0, "fusion_lat": 0.0, "bike_id": "80c29b31cdc61c2ce76c557782225a38", "rental_uris": {"ios": "https://dc.lft.to/lastmile_qr_scan", "android": "https://dc.lft.to/lastmile_qr_scan"}}, {"name": "65ad4ca6604c3a9e25cc898b4f8cc3e7", "type": "electric_bike", "lat": 38.892247833333336, "is_reserved": 0, "lon": -76.97026366666667, "fusion_lon": 0.0, "is_disabled": 0, "fusion_lat": 0.0, "bike_id": "65ad4ca6604c3a9e25cc898b4f8cc3e7", "rental_uris": {"ios": "https://dc.lft.to/lastmile_qr_scan", "android": "https://dc.lft.to/lastmile_qr_scan"}}, {"name": "920ff95bd5271f1080e8b23a0dfe2e50", "type": "electric_scooter", "lat": 38.905531833333335, "is_reserved": 0, "lon": -77.0465295, "fusion_lon": 0.0, "is_disabled": 0, "fusion_lat": 0.0, "bike_id": "920ff95bd5271f1080e8b23a0dfe2e50", "rental_uris": {"ios": "https://dc.lft.to/lastmile_qr_scan", "android": "https://dc.lft.to/lastmile_qr_scan"}}, {"name": "7faae0d38298512614ea405ca5d44ac9", "type": "electric_scooter", "lat": 38.893573333333336, "is_reserved": 0, "lon": -77.0199335, "fusion_lon": 0.0, "is_disabled": 0, "fusion_lat": 0.0, "bike_id": "7faae0d38298512614ea405ca5d44ac9", "rental_uris": {"ios": "https://dc.lft.to/lastmile_qr_scan", "android": "https://dc.lft.to/lastmile_qr_scan"}}, {"name": "805c381e469bcbdec7d70ef7884609fa", "type": "electric_scooter", "lat": 38.8977555, "is_reserved": 0, "lon": -76.97730133333333, "fusion_lon": 0.0, "is_disabled": 0, "fusion_lat": 0.0, "bike_id": "805c381e469bcbdec7d70ef7884609fa", "rental_uris": {"ios": "https://dc.lft.to/lastmile_qr_scan", "android": "https://dc.lft.to/lastmile_qr_scan"}}, {"name": "5942d13b719fc81552a108f4c9b47b98", "type": "electric_scooter", "lat": 38.940504, "is_reserved": 0, "lon": -77.032859, "fusion_lon": 0.0, "is_disabled": 0, "fusion_lat": 0.0, "bike_id": "5942d13b719fc81552a108f4c9b47b98", "rental_uris": {"ios": "https://dc.lft.to/lastmile_qr_scan", "android": "https://dc.lft.to/lastmile_qr_scan"}}, {"name": "ed41eb4412b3fd4ec12c592b9ee29115", "type": "electric_scooter", "lat": 38.927774, "is_reserved": 0, "lon": -77.02786266666666, "fusion_lon": 0.0, "is_disabled": 0, "fusion_lat": 0.0, "bike_id": "ed41eb4412b3fd4ec12c592b9ee29115", "rental_uris": {"ios": "https://dc.lft.to/lastmile_qr_scan", "android": "https://dc.lft.to/lastmile_qr_scan"}}, {"name": "2c6eba4c7e82d1e452954b44bae0c255", "type": "electric_scooter", "lat": 38.86373416666667, "is_reserved": 0, "lon": -76.990597, "fusion_lon": 0.0, "is_disabled": 0, "fusion_lat": 0.0, "bike_id": "2c6eba4c7e82d1e452954b44bae0c255", "rental_uris": {"ios": "https://dc.lft.to/lastmile_qr_scan", "android": "https://dc.lft.to/lastmile_qr_scan"}}, {"name": "69fe4812f2eb903d625fb3346e4a617c", "type": "electric_scooter", "lat": 38.942741166666664, "is_reserved": 0, "lon": -77.03258, "fusion_lon": 0.0, "is_disabled": 0, "fusion_lat": 0.0, "bike_id": "69fe4812f2eb903d625fb3346e4a617c", "rental_uris": {"ios": "https://dc.lft.to/lastmile_qr_scan", "android": "https://dc.lft.to/lastmile_qr_scan"}}, {"name": "9f7197bc35f674c8153f7988f4e02c7e", "type": "electric_scooter", "lat": 38.91191533333333, "is_reserved": 0, "lon": -76.99623333333334, "fusion_lon": 0.0, "is_disabled": 0, "fusion_lat": 0.0, "bike_id": "9f7197bc35f674c8153f7988f4e02c7e", "rental_uris": {"ios": "https://dc.lft.to/lastmile_qr_scan", "android": "https://dc.lft.to/lastmile_qr_scan"}}, {"name": "de3bf7d171e73a9857f238a6eaaa4717", "type": "electric_scooter", "lat": 38.892225, "is_reserved": 0, "lon": -77.0426585, "fusion_lon": 0.0, "is_disabled": 0, "fusion_lat": 0.0, "bike_id": "de3bf7d171e73a9857f238a6eaaa4717", "rental_uris": {"ios": "https://dc.lft.to/lastmile_qr_scan", "android": "https://dc.lft.to/lastmile_qr_scan"}}, {"name": "d85a5ce267e9f099aed1fc6e48a65cb7", "type": "electric_scooter", "lat": 38.8978075, "is_reserved": 0, "lon": -77.029853, "fusion_lon": 0.0, "is_disabled": 0, "fusion_lat": 0.0, "bike_id": "d85a5ce267e9f099aed1fc6e48a65cb7", "rental_uris": {"ios": "https://dc.lft.to/lastmile_qr_scan", "android": "https://dc.lft.to/lastmile_qr_scan"}}, {"name": "66a04cb95a3401442b8aefff9d8846f5", "type": "electric_bike", "lat": 38.85492966666666, "is_reserved": 0, "lon": -77.115236, "fusion_lon": 0.0, "is_disabled": 0, "fusion_lat": 0.0, "bike_id": "66a04cb95a3401442b8aefff9d8846f5", "rental_uris": {"ios": "https://dc.lft.to/lastmile_qr_scan", "android": "https://dc.lft.to/lastmile_qr_scan"}}, {"name": "f9d94dbea9759b7f50090a50f2bce854", "type": "electric_scooter", "lat": 38.88314833333333, "is_reserved": 0, "lon": -77.01749066666666, "fusion_lon": 0.0, "is_disabled": 0, "fusion_lat": 0.0, "bike_id": "f9d94dbea9759b7f50090a50f2bce854", "rental_uris": {"ios": "https://dc.lft.to/lastmile_qr_scan", "android": "https://dc.lft.to/lastmile_qr_scan"}}, {"name": "007c19059d4d09e5199b6a0586578845", "type": "electric_scooter", "lat": 38.920694166666664, "is_reserved": 0, "lon": -77.02918066666666, "fusion_lon": 0.0, "is_disabled": 0, "fusion_lat": 0.0, "bike_id": "007c19059d4d09e5199b6a0586578845", "rental_uris": {"ios": "https://dc.lft.to/lastmile_qr_scan", "android": "https://dc.lft.to/lastmile_qr_scan"}}, {"name": "7654c3e1a20bb59cf0ec08226591e6ff", "type": "electric_scooter", "lat": 38.96115316666667, "is_reserved": 0, "lon": -77.02815916666667, "fusion_lon": 0.0, "is_disabled": 0, "fusion_lat": 0.0, "bike_id": "7654c3e1a20bb59cf0ec08226591e6ff", "rental_uris": {"ios": "https://dc.lft.to/lastmile_qr_scan", "android": "https://dc.lft.to/lastmile_qr_scan"}}, {"name": "fdfecdb0f475d162978c21ef1189ef6d", "type": "electric_scooter", "lat": 38.917122166666665, "is_reserved": 0, "lon": -77.03110433333333, "fusion_lon": 0.0, "is_disabled": 0, "fusion_lat": 0.0, "bike_id": "fdfecdb0f475d162978c21ef1189ef6d", "rental_uris": {"ios": "https://dc.lft.to/lastmile_qr_scan", "android": "https://dc.lft.to/lastmile_qr_scan"}}, {"name": "bc658dd2b33d4c969e49ad8041425a68", "type": "electric_scooter", "lat": 38.919423, "is_reserved": 0, "lon": -77.01345383333333, "fusion_lon": 0.0, "is_disabled": 0, "fusion_lat": 0.0, "bike_id": "bc658dd2b33d4c969e49ad8041425a68", "rental_uris": {"ios": "https://dc.lft.to/lastmile_qr_scan", "android": "https://dc.lft.to/lastmile_qr_scan"}}, {"name": "c18194dec136d95e1f78ccda828d7fba", "type": "electric_scooter", "lat": 38.9443875, "is_reserved": 0, "lon": -77.06354416666667, "fusion_lon": 0.0, "is_disabled": 0, "fusion_lat": 0.0, "bike_id": "c18194dec136d95e1f78ccda828d7fba", "rental_uris": {"ios": "https://dc.lft.to/lastmile_qr_scan", "android": "https://dc.lft.to/lastmile_qr_scan"}}, {"name": "0c008353cbfd91ae1f3e1eea18b90b7b", "type": "electric_scooter", "lat": 38.907566333333335, "is_reserved": 0, "lon": -77.00144583333334, "fusion_lon": 0.0, "is_disabled": 0, "fusion_lat": 0.0, "bike_id": "0c008353cbfd91ae1f3e1eea18b90b7b", "rental_uris": {"ios": "https://dc.lft.to/lastmile_qr_scan", "android": "https://dc.lft.to/lastmile_qr_scan"}}, {"name": "69a826421c91e89a78497caea5fd2cb1", "type": "electric_scooter", "lat": 38.925819833333335, "is_reserved": 0, "lon": -77.03929966666666, "fusion_lon": 0.0, "is_disabled": 0, "fusion_lat": 0.0, "bike_id": "69a826421c91e89a78497caea5fd2cb1", "rental_uris": {"ios": "https://dc.lft.to/lastmile_qr_scan", "android": "https://dc.lft.to/lastmile_qr_scan"}}, {"name": "f7c696aa4ee24bcb73fbf2c9615c3d94", "type": "electric_scooter", "lat": 38.9205805, "is_reserved": 0, "lon": -76.99873016666666, "fusion_lon": 0.0, "is_disabled": 0, "fusion_lat": 0.0, "bike_id": "f7c696aa4ee24bcb73fbf2c9615c3d94", "rental_uris": {"ios": "https://dc.lft.to/lastmile_qr_scan", "android": "https://dc.lft.to/lastmile_qr_scan"}}, {"name": "388ae1b4aa2003a7a3f954f16021e4b6", "type": "electric_scooter", "lat": 38.91353083333333, "is_reserved": 0, "lon": -77.015628, "fusion_lon": 0.0, "is_disabled": 0, "fusion_lat": 0.0, "bike_id": "388ae1b4aa2003a7a3f954f16021e4b6", "rental_uris": {"ios": "https://dc.lft.to/lastmile_qr_scan", "android": "https://dc.lft.to/lastmile_qr_scan"}}, {"name": "ca26ebfb03dae9345edb69dfedc5d5d6", "type": "electric_scooter", "lat": 38.899158166666666, "is_reserved": 0, "lon": -76.94557516666667, "fusion_lon": 0.0, "is_disabled": 0, "fusion_lat": 0.0, "bike_id": "ca26ebfb03dae9345edb69dfedc5d5d6", "rental_uris": {"ios": "https://dc.lft.to/lastmile_qr_scan", "android": "https://dc.lft.to/lastmile_qr_scan"}}, {"name": "2808f395ea19589cb2c3ccea5b2ac4e7", "type": "electric_scooter", "lat": 38.924549166666665, "is_reserved": 0, "lon": -77.00218183333334, "fusion_lon": 0.0, "is_disabled": 0, "fusion_lat": 0.0, "bike_id": "2808f395ea19589cb2c3ccea5b2ac4e7", "rental_uris": {"ios": "https://dc.lft.to/lastmile_qr_scan", "android": "https://dc.lft.to/lastmile_qr_scan"}}, {"name": "171ee503dbc8982daef328c93b7bbbf2", "type": "electric_scooter", "lat": 38.918989, "is_reserved": 0, "lon": -77.01975816666666, "fusion_lon": 0.0, "is_disabled": 0, "fusion_lat": 0.0, "bike_id": "171ee503dbc8982daef328c93b7bbbf2", "rental_uris": {"ios": "https://dc.lft.to/lastmile_qr_scan", "android": "https://dc.lft.to/lastmile_qr_scan"}}, {"name": "7c6f11bcb3ad429586abacb38c091b23", "type": "electric_scooter", "lat": 38.8764185, "is_reserved": 0, "lon": -76.99588983333334, "fusion_lon": 0.0, "is_disabled": 0, "fusion_lat": 0.0, "bike_id": "7c6f11bcb3ad429586abacb38c091b23", "rental_uris": {"ios": "https://dc.lft.to/lastmile_qr_scan", "android": "https://dc.lft.to/lastmile_qr_scan"}}, {"name": "2f1e4052e9f27ada72a6b0faafeeb9d8", "type": "electric_scooter", "lat": 38.900226, "is_reserved": 0, "lon": -77.01120783333333, "fusion_lon": 0.0, "is_disabled": 0, "fusion_lat": 0.0, "bike_id": "2f1e4052e9f27ada72a6b0faafeeb9d8", "rental_uris": {"ios": "https://dc.lft.to/lastmile_qr_scan", "android": "https://dc.lft.to/lastmile_qr_scan"}}, {"name": "7fe8edaddd65b8c3698a83a38ff62056", "type": "electric_scooter", "lat": 38.877060166666666, "is_reserved": 0, "lon": -76.993852, "fusion_lon": 0.0, "is_disabled": 0, "fusion_lat": 0.0, "bike_id": "7fe8edaddd65b8c3698a83a38ff62056", "rental_uris": {"ios": "https://dc.lft.to/lastmile_qr_scan", "android": "https://dc.lft.to/lastmile_qr_scan"}}, {"name": "e7e025ab3cf78d136ccbc140af704f9e", "type": "electric_scooter", "lat": 38.90278933333333, "is_reserved": 0, "lon": -77.03834266666667, "fusion_lon": 0.0, "is_disabled": 0, "fusion_lat": 0.0, "bike_id": "e7e025ab3cf78d136ccbc140af704f9e", "rental_uris": {"ios": "https://dc.lft.to/lastmile_qr_scan", "android": "https://dc.lft.to/lastmile_qr_scan"}}, {"name": "172a538aa87efbf2ea5305daf35762f8", "type": "electric_scooter", "lat": 38.89824566666667, "is_reserved": 0, "lon": -77.0330185, "fusion_lon": 0.0, "is_disabled": 0, "fusion_lat": 0.0, "bike_id": "172a538aa87efbf2ea5305daf35762f8", "rental_uris": {"ios": "https://dc.lft.to/lastmile_qr_scan", "android": "https://dc.lft.to/lastmile_qr_scan"}}, {"name": "5bcc5cf6ecfab38ab9a141896f6b7eeb", "type": "electric_scooter", "lat": 38.90035733333333, "is_reserved": 0, "lon": -77.00198466666667, "fusion_lon": 0.0, "is_disabled": 0, "fusion_lat": 0.0, "bike_id": "5bcc5cf6ecfab38ab9a141896f6b7eeb", "rental_uris": {"ios": "https://dc.lft.to/lastmile_qr_scan", "android": "https://dc.lft.to/lastmile_qr_scan"}}, {"name": "7bfbb52b63be7b7220ca038c616524af", "type": "electric_scooter", "lat": 38.93069833333333, "is_reserved": 0, "lon": -77.03811833333333, "fusion_lon": 0.0, "is_disabled": 0, "fusion_lat": 0.0, "bike_id": "7bfbb52b63be7b7220ca038c616524af", "rental_uris": {"ios": "https://dc.lft.to/lastmile_qr_scan", "android": "https://dc.lft.to/lastmile_qr_scan"}}, {"name": "4646faf55a60c4cbd986cd3e8fda7543", "type": "electric_scooter", "lat": 38.917559, "is_reserved": 0, "lon": -77.0385905, "fusion_lon": 0.0, "is_disabled": 0, "fusion_lat": 0.0, "bike_id": "4646faf55a60c4cbd986cd3e8fda7543", "rental_uris": {"ios": "https://dc.lft.to/lastmile_qr_scan", "android": "https://dc.lft.to/lastmile_qr_scan"}},