{"data": {"bikes": [{"is_reserved": 0, "type": "electric_scooter", "fusion_lat": 0.0, "is_disabled": 0, "rental_uris": {"ios": "https://dc.lft.to/lastmile_qr_scan", "android": "https://dc.lft.to/lastmile_qr_scan"}, "bike_id": "d79f0be3c81b9f7f89e2be5701ef671f", "lat": 38.91684566666667, "name": "d79f0be3c81b9f7f89e2be5701ef671f", "lon": -77.0294905, "fusion_lon": 0.0}, {"is_reserved": 0, "type": "electric_scooter", "fusion_lat": 0.0, "is_disabled": 0, "rental_uris": {"ios": "https://dc.lft.to/lastmile_qr_scan", "android": "https://dc.lft.to/lastmile_qr_scan"}, "bike_id": "1d3c324fd25fb2a9a2720d62b57a5e83", "lat": 38.891969, "name": "1d3c324fd25fb2a9a2720d62b57a5e83", "lon": -77.01547333333333, "fusion_lon": 0.0}, {"is_reserved": 0, "type": "electric_scooter", "fusion_lat": 0.0, "is_disabled": 0, "rental_uris": {"ios": "https://dc.lft.to/lastmile_qr_scan", "android": "https://dc.lft.to/lastmile_qr_scan"}, "bike_id": "aec8c6b830412a475518a8d572b5e97b", "lat": 38.9179535, "name": "aec8c6b830412a475518a8d572b5e97b", "lon": -77.044539, "fusion_lon": 0.0}, {"is_reserved": 0, "type": "electric_scooter", "fusion_lat": 0.0, "is_disabled": 0, "rental_uris": {"ios": "https://dc.lft.to/lastmile_qr_scan", "android": "https://dc.lft.to/lastmile_qr_scan"}, "bike_id": "7f4d9d71c903a038ee8abf89fc0dcd94", "lat": 38.90248666666667, "name": "7f4d9d71c903a038ee8abf89fc0dcd94", "lon": -77.00068133333333, "fusion_lon": 0.0}, {"is_reserved": 0, "type": "electric_scooter", "fusion_lat": 0.0, "is_disabled": 0, "rental_uris": {"ios": "https://dc.lft.to/lastmile_qr_scan", "android": "https://dc.lft.to/lastmile_qr_scan"}, "bike_id": "7351c8e2f95a63c8b752d9d3d96082e4", "lat": 38.876613, "name": "7351c8e2f95a63c8b752d9d3d96082e4", "lon": -77.00085166666666, "fusion_lon": 0.0}, {"is_reserved": 0, "type": "electric_bike", "fusion_lat": 0.0, "is_disabled": 0, "rental_uris": {"ios": "https://dc.lft.to/lastmile_qr_scan", "android": "https://dc.lft.to/lastmile_qr_scan"}, "bike_id": "8b64d50ba8b4c1825d73376fd88b32d7", "lat": 38.81339783333333, "name": "8b64d50ba8b4c1825d73376fd88b32d7", "lon": -77.051118, "fusion_lon": 0.0}, {"is_reserved": 0, "type": "electric_scooter", "fusion_lat": 0.0, "is_disabled": 0, "rental_uris": {"ios": "https://dc.lft.to/lastmile_qr_scan", "android": "https://dc.lft.to/lastmile_qr_scan"}, "bike_id": "614adde06df1b640e497a1ff204fbab1", "lat": 38.881398, "name": "614adde06df1b640e497a1ff204fbab1", "lon": -77.02011766666666, "fusion_lon": 0.0}, {"is_reserved": 0, "type": "electric_scooter", "fusion_lat": 0.0, "is_disabled": 0, "rental_uris": {"ios": "https://dc.lft.to/lastmile_qr_scan", "android": "https://dc.lft.to/lastmile_qr_scan"}, "bike_id": "553ed679eda21f8d89610e2c0d95c3ee", "lat": 38.8852265, "name": "553ed679eda21f8d89610e2c0d95c3ee", "lon": -76.97712733333333, "fusion_lon": 0.0}, {"is_reserved": 0, "type": "electric_scooter", "fusion_lat": 0.0, "is_disabled": 0, "rental_uris": {"ios": "https://dc.lft.to/lastmile_qr_scan", "android": "https://dc.lft.to/lastmile_qr_scan"}, "bike_id": "9611c1fe7aa0a1a0a032316ab9bcf4c7", "lat": 38.9207245, "name": "9611c1fe7aa0a1a0a032316ab9bcf4c7", "lon": -77.024145, "fusion_lon": 0.0}, {"is_reserved": 0, "type": "electric_scooter", "fusion_lat": 0.0, "is_disabled": 0, "rental_uris": {"ios": "https://dc.lft.to/lastmile_qr_scan", "android": "https://dc.lft.to/lastmile_qr_scan"}, "bike_id": "b508e165f6656d43e3a22ff129dbeaf7", "lat": 38.9020065, "name": "b508e165f6656d43e3a22ff129dbeaf7", "lon": -77.0237475, "fusion_lon": 0.0}, {"is_reserved": 0, "type": "electric_scooter", "fusion_lat": 0.0, "is_disabled": 0, "rental_uris": {"ios": "https://dc.lft.to/lastmile_qr_scan", "android": "https://dc.lft.to/lastmile_qr_scan"}, "bike_id": "3dd5fb4695719dfcf09b1a3e5494594f", "lat": 38.9283315, "name": "3dd5fb4695719dfcf09b1a3e5494594f", "lon": -77.037014, "fusion_lon": 0.0}, {"is_reserved": 0, "type": "electric_scooter", "fusion_lat": 0.0, "is_disabled": 0, "rental_uris": {"ios": "https://dc.lft.to/lastmile_qr_scan", "android": "https://dc.lft.to/lastmile_qr_scan"}, "bike_id": "7fb81a925894a94dc31d94b1af8ddc43", "lat": 38.914693666666665, "name": "7fb81a925894a94dc31d94b1af8ddc43", "lon": -77.00209416666667, "fusion_lon": 0.0}, {"is_reserved": 0, "type": "electric_scooter", "fusion_lat": 0.0, "is_disabled": 0, "rental_uris": {"ios": "https://dc.lft.to/lastmile_qr_scan", "android": "https://dc.lft.to/lastmile_qr_scan"}, "bike_id": "603b29450ad6ae47e49d56b897256e22", "lat": 38.876317666666665, "name": "603b29450ad6ae47e49d56b897256e22", "lon": -77.0096175, "fusion_lon": 0.0}, {"is_reserved": 0, "type": "electric_scooter", "fusion_lat": 0.0, "is_disabled": 0, "rental_uris": {"ios": "https://dc.lft.to/lastmile_qr_scan", "android": "https://dc.lft.to/lastmile_qr_scan"}, "bike_id": "bc32ecad1fc1a1a073e6a07fc3003702", "lat": 38.89861066666667, "name": "bc32ecad1fc1a1a073e6a07fc3003702", "lon": -77.03921783333334, "fusion_lon": 0.0}, {"is_reserved": 0, "type": "electric_scooter", "fusion_lat": 0.0, "is_disabled": 0, "rental_uris": {"ios": "https://dc.lft.to/lastmile_qr_scan", "android": "https://dc.lft.to/lastmile_qr_scan"}, "bike_id": "c4fe202f1c8c39f6d2f3141d29594d1d", "lat": 38.90489133333333, "name": "c4fe202f1c8c39f6d2f3141d29594d1d", "lon": -77.02807016666667, "fusion_lon": 0.0}, {"is_reserved": 0, "type": "electric_scooter", "fusion_lat": 0.0, "is_disabled": 0, "rental_uris": {"ios": "https://dc.lft.to/lastmile_qr_scan", "android": "https://dc.lft.to/lastmile_qr_scan"}, "bike_id": "266844f6604d21c9f735d6e244ecc4e8", "lat": 38.90611083333334, "name": "266844f6604d21c9f735d6e244ecc4e8", "lon": -77.021073, "fusion_lon": 0.0}, {"is_reserved": 0, "type": "electric_scooter", "fusion_lat": 0.0, "is_disabled": 0, "rental_uris": {"ios": "https://dc.lft.to/lastmile_qr_scan", "android": "https://dc.lft.to/lastmile_qr_scan"}, "bike_id": "37b7c0dc751e98c722b57aab75ccd92d", "lat": 38.88664883333333, "name": "37b7c0dc751e98c722b57aab75ccd92d", "lon": -76.98563316666667, "fusion_lon": 0.0}, {"is_reserved": 0, "type": "electric_scooter", "fusion_lat": 0.0, "is_disabled": 0, "rental_uris": {"ios": "https://dc.lft.to/lastmile_qr_scan", "android": "https://dc.lft.to/lastmile_qr_scan"}, "bike_id": "6daf09031224f30c217ab04a11f1f604", "lat": 38.855218666666666, "name": "6daf09031224f30c217ab04a11f1f604", "lon": -76.99146466666667, "fusion_lon": 0.0}, {"is_reserved": 0, "type": "electric_scooter", "fusion_lat": 0.0, "is_disabled": 0, "rental_uris": {"ios": "https://dc.lft.to/lastmile_qr_scan", "android": "https://dc.lft.to/lastmile_qr_scan"}, "bike_id": "d82ad4530083d2adebed99c8628455be", "lat": 38.9342155, "name": "d82ad4530083d2adebed99c8628455be", "lon": -77.04405316666667, "fusion_lon": 0.0}, {"is_reserved": 0, "type": "electric_scooter", "fusion_lat": 0.0, "is_disabled": 0, "rental_uris": {"ios": "https://dc.lft.to/lastmile_qr_scan", "android": "https://dc.lft.to/lastmile_qr_scan"}, "bike_id": "c328ab8b3f0888cafe904d3529274df0", "lat": 38.911077666666664, "name": "c328ab8b3f0888cafe904d3529274df0", "lon": -77.03841883333334, "fusion_lon": 0.0}, {"is_reserved": 0, "type": "electric_scooter", "fusion_lat": 0.0, "is_disabled": 0, "rental_uris": {"ios": "https://dc.lft.to/lastmile_qr_scan", "android": "https://dc.lft.to/lastmile_qr_scan"}, "bike_id": "72dd3ef0f5a3cd394551a6efaa539b33", "lat": 38.8947715, "name": "72dd3ef0f5a3cd394551a6efaa539b33", "lon": -76.99359466666667, "fusion_lon": 0.0}, {"is_reserved": 0, "type": "electric_scooter", "fusion_lat": 0.0, "is_disabled": 0, "rental_uris": {"ios": "https://dc.lft.to/lastmile_qr_scan", "android": "https://dc.lft.to/lastmile_qr_scan"}, "bike_id": "2b8378b30619f92d2f504654bee9256b", "lat": 38.89833316666667, "name": "2b8378b30619f92d2f504654bee9256b", "lon": -76.94634, "fusion_lon": 0.0}, {"is_reserved": 0, "type": "electric_scooter", "fusion_lat": 0.0, "is_disabled": 0, "rental_uris": {"ios": "https://dc.lft.to/lastmile_qr_scan", "android": "https://dc.lft.to/lastmile_qr_scan"}, "bike_id": "13937c6edde613cf973376bc2c37577c", "lat": 38.92286433333334, "name": "13937c6edde613cf973376bc2c37577c", "lon": -77.01993083333333, "fusion_lon": 0.0}, {"is_reserved": 0, "type": "electric_scooter", "fusion_lat": 0.0, "is_disabled": 0, "rental_uris": {"ios": "https://dc.lft.to/lastmile_qr_scan", "android": "https://dc.lft.to/lastmile_qr_scan"}, "bike_id": "a058875d8ed538df74c11bd63456afe3", "lat": 38.92217383333333, "name": "a058875d8ed538df74c11bd63456afe3", "lon": -77.0329495, "fusion_lon": 0.0}, {"is_reserved": 0, "type": "electric_scooter", "fusion_lat": 0.0, "is_disabled": 0, "rental_uris": {"ios": "https://dc.lft.to/lastmile_qr_scan", "android": "https://dc.lft.to/lastmile_qr_scan"}, "bike_id": "baa04d902372f36c7ca10c91edea2580", "lat": 38.8812745, "name": "baa04d902372f36c7ca10c91edea2580", "lon": -76.9934375, "fusion_lon": 0.0}, {"is_reserved": 0, "type": "electric_scooter", "fusion_lat": 0.0, "is_disabled": 0, "rental_uris": {"ios": "https://dc.lft.to/lastmile_qr_scan", "android": "https://dc.lft.to/lastmile_qr_scan"}, "bike_id": "c00b23c9646da878f21576489eb8d9b4", "lat": 38.923412166666665, "name": "c00b23c9646da878f21576489eb8d9b4", "lon": -77.057845, "fusion_lon": 0.0}, {"is_reserved": 0, "type": "electric_scooter", "fusion_lat": 0.0, "is_disabled": 0, "rental_uris": {"ios": "https://dc.lft.to/lastmile_qr_scan", "android": "https://dc.lft.to/lastmile_qr_scan"}, "bike_id": "f10856da1f2841e9e078d51d3cad9ae3", "lat": 38.9091175, "name": "f10856da1f2841e9e078d51d3cad9ae3", "lon": -77.03513066666666, "fusion_lon": 0.0}, {"is_reserved": 0, "type": "electric_scooter", "fusion_lat": 0.0, "is_disabled": 0, "rental_uris": {"ios": "https://dc.lft.to/lastmile_qr_scan", "android": "https://dc.lft.to/lastmile_qr_scan"}, "bike_id": "96bd771fb3fafbdddcb36684e118cb8a", "lat": 38.93511016666667, "name": "96bd771fb3fafbdddcb36684e118cb8a", "lon": -77.056798, "fusion_lon": 0.0}, {"is_reserved": 0, "type": "electric_scooter", "fusion_lat": 0.0, "is_disabled": 0, "rental_uris": {"ios": "https://dc.lft.to/lastmile_qr_scan", "android": "https://dc.lft.to/lastmile_qr_scan"}, "bike_id": "0d0f3cd05f59b62a19dd465673ada2b4", "lat": 38.91745016666667, "name": "0d0f3cd05f59b62a19dd465673ada2b4", "lon": -77.0177385, "fusion_lon": 0.0}, {"is_reserved": 0, "type": "electric_scooter", "fusion_lat": 0.0, "is_disabled": 0, "rental_uris": {"ios": "https://dc.lft.to/lastmile_qr_scan", "android": "https://dc.lft.to/lastmile_qr_scan"}, "bike_id": "a11c0bedc59ffb218112e3189f7686f2", "lat": 38.87637133333333, "name": "a11c0bedc59ffb218112e3189f7686f2", "lon": -76.992927, "fusion_lon": 0.0}, {"is_reserved": 0, "type": "electric_scooter", "fusion_lat": 0.0, "is_disabled": 0, "rental_uris": {"ios": "https://dc.lft.to/lastmile_qr_scan", "android": "https://dc.lft.to/lastmile_qr_scan"}, "bike_id": "e0ebf958271fb0d80ad96b01c0f49328", "lat": 38.92599583333333, "name": "e0ebf958271fb0d80ad96b01c0f49328", "lon": -77.02389983333333, "fusion_lon": 0.0}, {"is_reserved": 0, "type": "electric_bike", "fusion_lat": 0.0, "is_disabled": 0, "rental_uris": {"ios": "https://dc.lft.to/lastmile_qr_scan", "android": "https://dc.lft.to/lastmile_qr_scan"}, "bike_id": "8a92a4354256cc0d16f763b77d7db433", "lat": 38.87994333333333, "name": "8a92a4354256cc0d16f763b77d7db433", "lon": -76.9853945, "fusion_lon": 0.0}, {"is_reserved": 0, "type": "electric_scooter", "fusion_lat": 0.0, "is_disabled": 0, "rental_uris": {"ios": "https://dc.lft.to/lastmile_qr_scan", "android": "https://dc.lft.to/lastmile_qr_scan"}, "bike_id": "05f4aad58549094f714194b5215a2388", "lat": 38.9057385, "name": "05f4aad58549094f714194b5215a2388", "lon": -76.97626783333334, "fusion_lon": 0.0}, {"is_reserved": 0, "type": "electric_scooter", "fusion_lat": 0.0, "is_disabled": 0, "rental_uris": {"ios": "https://dc.lft.to/lastmile_qr_scan", "android": "https://dc.lft.to/lastmile_qr_scan"}, "bike_id": "b7b9e333f05802a21d8b782d155df85b", "lat": 38.8746645, "name": "b7b9e333f05802a21d8b782d155df85b", "lon": -77.0048675, "fusion_lon": 0.0}, {"is_reserved": 0, "type": "electric_scooter", "fusion_lat": 0.0, "is_disabled": 0, "rental_uris": {"ios": "https://dc.lft.to/lastmile_qr_scan", "android": "https://dc.lft.to/lastmile_qr_scan"}, "bike_id": "b23bbfad596f1f1f309d8dd8b9507c45", "lat": 38.90728133333333, "name": "b23bbfad596f1f1f309d8dd8b9507c45", "lon": -77.02894283333333, "fusion_lon": 0.0}, {"is_reserved": 0, "type": "electric_scooter", "fusion_lat": 0.0, "is_disabled": 0, "rental_uris": {"ios": "https://dc.lft.to/lastmile_qr_scan", "android": "https://dc.lft.to/lastmile_qr_scan"}, "bike_id": "300cc77ed943caff60cfe429849fa31c", "lat": 38.9217095, "name": "300cc77ed943caff60cfe429849fa31c", "lon": -77.040081, "fusion_lon": 0.0}, {"is_reserved": 0, "type": "electric_bike", "fusion_lat": 0.0, "is_disabled": 0, "rental_uris": {"ios": "https://dc.lft.to/lastmile_qr_scan", "android": "https://dc.lft.to/lastmile_qr_scan"}, "bike_id": "9da845e6f14fb193147e6dd1b0b4ba2c", "lat": 38.831597, "name": "9da845e6f14fb193147e6dd1b0b4ba2c", "lon": -76.99589966666667, "fusion_lon": 0.0}, {"is_reserved": 0, "type": "electric_scooter", "fusion_lat": 0.0, "is_disabled": 0, "rental_uris": {"ios": "https://dc.lft.to/lastmile_qr_scan", "android": "https://dc.lft.to/lastmile_qr_scan"}, "bike_id": "23f72f69fb6ff9813838bc9accade02d", "lat": 38.899536166666664, "name": "23f72f69fb6ff9813838bc9accade02d", "lon": -76.92633166666667, "fusion_lon": 0.0}, {"is_reserved": 0, "type": "electric_scooter", "fusion_lat": 0.0, "is_disabled": 0, "rental_uris": {"ios": "https://dc.lft.to/lastmile_qr_scan", "android": "https://dc.lft.to/lastmile_qr_scan"}, "bike_id": "3c22cda745c57e5e9e07198ba9833621", "lat": 38.89303816666666, "name": "3c22cda745c57e5e9e07198ba9833621", "lon": -77.0199015, "fusion_lon": 0.0}, {"is_reserved": 0, "type": "electric_scooter", "fusion_lat": 0.0, "is_disabled": 0, "rental_uris": {"ios": "https://dc.lft.to/lastmile_qr_scan", "android": "https://dc.lft.to/lastmile_qr_scan"}, "bike_id": "f4f24899be1a6e612ed4bb9d0adf01f1", "lat": 38.92996566666667, "name": "f4f24899be1a6e612ed4bb9d0adf01f1", "lon": -77.037987, "fusion_lon": 0.0}, {"is_reserved": 0, "type": "electric_bike", "fusion_lat": 0.0, "is_disabled": 0, "rental_uris": {"ios": "https://dc.lft.to/lastmile_qr_scan", "android": "https://dc.lft.to/lastmile_qr_scan"}, "bike_id": "929234173234afd7ea7d77f4d22f007a", "lat": 39.02516883333333, "name": "929234173234afd7ea7d77f4d22f007a", "lon": -77.01967816666667, "fusion_lon": 0.0}, {"is_reserved": 0, "type": "electric_bike", "fusion_lat": 0.0, "is_disabled": 0, "rental_uris": {"ios": "https://dc.lft.to/lastmile_qr_scan", "android": "https://dc.lft.to/lastmile_qr_scan"}, "bike_id": "1dc00ae2733872d4254007eccfe82fed", "lat": 39.08474416666667, "name": "1dc00ae2733872d4254007eccfe82fed", "lon": -76.95071483333334, "fusion_lon": 0.0}, {"is_reserved": 0, "type": "electric_scooter", "fusion_lat": 0.0, "is_disabled": 0, "rental_uris": {"ios": "https://dc.lft.to/lastmile_qr_scan", "android": "https://dc.lft.to/lastmile_qr_scan"}, "bike_id": "6ffe54fa4980c41a2fa56c0319ae0c73", "lat": 38.87881183333333, "name": "6ffe54fa4980c41a2fa56c0319ae0c73", "lon": -77.00053616666666, "fusion_lon": 0.0}, {"is_reserved": 0, "type": "electric_scooter", "fusion_lat": 0.0, "is_disabled": 0, "rental_uris": {"ios": "https://dc.lft.to/lastmile_qr_scan", "android": "https://dc.lft.to/lastmile_qr_scan"}, "bike_id": "0ea0c3f6b43c708fd8fe349f240e03c3", "lat": 38.93480383333333, "name": "0ea0c3f6b43c708fd8fe349f240e03c3", "lon": -77.057936, "fusion_lon": 0.0}, {"is_reserved": 0, "type": "electric_scooter", "fusion_lat": 0.0, "is_disabled": 0, "rental_uris": {"ios": "https://dc.lft.to/lastmile_qr_scan", "android": "https://dc.lft.to/lastmile_qr_scan"}, "bike_id": "60d6ab1831941983709ad48db9292b35", "lat": 38.94089183333333, "name": "60d6ab1831941983709ad48db9292b35", "lon": -77.02721966666667, "fusion_lon": 0.0}, {"is_reserved": 0, "type": "electric_scooter", "fusion_lat": 0.0, "is_disabled": 0, "rental_uris": {"ios": "https://dc.lft.to/lastmile_qr_scan", "android": "https://dc.lft.to/lastmile_qr_scan"}, "bike_id": "505a57fdbfb3764f30191a9ab7cc1f03", "lat": 38.92063483333333, "name": "505a57fdbfb3764f30191a9ab7cc1f03", "lon": -77.042293, "fusion_lon": 0.0}, {"is_reserved": 0, "type": "electric_scooter", "fusion_lat": 0.0, "is_disabled": 0, "rental_uris": {"ios": "https://dc.lft.to/lastmile_qr_scan", "android": "https://dc.lft.to/lastmile_qr_scan"}, "bike_id": "3668030e82b60a64eb2eff25e1b60201", "lat": 38.90498933333333, "name": "3668030e82b60a64eb2eff25e1b60201", "lon": -77.02805616666667, "fusion_lon": 0.0}, {"is_reserved": 0, "type": "electric_scooter", "fusion_lat": 0.0, "is_disabled": 0, "rental_uris": {"ios": "https://dc.lft.to/lastmile_qr_scan", "android": "https://dc.lft.to/lastmile_qr_scan"}, "bike_id": "f5cf5f469c4eb72504fb9a8eba3635c5", "lat": 38.9248985, "name": "f5cf5f469c4eb72504fb9a8eba3635c5", "lon": -77.022139, "fusion_lon": 0.0}, {"is_reserved": 0, "type": "electric_scooter", "fusion_lat": 0.0, "is_disabled": 0, "rental_uris": {"ios": "https://dc.lft.to/lastmile_qr_scan", "android": "https://dc.lft.to/lastmile_qr_scan"}, "bike_id": "ffea19913dde10b7a4a30d1bf2f7311f", "lat": 38.900591, "name": "ffea19913dde10b7a4a30d1bf2f7311f", "lon": -77.01717766666667, "fusion_lon": 0.0}, {"is_reserved": 0, "type": "electric_scooter", "fusion_lat": 0.0, "is_disabled": 0, "rental_uris": {"ios": "https://dc.lft.to/lastmile_qr_scan", "android": "https://dc.lft.to/lastmile_qr_scan"}, "bike_id": "46592798c2d372ffbff8471e7f466492", "lat": 38.864962166666665, "name": "46592798c2d372ffbff8471e7f466492", "lon": -76.97730333333334, "fusion_lon": 0.0}, {"is_reserved": 0, "type": "electric_scooter", "fusion_lat": 0.0, "is_disabled": 0, "rental_uris": {"ios": "https://dc.lft.to/lastmile_qr_scan", "android": "https://dc.lft.to/lastmile_qr_scan"}, "bike_id": "97e02c4afd8e5b6f8ae4a5ee9f91706a", "lat": 38.898450833333335, "name": "97e02c4afd8e5b6f8ae4a5ee9f91706a", "lon": -77.0393065, "fusion_lon": 0.0}, {"is_reserved": 0, "type": "electric_scooter", "fusion_lat": 0.0, "is_disabled": 0, "rental_uris": {"ios": "https://dc.lft.to/lastmile_qr_scan", "android": "https://dc.lft.to/lastmile_qr_scan"}, "bike_id": "4411fbe70661f0b39d2483987c849147", "lat": 38.94203366666667, "name": "4411fbe70661f0b39d2483987c849147", "lon": -77.013299, "fusion_lon": 0.0}, {"is_reserved": 0, "type": "electric_scooter", "fusion_lat": 0.0, "is_disabled": 0, "rental_uris": {"ios": "https://dc.lft.to/lastmile_qr_scan", "android": "https://dc.lft.to/lastmile_qr_scan"}, "bike_id": "5ad574736032e4a85e07e7582513dc89", "lat": 38.921223833333336, "name": "5ad574736032e4a85e07e7582513dc89", "lon": -77.01771033333333, "fusion_lon": 0.0}, {"is_reserved": 0, "type": "electric_scooter", "fusion_lat": 0.0, "is_disabled": 0, "rental_uris": {"ios": "https://dc.lft.to/lastmile_qr_scan", "android": "https://dc.lft.to/lastmile_qr_scan"}, "bike_id": "d5e5621fcd30870ae963ac9d7ed1db47", "lat": 38.94644183333333, "name": "d5e5621fcd30870ae963ac9d7ed1db47", "lon": -77.01742283333333, "fusion_lon": 0.0}, {"is_reserved": 0, "type": "electric_scooter", "fusion_lat": 0.0, "is_disabled": 0, "rental_uris": {"ios": "https://dc.lft.to/lastmile_qr_scan", "android": "https://dc.lft.to/lastmile_qr_scan"}, "bike_id": "578e32a29d31297c8676f7425c0b47c0", "lat": 38.905430333333335, "name": "578e32a29d31297c8676f7425c0b47c0", "lon": -77.0580045, "fusion_lon": 0.0}, {"is_reserved": 0, "type": "electric_scooter", "fusion_lat": 0.0, "is_disabled": 0, "rental_uris": {"ios": "https://dc.lft.to/lastmile_qr_scan", "android": "https://dc.lft.to/lastmile_qr_scan"}, "bike_id": "b1cfc67fde85665f24daa1ff4a07e33e", "lat": 38.9168055, "name": "b1cfc67fde85665f24daa1ff4a07e33e", "lon": -77.04151866666666, "fusion_lon": 0.0}, {"is_reserved": 0, "type": "electric_scooter", "fusion_lat": 0.0, "is_disabled": 0, "rental_uris": {"ios": "https://dc.lft.to/lastmile_qr_scan", "android": "https://dc.lft.to/lastmile_qr_scan"}, "bike_id": "a49c011213a96dcbcb506879f6545172", "lat": 38.906072, "name": "a49c011213a96dcbcb506879f6545172", "lon": -77.06659683333334, "fusion_lon": 0.0}, {"is_reserved": 0, "type": "electric_bike", "fusion_lat": 0.0, "is_disabled": 0, "rental_uris": {"ios": "https://dc.lft.to/lastmile_qr_scan", "android": "https://dc.lft.to/lastmile_qr_scan"}, "bike_id": "52607d5cde2aff31a332d2a55bee905c", "lat": 38.91904533333334, "name": "52607d5cde2aff31a332d2a55bee905c", "lon": -77.00068116666667, "fusion_lon": 0.0}, {"is_reserved": 0, "type": "electric_scooter", "fusion_lat": 0.0, "is_disabled": 0, "rental_uris": {"ios": "https://dc.lft.to/lastmile_qr_scan", "android": "https://dc.lft.to/lastmile_qr_scan"}, "bike_id": "116f7e25fe68e360bc6f548859a88315", "lat": 38.94274933333333, "name": "116f7e25fe68e360bc6f548859a88315", "lon": -77.0292165, "fusion_lon": 0.0}, {"is_reserved": 0, "type": "electric_scooter", "fusion_lat": 0.0, "is_disabled": 0, "rental_uris": {"ios": "https://dc.lft.to/lastmile_qr_scan", "android": "https://dc.lft.to/lastmile_qr_scan"}, "bike_id": "25cd7b4c5e63d7b5b519f73d341bd226", "lat": 38.904074, "name": "25cd7b4c5e63d7b5b519f73d341bd226", "lon": -76.9733125, "fusion_lon": 0.0}, {"is_reserved": 0, "type": "electric_scooter", "fusion_lat": 0.0, "is_disabled": 0, "rental_uris": {"ios": "https://dc.lft.to/lastmile_qr_scan", "android": "https://dc.lft.to/lastmile_qr_scan"}, "bike_id": "cee73bf3125502b2986b253c163dd7f1", "lat": 38.9265195, "name": "cee73bf3125502b2986b253c163dd7f1", "lon": -77.03854466666667, "fusion_lon": 0.0}, {"is_reserved": 0, "type": "electric_scooter", "fusion_lat": 0.0, "is_disabled": 0, "rental_uris": {"ios": "https://dc.lft.to/lastmile_qr_scan", "android": "https://dc.lft.to/lastmile_qr_scan"}, "bike_id": "286c4df589c06933ff5c3a06edbd3cf0", "lat": 38.90298116666666, "name": "286c4df589c06933ff5c3a06edbd3cf0", "lon": -77.04893616666666, "fusion_lon": 0.0}, {"is_reserved": 0, "type": "electric_scooter", "fusion_lat": 0.0, "is_disabled": 0, "rental_uris": {"ios": "https://dc.lft.to/lastmile_qr_scan", "android": "https://dc.lft.to/lastmile_qr_scan"}, "bike_id": "d55bfd08839b4b8485e2a61f157f862c", "lat": 38.911221833333336, "name": "d55bfd08839b4b8485e2a61f157f862c", "lon": -77.0209135, "fusion_lon": 0.0}, {"is_reserved": 0, "type": "electric_bike", "fusion_lat": 0.0, "is_disabled": 0, "rental_uris": {"ios": "https://dc.lft.to/lastmile_qr_scan", "android": "https://dc.lft.to/lastmile_qr_scan"}, "bike_id": "d00d02bf219f5e75334dacae13cfd124", "lat": 38.95018683333333, "name": "d00d02bf219f5e75334dacae13cfd124", "lon": -77.01424566666667, "fusion_lon": 0.0}, {"is_reserved": 0, "type": "electric_scooter", "fusion_lat": 0.0, "is_disabled": 0, "rental_uris": {"ios": "https://dc.lft.to/lastmile_qr_scan", "android": "https://dc.lft.to/lastmile_qr_scan"}, "bike_id": "901f1fa843e1e12375fda9cf627f8989", "lat": 38.9171195, "name": "901f1fa843e1e12375fda9cf627f8989", "lon": -77.03888616666667, "fusion_lon": 0.0}, {"is_reserved": 0, "type": "electric_scooter", "fusion_lat": 0.0, "is_disabled": 0, "rental_uris": {"ios": "https://dc.lft.to/lastmile_qr_scan", "android": "https://dc.lft.to/lastmile_qr_scan"}, "bike_id": "afa8d93679b6197bf69d92df8a9f54b1", "lat": 38.9276705, "name": "afa8d93679b6197bf69d92df8a9f54b1", "lon": -77.032788, "fusion_lon": 0.0}, {"is_reserved": 0, "type": "electric_scooter", "fusion_lat": 0.0, "is_disabled": 0, "rental_uris": {"ios": "https://dc.lft.to/lastmile_qr_scan", "android": "https://dc.lft.to/lastmile_qr_scan"}, "bike_id": "52b81d9d0aa1d89ecfb7295a6feb308c", "lat": 38.90735033333333, "name": "52b81d9d0aa1d89ecfb7295a6feb308c", "lon": -77.003384, "fusion_lon": 0.0}, {"is_reserved": 0, "type": "electric_bike", "fusion_lat": 0.0, "is_disabled": 0, "rental_uris": {"ios": "https://dc.lft.to/lastmile_qr_scan", "android": "https://dc.lft.to/lastmile_qr_scan"}, "bike_id": "b1c7b7dae6a9fc11c5be60645b27e0a2", "lat": 38.933910833333336, "name": "b1c7b7dae6a9fc11c5be60645b27e0a2", "lon": -77.02380866666667, "fusion_lon": 0.0}, {"is_reserved": 0, "type": "electric_scooter", "fusion_lat": 0.0, "is_disabled": 0, "rental_uris": {"ios": "https://dc.lft.to/lastmile_qr_scan", "android": "https://dc.lft.to/lastmile_qr_scan"}, "bike_id": "67784f71a03f113c89ae7efb8e8bc38b", "lat": 38.9032255, "name": "67784f71a03f113c89ae7efb8e8bc38b", "lon": -77.02814533333333, "fusion_lon": 0.0}, {"is_reserved": 0, "type": "electric_scooter", "fusion_lat": 0.0, "is_disabled": 0, "rental_uris": {"ios": "https://dc.lft.to/lastmile_qr_scan", "android": "https://dc.lft.to/lastmile_qr_scan"}, "bike_id": "93e87cbe8b47d31543a78eb9525f5fcc", "lat": 38.967960166666664, "name": "93e87cbe8b47d31543a78eb9525f5fcc", "lon": -77.02559833333333, "fusion_lon": 0.0}, {"is_reserved": 0, "type": "electric_scooter", "fusion_lat": 0.0, "is_disabled": 0, "rental_uris": {"ios": "https://dc.lft.to/lastmile_qr_scan", "android": "https://dc.lft.to/lastmile_qr_scan"}, "bike_id": "dc966a1e8d7a53001c57acea98ca0403", "lat": 38.90483066666667, "name": "dc966a1e8d7a53001c57acea98ca0403", "lon": -76.949621, "fusion_lon": 0.0}, {"is_reserved": 0, "type": "electric_scooter", "fusion_lat": 0.0, "is_disabled": 0, "rental_uris": {"ios": "https://dc.lft.to/lastmile_qr_scan", "android": "https://dc.lft.to/lastmile_qr_scan"}, "bike_id": "e6602fb51cf34004193866ac25e8efc7", "lat": 38.92457616666667, "name": "e6602fb51cf34004193866ac25e8efc7", "lon": -77.052326, "fusion_lon": 0.0}, {"is_reserved": 0, "type": "electric_scooter", "fusion_lat": 0.0, "is_disabled": 0, "rental_uris": {"ios": "https://dc.lft.to/lastmile_qr_scan", "android": "https://dc.lft.to/lastmile_qr_scan"}, "bike_id": "f1d2efb2079525dbe3e982156f445261", "lat": 38.907511666666664, "name": "f1d2efb2079525dbe3e982156f445261", "lon": -77.044818, "fusion_lon": 0.0}, {"is_reserved": 0, "type": "electric_bike", "fusion_lat": 0.0, "is_disabled": 0, "rental_uris": {"ios": "https://dc.lft.to/lastmile_qr_scan", "android": "https://dc.lft.to/lastmile_qr_scan"}, "bike_id": "146e1c35c6fa1278175e3480ff5fa1b7", "lat": 38.83065166666667, "name": "146e1c35c6fa1278175e3480ff5fa1b7", "lon": -77.04080483333334, "fusion_lon": 0.0}, {"is_reserved": 0, "type": "electric_scooter", "fusion_lat": 0.0, "is_disabled": 0, "rental_uris": {"ios": "https://dc.lft.to/lastmile_qr_scan", "android": "https://dc.lft.to/lastmile_qr_scan"}, "bike_id": "5cb04e436d0d74c951a6ea7406434863", "lat": 38.935376166666664, "name": "5cb04e436d0d74c951a6ea7406434863", "lon": -77.0347735, "fusion_lon": 0.0}, {"is_reserved": 0, "type": "electric_scooter", "fusion_lat": 0.0, "is_disabled": 0, "rental_uris": {"ios": "https://dc.lft.to/lastmile_qr_scan", "android": "https://dc.lft.to/lastmile_qr_scan"}, "bike_id": "d44968d7e1c768eb85c7f698d79d4cdc", "lat": 38.898338333333335, "name": "d44968d7e1c768eb85c7f698d79d4cdc", "lon": -76.946343, "fusion_lon": 0.0}, {"is_reserved": 0, "type": "electric_scooter", "fusion_lat": 0.0, "is_disabled": 0, "rental_uris": {"ios": "https://dc.lft.to/lastmile_qr_scan", "android": "https://dc.lft.to/lastmile_qr_scan"}, "bike_id": "db5ab41084d6df13750e36cb1ecd3171", "lat": 38.90643583333333, "name": "db5ab41084d6df13750e36cb1ecd3171", "lon": -77.01844283333334, "fusion_lon": 0.0}, {"is_reserved": 0, "type": "electric_scooter", "fusion_lat": 0.0, "is_disabled": 0, "rental_uris": {"ios": "https://dc.lft.to/lastmile_qr_scan", "android": "https://dc.lft.to/lastmile_qr_scan"}, "bike_id": "af047d7ab027d6c277e8c1572889967c", "lat": 38.903366, "name": "af047d7ab027d6c277e8c1572889967c", "lon": -77.02623983333334, "fusion_lon": 0.0}, {"is_reserved": 0, "type": "electric_scooter", "fusion_lat": 0.0, "is_disabled": 0, "rental_uris": {"ios": "https://dc.lft.to/lastmile_qr_scan", "android": "https://dc.lft.to/lastmile_qr_scan"}, "bike_id": "861c0e72fbe3bdad1877f29aca802769", "lat": 38.935624, "name": "861c0e72fbe3bdad1877f29aca802769", "lon": -77.02852333333334, "fusion_lon": 0.0}, {"is_reserved": 0, "type": "electric_bike", "fusion_lat": 0.0, "is_disabled": 0, "rental_uris": {"ios": "https://dc.lft.to/lastmile_qr_scan", "android": "https://dc.lft.to/lastmile_qr_scan"}, "bike_id": "a425f95cc5a4e40a3c2c4555a985e4b4", "lat": 39.00377233333333, "name": "a425f95cc5a4e40a3c2c4555a985e4b4", "lon": -77.01285583333333, "fusion_lon": 0.0}, {"is_reserved": 0, "type": "electric_scooter", "fusion_lat": 0.0, "is_disabled": 0, "rental_uris": {"ios": "https://dc.lft.to/lastmile_qr_scan", "android": "https://dc.lft.to/lastmile_qr_scan"}, "bike_id": "ec609d20fb68b9ae2f0023dc9ac357a7", "lat": 38.89228, "name": "ec609d20fb68b9ae2f0023dc9ac357a7", "lon": -77.04489316666667, "fusion_lon": 0.0}, {"is_reserved": 0, "type": "electric_scooter", "fusion_lat": 0.0, "is_disabled": 0, "rental_uris": {"ios": "https://dc.lft.to/lastmile_qr_scan", "android": "https://dc.lft.to/lastmile_qr_scan"}, "bike_id": "ac2aed794689229cb90a3f908d88855c", "lat": 38.898661833333335, "name": "ac2aed794689229cb90a3f908d88855c", "lon": -76.94641533333333, "fusion_lon": 0.0}, {"is_reserved": 0, "type": "electric_scooter", "fusion_lat": 0.0, "is_disabled": 0, "rental_uris": {"ios": "https://dc.lft.to/lastmile_qr_scan", "android": "https://dc.lft.to/lastmile_qr_scan"}, "bike_id": "5031809feb0334bf653a1b632e6cacaa", "lat": 38.896759833333334, "name": "5031809feb0334bf653a1b632e6cacaa", "lon": -77.050272, "fusion_lon": 0.0}, {"is_reserved": 0, "type": "electric_scooter", "fusion_lat": 0.0, "is_disabled": 0, "rental_uris": {"ios": "https://dc.lft.to/lastmile_qr_scan", "android": "https://dc.lft.to/lastmile_qr_scan"}, "bike_id": "45de3b6ad83f31bbc7198fb6cb0ba1ae", "lat": 38.870688666666666, "name": "45de3b6ad83f31bbc7198fb6cb0ba1ae", "lon": -76.97943216666667, "fusion_lon": 0.0}, {"is_reserved": 0, "type": "electric_scooter", "fusion_lat": 0.0, "is_disabled": 0, "rental_uris": {"ios": "https://dc.lft.to/lastmile_qr_scan", "android": "https://dc.lft.to/lastmile_qr_scan"}, "bike_id": "e3331a86188104e3fa4fe83e39d1df0a", "lat": 38.91713883333333, "name": "e3331a86188104e3fa4fe83e39d1df0a", "lon": -77.02763066666667, "fusion_lon": 0.0}, {"is_reserved": 0, "type": "electric_scooter", "fusion_lat": 0.0, "is_disabled": 0, "rental_uris": {"ios": "https://dc.lft.to/lastmile_qr_scan", "android": "https://dc.lft.to/lastmile_qr_scan"}, "bike_id": "06871314509650051ff3c75532fd463a", "lat": 38.897460333333335, "name": "06871314509650051ff3c75532fd463a", "lon": -77.04819633333334, "fusion_lon": 0.0}, {"is_reserved": 0, "type": "electric_scooter", "fusion_lat": 0.0, "is_disabled": 0, "rental_uris": {"ios": "https://dc.lft.to/lastmile_qr_scan", "android": "https://dc.lft.to/lastmile_qr_scan"}, "bike_id": "fe1aac29393f978684be5aa72a591717", "lat": 38.915530333333336, "name": "fe1aac29393f978684be5aa72a591717", "lon": -76.98502233333333, "fusion_lon": 0.0}, {"is_reserved": 0, "type": "electric_scooter", "fusion_lat": 0.0, "is_disabled": 0, "rental_uris": {"ios": "https://dc.lft.to/lastmile_qr_scan", "android": "https://dc.lft.to/lastmile_qr_scan"}, "bike_id": "42d3f603fa8ef8029d97b059b28bfd7e", "lat": 38.923492333333336, "name": "42d3f603fa8ef8029d97b059b28bfd7e", "lon": -77.043424, "fusion_lon": 0.0}, {"is_reserved": 0, "type": "electric_scooter", "fusion_lat": 0.0, "is_disabled": 0, "rental_uris": {"ios": "https://dc.lft.to/lastmile_qr_scan", "android": "https://dc.lft.to/lastmile_qr_scan"}, "bike_id": "c67035cdf8138dc0fe515bc6ec062ce7", "lat": 38.88706833333333, "name": "c67035cdf8138dc0fe515bc6ec062ce7", "lon": -76.9834055, "fusion_lon": 0.0}, {"is_reserved": 0, "type": "electric_bike", "fusion_lat": 0.0, "is_disabled": 0, "rental_uris": {"ios": "https://dc.lft.to/lastmile_qr_scan", "android": "https://dc.lft.to/lastmile_qr_scan"}, "bike_id": "166d473964eba7dd2126260f6a7ff9f8", "lat": 38.8462375, "name": "166d473964eba7dd2126260f6a7ff9f8", "lon": -76.97841233333334, "fusion_lon": 0.0}, {"is_reserved": 0, "type": "electric_scooter", "fusion_lat": 0.0, "is_disabled": 0, "rental_uris": {"ios": "https://dc.lft.to/lastmile_qr_scan", "android": "https://dc.lft.to/lastmile_qr_scan"}, "bike_id": "4dc3f9e6756795e123967182810cb84a", "lat": 38.93229016666667, "name": "4dc3f9e6756795e123967182810cb84a", "lon": -77.02963966666667, "fusion_lon": 0.0}, {"is_reserved": 0, "type": "electric_scooter", "fusion_lat": 0.0, "is_disabled": 0, "rental_uris": {"ios": "https://dc.lft.to/lastmile_qr_scan", "android": "https://dc.lft.to/lastmile_qr_scan"}, "bike_id": "1b467c0c087055118551d32bbf6d0db5", "lat": 38.924732, "name": "1b467c0c087055118551d32bbf6d0db5", "lon": -77.02219266666667, "fusion_lon": 0.0}, {"is_reserved": 0, "type": "electric_scooter", "fusion_lat": 0.0, "is_disabled": 0, "rental_uris": {"ios": "https://dc.lft.to/lastmile_qr_scan", "android": "https://dc.lft.to/lastmile_qr_scan"}, "bike_id": "b2bfa8153311487c784c7b5ca6e5b41e", "lat": 38.9153195, "name": "b2bfa8153311487c784c7b5ca6e5b41e", "lon": -77.03191716666667, "fusion_lon": 0.0}, {"is_reserved": 0, "type": "electric_scooter", "fusion_lat": 0.0, "is_disabled": 0, "rental_uris": {"ios": "https://dc.lft.to/lastmile_qr_scan", "android": "https://dc.lft.to/lastmile_qr_scan"}, "bike_id": "9578726c99f6926b5aac1fa6994f549e", "lat": 38.90505, "name": "9578726c99f6926b5aac1fa6994f549e", "lon": -76.99179666666667, "fusion_lon": 0.0}, {"is_reserved": 0, "type": "electric_scooter", "fusion_lat": 0.0, "is_disabled": 0, "rental_uris": {"ios": "https://dc.lft.to/lastmile_qr_scan", "android": "https://dc.lft.to/lastmile_qr_scan"}, "bike_id": "e7150bd2d43e681eeb7b0d29edb8cba1", "lat": 38.92592116666667, "name": "e7150bd2d43e681eeb7b0d29edb8cba1", "lon": -77.02499683333333, "fusion_lon": 0.0}, {"is_reserved": 0, "type": "electric_scooter", "fusion_lat": 0.0, "is_disabled": 0, "rental_uris": {"ios": "https://dc.lft.to/lastmile_qr_scan", "android": "https://dc.lft.to/lastmile_qr_scan"}, "bike_id": "36499779705cd585a7c0959e07b9673e", "lat": 38.903998333333334, "name": "36499779705cd585a7c0959e07b9673e", "lon": -77.04009483333333, "fusion_lon": 0.0}, {"is_reserved": 0, "type": "electric_scooter", "fusion_lat": 0.0, "is_disabled": 0, "rental_uris": {"ios": "https://dc.lft.to/lastmile_qr_scan", "android": "https://dc.lft.to/lastmile_qr_scan"}, "bike_id": "17f1309521375e9af362a1dd2dd7735b", "lat": 38.885750333333334, "name": "17f1309521375e9af362a1dd2dd7735b", "lon": -77.01208233333334, "fusion_lon": 0.0}, {"is_reserved": 0, "type": "electric_scooter", "fusion_lat": 0.0, "is_disabled": 0, "rental_uris": {"ios": "https://dc.lft.to/lastmile_qr_scan", "android": "https://dc.lft.to/lastmile_qr_scan"}, "bike_id": "58552d0d0bfa4f1d113621d4729b3d23", "lat": 38.90817283333333, "name": "58552d0d0bfa4f1d113621d4729b3d23", "lon": -77.08425983333333, "fusion_lon": 0.0}, {"is_reserved": 0, "type": "electric_scooter", "fusion_lat": 0.0, "is_disabled": 0, "rental_uris": {"ios": "https://dc.lft.to/lastmile_qr_scan", "android": "https://dc.lft.to/lastmile_qr_scan"}, "bike_id": "7c86acc23c7abc7dfecf11a416db052e", "lat": 38.93516483333333, "name": "7c86acc23c7abc7dfecf11a416db052e", "lon": -77.03675283333334, "fusion_lon": 0.0}, {"is_reserved": 0, "type": "electric_scooter", "fusion_lat": 0.0, "is_disabled": 0, "rental_uris": {"ios": "https://dc.lft.to/lastmile_qr_scan", "android": "https://dc.lft.to/lastmile_qr_scan"}, "bike_id": "02fdaa5330a2255a52e7d51833f01341", "lat": 38.91560283333333, "name": "02fdaa5330a2255a52e7d51833f01341", "lon": -77.03264683333333, "fusion_lon": 0.0}, {"is_reserved": 0, "type": "electric_scooter", "fusion_lat": 0.0, "is_disabled": 0, "rental_uris": {"ios": "https://dc.lft.to/lastmile_qr_scan", "android": "https://dc.lft.to/lastmile_qr_scan"}, "bike_id": "826e96a5fbfd539bcdd687c9acf0f26c", "lat": 38.935257666666665, "name": "826e96a5fbfd539bcdd687c9acf0f26c", "lon": -77.054522, "fusion_lon": 0.0}, {"is_reserved": 0, "type": "electric_scooter", "fusion_lat": 0.0, "is_disabled": 0, "rental_uris": {"ios": "https://dc.lft.to/lastmile_qr_scan", "android": "https://dc.lft.to/lastmile_qr_scan"}, "bike_id": "999c7cad0e7a0527ab5f673529e531d2", "lat": 38.899714, "name": "999c7cad0e7a0527ab5f673529e531d2", "lon": -77.04829766666667, "fusion_lon": 0.0}, {"is_reserved": 0, "type": "electric_scooter", "fusion_lat": 0.0, "is_disabled": 0, "rental_uris": {"ios": "https://dc.lft.to/lastmile_qr_scan", "android": "https://dc.lft.to/lastmile_qr_scan"}, "bike_id": "c1a1e49e061c643d3e52f1ed996a8f22", "lat": 38.893105166666665, "name": "c1a1e49e061c643d3e52f1ed996a8f22", "lon": -77.01963183333334, "fusion_lon": 0.0}, {"is_reserved": 0, "type": "electric_scooter", "fusion_lat": 0.0, "is_disabled": 0, "rental_uris": {"ios": "https://dc.lft.to/lastmile_qr_scan", "android": "https://dc.lft.to/lastmile_qr_scan"}, "bike_id": "bc949aced8a062bc7a726a872c5e6ca2", "lat": 38.909631, "name": "bc949aced8a062bc7a726a872c5e6ca2", "lon": -77.02380683333334, "fusion_lon": 0.0}, {"is_reserved": 0, "type": "electric_scooter", "fusion_lat": 0.0, "is_disabled": 0, "rental_uris": {"ios": "https://dc.lft.to/lastmile_qr_scan", "android": "https://dc.lft.to/lastmile_qr_scan"}, "bike_id": "f2d4cdca544b60061bbe02c62bb5a201", "lat": 38.92243883333333, "name": "f2d4cdca544b60061bbe02c62bb5a201", "lon": -77.0281615, "fusion_lon": 0.0}, {"is_reserved": 0, "type": "electric_scooter", "fusion_lat": 0.0, "is_disabled": 0, "rental_uris": {"ios": "https://dc.lft.to/lastmile_qr_scan", "android": "https://dc.lft.to/lastmile_qr_scan"}, "bike_id": "e2c165bb0bab41813ad349879b4eb230", "lat": 38.907514, "name": "e2c165bb0bab41813ad349879b4eb230", "lon": -76.999245, "fusion_lon": 0.0}, {"is_reserved": 0, "type": "electric_scooter", "fusion_lat": 0.0, "is_disabled": 0, "rental_uris": {"ios": "https://dc.lft.to/lastmile_qr_scan", "android": "https://dc.lft.to/lastmile_qr_scan"}, "bike_id": "bf1b853e4750e9268edca567c936d949", "lat": 38.8707055, "name": "bf1b853e4750e9268edca567c936d949", "lon": -76.9812835, "fusion_lon": 0.0}, {"is_reserved": 0, "type": "electric_scooter", "fusion_lat": 0.0, "is_disabled": 0, "rental_uris": {"ios": "https://dc.lft.to/lastmile_qr_scan", "android": "https://dc.lft.to/lastmile_qr_scan"}, "bike_id": "a6e500144a09fffa9ed1fe60131aae4c", "lat": 38.9207425, "name": "a6e500144a09fffa9ed1fe60131aae4c", "lon": -77.02391966666667, "fusion_lon": 0.0}, {"is_reserved": 0, "type": "electric_bike", "fusion_lat": 0.0, "is_disabled": 0, "rental_uris": {"ios": "https://dc.lft.to/lastmile_qr_scan", "android": "https://dc.lft.to/lastmile_qr_scan"}, "bike_id": "7bf330e071d9daf472677d3b26349f76", "lat": 38.896956, "name": "7bf330e071d9daf472677d3b26349f76", "lon": -77.02420316666667, "fusion_lon": 0.0}, {"is_reserved": 0, "type": "electric_scooter", "fusion_lat": 0.0, "is_disabled": 0, "rental_uris": {"ios": "https://dc.lft.to/lastmile_qr_scan", "android": "https://dc.lft.to/lastmile_qr_scan"}, "bike_id": "8b849be678fdeb32a21144b05b586658", "lat": 38.860824666666666, "name": "8b849be678fdeb32a21144b05b586658", "lon": -76.98375883333334, "fusion_lon": 0.0}, {"is_reserved": 0, "type": "electric_scooter", "fusion_lat": 0.0, "is_disabled": 0, "rental_uris": {"ios": "https://dc.lft.to/lastmile_qr_scan", "android": "https://dc.lft.to/lastmile_qr_scan"}, "bike_id": "63d8012aea2d9ca57bdfe0527c373dc6", "lat": 38.931005166666665, "name": "63d8012aea2d9ca57bdfe0527c373dc6", "lon": -77.02473983333333, "fusion_lon": 0.0}, {"is_reserved": 0, "type": "electric_scooter", "fusion_lat": 0.0, "is_disabled": 0, "rental_uris": {"ios": "https://dc.lft.to/lastmile_qr_scan", "android": "https://dc.lft.to/lastmile_qr_scan"}, "bike_id": "78296a5787c6e04e96755d68434634a8", "lat": 38.907306166666665, "name": "78296a5787c6e04e96755d68434634a8", "lon": -77.04281666666667, "fusion_lon": 0.0}, {"is_reserved": 0, "type": "electric_scooter", "fusion_lat": 0.0, "is_disabled": 0, "rental_uris": {"ios": "https://dc.lft.to/lastmile_qr_scan", "android": "https://dc.lft.to/lastmile_qr_scan"}, "bike_id": "66aa3336e6504ed9421ce11595509764", "lat": 38.92099833333333, "name": "66aa3336e6504ed9421ce11595509764", "lon": -77.017707, "fusion_lon": 0.0}, {"is_reserved": 0, "type": "electric_scooter", "fusion_lat": 0.0, "is_disabled": 0, "rental_uris": {"ios": "https://dc.lft.to/lastmile_qr_scan", "android": "https://dc.lft.to/lastmile_qr_scan"}, "bike_id": "3021d857a01a14b873a087aaef1d1764", "lat": 38.904402, "name": "3021d857a01a14b873a087aaef1d1764", "lon": -76.997355, "fusion_lon": 0.0}, {"is_reserved": 0, "type": "electric_scooter", "fusion_lat": 0.0, "is_disabled": 0, "rental_uris": {"ios": "https://dc.lft.to/lastmile_qr_scan", "android": "https://dc.lft.to/lastmile_qr_scan"}, "bike_id": "0759b754f88e48a23e5d29ed481ac411", "lat": 38.923797666666665, "name": "0759b754f88e48a23e5d29ed481ac411", "lon": -77.04113133333334, "fusion_lon": 0.0}, {"is_reserved": 0, "type": "electric_scooter", "fusion_lat": 0.0, "is_disabled": 0, "rental_uris": {"ios": "https://dc.lft.to/lastmile_qr_scan", "android": "https://dc.lft.to/lastmile_qr_scan"}, "bike_id": "edf47f0434e98ace26d110c421b54d17", "lat": 38.885783833333335, "name": "edf47f0434e98ace26d110c421b54d17", "lon": -77.01214183333333, "fusion_lon": 0.0}, {"is_reserved": 0, "type": "electric_scooter", "fusion_lat": 0.0, "is_disabled": 0, "rental_uris": {"ios": "https://dc.lft.to/lastmile_qr_scan", "android": "https://dc.lft.to/lastmile_qr_scan"}, "bike_id": "e068f51c4028666dd9a1d7a291769200", "lat": 38.930163, "name": "e068f51c4028666dd9a1d7a291769200", "lon": -77.04046933333333, "fusion_lon": 0.0}, {"is_reserved": 0, "type": "electric_scooter", "fusion_lat": 0.0, "is_disabled": 0, "rental_uris": {"ios": "https://dc.lft.to/lastmile_qr_scan", "android": "https://dc.lft.to/lastmile_qr_scan"}, "bike_id": "505dfeb479ca370414889bfd42d35d85", "lat": 38.90954216666667, "name": "505dfeb479ca370414889bfd42d35d85", "lon": -76.9957685, "fusion_lon": 0.0}, {"is_reserved": 0, "type": "electric_bike", "fusion_lat": 0.0, "is_disabled": 0, "rental_uris": {"ios": "https://dc.lft.to/lastmile_qr_scan", "android": "https://dc.lft.to/lastmile_qr_scan"}, "bike_id": "49210337fdccaf9d641fea50a8c234f8", "lat": 38.85057966666667, "name": "49210337fdccaf9d641fea50a8c234f8", "lon": -76.95829333333333, "fusion_lon": 0.0}, {"is_reserved": 0, "type": "electric_scooter", "fusion_lat": 0.0, "is_disabled": 0, "rental_uris": {"ios": "https://dc.lft.to/lastmile_qr_scan", "android": "https://dc.lft.to/lastmile_qr_scan"}, "bike_id": "3fca5a01b1bb698f22226da70d246178", "lat": 38.9084015, "name": "3fca5a01b1bb698f22226da70d246178", "lon": -77.043605, "fusion_lon": 0.0}, {"is_reserved": 0, "type": "electric_scooter", "fusion_lat": 0.0, "is_disabled": 0, "rental_uris": {"ios": "https://dc.lft.to/lastmile_qr_scan", "android": "https://dc.lft.to/lastmile_qr_scan"}, "bike_id": "4c983b8d751a56aea4fffb43612f5763", "lat": 38.92573316666667, "name": "4c983b8d751a56aea4fffb43612f5763", "lon": -77.029905, "fusion_lon": 0.0}, {"is_reserved": 0, "type": "electric_scooter", "fusion_lat": 0.0, "is_disabled": 0, "rental_uris": {"ios": "https://dc.lft.to/lastmile_qr_scan", "android": "https://dc.lft.to/lastmile_qr_scan"}, "bike_id": "88730bb86cdd3b827b9a1ad7734e76c8", "lat": 38.90623883333333, "name": "88730bb86cdd3b827b9a1ad7734e76c8", "lon": -77.00927533333333, "fusion_lon": 0.0}, {"is_reserved": 0, "type": "electric_scooter", "fusion_lat": 0.0, "is_disabled": 0, "rental_uris": {"ios": "https://dc.lft.to/lastmile_qr_scan", "android": "https://dc.lft.to/lastmile_qr_scan"}, "bike_id": "27812f6e4ac52eb189eb9c33f837649a", "lat": 38.93267783333334, "name": "27812f6e4ac52eb189eb9c33f837649a", "lon": -77.03265083333334, "fusion_lon": 0.0}, {"is_reserved": 0, "type": "electric_bike", "fusion_lat": 0.0, "is_disabled": 0, "rental_uris": {"ios": "https://dc.lft.to/lastmile_qr_scan", "android": "https://dc.lft.to/lastmile_qr_scan"}, "bike_id": "a4133ef380be657090a353349e471e57", "lat": 38.903747333333335, "name": "a4133ef380be657090a353349e471e57", "lon": -76.93746533333334, "fusion_lon": 0.0}, {"is_reserved": 0, "type": "electric_scooter", "fusion_lat": 0.0, "is_disabled": 0, "rental_uris": {"ios": "https://dc.lft.to/lastmile_qr_scan", "android": "https://dc.lft.to/lastmile_qr_scan"}, "bike_id": "9225f73fabfe302258197e858935ec60", "lat": 38.885316833333334, "name": "9225f73fabfe302258197e858935ec60", "lon": -76.98053416666667, "fusion_lon": 0.0}, {"is_reserved": 0, "type": "electric_scooter", "fusion_lat": 0.0, "is_disabled": 0, "rental_uris": {"ios": "https://dc.lft.to/lastmile_qr_scan", "android": "https://dc.lft.to/lastmile_qr_scan"}, "bike_id": "c93a13e0c2dcefece05f8ca442cb384a", "lat": 38.93486983333333, "name": "c93a13e0c2dcefece05f8ca442cb384a", "lon": -77.0363745, "fusion_lon": 0.0}, {"is_reserved": 0, "type": "electric_scooter", "fusion_lat": 0.0, "is_disabled": 0, "rental_uris": {"ios": "https://dc.lft.to/lastmile_qr_scan", "android": "https://dc.lft.to/lastmile_qr_scan"}, "bike_id": "36775e5376998e213a5e6aec94e35f37", "lat": 38.915669666666666, "name": "36775e5376998e213a5e6aec94e35f37", "lon": -77.04091466666667, "fusion_lon": 0.0}, {"is_reserved": 0, "type": "electric_scooter", "fusion_lat": 0.0, "is_disabled": 0, "rental_uris": {"ios": "https://dc.lft.to/lastmile_qr_scan", "android": "https://dc.lft.to/lastmile_qr_scan"}, "bike_id": "f112727af1f8cab34ec79cbc17635ab3", "lat": 38.9361325, "name": "f112727af1f8cab34ec79cbc17635ab3", "lon": -77.05583416666667, "fusion_lon": 0.0}, {"is_reserved": 0, "type": "electric_scooter", "fusion_lat": 0.0, "is_disabled": 0, "rental_uris": {"ios": "https://dc.lft.to/lastmile_qr_scan", "android": "https://dc.lft.to/lastmile_qr_scan"}, "bike_id": "877f45fceb92d94cf3d88592cc0e486c", "lat": 38.9213325, "name": "877f45fceb92d94cf3d88592cc0e486c", "lon": -77.04426533333333, "fusion_lon": 0.0}, {"is_reserved": 0, "type": "electric_scooter", "fusion_lat": 0.0, "is_disabled": 0, "rental_uris": {"ios": "https://dc.lft.to/lastmile_qr_scan", "android": "https://dc.lft.to/lastmile_qr_scan"}, "bike_id": "a9e6ce7632dafa747218c44905c7e5dd", "lat": 38.90361016666667, "name": "a9e6ce7632dafa747218c44905c7e5dd", "lon": -77.00755516666666, "fusion_lon": 0.0}, {"is_reserved": 0, "type": "electric_scooter", "fusion_lat": 0.0, "is_disabled": 0, "rental_uris": {"ios": "https://dc.lft.to/lastmile_qr_scan", "android": "https://dc.lft.to/lastmile_qr_scan"}, "bike_id": "b6e522ef1f8e4536b64af4453a368502", "lat": 38.90354683333333, "name": "b6e522ef1f8e4536b64af4453a368502", "lon": -77.06004533333333, "fusion_lon": 0.0}, {"is_reserved": 0, "type": "electric_scooter", "fusion_lat": 0.0, "is_disabled": 0, "rental_uris": {"ios": "https://dc.lft.to/lastmile_qr_scan", "android": "https://dc.lft.to/lastmile_qr_scan"}, "bike_id": "7ed29baac53205f285250e532acf0fa9", "lat": 38.899378166666665, "name": "7ed29baac53205f285250e532acf0fa9", "lon": -77.05397033333334, "fusion_lon": 0.0}, {"is_reserved": 0, "type": "electric_bike", "fusion_lat": 0.0, "is_disabled": 0, "rental_uris": {"ios": "https://dc.lft.to/lastmile_qr_scan", "android": "https://dc.lft.to/lastmile_qr_scan"}, "bike_id": "992f4f0b0c222889870c28e9fd0aa168", "lat": 38.838693666666664, "name": "992f4f0b0c222889870c28e9fd0aa168", "lon": -76.9969485, "fusion_lon": 0.0}, {"is_reserved": 0, "type": "electric_bike", "fusion_lat": 0.0, "is_disabled": 0, "rental_uris": {"ios": "https://dc.lft.to/lastmile_qr_scan", "android": "https://dc.lft.to/lastmile_qr_scan"}, "bike_id": "c484d8e6f765ae635e032c1bd40d929e", "lat": 38.9524455, "name": "c484d8e6f765ae635e032c1bd40d929e", "lon": -76.9824945, "fusion_lon": 0.0}, {"is_reserved": 0, "type": "electric_scooter", "fusion_lat": 0.0, "is_disabled": 0, "rental_uris": {"ios": "https://dc.lft.to/lastmile_qr_scan", "android": "https://dc.lft.to/lastmile_qr_scan"}, "bike_id": "32da694f859a142f96458dcbef26b7b9", "lat": 38.900646, "name": "32da694f859a142f96458dcbef26b7b9", "lon": -77.0134355, "fusion_lon": 0.0}, {"is_reserved": 0, "type": "electric_scooter", "fusion_lat": 0.0, "is_disabled": 0, "rental_uris": {"ios": "https://dc.lft.to/lastmile_qr_scan", "android": "https://dc.lft.to/lastmile_qr_scan"}, "bike_id": "b9e5b94e19d8c3ff04d1d295f295736d", "lat": 38.927945, "name": "b9e5b94e19d8c3ff04d1d295f295736d", "lon": -77.02130866666667, "fusion_lon": 0.0}, {"is_reserved": 0, "type": "electric_scooter", "fusion_lat": 0.0, "is_disabled": 0, "rental_uris": {"ios": "https://dc.lft.to/lastmile_qr_scan", "android": "https://dc.lft.to/lastmile_qr_scan"}, "bike_id": "efb48d386274b87bff31720df1e17ad9", "lat": 38.906051166666664, "name": "efb48d386274b87bff31720df1e17ad9", "lon": -77.06301566666667, "fusion_lon": 0.0}, {"is_reserved": 0, "type": "electric_scooter", "fusion_lat": 0.0, "is_disabled": 0, "rental_uris": {"ios": "https://dc.lft.to/lastmile_qr_scan", "android": "https://dc.lft.to/lastmile_qr_scan"}, "bike_id": "fe833efd7006f58f59524e0d5e2b2c99", "lat": 38.9213485, "name": "fe833efd7006f58f59524e0d5e2b2c99", "lon": -77.00401066666667, "fusion_lon": 0.0}, {"is_reserved": 0, "type": "electric_bike", "fusion_lat": 0.0, "is_disabled": 0, "rental_uris": {"ios": "https://dc.lft.to/lastmile_qr_scan", "android": "https://dc.lft.to/lastmile_qr_scan"}, "bike_id": "c01b3303dc8d784d13b35d3b389f0e61", "lat": 38.95881966666666, "name": "c01b3303dc8d784d13b35d3b389f0e61", "lon": -76.97055016666667, "fusion_lon": 0.0}, {"is_reserved": 0, "type": "electric_scooter", "fusion_lat": 0.0, "is_disabled": 0, "rental_uris": {"ios": "https://dc.lft.to/lastmile_qr_scan", "android": "https://dc.lft.to/lastmile_qr_scan"}, "bike_id": "1554ef0356abb44011df2f0ddf8cdb87", "lat": 38.892261833333336, "name": "1554ef0356abb44011df2f0ddf8cdb87", "lon": -77.0257645, "fusion_lon": 0.0}, {"is_reserved": 0, "type": "electric_scooter", "fusion_lat": 0.0, "is_disabled": 0, "rental_uris": {"ios": "https://dc.lft.to/lastmile_qr_scan", "android": "https://dc.lft.to/lastmile_qr_scan"}, "bike_id": "3b10563e14c43f9430330eef6659d439", "lat": 38.9014295, "name": "3b10563e14c43f9430330eef6659d439", "lon": -77.01503016666666, "fusion_lon": 0.0}, {"is_reserved": 0, "type": "electric_scooter", "fusion_lat": 0.0, "is_disabled": 0, "rental_uris": {"ios": "https://dc.lft.to/lastmile_qr_scan", "android": "https://dc.lft.to/lastmile_qr_scan"}, "bike_id": "1c83d44f49b09747bf520867adf2fb41", "lat": 38.906540166666666, "name": "1c83d44f49b09747bf520867adf2fb41", "lon": -77.02483866666667, "fusion_lon": 0.0}, {"is_reserved": 0, "type": "electric_scooter", "fusion_lat": 0.0, "is_disabled": 0, "rental_uris": {"ios": "https://dc.lft.to/lastmile_qr_scan", "android": "https://dc.lft.to/lastmile_qr_scan"}, "bike_id": "9f0e9748ff2a6a6f26dcb22c8aef7fba", "lat": 38.903904833333335, "name": "9f0e9748ff2a6a6f26dcb22c8aef7fba", "lon": -76.99001916666667, "fusion_lon": 0.0}, {"is_reserved": 0, "type": "electric_scooter", "fusion_lat": 0.0, "is_disabled": 0, "rental_uris": {"ios": "https://dc.lft.to/lastmile_qr_scan", "android": "https://dc.lft.to/lastmile_qr_scan"}, "bike_id": "6f62a3786209dddd2b75a4b7c00a154b", "lat": 38.9205795, "name": "6f62a3786209dddd2b75a4b7c00a154b", "lon": -77.02301966666667, "fusion_lon": 0.0}, {"is_reserved": 0, "type": "electric_scooter", "fusion_lat": 0.0, "is_disabled": 0, "rental_uris": {"ios": "https://dc.lft.to/lastmile_qr_scan", "android": "https://dc.lft.to/lastmile_qr_scan"}, "bike_id": "fcffe9b86d793e70207cb01a9b959ab8", "lat": 38.90606983333333, "name": "fcffe9b86d793e70207cb01a9b959ab8", "lon": -77.05655033333333, "fusion_lon": 0.0}, {"is_reserved": 0, "type": "electric_scooter", "fusion_lat": 0.0, "is_disabled": 0, "rental_uris": {"ios": "https://dc.lft.to/lastmile_qr_scan", "android": "https://dc.lft.to/lastmile_qr_scan"}, "bike_id": "e11004a8d45268f075badde252e231c4", "lat": 38.92327916666667, "name": "e11004a8d45268f075badde252e231c4", "lon": -77.03618533333334, "fusion_lon": 0.0}, {"is_reserved": 0, "type": "electric_scooter", "fusion_lat": 0.0, "is_disabled": 0, "rental_uris": {"ios": "https://dc.lft.to/lastmile_qr_scan", "android": "https://dc.lft.to/lastmile_qr_scan"}, "bike_id": "7190122505179a74c2d2b27e2c5c7ce8", "lat": 38.91713166666667, "name": "7190122505179a74c2d2b27e2c5c7ce8", "lon": -77.008887, "fusion_lon": 0.0}, {"is_reserved": 0, "type": "electric_scooter", "fusion_lat": 0.0, "is_disabled": 0, "rental_uris": {"ios": "https://dc.lft.to/lastmile_qr_scan", "android": "https://dc.lft.to/lastmile_qr_scan"}, "bike_id": "e471c06b872c45fd054dd4a38fa4fd50", "lat": 38.920073333333335, "name": "e471c06b872c45fd054dd4a38fa4fd50", "lon": -77.031777, "fusion_lon": 0.0}, {"is_reserved": 0, "type": "electric_scooter", "fusion_lat": 0.0, "is_disabled": 0, "rental_uris": {"ios": "https://dc.lft.to/lastmile_qr_scan", "android": "https://dc.lft.to/lastmile_qr_scan"}, "bike_id": "daef3dfc0af6d16cf0e725b8c69e3f7d", "lat": 38.952781, "name": "daef3dfc0af6d16cf0e725b8c69e3f7d", "lon": -76.99878183333334, "fusion_lon": 0.0}, {"is_reserved": 0, "type": "electric_scooter", "fusion_lat": 0.0, "is_disabled": 0, "rental_uris": {"ios": "https://dc.lft.to/lastmile_qr_scan", "android": "https://dc.lft.to/lastmile_qr_scan"}, "bike_id": "8cb70ded27ab7db5b7702763a52d13e1", "lat": 38.9088695, "name": "8cb70ded27ab7db5b7702763a52d13e1", "lon": -77.04419883333334, "fusion_lon": 0.0}, {"is_reserved": 0, "type": "electric_scooter", "fusion_lat": 0.0, "is_disabled": 0, "rental_uris": {"ios": "https://dc.lft.to/lastmile_qr_scan", "android": "https://dc.lft.to/lastmile_qr_scan"}, "bike_id": "d6142ef0068c5abd9e6e48a46b374804", "lat": 38.921303, "name": "d6142ef0068c5abd9e6e48a46b374804", "lon": -77.0182505, "fusion_lon": 0.0}, {"is_reserved": 0, "type": "electric_scooter", "fusion_lat": 0.0, "is_disabled": 0, "rental_uris": {"ios": "https://dc.lft.to/lastmile_qr_scan", "android": "https://dc.lft.to/lastmile_qr_scan"}, "bike_id": "6803b8c59e87d97be5e67a141d2e69bb", "lat": 38.905573, "name": "6803b8c59e87d97be5e67a141d2e69bb", "lon": -77.03456866666667, "fusion_lon": 0.0}, {"is_reserved": 0, "type": "electric_scooter", "fusion_lat": 0.0, "is_disabled": 0, "rental_uris": {"ios": "https://dc.lft.to/lastmile_qr_scan", "android": "https://dc.lft.to/lastmile_qr_scan"}, "bike_id": "1d4d201ab46616dd0d1ada5c719a8453", "lat": 38.91746966666667, "name": "1d4d201ab46616dd0d1ada5c719a8453", "lon": -77.022831, "fusion_lon": 0.0}, {"is_reserved": 0, "type": "electric_scooter", "fusion_lat": 0.0, "is_disabled": 0, "rental_uris": {"ios": "https://dc.lft.to/lastmile_qr_scan", "android": "https://dc.lft.to/lastmile_qr_scan"}, "bike_id": "504688d2ade1a1680b0b226c187dcab0", "lat": 38.927901, "name": "504688d2ade1a1680b0b226c187dcab0", "lon": -76.9763225, "fusion_lon": 0.0}, {"is_reserved": 0, "type": "electric_scooter", "fusion_lat": 0.0, "is_disabled": 0, "rental_uris": {"ios": "https://dc.lft.to/lastmile_qr_scan", "android": "https://dc.lft.to/lastmile_qr_scan"}, "bike_id": "06834737171d6d82a3409b85775c3228", "lat": 38.925443, "name": "06834737171d6d82a3409b85775c3228", "lon": -77.033274, "fusion_lon": 0.0}, {"is_reserved": 0, "type": "electric_scooter", "fusion_lat": 0.0, "is_disabled": 0, "rental_uris": {"ios": "https://dc.lft.to/lastmile_qr_scan", "android": "https://dc.lft.to/lastmile_qr_scan"}, "bike_id": "6aef9ea12d6822343763295a7f089bdd", "lat": 38.91160216666667, "name": "6aef9ea12d6822343763295a7f089bdd", "lon": -77.0448545, "fusion_lon": 0.0}, {"is_reserved": 0, "type": "electric_bike", "fusion_lat": 0.0, "is_disabled": 0, "rental_uris": {"ios": "https://dc.lft.to/lastmile_qr_scan", "android": "https://dc.lft.to/lastmile_qr_scan"}, "bike_id": "2a4d1c37d41b209772227a9852106ce0", "lat": 38.86564283333333, "name": "2a4d1c37d41b209772227a9852106ce0", "lon": -76.97475883333334, "fusion_lon": 0.0}, {"is_reserved": 0, "type": "electric_bike", "fusion_lat": 0.0, "is_disabled": 0, "rental_uris": {"ios": "https://dc.lft.to/lastmile_qr_scan", "android": "https://dc.lft.to/lastmile_qr_scan"}, "bike_id": "4d1bfcb30452c7f9a1f10338cde1022c", "lat": 38.824299, "name": "4d1bfcb30452c7f9a1f10338cde1022c", "lon": -77.12042266666667, "fusion_lon": 0.0}, {"is_reserved": 0, "type": "electric_scooter", "fusion_lat": 0.0, "is_disabled": 0, "rental_uris": {"ios": "https://dc.lft.to/lastmile_qr_scan", "android": "https://dc.lft.to/lastmile_qr_scan"}, "bike_id": "ece68394c71e7c23c3d1267f0eeb40b0", "lat": 38.900111833333334, "name": "ece68394c71e7c23c3d1267f0eeb40b0", "lon": -77.00389983333334, "fusion_lon": 0.0}, {"is_reserved": 0, "type": "electric_scooter", "fusion_lat": 0.0, "is_disabled": 0, "rental_uris": {"ios": "https://dc.lft.to/lastmile_qr_scan", "android": "https://dc.lft.to/lastmile_qr_scan"}, "bike_id": "1ed1dc0dd637ca847878b817a36d814a", "lat": 38.8858515, "name": "1ed1dc0dd637ca847878b817a36d814a", "lon": -77.01228466666667, "fusion_lon": 0.0}, {"is_reserved": 0, "type": "electric_scooter", "fusion_lat": 0.0, "is_disabled": 0, "rental_uris": {"ios": "https://dc.lft.to/lastmile_qr_scan", "android": "https://dc.lft.to/lastmile_qr_scan"}, "bike_id": "bcd8425d20758052f3dfb04c0d9cb5ee", "lat": 38.900765166666666, "name": "bcd8425d20758052f3dfb04c0d9cb5ee", "lon": -77.01319133333334, "fusion_lon": 0.0}, {"is_reserved": 0, "type": "electric_scooter", "fusion_lat": 0.0, "is_disabled": 0, "rental_uris": {"ios": "https://dc.lft.to/lastmile_qr_scan", "android": "https://dc.lft.to/lastmile_qr_scan"}, "bike_id": "d040e951f7b35460a6465b546f0c4d61", "lat": 38.910473333333336, "name": "d040e951f7b35460a6465b546f0c4d61", "lon": -77.01029633333333, "fusion_lon": 0.0}, {"is_reserved": 0, "type": "electric_scooter", "fusion_lat": 0.0, "is_disabled": 0, "rental_uris": {"ios": "https://dc.lft.to/lastmile_qr_scan", "android": "https://dc.lft.to/lastmile_qr_scan"}, "bike_id": "f8cb2b0aac71d21a8c3a7734537ebdb2", "lat": 38.9290275, "name": "f8cb2b0aac71d21a8c3a7734537ebdb2", "lon": -77.02347016666667, "fusion_lon": 0.0}, {"is_reserved": 0, "type": "electric_scooter", "fusion_lat": 0.0, "is_disabled": 0, "rental_uris": {"ios": "https://dc.lft.to/lastmile_qr_scan", "android": "https://dc.lft.to/lastmile_qr_scan"}, "bike_id": "63faaba2049e513f8ef17a35307ffcd4", "lat": 38.916938333333334, "name": "63faaba2049e513f8ef17a35307ffcd4", "lon": -77.0396855, "fusion_lon": 0.0}, {"is_reserved": 0, "type": "electric_bike", "fusion_lat": 0.0, "is_disabled": 0, "rental_uris": {"ios": "https://dc.lft.to/lastmile_qr_scan", "android": "https://dc.lft.to/lastmile_qr_scan"}, "bike_id": "e3c3069ebc61a70308f4f3a10533c214", "lat": 38.930373833333334, "name": "e3c3069ebc61a70308f4f3a10533c214", "lon": -77.05561783333333, "fusion_lon": 0.0}, {"is_reserved": 0, "type": "electric_scooter", "fusion_lat": 0.0, "is_disabled": 0, "rental_uris": {"ios": "https://dc.lft.to/lastmile_qr_scan", "android": "https://dc.lft.to/lastmile_qr_scan"}, "bike_id": "01356d312149803b02a3c1fb63b80bd5", "lat": 38.921495666666665, "name": "01356d312149803b02a3c1fb63b80bd5", "lon": -77.03510533333333, "fusion_lon": 0.0}, {"is_reserved": 0, "type": "electric_scooter", "fusion_lat": 0.0, "is_disabled": 0, "rental_uris": {"ios": "https://dc.lft.to/lastmile_qr_scan", "android": "https://dc.lft.to/lastmile_qr_scan"}, "bike_id": "8b5fe57b76fe30bcc9ca691c35aa9ba5", "lat": 38.881772166666664, "name": "8b5fe57b76fe30bcc9ca691c35aa9ba5", "lon": -77.008989, "fusion_lon": 0.0}, {"is_reserved": 0, "type": "electric_scooter", "fusion_lat": 0.0, "is_disabled": 0, "rental_uris": {"ios": "https://dc.lft.to/lastmile_qr_scan", "android": "https://dc.lft.to/lastmile_qr_scan"}, "bike_id": "fb6a456a32aea2713fe81722ee0e49f7", "lat": 38.88869, "name": "fb6a456a32aea2713fe81722ee0e49f7", "lon": -76.97907883333333, "fusion_lon": 0.0}, {"is_reserved": 0, "type": "electric_scooter", "fusion_lat": 0.0, "is_disabled": 0, "rental_uris": {"ios": "https://dc.lft.to/lastmile_qr_scan", "android": "https://dc.lft.to/lastmile_qr_scan"}, "bike_id": "0c614c24fa075481f97427162a6328fe", "lat": 38.922090833333336, "name": "0c614c24fa075481f97427162a6328fe", "lon": -77.01877233333333, "fusion_lon": 0.0}, {"is_reserved": 0, "type": "electric_scooter", "fusion_lat": 0.0, "is_disabled": 0, "rental_uris": {"ios": "https://dc.lft.to/lastmile_qr_scan", "android": "https://dc.lft.to/lastmile_qr_scan"}, "bike_id": "347d656aa7b65a4dd69626faeafdf8b9", "lat": 38.874727666666665, "name": "347d656aa7b65a4dd69626faeafdf8b9", "lon": -77.00519166666666, "fusion_lon": 0.0}, {"is_reserved": 0, "type": "electric_scooter", "fusion_lat": 0.0, "is_disabled": 0, "rental_uris": {"ios": "https://dc.lft.to/lastmile_qr_scan", "android": "https://dc.lft.to/lastmile_qr_scan"}, "bike_id": "1b4ec70d31ab0e09642de6d30ea13450", "lat": 38.944514166666664, "name": "1b4ec70d31ab0e09642de6d30ea13450", "lon": -77.02912116666667, "fusion_lon": 0.0}, {"is_reserved": 0, "type": "electric_scooter", "fusion_lat": 0.0, "is_disabled": 0, "rental_uris": {"ios": "https://dc.lft.to/lastmile_qr_scan", "android": "https://dc.lft.to/lastmile_qr_scan"}, "bike_id": "ad3a7b114bb723252d3f6cb85762cb6e", "lat": 38.871823, "name": "ad3a7b114bb723252d3f6cb85762cb6e", "lon": -77.01221266666667, "fusion_lon": 0.0}, {"is_reserved": 0, "type": "electric_scooter", "fusion_lat": 0.0, "is_disabled": 0, "rental_uris": {"ios": "https://dc.lft.to/lastmile_qr_scan", "android": "https://dc.lft.to/lastmile_qr_scan"}, "bike_id": "47bbeda3fc5e415ff99a2b845ad827dc", "lat": 38.911063166666665, "name": "47bbeda3fc5e415ff99a2b845ad827dc", "lon": -77.002145, "fusion_lon": 0.0}, {"is_reserved": 0, "type": "electric_scooter", "fusion_lat": 0.0, "is_disabled": 0, "rental_uris": {"ios": "https://dc.lft.to/lastmile_qr_scan", "android": "https://dc.lft.to/lastmile_qr_scan"}, "bike_id": "b77ffebc63f34514ad9b587e79ccff24", "lat": 38.923414, "name": "b77ffebc63f34514ad9b587e79ccff24", "lon": -76.99872016666667, "fusion_lon": 0.0}, {"is_reserved": 0, "type": "electric_scooter", "fusion_lat": 0.0, "is_disabled": 0, "rental_uris": {"ios": "https://dc.lft.to/lastmile_qr_scan", "android": "https://dc.lft.to/lastmile_qr_scan"}, "bike_id": "19c3c7d0b56ec0b987606115c56b188c", "lat": 38.907876333333334, "name": "19c3c7d0b56ec0b987606115c56b188c", "lon": -77.0450915, "fusion_lon": 0.0}, {"is_reserved": 0, "type": "electric_scooter", "fusion_lat": 0.0, "is_disabled": 0, "rental_uris": {"ios": "https://dc.lft.to/lastmile_qr_scan", "android": "https://dc.lft.to/lastmile_qr_scan"}, "bike_id": "888bc0dee21c53e612a2d6420fd0ec43", "lat": 38.92669133333333, "name": "888bc0dee21c53e612a2d6420fd0ec43", "lon": -76.99539916666667, "fusion_lon": 0.0}, {"is_reserved": 0, "type": "electric_scooter", "fusion_lat": 0.0, "is_disabled": 0, "rental_uris": {"ios": "https://dc.lft.to/lastmile_qr_scan", "android": "https://dc.lft.to/lastmile_qr_scan"}, "bike_id": "db03c545cbcd1ef21e6384b6547c9996", "lat": 38.92466, "name": "db03c545cbcd1ef21e6384b6547c9996", "lon": -77.02241083333334, "fusion_lon": 0.0}, {"is_reserved": 0, "type": "electric_scooter", "fusion_lat": 0.0, "is_disabled": 0, "rental_uris": {"ios": "https://dc.lft.to/lastmile_qr_scan", "android": "https://dc.lft.to/lastmile_qr_scan"}, "bike_id": "281c7a4f7fa3e0f9904e4b011e91f1c4", "lat": 38.907431333333335, "name": "281c7a4f7fa3e0f9904e4b011e91f1c4", "lon": -77.007667, "fusion_lon": 0.0}, {"is_reserved": 0, "type": "electric_scooter", "fusion_lat": 0.0, "is_disabled": 0, "rental_uris": {"ios": "https://dc.lft.to/lastmile_qr_scan", "android": "https://dc.lft.to/lastmile_qr_scan"}, "bike_id": "eea3e6e49ca880b858d685a397c257dd", "lat": 38.921556333333335, "name": "eea3e6e49ca880b858d685a397c257dd", "lon": -77.03385333333334, "fusion_lon": 0.0}, {"is_reserved": 0, "type": "electric_bike", "fusion_lat": 0.0, "is_disabled": 0, "rental_uris": {"ios": "https://dc.lft.to/lastmile_qr_scan", "android": "https://dc.lft.to/lastmile_qr_scan"}, "bike_id": "a5f40f747d9a89bb85660f051bf98a37", "lat": 38.883069166666665, "name": "a5f40f747d9a89bb85660f051bf98a37", "lon": -77.00196283333334, "fusion_lon": 0.0}, {"is_reserved": 0, "type": "electric_scooter", "fusion_lat": 0.0, "is_disabled": 0, "rental_uris": {"ios": "https://dc.lft.to/lastmile_qr_scan", "android": "https://dc.lft.to/lastmile_qr_scan"}, "bike_id": "391cca7299d2ab208373b557be2ef4a2", "lat": 38.918853166666665, "name": "391cca7299d2ab208373b557be2ef4a2", "lon": -77.03510033333333, "fusion_lon": 0.0}, {"is_reserved": 0, "type": "electric_scooter", "fusion_lat": 0.0, "is_disabled": 0, "rental_uris": {"ios": "https://dc.lft.to/lastmile_qr_scan", "android": "https://dc.lft.to/lastmile_qr_scan"}, "bike_id": "e3630de5da90b4eed51b01d07cd3025f", "lat": 38.916501333333336, "name": "e3630de5da90b4eed51b01d07cd3025f", "lon": -77.0102605, "fusion_lon": 0.0}, {"is_reserved": 0, "type": "electric_scooter", "fusion_lat": 0.0, "is_disabled": 0, "rental_uris": {"ios": "https://dc.lft.to/lastmile_qr_scan", "android": "https://dc.lft.to/lastmile_qr_scan"}, "bike_id": "059c42db88940ba76c0be7e6645ea5a8", "lat": 38.944900833333335, "name": "059c42db88940ba76c0be7e6645ea5a8", "lon": -77.095019, "fusion_lon": 0.0}, {"is_reserved": 0, "type": "electric_scooter", "fusion_lat": 0.0, "is_disabled": 0, "rental_uris": {"ios": "https://dc.lft.to/lastmile_qr_scan", "android": "https://dc.lft.to/lastmile_qr_scan"}, "bike_id": "15bb75de87bf8cbeb5af1caaa8cf7e9e", "lat": 38.896176833333335, "name": "15bb75de87bf8cbeb5af1caaa8cf7e9e", "lon": -77.02854366666666, "fusion_lon": 0.0}, {"is_reserved": 0, "type": "electric_scooter", "fusion_lat": 0.0, "is_disabled": 0, "rental_uris": {"ios": "https://dc.lft.to/lastmile_qr_scan", "android": "https://dc.lft.to/lastmile_qr_scan"}, "bike_id": "7e14aedb40bfa57b099689b48da75525", "lat": 38.936053666666666, "name": "7e14aedb40bfa57b099689b48da75525", "lon": -77.03765233333333, "fusion_lon": 0.0}, {"is_reserved": 0, "type": "electric_bike", "fusion_lat": 0.0, "is_disabled": 0, "rental_uris": {"ios": "https://dc.lft.to/lastmile_qr_scan", "android": "https://dc.lft.to/lastmile_qr_scan"}, "bike_id": "80b5e5932bf32976e6d16fca077dbcee", "lat": 38.809804166666666, "name": "80b5e5932bf32976e6d16fca077dbcee", "lon": -77.0765845, "fusion_lon": 0.0}, {"is_reserved": 0, "type": "electric_scooter", "fusion_lat": 0.0, "is_disabled": 0, "rental_uris": {"ios": "https://dc.lft.to/lastmile_qr_scan", "android": "https://dc.lft.to/lastmile_qr_scan"}, "bike_id": "06df5f006e0a950cbe8703f5a2ac38fa", "lat": 38.892271666666666, "name": "06df5f006e0a950cbe8703f5a2ac38fa", "lon": -77.04643016666667, "fusion_lon": 0.0}, {"is_reserved": 0, "type": "electric_scooter", "fusion_lat": 0.0, "is_disabled": 0, "rental_uris": {"ios": "https://dc.lft.to/lastmile_qr_scan", "android": "https://dc.lft.to/lastmile_qr_scan"}, "bike_id": "1c4fd5c2881d838196984e8c1676e073", "lat": 38.922163, "name": "1c4fd5c2881d838196984e8c1676e073", "lon": -77.0423445, "fusion_lon": 0.0}, {"is_reserved": 0, "type": "electric_bike", "fusion_lat": 0.0, "is_disabled": 0, "rental_uris": {"ios": "https://dc.lft.to/lastmile_qr_scan", "android": "https://dc.lft.to/lastmile_qr_scan"}, "bike_id": "6cae4fcbd6baef03e6996913898152f9", "lat": 38.9201825, "name": "6cae4fcbd6baef03e6996913898152f9", "lon": -77.00326066666666, "fusion_lon": 0.0}, {"is_reserved": 0, "type": "electric_scooter", "fusion_lat": 0.0, "is_disabled": 0, "rental_uris": {"ios": "https://dc.lft.to/lastmile_qr_scan", "android": "https://dc.lft.to/lastmile_qr_scan"}, "bike_id": "b10cb510b0aa31d747978bf8b3500053", "lat": 38.89823366666667, "name": "b10cb510b0aa31d747978bf8b3500053", "lon": -76.93003333333333, "fusion_lon": 0.0}, {"is_reserved": 0, "type": "electric_scooter", "fusion_lat": 0.0, "is_disabled": 0, "rental_uris": {"ios": "https://dc.lft.to/lastmile_qr_scan", "android": "https://dc.lft.to/lastmile_qr_scan"}, "bike_id": "258055baac8b24db4651ec631e360f73", "lat": 38.897769333333336, "name": "258055baac8b24db4651ec631e360f73", "lon": -77.04791033333333, "fusion_lon": 0.0}, {"is_reserved": 0, "type": "electric_scooter", "fusion_lat": 0.0, "is_disabled": 0, "rental_uris": {"ios": "https://dc.lft.to/lastmile_qr_scan", "android": "https://dc.lft.to/lastmile_qr_scan"}, "bike_id": "388eed6678cdd48f67cfc3f622712c39", "lat": 38.89822433333333, "name": "388eed6678cdd48f67cfc3f622712c39", "lon": -77.01273966666666, "fusion_lon": 0.0}, {"is_reserved": 0, "type": "electric_bike", "fusion_lat": 0.0, "is_disabled": 0, "rental_uris": {"ios": "https://dc.lft.to/lastmile_qr_scan", "android": "https://dc.lft.to/lastmile_qr_scan"}, "bike_id": "5f4c1de757d20775e6ce014fa1116e5f", "lat": 38.93638716666667, "name": "5f4c1de757d20775e6ce014fa1116e5f", "lon": -76.954559, "fusion_lon": 0.0}, {"is_reserved": 0, "type": "electric_scooter", "fusion_lat": 0.0, "is_disabled": 0, "rental_uris": {"ios": "https://dc.lft.to/lastmile_qr_scan", "android": "https://dc.lft.to/lastmile_qr_scan"}, "bike_id": "a767611090fec3f22b8e53ea136e2cd5", "lat": 38.89445033333333, "name": "a767611090fec3f22b8e53ea136e2cd5", "lon": -76.98086016666667, "fusion_lon": 0.0}, {"is_reserved": 0, "type": "electric_scooter", "fusion_lat": 0.0, "is_disabled": 0, "rental_uris": {"ios": "https://dc.lft.to/lastmile_qr_scan", "android": "https://dc.lft.to/lastmile_qr_scan"}, "bike_id": "115f2fb5962009181ff5b7663c54cb2e", "lat": 38.91832266666667, "name": "115f2fb5962009181ff5b7663c54cb2e", "lon": -77.03188433333334, "fusion_lon": 0.0}, {"is_reserved": 0, "type": "electric_scooter", "fusion_lat": 0.0, "is_disabled": 0, "rental_uris": {"ios": "https://dc.lft.to/lastmile_qr_scan", "android": "https://dc.lft.to/lastmile_qr_scan"}, "bike_id": "3eec04b0af7f476601ac1186d3a6e36b", "lat": 38.899723, "name": "3eec04b0af7f476601ac1186d3a6e36b", "lon": -77.04190733333333, "fusion_lon": 0.0}, {"is_reserved": 0, "type": "electric_scooter", "fusion_lat": 0.0, "is_disabled": 0, "rental_uris": {"ios": "https://dc.lft.to/lastmile_qr_scan", "android": "https://dc.lft.to/lastmile_qr_scan"}, "bike_id": "a4527c1bf8e9ea9aa4d5ba7ea7165077", "lat": 38.90387533333333, "name": "a4527c1bf8e9ea9aa4d5ba7ea7165077", "lon": -77.05142416666666, "fusion_lon": 0.0}, {"is_reserved": 0, "type": "electric_scooter", "fusion_lat": 0.0, "is_disabled": 0, "rental_uris": {"ios": "https://dc.lft.to/lastmile_qr_scan", "android": "https://dc.lft.to/lastmile_qr_scan"}, "bike_id": "16abfe279d480b6068961e7ed02cfad8", "lat": 38.91102333333333, "name": "16abfe279d480b6068961e7ed02cfad8", "lon": -77.01101, "fusion_lon": 0.0}, {"is_reserved": 0, "type": "electric_scooter", "fusion_lat": 0.0, "is_disabled": 0, "rental_uris": {"ios": "https://dc.lft.to/lastmile_qr_scan", "android": "https://dc.lft.to/lastmile_qr_scan"}, "bike_id": "439d6817677498839f6ce7545891cb41", "lat": 38.91841816666667, "name": "439d6817677498839f6ce7545891cb41", "lon": -77.04544933333334, "fusion_lon": 0.0}, {"is_reserved": 0, "type": "electric_scooter", "fusion_lat": 0.0, "is_disabled": 0, "rental_uris": {"ios": "https://dc.lft.to/lastmile_qr_scan", "android": "https://dc.lft.to/lastmile_qr_scan"}, "bike_id": "25bf6989c852217f10143f7c2594e08d", "lat": 38.923358666666665, "name": "25bf6989c852217f10143f7c2594e08d", "lon": -77.0089355, "fusion_lon": 0.0}, {"is_reserved": 0, "type": "electric_scooter", "fusion_lat": 0.0, "is_disabled": 0, "rental_uris": {"ios": "https://dc.lft.to/lastmile_qr_scan", "android": "https://dc.lft.to/lastmile_qr_scan"}, "bike_id": "60a63f045d9b92b0e3f8b69656aa82dc", "lat": 38.9091315, "name": "60a63f045d9b92b0e3f8b69656aa82dc", "lon": -77.00284216666667, "fusion_lon": 0.0}, {"is_reserved": 0, "type": "electric_bike", "fusion_lat": 0.0, "is_disabled": 0, "rental_uris": {"ios": "https://dc.lft.to/lastmile_qr_scan", "android": "https://dc.lft.to/lastmile_qr_scan"}, "bike_id": "17a78367b1a9ca55da3ca13237b1e3d6", "lat": 38.922879, "name": "17a78367b1a9ca55da3ca13237b1e3d6", "lon": -76.99771616666666, "fusion_lon": 0.0}, {"is_reserved": 0, "type": "electric_scooter", "fusion_lat": 0.0, "is_disabled": 0, "rental_uris": {"ios": "https://dc.lft.to/lastmile_qr_scan", "android": "https://dc.lft.to/lastmile_qr_scan"}, "bike_id": "8d95b0d0475b9a16f8e0705aa712a90f", "lat": 38.918322833333335, "name": "8d95b0d0475b9a16f8e0705aa712a90f", "lon": -77.02712766666667, "fusion_lon": 0.0}, {"is_reserved": 0, "type": "electric_scooter", "fusion_lat": 0.0, "is_disabled": 0, "rental_uris": {"ios": "https://dc.lft.to/lastmile_qr_scan", "android": "https://dc.lft.to/lastmile_qr_scan"}, "bike_id": "f2dc9e4d513fd72d79479912ea70caf3", "lat": 38.923429166666665, "name": "f2dc9e4d513fd72d79479912ea70caf3", "lon": -77.035245, "fusion_lon": 0.0}, {"is_reserved": 0, "type": "electric_scooter", "fusion_lat": 0.0, "is_disabled": 0, "rental_uris": {"ios": "https://dc.lft.to/lastmile_qr_scan", "android": "https://dc.lft.to/lastmile_qr_scan"}, "bike_id": "070a549a74b49410e2d4cea121e24b93", "lat": 38.8952515, "name": "070a549a74b49410e2d4cea121e24b93", "lon": -76.97723833333333, "fusion_lon": 0.0}, {"is_reserved": 0, "type": "electric_scooter", "fusion_lat": 0.0, "is_disabled": 0, "rental_uris": {"ios": "https://dc.lft.to/lastmile_qr_scan", "android": "https://dc.lft.to/lastmile_qr_scan"}, "bike_id": "edcb31d20923dc804acb8c8e0356c0e2", "lat": 38.881089, "name": "edcb31d20923dc804acb8c8e0356c0e2", "lon": -77.0263025, "fusion_lon": 0.0}, {"is_reserved": 0, "type": "electric_scooter", "fusion_lat": 0.0, "is_disabled": 0, "rental_uris": {"ios": "https://dc.lft.to/lastmile_qr_scan", "android": "https://dc.lft.to/lastmile_qr_scan"}, "bike_id": "59d90cc4248d6bdfb0c41ab6c0c5f39a", "lat": 38.910500166666665, "name": "59d90cc4248d6bdfb0c41ab6c0c5f39a", "lon": -76.99794433333334, "fusion_lon": 0.0}, {"is_reserved": 0, "type": "electric_scooter", "fusion_lat": 0.0, "is_disabled": 0, "rental_uris": {"ios": "https://dc.lft.to/lastmile_qr_scan", "android": "https://dc.lft.to/lastmile_qr_scan"}, "bike_id": "2ad993addde7262aba3d7ff42d9d4c9c", "lat": 38.919113833333334, "name": "2ad993addde7262aba3d7ff42d9d4c9c", "lon": -77.03318233333333, "fusion_lon": 0.0}, {"is_reserved": 0, "type": "electric_bike", "fusion_lat": 0.0, "is_disabled": 0, "rental_uris": {"ios": "https://dc.lft.to/lastmile_qr_scan", "android": "https://dc.lft.to/lastmile_qr_scan"}, "bike_id": "6546b5866befc297fcbb2d4956eae163", "lat": 38.843024666666665, "name": "6546b5866befc297fcbb2d4956eae163", "lon": -76.9884125, "fusion_lon": 0.0}, {"is_reserved": 0, "type": "electric_scooter", "fusion_lat": 0.0, "is_disabled": 0, "rental_uris": {"ios": "https://dc.lft.to/lastmile_qr_scan", "android": "https://dc.lft.to/lastmile_qr_scan"}, "bike_id": "5323c5ff099a29d13865120ec849fe4f", "lat": 38.905636, "name": "5323c5ff099a29d13865120ec849fe4f", "lon": -77.0172115, "fusion_lon": 0.0}, {"is_reserved": 0, "type": "electric_scooter", "fusion_lat": 0.0, "is_disabled": 0, "rental_uris": {"ios": "https://dc.lft.to/lastmile_qr_scan", "android": "https://dc.lft.to/lastmile_qr_scan"}, "bike_id": "a0d5bea03c7dbc4d8d154f5d5cfd4ffb", "lat": 38.9200245, "name": "a0d5bea03c7dbc4d8d154f5d5cfd4ffb", "lon": -76.97299266666667, "fusion_lon": 0.0}, {"is_reserved": 0, "type": "electric_scooter", "fusion_lat": 0.0, "is_disabled": 0, "rental_uris": {"ios": "https://dc.lft.to/lastmile_qr_scan", "android": "https://dc.lft.to/lastmile_qr_scan"}, "bike_id": "27cf32a2810522117cbe852c4512186c", "lat": 38.912390333333335, "name": "27cf32a2810522117cbe852c4512186c", "lon": -77.00920666666667, "fusion_lon": 0.0}, {"is_reserved": 0, "type": "electric_scooter", "fusion_lat": 0.0, "is_disabled": 0, "rental_uris": {"ios": "https://dc.lft.to/lastmile_qr_scan", "android": "https://dc.lft.to/lastmile_qr_scan"}, "bike_id": "b599115bb506e03b73f14a4f747a8894", "lat": 38.8766445, "name": "b599115bb506e03b73f14a4f747a8894", "lon": -77.00092466666666, "fusion_lon": 0.0}, {"is_reserved": 0, "type": "electric_scooter", "fusion_lat": 0.0, "is_disabled": 0, "rental_uris": {"ios": "https://dc.lft.to/lastmile_qr_scan", "android": "https://dc.lft.to/lastmile_qr_scan"}, "bike_id": "7fc242081d2a56cdd913b6251393a767", "lat": 38.909531666666666, "name": "7fc242081d2a56cdd913b6251393a767", "lon": -76.98541766666666, "fusion_lon": 0.0}, {"is_reserved": 0, "type": "electric_scooter", "fusion_lat": 0.0, "is_disabled": 0, "rental_uris": {"ios": "https://dc.lft.to/lastmile_qr_scan", "android": "https://dc.lft.to/lastmile_qr_scan"}, "bike_id": "48387303355767308b0acb1b40987d6c", "lat": 38.91591316666667, "name": "48387303355767308b0acb1b40987d6c", "lon": -76.983839, "fusion_lon": 0.0}, {"is_reserved": 0, "type": "electric_scooter", "fusion_lat": 0.0, "is_disabled": 0, "rental_uris": {"ios": "https://dc.lft.to/lastmile_qr_scan", "android": "https://dc.lft.to/lastmile_qr_scan"}, "bike_id": "585b71c36bc65ecbbe118b4a3c9f4171", "lat": 38.902123, "name": "585b71c36bc65ecbbe118b4a3c9f4171", "lon": -76.9869665, "fusion_lon": 0.0}, {"is_reserved": 0, "type": "electric_scooter", "fusion_lat": 0.0, "is_disabled": 0, "rental_uris": {"ios": "https://dc.lft.to/lastmile_qr_scan", "android": "https://dc.lft.to/lastmile_qr_scan"}, "bike_id": "77abc3c47f6774d98e92ee5e9e6d1180", "lat": 38.897528, "name": "77abc3c47f6774d98e92ee5e9e6d1180", "lon": -77.05160733333334, "fusion_lon": 0.0}, {"is_reserved": 0, "type": "electric_scooter", "fusion_lat": 0.0, "is_disabled": 0, "rental_uris": {"ios": "https://dc.lft.to/lastmile_qr_scan", "android": "https://dc.lft.to/lastmile_qr_scan"}, "bike_id": "0d6671d6585b4e9e1b7a346d3b2ee2fd", "lat": 38.916094333333334, "name": "0d6671d6585b4e9e1b7a346d3b2ee2fd", "lon": -77.045732, "fusion_lon": 0.0}, {"is_reserved": 0, "type": "electric_scooter", "fusion_lat": 0.0, "is_disabled": 0, "rental_uris": {"ios": "https://dc.lft.to/lastmile_qr_scan", "android": "https://dc.lft.to/lastmile_qr_scan"}, "bike_id": "348c73e1a27266e236198abf3d87a97e", "lat": 38.9126135, "name": "348c73e1a27266e236198abf3d87a97e", "lon": -77.04600483333333, "fusion_lon": 0.0}, {"is_reserved": 0, "type": "electric_scooter", "fusion_lat": 0.0, "is_disabled": 0, "rental_uris": {"ios": "https://dc.lft.to/lastmile_qr_scan", "android": "https://dc.lft.to/lastmile_qr_scan"}, "bike_id": "b5ff8bc881c5ab1e24e48edb84938935", "lat": 38.918166, "name": "b5ff8bc881c5ab1e24e48edb84938935", "lon": -77.02475833333334, "fusion_lon": 0.0}, {"is_reserved": 0, "type": "electric_scooter", "fusion_lat": 0.0, "is_disabled": 0, "rental_uris": {"ios": "https://dc.lft.to/lastmile_qr_scan", "android": "https://dc.lft.to/lastmile_qr_scan"}, "bike_id": "e56f1c36c8700783fafaadf03a35b0fd", "lat": 38.92078, "name": "e56f1c36c8700783fafaadf03a35b0fd", "lon": -77.024106, "fusion_lon": 0.0}, {"is_reserved": 0, "type": "electric_scooter", "fusion_lat": 0.0, "is_disabled": 0, "rental_uris": {"ios": "https://dc.lft.to/lastmile_qr_scan", "android": "https://dc.lft.to/lastmile_qr_scan"}, "bike_id": "ab563c2e991019cbf36c81e3702ed6c3", "lat": 38.912691833333334, "name": "ab563c2e991019cbf36c81e3702ed6c3", "lon": -77.04761133333334, "fusion_lon": 0.0}, {"is_reserved": 0, "type": "electric_scooter", "fusion_lat": 0.0, "is_disabled": 0, "rental_uris": {"ios": "https://dc.lft.to/lastmile_qr_scan", "android": "https://dc.lft.to/lastmile_qr_scan"}, "bike_id": "166dc6a5aa47110732160551d8d182b5", "lat": 38.899334333333336, "name": "166dc6a5aa47110732160551d8d182b5", "lon": -76.9375805, "fusion_lon": 0.0}, {"is_reserved": 0, "type": "electric_scooter", "fusion_lat": 0.0, "is_disabled": 0, "rental_uris": {"ios": "https://dc.lft.to/lastmile_qr_scan", "android": "https://dc.lft.to/lastmile_qr_scan"}, "bike_id": "cfa67d469425743f5c898bddfeb1b5a8", "lat": 38.90381466666667, "name": "cfa67d469425743f5c898bddfeb1b5a8", "lon": -77.04822116666666, "fusion_lon": 0.0}, {"is_reserved": 0, "type": "electric_scooter", "fusion_lat": 0.0, "is_disabled": 0, "rental_uris": {"ios": "https://dc.lft.to/lastmile_qr_scan", "android": "https://dc.lft.to/lastmile_qr_scan"}, "bike_id": "7000e38b264a260e7d7b535764718fb3", "lat": 38.8877125, "name": "7000e38b264a260e7d7b535764718fb3", "lon": -76.97733583333333, "fusion_lon": 0.0}, {"is_reserved": 0, "type": "electric_scooter", "fusion_lat": 0.0, "is_disabled": 0, "rental_uris": {"ios": "https://dc.lft.to/lastmile_qr_scan", "android": "https://dc.lft.to/lastmile_qr_scan"}, "bike_id": "e3567dd28ec91c55793f9db06683fef9", "lat": 38.909149, "name": "e3567dd28ec91c55793f9db06683fef9", "lon": -77.049427, "fusion_lon": 0.0}, {"is_reserved": 0, "type": "electric_scooter", "fusion_lat": 0.0, "is_disabled": 0, "rental_uris": {"ios": "https://dc.lft.to/lastmile_qr_scan", "android": "https://dc.lft.to/lastmile_qr_scan"}, "bike_id": "2158e597d97cfceeb3f9a00a2ce2098d", "lat": 38.94706466666667, "name": "2158e597d97cfceeb3f9a00a2ce2098d", "lon": -77.019396, "fusion_lon": 0.0}, {"is_reserved": 0, "type": "electric_scooter", "fusion_lat": 0.0, "is_disabled": 0, "rental_uris": {"ios": "https://dc.lft.to/lastmile_qr_scan", "android": "https://dc.lft.to/lastmile_qr_scan"}, "bike_id": "fd9d6fed9adb42de6b941948e4c71141", "lat": 38.887706666666666, "name": "fd9d6fed9adb42de6b941948e4c71141", "lon": -76.97731483333334, "fusion_lon": 0.0}, {"is_reserved": 0, "type": "electric_scooter", "fusion_lat": 0.0, "is_disabled": 0, "rental_uris": {"ios": "https://dc.lft.to/lastmile_qr_scan", "android": "https://dc.lft.to/lastmile_qr_scan"}, "bike_id": "9a370aa336cdb037ba8688691a266bcd", "lat": 38.873565166666666, "name": "9a370aa336cdb037ba8688691a266bcd", "lon": -77.00193233333333, "fusion_lon": 0.0}, {"is_reserved": 0, "type": "electric_scooter", "fusion_lat": 0.0, "is_disabled": 0, "rental_uris": {"ios": "https://dc.lft.to/lastmile_qr_scan", "android": "https://dc.lft.to/lastmile_qr_scan"}, "bike_id": "a52f8e28344027940790e351351a5eb4", "lat": 38.924305833333335, "name": "a52f8e28344027940790e351351a5eb4", "lon": -77.01940183333333, "fusion_lon": 0.0}, {"is_reserved": 0, "type": "electric_scooter", "fusion_lat": 0.0, "is_disabled": 0, "rental_uris": {"ios": "https://dc.lft.to/lastmile_qr_scan", "android": "https://dc.lft.to/lastmile_qr_scan"}, "bike_id": "bf6a15f75160665e608e0a3fdbd2a7d6", "lat": 38.9142515, "name": "bf6a15f75160665e608e0a3fdbd2a7d6", "lon": -77.0691925, "fusion_lon": 0.0}, {"is_reserved": 0, "type": "electric_scooter", "fusion_lat": 0.0, "is_disabled": 0, "rental_uris": {"ios": "https://dc.lft.to/lastmile_qr_scan", "android": "https://dc.lft.to/lastmile_qr_scan"}, "bike_id": "2091afeef85c55f21c753d56a13a8e75", "lat": 38.91283766666667, "name": "2091afeef85c55f21c753d56a13a8e75", "lon": -77.06800933333334, "fusion_lon": 0.0}, {"is_reserved": 0, "type": "electric_scooter", "fusion_lat": 0.0, "is_disabled": 0, "rental_uris": {"ios": "https://dc.lft.to/lastmile_qr_scan", "android": "https://dc.lft.to/lastmile_qr_scan"}, "bike_id": "cf1390a5a897c1f1dfbecee043e76901", "lat": 38.87626816666667, "name": "cf1390a5a897c1f1dfbecee043e76901", "lon": -77.00210833333334, "fusion_lon": 0.0}, {"is_reserved": 0, "type": "electric_scooter", "fusion_lat": 0.0, "is_disabled": 0, "rental_uris": {"ios": "https://dc.lft.to/lastmile_qr_scan", "android": "https://dc.lft.to/lastmile_qr_scan"}, "bike_id": "f772675ebe9f79a6cc94c0c46a710534", "lat": 38.917470333333334, "name": "f772675ebe9f79a6cc94c0c46a710534", "lon": -77.010855, "fusion_lon": 0.0}, {"is_reserved": 0, "type": "electric_scooter", "fusion_lat": 0.0, "is_disabled": 0, "rental_uris": {"ios": "https://dc.lft.to/lastmile_qr_scan", "android": "https://dc.lft.to/lastmile_qr_scan"}, "bike_id": "a51ab13fbaff3a19f543f2e82212c828", "lat": 38.892983, "name": "a51ab13fbaff3a19f543f2e82212c828", "lon": -77.01517533333333, "fusion_lon": 0.0}, {"is_reserved": 0, "type": "electric_scooter", "fusion_lat": 0.0, "is_disabled": 0, "rental_uris": {"ios": "https://dc.lft.to/lastmile_qr_scan", "android": "https://dc.lft.to/lastmile_qr_scan"}, "bike_id": "2c1f209d562482250b852cf7ea2aa5e7", "lat": 38.939513833333336, "name": "2c1f209d562482250b852cf7ea2aa5e7", "lon": -77.07241083333334, "fusion_lon": 0.0}, {"is_reserved": 0, "type": "electric_scooter", "fusion_lat": 0.0, "is_disabled": 0, "rental_uris": {"ios": "https://dc.lft.to/lastmile_qr_scan", "android": "https://dc.lft.to/lastmile_qr_scan"}, "bike_id": "be26fbaedb93da698b390f99f93ff64e", "lat": 38.9169155, "name": "be26fbaedb93da698b390f99f93ff64e", "lon": -77.02950216666666, "fusion_lon": 0.0}, {"is_reserved": 0, "type": "electric_scooter", "fusion_lat": 0.0, "is_disabled": 0, "rental_uris": {"ios": "https://dc.lft.to/lastmile_qr_scan", "android": "https://dc.lft.to/lastmile_qr_scan"}, "bike_id": "8310a8ff192f16bdda41897eb3213de5", "lat": 38.90205783333333, "name": "8310a8ff192f16bdda41897eb3213de5", "lon": -77.0480975, "fusion_lon": 0.0}, {"is_reserved": 0, "type": "electric_scooter", "fusion_lat": 0.0, "is_disabled": 0, "rental_uris": {"ios": "https://dc.lft.to/lastmile_qr_scan", "android": "https://dc.lft.to/lastmile_qr_scan"}, "bike_id": "91774138e248151c2cc44385225e75e9", "lat": 38.899578, "name": "91774138e248151c2cc44385225e75e9", "lon": -77.02575766666666, "fusion_lon": 0.0}, {"is_reserved": 0, "type": "electric_scooter", "fusion_lat": 0.0, "is_disabled": 0, "rental_uris": {"ios": "https://dc.lft.to/lastmile_qr_scan", "android": "https://dc.lft.to/lastmile_qr_scan"}, "bike_id": "ec1268aa7316898c30ae1f562c61198d", "lat": 38.895332333333336, "name": "ec1268aa7316898c30ae1f562c61198d", "lon": -76.94891566666666, "fusion_lon": 0.0}, {"is_reserved": 0, "type": "electric_scooter", "fusion_lat": 0.0, "is_disabled": 0, "rental_uris": {"ios": "https://dc.lft.to/lastmile_qr_scan", "android": "https://dc.lft.to/lastmile_qr_scan"}, "bike_id": "d2cd31ec6ed3e1ca2ad448180fd39864", "lat": 38.920265666666666, "name": "d2cd31ec6ed3e1ca2ad448180fd39864", "lon": -77.0250935, "fusion_lon": 0.0}, {"is_reserved": 0, "type": "electric_scooter", "fusion_lat": 0.0, "is_disabled": 0, "rental_uris": {"ios": "https://dc.lft.to/lastmile_qr_scan", "android": "https://dc.lft.to/lastmile_qr_scan"}, "bike_id": "65dae19a9676766f639cf8275bf50b76", "lat": 38.9149015, "name": "65dae19a9676766f639cf8275bf50b76", "lon": -77.04945783333334, "fusion_lon": 0.0}, {"is_reserved": 0, "type": "electric_scooter", "fusion_lat": 0.0, "is_disabled": 0, "rental_uris": {"ios": "https://dc.lft.to/lastmile_qr_scan", "android": "https://dc.lft.to/lastmile_qr_scan"}, "bike_id": "6dcb15d175d06d1ffa6e5544784286bd", "lat": 38.91925616666666, "name": "6dcb15d175d06d1ffa6e5544784286bd", "lon": -77.03423166666667, "fusion_lon": 0.0}, {"is_reserved": 0, "type": "electric_scooter", "fusion_lat": 0.0, "is_disabled": 0, "rental_uris": {"ios": "https://dc.lft.to/lastmile_qr_scan", "android": "https://dc.lft.to/lastmile_qr_scan"}, "bike_id": "6af0685038506e13d074a42aa36678dd", "lat": 38.92363866666667, "name": "6af0685038506e13d074a42aa36678dd", "lon": -77.02977433333334, "fusion_lon": 0.0}, {"is_reserved": 0, "type": "electric_bike", "fusion_lat": 0.0, "is_disabled": 0, "rental_uris": {"ios": "https://dc.lft.to/lastmile_qr_scan", "android": "https://dc.lft.to/lastmile_qr_scan"}, "bike_id": "e1b2396c67aff10cd51d59f5be9512ae", "lat": 39.084375666666666, "name": "e1b2396c67aff10cd51d59f5be9512ae", "lon": -76.95142666666666, "fusion_lon": 0.0}, {"is_reserved": 0, "type": "electric_scooter", "fusion_lat": 0.0, "is_disabled": 0, "rental_uris": {"ios": "https://dc.lft.to/lastmile_qr_scan", "android": "https://dc.lft.to/lastmile_qr_scan"}, "bike_id": "75a8e7ea2b7bbb6c10e8c25008010788", "lat": 38.928034333333336, "name": "75a8e7ea2b7bbb6c10e8c25008010788", "lon": -77.02390283333334, "fusion_lon": 0.0}, {"is_reserved": 0, "type": "electric_scooter", "fusion_lat": 0.0, "is_disabled": 0, "rental_uris": {"ios": "https://dc.lft.to/lastmile_qr_scan", "android": "https://dc.lft.to/lastmile_qr_scan"}, "bike_id": "8c3d8f7dee4000029ea57b1f351132e5", "lat": 38.89849066666667, "name": "8c3d8f7dee4000029ea57b1f351132e5", "lon": -76.990356, "fusion_lon": 0.0}, {"is_reserved": 0, "type": "electric_bike", "fusion_lat": 0.0, "is_disabled": 0, "rental_uris": {"ios": "https://dc.lft.to/lastmile_qr_scan", "android": "https://dc.lft.to/lastmile_qr_scan"}, "bike_id": "9f35f790024d7d0f0ce0a0536cd774ca", "lat": 38.8837475, "name": "9f35f790024d7d0f0ce0a0536cd774ca", "lon": -76.92370533333333, "fusion_lon": 0.0}, {"is_reserved": 0, "type": "electric_scooter", "fusion_lat": 0.0, "is_disabled": 0, "rental_uris": {"ios": "https://dc.lft.to/lastmile_qr_scan", "android": "https://dc.lft.to/lastmile_qr_scan"}, "bike_id": "80bce87d50279728f567102ebbf3399b", "lat": 38.926841, "name": "80bce87d50279728f567102ebbf3399b", "lon": -77.00871633333334, "fusion_lon": 0.0}, {"is_reserved": 0, "type": "electric_scooter", "fusion_lat": 0.0, "is_disabled": 0, "rental_uris": {"ios": "https://dc.lft.to/lastmile_qr_scan", "android": "https://dc.lft.to/lastmile_qr_scan"}, "bike_id": "6a8eee1661457875722656742c87bf3d", "lat": 38.9012165, "name": "6a8eee1661457875722656742c87bf3d", "lon": -77.0514405, "fusion_lon": 0.0}, {"is_reserved": 0, "type": "electric_scooter", "fusion_lat": 0.0, "is_disabled": 0, "rental_uris": {"ios": "https://dc.lft.to/lastmile_qr_scan", "android": "https://dc.lft.to/lastmile_qr_scan"}, "bike_id": "a3aaae4952ea6bac4bd9b5aad4f804b3", "lat": 38.92422033333333, "name": "a3aaae4952ea6bac4bd9b5aad4f804b3", "lon": -77.01946, "fusion_lon": 0.0}, {"is_reserved": 0, "type": "electric_scooter", "fusion_lat": 0.0, "is_disabled": 0, "rental_uris": {"ios": "https://dc.lft.to/lastmile_qr_scan", "android": "https://dc.lft.to/lastmile_qr_scan"}, "bike_id": "f33747ed75b134d1b49ff19aae825bf5", "lat": 38.931591833333336, "name": "f33747ed75b134d1b49ff19aae825bf5", "lon": -77.05609683333333, "fusion_lon": 0.0}, {"is_reserved": 0, "type": "electric_scooter", "fusion_lat": 0.0, "is_disabled": 0, "rental_uris": {"ios": "https://dc.lft.to/lastmile_qr_scan", "android": "https://dc.lft.to/lastmile_qr_scan"}, "bike_id": "1a9f4b0c4766fce90d1073fcf3e57766", "lat": 38.91713383333333, "name": "1a9f4b0c4766fce90d1073fcf3e57766", "lon": -77.02983733333333, "fusion_lon": 0.0}, {"is_reserved": 0, "type": "electric_scooter", "fusion_lat": 0.0, "is_disabled": 0, "rental_uris": {"ios": "https://dc.lft.to/lastmile_qr_scan", "android": "https://dc.lft.to/lastmile_qr_scan"}, "bike_id": "9ee1e5daf83fd20fb3f716c0430a3d1b", "lat": 38.907455166666665, "name": "9ee1e5daf83fd20fb3f716c0430a3d1b", "lon": -77.04464416666667, "fusion_lon": 0.0}, {"is_reserved": 0, "type": "electric_scooter", "fusion_lat": 0.0, "is_disabled": 0, "rental_uris": {"ios": "https://dc.lft.to/lastmile_qr_scan", "android": "https://dc.lft.to/lastmile_qr_scan"}, "bike_id": "0413c0fb491b31a0bf279312be2e7596", "lat": 38.90945383333333, "name": "0413c0fb491b31a0bf279312be2e7596", "lon": -76.93594433333334, "fusion_lon": 0.0}, {"is_reserved": 0, "type": "electric_bike", "fusion_lat": 0.0, "is_disabled": 0, "rental_uris": {"ios": "https://dc.lft.to/lastmile_qr_scan", "android": "https://dc.lft.to/lastmile_qr_scan"}, "bike_id": "1a8cd143e355aa580315718d4b6bcc4e", "lat": 38.857901166666664, "name": "1a8cd143e355aa580315718d4b6bcc4e", "lon": -77.099636, "fusion_lon": 0.0}, {"is_reserved": 0, "type": "electric_scooter", "fusion_lat": 0.0, "is_disabled": 0, "rental_uris": {"ios": "https://dc.lft.to/lastmile_qr_scan", "android": "https://dc.lft.to/lastmile_qr_scan"}, "bike_id": "83a62004a7ee40a8cabc30bfb8051218", "lat": 38.900179, "name": "83a62004a7ee40a8cabc30bfb8051218", "lon": -77.02171866666667, "fusion_lon": 0.0}, {"is_reserved": 0, "type": "electric_scooter", "fusion_lat": 0.0, "is_disabled": 0, "rental_uris": {"ios": "https://dc.lft.to/lastmile_qr_scan", "android": "https://dc.lft.to/lastmile_qr_scan"}, "bike_id": "960d6a5f319923f41f90424752372ad6", "lat": 38.9037535, "name": "960d6a5f319923f41f90424752372ad6", "lon": -77.05083616666667, "fusion_lon": 0.0}, {"is_reserved": 0, "type": "electric_scooter", "fusion_lat": 0.0, "is_disabled": 0, "rental_uris": {"ios": "https://dc.lft.to/lastmile_qr_scan", "android": "https://dc.lft.to/lastmile_qr_scan"}, "bike_id": "f405d2893fcbfeac64a580ea2da42f50", "lat": 38.883973833333336, "name": "f405d2893fcbfeac64a580ea2da42f50", "lon": -76.93038683333333, "fusion_lon": 0.0}, {"is_reserved": 0, "type": "electric_scooter", "fusion_lat": 0.0, "is_disabled": 0, "rental_uris": {"ios": "https://dc.lft.to/lastmile_qr_scan", "android": "https://dc.lft.to/lastmile_qr_scan"}, "bike_id": "326629c2e0342c9812cd394ccfd0a66e", "lat": 38.9035795, "name": "326629c2e0342c9812cd394ccfd0a66e", "lon": -77.00564333333334, "fusion_lon": 0.0}, {"is_reserved": 0, "type": "electric_scooter", "fusion_lat": 0.0, "is_disabled": 0, "rental_uris": {"ios": "https://dc.lft.to/lastmile_qr_scan", "android": "https://dc.lft.to/lastmile_qr_scan"}, "bike_id": "a877817b370e93d8a058a43988cd141e", "lat": 38.90561916666667, "name": "a877817b370e93d8a058a43988cd141e", "lon": -77.00599533333333, "fusion_lon": 0.0}, {"is_reserved": 0, "type": "electric_scooter", "fusion_lat": 0.0, "is_disabled": 0, "rental_uris": {"ios": "https://dc.lft.to/lastmile_qr_scan", "android": "https://dc.lft.to/lastmile_qr_scan"}, "bike_id": "ebaa06bbd426bd80bad01c8cd0b0d6f1", "lat": 38.918678666666665, "name": "ebaa06bbd426bd80bad01c8cd0b0d6f1", "lon": -77.01533233333333, "fusion_lon": 0.0}, {"is_reserved": 0, "type": "electric_scooter", "fusion_lat": 0.0, "is_disabled": 0, "rental_uris": {"ios": "https://dc.lft.to/lastmile_qr_scan", "android": "https://dc.lft.to/lastmile_qr_scan"}, "bike_id": "bc0de479af7c80f7b8d98140da5cdbe6", "lat": 38.873685, "name": "bc0de479af7c80f7b8d98140da5cdbe6", "lon": -77.00182533333333, "fusion_lon": 0.0}, {"is_reserved": 0, "type": "electric_scooter", "fusion_lat": 0.0, "is_disabled": 0, "rental_uris": {"ios": "https://dc.lft.to/lastmile_qr_scan", "android": "https://dc.lft.to/lastmile_qr_scan"}, "bike_id": "9cc236fb8085ed4e41d997c463c2f757", "lat": 38.9224305, "name": "9cc236fb8085ed4e41d997c463c2f757", "lon": -77.036661, "fusion_lon": 0.0}, {"is_reserved": 0, "type": "electric_scooter", "fusion_lat": 0.0, "is_disabled": 0, "rental_uris": {"ios": "https://dc.lft.to/lastmile_qr_scan", "android": "https://dc.lft.to/lastmile_qr_scan"}, "bike_id": "14b90b17198f8a6de963d515c2a58026", "lat": 38.878437166666664, "name": "14b90b17198f8a6de963d515c2a58026", "lon": -76.93128933333334, "fusion_lon": 0.0}, {"is_reserved": 0, "type": "electric_bike", "fusion_lat": 0.0, "is_disabled": 0, "rental_uris": {"ios": "https://dc.lft.to/lastmile_qr_scan", "android": "https://dc.lft.to/lastmile_qr_scan"}, "bike_id": "f24ad759dbd6a31b4e9bb94de437a0d9", "lat": 39.0106695, "name": "f24ad759dbd6a31b4e9bb94de437a0d9", "lon": -76.92241683333333, "fusion_lon": 0.0}, {"is_reserved": 0, "type": "electric_scooter", "fusion_lat": 0.0, "is_disabled": 0, "rental_uris": {"ios": "https://dc.lft.to/lastmile_qr_scan", "android": "https://dc.lft.to/lastmile_qr_scan"}, "bike_id": "80562da77105da95ae66ff5fff2d76d3", "lat": 38.90179216666667, "name": "80562da77105da95ae66ff5fff2d76d3", "lon": -76.98839, "fusion_lon": 0.0}, {"is_reserved": 0, "type": "electric_scooter", "fusion_lat": 0.0, "is_disabled": 0, "rental_uris": {"ios": "https://dc.lft.to/lastmile_qr_scan", "android": "https://dc.lft.to/lastmile_qr_scan"}, "bike_id": "4ed0d5a26083ff96207a2bc818c2fee2", "lat": 38.90722516666666, "name": "4ed0d5a26083ff96207a2bc818c2fee2", "lon": -77.04767666666666, "fusion_lon": 0.0}, {"is_reserved": 0, "type": "electric_scooter", "fusion_lat": 0.0, "is_disabled": 0, "rental_uris": {"ios": "https://dc.lft.to/lastmile_qr_scan", "android": "https://dc.lft.to/lastmile_qr_scan"}, "bike_id": "354e97c2ae00d9668178a5b780c09c61", "lat": 38.931313, "name": "354e97c2ae00d9668178a5b780c09c61", "lon": -77.0220105, "fusion_lon": 0.0}, {"is_reserved": 0, "type": "electric_scooter", "fusion_lat": 0.0, "is_disabled": 0, "rental_uris": {"ios": "https://dc.lft.to/lastmile_qr_scan", "android": "https://dc.lft.to/lastmile_qr_scan"}, "bike_id": "41e71ce7c32ae004a83cb038332d3f8a", "lat": 38.88019716666667, "name": "41e71ce7c32ae004a83cb038332d3f8a", "lon": -77.02490183333333, "fusion_lon": 0.0}, {"is_reserved": 0, "type": "electric_scooter", "fusion_lat": 0.0, "is_disabled": 0, "rental_uris": {"ios": "https://dc.lft.to/lastmile_qr_scan", "android": "https://dc.lft.to/lastmile_qr_scan"}, "bike_id": "d3af58d5fed4cdc3a5a861fb5013ad2d", "lat": 38.900821, "name": "d3af58d5fed4cdc3a5a861fb5013ad2d", "lon": -77.02987633333333, "fusion_lon": 0.0}, {"is_reserved": 0, "type": "electric_bike", "fusion_lat": 0.0, "is_disabled": 0, "rental_uris": {"ios": "https://dc.lft.to/lastmile_qr_scan", "android": "https://dc.lft.to/lastmile_qr_scan"}, "bike_id": "8d22c845d01674d39179c5725895eab1", "lat": 38.897292, "name": "8d22c845d01674d39179c5725895eab1", "lon": -76.972368, "fusion_lon": 0.0}, {"is_reserved": 0, "type": "electric_scooter", "fusion_lat": 0.0, "is_disabled": 0, "rental_uris": {"ios": "https://dc.lft.to/lastmile_qr_scan", "android": "https://dc.lft.to/lastmile_qr_scan"}, "bike_id": "7879624aac2bc93e60f338be2261f36c", "lat": 38.972359, "name": "7879624aac2bc93e60f338be2261f36c", "lon": -77.02717716666666, "fusion_lon": 0.0}, {"is_reserved": 0, "type": "electric_scooter", "fusion_lat": 0.0, "is_disabled": 0, "rental_uris": {"ios": "https://dc.lft.to/lastmile_qr_scan", "android": "https://dc.lft.to/lastmile_qr_scan"}, "bike_id": "59622475b768a2bd59432ed242a98ed7", "lat": 38.897840333333335, "name": "59622475b768a2bd59432ed242a98ed7", "lon": -77.05008383333333, "fusion_lon": 0.0}, {"is_reserved": 0, "type": "electric_scooter", "fusion_lat": 0.0, "is_disabled": 0, "rental_uris": {"ios": "https://dc.lft.to/lastmile_qr_scan", "android": "https://dc.lft.to/lastmile_qr_scan"}, "bike_id": "7b23cd28d7379571723b6e98f73d3e27", "lat": 38.94859616666667, "name": "7b23cd28d7379571723b6e98f73d3e27", "lon": -77.07885116666667, "fusion_lon": 0.0}, {"is_reserved": 0, "type": "electric_scooter", "fusion_lat": 0.0, "is_disabled": 0, "rental_uris": {"ios": "https://dc.lft.to/lastmile_qr_scan", "android": "https://dc.lft.to/lastmile_qr_scan"}, "bike_id": "58968d48fdfe70bedc3dd09f9514a92b", "lat": 38.916570666666665, "name": "58968d48fdfe70bedc3dd09f9514a92b", "lon": -77.04175666666667, "fusion_lon": 0.0}, {"is_reserved": 0, "type": "electric_scooter", "fusion_lat": 0.0, "is_disabled": 0, "rental_uris": {"ios": "https://dc.lft.to/lastmile_qr_scan", "android": "https://dc.lft.to/lastmile_qr_scan"}, "bike_id": "930bee5f0ed195d55abf0c0cbb837c75", "lat": 38.92304883333333, "name": "930bee5f0ed195d55abf0c0cbb837c75", "lon": -76.9977105, "fusion_lon": 0.0}, {"is_reserved": 0, "type": "electric_scooter", "fusion_lat": 0.0, "is_disabled": 0, "rental_uris": {"ios": "https://dc.lft.to/lastmile_qr_scan", "android": "https://dc.lft.to/lastmile_qr_scan"}, "bike_id": "025d25a276ce17f16f75167f3c0469f6", "lat": 38.89698816666667, "name": "025d25a276ce17f16f75167f3c0469f6", "lon": -77.04328683333334, "fusion_lon": 0.0}, {"is_reserved": 0, "type": "electric_bike", "fusion_lat": 0.0, "is_disabled": 0, "rental_uris": {"ios": "https://dc.lft.to/lastmile_qr_scan", "android": "https://dc.lft.to/lastmile_qr_scan"}, "bike_id": "d15b58f6bd32eb0125cb26b2e79dd3ed", "lat": 38.9689045, "name": "d15b58f6bd32eb0125cb26b2e79dd3ed", "lon": -76.95576166666666, "fusion_lon": 0.0}, {"is_reserved": 0, "type": "electric_scooter", "fusion_lat": 0.0, "is_disabled": 0, "rental_uris": {"ios": "https://dc.lft.to/lastmile_qr_scan", "android": "https://dc.lft.to/lastmile_qr_scan"}, "bike_id": "9d077b24600834920833009bc8431e90", "lat": 38.93437566666667, "name": "9d077b24600834920833009bc8431e90", "lon": -77.03273983333334, "fusion_lon": 0.0}, {"is_reserved": 0, "type": "electric_scooter", "fusion_lat": 0.0, "is_disabled": 0, "rental_uris": {"ios": "https://dc.lft.to/lastmile_qr_scan", "android": "https://dc.lft.to/lastmile_qr_scan"}, "bike_id": "f1a8fe10352618bf4ba7b39b2bc28d27", "lat": 38.898844833333335, "name": "f1a8fe10352618bf4ba7b39b2bc28d27", "lon": -76.931792, "fusion_lon": 0.0}, {"is_reserved": 0, "type": "electric_scooter", "fusion_lat": 0.0, "is_disabled": 0, "rental_uris": {"ios": "https://dc.lft.to/lastmile_qr_scan", "android": "https://dc.lft.to/lastmile_qr_scan"}, "bike_id": "b497ca4f5154067df7c20d4c94405031", "lat": 38.91335, "name": "b497ca4f5154067df7c20d4c94405031", "lon": -77.03040666666666, "fusion_lon": 0.0}, {"is_reserved": 0, "type": "electric_scooter", "fusion_lat": 0.0, "is_disabled": 0, "rental_uris": {"ios": "https://dc.lft.to/lastmile_qr_scan", "android": "https://dc.lft.to/lastmile_qr_scan"},