{"data": {"bikes": [{"fusion_lon": 0.0, "name": "8b0f7d88515ce7fc2d4986671ece6f8c", "rental_uris": {"android": "https://dc.lft.to/lastmile_qr_scan", "ios": "https://dc.lft.to/lastmile_qr_scan"}, "lat": 38.903714, "bike_id": "8b0f7d88515ce7fc2d4986671ece6f8c", "is_disabled": 0, "lon": -77.01755283333334, "is_reserved": 0, "fusion_lat": 0.0, "type": "electric_scooter"}, {"fusion_lon": 0.0, "name": "3c56e23bb45698640aad169c7b6c8275", "rental_uris": {"android": "https://dc.lft.to/lastmile_qr_scan", "ios": "https://dc.lft.to/lastmile_qr_scan"}, "lat": 38.9167245, "bike_id": "3c56e23bb45698640aad169c7b6c8275", "is_disabled": 0, "lon": -77.04601083333333, "is_reserved": 0, "fusion_lat": 0.0, "type": "electric_scooter"}, {"fusion_lon": 0.0, "name": "b01b5383f3313262a65b4587cede703a", "rental_uris": {"android": "https://dc.lft.to/lastmile_qr_scan", "ios": "https://dc.lft.to/lastmile_qr_scan"}, "lat": 38.92816033333333, "bike_id": "b01b5383f3313262a65b4587cede703a", "is_disabled": 0, "lon": -77.03150633333334, "is_reserved": 0, "fusion_lat": 0.0, "type": "electric_scooter"}, {"fusion_lon": 0.0, "name": "1317160424e0402878cd56f6f63ea2eb", "rental_uris": {"android": "https://dc.lft.to/lastmile_qr_scan", "ios": "https://dc.lft.to/lastmile_qr_scan"}, "lat": 38.8405205, "bike_id": "1317160424e0402878cd56f6f63ea2eb", "is_disabled": 0, "lon": -76.97667466666667, "is_reserved": 0, "fusion_lat": 0.0, "type": "electric_scooter"}, {"fusion_lon": 0.0, "name": "05147685eb44d054044962ca88b38232", "rental_uris": {"android": "https://dc.lft.to/lastmile_qr_scan", "ios": "https://dc.lft.to/lastmile_qr_scan"}, "lat": 38.9170775, "bike_id": "05147685eb44d054044962ca88b38232", "is_disabled": 0, "lon": -77.04224133333334, "is_reserved": 0, "fusion_lat": 0.0, "type": "electric_scooter"}, {"fusion_lon": 0.0, "name": "74670c2589c12c49a6175d620bf577a7", "rental_uris": {"android": "https://dc.lft.to/lastmile_qr_scan", "ios": "https://dc.lft.to/lastmile_qr_scan"}, "lat": 38.900356333333335, "bike_id": "74670c2589c12c49a6175d620bf577a7", "is_disabled": 0, "lon": -76.98839616666666, "is_reserved": 0, "fusion_lat": 0.0, "type": "electric_scooter"}, {"fusion_lon": 0.0, "name": "222a9f3494f92f0c1f46379cf710101e", "rental_uris": {"android": "https://dc.lft.to/lastmile_qr_scan", "ios": "https://dc.lft.to/lastmile_qr_scan"}, "lat": 38.80684983333333, "bike_id": "222a9f3494f92f0c1f46379cf710101e", "is_disabled": 0, "lon": -77.13382566666667, "is_reserved": 0, "fusion_lat": 0.0, "type": "electric_bike"}, {"fusion_lon": 0.0, "name": "3bf6d33d961762f0d7bf7a890d6de4aa", "rental_uris": {"android": "https://dc.lft.to/lastmile_qr_scan", "ios": "https://dc.lft.to/lastmile_qr_scan"}, "lat": 38.90732333333333, "bike_id": "3bf6d33d961762f0d7bf7a890d6de4aa", "is_disabled": 0, "lon": -77.02801733333334, "is_reserved": 0, "fusion_lat": 0.0, "type": "electric_scooter"}, {"fusion_lon": 0.0, "name": "1574f90a8e77c4770e206be7ed7afe5c", "rental_uris": {"android": "https://dc.lft.to/lastmile_qr_scan", "ios": "https://dc.lft.to/lastmile_qr_scan"}, "lat": 38.9018045, "bike_id": "1574f90a8e77c4770e206be7ed7afe5c", "is_disabled": 0, "lon": -77.0240215, "is_reserved": 0, "fusion_lat": 0.0, "type": "electric_scooter"}, {"fusion_lon": 0.0, "name": "66a92d76b1a8f9c0404df41ba81e7a26", "rental_uris": {"android": "https://dc.lft.to/lastmile_qr_scan", "ios": "https://dc.lft.to/lastmile_qr_scan"}, "lat": 38.9224845, "bike_id": "66a92d76b1a8f9c0404df41ba81e7a26", "is_disabled": 0, "lon": -77.030868, "is_reserved": 0, "fusion_lat": 0.0, "type": "electric_scooter"}, {"fusion_lon": 0.0, "name": "2eaf7850aafa3fe5c0c3650a160c8b3b", "rental_uris": {"android": "https://dc.lft.to/lastmile_qr_scan", "ios": "https://dc.lft.to/lastmile_qr_scan"}, "lat": 38.898818, "bike_id": "2eaf7850aafa3fe5c0c3650a160c8b3b", "is_disabled": 0, "lon": -77.03281683333333, "is_reserved": 0, "fusion_lat": 0.0, "type": "electric_scooter"}, {"fusion_lon": 0.0, "name": "49cf6eadda88573db7dc8e21ccd96638", "rental_uris": {"android": "https://dc.lft.to/lastmile_qr_scan", "ios": "https://dc.lft.to/lastmile_qr_scan"}, "lat": 38.94262416666667, "bike_id": "49cf6eadda88573db7dc8e21ccd96638", "is_disabled": 0, "lon": -76.9907485, "is_reserved": 0, "fusion_lat": 0.0, "type": "electric_bike"}, {"fusion_lon": 0.0, "name": "a9fd32ae0167879fd7ad911db7b87179", "rental_uris": {"android": "https://dc.lft.to/lastmile_qr_scan", "ios": "https://dc.lft.to/lastmile_qr_scan"}, "lat": 38.964015, "bike_id": "a9fd32ae0167879fd7ad911db7b87179", "is_disabled": 0, "lon": -77.02776666666666, "is_reserved": 0, "fusion_lat": 0.0, "type": "electric_scooter"}, {"fusion_lon": 0.0, "name": "25b4c22849310c4545d89255243256cf", "rental_uris": {"android": "https://dc.lft.to/lastmile_qr_scan", "ios": "https://dc.lft.to/lastmile_qr_scan"}, "lat": 38.90942116666667, "bike_id": "25b4c22849310c4545d89255243256cf", "is_disabled": 0, "lon": -77.0344675, "is_reserved": 0, "fusion_lat": 0.0, "type": "electric_scooter"}, {"fusion_lon": 0.0, "name": "8ca29411db3d92869c336783604c3201", "rental_uris": {"android": "https://dc.lft.to/lastmile_qr_scan", "ios": "https://dc.lft.to/lastmile_qr_scan"}, "lat": 38.8973505, "bike_id": "8ca29411db3d92869c336783604c3201", "is_disabled": 0, "lon": -77.0255075, "is_reserved": 0, "fusion_lat": 0.0, "type": "electric_scooter"}, {"fusion_lon": 0.0, "name": "b7fc13e1fa386b39978d9014054227f5", "rental_uris": {"android": "https://dc.lft.to/lastmile_qr_scan", "ios": "https://dc.lft.to/lastmile_qr_scan"}, "lat": 38.9220345, "bike_id": "b7fc13e1fa386b39978d9014054227f5", "is_disabled": 0, "lon": -76.98369216666667, "is_reserved": 0, "fusion_lat": 0.0, "type": "electric_scooter"}, {"fusion_lon": 0.0, "name": "3846dca5f697119435eaa564a572ddce", "rental_uris": {"android": "https://dc.lft.to/lastmile_qr_scan", "ios": "https://dc.lft.to/lastmile_qr_scan"}, "lat": 38.90247983333333, "bike_id": "3846dca5f697119435eaa564a572ddce", "is_disabled": 0, "lon": -77.01804966666667, "is_reserved": 0, "fusion_lat": 0.0, "type": "electric_scooter"}, {"fusion_lon": 0.0, "name": "0e74af224d3fdc1660b767fe00ce79de", "rental_uris": {"android": "https://dc.lft.to/lastmile_qr_scan", "ios": "https://dc.lft.to/lastmile_qr_scan"}, "lat": 38.905692, "bike_id": "0e74af224d3fdc1660b767fe00ce79de", "is_disabled": 0, "lon": -77.021794, "is_reserved": 0, "fusion_lat": 0.0, "type": "electric_scooter"}, {"fusion_lon": 0.0, "name": "9eb2cc55968b6da8c84b70678b092866", "rental_uris": {"android": "https://dc.lft.to/lastmile_qr_scan", "ios": "https://dc.lft.to/lastmile_qr_scan"}, "lat": 38.8600985, "bike_id": "9eb2cc55968b6da8c84b70678b092866", "is_disabled": 0, "lon": -77.06531483333333, "is_reserved": 0, "fusion_lat": 0.0, "type": "electric_bike"}, {"fusion_lon": 0.0, "name": "f9cec43fd47b912735ee01961bf26b05", "rental_uris": {"android": "https://dc.lft.to/lastmile_qr_scan", "ios": "https://dc.lft.to/lastmile_qr_scan"}, "lat": 38.94180883333333, "bike_id": "f9cec43fd47b912735ee01961bf26b05", "is_disabled": 0, "lon": -77.02490416666667, "is_reserved": 0, "fusion_lat": 0.0, "type": "electric_scooter"}, {"fusion_lon": 0.0, "name": "806f88b92821307881f33d7403852125", "rental_uris": {"android": "https://dc.lft.to/lastmile_qr_scan", "ios": "https://dc.lft.to/lastmile_qr_scan"}, "lat": 38.88071266666667, "bike_id": "806f88b92821307881f33d7403852125", "is_disabled": 0, "lon": -77.00536616666666, "is_reserved": 0, "fusion_lat": 0.0, "type": "electric_scooter"}, {"fusion_lon": 0.0, "name": "c54f1137351f5e1b2f4d524c342b589d", "rental_uris": {"android": "https://dc.lft.to/lastmile_qr_scan", "ios": "https://dc.lft.to/lastmile_qr_scan"}, "lat": 38.907335, "bike_id": "c54f1137351f5e1b2f4d524c342b589d", "is_disabled": 0, "lon": -77.031982, "is_reserved": 0, "fusion_lat": 0.0, "type": "electric_scooter"}, {"fusion_lon": 0.0, "name": "70b166a5fd4eb18aeb62727555161ae4", "rental_uris": {"android": "https://dc.lft.to/lastmile_qr_scan", "ios": "https://dc.lft.to/lastmile_qr_scan"}, "lat": 38.87342, "bike_id": "70b166a5fd4eb18aeb62727555161ae4", "is_disabled": 0, "lon": -76.991646, "is_reserved": 0, "fusion_lat": 0.0, "type": "electric_scooter"}, {"fusion_lon": 0.0, "name": "78838bd4fc7aee47a8e1825d78f42188", "rental_uris": {"android": "https://dc.lft.to/lastmile_qr_scan", "ios": "https://dc.lft.to/lastmile_qr_scan"}, "lat": 38.900553, "bike_id": "78838bd4fc7aee47a8e1825d78f42188", "is_disabled": 0, "lon": -77.02604833333334, "is_reserved": 0, "fusion_lat": 0.0, "type": "electric_scooter"}, {"fusion_lon": 0.0, "name": "e870fc2c576b5154720dd47ee001ec43", "rental_uris": {"android": "https://dc.lft.to/lastmile_qr_scan", "ios": "https://dc.lft.to/lastmile_qr_scan"}, "lat": 38.942294, "bike_id": "e870fc2c576b5154720dd47ee001ec43", "is_disabled": 0, "lon": -77.01438016666667, "is_reserved": 0, "fusion_lat": 0.0, "type": "electric_scooter"}, {"fusion_lon": 0.0, "name": "7d408f1510798a4db5a310a0ca1d4aba", "rental_uris": {"android": "https://dc.lft.to/lastmile_qr_scan", "ios": "https://dc.lft.to/lastmile_qr_scan"}, "lat": 38.892006, "bike_id": "7d408f1510798a4db5a310a0ca1d4aba", "is_disabled": 0, "lon": -77.00194533333334, "is_reserved": 0, "fusion_lat": 0.0, "type": "electric_scooter"}, {"fusion_lon": 0.0, "name": "228998f4196da9368e8012023ac83d6c", "rental_uris": {"android": "https://dc.lft.to/lastmile_qr_scan", "ios": "https://dc.lft.to/lastmile_qr_scan"}, "lat": 38.929734333333336, "bike_id": "228998f4196da9368e8012023ac83d6c", "is_disabled": 0, "lon": -77.03176966666666, "is_reserved": 0, "fusion_lat": 0.0, "type": "electric_scooter"}, {"fusion_lon": 0.0, "name": "81c69e36a01f5a72367ae3e5eac166a1", "rental_uris": {"android": "https://dc.lft.to/lastmile_qr_scan", "ios": "https://dc.lft.to/lastmile_qr_scan"}, "lat": 38.90695933333333, "bike_id": "81c69e36a01f5a72367ae3e5eac166a1", "is_disabled": 0, "lon": -76.95254766666666, "is_reserved": 0, "fusion_lat": 0.0, "type": "electric_bike"}, {"fusion_lon": 0.0, "name": "73c3c3149347b4bb47f610d4af1b174e", "rental_uris": {"android": "https://dc.lft.to/lastmile_qr_scan", "ios": "https://dc.lft.to/lastmile_qr_scan"}, "lat": 38.90029066666666, "bike_id": "73c3c3149347b4bb47f610d4af1b174e", "is_disabled": 0, "lon": -76.998665, "is_reserved": 0, "fusion_lat": 0.0, "type": "electric_scooter"}, {"fusion_lon": 0.0, "name": "be1a46afeac53ec75a8abde59fb51ee6", "rental_uris": {"android": "https://dc.lft.to/lastmile_qr_scan", "ios": "https://dc.lft.to/lastmile_qr_scan"}, "lat": 38.880016166666664, "bike_id": "be1a46afeac53ec75a8abde59fb51ee6", "is_disabled": 0, "lon": -77.00519216666666, "is_reserved": 0, "fusion_lat": 0.0, "type": "electric_scooter"}, {"fusion_lon": 0.0, "name": "67ccd8287161b7c63f529f39c68e2717", "rental_uris": {"android": "https://dc.lft.to/lastmile_qr_scan", "ios": "https://dc.lft.to/lastmile_qr_scan"}, "lat": 38.9168175, "bike_id": "67ccd8287161b7c63f529f39c68e2717", "is_disabled": 0, "lon": -77.04617866666666, "is_reserved": 0, "fusion_lat": 0.0, "type": "electric_scooter"}, {"fusion_lon": 0.0, "name": "68c55ef06703fda2a0392282546cfac7", "rental_uris": {"android": "https://dc.lft.to/lastmile_qr_scan", "ios": "https://dc.lft.to/lastmile_qr_scan"}, "lat": 38.956100666666664, "bike_id": "68c55ef06703fda2a0392282546cfac7", "is_disabled": 0, "lon": -77.01000816666667, "is_reserved": 0, "fusion_lat": 0.0, "type": "electric_bike"}, {"fusion_lon": 0.0, "name": "17ba8b381baeaaa95f60dcb8b6896706", "rental_uris": {"android": "https://dc.lft.to/lastmile_qr_scan", "ios": "https://dc.lft.to/lastmile_qr_scan"}, "lat": 38.89997833333334, "bike_id": "17ba8b381baeaaa95f60dcb8b6896706", "is_disabled": 0, "lon": -76.99485266666667, "is_reserved": 0, "fusion_lat": 0.0, "type": "electric_scooter"}, {"fusion_lon": 0.0, "name": "e78893354f3b1bec80cccdf77097b157", "rental_uris": {"android": "https://dc.lft.to/lastmile_qr_scan", "ios": "https://dc.lft.to/lastmile_qr_scan"}, "lat": 38.91568183333333, "bike_id": "e78893354f3b1bec80cccdf77097b157", "is_disabled": 0, "lon": -77.01260433333333, "is_reserved": 0, "fusion_lat": 0.0, "type": "electric_scooter"}, {"fusion_lon": 0.0, "name": "63cc7c880bd5c81e905a67895bef645e", "rental_uris": {"android": "https://dc.lft.to/lastmile_qr_scan", "ios": "https://dc.lft.to/lastmile_qr_scan"}, "lat": 38.9244715, "bike_id": "63cc7c880bd5c81e905a67895bef645e", "is_disabled": 0, "lon": -77.03404616666667, "is_reserved": 0, "fusion_lat": 0.0, "type": "electric_scooter"}, {"fusion_lon": 0.0, "name": "28966b16aef96965f7d1ac0618cef0b7", "rental_uris": {"android": "https://dc.lft.to/lastmile_qr_scan", "ios": "https://dc.lft.to/lastmile_qr_scan"}, "lat": 38.926805333333334, "bike_id": "28966b16aef96965f7d1ac0618cef0b7", "is_disabled": 0, "lon": -77.02578466666667, "is_reserved": 0, "fusion_lat": 0.0, "type": "electric_scooter"}, {"fusion_lon": 0.0, "name": "f679e34468fd2cd0bbc473242444e2f6", "rental_uris": {"android": "https://dc.lft.to/lastmile_qr_scan", "ios": "https://dc.lft.to/lastmile_qr_scan"}, "lat": 38.92074566666667, "bike_id": "f679e34468fd2cd0bbc473242444e2f6", "is_disabled": 0, "lon": -77.02280116666667, "is_reserved": 0, "fusion_lat": 0.0, "type": "electric_scooter"}, {"fusion_lon": 0.0, "name": "14370ab913db8fb087734bd46b8b4703", "rental_uris": {"android": "https://dc.lft.to/lastmile_qr_scan", "ios": "https://dc.lft.to/lastmile_qr_scan"}, "lat": 38.907319333333334, "bike_id": "14370ab913db8fb087734bd46b8b4703", "is_disabled": 0, "lon": -77.0279525, "is_reserved": 0, "fusion_lat": 0.0, "type": "electric_scooter"}, {"fusion_lon": 0.0, "name": "4a3eba40ee88a21ef8679ff5b0db5a25", "rental_uris": {"android": "https://dc.lft.to/lastmile_qr_scan", "ios": "https://dc.lft.to/lastmile_qr_scan"}, "lat": 38.92055766666667, "bike_id": "4a3eba40ee88a21ef8679ff5b0db5a25", "is_disabled": 0, "lon": -76.998742, "is_reserved": 0, "fusion_lat": 0.0, "type": "electric_scooter"}, {"fusion_lon": 0.0, "name": "e5f2089500f1fbe138207edd1b1a2e24", "rental_uris": {"android": "https://dc.lft.to/lastmile_qr_scan", "ios": "https://dc.lft.to/lastmile_qr_scan"}, "lat": 38.9208785, "bike_id": "e5f2089500f1fbe138207edd1b1a2e24", "is_disabled": 0, "lon": -77.023044, "is_reserved": 0, "fusion_lat": 0.0, "type": "electric_scooter"}, {"fusion_lon": 0.0, "name": "be5a39bf1373e8b4ca9c3d588bbc6d33", "rental_uris": {"android": "https://dc.lft.to/lastmile_qr_scan", "ios": "https://dc.lft.to/lastmile_qr_scan"}, "lat": 38.9161855, "bike_id": "be5a39bf1373e8b4ca9c3d588bbc6d33", "is_disabled": 0, "lon": -77.04154816666667, "is_reserved": 0, "fusion_lat": 0.0, "type": "electric_scooter"}, {"fusion_lon": 0.0, "name": "6cf3c2a0d83275b7304ec2d9dc5f6ddf", "rental_uris": {"android": "https://dc.lft.to/lastmile_qr_scan", "ios": "https://dc.lft.to/lastmile_qr_scan"}, "lat": 38.92377166666667, "bike_id": "6cf3c2a0d83275b7304ec2d9dc5f6ddf", "is_disabled": 0, "lon": -77.03057633333333, "is_reserved": 0, "fusion_lat": 0.0, "type": "electric_scooter"}, {"fusion_lon": 0.0, "name": "19f8baabfda9f56505842c59bb2bd1e8", "rental_uris": {"android": "https://dc.lft.to/lastmile_qr_scan", "ios": "https://dc.lft.to/lastmile_qr_scan"}, "lat": 38.91689516666667, "bike_id": "19f8baabfda9f56505842c59bb2bd1e8", "is_disabled": 0, "lon": -77.0382915, "is_reserved": 0, "fusion_lat": 0.0, "type": "electric_scooter"}, {"fusion_lon": 0.0, "name": "7c7e77b561a51cc93d465e70f7b70535", "rental_uris": {"android": "https://dc.lft.to/lastmile_qr_scan", "ios": "https://dc.lft.to/lastmile_qr_scan"}, "lat": 38.9062465, "bike_id": "7c7e77b561a51cc93d465e70f7b70535", "is_disabled": 0, "lon": -76.99324516666667, "is_reserved": 0, "fusion_lat": 0.0, "type": "electric_scooter"}, {"fusion_lon": 0.0, "name": "94aa011c618f24e378d75ffdff2f8d36", "rental_uris": {"android": "https://dc.lft.to/lastmile_qr_scan", "ios": "https://dc.lft.to/lastmile_qr_scan"}, "lat": 38.900898833333336, "bike_id": "94aa011c618f24e378d75ffdff2f8d36", "is_disabled": 0, "lon": -77.0217095, "is_reserved": 0, "fusion_lat": 0.0, "type": "electric_scooter"}, {"fusion_lon": 0.0, "name": "999e2f5795a32ce2497cfb7c81a1023f", "rental_uris": {"android": "https://dc.lft.to/lastmile_qr_scan", "ios": "https://dc.lft.to/lastmile_qr_scan"}, "lat": 38.905705, "bike_id": "999e2f5795a32ce2497cfb7c81a1023f", "is_disabled": 0, "lon": -77.0217245, "is_reserved": 0, "fusion_lat": 0.0, "type": "electric_scooter"}, {"fusion_lon": 0.0, "name": "9226477e3cde31dacc8fa6fb8e6ba4e8", "rental_uris": {"android": "https://dc.lft.to/lastmile_qr_scan", "ios": "https://dc.lft.to/lastmile_qr_scan"}, "lat": 38.908645166666666, "bike_id": "9226477e3cde31dacc8fa6fb8e6ba4e8", "is_disabled": 0, "lon": -77.03224316666666, "is_reserved": 0, "fusion_lat": 0.0, "type": "electric_scooter"}, {"fusion_lon": 0.0, "name": "cfbfb96f0976979a19263f34a39c2a9b", "rental_uris": {"android": "https://dc.lft.to/lastmile_qr_scan", "ios": "https://dc.lft.to/lastmile_qr_scan"}, "lat": 38.87526233333333, "bike_id": "cfbfb96f0976979a19263f34a39c2a9b", "is_disabled": 0, "lon": -77.01232033333334, "is_reserved": 0, "fusion_lat": 0.0, "type": "electric_scooter"}, {"fusion_lon": 0.0, "name": "c4dd36db8ce572983fac87415f6dc63e", "rental_uris": {"android": "https://dc.lft.to/lastmile_qr_scan", "ios": "https://dc.lft.to/lastmile_qr_scan"}, "lat": 38.92261466666667, "bike_id": "c4dd36db8ce572983fac87415f6dc63e", "is_disabled": 0, "lon": -76.98646016666666, "is_reserved": 0, "fusion_lat": 0.0, "type": "electric_scooter"}, {"fusion_lon": 0.0, "name": "2f44160a40417c534a1f2c6170ef6231", "rental_uris": {"android": "https://dc.lft.to/lastmile_qr_scan", "ios": "https://dc.lft.to/lastmile_qr_scan"}, "lat": 38.97325266666667, "bike_id": "2f44160a40417c534a1f2c6170ef6231", "is_disabled": 0, "lon": -77.02701416666666, "is_reserved": 0, "fusion_lat": 0.0, "type": "electric_scooter"}, {"fusion_lon": 0.0, "name": "8ce4f89403efdacb641600ccdc38d948", "rental_uris": {"android": "https://dc.lft.to/lastmile_qr_scan", "ios": "https://dc.lft.to/lastmile_qr_scan"}, "lat": 38.91680916666667, "bike_id": "8ce4f89403efdacb641600ccdc38d948", "is_disabled": 0, "lon": -77.028169, "is_reserved": 0, "fusion_lat": 0.0, "type": "electric_scooter"}, {"fusion_lon": 0.0, "name": "8456a22452b747311487187217f9b266", "rental_uris": {"android": "https://dc.lft.to/lastmile_qr_scan", "ios": "https://dc.lft.to/lastmile_qr_scan"}, "lat": 38.92402283333333, "bike_id": "8456a22452b747311487187217f9b266", "is_disabled": 0, "lon": -76.99371383333333, "is_reserved": 0, "fusion_lat": 0.0, "type": "electric_scooter"}, {"fusion_lon": 0.0, "name": "4229ab7a1d2e6da28368c93dd9a58547", "rental_uris": {"android": "https://dc.lft.to/lastmile_qr_scan", "ios": "https://dc.lft.to/lastmile_qr_scan"}, "lat": 38.8812815, "bike_id": "4229ab7a1d2e6da28368c93dd9a58547", "is_disabled": 0, "lon": -77.01673633333333, "is_reserved": 0, "fusion_lat": 0.0, "type": "electric_bike"}, {"fusion_lon": 0.0, "name": "d9d675095961da5085a0b626e7d297db", "rental_uris": {"android": "https://dc.lft.to/lastmile_qr_scan", "ios": "https://dc.lft.to/lastmile_qr_scan"}, "lat": 38.902059, "bike_id": "d9d675095961da5085a0b626e7d297db", "is_disabled": 0, "lon": -77.01224233333333, "is_reserved": 0, "fusion_lat": 0.0, "type": "electric_scooter"}, {"fusion_lon": 0.0, "name": "08aedc5c4cd120d0f1bb116c333f6557", "rental_uris": {"android": "https://dc.lft.to/lastmile_qr_scan", "ios": "https://dc.lft.to/lastmile_qr_scan"}, "lat": 38.90168216666667, "bike_id": "08aedc5c4cd120d0f1bb116c333f6557", "is_disabled": 0, "lon": -76.9497735, "is_reserved": 0, "fusion_lat": 0.0, "type": "electric_scooter"}, {"fusion_lon": 0.0, "name": "5400882ec3e506403fb99cd0ec9a0675", "rental_uris": {"android": "https://dc.lft.to/lastmile_qr_scan", "ios": "https://dc.lft.to/lastmile_qr_scan"}, "lat": 38.920140333333336, "bike_id": "5400882ec3e506403fb99cd0ec9a0675", "is_disabled": 0, "lon": -77.0217675, "is_reserved": 0, "fusion_lat": 0.0, "type": "electric_scooter"}, {"fusion_lon": 0.0, "name": "945c79fba4f200380c987a19a424acb6", "rental_uris": {"android": "https://dc.lft.to/lastmile_qr_scan", "ios": "https://dc.lft.to/lastmile_qr_scan"}, "lat": 38.92829666666667, "bike_id": "945c79fba4f200380c987a19a424acb6", "is_disabled": 0, "lon": -77.023325, "is_reserved": 0, "fusion_lat": 0.0, "type": "electric_scooter"}, {"fusion_lon": 0.0, "name": "e04851562e111390d6d8a2c3b1cffd51", "rental_uris": {"android": "https://dc.lft.to/lastmile_qr_scan", "ios": "https://dc.lft.to/lastmile_qr_scan"}, "lat": 38.931956666666665, "bike_id": "e04851562e111390d6d8a2c3b1cffd51", "is_disabled": 0, "lon": -77.0282055, "is_reserved": 0, "fusion_lat": 0.0, "type": "electric_scooter"}, {"fusion_lon": 0.0, "name": "676e1809b146cfe572559003d8f56ab6", "rental_uris": {"android": "https://dc.lft.to/lastmile_qr_scan", "ios": "https://dc.lft.to/lastmile_qr_scan"}, "lat": 38.902207833333335, "bike_id": "676e1809b146cfe572559003d8f56ab6", "is_disabled": 0, "lon": -77.04599883333333, "is_reserved": 0, "fusion_lat": 0.0, "type": "electric_scooter"}, {"fusion_lon": 0.0, "name": "3f2ad4f9b10f4938ece1e39928baea01", "rental_uris": {"android": "https://dc.lft.to/lastmile_qr_scan", "ios": "https://dc.lft.to/lastmile_qr_scan"}, "lat": 38.89224266666667, "bike_id": "3f2ad4f9b10f4938ece1e39928baea01", "is_disabled": 0, "lon": -77.02166033333333, "is_reserved": 0, "fusion_lat": 0.0, "type": "electric_scooter"}, {"fusion_lon": 0.0, "name": "873534a91014086b761a55639f942fe4", "rental_uris": {"android": "https://dc.lft.to/lastmile_qr_scan", "ios": "https://dc.lft.to/lastmile_qr_scan"}, "lat": 38.8846565, "bike_id": "873534a91014086b761a55639f942fe4", "is_disabled": 0, "lon": -76.9260515, "is_reserved": 0, "fusion_lat": 0.0, "type": "electric_scooter"}, {"fusion_lon": 0.0, "name": "cea4c420a00f4a4007eed08efaf4d5e8", "rental_uris": {"android": "https://dc.lft.to/lastmile_qr_scan", "ios": "https://dc.lft.to/lastmile_qr_scan"}, "lat": 38.922103666666665, "bike_id": "cea4c420a00f4a4007eed08efaf4d5e8", "is_disabled": 0, "lon": -77.02654816666667, "is_reserved": 0, "fusion_lat": 0.0, "type": "electric_scooter"}, {"fusion_lon": 0.0, "name": "972ec71cf136f387028624db7bde4744", "rental_uris": {"android": "https://dc.lft.to/lastmile_qr_scan", "ios": "https://dc.lft.to/lastmile_qr_scan"}, "lat": 38.918176833333334, "bike_id": "972ec71cf136f387028624db7bde4744", "is_disabled": 0, "lon": -77.0366605, "is_reserved": 0, "fusion_lat": 0.0, "type": "electric_scooter"}, {"fusion_lon": 0.0, "name": "f5dcc543529f4bc4f4c6cd93177fe7bd", "rental_uris": {"android": "https://dc.lft.to/lastmile_qr_scan", "ios": "https://dc.lft.to/lastmile_qr_scan"}, "lat": 38.914214666666666, "bike_id": "f5dcc543529f4bc4f4c6cd93177fe7bd", "is_disabled": 0, "lon": -77.01803533333333, "is_reserved": 0, "fusion_lat": 0.0, "type": "electric_scooter"}, {"fusion_lon": 0.0, "name": "27736596f8dcc2e04687c3e1f00299f7", "rental_uris": {"android": "https://dc.lft.to/lastmile_qr_scan", "ios": "https://dc.lft.to/lastmile_qr_scan"}, "lat": 38.921066, "bike_id": "27736596f8dcc2e04687c3e1f00299f7", "is_disabled": 0, "lon": -77.04390683333334, "is_reserved": 0, "fusion_lat": 0.0, "type": "electric_scooter"}, {"fusion_lon": 0.0, "name": "f6e36d6ff18b6eff4404d8eb12808295", "rental_uris": {"android": "https://dc.lft.to/lastmile_qr_scan", "ios": "https://dc.lft.to/lastmile_qr_scan"}, "lat": 38.84639583333333, "bike_id": "f6e36d6ff18b6eff4404d8eb12808295", "is_disabled": 0, "lon": -76.97070816666667, "is_reserved": 0, "fusion_lat": 0.0, "type": "electric_bike"}, {"fusion_lon": 0.0, "name": "47427eaf0e2092d21cc7cf9b77e47b72", "rental_uris": {"android": "https://dc.lft.to/lastmile_qr_scan", "ios": "https://dc.lft.to/lastmile_qr_scan"}, "lat": 38.87912216666667, "bike_id": "47427eaf0e2092d21cc7cf9b77e47b72", "is_disabled": 0, "lon": -77.00988816666667, "is_reserved": 0, "fusion_lat": 0.0, "type": "electric_scooter"}, {"fusion_lon": 0.0, "name": "a0e751cf8bb23b9d90ac9b3efeb61855", "rental_uris": {"android": "https://dc.lft.to/lastmile_qr_scan", "ios": "https://dc.lft.to/lastmile_qr_scan"}, "lat": 38.93062466666667, "bike_id": "a0e751cf8bb23b9d90ac9b3efeb61855", "is_disabled": 0, "lon": -77.0278665, "is_reserved": 0, "fusion_lat": 0.0, "type": "electric_scooter"}, {"fusion_lon": 0.0, "name": "02c87ffd71558d02b70e0326120b9b79", "rental_uris": {"android": "https://dc.lft.to/lastmile_qr_scan", "ios": "https://dc.lft.to/lastmile_qr_scan"}, "lat": 38.90856933333333, "bike_id": "02c87ffd71558d02b70e0326120b9b79", "is_disabled": 0, "lon": -77.034291, "is_reserved": 0, "fusion_lat": 0.0, "type": "electric_scooter"}, {"fusion_lon": 0.0, "name": "64b45929a3956822b45c7590961690aa", "rental_uris": {"android": "https://dc.lft.to/lastmile_qr_scan", "ios": "https://dc.lft.to/lastmile_qr_scan"}, "lat": 38.92253933333333, "bike_id": "64b45929a3956822b45c7590961690aa", "is_disabled": 0, "lon": -77.03074883333333, "is_reserved": 0, "fusion_lat": 0.0, "type": "electric_scooter"}, {"fusion_lon": 0.0, "name": "fc90e005990282157f9827e949b8dbe8", "rental_uris": {"android": "https://dc.lft.to/lastmile_qr_scan", "ios": "https://dc.lft.to/lastmile_qr_scan"}, "lat": 38.9136485, "bike_id": "fc90e005990282157f9827e949b8dbe8", "is_disabled": 0, "lon": -77.09191666666666, "is_reserved": 0, "fusion_lat": 0.0, "type": "electric_scooter"}, {"fusion_lon": 0.0, "name": "840334d338ebb753e08d4162564d2ad4", "rental_uris": {"android": "https://dc.lft.to/lastmile_qr_scan", "ios": "https://dc.lft.to/lastmile_qr_scan"}, "lat": 38.89619016666666, "bike_id": "840334d338ebb753e08d4162564d2ad4", "is_disabled": 0, "lon": -77.02369366666667, "is_reserved": 0, "fusion_lat": 0.0, "type": "electric_scooter"}, {"fusion_lon": 0.0, "name": "3c9862f84801457bdc05be288ee89e00", "rental_uris": {"android": "https://dc.lft.to/lastmile_qr_scan", "ios": "https://dc.lft.to/lastmile_qr_scan"}, "lat": 38.900179666666666, "bike_id": "3c9862f84801457bdc05be288ee89e00", "is_disabled": 0, "lon": -77.041975, "is_reserved": 0, "fusion_lat": 0.0, "type": "electric_scooter"}, {"fusion_lon": 0.0, "name": "8263f170bb8c5d052799b5788d7a2f14", "rental_uris": {"android": "https://dc.lft.to/lastmile_qr_scan", "ios": "https://dc.lft.to/lastmile_qr_scan"}, "lat": 38.902196, "bike_id": "8263f170bb8c5d052799b5788d7a2f14", "is_disabled": 0, "lon": -77.02375816666667, "is_reserved": 0, "fusion_lat": 0.0, "type": "electric_scooter"}, {"fusion_lon": 0.0, "name": "363342e62c38b422a3944945199f3bbc", "rental_uris": {"android": "https://dc.lft.to/lastmile_qr_scan", "ios": "https://dc.lft.to/lastmile_qr_scan"}, "lat": 38.881371, "bike_id": "363342e62c38b422a3944945199f3bbc", "is_disabled": 0, "lon": -77.02233366666667, "is_reserved": 0, "fusion_lat": 0.0, "type": "electric_scooter"}, {"fusion_lon": 0.0, "name": "803479236032f90914df847ce78a2c58", "rental_uris": {"android": "https://dc.lft.to/lastmile_qr_scan", "ios": "https://dc.lft.to/lastmile_qr_scan"}, "lat": 38.892146333333336, "bike_id": "803479236032f90914df847ce78a2c58", "is_disabled": 0, "lon": -76.99568583333334, "is_reserved": 0, "fusion_lat": 0.0, "type": "electric_scooter"}, {"fusion_lon": 0.0, "name": "785da2a95efb7c8478a71d26c13d89eb", "rental_uris": {"android": "https://dc.lft.to/lastmile_qr_scan", "ios": "https://dc.lft.to/lastmile_qr_scan"}, "lat": 38.937675666666664, "bike_id": "785da2a95efb7c8478a71d26c13d89eb", "is_disabled": 0, "lon": -77.02463183333333, "is_reserved": 0, "fusion_lat": 0.0, "type": "electric_scooter"}, {"fusion_lon": 0.0, "name": "54b2129eb21b310d4e47e5625e32c18a", "rental_uris": {"android": "https://dc.lft.to/lastmile_qr_scan", "ios": "https://dc.lft.to/lastmile_qr_scan"}, "lat": 38.9038305, "bike_id": "54b2129eb21b310d4e47e5625e32c18a", "is_disabled": 0, "lon": -77.02610483333333, "is_reserved": 0, "fusion_lat": 0.0, "type": "electric_scooter"}, {"fusion_lon": 0.0, "name": "f5c0388bd7f9a297483d45a43d9100b8", "rental_uris": {"android": "https://dc.lft.to/lastmile_qr_scan", "ios": "https://dc.lft.to/lastmile_qr_scan"}, "lat": 38.898576, "bike_id": "f5c0388bd7f9a297483d45a43d9100b8", "is_disabled": 0, "lon": -76.990332, "is_reserved": 0, "fusion_lat": 0.0, "type": "electric_scooter"}, {"fusion_lon": 0.0, "name": "a144683fdb55bb2f4e7af9d760fc8b34", "rental_uris": {"android": "https://dc.lft.to/lastmile_qr_scan", "ios": "https://dc.lft.to/lastmile_qr_scan"}, "lat": 38.9061945, "bike_id": "a144683fdb55bb2f4e7af9d760fc8b34", "is_disabled": 0, "lon": -76.95012816666667, "is_reserved": 0, "fusion_lat": 0.0, "type": "electric_scooter"}, {"fusion_lon": 0.0, "name": "0e6a068049f9ec2d8d3ff0d4d15fde29", "rental_uris": {"android": "https://dc.lft.to/lastmile_qr_scan", "ios": "https://dc.lft.to/lastmile_qr_scan"}, "lat": 38.918034666666664, "bike_id": "0e6a068049f9ec2d8d3ff0d4d15fde29", "is_disabled": 0, "lon": -77.02488916666667, "is_reserved": 0, "fusion_lat": 0.0, "type": "electric_scooter"}, {"fusion_lon": 0.0, "name": "179534dbda440937a415808aeec1e7db", "rental_uris": {"android": "https://dc.lft.to/lastmile_qr_scan", "ios": "https://dc.lft.to/lastmile_qr_scan"}, "lat": 38.91410583333333, "bike_id": "179534dbda440937a415808aeec1e7db", "is_disabled": 0, "lon": -77.00801966666667, "is_reserved": 0, "fusion_lat": 0.0, "type": "electric_scooter"}, {"fusion_lon": 0.0, "name": "e3bac892f7c09497b792c8100f10e141", "rental_uris": {"android": "https://dc.lft.to/lastmile_qr_scan", "ios": "https://dc.lft.to/lastmile_qr_scan"}, "lat": 38.91924316666667, "bike_id": "e3bac892f7c09497b792c8100f10e141", "is_disabled": 0, "lon": -77.00973916666666, "is_reserved": 0, "fusion_lat": 0.0, "type": "electric_scooter"}, {"fusion_lon": 0.0, "name": "be9d64e88b28ec41a33f0e961c8bfcbd", "rental_uris": {"android": "https://dc.lft.to/lastmile_qr_scan", "ios": "https://dc.lft.to/lastmile_qr_scan"}, "lat": 38.961193333333334, "bike_id": "be9d64e88b28ec41a33f0e961c8bfcbd", "is_disabled": 0, "lon": -77.02797616666666, "is_reserved": 0, "fusion_lat": 0.0, "type": "electric_scooter"}, {"fusion_lon": 0.0, "name": "d6a4ad87827cbc3275d3e8f292840b63", "rental_uris": {"android": "https://dc.lft.to/lastmile_qr_scan", "ios": "https://dc.lft.to/lastmile_qr_scan"}, "lat": 38.905727, "bike_id": "d6a4ad87827cbc3275d3e8f292840b63", "is_disabled": 0, "lon": -77.03462466666667, "is_reserved": 0, "fusion_lat": 0.0, "type": "electric_scooter"}, {"fusion_lon": 0.0, "name": "d64c0aa906ddbfb5a0d8b018f021edc1", "rental_uris": {"android": "https://dc.lft.to/lastmile_qr_scan", "ios": "https://dc.lft.to/lastmile_qr_scan"}, "lat": 38.8851265, "bike_id": "d64c0aa906ddbfb5a0d8b018f021edc1", "is_disabled": 0, "lon": -77.011161, "is_reserved": 0, "fusion_lat": 0.0, "type": "electric_scooter"}, {"fusion_lon": 0.0, "name": "be5ef503f6c133a9340fe122ca1af3d2", "rental_uris": {"android": "https://dc.lft.to/lastmile_qr_scan", "ios": "https://dc.lft.to/lastmile_qr_scan"}, "lat": 38.886406, "bike_id": "be5ef503f6c133a9340fe122ca1af3d2", "is_disabled": 0, "lon": -77.01544183333333, "is_reserved": 0, "fusion_lat": 0.0, "type": "electric_scooter"}, {"fusion_lon": 0.0, "name": "cd11e5350845c31914b8ed72caab7a12", "rental_uris": {"android": "https://dc.lft.to/lastmile_qr_scan", "ios": "https://dc.lft.to/lastmile_qr_scan"}, "lat": 38.9106425, "bike_id": "cd11e5350845c31914b8ed72caab7a12", "is_disabled": 0, "lon": -77.05386583333333, "is_reserved": 0, "fusion_lat": 0.0, "type": "electric_scooter"}, {"fusion_lon": 0.0, "name": "27fde14592c2c07a7b89a77a0ae1f811", "rental_uris": {"android": "https://dc.lft.to/lastmile_qr_scan", "ios": "https://dc.lft.to/lastmile_qr_scan"}, "lat": 38.91856766666667, "bike_id": "27fde14592c2c07a7b89a77a0ae1f811", "is_disabled": 0, "lon": -76.96079283333333, "is_reserved": 0, "fusion_lat": 0.0, "type": "electric_bike"}, {"fusion_lon": 0.0, "name": "d130a94698ca5f54a65340a6dcde9dcc", "rental_uris": {"android": "https://dc.lft.to/lastmile_qr_scan", "ios": "https://dc.lft.to/lastmile_qr_scan"}, "lat": 38.9328745, "bike_id": "d130a94698ca5f54a65340a6dcde9dcc", "is_disabled": 0, "lon": -77.02557483333334, "is_reserved": 0, "fusion_lat": 0.0, "type": "electric_scooter"}, {"fusion_lon": 0.0, "name": "927431331f944384682e8607167727a1", "rental_uris": {"android": "https://dc.lft.to/lastmile_qr_scan", "ios": "https://dc.lft.to/lastmile_qr_scan"}, "lat": 38.915075333333334, "bike_id": "927431331f944384682e8607167727a1", "is_disabled": 0, "lon": -77.032102, "is_reserved": 0, "fusion_lat": 0.0, "type": "electric_scooter"}, {"fusion_lon": 0.0, "name": "1390bac5e684dcb792db64d107f9c0f6", "rental_uris": {"android": "https://dc.lft.to/lastmile_qr_scan", "ios": "https://dc.lft.to/lastmile_qr_scan"}, "lat": 38.92088066666667, "bike_id": "1390bac5e684dcb792db64d107f9c0f6", "is_disabled": 0, "lon": -77.02301883333334, "is_reserved": 0, "fusion_lat": 0.0, "type": "electric_scooter"}, {"fusion_lon": 0.0, "name": "b7d6f555a45b9116914a81235b877021", "rental_uris": {"android": "https://dc.lft.to/lastmile_qr_scan", "ios": "https://dc.lft.to/lastmile_qr_scan"}, "lat": 38.90573666666667, "bike_id": "b7d6f555a45b9116914a81235b877021", "is_disabled": 0, "lon": -77.02173566666667, "is_reserved": 0, "fusion_lat": 0.0, "type": "electric_scooter"}, {"fusion_lon": 0.0, "name": "5e8011013fdd54c70a2a64684fb1e004", "rental_uris": {"android": "https://dc.lft.to/lastmile_qr_scan", "ios": "https://dc.lft.to/lastmile_qr_scan"}, "lat": 38.927580166666665, "bike_id": "5e8011013fdd54c70a2a64684fb1e004", "is_disabled": 0, "lon": -77.031232, "is_reserved": 0, "fusion_lat": 0.0, "type": "electric_scooter"}, {"fusion_lon": 0.0, "name": "f4ac339944a3fbd50ee1f97bfac03c30", "rental_uris": {"android": "https://dc.lft.to/lastmile_qr_scan", "ios": "https://dc.lft.to/lastmile_qr_scan"}, "lat": 38.899972, "bike_id": "f4ac339944a3fbd50ee1f97bfac03c30", "is_disabled": 0, "lon": -77.0411725, "is_reserved": 0, "fusion_lat": 0.0, "type": "electric_scooter"}, {"fusion_lon": 0.0, "name": "d27fb5ca16af49b938fb250251371731", "rental_uris": {"android": "https://dc.lft.to/lastmile_qr_scan", "ios": "https://dc.lft.to/lastmile_qr_scan"}, "lat": 38.91754266666667, "bike_id": "d27fb5ca16af49b938fb250251371731", "is_disabled": 0, "lon": -77.0279775, "is_reserved": 0, "fusion_lat": 0.0, "type": "electric_scooter"}, {"fusion_lon": 0.0, "name": "daf250f807cc594546fa05848e6756b1", "rental_uris": {"android": "https://dc.lft.to/lastmile_qr_scan", "ios": "https://dc.lft.to/lastmile_qr_scan"}, "lat": 38.9059155, "bike_id": "daf250f807cc594546fa05848e6756b1", "is_disabled": 0, "lon": -77.04697716666666, "is_reserved": 0, "fusion_lat": 0.0, "type": "electric_scooter"}, {"fusion_lon": 0.0, "name": "32dc83af5b660a8de1e7f454ea2bf2cd", "rental_uris": {"android": "https://dc.lft.to/lastmile_qr_scan", "ios": "https://dc.lft.to/lastmile_qr_scan"}, "lat": 38.895817, "bike_id": "32dc83af5b660a8de1e7f454ea2bf2cd", "is_disabled": 0, "lon": -77.04144716666667, "is_reserved": 0, "fusion_lat": 0.0, "type": "electric_scooter"}, {"fusion_lon": 0.0, "name": "2f9139fd11731d62c0472c48a88c97ce", "rental_uris": {"android": "https://dc.lft.to/lastmile_qr_scan", "ios": "https://dc.lft.to/lastmile_qr_scan"}, "lat": 38.9173905, "bike_id": "2f9139fd11731d62c0472c48a88c97ce", "is_disabled": 0, "lon": -77.021172, "is_reserved": 0, "fusion_lat": 0.0, "type": "electric_scooter"}, {"fusion_lon": 0.0, "name": "15186047e31e9b4de8ed01f8d4d3755d", "rental_uris": {"android": "https://dc.lft.to/lastmile_qr_scan", "ios": "https://dc.lft.to/lastmile_qr_scan"}, "lat": 38.92546033333333, "bike_id": "15186047e31e9b4de8ed01f8d4d3755d", "is_disabled": 0, "lon": -77.03405066666667, "is_reserved": 0, "fusion_lat": 0.0, "type": "electric_scooter"}, {"fusion_lon": 0.0, "name": "094d360e17e7633076bf59905f41ffd0", "rental_uris": {"android": "https://dc.lft.to/lastmile_qr_scan", "ios": "https://dc.lft.to/lastmile_qr_scan"}, "lat": 38.901534166666664, "bike_id": "094d360e17e7633076bf59905f41ffd0", "is_disabled": 0, "lon": -76.97422266666666, "is_reserved": 0, "fusion_lat": 0.0, "type": "electric_scooter"}, {"fusion_lon": 0.0, "name": "702838a9c3b68793a31b7e1d43b4b111", "rental_uris": {"android": "https://dc.lft.to/lastmile_qr_scan", "ios": "https://dc.lft.to/lastmile_qr_scan"}, "lat": 38.91063833333333, "bike_id": "702838a9c3b68793a31b7e1d43b4b111", "is_disabled": 0, "lon": -77.00922583333333, "is_reserved": 0, "fusion_lat": 0.0, "type": "electric_scooter"}, {"fusion_lon": 0.0, "name": "959c4d262760114d2615afba12634f7e", "rental_uris": {"android": "https://dc.lft.to/lastmile_qr_scan", "ios": "https://dc.lft.to/lastmile_qr_scan"}, "lat": 38.93016933333333, "bike_id": "959c4d262760114d2615afba12634f7e", "is_disabled": 0, "lon": -77.061921, "is_reserved": 0, "fusion_lat": 0.0, "type": "electric_scooter"}, {"fusion_lon": 0.0, "name": "d1843fb31c399127bba4f80bababd811", "rental_uris": {"android": "https://dc.lft.to/lastmile_qr_scan", "ios": "https://dc.lft.to/lastmile_qr_scan"}, "lat": 38.881560666666665, "bike_id": "d1843fb31c399127bba4f80bababd811", "is_disabled": 0, "lon": -77.01316433333334, "is_reserved": 0, "fusion_lat": 0.0, "type": "electric_scooter"}, {"fusion_lon": 0.0, "name": "e3760a41579ae24d53b01407eec65a03", "rental_uris": {"android": "https://dc.lft.to/lastmile_qr_scan", "ios": "https://dc.lft.to/lastmile_qr_scan"}, "lat": 38.90153816666667, "bike_id": "e3760a41579ae24d53b01407eec65a03", "is_disabled": 0, "lon": -76.974271, "is_reserved": 0, "fusion_lat": 0.0, "type": "electric_scooter"}, {"fusion_lon": 0.0, "name": "e4715b2145649f935ab0b37efed33bc6", "rental_uris": {"android": "https://dc.lft.to/lastmile_qr_scan", "ios": "https://dc.lft.to/lastmile_qr_scan"}, "lat": 38.897494333333334, "bike_id": "e4715b2145649f935ab0b37efed33bc6", "is_disabled": 0, "lon": -76.97691333333333, "is_reserved": 0, "fusion_lat": 0.0, "type": "electric_scooter"}, {"fusion_lon": 0.0, "name": "5150aba07010ba92a31188884fb8f170", "rental_uris": {"android": "https://dc.lft.to/lastmile_qr_scan", "ios": "https://dc.lft.to/lastmile_qr_scan"}, "lat": 38.958908, "bike_id": "5150aba07010ba92a31188884fb8f170", "is_disabled": 0, "lon": -76.970507, "is_reserved": 0, "fusion_lat": 0.0, "type": "electric_bike"}, {"fusion_lon": 0.0, "name": "f159490564fc46069b914bef270ea6fb", "rental_uris": {"android": "https://dc.lft.to/lastmile_qr_scan", "ios": "https://dc.lft.to/lastmile_qr_scan"}, "lat": 38.943259833333336, "bike_id": "f159490564fc46069b914bef270ea6fb", "is_disabled": 0, "lon": -77.03261066666667, "is_reserved": 0, "fusion_lat": 0.0, "type": "electric_scooter"}, {"fusion_lon": 0.0, "name": "82da96fc563ff42a7aea70cb15dd0ab8", "rental_uris": {"android": "https://dc.lft.to/lastmile_qr_scan", "ios": "https://dc.lft.to/lastmile_qr_scan"}, "lat": 38.883995166666665, "bike_id": "82da96fc563ff42a7aea70cb15dd0ab8", "is_disabled": 0, "lon": -76.99622283333333, "is_reserved": 0, "fusion_lat": 0.0, "type": "electric_scooter"}, {"fusion_lon": 0.0, "name": "eb0b86b65b7015977108119ab6d0dcce", "rental_uris": {"android": "https://dc.lft.to/lastmile_qr_scan", "ios": "https://dc.lft.to/lastmile_qr_scan"}, "lat": 38.9153445, "bike_id": "eb0b86b65b7015977108119ab6d0dcce", "is_disabled": 0, "lon": -77.044699, "is_reserved": 0, "fusion_lat": 0.0, "type": "electric_scooter"}, {"fusion_lon": 0.0, "name": "019696dcf1ac2b28e49fa5798f81511a", "rental_uris": {"android": "https://dc.lft.to/lastmile_qr_scan", "ios": "https://dc.lft.to/lastmile_qr_scan"}, "lat": 38.902333666666664, "bike_id": "019696dcf1ac2b28e49fa5798f81511a", "is_disabled": 0, "lon": -77.03254516666667, "is_reserved": 0, "fusion_lat": 0.0, "type": "electric_scooter"}, {"fusion_lon": 0.0, "name": "a2541c08d3507bbec5713486abf88a56", "rental_uris": {"android": "https://dc.lft.to/lastmile_qr_scan", "ios": "https://dc.lft.to/lastmile_qr_scan"}, "lat": 38.90879283333334, "bike_id": "a2541c08d3507bbec5713486abf88a56", "is_disabled": 0, "lon": -77.02308633333334, "is_reserved": 0, "fusion_lat": 0.0, "type": "electric_scooter"}, {"fusion_lon": 0.0, "name": "07bd29e8f4dd47cb7504db1a06870bbc", "rental_uris": {"android": "https://dc.lft.to/lastmile_qr_scan", "ios": "https://dc.lft.to/lastmile_qr_scan"}, "lat": 38.91486533333333, "bike_id": "07bd29e8f4dd47cb7504db1a06870bbc", "is_disabled": 0, "lon": -77.01887566666667, "is_reserved": 0, "fusion_lat": 0.0, "type": "electric_scooter"}, {"fusion_lon": 0.0, "name": "541dc2bcc5159e5d2a0462d3958dbd50", "rental_uris": {"android": "https://dc.lft.to/lastmile_qr_scan", "ios": "https://dc.lft.to/lastmile_qr_scan"}, "lat": 38.934017833333336, "bike_id": "541dc2bcc5159e5d2a0462d3958dbd50", "is_disabled": 0, "lon": -77.038293, "is_reserved": 0, "fusion_lat": 0.0, "type": "electric_scooter"}, {"fusion_lon": 0.0, "name": "27b467673934815f47e87e25c7aae243", "rental_uris": {"android": "https://dc.lft.to/lastmile_qr_scan", "ios": "https://dc.lft.to/lastmile_qr_scan"}, "lat": 38.87660533333333, "bike_id": "27b467673934815f47e87e25c7aae243", "is_disabled": 0, "lon": -77.01168316666667, "is_reserved": 0, "fusion_lat": 0.0, "type": "electric_scooter"}, {"fusion_lon": 0.0, "name": "6ecbead4adc824b26e7f37cf6b3c30f9", "rental_uris": {"android": "https://dc.lft.to/lastmile_qr_scan", "ios": "https://dc.lft.to/lastmile_qr_scan"}, "lat": 38.96226166666667, "bike_id": "6ecbead4adc824b26e7f37cf6b3c30f9", "is_disabled": 0, "lon": -77.01358816666666, "is_reserved": 0, "fusion_lat": 0.0, "type": "electric_scooter"}, {"fusion_lon": 0.0, "name": "ec8c23f12c888ad2d145d696aeacd7f7", "rental_uris": {"android": "https://dc.lft.to/lastmile_qr_scan", "ios": "https://dc.lft.to/lastmile_qr_scan"}, "lat": 38.896517833333334, "bike_id": "ec8c23f12c888ad2d145d696aeacd7f7", "is_disabled": 0, "lon": -77.02285366666666, "is_reserved": 0, "fusion_lat": 0.0, "type": "electric_scooter"}, {"fusion_lon": 0.0, "name": "6de37abb131e14cb649a8a799269fdf9", "rental_uris": {"android": "https://dc.lft.to/lastmile_qr_scan", "ios": "https://dc.lft.to/lastmile_qr_scan"}, "lat": 38.8978095, "bike_id": "6de37abb131e14cb649a8a799269fdf9", "is_disabled": 0, "lon": -77.02715983333333, "is_reserved": 0, "fusion_lat": 0.0, "type": "electric_scooter"}, {"fusion_lon": 0.0, "name": "4cf494d8d02f9a683f88ce27d7077ee3", "rental_uris": {"android": "https://dc.lft.to/lastmile_qr_scan", "ios": "https://dc.lft.to/lastmile_qr_scan"}, "lat": 38.89637583333333, "bike_id": "4cf494d8d02f9a683f88ce27d7077ee3", "is_disabled": 0, "lon": -77.0301875, "is_reserved": 0, "fusion_lat": 0.0, "type": "electric_scooter"}, {"fusion_lon": 0.0, "name": "078755ceede3f44575d24a92aab3adeb", "rental_uris": {"android": "https://dc.lft.to/lastmile_qr_scan", "ios": "https://dc.lft.to/lastmile_qr_scan"}, "lat": 38.78463966666666, "bike_id": "078755ceede3f44575d24a92aab3adeb", "is_disabled": 0, "lon": -77.05435283333334, "is_reserved": 0, "fusion_lat": 0.0, "type": "electric_bike"}, {"fusion_lon": 0.0, "name": "da2f80acbdd22695b819ae3953edf1d9", "rental_uris": {"android": "https://dc.lft.to/lastmile_qr_scan", "ios": "https://dc.lft.to/lastmile_qr_scan"}, "lat": 38.941311666666664, "bike_id": "da2f80acbdd22695b819ae3953edf1d9", "is_disabled": 0, "lon": -77.02044533333333, "is_reserved": 0, "fusion_lat": 0.0, "type": "electric_bike"}, {"fusion_lon": 0.0, "name": "5dded7c30b5eb611a820a180ee67e5b1", "rental_uris": {"android": "https://dc.lft.to/lastmile_qr_scan", "ios": "https://dc.lft.to/lastmile_qr_scan"}, "lat": 38.93634616666667, "bike_id": "5dded7c30b5eb611a820a180ee67e5b1", "is_disabled": 0, "lon": -77.03655983333333, "is_reserved": 0, "fusion_lat": 0.0, "type": "electric_scooter"}, {"fusion_lon": 0.0, "name": "375ff5178e5e878d566356c09f405f54", "rental_uris": {"android": "https://dc.lft.to/lastmile_qr_scan", "ios": "https://dc.lft.to/lastmile_qr_scan"}, "lat": 38.892205, "bike_id": "375ff5178e5e878d566356c09f405f54", "is_disabled": 0, "lon": -77.04364216666667, "is_reserved": 0, "fusion_lat": 0.0, "type": "electric_scooter"}, {"fusion_lon": 0.0, "name": "ffb4a65cbf21ac5472e20e703c09abb9", "rental_uris": {"android": "https://dc.lft.to/lastmile_qr_scan", "ios": "https://dc.lft.to/lastmile_qr_scan"}, "lat": 38.872950833333334, "bike_id": "ffb4a65cbf21ac5472e20e703c09abb9", "is_disabled": 0, "lon": -77.00229916666666, "is_reserved": 0, "fusion_lat": 0.0, "type": "electric_scooter"}, {"fusion_lon": 0.0, "name": "b890b7ddeb60798a62e7b98a0e795b98", "rental_uris": {"android": "https://dc.lft.to/lastmile_qr_scan", "ios": "https://dc.lft.to/lastmile_qr_scan"}, "lat": 38.9316585, "bike_id": "b890b7ddeb60798a62e7b98a0e795b98", "is_disabled": 0, "lon": -77.038888, "is_reserved": 0, "fusion_lat": 0.0, "type": "electric_scooter"}, {"fusion_lon": 0.0, "name": "74e040edf583e8eeacb11ad1b9349ea3", "rental_uris": {"android": "https://dc.lft.to/lastmile_qr_scan", "ios": "https://dc.lft.to/lastmile_qr_scan"}, "lat": 38.9126025, "bike_id": "74e040edf583e8eeacb11ad1b9349ea3", "is_disabled": 0, "lon": -77.03821933333333, "is_reserved": 0, "fusion_lat": 0.0, "type": "electric_scooter"}, {"fusion_lon": 0.0, "name": "6277f2b2190009c90911f4f11bd5d9d1", "rental_uris": {"android": "https://dc.lft.to/lastmile_qr_scan", "ios": "https://dc.lft.to/lastmile_qr_scan"}, "lat": 38.935103833333336, "bike_id": "6277f2b2190009c90911f4f11bd5d9d1", "is_disabled": 0, "lon": -77.03701366666667, "is_reserved": 0, "fusion_lat": 0.0, "type": "electric_scooter"}, {"fusion_lon": 0.0, "name": "78a8420a72484ef162d65e7835ca4662", "rental_uris": {"android": "https://dc.lft.to/lastmile_qr_scan", "ios": "https://dc.lft.to/lastmile_qr_scan"}, "lat": 38.92647233333334, "bike_id": "78a8420a72484ef162d65e7835ca4662", "is_disabled": 0, "lon": -77.04066, "is_reserved": 0, "fusion_lat": 0.0, "type": "electric_scooter"}, {"fusion_lon": 0.0, "name": "dbdc079efb07e66540117bb49c8fa5e9", "rental_uris": {"android": "https://dc.lft.to/lastmile_qr_scan", "ios": "https://dc.lft.to/lastmile_qr_scan"}, "lat": 38.924521166666665, "bike_id": "dbdc079efb07e66540117bb49c8fa5e9", "is_disabled": 0, "lon": -77.03975966666667, "is_reserved": 0, "fusion_lat": 0.0, "type": "electric_scooter"}, {"fusion_lon": 0.0, "name": "ad3632ac09fb6b83663dbfd55836f942", "rental_uris": {"android": "https://dc.lft.to/lastmile_qr_scan", "ios": "https://dc.lft.to/lastmile_qr_scan"}, "lat": 38.92799433333333, "bike_id": "ad3632ac09fb6b83663dbfd55836f942", "is_disabled": 0, "lon": -77.055195, "is_reserved": 0, "fusion_lat": 0.0, "type": "electric_scooter"}, {"fusion_lon": 0.0, "name": "9d6373dae9571198481fd3bba19c1da9", "rental_uris": {"android": "https://dc.lft.to/lastmile_qr_scan", "ios": "https://dc.lft.to/lastmile_qr_scan"}, "lat": 38.876829, "bike_id": "9d6373dae9571198481fd3bba19c1da9", "is_disabled": 0, "lon": -77.01964566666666, "is_reserved": 0, "fusion_lat": 0.0, "type": "electric_scooter"}, {"fusion_lon": 0.0, "name": "2fe5d5a3508d60a62b8d3294506960ff", "rental_uris": {"android": "https://dc.lft.to/lastmile_qr_scan", "ios": "https://dc.lft.to/lastmile_qr_scan"}, "lat": 38.89406233333333, "bike_id": "2fe5d5a3508d60a62b8d3294506960ff", "is_disabled": 0, "lon": -76.86841616666666, "is_reserved": 0, "fusion_lat": 0.0, "type": "electric_bike"}, {"fusion_lon": 0.0, "name": "18fcc00541b40b2aa6543aab5aff86c5", "rental_uris": {"android": "https://dc.lft.to/lastmile_qr_scan", "ios": "https://dc.lft.to/lastmile_qr_scan"}, "lat": 38.9067945, "bike_id": "18fcc00541b40b2aa6543aab5aff86c5", "is_disabled": 0, "lon": -77.02707666666667, "is_reserved": 0, "fusion_lat": 0.0, "type": "electric_scooter"}, {"fusion_lon": 0.0, "name": "aee64f88b245e5c20a3557c2be655f01", "rental_uris": {"android": "https://dc.lft.to/lastmile_qr_scan", "ios": "https://dc.lft.to/lastmile_qr_scan"}, "lat": 38.92129833333333, "bike_id": "aee64f88b245e5c20a3557c2be655f01", "is_disabled": 0, "lon": -77.02072716666666, "is_reserved": 0, "fusion_lat": 0.0, "type": "electric_scooter"}, {"fusion_lon": 0.0, "name": "ccabb301be6f41df038315d6286b9530", "rental_uris": {"android": "https://dc.lft.to/lastmile_qr_scan", "ios": "https://dc.lft.to/lastmile_qr_scan"}, "lat": 38.920772, "bike_id": "ccabb301be6f41df038315d6286b9530", "is_disabled": 0, "lon": -77.022762, "is_reserved": 0, "fusion_lat": 0.0, "type": "electric_scooter"}, {"fusion_lon": 0.0, "name": "ba645eafbd9b94593f3110032089c244", "rental_uris": {"android": "https://dc.lft.to/lastmile_qr_scan", "ios": "https://dc.lft.to/lastmile_qr_scan"}, "lat": 38.90769183333333, "bike_id": "ba645eafbd9b94593f3110032089c244", "is_disabled": 0, "lon": -77.0245985, "is_reserved": 0, "fusion_lat": 0.0, "type": "electric_scooter"}, {"fusion_lon": 0.0, "name": "1b063c85857c7d575c04824ad5e30681", "rental_uris": {"android": "https://dc.lft.to/lastmile_qr_scan", "ios": "https://dc.lft.to/lastmile_qr_scan"}, "lat": 38.903985166666665, "bike_id": "1b063c85857c7d575c04824ad5e30681", "is_disabled": 0, "lon": -76.9811205, "is_reserved": 0, "fusion_lat": 0.0, "type": "electric_scooter"}, {"fusion_lon": 0.0, "name": "1a86f01442ea031abae3fc5cf31f25e3", "rental_uris": {"android": "https://dc.lft.to/lastmile_qr_scan", "ios": "https://dc.lft.to/lastmile_qr_scan"}, "lat": 38.9001205, "bike_id": "1a86f01442ea031abae3fc5cf31f25e3", "is_disabled": 0, "lon": -77.03278266666666, "is_reserved": 0, "fusion_lat": 0.0, "type": "electric_scooter"}, {"fusion_lon": 0.0, "name": "a72169262109e94a8c43cd269ec9d57b", "rental_uris": {"android": "https://dc.lft.to/lastmile_qr_scan", "ios": "https://dc.lft.to/lastmile_qr_scan"}, "lat": 38.90853366666666, "bike_id": "a72169262109e94a8c43cd269ec9d57b", "is_disabled": 0, "lon": -77.01019, "is_reserved": 0, "fusion_lat": 0.0, "type": "electric_scooter"}, {"fusion_lon": 0.0, "name": "bb776a91c022324ccd9abb5a66c46400", "rental_uris": {"android": "https://dc.lft.to/lastmile_qr_scan", "ios": "https://dc.lft.to/lastmile_qr_scan"}, "lat": 38.915615, "bike_id": "bb776a91c022324ccd9abb5a66c46400", "is_disabled": 0, "lon": -77.00715933333333, "is_reserved": 0, "fusion_lat": 0.0, "type": "electric_scooter"}, {"fusion_lon": 0.0, "name": "a0fb390929ee81e298357d06dd5d3f4c", "rental_uris": {"android": "https://dc.lft.to/lastmile_qr_scan", "ios": "https://dc.lft.to/lastmile_qr_scan"}, "lat": 38.918861, "bike_id": "a0fb390929ee81e298357d06dd5d3f4c", "is_disabled": 0, "lon": -77.02732183333333, "is_reserved": 0, "fusion_lat": 0.0, "type": "electric_scooter"}, {"fusion_lon": 0.0, "name": "8a1a4a43ff455a853b99f9efa7fbb985", "rental_uris": {"android": "https://dc.lft.to/lastmile_qr_scan", "ios": "https://dc.lft.to/lastmile_qr_scan"}, "lat": 38.880225333333335, "bike_id": "8a1a4a43ff455a853b99f9efa7fbb985", "is_disabled": 0, "lon": -76.9432615, "is_reserved": 0, "fusion_lat": 0.0, "type": "electric_scooter"}, {"fusion_lon": 0.0, "name": "c9ffaae19457dbc3250a80ed7288104a", "rental_uris": {"android": "https://dc.lft.to/lastmile_qr_scan", "ios": "https://dc.lft.to/lastmile_qr_scan"}, "lat": 38.89685766666667, "bike_id": "c9ffaae19457dbc3250a80ed7288104a", "is_disabled": 0, "lon": -76.93665266666666, "is_reserved": 0, "fusion_lat": 0.0, "type": "electric_scooter"}, {"fusion_lon": 0.0, "name": "6499e7e7ce2f05789ca2a9e2ff2dcb79", "rental_uris": {"android": "https://dc.lft.to/lastmile_qr_scan", "ios": "https://dc.lft.to/lastmile_qr_scan"}, "lat": 38.92297666666666, "bike_id": "6499e7e7ce2f05789ca2a9e2ff2dcb79", "is_disabled": 0, "lon": -77.03025, "is_reserved": 0, "fusion_lat": 0.0, "type": "electric_scooter"}, {"fusion_lon": 0.0, "name": "2ca8c5f2eb3964a0f1016badfb175df9", "rental_uris": {"android": "https://dc.lft.to/lastmile_qr_scan", "ios": "https://dc.lft.to/lastmile_qr_scan"}, "lat": 38.803877666666665, "bike_id": "2ca8c5f2eb3964a0f1016badfb175df9", "is_disabled": 0, "lon": -76.98818966666667, "is_reserved": 0, "fusion_lat": 0.0, "type": "electric_bike"}, {"fusion_lon": 0.0, "name": "9de6e1b3613744e6f1212dd1e98af126", "rental_uris": {"android": "https://dc.lft.to/lastmile_qr_scan", "ios": "https://dc.lft.to/lastmile_qr_scan"}, "lat": 38.9027165, "bike_id": "9de6e1b3613744e6f1212dd1e98af126", "is_disabled": 0, "lon": -77.0174655, "is_reserved": 0, "fusion_lat": 0.0, "type": "electric_scooter"}, {"fusion_lon": 0.0, "name": "c8abccf0c77f59d2349db3aa5ec41f0f", "rental_uris": {"android": "https://dc.lft.to/lastmile_qr_scan", "ios": "https://dc.lft.to/lastmile_qr_scan"}, "lat": 38.94180683333333, "bike_id": "c8abccf0c77f59d2349db3aa5ec41f0f", "is_disabled": 0, "lon": -77.03089916666667, "is_reserved": 0, "fusion_lat": 0.0, "type": "electric_scooter"}, {"fusion_lon": 0.0, "name": "db82af3f50213dc7e7d17f5595987a47", "rental_uris": {"android": "https://dc.lft.to/lastmile_qr_scan", "ios": "https://dc.lft.to/lastmile_qr_scan"}, "lat": 38.9072285, "bike_id": "db82af3f50213dc7e7d17f5595987a47", "is_disabled": 0, "lon": -77.0253755, "is_reserved": 0, "fusion_lat": 0.0, "type": "electric_scooter"}, {"fusion_lon": 0.0, "name": "f0accd16eade58b3cb3f115b3553a0a5", "rental_uris": {"android": "https://dc.lft.to/lastmile_qr_scan", "ios": "https://dc.lft.to/lastmile_qr_scan"}, "lat": 38.923941666666664, "bike_id": "f0accd16eade58b3cb3f115b3553a0a5", "is_disabled": 0, "lon": -76.99589916666666, "is_reserved": 0, "fusion_lat": 0.0, "type": "electric_scooter"}, {"fusion_lon": 0.0, "name": "6d3df60cd26f38b9e8d3d49024b4b6da", "rental_uris": {"android": "https://dc.lft.to/lastmile_qr_scan", "ios": "https://dc.lft.to/lastmile_qr_scan"}, "lat": 38.86666066666667, "bike_id": "6d3df60cd26f38b9e8d3d49024b4b6da", "is_disabled": 0, "lon": -76.97916266666667, "is_reserved": 0, "fusion_lat": 0.0, "type": "electric_scooter"}, {"fusion_lon": 0.0, "name": "7129f849597a1b8ba912298b1495b40b", "rental_uris": {"android": "https://dc.lft.to/lastmile_qr_scan", "ios": "https://dc.lft.to/lastmile_qr_scan"}, "lat": 38.9083535, "bike_id": "7129f849597a1b8ba912298b1495b40b", "is_disabled": 0, "lon": -77.03840933333333, "is_reserved": 0, "fusion_lat": 0.0, "type": "electric_scooter"}, {"fusion_lon": 0.0, "name": "9f7732edcdaff0fb451c7c5f5270f8ca", "rental_uris": {"android": "https://dc.lft.to/lastmile_qr_scan", "ios": "https://dc.lft.to/lastmile_qr_scan"}, "lat": 38.9212205, "bike_id": "9f7732edcdaff0fb451c7c5f5270f8ca", "is_disabled": 0, "lon": -77.02140833333333, "is_reserved": 0, "fusion_lat": 0.0, "type": "electric_scooter"}, {"fusion_lon": 0.0, "name": "e24a3e8eb1d51e3b93cbc78c5df9ea6f", "rental_uris": {"android": "https://dc.lft.to/lastmile_qr_scan", "ios": "https://dc.lft.to/lastmile_qr_scan"}, "lat": 38.9155765, "bike_id": "e24a3e8eb1d51e3b93cbc78c5df9ea6f", "is_disabled": 0, "lon": -77.03670016666666, "is_reserved": 0, "fusion_lat": 0.0, "type": "electric_scooter"}, {"fusion_lon": 0.0, "name": "3ded6702cd61ca8474a752827b33100b", "rental_uris": {"android": "https://dc.lft.to/lastmile_qr_scan", "ios": "https://dc.lft.to/lastmile_qr_scan"}, "lat": 38.908306833333334, "bike_id": "3ded6702cd61ca8474a752827b33100b", "is_disabled": 0, "lon": -76.94159783333333, "is_reserved": 0, "fusion_lat": 0.0, "type": "electric_bike"}, {"fusion_lon": 0.0, "name": "07219a32b41fb71b939ceadb93547031", "rental_uris": {"android": "https://dc.lft.to/lastmile_qr_scan", "ios": "https://dc.lft.to/lastmile_qr_scan"}, "lat": 38.9063005, "bike_id": "07219a32b41fb71b939ceadb93547031", "is_disabled": 0, "lon": -77.0412925, "is_reserved": 0, "fusion_lat": 0.0, "type": "electric_scooter"}, {"fusion_lon": 0.0, "name": "7659d811230057692a3aa6a2e0ce4a45", "rental_uris": {"android": "https://dc.lft.to/lastmile_qr_scan", "ios": "https://dc.lft.to/lastmile_qr_scan"}, "lat": 38.891698833333336, "bike_id": "7659d811230057692a3aa6a2e0ce4a45", "is_disabled": 0, "lon": -77.01551966666666, "is_reserved": 0, "fusion_lat": 0.0, "type": "electric_scooter"}, {"fusion_lon": 0.0, "name": "7321d54b9cb294b33d37288dc7f28299", "rental_uris": {"android": "https://dc.lft.to/lastmile_qr_scan", "ios": "https://dc.lft.to/lastmile_qr_scan"}, "lat": 38.907255666666664, "bike_id": "7321d54b9cb294b33d37288dc7f28299", "is_disabled": 0, "lon": -77.0298765, "is_reserved": 0, "fusion_lat": 0.0, "type": "electric_scooter"}, {"fusion_lon": 0.0, "name": "93b724211dd83b3f202e81c5b989b7aa", "rental_uris": {"android": "https://dc.lft.to/lastmile_qr_scan", "ios": "https://dc.lft.to/lastmile_qr_scan"}, "lat": 38.917561666666664, "bike_id": "93b724211dd83b3f202e81c5b989b7aa", "is_disabled": 0, "lon": -77.0121205, "is_reserved": 0, "fusion_lat": 0.0, "type": "electric_scooter"}, {"fusion_lon": 0.0, "name": "74b6feb440ed8c8544fe880ebf9b5314", "rental_uris": {"android": "https://dc.lft.to/lastmile_qr_scan", "ios": "https://dc.lft.to/lastmile_qr_scan"}, "lat": 38.91693583333333, "bike_id": "74b6feb440ed8c8544fe880ebf9b5314", "is_disabled": 0, "lon": -77.031102, "is_reserved": 0, "fusion_lat": 0.0, "type": "electric_scooter"}, {"fusion_lon": 0.0, "name": "29a96d459eb7642571bd3b2bc61301c2", "rental_uris": {"android": "https://dc.lft.to/lastmile_qr_scan", "ios": "https://dc.lft.to/lastmile_qr_scan"}, "lat": 38.9052905, "bike_id": "29a96d459eb7642571bd3b2bc61301c2", "is_disabled": 0, "lon": -77.00206066666667, "is_reserved": 0, "fusion_lat": 0.0, "type": "electric_scooter"}, {"fusion_lon": 0.0, "name": "2bf90af29e168f81e97e027a82e06a83", "rental_uris": {"android": "https://dc.lft.to/lastmile_qr_scan", "ios": "https://dc.lft.to/lastmile_qr_scan"}, "lat": 38.892275, "bike_id": "2bf90af29e168f81e97e027a82e06a83", "is_disabled": 0, "lon": -77.017168, "is_reserved": 0, "fusion_lat": 0.0, "type": "electric_scooter"}, {"fusion_lon": 0.0, "name": "842fe40439ba0b53b9019bb94f061f54", "rental_uris": {"android": "https://dc.lft.to/lastmile_qr_scan", "ios": "https://dc.lft.to/lastmile_qr_scan"}, "lat": 38.90395066666667, "bike_id": "842fe40439ba0b53b9019bb94f061f54", "is_disabled": 0, "lon": -76.9810595, "is_reserved": 0, "fusion_lat": 0.0, "type": "electric_scooter"}, {"fusion_lon": 0.0, "name": "64b7ddf954ff804522911c8403ae8d9f", "rental_uris": {"android": "https://dc.lft.to/lastmile_qr_scan", "ios": "https://dc.lft.to/lastmile_qr_scan"}, "lat": 38.878990333333334, "bike_id": "64b7ddf954ff804522911c8403ae8d9f", "is_disabled": 0, "lon": -77.02210916666667, "is_reserved": 0, "fusion_lat": 0.0, "type": "electric_scooter"}, {"fusion_lon": 0.0, "name": "6445fa2745b84abf4bf2fef395b9f78a", "rental_uris": {"android": "https://dc.lft.to/lastmile_qr_scan", "ios": "https://dc.lft.to/lastmile_qr_scan"}, "lat": 38.908894, "bike_id": "6445fa2745b84abf4bf2fef395b9f78a", "is_disabled": 0, "lon": -76.99127983333334, "is_reserved": 0, "fusion_lat": 0.0, "type": "electric_scooter"}, {"fusion_lon": 0.0, "name": "dd4d1c295d1728eb59b081bc534e6dfe", "rental_uris": {"android": "https://dc.lft.to/lastmile_qr_scan", "ios": "https://dc.lft.to/lastmile_qr_scan"}, "lat": 38.9001205, "bike_id": "dd4d1c295d1728eb59b081bc534e6dfe", "is_disabled": 0, "lon": -76.930253, "is_reserved": 0, "fusion_lat": 0.0, "type": "electric_scooter"}, {"fusion_lon": 0.0, "name": "ab56d77e107644340de0f987788bf23d", "rental_uris": {"android": "https://dc.lft.to/lastmile_qr_scan", "ios": "https://dc.lft.to/lastmile_qr_scan"}, "lat": 38.89499716666667, "bike_id": "ab56d77e107644340de0f987788bf23d", "is_disabled": 0, "lon": -77.00207316666666, "is_reserved": 0, "fusion_lat": 0.0, "type": "electric_scooter"}, {"fusion_lon": 0.0, "name": "6bf57c8127314f3a5215209205bd5a49", "rental_uris": {"android": "https://dc.lft.to/lastmile_qr_scan", "ios": "https://dc.lft.to/lastmile_qr_scan"}, "lat": 38.900321166666664, "bike_id": "6bf57c8127314f3a5215209205bd5a49", "is_disabled": 0, "lon": -77.001982, "is_reserved": 0, "fusion_lat": 0.0, "type": "electric_scooter"}, {"fusion_lon": 0.0, "name": "1720f332ead36de3d8350f741485859b", "rental_uris": {"android": "https://dc.lft.to/lastmile_qr_scan", "ios": "https://dc.lft.to/lastmile_qr_scan"}, "lat": 38.893044, "bike_id": "1720f332ead36de3d8350f741485859b", "is_disabled": 0, "lon": -76.92989933333334, "is_reserved": 0, "fusion_lat": 0.0, "type": "electric_scooter"}, {"fusion_lon": 0.0, "name": "da6312748f6b9b142f58e3fe8f8ee178", "rental_uris": {"android": "https://dc.lft.to/lastmile_qr_scan", "ios": "https://dc.lft.to/lastmile_qr_scan"}, "lat": 38.888193, "bike_id": "da6312748f6b9b142f58e3fe8f8ee178", "is_disabled": 0, "lon": -76.97708066666667, "is_reserved": 0, "fusion_lat": 0.0, "type": "electric_scooter"}, {"fusion_lon": 0.0, "name": "8cf543a08f764e34867ed8816fa1e666", "rental_uris": {"android": "https://dc.lft.to/lastmile_qr_scan", "ios": "https://dc.lft.to/lastmile_qr_scan"}, "lat": 38.92885233333333, "bike_id": "8cf543a08f764e34867ed8816fa1e666", "is_disabled": 0, "lon": -77.02603166666667, "is_reserved": 0, "fusion_lat": 0.0, "type": "electric_scooter"}, {"fusion_lon": 0.0, "name": "085b766ff26137fca309ccfb0e03b4be", "rental_uris": {"android": "https://dc.lft.to/lastmile_qr_scan", "ios": "https://dc.lft.to/lastmile_qr_scan"}, "lat": 38.920515, "bike_id": "085b766ff26137fca309ccfb0e03b4be", "is_disabled": 0, "lon": -77.023571, "is_reserved": 0, "fusion_lat": 0.0, "type": "electric_scooter"}, {"fusion_lon": 0.0, "name": "1167706a9df692e4301fd8c6e8120d2f", "rental_uris": {"android": "https://dc.lft.to/lastmile_qr_scan", "ios": "https://dc.lft.to/lastmile_qr_scan"}, "lat": 38.916242833333335, "bike_id": "1167706a9df692e4301fd8c6e8120d2f", "is_disabled": 0, "lon": -77.001904, "is_reserved": 0, "fusion_lat": 0.0, "type": "electric_scooter"}, {"fusion_lon": 0.0, "name": "f148ebe8c84a1f124dcaa212caafbf00", "rental_uris": {"android": "https://dc.lft.to/lastmile_qr_scan", "ios": "https://dc.lft.to/lastmile_qr_scan"}, "lat": 38.92659716666667, "bike_id": "f148ebe8c84a1f124dcaa212caafbf00", "is_disabled": 0, "lon": -77.04063266666667, "is_reserved": 0, "fusion_lat": 0.0, "type": "electric_scooter"}, {"fusion_lon": 0.0, "name": "14c63df897a28a01c6e2f45e34202dd5", "rental_uris": {"android": "https://dc.lft.to/lastmile_qr_scan", "ios": "https://dc.lft.to/lastmile_qr_scan"}, "lat": 38.92246933333333, "bike_id": "14c63df897a28a01c6e2f45e34202dd5", "is_disabled": 0, "lon": -77.04370933333334, "is_reserved": 0, "fusion_lat": 0.0, "type": "electric_scooter"}, {"fusion_lon": 0.0, "name": "7fd00b8ac7a217013a467a44d05bfa82", "rental_uris": {"android": "https://dc.lft.to/lastmile_qr_scan", "ios": "https://dc.lft.to/lastmile_qr_scan"}, "lat": 38.8760935, "bike_id": "7fd00b8ac7a217013a467a44d05bfa82", "is_disabled": 0, "lon": -77.00579016666667, "is_reserved": 0, "fusion_lat": 0.0, "type": "electric_scooter"}, {"fusion_lon": 0.0, "name": "6d8eb104ec979d8788cae8727ff6df3e", "rental_uris": {"android": "https://dc.lft.to/lastmile_qr_scan", "ios": "https://dc.lft.to/lastmile_qr_scan"}, "lat": 38.8988075, "bike_id": "6d8eb104ec979d8788cae8727ff6df3e", "is_disabled": 0, "lon": -76.98836716666666, "is_reserved": 0, "fusion_lat": 0.0, "type": "electric_scooter"}, {"fusion_lon": 0.0, "name": "09d4c21829bd1490dbdb35b819d4ec7c", "rental_uris": {"android": "https://dc.lft.to/lastmile_qr_scan", "ios": "https://dc.lft.to/lastmile_qr_scan"}, "lat": 38.92664283333333, "bike_id": "09d4c21829bd1490dbdb35b819d4ec7c", "is_disabled": 0, "lon": -77.03024783333333, "is_reserved": 0, "fusion_lat": 0.0, "type": "electric_scooter"}, {"fusion_lon": 0.0, "name": "5f0bc43989b203870fe7218d19396f01", "rental_uris": {"android": "https://dc.lft.to/lastmile_qr_scan", "ios": "https://dc.lft.to/lastmile_qr_scan"}, "lat": 38.85435233333333, "bike_id": "5f0bc43989b203870fe7218d19396f01", "is_disabled": 0, "lon": -77.08318383333334, "is_reserved": 0, "fusion_lat": 0.0, "type": "electric_bike"}, {"fusion_lon": 0.0, "name": "3975b105db282d6020b529f179b01e29", "rental_uris": {"android": "https://dc.lft.to/lastmile_qr_scan", "ios": "https://dc.lft.to/lastmile_qr_scan"}, "lat": 38.897113833333336, "bike_id": "3975b105db282d6020b529f179b01e29", "is_disabled": 0, "lon": -76.99122266666667, "is_reserved": 0, "fusion_lat": 0.0, "type": "electric_scooter"}, {"fusion_lon": 0.0, "name": "790c2b5783bd674849ae7e8635358b7c", "rental_uris": {"android": "https://dc.lft.to/lastmile_qr_scan", "ios": "https://dc.lft.to/lastmile_qr_scan"}, "lat": 38.9033335, "bike_id": "790c2b5783bd674849ae7e8635358b7c", "is_disabled": 0, "lon": -76.975946, "is_reserved": 0, "fusion_lat": 0.0, "type": "electric_scooter"}, {"fusion_lon": 0.0, "name": "3fcab59d5b4a84f5e90e23b1251fdc05", "rental_uris": {"android": "https://dc.lft.to/lastmile_qr_scan", "ios": "https://dc.lft.to/lastmile_qr_scan"}, "lat": 38.927923, "bike_id": "3fcab59d5b4a84f5e90e23b1251fdc05", "is_disabled": 0, "lon": -76.99621266666666, "is_reserved": 0, "fusion_lat": 0.0, "type": "electric_scooter"}, {"fusion_lon": 0.0, "name": "5e0a82cb42410b85acaa082b702d5e7e", "rental_uris": {"android": "https://dc.lft.to/lastmile_qr_scan", "ios": "https://dc.lft.to/lastmile_qr_scan"}, "lat": 38.9040255, "bike_id": "5e0a82cb42410b85acaa082b702d5e7e", "is_disabled": 0, "lon": -77.00424433333333, "is_reserved": 0, "fusion_lat": 0.0, "type": "electric_scooter"}, {"fusion_lon": 0.0, "name": "00168d38a289bc08d618eb812f635a59", "rental_uris": {"android": "https://dc.lft.to/lastmile_qr_scan", "ios": "https://dc.lft.to/lastmile_qr_scan"}, "lat": 38.925049666666666, "bike_id": "00168d38a289bc08d618eb812f635a59", "is_disabled": 0, "lon": -77.025742, "is_reserved": 0, "fusion_lat": 0.0, "type": "electric_scooter"}, {"fusion_lon": 0.0, "name": "4762b0b21f77b91d78e966313f718c3c", "rental_uris": {"android": "https://dc.lft.to/lastmile_qr_scan", "ios": "https://dc.lft.to/lastmile_qr_scan"}, "lat": 38.932393833333336, "bike_id": "4762b0b21f77b91d78e966313f718c3c", "is_disabled": 0, "lon": -77.03276183333334, "is_reserved": 0, "fusion_lat": 0.0, "type": "electric_scooter"}, {"fusion_lon": 0.0, "name": "d2ddb2534d8379bb6dc255adb55d3702", "rental_uris": {"android": "https://dc.lft.to/lastmile_qr_scan", "ios": "https://dc.lft.to/lastmile_qr_scan"}, "lat": 38.9110975, "bike_id": "d2ddb2534d8379bb6dc255adb55d3702", "is_disabled": 0, "lon": -77.03727583333334, "is_reserved": 0, "fusion_lat": 0.0, "type": "electric_scooter"}, {"fusion_lon": 0.0, "name": "fcbc5408b8000fdaba9f33350d4d0897", "rental_uris": {"android": "https://dc.lft.to/lastmile_qr_scan", "ios": "https://dc.lft.to/lastmile_qr_scan"}, "lat": 38.99900566666667, "bike_id": "fcbc5408b8000fdaba9f33350d4d0897", "is_disabled": 0, "lon": -76.90858933333334, "is_reserved": 0, "fusion_lat": 0.0, "type": "electric_bike"}, {"fusion_lon": 0.0, "name": "44abddccf9893fdca1e30849e7619e29", "rental_uris": {"android": "https://dc.lft.to/lastmile_qr_scan", "ios": "https://dc.lft.to/lastmile_qr_scan"}, "lat": 38.870426333333334, "bike_id": "44abddccf9893fdca1e30849e7619e29", "is_disabled": 0, "lon": -77.22908883333334, "is_reserved": 0, "fusion_lat": 0.0, "type": "electric_bike"}, {"fusion_lon": 0.0, "name": "e057c9c7de9cf839a27e670172d2b8db", "rental_uris": {"android": "https://dc.lft.to/lastmile_qr_scan", "ios": "https://dc.lft.to/lastmile_qr_scan"}, "lat": 38.93536183333333, "bike_id": "e057c9c7de9cf839a27e670172d2b8db", "is_disabled": 0, "lon": -77.02314866666667, "is_reserved": 0, "fusion_lat": 0.0, "type": "electric_scooter"}, {"fusion_lon": 0.0, "name": "6fe30f04861d251b56b384e1523ef1cd", "rental_uris": {"android": "https://dc.lft.to/lastmile_qr_scan", "ios": "https://dc.lft.to/lastmile_qr_scan"}, "lat": 38.94682366666667, "bike_id": "6fe30f04861d251b56b384e1523ef1cd", "is_disabled": 0, "lon": -77.03283916666666, "is_reserved": 0, "fusion_lat": 0.0, "type": "electric_scooter"}, {"fusion_lon": 0.0, "name": "7e622d1173c6d06aa9ce6e26afe3aeff", "rental_uris": {"android": "https://dc.lft.to/lastmile_qr_scan", "ios": "https://dc.lft.to/lastmile_qr_scan"}, "lat": 38.92198483333333, "bike_id": "7e622d1173c6d06aa9ce6e26afe3aeff", "is_disabled": 0, "lon": -77.0297645, "is_reserved": 0, "fusion_lat": 0.0, "type": "electric_scooter"}, {"fusion_lon": 0.0, "name": "fd0cccfebf696b60bfd9c403adccf21b", "rental_uris": {"android": "https://dc.lft.to/lastmile_qr_scan", "ios": "https://dc.lft.to/lastmile_qr_scan"}, "lat": 38.92470616666667, "bike_id": "fd0cccfebf696b60bfd9c403adccf21b", "is_disabled": 0, "lon": -77.0226565, "is_reserved": 0, "fusion_lat": 0.0, "type": "electric_scooter"}, {"fusion_lon": 0.0, "name": "1763abb28ddab2f4eb9870ee71ae5d4d", "rental_uris": {"android": "https://dc.lft.to/lastmile_qr_scan", "ios": "https://dc.lft.to/lastmile_qr_scan"}, "lat": 38.9148675, "bike_id": "1763abb28ddab2f4eb9870ee71ae5d4d", "is_disabled": 0, "lon": -77.021938, "is_reserved": 0, "fusion_lat": 0.0, "type": "electric_scooter"}, {"fusion_lon": 0.0, "name": "e6f12c9335edd6f9d0a2e553a40d1444", "rental_uris": {"android": "https://dc.lft.to/lastmile_qr_scan", "ios": "https://dc.lft.to/lastmile_qr_scan"}, "lat": 38.950728166666664, "bike_id": "e6f12c9335edd6f9d0a2e553a40d1444", "is_disabled": 0, "lon": -77.06638283333334, "is_reserved": 0, "fusion_lat": 0.0, "type": "electric_bike"}, {"fusion_lon": 0.0, "name": "2547372744e55a3debafc2408a872811", "rental_uris": {"android": "https://dc.lft.to/lastmile_qr_scan", "ios": "https://dc.lft.to/lastmile_qr_scan"}, "lat": 38.90340033333333, "bike_id": "2547372744e55a3debafc2408a872811", "is_disabled": 0, "lon": -77.062173, "is_reserved": 0, "fusion_lat": 0.0, "type": "electric_scooter"}, {"fusion_lon": 0.0, "name": "123bbd732a328c400739addc517f32c4", "rental_uris": {"android": "https://dc.lft.to/lastmile_qr_scan", "ios": "https://dc.lft.to/lastmile_qr_scan"}, "lat": 38.923603, "bike_id": "123bbd732a328c400739addc517f32c4", "is_disabled": 0, "lon": -77.01902283333334, "is_reserved": 0, "fusion_lat": 0.0, "type": "electric_scooter"}, {"fusion_lon": 0.0, "name": "5c44b7594d06f796a6391483122467d4", "rental_uris": {"android": "https://dc.lft.to/lastmile_qr_scan", "ios": "https://dc.lft.to/lastmile_qr_scan"}, "lat": 38.927985166666666, "bike_id": "5c44b7594d06f796a6391483122467d4", "is_disabled": 0, "lon": -77.0369725, "is_reserved": 0, "fusion_lat": 0.0, "type": "electric_scooter"}, {"fusion_lon": 0.0, "name": "0fbfc69ec01d47ce33e4c55f4f8922b8", "rental_uris": {"android": "https://dc.lft.to/lastmile_qr_scan", "ios": "https://dc.lft.to/lastmile_qr_scan"}, "lat": 38.9368525, "bike_id": "0fbfc69ec01d47ce33e4c55f4f8922b8", "is_disabled": 0, "lon": -77.01938483333333, "is_reserved": 0, "fusion_lat": 0.0, "type": "electric_scooter"}, {"fusion_lon": 0.0, "name": "948c7ede38d4cf556e3690a4540a5712", "rental_uris": {"android": "https://dc.lft.to/lastmile_qr_scan", "ios": "https://dc.lft.to/lastmile_qr_scan"}, "lat": 38.90880766666667, "bike_id": "948c7ede38d4cf556e3690a4540a5712", "is_disabled": 0, "lon": -77.043348, "is_reserved": 0, "fusion_lat": 0.0, "type": "electric_scooter"}, {"fusion_lon": 0.0, "name": "fd563db8097eb65cc413be49bd862504", "rental_uris": {"android": "https://dc.lft.to/lastmile_qr_scan", "ios": "https://dc.lft.to/lastmile_qr_scan"}, "lat": 38.910229333333334, "bike_id": "fd563db8097eb65cc413be49bd862504", "is_disabled": 0, "lon": -77.03853816666667, "is_reserved": 0, "fusion_lat": 0.0, "type": "electric_scooter"}, {"fusion_lon": 0.0, "name": "e96e87d4143bdb35873b36a3904c770a", "rental_uris": {"android": "https://dc.lft.to/lastmile_qr_scan", "ios": "https://dc.lft.to/lastmile_qr_scan"}, "lat": 38.938545166666664, "bike_id": "e96e87d4143bdb35873b36a3904c770a", "is_disabled": 0, "lon": -77.0245445, "is_reserved": 0, "fusion_lat": 0.0, "type": "electric_scooter"}, {"fusion_lon": 0.0, "name": "737f0956e10331cb9ec9adb415fbde9a", "rental_uris": {"android": "https://dc.lft.to/lastmile_qr_scan", "ios": "https://dc.lft.to/lastmile_qr_scan"}, "lat": 38.914141, "bike_id": "737f0956e10331cb9ec9adb415fbde9a", "is_disabled": 0, "lon": -77.01839383333333, "is_reserved": 0, "fusion_lat": 0.0, "type": "electric_scooter"}, {"fusion_lon": 0.0, "name": "8da4a7b3e8a6e8aaa9cc564fb06a96f9", "rental_uris": {"android": "https://dc.lft.to/lastmile_qr_scan", "ios": "https://dc.lft.to/lastmile_qr_scan"}, "lat": 38.89714766666667, "bike_id": "8da4a7b3e8a6e8aaa9cc564fb06a96f9", "is_disabled": 0, "lon": -77.0431515, "is_reserved": 0, "fusion_lat": 0.0, "type": "electric_scooter"}, {"fusion_lon": 0.0, "name": "0d1175d5ccbcba1fdf75e48e88ff3635", "rental_uris": {"android": "https://dc.lft.to/lastmile_qr_scan", "ios": "https://dc.lft.to/lastmile_qr_scan"}, "lat": 38.9036975, "bike_id": "0d1175d5ccbcba1fdf75e48e88ff3635", "is_disabled": 0, "lon": -77.02611583333334, "is_reserved": 0, "fusion_lat": 0.0, "type": "electric_scooter"}, {"fusion_lon": 0.0, "name": "360ac40177bbc920bbc37e5a9b6fdff6", "rental_uris": {"android": "https://dc.lft.to/lastmile_qr_scan", "ios": "https://dc.lft.to/lastmile_qr_scan"}, "lat": 38.9186305, "bike_id": "360ac40177bbc920bbc37e5a9b6fdff6", "is_disabled": 0, "lon": -77.02266483333334, "is_reserved": 0, "fusion_lat": 0.0, "type": "electric_scooter"}, {"fusion_lon": 0.0, "name": "68c107dfbc19910917494aae9a0d1020", "rental_uris": {"android": "https://dc.lft.to/lastmile_qr_scan", "ios": "https://dc.lft.to/lastmile_qr_scan"}, "lat": 38.900714666666666, "bike_id": "68c107dfbc19910917494aae9a0d1020", "is_disabled": 0, "lon": -77.04937083333333, "is_reserved": 0, "fusion_lat": 0.0, "type": "electric_scooter"}, {"fusion_lon": 0.0, "name": "37f2e46ffa36ade3e9d76f575715e78e", "rental_uris": {"android": "https://dc.lft.to/lastmile_qr_scan", "ios": "https://dc.lft.to/lastmile_qr_scan"}, "lat": 38.894728, "bike_id": "37f2e46ffa36ade3e9d76f575715e78e", "is_disabled": 0, "lon": -77.02201683333334, "is_reserved": 0, "fusion_lat": 0.0, "type": "electric_scooter"}, {"fusion_lon": 0.0, "name": "834e90b4366427f23a509811c3b98034", "rental_uris": {"android": "https://dc.lft.to/lastmile_qr_scan", "ios": "https://dc.lft.to/lastmile_qr_scan"}, "lat": 38.91561166666666, "bike_id": "834e90b4366427f23a509811c3b98034", "is_disabled": 0, "lon": -77.00678083333334, "is_reserved": 0, "fusion_lat": 0.0, "type": "electric_scooter"}, {"fusion_lon": 0.0, "name": "9030c0909a087ea9e9eca7f738f095dc", "rental_uris": {"android": "https://dc.lft.to/lastmile_qr_scan", "ios": "https://dc.lft.to/lastmile_qr_scan"}, "lat": 38.9161875, "bike_id": "9030c0909a087ea9e9eca7f738f095dc", "is_disabled": 0, "lon": -77.04861716666667, "is_reserved": 0, "fusion_lat": 0.0, "type": "electric_scooter"}, {"fusion_lon": 0.0, "name": "0354b8cc0396f7508a92c675898e26d3", "rental_uris": {"android": "https://dc.lft.to/lastmile_qr_scan", "ios": "https://dc.lft.to/lastmile_qr_scan"}, "lat": 38.924725333333335, "bike_id": "0354b8cc0396f7508a92c675898e26d3", "is_disabled": 0, "lon": -77.03825166666667, "is_reserved": 0, "fusion_lat": 0.0, "type": "electric_scooter"}, {"fusion_lon": 0.0, "name": "4cfe5ed0cbec3b7d0e1a2f5020002da1", "rental_uris": {"android": "https://dc.lft.to/lastmile_qr_scan", "ios": "https://dc.lft.to/lastmile_qr_scan"}, "lat": 38.8912855, "bike_id": "4cfe5ed0cbec3b7d0e1a2f5020002da1", "is_disabled": 0, "lon": -76.9405665, "is_reserved": 0, "fusion_lat": 0.0, "type": "electric_bike"}, {"fusion_lon": 0.0, "name": "7bed4286442d5753fef10a6a9e5d184c", "rental_uris": {"android": "https://dc.lft.to/lastmile_qr_scan", "ios": "https://dc.lft.to/lastmile_qr_scan"}, "lat": 38.915852, "bike_id": "7bed4286442d5753fef10a6a9e5d184c", "is_disabled": 0, "lon": -77.02944716666667, "is_reserved": 0, "fusion_lat": 0.0, "type": "electric_scooter"}, {"fusion_lon": 0.0, "name": "922091830fa93ab491cfd9977a498cbc", "rental_uris": {"android": "https://dc.lft.to/lastmile_qr_scan", "ios": "https://dc.lft.to/lastmile_qr_scan"}, "lat": 38.9135875, "bike_id": "922091830fa93ab491cfd9977a498cbc", "is_disabled": 0, "lon": -77.03352566666666, "is_reserved": 0, "fusion_lat": 0.0, "type": "electric_scooter"}, {"fusion_lon": 0.0, "name": "0694465024ff0522549b0c8622b28ad8", "rental_uris": {"android": "https://dc.lft.to/lastmile_qr_scan", "ios": "https://dc.lft.to/lastmile_qr_scan"}, "lat": 38.9079135, "bike_id": "0694465024ff0522549b0c8622b28ad8", "is_disabled": 0, "lon": -77.00976216666666, "is_reserved": 0, "fusion_lat": 0.0, "type": "electric_scooter"}, {"fusion_lon": 0.0, "name": "46982d593f3248ea2f66fd6d2daa90f5", "rental_uris": {"android": "https://dc.lft.to/lastmile_qr_scan", "ios": "https://dc.lft.to/lastmile_qr_scan"}, "lat": 38.91111216666667, "bike_id": "46982d593f3248ea2f66fd6d2daa90f5", "is_disabled": 0, "lon": -77.020009, "is_reserved": 0, "fusion_lat": 0.0, "type": "electric_scooter"}, {"fusion_lon": 0.0, "name": "01e82ee8db93d700055e1c6c58eda706", "rental_uris": {"android": "https://dc.lft.to/lastmile_qr_scan", "ios": "https://dc.lft.to/lastmile_qr_scan"}, "lat": 38.9233355, "bike_id": "01e82ee8db93d700055e1c6c58eda706", "is_disabled": 0, "lon": -77.05676166666667, "is_reserved": 0, "fusion_lat": 0.0, "type": "electric_scooter"}, {"fusion_lon": 0.0, "name": "9d52945f4221e65ef9f0cdd917210afa", "rental_uris": {"android": "https://dc.lft.to/lastmile_qr_scan", "ios": "https://dc.lft.to/lastmile_qr_scan"}, "lat": 38.925047, "bike_id": "9d52945f4221e65ef9f0cdd917210afa", "is_disabled": 0, "lon": -77.02575116666667, "is_reserved": 0, "fusion_lat": 0.0, "type": "electric_scooter"}, {"fusion_lon": 0.0, "name": "00e296f73e3c87c533652f093b9970d9", "rental_uris": {"android": "https://dc.lft.to/lastmile_qr_scan", "ios": "https://dc.lft.to/lastmile_qr_scan"}, "lat": 38.90865083333333, "bike_id": "00e296f73e3c87c533652f093b9970d9", "is_disabled": 0, "lon": -77.08072416666667, "is_reserved": 0, "fusion_lat": 0.0, "type": "electric_bike"}, {"fusion_lon": 0.0, "name": "ca1b82af45519c15e960e3f65fb0e8e7", "rental_uris": {"android": "https://dc.lft.to/lastmile_qr_scan", "ios": "https://dc.lft.to/lastmile_qr_scan"}, "lat": 38.9242755, "bike_id": "ca1b82af45519c15e960e3f65fb0e8e7", "is_disabled": 0, "lon": -77.0196045, "is_reserved": 0, "fusion_lat": 0.0, "type": "electric_scooter"}, {"fusion_lon": 0.0, "name": "3e764662aa30a0d61ccf94c8276a7c79", "rental_uris": {"android": "https://dc.lft.to/lastmile_qr_scan", "ios": "https://dc.lft.to/lastmile_qr_scan"}, "lat": 38.89703183333334, "bike_id": "3e764662aa30a0d61ccf94c8276a7c79", "is_disabled": 0, "lon": -77.03141016666666, "is_reserved": 0, "fusion_lat": 0.0, "type": "electric_scooter"}, {"fusion_lon": 0.0, "name": "f050693fe64a0e31d9d4dbafe0a397e8", "rental_uris": {"android": "https://dc.lft.to/lastmile_qr_scan", "ios": "https://dc.lft.to/lastmile_qr_scan"}, "lat": 38.863306, "bike_id": "f050693fe64a0e31d9d4dbafe0a397e8", "is_disabled": 0, "lon": -76.98720183333333, "is_reserved": 0, "fusion_lat": 0.0, "type": "electric_bike"}, {"fusion_lon": 0.0, "name": "e381b7eee74f6c2b2a36d624604eab25", "rental_uris": {"android": "https://dc.lft.to/lastmile_qr_scan", "ios": "https://dc.lft.to/lastmile_qr_scan"}, "lat": 38.905554333333335, "bike_id": "e381b7eee74f6c2b2a36d624604eab25", "is_disabled": 0, "lon": -77.00221483333333, "is_reserved": 0, "fusion_lat": 0.0, "type": "electric_scooter"}, {"fusion_lon": 0.0, "name": "cdd6e9b5a2617b923eedb4d467a2c79a", "rental_uris": {"android": "https://dc.lft.to/lastmile_qr_scan", "ios": "https://dc.lft.to/lastmile_qr_scan"}, "lat": 38.90806833333333, "bike_id": "cdd6e9b5a2617b923eedb4d467a2c79a", "is_disabled": 0, "lon": -77.08399516666667, "is_reserved": 0, "fusion_lat": 0.0, "type": "electric_scooter"}, {"fusion_lon": 0.0, "name": "04c26ca0c837b5ff831b411de13fe8a3", "rental_uris": {"android": "https://dc.lft.to/lastmile_qr_scan", "ios": "https://dc.lft.to/lastmile_qr_scan"}, "lat": 38.89395733333333, "bike_id": "04c26ca0c837b5ff831b411de13fe8a3", "is_disabled": 0, "lon": -77.02250216666667, "is_reserved": 0, "fusion_lat": 0.0, "type": "electric_scooter"}, {"fusion_lon": 0.0, "name": "85442ebaff53bf810657fc8240979790", "rental_uris": {"android": "https://dc.lft.to/lastmile_qr_scan", "ios": "https://dc.lft.to/lastmile_qr_scan"}, "lat": 38.97260516666667, "bike_id": "85442ebaff53bf810657fc8240979790", "is_disabled": 0, "lon": -76.99275416666667, "is_reserved": 0, "fusion_lat": 0.0, "type": "electric_bike"}, {"fusion_lon": 0.0, "name": "109ace0b5d65ff91d34bf7c00ae66afe", "rental_uris": {"android": "https://dc.lft.to/lastmile_qr_scan", "ios": "https://dc.lft.to/lastmile_qr_scan"}, "lat": 38.9207965, "bike_id": "109ace0b5d65ff91d34bf7c00ae66afe", "is_disabled": 0, "lon": -77.01809616666667, "is_reserved": 0, "fusion_lat": 0.0, "type": "electric_scooter"}, {"fusion_lon": 0.0, "name": "4f84a616fc8126551de88cc9f28b90a3", "rental_uris": {"android": "https://dc.lft.to/lastmile_qr_scan", "ios": "https://dc.lft.to/lastmile_qr_scan"}, "lat": 38.9009465, "bike_id": "4f84a616fc8126551de88cc9f28b90a3", "is_disabled": 0, "lon": -77.049196, "is_reserved": 0, "fusion_lat": 0.0, "type": "electric_scooter"}, {"fusion_lon": 0.0, "name": "4ebd57bb27333b844fb3ac6ca8a44353", "rental_uris": {"android": "https://dc.lft.to/lastmile_qr_scan", "ios": "https://dc.lft.to/lastmile_qr_scan"}, "lat": 38.892244, "bike_id": "4ebd57bb27333b844fb3ac6ca8a44353", "is_disabled": 0, "lon": -77.04368466666666, "is_reserved": 0, "fusion_lat": 0.0, "type": "electric_scooter"}, {"fusion_lon": 0.0, "name": "ba1d84c29e0e944eb5112d2a10fb9bac", "rental_uris": {"android": "https://dc.lft.to/lastmile_qr_scan", "ios": "https://dc.lft.to/lastmile_qr_scan"}, "lat": 38.93114216666667, "bike_id": "ba1d84c29e0e944eb5112d2a10fb9bac", "is_disabled": 0, "lon": -77.03507733333333, "is_reserved": 0, "fusion_lat": 0.0, "type": "electric_scooter"}, {"fusion_lon": 0.0, "name": "36e86bf6676aaf4937156486a4e78df1", "rental_uris": {"android": "https://dc.lft.to/lastmile_qr_scan", "ios": "https://dc.lft.to/lastmile_qr_scan"}, "lat": 38.91001766666667, "bike_id": "36e86bf6676aaf4937156486a4e78df1", "is_disabled": 0, "lon": -77.0400555, "is_reserved": 0, "fusion_lat": 0.0, "type": "electric_scooter"}, {"fusion_lon": 0.0, "name": "904bac9f2c0e84613cefcb35f7d5fd7d", "rental_uris": {"android": "https://dc.lft.to/lastmile_qr_scan", "ios": "https://dc.lft.to/lastmile_qr_scan"}, "lat": 38.800545, "bike_id": "904bac9f2c0e84613cefcb35f7d5fd7d", "is_disabled": 0, "lon": -77.12835233333334, "is_reserved": 0, "fusion_lat": 0.0, "type": "electric_bike"}, {"fusion_lon": 0.0, "name": "844db5864f5e9cf7d68940143c7fc180", "rental_uris": {"android": "https://dc.lft.to/lastmile_qr_scan", "ios": "https://dc.lft.to/lastmile_qr_scan"}, "lat": 38.90596, "bike_id": "844db5864f5e9cf7d68940143c7fc180", "is_disabled": 0, "lon": -77.06896966666666, "is_reserved": 0, "fusion_lat": 0.0, "type": "electric_scooter"}, {"fusion_lon": 0.0, "name": "3c296fd9f3cf717bfd6a47cc4b678c99", "rental_uris": {"android": "https://dc.lft.to/lastmile_qr_scan", "ios": "https://dc.lft.to/lastmile_qr_scan"}, "lat": 38.912664, "bike_id": "3c296fd9f3cf717bfd6a47cc4b678c99", "is_disabled": 0, "lon": -77.0455115, "is_reserved": 0, "fusion_lat": 0.0, "type": "electric_scooter"}, {"fusion_lon": 0.0, "name": "44ee4b325532237eaab93f11fd0db656", "rental_uris": {"android": "https://dc.lft.to/lastmile_qr_scan", "ios": "https://dc.lft.to/lastmile_qr_scan"}, "lat": 38.90030616666667, "bike_id": "44ee4b325532237eaab93f11fd0db656", "is_disabled": 0, "lon": -77.0021075, "is_reserved": 0, "fusion_lat": 0.0, "type": "electric_scooter"}, {"fusion_lon": 0.0, "name": "31ba492a68b72585149a951e0233de0c", "rental_uris": {"android": "https://dc.lft.to/lastmile_qr_scan", "ios": "https://dc.lft.to/lastmile_qr_scan"}, "lat": 38.906512166666666, "bike_id": "31ba492a68b72585149a951e0233de0c", "is_disabled": 0, "lon": -77.05133366666666, "is_reserved": 0, "fusion_lat": 0.0, "type": "electric_scooter"}, {"fusion_lon": 0.0, "name": "b3507a4a335fc784c607b2687cdf26d8", "rental_uris": {"android": "https://dc.lft.to/lastmile_qr_scan", "ios": "https://dc.lft.to/lastmile_qr_scan"}, "lat": 38.8942345, "bike_id": "b3507a4a335fc784c607b2687cdf26d8", "is_disabled": 0, "lon": -76.99773316666666, "is_reserved": 0, "fusion_lat": 0.0, "type": "electric_scooter"}, {"fusion_lon": 0.0, "name": "9e9d998f0a73628592a7dff9cc9aeb2e", "rental_uris": {"android": "https://dc.lft.to/lastmile_qr_scan", "ios": "https://dc.lft.to/lastmile_qr_scan"}, "lat": 38.89858866666667, "bike_id": "9e9d998f0a73628592a7dff9cc9aeb2e", "is_disabled": 0, "lon": -77.05410616666667, "is_reserved": 0, "fusion_lat": 0.0, "type": "electric_scooter"}, {"fusion_lon": 0.0, "name": "dbc7277db5316a957b4567c35d1ca74c", "rental_uris": {"android": "https://dc.lft.to/lastmile_qr_scan", "ios": "https://dc.lft.to/lastmile_qr_scan"}, "lat": 38.90565616666667, "bike_id": "dbc7277db5316a957b4567c35d1ca74c", "is_disabled": 0, "lon": -77.02798466666667, "is_reserved": 0, "fusion_lat": 0.0, "type": "electric_scooter"}, {"fusion_lon": 0.0, "name": "1014caf8209144e5d7a4e0fc20d35e86", "rental_uris": {"android": "https://dc.lft.to/lastmile_qr_scan", "ios": "https://dc.lft.to/lastmile_qr_scan"}, "lat": 38.950834666666665, "bike_id": "1014caf8209144e5d7a4e0fc20d35e86", "is_disabled": 0, "lon": -76.99791583333334, "is_reserved": 0, "fusion_lat": 0.0, "type": "electric_bike"}, {"fusion_lon": 0.0, "name": "acb343c864092bf1112dcd52b83bb16e", "rental_uris": {"android": "https://dc.lft.to/lastmile_qr_scan", "ios": "https://dc.lft.to/lastmile_qr_scan"}, "lat": 38.90506033333333, "bike_id": "acb343c864092bf1112dcd52b83bb16e", "is_disabled": 0, "lon": -76.984897, "is_reserved": 0, "fusion_lat": 0.0, "type": "electric_scooter"}, {"fusion_lon": 0.0, "name": "96d1832ff272fdf33890480803a134c3", "rental_uris": {"android": "https://dc.lft.to/lastmile_qr_scan", "ios": "https://dc.lft.to/lastmile_qr_scan"}, "lat": 38.93465666666667, "bike_id": "96d1832ff272fdf33890480803a134c3", "is_disabled": 0, "lon": -77.05811383333334, "is_reserved": 0, "fusion_lat": 0.0, "type": "electric_scooter"}, {"fusion_lon": 0.0, "name": "1bfe6e7e28a8e5e168c612c08ecdfea7", "rental_uris": {"android": "https://dc.lft.to/lastmile_qr_scan", "ios": "https://dc.lft.to/lastmile_qr_scan"}, "lat": 38.87697583333333, "bike_id": "1bfe6e7e28a8e5e168c612c08ecdfea7", "is_disabled": 0, "lon": -77.00068516666667, "is_reserved": 0, "fusion_lat": 0.0, "type": "electric_scooter"}, {"fusion_lon": 0.0, "name": "60f0084afd27850ad9662ad10e14f242", "rental_uris": {"android": "https://dc.lft.to/lastmile_qr_scan", "ios": "https://dc.lft.to/lastmile_qr_scan"}, "lat": 38.920751333333335, "bike_id": "60f0084afd27850ad9662ad10e14f242", "is_disabled": 0, "lon": -77.02410266666666, "is_reserved": 0, "fusion_lat": 0.0, "type": "electric_scooter"}, {"fusion_lon": 0.0, "name": "74f09ac5190f5d3b78abcc1276b0020d", "rental_uris": {"android": "https://dc.lft.to/lastmile_qr_scan", "ios": "https://dc.lft.to/lastmile_qr_scan"}, "lat": 38.93406916666667, "bike_id": "74f09ac5190f5d3b78abcc1276b0020d", "is_disabled": 0, "lon": -77.03839866666667, "is_reserved": 0, "fusion_lat": 0.0, "type": "electric_scooter"}, {"fusion_lon": 0.0, "name": "35bcb56daa3e83221a639c5373093352", "rental_uris": {"android": "https://dc.lft.to/lastmile_qr_scan", "ios": "https://dc.lft.to/lastmile_qr_scan"}, "lat": 38.95116183333333, "bike_id": "35bcb56daa3e83221a639c5373093352", "is_disabled": 0, "lon": -77.08865133333333, "is_reserved": 0, "fusion_lat": 0.0, "type": "electric_bike"}, {"fusion_lon": 0.0, "name": "f8cdc11317e5c7507dff0bed89cde712", "rental_uris": {"android": "https://dc.lft.to/lastmile_qr_scan", "ios": "https://dc.lft.to/lastmile_qr_scan"}, "lat": 38.924118, "bike_id": "f8cdc11317e5c7507dff0bed89cde712", "is_disabled": 0, "lon": -77.0208995, "is_reserved": 0, "fusion_lat": 0.0, "type": "electric_scooter"}, {"fusion_lon": 0.0, "name": "649db82ef54e048c56be3d51b46c51d1", "rental_uris": {"android": "https://dc.lft.to/lastmile_qr_scan", "ios": "https://dc.lft.to/lastmile_qr_scan"}, "lat": 38.9035965, "bike_id": "649db82ef54e048c56be3d51b46c51d1", "is_disabled": 0, "lon": -77.03228016666667, "is_reserved": 0, "fusion_lat": 0.0, "type": "electric_scooter"}, {"fusion_lon": 0.0, "name": "2557147c7937484d3d424bb53acd0b3b", "rental_uris": {"android": "https://dc.lft.to/lastmile_qr_scan", "ios": "https://dc.lft.to/lastmile_qr_scan"}, "lat": 38.94980666666667, "bike_id": "2557147c7937484d3d424bb53acd0b3b", "is_disabled": 0, "lon": -77.02017983333333, "is_reserved": 0, "fusion_lat": 0.0, "type": "electric_scooter"}, {"fusion_lon": 0.0, "name": "eb89e54550755f7b9334b7361c336448", "rental_uris": {"android": "https://dc.lft.to/lastmile_qr_scan", "ios": "https://dc.lft.to/lastmile_qr_scan"}, "lat": 38.879365666666665, "bike_id": "eb89e54550755f7b9334b7361c336448", "is_disabled": 0, "lon": -77.01716083333334, "is_reserved": 0, "fusion_lat": 0.0, "type": "electric_scooter"}, {"fusion_lon": 0.0, "name": "2b04d0862c640cacb5ae70c881a22e10", "rental_uris": {"android": "https://dc.lft.to/lastmile_qr_scan", "ios": "https://dc.lft.to/lastmile_qr_scan"}, "lat": 38.894921, "bike_id": "2b04d0862c640cacb5ae70c881a22e10", "is_disabled": 0, "lon": -76.948937, "is_reserved": 0, "fusion_lat": 0.0, "type": "electric_scooter"}, {"fusion_lon": 0.0, "name": "a1d6b9f757f341e9ab522092e2684922", "rental_uris": {"android": "https://dc.lft.to/lastmile_qr_scan", "ios": "https://dc.lft.to/lastmile_qr_scan"}, "lat": 38.90604, "bike_id": "a1d6b9f757f341e9ab522092e2684922", "is_disabled": 0, "lon": -77.01322633333334, "is_reserved": 0, "fusion_lat": 0.0, "type": "electric_scooter"}, {"fusion_lon": 0.0, "name": "8730e1913338a1aee4c3e95c6199d609", "rental_uris": {"android": "https://dc.lft.to/lastmile_qr_scan", "ios": "https://dc.lft.to/lastmile_qr_scan"}, "lat": 38.964188666666665, "bike_id": "8730e1913338a1aee4c3e95c6199d609", "is_disabled": 0, "lon": -77.0325555, "is_reserved": 0, "fusion_lat": 0.0, "type": "electric_scooter"}, {"fusion_lon": 0.0, "name": "330b077cf054c655b238a0abe5abd63c", "rental_uris": {"android": "https://dc.lft.to/lastmile_qr_scan", "ios": "https://dc.lft.to/lastmile_qr_scan"}, "lat": 38.9095135, "bike_id": "330b077cf054c655b238a0abe5abd63c", "is_disabled": 0, "lon": -77.03180016666667, "is_reserved": 0, "fusion_lat": 0.0, "type": "electric_scooter"}, {"fusion_lon": 0.0, "name": "a208f8ba2da763d9c706d671b7509ff7", "rental_uris": {"android": "https://dc.lft.to/lastmile_qr_scan", "ios": "https://dc.lft.to/lastmile_qr_scan"}, "lat": 38.9352585, "bike_id": "a208f8ba2da763d9c706d671b7509ff7", "is_disabled": 0, "lon": -77.03259466666667, "is_reserved": 0, "fusion_lat": 0.0, "type": "electric_scooter"}, {"fusion_lon": 0.0, "name": "73b1576effa9b937527cab993dc31a4c", "rental_uris": {"android": "https://dc.lft.to/lastmile_qr_scan", "ios": "https://dc.lft.to/lastmile_qr_scan"}, "lat": 38.938390166666665, "bike_id": "73b1576effa9b937527cab993dc31a4c", "is_disabled": 0, "lon": -77.0248305, "is_reserved": 0, "fusion_lat": 0.0, "type": "electric_scooter"}, {"fusion_lon": 0.0, "name": "b7a37224e06d273176569e0801067b1b", "rental_uris": {"android": "https://dc.lft.to/lastmile_qr_scan", "ios": "https://dc.lft.to/lastmile_qr_scan"}, "lat": 38.90965466666667, "bike_id": "b7a37224e06d273176569e0801067b1b", "is_disabled": 0, "lon": -77.024455, "is_reserved": 0, "fusion_lat": 0.0, "type": "electric_scooter"}, {"fusion_lon": 0.0, "name": "6f4c80dc2a712f13e98d159b700059c3", "rental_uris": {"android": "https://dc.lft.to/lastmile_qr_scan", "ios": "https://dc.lft.to/lastmile_qr_scan"}, "lat": 38.901999833333335, "bike_id": "6f4c80dc2a712f13e98d159b700059c3", "is_disabled": 0, "lon": -77.061199, "is_reserved": 0, "fusion_lat": 0.0, "type": "electric_scooter"}, {"fusion_lon": 0.0, "name": "1723b66b2267ba27f56c04ee2fa93a6e", "rental_uris": {"android": "https://dc.lft.to/lastmile_qr_scan", "ios": "https://dc.lft.to/lastmile_qr_scan"}, "lat": 38.91189833333333, "bike_id": "1723b66b2267ba27f56c04ee2fa93a6e", "is_disabled": 0, "lon": -77.0313425, "is_reserved": 0, "fusion_lat": 0.0, "type": "electric_scooter"}, {"fusion_lon": 0.0, "name": "48157df5de90d47b776ddbf3341bbd59", "rental_uris": {"android": "https://dc.lft.to/lastmile_qr_scan", "ios": "https://dc.lft.to/lastmile_qr_scan"}, "lat": 38.918807666666666, "bike_id": "48157df5de90d47b776ddbf3341bbd59", "is_disabled": 0, "lon": -77.04483133333333, "is_reserved": 0, "fusion_lat": 0.0, "type": "electric_scooter"}, {"fusion_lon": 0.0, "name": "a0e604f789715b276025b91fc2e96055", "rental_uris": {"android": "https://dc.lft.to/lastmile_qr_scan", "ios": "https://dc.lft.to/lastmile_qr_scan"}, "lat": 38.87691383333333, "bike_id": "a0e604f789715b276025b91fc2e96055", "is_disabled": 0, "lon": -77.0005125, "is_reserved": 0, "fusion_lat": 0.0, "type": "electric_scooter"}, {"fusion_lon": 0.0, "name": "b46d24ecf3f9cca20d9b4116f9002008", "rental_uris": {"android": "https://dc.lft.to/lastmile_qr_scan", "ios": "https://dc.lft.to/lastmile_qr_scan"}, "lat": 38.9217765, "bike_id": "b46d24ecf3f9cca20d9b4116f9002008", "is_disabled": 0, "lon": -77.02660883333333, "is_reserved": 0, "fusion_lat": 0.0, "type": "electric_scooter"}, {"fusion_lon": 0.0, "name": "f0b0d10cdcde080ea7b4f864b2b736e3", "rental_uris": {"android": "https://dc.lft.to/lastmile_qr_scan", "ios": "https://dc.lft.to/lastmile_qr_scan"}, "lat": 38.957614666666665, "bike_id": "f0b0d10cdcde080ea7b4f864b2b736e3", "is_disabled": 0, "lon": -77.00914083333333, "is_reserved": 0, "fusion_lat": 0.0, "type": "electric_scooter"}, {"fusion_lon": 0.0, "name": "a864bf7e603cc6465c5516cb30da3c49", "rental_uris": {"android": "https://dc.lft.to/lastmile_qr_scan", "ios": "https://dc.lft.to/lastmile_qr_scan"}, "lat": 38.91256416666667, "bike_id": "a864bf7e603cc6465c5516cb30da3c49", "is_disabled": 0, "lon": -77.03209466666667, "is_reserved": 0, "fusion_lat": 0.0, "type": "electric_scooter"}, {"fusion_lon": 0.0, "name": "f084374c0cda5cda38e11620f96bf9b5", "rental_uris": {"android": "https://dc.lft.to/lastmile_qr_scan", "ios": "https://dc.lft.to/lastmile_qr_scan"}, "lat": 38.92058766666667, "bike_id": "f084374c0cda5cda38e11620f96bf9b5", "is_disabled": 0, "lon": -77.02357466666666, "is_reserved": 0, "fusion_lat": 0.0, "type": "electric_scooter"}, {"fusion_lon": 0.0, "name": "1d5bd3ae5ed03c1cfdcf0f4e7ba8d418", "rental_uris": {"android": "https://dc.lft.to/lastmile_qr_scan", "ios": "https://dc.lft.to/lastmile_qr_scan"}, "lat": 38.92158166666667, "bike_id": "1d5bd3ae5ed03c1cfdcf0f4e7ba8d418", "is_disabled": 0, "lon": -77.03381766666666, "is_reserved": 0, "fusion_lat": 0.0, "type": "electric_scooter"}, {"fusion_lon": 0.0, "name": "d68d8cb2bd35a9a381065283dd21d9ab", "rental_uris": {"android": "https://dc.lft.to/lastmile_qr_scan", "ios": "https://dc.lft.to/lastmile_qr_scan"}, "lat": 38.89232166666667, "bike_id": "d68d8cb2bd35a9a381065283dd21d9ab", "is_disabled": 0, "lon": -77.02384833333333, "is_reserved": 0, "fusion_lat": 0.0, "type": "electric_scooter"}, {"fusion_lon": 0.0, "name": "39b5cd7eace92adbe134dd80bc14d805", "rental_uris": {"android": "https://dc.lft.to/lastmile_qr_scan", "ios": "https://dc.lft.to/lastmile_qr_scan"}, "lat": 38.920496, "bike_id": "39b5cd7eace92adbe134dd80bc14d805", "is_disabled": 0, "lon": -77.02426333333334, "is_reserved": 0, "fusion_lat": 0.0, "type": "electric_scooter"}, {"fusion_lon": 0.0, "name": "ec90269c50756f5816c4753a41522012", "rental_uris": {"android": "https://dc.lft.to/lastmile_qr_scan", "ios": "https://dc.lft.to/lastmile_qr_scan"}, "lat": 38.920796333333335, "bike_id": "ec90269c50756f5816c4753a41522012", "is_disabled": 0, "lon": -77.02412116666666, "is_reserved": 0, "fusion_lat": 0.0, "type": "electric_scooter"}, {"fusion_lon": 0.0, "name": "1c1b22b71e82218439935d88726c5cbc", "rental_uris": {"android": "https://dc.lft.to/lastmile_qr_scan", "ios": "https://dc.lft.to/lastmile_qr_scan"}, "lat": 38.920344, "bike_id": "1c1b22b71e82218439935d88726c5cbc", "is_disabled": 0, "lon": -76.99108116666666, "is_reserved": 0, "fusion_lat": 0.0, "type": "electric_bike"}, {"fusion_lon": 0.0, "name": "7ceb64dd554fb3968dd0c22dbfab8dfc", "rental_uris": {"android": "https://dc.lft.to/lastmile_qr_scan", "ios": "https://dc.lft.to/lastmile_qr_scan"}, "lat": 38.955176333333334, "bike_id": "7ceb64dd554fb3968dd0c22dbfab8dfc", "is_disabled": 0, "lon": -77.01038716666666, "is_reserved": 0, "fusion_lat": 0.0, "type": "electric_scooter"}, {"fusion_lon": 0.0, "name": "e2060047273e54618e27cd8f43d2b674", "rental_uris": {"android": "https://dc.lft.to/lastmile_qr_scan", "ios": "https://dc.lft.to/lastmile_qr_scan"}, "lat": 38.94369283333333, "bike_id": "e2060047273e54618e27cd8f43d2b674", "is_disabled": 0, "lon": -77.061086, "is_reserved": 0, "fusion_lat": 0.0, "type": "electric_scooter"}, {"fusion_lon": 0.0, "name": "85a5b81ab8301ca7ad6460298e8aaa12", "rental_uris": {"android": "https://dc.lft.to/lastmile_qr_scan", "ios": "https://dc.lft.to/lastmile_qr_scan"}, "lat": 38.922651, "bike_id": "85a5b81ab8301ca7ad6460298e8aaa12", "is_disabled": 0, "lon": -77.03396133333334, "is_reserved": 0, "fusion_lat": 0.0, "type": "electric_scooter"}, {"fusion_lon": 0.0, "name": "39ec0d1b670f18aecefb03deac177c59", "rental_uris": {"android": "https://dc.lft.to/lastmile_qr_scan", "ios": "https://dc.lft.to/lastmile_qr_scan"}, "lat": 38.91862166666667, "bike_id": "39ec0d1b670f18aecefb03deac177c59", "is_disabled": 0, "lon": -77.02542666666666, "is_reserved": 0, "fusion_lat": 0.0, "type": "electric_scooter"}, {"fusion_lon": 0.0, "name": "b0ff965ff30bec66a0bb0ebe78d84dea", "rental_uris": {"android": "https://dc.lft.to/lastmile_qr_scan", "ios": "https://dc.lft.to/lastmile_qr_scan"}, "lat": 38.905337, "bike_id": "b0ff965ff30bec66a0bb0ebe78d84dea", "is_disabled": 0, "lon": -77.06532616666667, "is_reserved": 0, "fusion_lat": 0.0, "type": "electric_scooter"}, {"fusion_lon": 0.0, "name": "a2e935b982ca87b0d3a0789961590b17", "rental_uris": {"android": "https://dc.lft.to/lastmile_qr_scan", "ios": "https://dc.lft.to/lastmile_qr_scan"}, "lat": 38.8922715, "bike_id": "a2e935b982ca87b0d3a0789961590b17", "is_disabled": 0, "lon": -77.045018, "is_reserved": 0, "fusion_lat": 0.0, "type": "electric_scooter"}, {"fusion_lon": 0.0, "name": "6488430cf3259d78851f86e6c6d33946", "rental_uris": {"android": "https://dc.lft.to/lastmile_qr_scan", "ios": "https://dc.lft.to/lastmile_qr_scan"}, "lat": 38.89588966666667, "bike_id": "6488430cf3259d78851f86e6c6d33946", "is_disabled": 0, "lon": -77.0251375, "is_reserved": 0, "fusion_lat": 0.0, "type": "electric_scooter"}, {"fusion_lon": 0.0, "name": "45f06f202eef6991d265f7bfe272544a", "rental_uris": {"android": "https://dc.lft.to/lastmile_qr_scan", "ios": "https://dc.lft.to/lastmile_qr_scan"}, "lat": 38.90974216666667, "bike_id": "45f06f202eef6991d265f7bfe272544a", "is_disabled": 0, "lon": -77.03217233333334, "is_reserved": 0, "fusion_lat": 0.0, "type": "electric_scooter"}, {"fusion_lon": 0.0, "name": "8e2dddab6257bf3632729dc24a79db29", "rental_uris": {"android": "https://dc.lft.to/lastmile_qr_scan", "ios": "https://dc.lft.to/lastmile_qr_scan"}, "lat": 38.9312425, "bike_id": "8e2dddab6257bf3632729dc24a79db29", "is_disabled": 0, "lon": -77.035926, "is_reserved": 0, "fusion_lat": 0.0, "type": "electric_scooter"}, {"fusion_lon": 0.0, "name": "fef065d7cfc1fe64f7172c820dec662b", "rental_uris": {"android": "https://dc.lft.to/lastmile_qr_scan", "ios": "https://dc.lft.to/lastmile_qr_scan"}, "lat": 38.945402, "bike_id": "fef065d7cfc1fe64f7172c820dec662b", "is_disabled": 0, "lon": -77.344587, "is_reserved": 0, "fusion_lat": 0.0, "type": "electric_bike"}, {"fusion_lon": 0.0, "name": "fec67be370eefeb6ed6ea0d014b92452", "rental_uris": {"android": "https://dc.lft.to/lastmile_qr_scan", "ios": "https://dc.lft.to/lastmile_qr_scan"}, "lat": 38.924556, "bike_id": "fec67be370eefeb6ed6ea0d014b92452", "is_disabled": 0, "lon": -77.02157633333333, "is_reserved": 0, "fusion_lat": 0.0, "type": "electric_scooter"}, {"fusion_lon": 0.0, "name": "cef78730adcdb9c24f599184c0b65bf4", "rental_uris": {"android": "https://dc.lft.to/lastmile_qr_scan", "ios": "https://dc.lft.to/lastmile_qr_scan"}, "lat": 39.084326833333336, "bike_id": "cef78730adcdb9c24f599184c0b65bf4", "is_disabled": 0, "lon": -76.95145383333333, "is_reserved": 0, "fusion_lat": 0.0, "type": "electric_bike"}, {"fusion_lon": 0.0, "name": "b5a550a378f33a5f690b67f970117184", "rental_uris": {"android": "https://dc.lft.to/lastmile_qr_scan", "ios": "https://dc.lft.to/lastmile_qr_scan"}, "lat": 38.886625333333335, "bike_id": "b5a550a378f33a5f690b67f970117184", "is_disabled": 0, "lon": -76.93676966666666, "is_reserved": 0, "fusion_lat": 0.0, "type": "electric_scooter"}, {"fusion_lon": 0.0, "name": "2a2341378a872c44df8d9d9a2dbb1f72", "rental_uris": {"android": "https://dc.lft.to/lastmile_qr_scan", "ios": "https://dc.lft.to/lastmile_qr_scan"}, "lat": 38.91926616666667, "bike_id": "2a2341378a872c44df8d9d9a2dbb1f72", "is_disabled": 0, "lon": -77.009936, "is_reserved": 0, "fusion_lat": 0.0, "type": "electric_scooter"}, {"fusion_lon": 0.0, "name": "efd1da194797bf5ff4619f7bf517588b", "rental_uris": {"android": "https://dc.lft.to/lastmile_qr_scan", "ios": "https://dc.lft.to/lastmile_qr_scan"},