{"data": {"bikes": [{"bike_id": "9c4d68db326c8d7ef5b4e42bcb36b91f", "fusion_lon": 0.0, "lon": -77.041901, "name": "9c4d68db326c8d7ef5b4e42bcb36b91f", "is_disabled": 0, "rental_uris": {"android": "https://dc.lft.to/lastmile_qr_scan", "ios": "https://dc.lft.to/lastmile_qr_scan"}, "type": "electric_scooter", "lat": 38.8936615, "is_reserved": 0, "fusion_lat": 0.0}, {"bike_id": "0469ba89987d6b26561d68fe8baa8ddf", "fusion_lon": 0.0, "lon": -77.12017233333333, "name": "0469ba89987d6b26561d68fe8baa8ddf", "is_disabled": 0, "rental_uris": {"android": "https://dc.lft.to/lastmile_qr_scan", "ios": "https://dc.lft.to/lastmile_qr_scan"}, "type": "electric_bike", "lat": 38.85509616666667, "is_reserved": 0, "fusion_lat": 0.0}, {"bike_id": "5a0df69ba73ffdbf6c964ab7fdb761de", "fusion_lon": 0.0, "lon": -77.0316645, "name": "5a0df69ba73ffdbf6c964ab7fdb761de", "is_disabled": 0, "rental_uris": {"android": "https://dc.lft.to/lastmile_qr_scan", "ios": "https://dc.lft.to/lastmile_qr_scan"}, "type": "electric_scooter", "lat": 38.9014715, "is_reserved": 0, "fusion_lat": 0.0}, {"bike_id": "41ee9e06f39da3343c57017cc75d2c77", "fusion_lon": 0.0, "lon": -77.03345266666666, "name": "41ee9e06f39da3343c57017cc75d2c77", "is_disabled": 0, "rental_uris": {"android": "https://dc.lft.to/lastmile_qr_scan", "ios": "https://dc.lft.to/lastmile_qr_scan"}, "type": "electric_scooter", "lat": 38.907305666666666, "is_reserved": 0, "fusion_lat": 0.0}, {"bike_id": "0759bf309d0969b4a75dfa99462eb56b", "fusion_lon": 0.0, "lon": -77.01911583333333, "name": "0759bf309d0969b4a75dfa99462eb56b", "is_disabled": 0, "rental_uris": {"android": "https://dc.lft.to/lastmile_qr_scan", "ios": "https://dc.lft.to/lastmile_qr_scan"}, "type": "electric_scooter", "lat": 38.92373583333333, "is_reserved": 0, "fusion_lat": 0.0}, {"bike_id": "f565cc2b822da0f7038a529ccd999b71", "fusion_lon": 0.0, "lon": -77.02720816666667, "name": "f565cc2b822da0f7038a529ccd999b71", "is_disabled": 0, "rental_uris": {"android": "https://dc.lft.to/lastmile_qr_scan", "ios": "https://dc.lft.to/lastmile_qr_scan"}, "type": "electric_scooter", "lat": 38.904941, "is_reserved": 0, "fusion_lat": 0.0}, {"bike_id": "47c24b647cbf9e2fc21dd2be4567bf72", "fusion_lon": 0.0, "lon": -77.03530183333334, "name": "47c24b647cbf9e2fc21dd2be4567bf72", "is_disabled": 0, "rental_uris": {"android": "https://dc.lft.to/lastmile_qr_scan", "ios": "https://dc.lft.to/lastmile_qr_scan"}, "type": "electric_scooter", "lat": 38.92217266666667, "is_reserved": 0, "fusion_lat": 0.0}, {"bike_id": "ceb9a9e28907de30721b56f551cd4cdf", "fusion_lon": 0.0, "lon": -77.04942833333334, "name": "ceb9a9e28907de30721b56f551cd4cdf", "is_disabled": 0, "rental_uris": {"android": "https://dc.lft.to/lastmile_qr_scan", "ios": "https://dc.lft.to/lastmile_qr_scan"}, "type": "electric_bike", "lat": 38.8883025, "is_reserved": 0, "fusion_lat": 0.0}, {"bike_id": "303b07d192b80282a5e4dd4228a6fa20", "fusion_lon": 0.0, "lon": -77.0074185, "name": "303b07d192b80282a5e4dd4228a6fa20", "is_disabled": 0, "rental_uris": {"android": "https://dc.lft.to/lastmile_qr_scan", "ios": "https://dc.lft.to/lastmile_qr_scan"}, "type": "electric_scooter", "lat": 38.91019266666667, "is_reserved": 0, "fusion_lat": 0.0}, {"bike_id": "a50d037aeeb9ba51ee1b373b0829938f", "fusion_lon": 0.0, "lon": -77.00182933333333, "name": "a50d037aeeb9ba51ee1b373b0829938f", "is_disabled": 0, "rental_uris": {"android": "https://dc.lft.to/lastmile_qr_scan", "ios": "https://dc.lft.to/lastmile_qr_scan"}, "type": "electric_scooter", "lat": 38.90955133333333, "is_reserved": 0, "fusion_lat": 0.0}, {"bike_id": "9cf4030ae6d0b3176d42be262531ec5a", "fusion_lon": 0.0, "lon": -77.03415583333333, "name": "9cf4030ae6d0b3176d42be262531ec5a", "is_disabled": 0, "rental_uris": {"android": "https://dc.lft.to/lastmile_qr_scan", "ios": "https://dc.lft.to/lastmile_qr_scan"}, "type": "electric_scooter", "lat": 38.92242266666667, "is_reserved": 0, "fusion_lat": 0.0}, {"bike_id": "a4bc6583df10ae4d09a68131fcf0c14a", "fusion_lon": 0.0, "lon": -77.02296033333333, "name": "a4bc6583df10ae4d09a68131fcf0c14a", "is_disabled": 0, "rental_uris": {"android": "https://dc.lft.to/lastmile_qr_scan", "ios": "https://dc.lft.to/lastmile_qr_scan"}, "type": "electric_bike", "lat": 38.92328766666667, "is_reserved": 0, "fusion_lat": 0.0}, {"bike_id": "54a1e26981dea7d387851d9210b88d17", "fusion_lon": 0.0, "lon": -76.99740683333333, "name": "54a1e26981dea7d387851d9210b88d17", "is_disabled": 0, "rental_uris": {"android": "https://dc.lft.to/lastmile_qr_scan", "ios": "https://dc.lft.to/lastmile_qr_scan"}, "type": "electric_scooter", "lat": 38.9012445, "is_reserved": 0, "fusion_lat": 0.0}, {"bike_id": "87eed08257cd5a7c3eb173ad313ec614", "fusion_lon": 0.0, "lon": -76.94187416666666, "name": "87eed08257cd5a7c3eb173ad313ec614", "is_disabled": 0, "rental_uris": {"android": "https://dc.lft.to/lastmile_qr_scan", "ios": "https://dc.lft.to/lastmile_qr_scan"}, "type": "electric_scooter", "lat": 38.897551, "is_reserved": 0, "fusion_lat": 0.0}, {"bike_id": "995818a39562c4f3299fe8d7f324c05f", "fusion_lon": 0.0, "lon": -77.036615, "name": "995818a39562c4f3299fe8d7f324c05f", "is_disabled": 0, "rental_uris": {"android": "https://dc.lft.to/lastmile_qr_scan", "ios": "https://dc.lft.to/lastmile_qr_scan"}, "type": "electric_scooter", "lat": 38.93488933333333, "is_reserved": 0, "fusion_lat": 0.0}, {"bike_id": "0007b078e57df37c3c3a4f4430013a17", "fusion_lon": 0.0, "lon": -77.034655, "name": "0007b078e57df37c3c3a4f4430013a17", "is_disabled": 0, "rental_uris": {"android": "https://dc.lft.to/lastmile_qr_scan", "ios": "https://dc.lft.to/lastmile_qr_scan"}, "type": "electric_scooter", "lat": 38.9064865, "is_reserved": 0, "fusion_lat": 0.0}, {"bike_id": "5acced679a24297024fdcf1273f4b899", "fusion_lon": 0.0, "lon": -77.0329285, "name": "5acced679a24297024fdcf1273f4b899", "is_disabled": 0, "rental_uris": {"android": "https://dc.lft.to/lastmile_qr_scan", "ios": "https://dc.lft.to/lastmile_qr_scan"}, "type": "electric_scooter", "lat": 38.956451333333334, "is_reserved": 0, "fusion_lat": 0.0}, {"bike_id": "1131b61485fd61d0f9916e2838f805ed", "fusion_lon": 0.0, "lon": -77.03664566666667, "name": "1131b61485fd61d0f9916e2838f805ed", "is_disabled": 0, "rental_uris": {"android": "https://dc.lft.to/lastmile_qr_scan", "ios": "https://dc.lft.to/lastmile_qr_scan"}, "type": "electric_scooter", "lat": 38.913187666666666, "is_reserved": 0, "fusion_lat": 0.0}, {"bike_id": "763fdd930489a2aaa2634b6e5a9ce26d", "fusion_lon": 0.0, "lon": -77.03144316666666, "name": "763fdd930489a2aaa2634b6e5a9ce26d", "is_disabled": 0, "rental_uris": {"android": "https://dc.lft.to/lastmile_qr_scan", "ios": "https://dc.lft.to/lastmile_qr_scan"}, "type": "electric_scooter", "lat": 38.915659, "is_reserved": 0, "fusion_lat": 0.0}, {"bike_id": "42cb2bc886cdab9fd238cd1564614977", "fusion_lon": 0.0, "lon": -77.04015216666667, "name": "42cb2bc886cdab9fd238cd1564614977", "is_disabled": 0, "rental_uris": {"android": "https://dc.lft.to/lastmile_qr_scan", "ios": "https://dc.lft.to/lastmile_qr_scan"}, "type": "electric_scooter", "lat": 38.921824, "is_reserved": 0, "fusion_lat": 0.0}, {"bike_id": "22012bf67438c63be2a351f9ae3c05b3", "fusion_lon": 0.0, "lon": -77.05388533333333, "name": "22012bf67438c63be2a351f9ae3c05b3", "is_disabled": 0, "rental_uris": {"android": "https://dc.lft.to/lastmile_qr_scan", "ios": "https://dc.lft.to/lastmile_qr_scan"}, "type": "electric_scooter", "lat": 38.9106935, "is_reserved": 0, "fusion_lat": 0.0}, {"bike_id": "c1f7fdbbfbe7d74baac0f73bf8b0625c", "fusion_lon": 0.0, "lon": -77.0371415, "name": "c1f7fdbbfbe7d74baac0f73bf8b0625c", "is_disabled": 0, "rental_uris": {"android": "https://dc.lft.to/lastmile_qr_scan", "ios": "https://dc.lft.to/lastmile_qr_scan"}, "type": "electric_scooter", "lat": 38.90971583333334, "is_reserved": 0, "fusion_lat": 0.0}, {"bike_id": "828b380389f7da64f5f160dc258d849c", "fusion_lon": 0.0, "lon": -76.93157783333334, "name": "828b380389f7da64f5f160dc258d849c", "is_disabled": 0, "rental_uris": {"android": "https://dc.lft.to/lastmile_qr_scan", "ios": "https://dc.lft.to/lastmile_qr_scan"}, "type": "electric_scooter", "lat": 38.8988, "is_reserved": 0, "fusion_lat": 0.0}, {"bike_id": "86e41208c2aea3d5d93b729cf1f9a0e7", "fusion_lon": 0.0, "lon": -77.048339, "name": "86e41208c2aea3d5d93b729cf1f9a0e7", "is_disabled": 0, "rental_uris": {"android": "https://dc.lft.to/lastmile_qr_scan", "ios": "https://dc.lft.to/lastmile_qr_scan"}, "type": "electric_scooter", "lat": 38.907233, "is_reserved": 0, "fusion_lat": 0.0}, {"bike_id": "78cc956dbb1f6e6daeea3ece0c8cdc10", "fusion_lon": 0.0, "lon": -77.033215, "name": "78cc956dbb1f6e6daeea3ece0c8cdc10", "is_disabled": 0, "rental_uris": {"android": "https://dc.lft.to/lastmile_qr_scan", "ios": "https://dc.lft.to/lastmile_qr_scan"}, "type": "electric_scooter", "lat": 38.92155566666667, "is_reserved": 0, "fusion_lat": 0.0}, {"bike_id": "99846be69da4e929eb7c5c687f7ed992", "fusion_lon": 0.0, "lon": -77.02929383333333, "name": "99846be69da4e929eb7c5c687f7ed992", "is_disabled": 0, "rental_uris": {"android": "https://dc.lft.to/lastmile_qr_scan", "ios": "https://dc.lft.to/lastmile_qr_scan"}, "type": "electric_scooter", "lat": 38.9332815, "is_reserved": 0, "fusion_lat": 0.0}, {"bike_id": "5e82063f6d70c8194e9c3e6d7749a5e3", "fusion_lon": 0.0, "lon": -77.04179683333334, "name": "5e82063f6d70c8194e9c3e6d7749a5e3", "is_disabled": 0, "rental_uris": {"android": "https://dc.lft.to/lastmile_qr_scan", "ios": "https://dc.lft.to/lastmile_qr_scan"}, "type": "electric_bike", "lat": 38.91989866666667, "is_reserved": 0, "fusion_lat": 0.0}, {"bike_id": "676518edca0c31e74d8ba2b68fd2549b", "fusion_lon": 0.0, "lon": -77.042791, "name": "676518edca0c31e74d8ba2b68fd2549b", "is_disabled": 0, "rental_uris": {"android": "https://dc.lft.to/lastmile_qr_scan", "ios": "https://dc.lft.to/lastmile_qr_scan"}, "type": "electric_scooter", "lat": 38.914144666666665, "is_reserved": 0, "fusion_lat": 0.0}, {"bike_id": "9373d573ba0ff9ae953c68d57bfc4cc8", "fusion_lon": 0.0, "lon": -77.05526766666667, "name": "9373d573ba0ff9ae953c68d57bfc4cc8", "is_disabled": 0, "rental_uris": {"android": "https://dc.lft.to/lastmile_qr_scan", "ios": "https://dc.lft.to/lastmile_qr_scan"}, "type": "electric_scooter", "lat": 38.930204, "is_reserved": 0, "fusion_lat": 0.0}, {"bike_id": "9d8cf8b806e049145d7ded38d8327bee", "fusion_lon": 0.0, "lon": -77.02830933333334, "name": "9d8cf8b806e049145d7ded38d8327bee", "is_disabled": 0, "rental_uris": {"android": "https://dc.lft.to/lastmile_qr_scan", "ios": "https://dc.lft.to/lastmile_qr_scan"}, "type": "electric_scooter", "lat": 38.88732783333333, "is_reserved": 0, "fusion_lat": 0.0}, {"bike_id": "5a2d1127a42756914e25aebf7c1eaa27", "fusion_lon": 0.0, "lon": -77.05855933333333, "name": "5a2d1127a42756914e25aebf7c1eaa27", "is_disabled": 0, "rental_uris": {"android": "https://dc.lft.to/lastmile_qr_scan", "ios": "https://dc.lft.to/lastmile_qr_scan"}, "type": "electric_scooter", "lat": 38.936055833333334, "is_reserved": 0, "fusion_lat": 0.0}, {"bike_id": "3f3bfbb3b87f83d25e040d012d8de027", "fusion_lon": 0.0, "lon": -77.023018, "name": "3f3bfbb3b87f83d25e040d012d8de027", "is_disabled": 0, "rental_uris": {"android": "https://dc.lft.to/lastmile_qr_scan", "ios": "https://dc.lft.to/lastmile_qr_scan"}, "type": "electric_scooter", "lat": 38.895785333333336, "is_reserved": 0, "fusion_lat": 0.0}, {"bike_id": "755fbca67826035329ae5be5c08ecf92", "fusion_lon": 0.0, "lon": -77.032538, "name": "755fbca67826035329ae5be5c08ecf92", "is_disabled": 0, "rental_uris": {"android": "https://dc.lft.to/lastmile_qr_scan", "ios": "https://dc.lft.to/lastmile_qr_scan"}, "type": "electric_scooter", "lat": 38.92854666666667, "is_reserved": 0, "fusion_lat": 0.0}, {"bike_id": "16131a1ddd3d158487d954f29d92b9cb", "fusion_lon": 0.0, "lon": -77.0331005, "name": "16131a1ddd3d158487d954f29d92b9cb", "is_disabled": 0, "rental_uris": {"android": "https://dc.lft.to/lastmile_qr_scan", "ios": "https://dc.lft.to/lastmile_qr_scan"}, "type": "electric_scooter", "lat": 38.9319555, "is_reserved": 0, "fusion_lat": 0.0}, {"bike_id": "fbec008d513e7d29832fbb9fa0e27c6c", "fusion_lon": 0.0, "lon": -77.02762933333334, "name": "fbec008d513e7d29832fbb9fa0e27c6c", "is_disabled": 0, "rental_uris": {"android": "https://dc.lft.to/lastmile_qr_scan", "ios": "https://dc.lft.to/lastmile_qr_scan"}, "type": "electric_scooter", "lat": 38.9543145, "is_reserved": 0, "fusion_lat": 0.0}, {"bike_id": "9bc9c2584b944bdf8bd9bb4dbbf69b85", "fusion_lon": 0.0, "lon": -76.982978, "name": "9bc9c2584b944bdf8bd9bb4dbbf69b85", "is_disabled": 0, "rental_uris": {"android": "https://dc.lft.to/lastmile_qr_scan", "ios": "https://dc.lft.to/lastmile_qr_scan"}, "type": "electric_bike", "lat": 38.9628585, "is_reserved": 0, "fusion_lat": 0.0}, {"bike_id": "fdfd7f1c3fda3c16625f08bba33099e6", "fusion_lon": 0.0, "lon": -77.077964, "name": "fdfd7f1c3fda3c16625f08bba33099e6", "is_disabled": 0, "rental_uris": {"android": "https://dc.lft.to/lastmile_qr_scan", "ios": "https://dc.lft.to/lastmile_qr_scan"}, "type": "electric_bike", "lat": 38.919252166666666, "is_reserved": 0, "fusion_lat": 0.0}, {"bike_id": "2a4425ec7bd008c2e6b054705a0cf29c", "fusion_lon": 0.0, "lon": -77.05328016666667, "name": "2a4425ec7bd008c2e6b054705a0cf29c", "is_disabled": 0, "rental_uris": {"android": "https://dc.lft.to/lastmile_qr_scan", "ios": "https://dc.lft.to/lastmile_qr_scan"}, "type": "electric_scooter", "lat": 38.90418616666667, "is_reserved": 0, "fusion_lat": 0.0}, {"bike_id": "7796a3b801c7b6e4763e1af273aaab63", "fusion_lon": 0.0, "lon": -77.032643, "name": "7796a3b801c7b6e4763e1af273aaab63", "is_disabled": 0, "rental_uris": {"android": "https://dc.lft.to/lastmile_qr_scan", "ios": "https://dc.lft.to/lastmile_qr_scan"}, "type": "electric_scooter", "lat": 38.936573333333335, "is_reserved": 0, "fusion_lat": 0.0}, {"bike_id": "d061c55db3c62fb68f0de7196fe48b4c", "fusion_lon": 0.0, "lon": -77.0270165, "name": "d061c55db3c62fb68f0de7196fe48b4c", "is_disabled": 0, "rental_uris": {"android": "https://dc.lft.to/lastmile_qr_scan", "ios": "https://dc.lft.to/lastmile_qr_scan"}, "type": "electric_scooter", "lat": 38.90688466666667, "is_reserved": 0, "fusion_lat": 0.0}, {"bike_id": "cb59986ea8cf7a2b09fd92ef2eb92e6c", "fusion_lon": 0.0, "lon": -76.98690833333333, "name": "cb59986ea8cf7a2b09fd92ef2eb92e6c", "is_disabled": 0, "rental_uris": {"android": "https://dc.lft.to/lastmile_qr_scan", "ios": "https://dc.lft.to/lastmile_qr_scan"}, "type": "electric_bike", "lat": 38.94473516666667, "is_reserved": 0, "fusion_lat": 0.0}, {"bike_id": "fbfdb28f58dc07cae6dcc7551a1e21b3", "fusion_lon": 0.0, "lon": -77.05545483333333, "name": "fbfdb28f58dc07cae6dcc7551a1e21b3", "is_disabled": 0, "rental_uris": {"android": "https://dc.lft.to/lastmile_qr_scan", "ios": "https://dc.lft.to/lastmile_qr_scan"}, "type": "electric_scooter", "lat": 38.93011533333333, "is_reserved": 0, "fusion_lat": 0.0}, {"bike_id": "90ca9f3c45bfff6113726d1cde6a61aa", "fusion_lon": 0.0, "lon": -77.02450733333333, "name": "90ca9f3c45bfff6113726d1cde6a61aa", "is_disabled": 0, "rental_uris": {"android": "https://dc.lft.to/lastmile_qr_scan", "ios": "https://dc.lft.to/lastmile_qr_scan"}, "type": "electric_scooter", "lat": 38.912722333333335, "is_reserved": 0, "fusion_lat": 0.0}, {"bike_id": "547b4d06708d50953d0b4a6483b9fa01", "fusion_lon": 0.0, "lon": -77.01405683333333, "name": "547b4d06708d50953d0b4a6483b9fa01", "is_disabled": 0, "rental_uris": {"android": "https://dc.lft.to/lastmile_qr_scan", "ios": "https://dc.lft.to/lastmile_qr_scan"}, "type": "electric_scooter", "lat": 38.92830566666667, "is_reserved": 0, "fusion_lat": 0.0}, {"bike_id": "8664aef6be33c71fbb2f6c563d166982", "fusion_lon": 0.0, "lon": -77.0600805, "name": "8664aef6be33c71fbb2f6c563d166982", "is_disabled": 0, "rental_uris": {"android": "https://dc.lft.to/lastmile_qr_scan", "ios": "https://dc.lft.to/lastmile_qr_scan"}, "type": "electric_scooter", "lat": 38.90174116666667, "is_reserved": 0, "fusion_lat": 0.0}, {"bike_id": "25086e371cd786e5ffdafe21ee3a6206", "fusion_lon": 0.0, "lon": -77.02396883333333, "name": "25086e371cd786e5ffdafe21ee3a6206", "is_disabled": 0, "rental_uris": {"android": "https://dc.lft.to/lastmile_qr_scan", "ios": "https://dc.lft.to/lastmile_qr_scan"}, "type": "electric_scooter", "lat": 38.91530066666667, "is_reserved": 0, "fusion_lat": 0.0}, {"bike_id": "b25c4dc92a4ebd1d1e5c4125aad80cd2", "fusion_lon": 0.0, "lon": -76.99900416666667, "name": "b25c4dc92a4ebd1d1e5c4125aad80cd2", "is_disabled": 0, "rental_uris": {"android": "https://dc.lft.to/lastmile_qr_scan", "ios": "https://dc.lft.to/lastmile_qr_scan"}, "type": "electric_scooter", "lat": 38.94825483333334, "is_reserved": 0, "fusion_lat": 0.0}, {"bike_id": "a16b8d3fec751ce3d6a5ff220df0e73a", "fusion_lon": 0.0, "lon": -77.02717066666666, "name": "a16b8d3fec751ce3d6a5ff220df0e73a", "is_disabled": 0, "rental_uris": {"android": "https://dc.lft.to/lastmile_qr_scan", "ios": "https://dc.lft.to/lastmile_qr_scan"}, "type": "electric_scooter", "lat": 38.90957316666667, "is_reserved": 0, "fusion_lat": 0.0}, {"bike_id": "65a244dd502c3830ede8ee03d85160a9", "fusion_lon": 0.0, "lon": -77.051073, "name": "65a244dd502c3830ede8ee03d85160a9", "is_disabled": 0, "rental_uris": {"android": "https://dc.lft.to/lastmile_qr_scan", "ios": "https://dc.lft.to/lastmile_qr_scan"}, "type": "electric_scooter", "lat": 38.905167166666665, "is_reserved": 0, "fusion_lat": 0.0}, {"bike_id": "7a10929d8f29c9ddbe7e2eaf37f74868", "fusion_lon": 0.0, "lon": -76.98713733333334, "name": "7a10929d8f29c9ddbe7e2eaf37f74868", "is_disabled": 0, "rental_uris": {"android": "https://dc.lft.to/lastmile_qr_scan", "ios": "https://dc.lft.to/lastmile_qr_scan"}, "type": "electric_scooter", "lat": 38.900675, "is_reserved": 0, "fusion_lat": 0.0}, {"bike_id": "535a3d6640d4e749323e2993f62bfd6a", "fusion_lon": 0.0, "lon": -77.02506933333333, "name": "535a3d6640d4e749323e2993f62bfd6a", "is_disabled": 0, "rental_uris": {"android": "https://dc.lft.to/lastmile_qr_scan", "ios": "https://dc.lft.to/lastmile_qr_scan"}, "type": "electric_scooter", "lat": 38.94301933333333, "is_reserved": 0, "fusion_lat": 0.0}, {"bike_id": "912ed850d0d8cfa39b0f2bbbf1afcca5", "fusion_lon": 0.0, "lon": -77.00953666666666, "name": "912ed850d0d8cfa39b0f2bbbf1afcca5", "is_disabled": 0, "rental_uris": {"android": "https://dc.lft.to/lastmile_qr_scan", "ios": "https://dc.lft.to/lastmile_qr_scan"}, "type": "electric_scooter", "lat": 38.9079725, "is_reserved": 0, "fusion_lat": 0.0}, {"bike_id": "9a61870e533578dfcf61708ef6ae73b9", "fusion_lon": 0.0, "lon": -77.02661566666667, "name": "9a61870e533578dfcf61708ef6ae73b9", "is_disabled": 0, "rental_uris": {"android": "https://dc.lft.to/lastmile_qr_scan", "ios": "https://dc.lft.to/lastmile_qr_scan"}, "type": "electric_scooter", "lat": 38.92214583333333, "is_reserved": 0, "fusion_lat": 0.0}, {"bike_id": "4cab51a70dc0d2f0febfa77f97fef23e", "fusion_lon": 0.0, "lon": -77.03587983333334, "name": "4cab51a70dc0d2f0febfa77f97fef23e", "is_disabled": 0, "rental_uris": {"android": "https://dc.lft.to/lastmile_qr_scan", "ios": "https://dc.lft.to/lastmile_qr_scan"}, "type": "electric_scooter", "lat": 38.91273666666667, "is_reserved": 0, "fusion_lat": 0.0}, {"bike_id": "0972ba0cea11aec90d26122c7df8fde1", "fusion_lon": 0.0, "lon": -77.046562, "name": "0972ba0cea11aec90d26122c7df8fde1", "is_disabled": 0, "rental_uris": {"android": "https://dc.lft.to/lastmile_qr_scan", "ios": "https://dc.lft.to/lastmile_qr_scan"}, "type": "electric_scooter", "lat": 38.90554383333333, "is_reserved": 0, "fusion_lat": 0.0}, {"bike_id": "82be08c8d0236fb78b1f1149ffa2bd2e", "fusion_lon": 0.0, "lon": -77.0207465, "name": "82be08c8d0236fb78b1f1149ffa2bd2e", "is_disabled": 0, "rental_uris": {"android": "https://dc.lft.to/lastmile_qr_scan", "ios": "https://dc.lft.to/lastmile_qr_scan"}, "type": "electric_bike", "lat": 38.96444866666667, "is_reserved": 0, "fusion_lat": 0.0}, {"bike_id": "65a5f41456eca78b987775e38b0cad27", "fusion_lon": 0.0, "lon": -77.02101733333333, "name": "65a5f41456eca78b987775e38b0cad27", "is_disabled": 0, "rental_uris": {"android": "https://dc.lft.to/lastmile_qr_scan", "ios": "https://dc.lft.to/lastmile_qr_scan"}, "type": "electric_scooter", "lat": 38.911155666666666, "is_reserved": 0, "fusion_lat": 0.0}, {"bike_id": "2f302d10476571a6ef400c3086bfff08", "fusion_lon": 0.0, "lon": -77.04740166666667, "name": "2f302d10476571a6ef400c3086bfff08", "is_disabled": 0, "rental_uris": {"android": "https://dc.lft.to/lastmile_qr_scan", "ios": "https://dc.lft.to/lastmile_qr_scan"}, "type": "electric_scooter", "lat": 38.901171833333336, "is_reserved": 0, "fusion_lat": 0.0}, {"bike_id": "5a9fc0f80903a56281992cef47eddfaf", "fusion_lon": 0.0, "lon": -77.01755783333333, "name": "5a9fc0f80903a56281992cef47eddfaf", "is_disabled": 0, "rental_uris": {"android": "https://dc.lft.to/lastmile_qr_scan", "ios": "https://dc.lft.to/lastmile_qr_scan"}, "type": "electric_scooter", "lat": 38.8771895, "is_reserved": 0, "fusion_lat": 0.0}, {"bike_id": "d27dd49f8027ba714802b96da693870d", "fusion_lon": 0.0, "lon": -77.02214933333333, "name": "d27dd49f8027ba714802b96da693870d", "is_disabled": 0, "rental_uris": {"android": "https://dc.lft.to/lastmile_qr_scan", "ios": "https://dc.lft.to/lastmile_qr_scan"}, "type": "electric_scooter", "lat": 38.915636166666665, "is_reserved": 0, "fusion_lat": 0.0}, {"bike_id": "068e516c468b36ec17356dbfb241ed8f", "fusion_lon": 0.0, "lon": -77.01742116666667, "name": "068e516c468b36ec17356dbfb241ed8f", "is_disabled": 0, "rental_uris": {"android": "https://dc.lft.to/lastmile_qr_scan", "ios": "https://dc.lft.to/lastmile_qr_scan"}, "type": "electric_scooter", "lat": 38.87773266666667, "is_reserved": 0, "fusion_lat": 0.0}, {"bike_id": "5658e98ecafd8cf7d5571365bd2610cc", "fusion_lon": 0.0, "lon": -77.099624, "name": "5658e98ecafd8cf7d5571365bd2610cc", "is_disabled": 0, "rental_uris": {"android": "https://dc.lft.to/lastmile_qr_scan", "ios": "https://dc.lft.to/lastmile_qr_scan"}, "type": "electric_bike", "lat": 38.857929, "is_reserved": 0, "fusion_lat": 0.0}, {"bike_id": "b8f7fe1bd7e60effe1b41a809ad9d8fb", "fusion_lon": 0.0, "lon": -77.0248085, "name": "b8f7fe1bd7e60effe1b41a809ad9d8fb", "is_disabled": 0, "rental_uris": {"android": "https://dc.lft.to/lastmile_qr_scan", "ios": "https://dc.lft.to/lastmile_qr_scan"}, "type": "electric_scooter", "lat": 38.909725, "is_reserved": 0, "fusion_lat": 0.0}, {"bike_id": "2f25144edc5ff54a92b77f426e0ccf1b", "fusion_lon": 0.0, "lon": -77.04833366666666, "name": "2f25144edc5ff54a92b77f426e0ccf1b", "is_disabled": 0, "rental_uris": {"android": "https://dc.lft.to/lastmile_qr_scan", "ios": "https://dc.lft.to/lastmile_qr_scan"}, "type": "electric_scooter", "lat": 38.90208783333333, "is_reserved": 0, "fusion_lat": 0.0}, {"bike_id": "c6218a9bc904a1f70ae672c4b4634026", "fusion_lon": 0.0, "lon": -77.0980185, "name": "c6218a9bc904a1f70ae672c4b4634026", "is_disabled": 0, "rental_uris": {"android": "https://dc.lft.to/lastmile_qr_scan", "ios": "https://dc.lft.to/lastmile_qr_scan"}, "type": "electric_bike", "lat": 38.850325833333336, "is_reserved": 0, "fusion_lat": 0.0}, {"bike_id": "93ef3a89f5a6d4d613070d9801a7c777", "fusion_lon": 0.0, "lon": -76.9954435, "name": "93ef3a89f5a6d4d613070d9801a7c777", "is_disabled": 0, "rental_uris": {"android": "https://dc.lft.to/lastmile_qr_scan", "ios": "https://dc.lft.to/lastmile_qr_scan"}, "type": "electric_scooter", "lat": 38.926681333333335, "is_reserved": 0, "fusion_lat": 0.0}, {"bike_id": "f52f9a3cc695d8f7a31e8dc7f329f5d7", "fusion_lon": 0.0, "lon": -76.92871683333334, "name": "f52f9a3cc695d8f7a31e8dc7f329f5d7", "is_disabled": 0, "rental_uris": {"android": "https://dc.lft.to/lastmile_qr_scan", "ios": "https://dc.lft.to/lastmile_qr_scan"}, "type": "electric_scooter", "lat": 38.88519983333333, "is_reserved": 0, "fusion_lat": 0.0}, {"bike_id": "50aff593a5008390d0051473ca0c30cb", "fusion_lon": 0.0, "lon": -77.00137416666666, "name": "50aff593a5008390d0051473ca0c30cb", "is_disabled": 0, "rental_uris": {"android": "https://dc.lft.to/lastmile_qr_scan", "ios": "https://dc.lft.to/lastmile_qr_scan"}, "type": "electric_scooter", "lat": 38.907286, "is_reserved": 0, "fusion_lat": 0.0}, {"bike_id": "b761fd1712964e7bc5f757f02381c2fa", "fusion_lon": 0.0, "lon": -77.02950966666667, "name": "b761fd1712964e7bc5f757f02381c2fa", "is_disabled": 0, "rental_uris": {"android": "https://dc.lft.to/lastmile_qr_scan", "ios": "https://dc.lft.to/lastmile_qr_scan"}, "type": "electric_scooter", "lat": 38.90729283333334, "is_reserved": 0, "fusion_lat": 0.0}, {"bike_id": "9019658a7492c5d3acc1ac93e480caba", "fusion_lon": 0.0, "lon": -76.97946116666667, "name": "9019658a7492c5d3acc1ac93e480caba", "is_disabled": 0, "rental_uris": {"android": "https://dc.lft.to/lastmile_qr_scan", "ios": "https://dc.lft.to/lastmile_qr_scan"}, "type": "electric_scooter", "lat": 38.94530433333333, "is_reserved": 0, "fusion_lat": 0.0}, {"bike_id": "1763ae8ca7b1176f1c739cd9d8df84ca", "fusion_lon": 0.0, "lon": -77.02078766666666, "name": "1763ae8ca7b1176f1c739cd9d8df84ca", "is_disabled": 0, "rental_uris": {"android": "https://dc.lft.to/lastmile_qr_scan", "ios": "https://dc.lft.to/lastmile_qr_scan"}, "type": "electric_scooter", "lat": 38.927129666666666, "is_reserved": 0, "fusion_lat": 0.0}, {"bike_id": "1079c3ecf87b980dd9f6f2cc93c58cda", "fusion_lon": 0.0, "lon": -77.03285533333333, "name": "1079c3ecf87b980dd9f6f2cc93c58cda", "is_disabled": 0, "rental_uris": {"android": "https://dc.lft.to/lastmile_qr_scan", "ios": "https://dc.lft.to/lastmile_qr_scan"}, "type": "electric_scooter", "lat": 38.9344135, "is_reserved": 0, "fusion_lat": 0.0}, {"bike_id": "91f9019b93850ed0bdcdd876d946436f", "fusion_lon": 0.0, "lon": -77.02378283333333, "name": "91f9019b93850ed0bdcdd876d946436f", "is_disabled": 0, "rental_uris": {"android": "https://dc.lft.to/lastmile_qr_scan", "ios": "https://dc.lft.to/lastmile_qr_scan"}, "type": "electric_scooter", "lat": 38.90204633333333, "is_reserved": 0, "fusion_lat": 0.0}, {"bike_id": "471b5e576b625e37e5014427bdaba98c", "fusion_lon": 0.0, "lon": -76.984946, "name": "471b5e576b625e37e5014427bdaba98c", "is_disabled": 0, "rental_uris": {"android": "https://dc.lft.to/lastmile_qr_scan", "ios": "https://dc.lft.to/lastmile_qr_scan"}, "type": "electric_scooter", "lat": 38.86668933333333, "is_reserved": 0, "fusion_lat": 0.0}, {"bike_id": "1f60fb34313532b39c94992468fb69b0", "fusion_lon": 0.0, "lon": -77.03870683333334, "name": "1f60fb34313532b39c94992468fb69b0", "is_disabled": 0, "rental_uris": {"android": "https://dc.lft.to/lastmile_qr_scan", "ios": "https://dc.lft.to/lastmile_qr_scan"}, "type": "electric_scooter", "lat": 38.92153583333333, "is_reserved": 0, "fusion_lat": 0.0}, {"bike_id": "75cc62fc63fb14b83ad59a5f9b951e9c", "fusion_lon": 0.0, "lon": -77.03473933333333, "name": "75cc62fc63fb14b83ad59a5f9b951e9c", "is_disabled": 0, "rental_uris": {"android": "https://dc.lft.to/lastmile_qr_scan", "ios": "https://dc.lft.to/lastmile_qr_scan"}, "type": "electric_scooter", "lat": 38.90290066666667, "is_reserved": 0, "fusion_lat": 0.0}, {"bike_id": "6e2472901b87fec35adecabd59e1ab4c", "fusion_lon": 0.0, "lon": -77.017785, "name": "6e2472901b87fec35adecabd59e1ab4c", "is_disabled": 0, "rental_uris": {"android": "https://dc.lft.to/lastmile_qr_scan", "ios": "https://dc.lft.to/lastmile_qr_scan"}, "type": "electric_scooter", "lat": 38.944213500000004, "is_reserved": 0, "fusion_lat": 0.0}, {"bike_id": "c5e0528aabd53ed4434ecb5ce598cc52", "fusion_lon": 0.0, "lon": -76.99503566666667, "name": "c5e0528aabd53ed4434ecb5ce598cc52", "is_disabled": 0, "rental_uris": {"android": "https://dc.lft.to/lastmile_qr_scan", "ios": "https://dc.lft.to/lastmile_qr_scan"}, "type": "electric_scooter", "lat": 38.8990435, "is_reserved": 0, "fusion_lat": 0.0}, {"bike_id": "3788a3f65d21ae1edd8652eb807b0ac3", "fusion_lon": 0.0, "lon": -77.125244, "name": "3788a3f65d21ae1edd8652eb807b0ac3", "is_disabled": 0, "rental_uris": {"android": "https://dc.lft.to/lastmile_qr_scan", "ios": "https://dc.lft.to/lastmile_qr_scan"}, "type": "electric_bike", "lat": 39.05637466666666, "is_reserved": 0, "fusion_lat": 0.0}, {"bike_id": "32298bdeb5530dc3fb49df17f7a708f4", "fusion_lon": 0.0, "lon": -76.94638416666666, "name": "32298bdeb5530dc3fb49df17f7a708f4", "is_disabled": 0, "rental_uris": {"android": "https://dc.lft.to/lastmile_qr_scan", "ios": "https://dc.lft.to/lastmile_qr_scan"}, "type": "electric_scooter", "lat": 38.89842933333333, "is_reserved": 0, "fusion_lat": 0.0}, {"bike_id": "9657566561e1a3b2e7ca0027a6875eed", "fusion_lon": 0.0, "lon": -76.997318, "name": "9657566561e1a3b2e7ca0027a6875eed", "is_disabled": 0, "rental_uris": {"android": "https://dc.lft.to/lastmile_qr_scan", "ios": "https://dc.lft.to/lastmile_qr_scan"}, "type": "electric_scooter", "lat": 38.907920833333336, "is_reserved": 0, "fusion_lat": 0.0}, {"bike_id": "e1bd4c3d7bcce6ff32c4dd186aefe294", "fusion_lon": 0.0, "lon": -76.95989716666666, "name": "e1bd4c3d7bcce6ff32c4dd186aefe294", "is_disabled": 0, "rental_uris": {"android": "https://dc.lft.to/lastmile_qr_scan", "ios": "https://dc.lft.to/lastmile_qr_scan"}, "type": "electric_bike", "lat": 38.869919833333334, "is_reserved": 0, "fusion_lat": 0.0}, {"bike_id": "ac96226d90e3025770dccf5dc30f4553", "fusion_lon": 0.0, "lon": -76.95753283333333, "name": "ac96226d90e3025770dccf5dc30f4553", "is_disabled": 0, "rental_uris": {"android": "https://dc.lft.to/lastmile_qr_scan", "ios": "https://dc.lft.to/lastmile_qr_scan"}, "type": "electric_scooter", "lat": 38.884277166666664, "is_reserved": 0, "fusion_lat": 0.0}, {"bike_id": "53eca98c55d6d97cb13319620746b7c5", "fusion_lon": 0.0, "lon": -77.03323833333333, "name": "53eca98c55d6d97cb13319620746b7c5", "is_disabled": 0, "rental_uris": {"android": "https://dc.lft.to/lastmile_qr_scan", "ios": "https://dc.lft.to/lastmile_qr_scan"}, "type": "electric_bike", "lat": 38.93709416666667, "is_reserved": 0, "fusion_lat": 0.0}, {"bike_id": "e4d13190f4a135c4473c510ed6db17af", "fusion_lon": 0.0, "lon": -77.03826083333334, "name": "e4d13190f4a135c4473c510ed6db17af", "is_disabled": 0, "rental_uris": {"android": "https://dc.lft.to/lastmile_qr_scan", "ios": "https://dc.lft.to/lastmile_qr_scan"}, "type": "electric_scooter", "lat": 38.918171666666666, "is_reserved": 0, "fusion_lat": 0.0}, {"bike_id": "9b0210d5b4fab243ef61ee293a85b1dc", "fusion_lon": 0.0, "lon": -76.94960566666667, "name": "9b0210d5b4fab243ef61ee293a85b1dc", "is_disabled": 0, "rental_uris": {"android": "https://dc.lft.to/lastmile_qr_scan", "ios": "https://dc.lft.to/lastmile_qr_scan"}, "type": "electric_scooter", "lat": 38.904909, "is_reserved": 0, "fusion_lat": 0.0}, {"bike_id": "40967e73c32cab9442069323b2290a54", "fusion_lon": 0.0, "lon": -76.97529116666666, "name": "40967e73c32cab9442069323b2290a54", "is_disabled": 0, "rental_uris": {"android": "https://dc.lft.to/lastmile_qr_scan", "ios": "https://dc.lft.to/lastmile_qr_scan"}, "type": "electric_bike", "lat": 38.90331833333333, "is_reserved": 0, "fusion_lat": 0.0}, {"bike_id": "6f65a1158a1ae17edf645a7b8d1f4469", "fusion_lon": 0.0, "lon": -77.031274, "name": "6f65a1158a1ae17edf645a7b8d1f4469", "is_disabled": 0, "rental_uris": {"android": "https://dc.lft.to/lastmile_qr_scan", "ios": "https://dc.lft.to/lastmile_qr_scan"}, "type": "electric_scooter", "lat": 38.91489833333333, "is_reserved": 0, "fusion_lat": 0.0}, {"bike_id": "b1a50e25ce041a2d5c5538a54a6d4bf2", "fusion_lon": 0.0, "lon": -77.04431166666667, "name": "b1a50e25ce041a2d5c5538a54a6d4bf2", "is_disabled": 0, "rental_uris": {"android": "https://dc.lft.to/lastmile_qr_scan", "ios": "https://dc.lft.to/lastmile_qr_scan"}, "type": "electric_scooter", "lat": 38.915387833333334, "is_reserved": 0, "fusion_lat": 0.0}, {"bike_id": "8d3d81e624221054f26466fbf3543cfb", "fusion_lon": 0.0, "lon": -77.02982083333333, "name": "8d3d81e624221054f26466fbf3543cfb", "is_disabled": 0, "rental_uris": {"android": "https://dc.lft.to/lastmile_qr_scan", "ios": "https://dc.lft.to/lastmile_qr_scan"}, "type": "electric_bike", "lat": 38.93699316666667, "is_reserved": 0, "fusion_lat": 0.0}, {"bike_id": "830ee44fad779163a416ed3600b3e3d9", "fusion_lon": 0.0, "lon": -77.05234333333334, "name": "830ee44fad779163a416ed3600b3e3d9", "is_disabled": 0, "rental_uris": {"android": "https://dc.lft.to/lastmile_qr_scan", "ios": "https://dc.lft.to/lastmile_qr_scan"}, "type": "electric_scooter", "lat": 38.92460916666667, "is_reserved": 0, "fusion_lat": 0.0}, {"bike_id": "2a71910c3b3dbdb4a0df2d5275b860a3", "fusion_lon": 0.0, "lon": -77.01886583333334, "name": "2a71910c3b3dbdb4a0df2d5275b860a3", "is_disabled": 0, "rental_uris": {"android": "https://dc.lft.to/lastmile_qr_scan", "ios": "https://dc.lft.to/lastmile_qr_scan"}, "type": "electric_scooter", "lat": 38.90606616666667, "is_reserved": 0, "fusion_lat": 0.0}, {"bike_id": "14a8ad0d10972af58142a93632227aaa", "fusion_lon": 0.0, "lon": -77.04045283333333, "name": "14a8ad0d10972af58142a93632227aaa", "is_disabled": 0, "rental_uris": {"android": "https://dc.lft.to/lastmile_qr_scan", "ios": "https://dc.lft.to/lastmile_qr_scan"}, "type": "electric_scooter", "lat": 38.913318, "is_reserved": 0, "fusion_lat": 0.0}, {"bike_id": "eff7f4d8e85e41a7faeec096abbdcb19", "fusion_lon": 0.0, "lon": -77.0505625, "name": "eff7f4d8e85e41a7faeec096abbdcb19", "is_disabled": 0, "rental_uris": {"android": "https://dc.lft.to/lastmile_qr_scan", "ios": "https://dc.lft.to/lastmile_qr_scan"}, "type": "electric_scooter", "lat": 38.924190333333335, "is_reserved": 0, "fusion_lat": 0.0}, {"bike_id": "ffd7d516bb7398e86d6191cf175fb97b", "fusion_lon": 0.0, "lon": -76.99031533333333, "name": "ffd7d516bb7398e86d6191cf175fb97b", "is_disabled": 0, "rental_uris": {"android": "https://dc.lft.to/lastmile_qr_scan", "ios": "https://dc.lft.to/lastmile_qr_scan"}, "type": "electric_scooter", "lat": 38.888801666666666, "is_reserved": 0, "fusion_lat": 0.0}, {"bike_id": "b9995e6ebe4e0a67e4877ac13f51e9c3", "fusion_lon": 0.0, "lon": -77.0110945, "name": "b9995e6ebe4e0a67e4877ac13f51e9c3", "is_disabled": 0, "rental_uris": {"android": "https://dc.lft.to/lastmile_qr_scan", "ios": "https://dc.lft.to/lastmile_qr_scan"}, "type": "electric_scooter", "lat": 38.903575833333335, "is_reserved": 0, "fusion_lat": 0.0}, {"bike_id": "8a1d6ebd2b243cfe9b8eab4637e098ab", "fusion_lon": 0.0, "lon": -77.01608216666666, "name": "8a1d6ebd2b243cfe9b8eab4637e098ab", "is_disabled": 0, "rental_uris": {"android": "https://dc.lft.to/lastmile_qr_scan", "ios": "https://dc.lft.to/lastmile_qr_scan"}, "type": "electric_scooter", "lat": 38.91279183333333, "is_reserved": 0, "fusion_lat": 0.0}, {"bike_id": "0821147d1fe561e6697182047ca4d2b8", "fusion_lon": 0.0, "lon": -77.032908, "name": "0821147d1fe561e6697182047ca4d2b8", "is_disabled": 0, "rental_uris": {"android": "https://dc.lft.to/lastmile_qr_scan", "ios": "https://dc.lft.to/lastmile_qr_scan"}, "type": "electric_scooter", "lat": 38.9162185, "is_reserved": 0, "fusion_lat": 0.0}, {"bike_id": "b1b4e0ac7f72976f73fce38d4e954464", "fusion_lon": 0.0, "lon": -77.04301116666667, "name": "b1b4e0ac7f72976f73fce38d4e954464", "is_disabled": 0, "rental_uris": {"android": "https://dc.lft.to/lastmile_qr_scan", "ios": "https://dc.lft.to/lastmile_qr_scan"}, "type": "electric_scooter", "lat": 38.91793716666667, "is_reserved": 0, "fusion_lat": 0.0}, {"bike_id": "ffc94b40bc8023f548dade939851e867", "fusion_lon": 0.0, "lon": -77.026324, "name": "ffc94b40bc8023f548dade939851e867", "is_disabled": 0, "rental_uris": {"android": "https://dc.lft.to/lastmile_qr_scan", "ios": "https://dc.lft.to/lastmile_qr_scan"}, "type": "electric_scooter", "lat": 38.9301085, "is_reserved": 0, "fusion_lat": 0.0}, {"bike_id": "e5ddedb5d957fe3f3bf29dd80bee829a", "fusion_lon": 0.0, "lon": -77.09249433333333, "name": "e5ddedb5d957fe3f3bf29dd80bee829a", "is_disabled": 0, "rental_uris": {"android": "https://dc.lft.to/lastmile_qr_scan", "ios": "https://dc.lft.to/lastmile_qr_scan"}, "type": "electric_scooter", "lat": 38.9416375, "is_reserved": 0, "fusion_lat": 0.0}, {"bike_id": "5053ee7ae0eabdb3954730e364efcbd4", "fusion_lon": 0.0, "lon": -76.9304375, "name": "5053ee7ae0eabdb3954730e364efcbd4", "is_disabled": 0, "rental_uris": {"android": "https://dc.lft.to/lastmile_qr_scan", "ios": "https://dc.lft.to/lastmile_qr_scan"}, "type": "electric_scooter", "lat": 38.8951795, "is_reserved": 0, "fusion_lat": 0.0}, {"bike_id": "8d5781c661d96bc37f3a599619c232ee", "fusion_lon": 0.0, "lon": -76.97572266666667, "name": "8d5781c661d96bc37f3a599619c232ee", "is_disabled": 0, "rental_uris": {"android": "https://dc.lft.to/lastmile_qr_scan", "ios": "https://dc.lft.to/lastmile_qr_scan"}, "type": "electric_bike", "lat": 38.84036, "is_reserved": 0, "fusion_lat": 0.0}, {"bike_id": "40d93419aae4d79be2f766ce00bc3b41", "fusion_lon": 0.0, "lon": -77.02761766666667, "name": "40d93419aae4d79be2f766ce00bc3b41", "is_disabled": 0, "rental_uris": {"android": "https://dc.lft.to/lastmile_qr_scan", "ios": "https://dc.lft.to/lastmile_qr_scan"}, "type": "electric_scooter", "lat": 38.95428016666666, "is_reserved": 0, "fusion_lat": 0.0}, {"bike_id": "7bc8f24f6cb4782c2d0853c00bccb7c1", "fusion_lon": 0.0, "lon": -76.99506966666667, "name": "7bc8f24f6cb4782c2d0853c00bccb7c1", "is_disabled": 0, "rental_uris": {"android": "https://dc.lft.to/lastmile_qr_scan", "ios": "https://dc.lft.to/lastmile_qr_scan"}, "type": "electric_scooter", "lat": 38.8825365, "is_reserved": 0, "fusion_lat": 0.0}, {"bike_id": "af99827f90910b62894e9fb98b165ca2", "fusion_lon": 0.0, "lon": -77.030828, "name": "af99827f90910b62894e9fb98b165ca2", "is_disabled": 0, "rental_uris": {"android": "https://dc.lft.to/lastmile_qr_scan", "ios": "https://dc.lft.to/lastmile_qr_scan"}, "type": "electric_scooter", "lat": 38.92374266666667, "is_reserved": 0, "fusion_lat": 0.0}, {"bike_id": "37ff5c1a8e22af105bb3a1741c3640e2", "fusion_lon": 0.0, "lon": -77.02178266666667, "name": "37ff5c1a8e22af105bb3a1741c3640e2", "is_disabled": 0, "rental_uris": {"android": "https://dc.lft.to/lastmile_qr_scan", "ios": "https://dc.lft.to/lastmile_qr_scan"}, "type": "electric_scooter", "lat": 38.914252833333336, "is_reserved": 0, "fusion_lat": 0.0}, {"bike_id": "727639a030604268e9661077a817c572", "fusion_lon": 0.0, "lon": -76.91603583333334, "name": "727639a030604268e9661077a817c572", "is_disabled": 0, "rental_uris": {"android": "https://dc.lft.to/lastmile_qr_scan", "ios": "https://dc.lft.to/lastmile_qr_scan"}, "type": "electric_bike", "lat": 38.87979933333333, "is_reserved": 0, "fusion_lat": 0.0}, {"bike_id": "587623b41d69fe627d4ef19bd1e517e4", "fusion_lon": 0.0, "lon": -77.05002383333333, "name": "587623b41d69fe627d4ef19bd1e517e4", "is_disabled": 0, "rental_uris": {"android": "https://dc.lft.to/lastmile_qr_scan", "ios": "https://dc.lft.to/lastmile_qr_scan"}, "type": "electric_scooter", "lat": 38.89230933333333, "is_reserved": 0, "fusion_lat": 0.0}, {"bike_id": "3755f13f16222a0d9d3d154597b786be", "fusion_lon": 0.0, "lon": -77.031382, "name": "3755f13f16222a0d9d3d154597b786be", "is_disabled": 0, "rental_uris": {"android": "https://dc.lft.to/lastmile_qr_scan", "ios": "https://dc.lft.to/lastmile_qr_scan"}, "type": "electric_scooter", "lat": 38.92378733333334, "is_reserved": 0, "fusion_lat": 0.0}, {"bike_id": "a0a83e928f99fdefb0d33d4c7baa2ad3", "fusion_lon": 0.0, "lon": -77.02733483333333, "name": "a0a83e928f99fdefb0d33d4c7baa2ad3", "is_disabled": 0, "rental_uris": {"android": "https://dc.lft.to/lastmile_qr_scan", "ios": "https://dc.lft.to/lastmile_qr_scan"}, "type": "electric_scooter", "lat": 38.9277065, "is_reserved": 0, "fusion_lat": 0.0}, {"bike_id": "1c3b441e3fb01bdcfbe8d11baeebed53", "fusion_lon": 0.0, "lon": -77.0533385, "name": "1c3b441e3fb01bdcfbe8d11baeebed53", "is_disabled": 0, "rental_uris": {"android": "https://dc.lft.to/lastmile_qr_scan", "ios": "https://dc.lft.to/lastmile_qr_scan"}, "type": "electric_scooter", "lat": 38.92357166666667, "is_reserved": 0, "fusion_lat": 0.0}, {"bike_id": "b6f150fcf658d0a4584b5decff9414b6", "fusion_lon": 0.0, "lon": -77.0466775, "name": "b6f150fcf658d0a4584b5decff9414b6", "is_disabled": 0, "rental_uris": {"android": "https://dc.lft.to/lastmile_qr_scan", "ios": "https://dc.lft.to/lastmile_qr_scan"}, "type": "electric_scooter", "lat": 38.89253883333333, "is_reserved": 0, "fusion_lat": 0.0}, {"bike_id": "eb5ec002d4538fe5b0dcd628d05f3fdc", "fusion_lon": 0.0, "lon": -76.98824666666667, "name": "eb5ec002d4538fe5b0dcd628d05f3fdc", "is_disabled": 0, "rental_uris": {"android": "https://dc.lft.to/lastmile_qr_scan", "ios": "https://dc.lft.to/lastmile_qr_scan"}, "type": "electric_scooter", "lat": 38.900340666666665, "is_reserved": 0, "fusion_lat": 0.0}, {"bike_id": "ff457ff84d75b0b59ebcad08a81a9963", "fusion_lon": 0.0, "lon": -77.023022, "name": "ff457ff84d75b0b59ebcad08a81a9963", "is_disabled": 0, "rental_uris": {"android": "https://dc.lft.to/lastmile_qr_scan", "ios": "https://dc.lft.to/lastmile_qr_scan"}, "type": "electric_scooter", "lat": 38.8957995, "is_reserved": 0, "fusion_lat": 0.0}, {"bike_id": "e948f46807f2b9569fd66d5e23229ff9", "fusion_lon": 0.0, "lon": -77.01607033333333, "name": "e948f46807f2b9569fd66d5e23229ff9", "is_disabled": 0, "rental_uris": {"android": "https://dc.lft.to/lastmile_qr_scan", "ios": "https://dc.lft.to/lastmile_qr_scan"}, "type": "electric_scooter", "lat": 38.9181415, "is_reserved": 0, "fusion_lat": 0.0}, {"bike_id": "4e867e859d1cf17504e508f3ba5cd2a5", "fusion_lon": 0.0, "lon": -77.0316845, "name": "4e867e859d1cf17504e508f3ba5cd2a5", "is_disabled": 0, "rental_uris": {"android": "https://dc.lft.to/lastmile_qr_scan", "ios": "https://dc.lft.to/lastmile_qr_scan"}, "type": "electric_scooter", "lat": 38.909645833333336, "is_reserved": 0, "fusion_lat": 0.0}, {"bike_id": "35bb41447df13f1b618e011d61702c00", "fusion_lon": 0.0, "lon": -77.0146195, "name": "35bb41447df13f1b618e011d61702c00", "is_disabled": 0, "rental_uris": {"android": "https://dc.lft.to/lastmile_qr_scan", "ios": "https://dc.lft.to/lastmile_qr_scan"}, "type": "electric_scooter", "lat": 38.917718, "is_reserved": 0, "fusion_lat": 0.0}, {"bike_id": "fe24b55df1184042e91df49654ebbd86", "fusion_lon": 0.0, "lon": -77.023011, "name": "fe24b55df1184042e91df49654ebbd86", "is_disabled": 0, "rental_uris": {"android": "https://dc.lft.to/lastmile_qr_scan", "ios": "https://dc.lft.to/lastmile_qr_scan"}, "type": "electric_scooter", "lat": 38.918133, "is_reserved": 0, "fusion_lat": 0.0}, {"bike_id": "9a387a609bd2c2ba8555bd2464f25e46", "fusion_lon": 0.0, "lon": -77.0533005, "name": "9a387a609bd2c2ba8555bd2464f25e46", "is_disabled": 0, "rental_uris": {"android": "https://dc.lft.to/lastmile_qr_scan", "ios": "https://dc.lft.to/lastmile_qr_scan"}, "type": "electric_scooter", "lat": 38.904233166666664, "is_reserved": 0, "fusion_lat": 0.0}, {"bike_id": "4465d2d215ebfb95aac70e9b8f7d60ec", "fusion_lon": 0.0, "lon": -76.98699433333333, "name": "4465d2d215ebfb95aac70e9b8f7d60ec", "is_disabled": 0, "rental_uris": {"android": "https://dc.lft.to/lastmile_qr_scan", "ios": "https://dc.lft.to/lastmile_qr_scan"}, "type": "electric_scooter", "lat": 38.862554333333335, "is_reserved": 0, "fusion_lat": 0.0}, {"bike_id": "20c10d8e2d8134a9558bc912a187253b", "fusion_lon": 0.0, "lon": -77.01854916666667, "name": "20c10d8e2d8134a9558bc912a187253b", "is_disabled": 0, "rental_uris": {"android": "https://dc.lft.to/lastmile_qr_scan", "ios": "https://dc.lft.to/lastmile_qr_scan"}, "type": "electric_scooter", "lat": 38.90020033333333, "is_reserved": 0, "fusion_lat": 0.0}, {"bike_id": "07e1194a60b8f05c9a6e150c95ec3f68", "fusion_lon": 0.0, "lon": -77.0509465, "name": "07e1194a60b8f05c9a6e150c95ec3f68", "is_disabled": 0, "rental_uris": {"android": "https://dc.lft.to/lastmile_qr_scan", "ios": "https://dc.lft.to/lastmile_qr_scan"}, "type": "electric_scooter", "lat": 38.9233545, "is_reserved": 0, "fusion_lat": 0.0}, {"bike_id": "4e9be4cabf1a8527608b9f4cc3e0c965", "fusion_lon": 0.0, "lon": -76.99677116666666, "name": "4e9be4cabf1a8527608b9f4cc3e0c965", "is_disabled": 0, "rental_uris": {"android": "https://dc.lft.to/lastmile_qr_scan", "ios": "https://dc.lft.to/lastmile_qr_scan"}, "type": "electric_bike", "lat": 38.924882833333335, "is_reserved": 0, "fusion_lat": 0.0}, {"bike_id": "afad282d59e28698a10563d98917eaff", "fusion_lon": 0.0, "lon": -77.02399033333333, "name": "afad282d59e28698a10563d98917eaff", "is_disabled": 0, "rental_uris": {"android": "https://dc.lft.to/lastmile_qr_scan", "ios": "https://dc.lft.to/lastmile_qr_scan"}, "type": "electric_scooter", "lat": 38.917491, "is_reserved": 0, "fusion_lat": 0.0}, {"bike_id": "6f7a23e2b85fa4b4004874f62a9ab12c", "fusion_lon": 0.0, "lon": -77.02811283333334, "name": "6f7a23e2b85fa4b4004874f62a9ab12c", "is_disabled": 0, "rental_uris": {"android": "https://dc.lft.to/lastmile_qr_scan", "ios": "https://dc.lft.to/lastmile_qr_scan"}, "type": "electric_scooter", "lat": 38.93085283333333, "is_reserved": 0, "fusion_lat": 0.0}, {"bike_id": "53651e98345c21b280615b85544e4007", "fusion_lon": 0.0, "lon": -77.0282005, "name": "53651e98345c21b280615b85544e4007", "is_disabled": 0, "rental_uris": {"android": "https://dc.lft.to/lastmile_qr_scan", "ios": "https://dc.lft.to/lastmile_qr_scan"}, "type": "electric_scooter", "lat": 38.91689016666667, "is_reserved": 0, "fusion_lat": 0.0}, {"bike_id": "a04acb6541bfa37e72c0133b22e21387", "fusion_lon": 0.0, "lon": -77.012018, "name": "a04acb6541bfa37e72c0133b22e21387", "is_disabled": 0, "rental_uris": {"android": "https://dc.lft.to/lastmile_qr_scan", "ios": "https://dc.lft.to/lastmile_qr_scan"}, "type": "electric_scooter", "lat": 38.900174, "is_reserved": 0, "fusion_lat": 0.0}, {"bike_id": "7825ab9600fbb4ce08e84a64194de515", "fusion_lon": 0.0, "lon": -77.020952, "name": "7825ab9600fbb4ce08e84a64194de515", "is_disabled": 0, "rental_uris": {"android": "https://dc.lft.to/lastmile_qr_scan", "ios": "https://dc.lft.to/lastmile_qr_scan"}, "type": "electric_scooter", "lat": 38.92710733333333, "is_reserved": 0, "fusion_lat": 0.0}, {"bike_id": "b247a9a320c4cec4824dbc49ffda332f", "fusion_lon": 0.0, "lon": -77.0351505, "name": "b247a9a320c4cec4824dbc49ffda332f", "is_disabled": 0, "rental_uris": {"android": "https://dc.lft.to/lastmile_qr_scan", "ios": "https://dc.lft.to/lastmile_qr_scan"}, "type": "electric_bike", "lat": 38.962050833333336, "is_reserved": 0, "fusion_lat": 0.0}, {"bike_id": "167f3a94d46decd0a4ff1276ac5932e4", "fusion_lon": 0.0, "lon": -77.035279, "name": "167f3a94d46decd0a4ff1276ac5932e4", "is_disabled": 0, "rental_uris": {"android": "https://dc.lft.to/lastmile_qr_scan", "ios": "https://dc.lft.to/lastmile_qr_scan"}, "type": "electric_scooter", "lat": 38.9000355, "is_reserved": 0, "fusion_lat": 0.0}, {"bike_id": "1e52bc9211472493a4143fa05e47fbc8", "fusion_lon": 0.0, "lon": -77.04556, "name": "1e52bc9211472493a4143fa05e47fbc8", "is_disabled": 0, "rental_uris": {"android": "https://dc.lft.to/lastmile_qr_scan", "ios": "https://dc.lft.to/lastmile_qr_scan"}, "type": "electric_scooter", "lat": 38.9340675, "is_reserved": 0, "fusion_lat": 0.0}, {"bike_id": "02b019befb8e3bef8adc13be6fe96cae", "fusion_lon": 0.0, "lon": -77.05857033333334, "name": "02b019befb8e3bef8adc13be6fe96cae", "is_disabled": 0, "rental_uris": {"android": "https://dc.lft.to/lastmile_qr_scan", "ios": "https://dc.lft.to/lastmile_qr_scan"}, "type": "electric_scooter", "lat": 38.9360615, "is_reserved": 0, "fusion_lat": 0.0}, {"bike_id": "93884d864905b328280165f3246fe871", "fusion_lon": 0.0, "lon": -77.006829, "name": "93884d864905b328280165f3246fe871", "is_disabled": 0, "rental_uris": {"android": "https://dc.lft.to/lastmile_qr_scan", "ios": "https://dc.lft.to/lastmile_qr_scan"}, "type": "electric_scooter", "lat": 38.90016166666667, "is_reserved": 0, "fusion_lat": 0.0}, {"bike_id": "7c37bdd4f2d624f18735abde2bcdc545", "fusion_lon": 0.0, "lon": -77.02544383333333, "name": "7c37bdd4f2d624f18735abde2bcdc545", "is_disabled": 0, "rental_uris": {"android": "https://dc.lft.to/lastmile_qr_scan", "ios": "https://dc.lft.to/lastmile_qr_scan"}, "type": "electric_scooter", "lat": 38.941146833333335, "is_reserved": 0, "fusion_lat": 0.0}, {"bike_id": "ea9a096df5065998bca2ff5551d1ffcb", "fusion_lon": 0.0, "lon": -77.03866666666667, "name": "ea9a096df5065998bca2ff5551d1ffcb", "is_disabled": 0, "rental_uris": {"android": "https://dc.lft.to/lastmile_qr_scan", "ios": "https://dc.lft.to/lastmile_qr_scan"}, "type": "electric_scooter", "lat": 38.918142, "is_reserved": 0, "fusion_lat": 0.0}, {"bike_id": "3d2c8841b6eb68da1e3b4cb2ce09bc09", "fusion_lon": 0.0, "lon": -77.02510716666667, "name": "3d2c8841b6eb68da1e3b4cb2ce09bc09", "is_disabled": 0, "rental_uris": {"android": "https://dc.lft.to/lastmile_qr_scan", "ios": "https://dc.lft.to/lastmile_qr_scan"}, "type": "electric_scooter", "lat": 38.920799, "is_reserved": 0, "fusion_lat": 0.0}, {"bike_id": "60b7f8e3d2946acd2280e10a866cbb96", "fusion_lon": 0.0, "lon": -77.04191983333334, "name": "60b7f8e3d2946acd2280e10a866cbb96", "is_disabled": 0, "rental_uris": {"android": "https://dc.lft.to/lastmile_qr_scan", "ios": "https://dc.lft.to/lastmile_qr_scan"}, "type": "electric_scooter", "lat": 38.90576383333333, "is_reserved": 0, "fusion_lat": 0.0}, {"bike_id": "31cc4130b69a9f0b4e204e18922fc0d2", "fusion_lon": 0.0, "lon": -77.04243366666667, "name": "31cc4130b69a9f0b4e204e18922fc0d2", "is_disabled": 0, "rental_uris": {"android": "https://dc.lft.to/lastmile_qr_scan", "ios": "https://dc.lft.to/lastmile_qr_scan"}, "type": "electric_scooter", "lat": 38.922259, "is_reserved": 0, "fusion_lat": 0.0}, {"bike_id": "2c6ebb1b070d942709cccee11e54cb0b", "fusion_lon": 0.0, "lon": -77.0345125, "name": "2c6ebb1b070d942709cccee11e54cb0b", "is_disabled": 0, "rental_uris": {"android": "https://dc.lft.to/lastmile_qr_scan", "ios": "https://dc.lft.to/lastmile_qr_scan"}, "type": "electric_scooter", "lat": 38.907249, "is_reserved": 0, "fusion_lat": 0.0}, {"bike_id": "8840c84d942209fee46ac18b9dd0ca69", "fusion_lon": 0.0, "lon": -77.03058333333334, "name": "8840c84d942209fee46ac18b9dd0ca69", "is_disabled": 0, "rental_uris": {"android": "https://dc.lft.to/lastmile_qr_scan", "ios": "https://dc.lft.to/lastmile_qr_scan"}, "type": "electric_scooter", "lat": 38.9225595, "is_reserved": 0, "fusion_lat": 0.0}, {"bike_id": "c0e7264fc2fb2b7d22139485183c53a0", "fusion_lon": 0.0, "lon": -77.01549, "name": "c0e7264fc2fb2b7d22139485183c53a0", "is_disabled": 0, "rental_uris": {"android": "https://dc.lft.to/lastmile_qr_scan", "ios": "https://dc.lft.to/lastmile_qr_scan"}, "type": "electric_scooter", "lat": 38.891333, "is_reserved": 0, "fusion_lat": 0.0}, {"bike_id": "75aa7486a9b0915c9eb790b4020ed717", "fusion_lon": 0.0, "lon": -77.005927, "name": "75aa7486a9b0915c9eb790b4020ed717", "is_disabled": 0, "rental_uris": {"android": "https://dc.lft.to/lastmile_qr_scan", "ios": "https://dc.lft.to/lastmile_qr_scan"}, "type": "electric_scooter", "lat": 38.905518666666666, "is_reserved": 0, "fusion_lat": 0.0}, {"bike_id": "8286daa3da38574969a71a5b75e2b68b", "fusion_lon": 0.0, "lon": -77.04925016666667, "name": "8286daa3da38574969a71a5b75e2b68b", "is_disabled": 0, "rental_uris": {"android": "https://dc.lft.to/lastmile_qr_scan", "ios": "https://dc.lft.to/lastmile_qr_scan"}, "type": "electric_bike", "lat": 38.81349783333334, "is_reserved": 0, "fusion_lat": 0.0}, {"bike_id": "87cde79516ebc1f0a26a10a58720202f", "fusion_lon": 0.0, "lon": -76.99328533333333, "name": "87cde79516ebc1f0a26a10a58720202f", "is_disabled": 0, "rental_uris": {"android": "https://dc.lft.to/lastmile_qr_scan", "ios": "https://dc.lft.to/lastmile_qr_scan"}, "type": "electric_bike", "lat": 38.893641, "is_reserved": 0, "fusion_lat": 0.0}, {"bike_id": "199fb00266b6d509231b84bfe3ea6f4e", "fusion_lon": 0.0, "lon": -77.03293666666667, "name": "199fb00266b6d509231b84bfe3ea6f4e", "is_disabled": 0, "rental_uris": {"android": "https://dc.lft.to/lastmile_qr_scan", "ios": "https://dc.lft.to/lastmile_qr_scan"}, "type": "electric_scooter", "lat": 38.9344405, "is_reserved": 0, "fusion_lat": 0.0}, {"bike_id": "a044fba4684009d9e61b25c1e7283932", "fusion_lon": 0.0, "lon": -77.0119875, "name": "a044fba4684009d9e61b25c1e7283932", "is_disabled": 0, "rental_uris": {"android": "https://dc.lft.to/lastmile_qr_scan", "ios": "https://dc.lft.to/lastmile_qr_scan"}, "type": "electric_scooter", "lat": 38.90015533333333, "is_reserved": 0, "fusion_lat": 0.0}, {"bike_id": "b537c85ded8e3f2956d1c3fc21cadc03", "fusion_lon": 0.0, "lon": -76.98387966666667, "name": "b537c85ded8e3f2956d1c3fc21cadc03", "is_disabled": 0, "rental_uris": {"android": "https://dc.lft.to/lastmile_qr_scan", "ios": "https://dc.lft.to/lastmile_qr_scan"}, "type": "electric_scooter", "lat": 38.86117633333333, "is_reserved": 0, "fusion_lat": 0.0}, {"bike_id": "d1938e5978511f154d1c7f514569af44", "fusion_lon": 0.0, "lon": -77.0020985, "name": "d1938e5978511f154d1c7f514569af44", "is_disabled": 0, "rental_uris": {"android": "https://dc.lft.to/lastmile_qr_scan", "ios": "https://dc.lft.to/lastmile_qr_scan"}, "type": "electric_scooter", "lat": 38.9007245, "is_reserved": 0, "fusion_lat": 0.0}, {"bike_id": "cf013658b09e9b6689b76aab0aaa9465", "fusion_lon": 0.0, "lon": -77.01213166666666, "name": "cf013658b09e9b6689b76aab0aaa9465", "is_disabled": 0, "rental_uris": {"android": "https://dc.lft.to/lastmile_qr_scan", "ios": "https://dc.lft.to/lastmile_qr_scan"}, "type": "electric_scooter", "lat": 38.91437333333333, "is_reserved": 0, "fusion_lat": 0.0}, {"bike_id": "a2369ce7255d334b2736ad9d40a316b1", "fusion_lon": 0.0, "lon": -77.01799666666666, "name": "a2369ce7255d334b2736ad9d40a316b1", "is_disabled": 0, "rental_uris": {"android": "https://dc.lft.to/lastmile_qr_scan", "ios": "https://dc.lft.to/lastmile_qr_scan"}, "type": "electric_scooter", "lat": 38.87674916666667, "is_reserved": 0, "fusion_lat": 0.0}, {"bike_id": "ae36aa51e30f33e54e00a41aa09a2dd6", "fusion_lon": 0.0, "lon": -77.03198633333334, "name": "ae36aa51e30f33e54e00a41aa09a2dd6", "is_disabled": 0, "rental_uris": {"android": "https://dc.lft.to/lastmile_qr_scan", "ios": "https://dc.lft.to/lastmile_qr_scan"}, "type": "electric_scooter", "lat": 38.909816, "is_reserved": 0, "fusion_lat": 0.0}, {"bike_id": "26f4b9eff638550d8f99dfd13eb32fa9", "fusion_lon": 0.0, "lon": -77.02202366666667, "name": "26f4b9eff638550d8f99dfd13eb32fa9", "is_disabled": 0, "rental_uris": {"android": "https://dc.lft.to/lastmile_qr_scan", "ios": "https://dc.lft.to/lastmile_qr_scan"}, "type": "electric_scooter", "lat": 38.9109865, "is_reserved": 0, "fusion_lat": 0.0}, {"bike_id": "355c9c037363559108bf34630498cd8c", "fusion_lon": 0.0, "lon": -77.03182416666667, "name": "355c9c037363559108bf34630498cd8c", "is_disabled": 0, "rental_uris": {"android": "https://dc.lft.to/lastmile_qr_scan", "ios": "https://dc.lft.to/lastmile_qr_scan"}, "type": "electric_scooter", "lat": 38.923852833333335, "is_reserved": 0, "fusion_lat": 0.0}, {"bike_id": "54f352514d79fa02ebfdc20d298064bb", "fusion_lon": 0.0, "lon": -77.032576, "name": "54f352514d79fa02ebfdc20d298064bb", "is_disabled": 0, "rental_uris": {"android": "https://dc.lft.to/lastmile_qr_scan", "ios": "https://dc.lft.to/lastmile_qr_scan"}, "type": "electric_scooter", "lat": 38.94272333333333, "is_reserved": 0, "fusion_lat": 0.0}, {"bike_id": "cbb51ff8448d494d7e27a5e71fb7b835", "fusion_lon": 0.0, "lon": -77.02630983333333, "name": "cbb51ff8448d494d7e27a5e71fb7b835", "is_disabled": 0, "rental_uris": {"android": "https://dc.lft.to/lastmile_qr_scan", "ios": "https://dc.lft.to/lastmile_qr_scan"}, "type": "electric_scooter", "lat": 38.925359, "is_reserved": 0, "fusion_lat": 0.0}, {"bike_id": "5b6bb9dc819027daefb788441cb5c814", "fusion_lon": 0.0, "lon": -77.042024, "name": "5b6bb9dc819027daefb788441cb5c814", "is_disabled": 0, "rental_uris": {"android": "https://dc.lft.to/lastmile_qr_scan", "ios": "https://dc.lft.to/lastmile_qr_scan"}, "type": "electric_scooter", "lat": 38.91128783333333, "is_reserved": 0, "fusion_lat": 0.0}, {"bike_id": "5791c418bd9f0f9c880726577d21e9eb", "fusion_lon": 0.0, "lon": -76.92509816666667, "name": "5791c418bd9f0f9c880726577d21e9eb", "is_disabled": 0, "rental_uris": {"android": "https://dc.lft.to/lastmile_qr_scan", "ios": "https://dc.lft.to/lastmile_qr_scan"}, "type": "electric_bike", "lat": 38.9588725, "is_reserved": 0, "fusion_lat": 0.0}, {"bike_id": "b78d30004f405b752e8725161a4d7adb", "fusion_lon": 0.0, "lon": -76.99645133333334, "name": "b78d30004f405b752e8725161a4d7adb", "is_disabled": 0, "rental_uris": {"android": "https://dc.lft.to/lastmile_qr_scan", "ios": "https://dc.lft.to/lastmile_qr_scan"}, "type": "electric_bike", "lat": 38.98827283333333, "is_reserved": 0, "fusion_lat": 0.0}, {"bike_id": "a12c557741faf92d5f846f2676350408", "fusion_lon": 0.0, "lon": -77.02177783333333, "name": "a12c557741faf92d5f846f2676350408", "is_disabled": 0, "rental_uris": {"android": "https://dc.lft.to/lastmile_qr_scan", "ios": "https://dc.lft.to/lastmile_qr_scan"}, "type": "electric_bike", "lat": 38.90704616666667, "is_reserved": 0, "fusion_lat": 0.0}, {"bike_id": "1abeedc548a35fe34fa2ba2beb28666c", "fusion_lon": 0.0, "lon": -77.0020295, "name": "1abeedc548a35fe34fa2ba2beb28666c", "is_disabled": 0, "rental_uris": {"android": "https://dc.lft.to/lastmile_qr_scan", "ios": "https://dc.lft.to/lastmile_qr_scan"}, "type": "electric_scooter", "lat": 38.90074883333333, "is_reserved": 0, "fusion_lat": 0.0}, {"bike_id": "428c7cf48e3468cc4fe970b315b5bbb8", "fusion_lon": 0.0, "lon": -77.02662333333333, "name": "428c7cf48e3468cc4fe970b315b5bbb8", "is_disabled": 0, "rental_uris": {"android": "https://dc.lft.to/lastmile_qr_scan", "ios": "https://dc.lft.to/lastmile_qr_scan"}, "type": "electric_bike", "lat": 38.988192, "is_reserved": 0, "fusion_lat": 0.0}, {"bike_id": "0d6f030275324c0a7cbd008ec235e559", "fusion_lon": 0.0, "lon": -77.03877566666667, "name": "0d6f030275324c0a7cbd008ec235e559", "is_disabled": 0, "rental_uris": {"android": "https://dc.lft.to/lastmile_qr_scan", "ios": "https://dc.lft.to/lastmile_qr_scan"}, "type": "electric_scooter", "lat": 38.925147833333334, "is_reserved": 0, "fusion_lat": 0.0}, {"bike_id": "32d452098fd9cdb88bfdc36dcd66ca31", "fusion_lon": 0.0, "lon": -76.99964133333333, "name": "32d452098fd9cdb88bfdc36dcd66ca31", "is_disabled": 0, "rental_uris": {"android": "https://dc.lft.to/lastmile_qr_scan", "ios": "https://dc.lft.to/lastmile_qr_scan"}, "type": "electric_scooter", "lat": 38.918979, "is_reserved": 0, "fusion_lat": 0.0}, {"bike_id": "7c396b0832ebc5020ee704c57cdbcd36", "fusion_lon": 0.0, "lon": -77.05859516666666, "name": "7c396b0832ebc5020ee704c57cdbcd36", "is_disabled": 0, "rental_uris": {"android": "https://dc.lft.to/lastmile_qr_scan", "ios": "https://dc.lft.to/lastmile_qr_scan"}, "type": "electric_scooter", "lat": 38.936093, "is_reserved": 0, "fusion_lat": 0.0}, {"bike_id": "185507cdcb38ba63c4d96290e191339c", "fusion_lon": 0.0, "lon": -76.96529083333333, "name": "185507cdcb38ba63c4d96290e191339c", "is_disabled": 0, "rental_uris": {"android": "https://dc.lft.to/lastmile_qr_scan", "ios": "https://dc.lft.to/lastmile_qr_scan"}, "type": "electric_scooter", "lat": 38.87629783333333, "is_reserved": 0, "fusion_lat": 0.0}, {"bike_id": "cb530f42099e443e4dda2b6fb5f7fb3b", "fusion_lon": 0.0, "lon": -77.023916, "name": "cb530f42099e443e4dda2b6fb5f7fb3b", "is_disabled": 0, "rental_uris": {"android": "https://dc.lft.to/lastmile_qr_scan", "ios": "https://dc.lft.to/lastmile_qr_scan"}, "type": "electric_scooter", "lat": 38.90749366666667, "is_reserved": 0, "fusion_lat": 0.0}, {"bike_id": "3c819c78e52e9a6803ccd8347dc11f0d", "fusion_lon": 0.0, "lon": -77.03710716666667, "name": "3c819c78e52e9a6803ccd8347dc11f0d", "is_disabled": 0, "rental_uris": {"android": "https://dc.lft.to/lastmile_qr_scan", "ios": "https://dc.lft.to/lastmile_qr_scan"}, "type": "electric_scooter", "lat": 38.92640633333333, "is_reserved": 0, "fusion_lat": 0.0}, {"bike_id": "3c203af120dbc0dbb2e66de42845c27d", "fusion_lon": 0.0, "lon": -77.06922766666666, "name": "3c203af120dbc0dbb2e66de42845c27d", "is_disabled": 0, "rental_uris": {"android": "https://dc.lft.to/lastmile_qr_scan", "ios": "https://dc.lft.to/lastmile_qr_scan"}, "type": "electric_scooter", "lat": 38.90786666666666, "is_reserved": 0, "fusion_lat": 0.0}, {"bike_id": "b0641d1078884009701156d9991749b6", "fusion_lon": 0.0, "lon": -77.03320933333333, "name": "b0641d1078884009701156d9991749b6", "is_disabled": 0, "rental_uris": {"android": "https://dc.lft.to/lastmile_qr_scan", "ios": "https://dc.lft.to/lastmile_qr_scan"}, "type": "electric_scooter", "lat": 38.90290433333333, "is_reserved": 0, "fusion_lat": 0.0}, {"bike_id": "c726e6ce789a954fc5b0856105a850f7", "fusion_lon": 0.0, "lon": -77.04887766666667, "name": "c726e6ce789a954fc5b0856105a850f7", "is_disabled": 0, "rental_uris": {"android": "https://dc.lft.to/lastmile_qr_scan", "ios": "https://dc.lft.to/lastmile_qr_scan"}, "type": "electric_scooter", "lat": 38.90060616666667, "is_reserved": 0, "fusion_lat": 0.0}, {"bike_id": "b83b57c400a8504df62e28c0b7cfb69a", "fusion_lon": 0.0, "lon": -77.05938316666666, "name": "b83b57c400a8504df62e28c0b7cfb69a", "is_disabled": 0, "rental_uris": {"android": "https://dc.lft.to/lastmile_qr_scan", "ios": "https://dc.lft.to/lastmile_qr_scan"}, "type": "electric_scooter", "lat": 38.9094655, "is_reserved": 0, "fusion_lat": 0.0}, {"bike_id": "2dc8b212afbab4e11037514290587aad", "fusion_lon": 0.0, "lon": -77.0335835, "name": "2dc8b212afbab4e11037514290587aad", "is_disabled": 0, "rental_uris": {"android": "https://dc.lft.to/lastmile_qr_scan", "ios": "https://dc.lft.to/lastmile_qr_scan"}, "type": "electric_scooter", "lat": 38.92875266666667, "is_reserved": 0, "fusion_lat": 0.0}, {"bike_id": "9e04e3a0d48098ca90fa40950aedd717", "fusion_lon": 0.0, "lon": -77.015011, "name": "9e04e3a0d48098ca90fa40950aedd717", "is_disabled": 0, "rental_uris": {"android": "https://dc.lft.to/lastmile_qr_scan", "ios": "https://dc.lft.to/lastmile_qr_scan"}, "type": "electric_scooter", "lat": 38.899420166666665, "is_reserved": 0, "fusion_lat": 0.0}, {"bike_id": "27017b00b7ea56f4255fc414fcd8afe9", "fusion_lon": 0.0, "lon": -77.02167766666666, "name": "27017b00b7ea56f4255fc414fcd8afe9", "is_disabled": 0, "rental_uris": {"android": "https://dc.lft.to/lastmile_qr_scan", "ios": "https://dc.lft.to/lastmile_qr_scan"}, "type": "electric_scooter", "lat": 38.94697566666667, "is_reserved": 0, "fusion_lat": 0.0}, {"bike_id": "082cfb88eaef029a742a5aa2daa92a1b", "fusion_lon": 0.0, "lon": -76.98205933333334, "name": "082cfb88eaef029a742a5aa2daa92a1b", "is_disabled": 0, "rental_uris": {"android": "https://dc.lft.to/lastmile_qr_scan", "ios": "https://dc.lft.to/lastmile_qr_scan"}, "type": "electric_bike", "lat": 38.98506116666667, "is_reserved": 0, "fusion_lat": 0.0}, {"bike_id": "eb936f8b73c1c36029fd5c4a2760abf6", "fusion_lon": 0.0, "lon": -76.9780645, "name": "eb936f8b73c1c36029fd5c4a2760abf6", "is_disabled": 0, "rental_uris": {"android": "https://dc.lft.to/lastmile_qr_scan", "ios": "https://dc.lft.to/lastmile_qr_scan"}, "type": "electric_scooter", "lat": 38.894546166666665, "is_reserved": 0, "fusion_lat": 0.0}, {"bike_id": "b0ed0c0da4b6702c4107ad2ffb42faf4", "fusion_lon": 0.0, "lon": -77.04099133333334, "name": "b0ed0c0da4b6702c4107ad2ffb42faf4", "is_disabled": 0, "rental_uris": {"android": "https://dc.lft.to/lastmile_qr_scan", "ios": "https://dc.lft.to/lastmile_qr_scan"}, "type": "electric_scooter", "lat": 38.91776016666667, "is_reserved": 0, "fusion_lat": 0.0}, {"bike_id": "b0c379997771a43393f993b10421b5ed", "fusion_lon": 0.0, "lon": -77.02931516666666, "name": "b0c379997771a43393f993b10421b5ed", "is_disabled": 0, "rental_uris": {"android": "https://dc.lft.to/lastmile_qr_scan", "ios": "https://dc.lft.to/lastmile_qr_scan"}, "type": "electric_scooter", "lat": 38.905330166666666, "is_reserved": 0, "fusion_lat": 0.0}, {"bike_id": "f47bbee4c81dc6bc2d6e9f91e799fccd", "fusion_lon": 0.0, "lon": -76.99752733333334, "name": "f47bbee4c81dc6bc2d6e9f91e799fccd", "is_disabled": 0, "rental_uris": {"android": "https://dc.lft.to/lastmile_qr_scan", "ios": "https://dc.lft.to/lastmile_qr_scan"}, "type": "electric_scooter", "lat": 38.88772316666667, "is_reserved": 0, "fusion_lat": 0.0}, {"bike_id": "02d4827c3564b5a765f44eee2b1e0bb6", "fusion_lon": 0.0, "lon": -76.9427985, "name": "02d4827c3564b5a765f44eee2b1e0bb6", "is_disabled": 0, "rental_uris": {"android": "https://dc.lft.to/lastmile_qr_scan", "ios": "https://dc.lft.to/lastmile_qr_scan"}, "type": "electric_bike", "lat": 38.879712833333336, "is_reserved": 0, "fusion_lat": 0.0}, {"bike_id": "e34c901dddf5d6f4a91b0d74f5ad084d", "fusion_lon": 0.0, "lon": -77.06858766666667, "name": "e34c901dddf5d6f4a91b0d74f5ad084d", "is_disabled": 0, "rental_uris": {"android": "https://dc.lft.to/lastmile_qr_scan", "ios": "https://dc.lft.to/lastmile_qr_scan"}, "type": "electric_bike", "lat": 38.805786, "is_reserved": 0, "fusion_lat": 0.0}, {"bike_id": "edc0dca4858bc6114986d18eef0d00ea", "fusion_lon": 0.0, "lon": -77.02089083333334, "name": "edc0dca4858bc6114986d18eef0d00ea", "is_disabled": 0, "rental_uris": {"android": "https://dc.lft.to/lastmile_qr_scan", "ios": "https://dc.lft.to/lastmile_qr_scan"}, "type": "electric_scooter", "lat": 38.941116666666666, "is_reserved": 0, "fusion_lat": 0.0}, {"bike_id": "ebaa8c3dd6850811341d8fdf93b3c9ad", "fusion_lon": 0.0, "lon": -77.01845416666667, "name": "ebaa8c3dd6850811341d8fdf93b3c9ad", "is_disabled": 0, "rental_uris": {"android": "https://dc.lft.to/lastmile_qr_scan", "ios": "https://dc.lft.to/lastmile_qr_scan"}, "type": "electric_scooter", "lat": 38.90381566666667, "is_reserved": 0, "fusion_lat": 0.0}, {"bike_id": "a2b439af5317586b7217b01e7ee65cba", "fusion_lon": 0.0, "lon": -77.02323766666666, "name": "a2b439af5317586b7217b01e7ee65cba", "is_disabled": 0, "rental_uris": {"android": "https://dc.lft.to/lastmile_qr_scan", "ios": "https://dc.lft.to/lastmile_qr_scan"}, "type": "electric_scooter", "lat": 38.897301166666665, "is_reserved": 0, "fusion_lat": 0.0}, {"bike_id": "f8c81ed9b09668928b8e909ff39ea166", "fusion_lon": 0.0, "lon": -77.01692966666667, "name": "f8c81ed9b09668928b8e909ff39ea166", "is_disabled": 0, "rental_uris": {"android": "https://dc.lft.to/lastmile_qr_scan", "ios": "https://dc.lft.to/lastmile_qr_scan"}, "type": "electric_scooter", "lat": 38.906465833333336, "is_reserved": 0, "fusion_lat": 0.0}, {"bike_id": "a8857e3d75606738e0d24e47c298ec0a", "fusion_lon": 0.0, "lon": -77.017732, "name": "a8857e3d75606738e0d24e47c298ec0a", "is_disabled": 0, "rental_uris": {"android": "https://dc.lft.to/lastmile_qr_scan", "ios": "https://dc.lft.to/lastmile_qr_scan"}, "type": "electric_bike", "lat": 38.9827665, "is_reserved": 0, "fusion_lat": 0.0}, {"bike_id": "af8ed013676948f3b7ba162af2337f95", "fusion_lon": 0.0, "lon": -77.05001366666667, "name": "af8ed013676948f3b7ba162af2337f95", "is_disabled": 0, "rental_uris": {"android": "https://dc.lft.to/lastmile_qr_scan", "ios": "https://dc.lft.to/lastmile_qr_scan"}, "type": "electric_scooter", "lat": 38.8923085, "is_reserved": 0, "fusion_lat": 0.0}, {"bike_id": "edca82d4cf4b720bfef4a7108258476b", "fusion_lon": 0.0, "lon": -77.03251466666667, "name": "edca82d4cf4b720bfef4a7108258476b", "is_disabled": 0, "rental_uris": {"android": "https://dc.lft.to/lastmile_qr_scan", "ios": "https://dc.lft.to/lastmile_qr_scan"}, "type": "electric_bike", "lat": 38.962872, "is_reserved": 0, "fusion_lat": 0.0}, {"bike_id": "8dd334569236ff80a7b5da3171cefc9f", "fusion_lon": 0.0, "lon": -77.0317205, "name": "8dd334569236ff80a7b5da3171cefc9f", "is_disabled": 0, "rental_uris": {"android": "https://dc.lft.to/lastmile_qr_scan", "ios": "https://dc.lft.to/lastmile_qr_scan"}, "type": "electric_scooter", "lat": 38.91408083333334, "is_reserved": 0, "fusion_lat": 0.0}, {"bike_id": "030cff38be5e1eb3a0f0f2e52f1faff7", "fusion_lon": 0.0, "lon": -77.03499733333334, "name": "030cff38be5e1eb3a0f0f2e52f1faff7", "is_disabled": 0, "rental_uris": {"android": "https://dc.lft.to/lastmile_qr_scan", "ios": "https://dc.lft.to/lastmile_qr_scan"}, "type": "electric_scooter", "lat": 38.96385716666666, "is_reserved": 0, "fusion_lat": 0.0}, {"bike_id": "69b83a760afd6b8e999c25593c762d14", "fusion_lon": 0.0, "lon": -77.036375, "name": "69b83a760afd6b8e999c25593c762d14", "is_disabled": 0, "rental_uris": {"android": "https://dc.lft.to/lastmile_qr_scan", "ios": "https://dc.lft.to/lastmile_qr_scan"}, "type": "electric_scooter", "lat": 38.92352183333333, "is_reserved": 0, "fusion_lat": 0.0}, {"bike_id": "d819c395b5c3668fdb00a7d8c421ec91", "fusion_lon": 0.0, "lon": -77.0295615, "name": "d819c395b5c3668fdb00a7d8c421ec91", "is_disabled": 0, "rental_uris": {"android": "https://dc.lft.to/lastmile_qr_scan", "ios": "https://dc.lft.to/lastmile_qr_scan"}, "type": "electric_scooter", "lat": 38.92337633333333, "is_reserved": 0, "fusion_lat": 0.0}, {"bike_id": "922dc320a22ef555770a8c9aff5577c7", "fusion_lon": 0.0, "lon": -76.9902705, "name": "922dc320a22ef555770a8c9aff5577c7", "is_disabled": 0, "rental_uris": {"android": "https://dc.lft.to/lastmile_qr_scan", "ios": "https://dc.lft.to/lastmile_qr_scan"}, "type": "electric_scooter", "lat": 38.9019395, "is_reserved": 0, "fusion_lat": 0.0}, {"bike_id": "a4778a4ebfd0503dfa986afb5c8a57f3", "fusion_lon": 0.0, "lon": -77.02199066666667, "name": "a4778a4ebfd0503dfa986afb5c8a57f3", "is_disabled": 0, "rental_uris": {"android": "https://dc.lft.to/lastmile_qr_scan", "ios": "https://dc.lft.to/lastmile_qr_scan"}, "type": "electric_scooter", "lat": 38.91103733333333, "is_reserved": 0, "fusion_lat": 0.0}, {"bike_id": "52adefcf029530ba4608bd74f103df89", "fusion_lon": 0.0, "lon": -77.03988933333333, "name": "52adefcf029530ba4608bd74f103df89", "is_disabled": 0, "rental_uris": {"android": "https://dc.lft.to/lastmile_qr_scan", "ios": "https://dc.lft.to/lastmile_qr_scan"}, "type": "electric_scooter", "lat": 38.92586033333333, "is_reserved": 0, "fusion_lat": 0.0}, {"bike_id": "4a0afc7d64c2f28232ba8e27d1862d87", "fusion_lon": 0.0, "lon": -77.029623, "name": "4a0afc7d64c2f28232ba8e27d1862d87", "is_disabled": 0, "rental_uris": {"android": "https://dc.lft.to/lastmile_qr_scan", "ios": "https://dc.lft.to/lastmile_qr_scan"}, "type": "electric_scooter", "lat": 38.90496016666667, "is_reserved": 0, "fusion_lat": 0.0}, {"bike_id": "f8f41d401a427d7bccbbcecafe5a6043", "fusion_lon": 0.0, "lon": -77.00565883333333, "name": "f8f41d401a427d7bccbbcecafe5a6043", "is_disabled": 0, "rental_uris": {"android": "https://dc.lft.to/lastmile_qr_scan", "ios": "https://dc.lft.to/lastmile_qr_scan"}, "type": "electric_scooter", "lat": 38.90578883333333, "is_reserved": 0, "fusion_lat": 0.0}, {"bike_id": "2b955046ed1b0f94d954e503f931ea07", "fusion_lon": 0.0, "lon": -77.02532366666667, "name": "2b955046ed1b0f94d954e503f931ea07", "is_disabled": 0, "rental_uris": {"android": "https://dc.lft.to/lastmile_qr_scan", "ios": "https://dc.lft.to/lastmile_qr_scan"}, "type": "electric_scooter", "lat": 38.909647666666665, "is_reserved": 0, "fusion_lat": 0.0}, {"bike_id": "fd98649164075a609d5a8e1261c3b04f", "fusion_lon": 0.0, "lon": -77.02444466666667, "name": "fd98649164075a609d5a8e1261c3b04f", "is_disabled": 0, "rental_uris": {"android": "https://dc.lft.to/lastmile_qr_scan", "ios": "https://dc.lft.to/lastmile_qr_scan"}, "type": "electric_scooter", "lat": 38.92051566666667, "is_reserved": 0, "fusion_lat": 0.0}, {"bike_id": "0b1630157323b4439830d326a7d2cf26", "fusion_lon": 0.0, "lon": -76.99906783333333, "name": "0b1630157323b4439830d326a7d2cf26", "is_disabled": 0, "rental_uris": {"android": "https://dc.lft.to/lastmile_qr_scan", "ios": "https://dc.lft.to/lastmile_qr_scan"}, "type": "electric_bike", "lat": 38.892083166666666, "is_reserved": 0, "fusion_lat": 0.0}, {"bike_id": "b73889351e9f1a4afb3a741c296b07e9", "fusion_lon": 0.0, "lon": -77.0253175, "name": "b73889351e9f1a4afb3a741c296b07e9", "is_disabled": 0, "rental_uris": {"android": "https://dc.lft.to/lastmile_qr_scan", "ios": "https://dc.lft.to/lastmile_qr_scan"}, "type": "electric_scooter", "lat": 38.8985185, "is_reserved": 0, "fusion_lat": 0.0}, {"bike_id": "2ca54d19cc6cd52af2e2e8ea980733bf", "fusion_lon": 0.0, "lon": -77.03340016666667, "name": "2ca54d19cc6cd52af2e2e8ea980733bf", "is_disabled": 0, "rental_uris": {"android": "https://dc.lft.to/lastmile_qr_scan", "ios": "https://dc.lft.to/lastmile_qr_scan"}, "type": "electric_scooter", "lat": 38.902778833333336, "is_reserved": 0, "fusion_lat": 0.0}, {"bike_id": "27d1d5099b5aab0a43b3632971150068", "fusion_lon": 0.0, "lon": -77.01534883333333, "name": "27d1d5099b5aab0a43b3632971150068", "is_disabled": 0, "rental_uris": {"android": "https://dc.lft.to/lastmile_qr_scan", "ios": "https://dc.lft.to/lastmile_qr_scan"}, "type": "electric_scooter", "lat": 38.8841235, "is_reserved": 0, "fusion_lat": 0.0}, {"bike_id": "b09ac24ce4ae111b77cbb6eead46baff", "fusion_lon": 0.0, "lon": -77.0460715, "name": "b09ac24ce4ae111b77cbb6eead46baff", "is_disabled": 0, "rental_uris": {"android": "https://dc.lft.to/lastmile_qr_scan", "ios": "https://dc.lft.to/lastmile_qr_scan"}, "type": "electric_scooter", "lat": 38.91725483333333, "is_reserved": 0, "fusion_lat": 0.0}, {"bike_id": "72e3d34823de9c369ecf072e255325da", "fusion_lon": 0.0, "lon": -77.00797916666667, "name": "72e3d34823de9c369ecf072e255325da", "is_disabled": 0, "rental_uris": {"android": "https://dc.lft.to/lastmile_qr_scan", "ios": "https://dc.lft.to/lastmile_qr_scan"}, "type": "electric_bike", "lat": 38.94924616666667, "is_reserved": 0, "fusion_lat": 0.0}, {"bike_id": "35f66e73c0f2e036b7c81113d0ac3530", "fusion_lon": 0.0, "lon": -76.977303, "name": "35f66e73c0f2e036b7c81113d0ac3530", "is_disabled": 0, "rental_uris": {"android": "https://dc.lft.to/lastmile_qr_scan", "ios": "https://dc.lft.to/lastmile_qr_scan"}, "type": "electric_scooter", "lat": 38.89518066666667, "is_reserved": 0, "fusion_lat": 0.0}, {"bike_id": "a0ee8d3eb9c5eba240af077d76e889cc", "fusion_lon": 0.0, "lon": -76.92331466666667, "name": "a0ee8d3eb9c5eba240af077d76e889cc", "is_disabled": 0, "rental_uris": {"android": "https://dc.lft.to/lastmile_qr_scan", "ios": "https://dc.lft.to/lastmile_qr_scan"}, "type": "electric_bike", "lat": 38.8710995, "is_reserved": 0, "fusion_lat": 0.0}, {"bike_id": "210fbac6d62ca15af32dbd46236aa01d", "fusion_lon": 0.0, "lon": -77.023735, "name": "210fbac6d62ca15af32dbd46236aa01d", "is_disabled": 0, "rental_uris": {"android": "https://dc.lft.to/lastmile_qr_scan", "ios": "https://dc.lft.to/lastmile_qr_scan"}, "type": "electric_scooter", "lat": 38.903775, "is_reserved": 0, "fusion_lat": 0.0}, {"bike_id": "7c1d6c3de80c3f22a2a8e5b9f49f4384", "fusion_lon": 0.0, "lon": -77.05426983333334, "name": "7c1d6c3de80c3f22a2a8e5b9f49f4384", "is_disabled": 0, "rental_uris": {"android": "https://dc.lft.to/lastmile_qr_scan", "ios": "https://dc.lft.to/lastmile_qr_scan"}, "type": "electric_bike", "lat": 38.93518483333333, "is_reserved": 0, "fusion_lat": 0.0}, {"bike_id": "ecaca1def652fd4d1c21c51a18f3d765", "fusion_lon": 0.0, "lon": -77.02726833333334, "name": "ecaca1def652fd4d1c21c51a18f3d765", "is_disabled": 0, "rental_uris": {"android": "https://dc.lft.to/lastmile_qr_scan", "ios": "https://dc.lft.to/lastmile_qr_scan"}, "type": "electric_bike", "lat": 38.94557433333333, "is_reserved": 0, "fusion_lat": 0.0}, {"bike_id": "c429fbd6eaf483208410149469c11920", "fusion_lon": 0.0, "lon": -77.04139483333333, "name": "c429fbd6eaf483208410149469c11920", "is_disabled": 0, "rental_uris": {"android": "https://dc.lft.to/lastmile_qr_scan", "ios": "https://dc.lft.to/lastmile_qr_scan"}, "type": "electric_scooter", "lat": 38.92659416666667, "is_reserved": 0, "fusion_lat": 0.0}, {"bike_id": "0c0b4f2aaaaa2798c90437295f9851c3", "fusion_lon": 0.0, "lon": -76.9951785, "name": "0c0b4f2aaaaa2798c90437295f9851c3", "is_disabled": 0, "rental_uris": {"android": "https://dc.lft.to/lastmile_qr_scan", "ios": "https://dc.lft.to/lastmile_qr_scan"}, "type": "electric_bike", "lat": 38.939310666666664, "is_reserved": 0, "fusion_lat": 0.0}, {"bike_id": "5d4adb126effc307dbe2afec78af1bd8", "fusion_lon": 0.0, "lon": -77.01316516666667, "name": "5d4adb126effc307dbe2afec78af1bd8", "is_disabled": 0, "rental_uris": {"android": "https://dc.lft.to/lastmile_qr_scan", "ios": "https://dc.lft.to/lastmile_qr_scan"}, "type": "electric_scooter", "lat": 38.9013435, "is_reserved": 0, "fusion_lat": 0.0}, {"bike_id": "06bee4fc0381744349a99b305300b9e9", "fusion_lon": 0.0, "lon": -77.05785433333334, "name": "06bee4fc0381744349a99b305300b9e9", "is_disabled": 0, "rental_uris": {"android": "https://dc.lft.to/lastmile_qr_scan", "ios": "https://dc.lft.to/lastmile_qr_scan"}, "type": "electric_scooter", "lat": 38.9010015, "is_reserved": 0, "fusion_lat": 0.0}, {"bike_id": "7dae681b60c2dff61f1d4852d31343be", "fusion_lon": 0.0, "lon": -77.0286465, "name": "7dae681b60c2dff61f1d4852d31343be", "is_disabled": 0, "rental_uris": {"android": "https://dc.lft.to/lastmile_qr_scan", "ios": "https://dc.lft.to/lastmile_qr_scan"}, "type": "electric_scooter", "lat": 38.904494666666665, "is_reserved": 0, "fusion_lat": 0.0}, {"bike_id": "c129d80285c1de2c49ac6f2708ef258a", "fusion_lon": 0.0, "lon": -77.02406683333334, "name": "c129d80285c1de2c49ac6f2708ef258a", "is_disabled": 0, "rental_uris": {"android": "https://dc.lft.to/lastmile_qr_scan", "ios": "https://dc.lft.to/lastmile_qr_scan"}, "type": "electric_scooter", "lat": 38.90753466666666, "is_reserved": 0, "fusion_lat": 0.0}, {"bike_id": "2ca9b001ac017b2e2bcbb18a499b09ca", "fusion_lon": 0.0, "lon": -77.02353600000001, "name": "2ca9b001ac017b2e2bcbb18a499b09ca", "is_disabled": 0, "rental_uris": {"android": "https://dc.lft.to/lastmile_qr_scan", "ios": "https://dc.lft.to/lastmile_qr_scan"}, "type": "electric_scooter", "lat": 38.94612333333333, "is_reserved": 0, "fusion_lat": 0.0}, {"bike_id": "bb0747cc6ad9e1c75ebcfbe68f0f308d", "fusion_lon": 0.0, "lon": -77.02398816666667, "name": "bb0747cc6ad9e1c75ebcfbe68f0f308d", "is_disabled": 0, "rental_uris": {"android": "https://dc.lft.to/lastmile_qr_scan", "ios": "https://dc.lft.to/lastmile_qr_scan"}, "type": "electric_scooter", "lat": 38.91748316666666, "is_reserved": 0, "fusion_lat": 0.0}, {"bike_id": "e5de1a0fc261cc76122c5ae1dc92b732", "fusion_lon": 0.0, "lon": -77.03363683333333, "name": "e5de1a0fc261cc76122c5ae1dc92b732", "is_disabled": 0, "rental_uris": {"android": "https://dc.lft.to/lastmile_qr_scan", "ios": "https://dc.lft.to/lastmile_qr_scan"}, "type": "electric_scooter", "lat": 38.928660666666666, "is_reserved": 0, "fusion_lat": 0.0}, {"bike_id": "142b31ddeebc35355541369283d73e2a", "fusion_lon": 0.0, "lon": -77.032409, "name": "142b31ddeebc35355541369283d73e2a", "is_disabled": 0, "rental_uris": {"android": "https://dc.lft.to/lastmile_qr_scan", "ios": "https://dc.lft.to/lastmile_qr_scan"}, "type": "electric_scooter", "lat": 38.923687, "is_reserved": 0, "fusion_lat": 0.0}, {"bike_id": "38c954cb2478915ba307154b26849cc7", "fusion_lon": 0.0, "lon": -77.01742283333333, "name": "38c954cb2478915ba307154b26849cc7", "is_disabled": 0, "rental_uris": {"android": "https://dc.lft.to/lastmile_qr_scan", "ios": "https://dc.lft.to/lastmile_qr_scan"}, "type": "electric_scooter", "lat": 38.883341, "is_reserved": 0, "fusion_lat": 0.0}, {"bike_id": "0a3094c565844f222c04347a628415bc", "fusion_lon": 0.0, "lon": -76.98630116666666, "name": "0a3094c565844f222c04347a628415bc", "is_disabled": 0, "rental_uris": {"android": "https://dc.lft.to/lastmile_qr_scan", "ios": "https://dc.lft.to/lastmile_qr_scan"}, "type": "electric_scooter", "lat": 38.8804385, "is_reserved": 0, "fusion_lat": 0.0}, {"bike_id": "c857de6e26617820ce8c3028a7f75cf2", "fusion_lon": 0.0, "lon": -77.0735655, "name": "c857de6e26617820ce8c3028a7f75cf2", "is_disabled": 0, "rental_uris": {"android": "https://dc.lft.to/lastmile_qr_scan", "ios": "https://dc.lft.to/lastmile_qr_scan"}, "type": "electric_bike", "lat": 38.93048016666667, "is_reserved": 0, "fusion_lat": 0.0}, {"bike_id": "3795ab0dfd88a8a8ad40488dffd42f43", "fusion_lon": 0.0, "lon": -77.02801716666667, "name": "3795ab0dfd88a8a8ad40488dffd42f43", "is_disabled": 0, "rental_uris": {"android": "https://dc.lft.to/lastmile_qr_scan", "ios": "https://dc.lft.to/lastmile_qr_scan"}, "type": "electric_scooter", "lat": 38.929721666666666, "is_reserved": 0, "fusion_lat": 0.0}, {"bike_id": "54ffe6035e67a4783809af91e700f944", "fusion_lon": 0.0, "lon": -77.02522216666667, "name": "54ffe6035e67a4783809af91e700f944", "is_disabled": 0, "rental_uris": {"android": "https://dc.lft.to/lastmile_qr_scan", "ios": "https://dc.lft.to/lastmile_qr_scan"}, "type": "electric_scooter", "lat": 38.920975, "is_reserved": 0, "fusion_lat": 0.0}, {"bike_id": "d072b82e9d309473e45e3c71f6d35ef1", "fusion_lon": 0.0, "lon": -77.01581783333333, "name": "d072b82e9d309473e45e3c71f6d35ef1", "is_disabled": 0, "rental_uris": {"android": "https://dc.lft.to/lastmile_qr_scan", "ios": "https://dc.lft.to/lastmile_qr_scan"}, "type": "electric_scooter", "lat": 38.89180416666667, "is_reserved": 0, "fusion_lat": 0.0}, {"bike_id": "9f7d8d13aa181262f81e7dc80b798e2b", "fusion_lon": 0.0, "lon": -77.03461666666666, "name": "9f7d8d13aa181262f81e7dc80b798e2b", "is_disabled": 0, "rental_uris": {"android": "https://dc.lft.to/lastmile_qr_scan", "ios": "https://dc.lft.to/lastmile_qr_scan"}, "type": "electric_scooter", "lat": 38.9354685, "is_reserved": 0, "fusion_lat": 0.0}, {"bike_id": "4d156c409700b8385d24596021ba1173", "fusion_lon": 0.0, "lon": -77.028043, "name": "4d156c409700b8385d24596021ba1173", "is_disabled": 0, "rental_uris": {"android": "https://dc.lft.to/lastmile_qr_scan", "ios": "https://dc.lft.to/lastmile_qr_scan"}, "type": "electric_scooter", "lat": 38.89536, "is_reserved": 0, "fusion_lat": 0.0}, {"bike_id": "570ee6c6b4a1b2682ef9ed0b930d60ef", "fusion_lon": 0.0, "lon": -77.03167383333333, "name": "570ee6c6b4a1b2682ef9ed0b930d60ef", "is_disabled": 0, "rental_uris": {"android": "https://dc.lft.to/lastmile_qr_scan", "ios": "https://dc.lft.to/lastmile_qr_scan"}, "type": "electric_scooter", "lat": 38.892194, "is_reserved": 0, "fusion_lat": 0.0}, {"bike_id": "0085e8457f005c46c99bc98386927610", "fusion_lon": 0.0, "lon": -77.0652295, "name": "0085e8457f005c46c99bc98386927610", "is_disabled": 0, "rental_uris": {"android": "https://dc.lft.to/lastmile_qr_scan", "ios": "https://dc.lft.to/lastmile_qr_scan"}, "type": "electric_scooter", "lat": 38.905863, "is_reserved": 0, "fusion_lat": 0.0}, {"bike_id": "997d89aa88c816ed2fd50d54522e0e72", "fusion_lon": 0.0, "lon": -76.99361816666666, "name": "997d89aa88c816ed2fd50d54522e0e72", "is_disabled": 0, "rental_uris": {"android": "https://dc.lft.to/lastmile_qr_scan", "ios": "https://dc.lft.to/lastmile_qr_scan"}, "type": "electric_scooter", "lat": 38.928395, "is_reserved": 0, "fusion_lat": 0.0}, {"bike_id": "785a1f566418ee32d89ad4bf683d85b0", "fusion_lon": 0.0, "lon": -77.04136, "name": "785a1f566418ee32d89ad4bf683d85b0", "is_disabled": 0, "rental_uris": {"android": "https://dc.lft.to/lastmile_qr_scan", "ios": "https://dc.lft.to/lastmile_qr_scan"}, "type": "electric_scooter", "lat": 38.933793666666666, "is_reserved": 0, "fusion_lat": 0.0}, {"bike_id": "27e3651f98199d0899f494fbc75e1fcd", "fusion_lon": 0.0, "lon": -77.03534133333334, "name": "27e3651f98199d0899f494fbc75e1fcd", "is_disabled": 0, "rental_uris": {"android": "https://dc.lft.to/lastmile_qr_scan", "ios": "https://dc.lft.to/lastmile_qr_scan"}, "type": "electric_scooter", "lat": 38.92478116666667, "is_reserved": 0, "fusion_lat": 0.0}, {"bike_id": "b05c276c5f8a3fc2413cfd36becb018e", "fusion_lon": 0.0, "lon": -77.05859283333334, "name": "b05c276c5f8a3fc2413cfd36becb018e", "is_disabled": 0, "rental_uris": {"android": "https://dc.lft.to/lastmile_qr_scan", "ios": "https://dc.lft.to/lastmile_qr_scan"}, "type": "electric_scooter", "lat": 38.93606716666667, "is_reserved": 0, "fusion_lat": 0.0}, {"bike_id": "f28f2261b42631bb9bda6265f795fe64", "fusion_lon": 0.0, "lon": -77.03878666666667, "name": "f28f2261b42631bb9bda6265f795fe64", "is_disabled": 0, "rental_uris": {"android": "https://dc.lft.to/lastmile_qr_scan", "ios": "https://dc.lft.to/lastmile_qr_scan"}, "type": "electric_scooter", "lat": 38.93124383333333, "is_reserved": 0, "fusion_lat": 0.0}, {"bike_id": "c8079faa4585dc2a396ab7767e64d25e", "fusion_lon": 0.0, "lon": -76.98524016666667, "name": "c8079faa4585dc2a396ab7767e64d25e", "is_disabled": 0, "rental_uris": {"android": "https://dc.lft.to/lastmile_qr_scan", "ios": "https://dc.lft.to/lastmile_qr_scan"}, "type": "electric_scooter", "lat": 38.86666533333333, "is_reserved": 0, "fusion_lat": 0.0}, {"bike_id": "c3627548398408bc38344eaf4a1058de", "fusion_lon": 0.0, "lon": -77.0257295, "name": "c3627548398408bc38344eaf4a1058de", "is_disabled": 0, "rental_uris": {"android": "https://dc.lft.to/lastmile_qr_scan", "ios": "https://dc.lft.to/lastmile_qr_scan"}, "type": "electric_scooter", "lat": 38.89229683333333, "is_reserved": 0, "fusion_lat": 0.0}, {"bike_id": "a4e2e488aee320e75100c9e0e81aab73", "fusion_lon": 0.0, "lon": -77.01199333333334, "name": "a4e2e488aee320e75100c9e0e81aab73", "is_disabled": 0, "rental_uris": {"android": "https://dc.lft.to/lastmile_qr_scan", "ios": "https://dc.lft.to/lastmile_qr_scan"}, "type": "electric_scooter", "lat": 38.90017266666667, "is_reserved": 0, "fusion_lat": 0.0}, {"bike_id": "0956d03d74a1c71d636202deb0fb5114", "fusion_lon": 0.0, "lon": -77.02694533333333, "name": "0956d03d74a1c71d636202deb0fb5114", "is_disabled": 0, "rental_uris": {"android": "https://dc.lft.to/lastmile_qr_scan", "ios": "https://dc.lft.to/lastmile_qr_scan"}, "type": "electric_scooter", "lat": 38.88129716666667, "is_reserved": 0, "fusion_lat": 0.0}, {"bike_id": "1d252446da7e8d0ddb375dc9f46585de", "fusion_lon": 0.0, "lon": -76.92736716666667, "name": "1d252446da7e8d0ddb375dc9f46585de", "is_disabled": 0, "rental_uris": {"android": "https://dc.lft.to/lastmile_qr_scan", "ios": "https://dc.lft.to/lastmile_qr_scan"}, "type": "electric_scooter", "lat": 38.889662, "is_reserved": 0, "fusion_lat": 0.0}, {"bike_id": "154f88cc0851f4bc60b8ddd939ef8e1d", "fusion_lon": 0.0, "lon": -77.02170216666667, "name": "154f88cc0851f4bc60b8ddd939ef8e1d", "is_disabled": 0, "rental_uris": {"android": "https://dc.lft.to/lastmile_qr_scan", "ios": "https://dc.lft.to/lastmile_qr_scan"}, "type": "electric_scooter", "lat": 38.946039166666665, "is_reserved": 0, "fusion_lat": 0.0}, {"bike_id": "88aacb316b5062fd8f3233adbfe9deec", "fusion_lon": 0.0, "lon": -77.030994, "name": "88aacb316b5062fd8f3233adbfe9deec", "is_disabled": 0, "rental_uris": {"android": "https://dc.lft.to/lastmile_qr_scan", "ios": "https://dc.lft.to/lastmile_qr_scan"}, "type": "electric_scooter", "lat": 38.923851, "is_reserved": 0, "fusion_lat": 0.0}, {"bike_id": "492ac20c2765ac2d8ebc64142330e243", "fusion_lon": 0.0, "lon": -76.931578, "name": "492ac20c2765ac2d8ebc64142330e243", "is_disabled": 0, "rental_uris": {"android": "https://dc.lft.to/lastmile_qr_scan", "ios": "https://dc.lft.to/lastmile_qr_scan"}, "type": "electric_scooter", "lat": 38.898803, "is_reserved": 0, "fusion_lat": 0.0}, {"bike_id": "e15e091d5e50ed6d0e8d6fe20f2d4e96", "fusion_lon": 0.0, "lon": -77.00114016666667, "name": "e15e091d5e50ed6d0e8d6fe20f2d4e96", "is_disabled": 0, "rental_uris": {"android": "https://dc.lft.to/lastmile_qr_scan", "ios": "https://dc.lft.to/lastmile_qr_scan"}, "type": "electric_scooter", "lat": 38.917036, "is_reserved": 0, "fusion_lat": 0.0}, {"bike_id": "f69891da1cf362311b47129d09d51425", "fusion_lon": 0.0, "lon": -77.03348633333333, "name": "f69891da1cf362311b47129d09d51425", "is_disabled": 0, "rental_uris": {"android": "https://dc.lft.to/lastmile_qr_scan", "ios": "https://dc.lft.to/lastmile_qr_scan"}, "type": "electric_scooter", "lat": 38.9418465, "is_reserved": 0, "fusion_lat": 0.0}, {"bike_id": "0aabcc200dd98fadfe08312c84fd0b23", "fusion_lon": 0.0, "lon": -77.03472583333334, "name": "0aabcc200dd98fadfe08312c84fd0b23", "is_disabled": 0, "rental_uris": {"android": "https://dc.lft.to/lastmile_qr_scan", "ios": "https://dc.lft.to/lastmile_qr_scan"}, "type": "electric_scooter", "lat": 38.92355633333333, "is_reserved": 0, "fusion_lat": 0.0}, {"bike_id": "f35478bcdc314f1c217b1a907c007cba", "fusion_lon": 0.0, "lon": -77.02167433333334, "name": "f35478bcdc314f1c217b1a907c007cba", "is_disabled": 0, "rental_uris": {"android": "https://dc.lft.to/lastmile_qr_scan", "ios": "https://dc.lft.to/lastmile_qr_scan"}, "type": "electric_scooter", "lat": 38.885128333333334, "is_reserved": 0, "fusion_lat": 0.0}, {"bike_id": "afdd9f03df964cb3a8870de01ff7424f", "fusion_lon": 0.0, "lon": -77.02318383333333, "name": "afdd9f03df964cb3a8870de01ff7424f", "is_disabled": 0, "rental_uris": {"android": "https://dc.lft.to/lastmile_qr_scan", "ios": "https://dc.lft.to/lastmile_qr_scan"}, "type": "electric_scooter", "lat": 38.907333666666666, "is_reserved": 0, "fusion_lat": 0.0}, {"bike_id": "7eeabfa60cc8b10ad1b6fe04a904019b", "fusion_lon": 0.0, "lon": -76.9879975, "name": "7eeabfa60cc8b10ad1b6fe04a904019b", "is_disabled": 0, "rental_uris": {"android": "https://dc.lft.to/lastmile_qr_scan", "ios": "https://dc.lft.to/lastmile_qr_scan"}, "type": "electric_bike", "lat": 38.922129, "is_reserved": 0, "fusion_lat": 0.0}, {"bike_id": "49604cf07fa5eef49c48b1f3107e8e6f", "fusion_lon": 0.0, "lon": -77.021695, "name": "49604cf07fa5eef49c48b1f3107e8e6f", "is_disabled": 0, "rental_uris": {"android": "https://dc.lft.to/lastmile_qr_scan", "ios": "https://dc.lft.to/lastmile_qr_scan"}, "type": "electric_scooter", "lat": 38.90961566666667, "is_reserved": 0, "fusion_lat": 0.0}, {"bike_id": "770e0b73a396756a8fa82f8e70cd036d", "fusion_lon": 0.0, "lon": -77.03656966666667, "name": "770e0b73a396756a8fa82f8e70cd036d", "is_disabled": 0, "rental_uris": {"android": "https://dc.lft.to/lastmile_qr_scan", "ios": "https://dc.lft.to/lastmile_qr_scan"}, "type": "electric_scooter", "lat": 38.923857166666664, "is_reserved": 0, "fusion_lat": 0.0}, {"bike_id": "f53740a55d4999a015e7e64ace56309e", "fusion_lon": 0.0, "lon": -77.11015133333333, "name": "f53740a55d4999a015e7e64ace56309e", "is_disabled": 0, "rental_uris": {"android": "https://dc.lft.to/lastmile_qr_scan", "ios": "https://dc.lft.to/lastmile_qr_scan"}, "type": "electric_bike", "lat": 38.84744366666666, "is_reserved": 0, "fusion_lat": 0.0}, {"bike_id": "5326952656ffa394db187980d3d64e29", "fusion_lon": 0.0, "lon": -76.99789866666667, "name": "5326952656ffa394db187980d3d64e29", "is_disabled": 0, "rental_uris": {"android": "https://dc.lft.to/lastmile_qr_scan", "ios": "https://dc.lft.to/lastmile_qr_scan"}, "type": "electric_scooter", "lat": 38.9090175, "is_reserved": 0, "fusion_lat": 0.0}, {"bike_id": "308fbd07f4dc3b97fcb6d7a7a72f6653", "fusion_lon": 0.0, "lon": -76.98468633333333, "name": "308fbd07f4dc3b97fcb6d7a7a72f6653", "is_disabled": 0, "rental_uris": {"android": "https://dc.lft.to/lastmile_qr_scan", "ios": "https://dc.lft.to/lastmile_qr_scan"}, "type": "electric_scooter", "lat": 38.8801155, "is_reserved": 0, "fusion_lat": 0.0}, {"bike_id": "1c587d8ecbfa2ab89574eed50899a312", "fusion_lon": 0.0, "lon": -77.0270755, "name": "1c587d8ecbfa2ab89574eed50899a312", "is_disabled": 0, "rental_uris": {"android": "https://dc.lft.to/lastmile_qr_scan", "ios": "https://dc.lft.to/lastmile_qr_scan"}, "type": "electric_scooter", "lat": 38.88148983333333, "is_reserved": 0, "fusion_lat": 0.0}, {"bike_id": "be41be65a71a35fb6d9bb25eea36ccba", "fusion_lon": 0.0, "lon": -77.0177675, "name": "be41be65a71a35fb6d9bb25eea36ccba", "is_disabled": 0, "rental_uris": {"android": "https://dc.lft.to/lastmile_qr_scan", "ios": "https://dc.lft.to/lastmile_qr_scan"}, "type": "electric_scooter", "lat": 38.88717233333333, "is_reserved": 0, "fusion_lat": 0.0}, {"bike_id": "f3a0d4267b8840e6bb2a6b1ba6014703", "fusion_lon": 0.0, "lon": -77.0508695, "name": "f3a0d4267b8840e6bb2a6b1ba6014703", "is_disabled": 0, "rental_uris": {"android": "https://dc.lft.to/lastmile_qr_scan", "ios": "https://dc.lft.to/lastmile_qr_scan"}, "type": "electric_bike", "lat": 38.8133435, "is_reserved": 0, "fusion_lat": 0.0}, {"bike_id": "ac86bea976e5339efb88af5b10284f2d", "fusion_lon": 0.0, "lon": -77.11599916666667, "name": "ac86bea976e5339efb88af5b10284f2d", "is_disabled": 0, "rental_uris": {"android": "https://dc.lft.to/lastmile_qr_scan", "ios": "https://dc.lft.to/lastmile_qr_scan"}, "type": "electric_bike", "lat": 39.074939666666666, "is_reserved": 0, "fusion_lat": 0.0}, {"bike_id": "13edf4a18b8fbb7b48046a0f3024f4ac", "fusion_lon": 0.0, "lon": -77.02344116666667, "name": "13edf4a18b8fbb7b48046a0f3024f4ac", "is_disabled": 0, "rental_uris": {"android": "https://dc.lft.to/lastmile_qr_scan", "ios": "https://dc.lft.to/lastmile_qr_scan"}, "type": "electric_scooter", "lat": 38.907257333333334, "is_reserved": 0, "fusion_lat": 0.0}, {"bike_id": "2b4ae6d2f11c22d6740216fc10eee54c", "fusion_lon": 0.0, "lon": -76.98633666666667, "name": "2b4ae6d2f11c22d6740216fc10eee54c", "is_disabled": 0, "rental_uris": {"android": "https://dc.lft.to/lastmile_qr_scan", "ios": "https://dc.lft.to/lastmile_qr_scan"}, "type": "electric_scooter", "lat": 38.88044133333333, "is_reserved": 0, "fusion_lat": 0.0}, {"bike_id": "0d6d4c8035b945b0ffb0e8a07b359561", "fusion_lon": 0.0, "lon": -77.029789, "name": "0d6d4c8035b945b0ffb0e8a07b359561", "is_disabled": 0, "rental_uris": {"android": "https://dc.lft.to/lastmile_qr_scan", "ios": "https://dc.lft.to/lastmile_qr_scan"}, "type": "electric_scooter", "lat": 38.89567866666667, "is_reserved": 0, "fusion_lat": 0.0}, {"bike_id": "ade4323f9ef6e9a22156b41076a4be67", "fusion_lon": 0.0, "lon": -77.08616633333334, "name": "ade4323f9ef6e9a22156b41076a4be67", "is_disabled": 0, "rental_uris": {"android": "https://dc.lft.to/lastmile_qr_scan", "ios": "https://dc.lft.to/lastmile_qr_scan"}, "type": "electric_bike", "lat": 38.89129583333333, "is_reserved": 0, "fusion_lat": 0.0}, {"bike_id": "70acc11e13593de3ef4392a5cdc45bf3", "fusion_lon": 0.0, "lon": -77.02317733333334, "name": "70acc11e13593de3ef4392a5cdc45bf3", "is_disabled": 0, "rental_uris": {"android": "https://dc.lft.to/lastmile_qr_scan", "ios": "https://dc.lft.to/lastmile_qr_scan"}, "type": "electric_scooter", "lat": 38.919655666666664, "is_reserved": 0, "fusion_lat": 0.0}, {"bike_id": "f8ea637bd406a7c02d487e4a279109db", "fusion_lon": 0.0, "lon": -77.01957966666667, "name": "f8ea637bd406a7c02d487e4a279109db", "is_disabled": 0, "rental_uris": {"android": "https://dc.lft.to/lastmile_qr_scan", "ios": "https://dc.lft.to/lastmile_qr_scan"}, "type": "electric_scooter", "lat": 38.897388, "is_reserved": 0, "fusion_lat": 0.0}, {"bike_id": "065c42e6f0662c96b1e09b0ff7641009", "fusion_lon": 0.0, "lon": -77.04341083333334, "name": "065c42e6f0662c96b1e09b0ff7641009", "is_disabled": 0, "rental_uris": {"android": "https://dc.lft.to/lastmile_qr_scan", "ios": "https://dc.lft.to/lastmile_qr_scan"}, "type": "electric_scooter", "lat": 38.907286, "is_reserved": 0, "fusion_lat": 0.0}, {"bike_id": "1dca8f728db1171383415a72ad99836c", "fusion_lon": 0.0, "lon": -77.03975316666667, "name": "1dca8f728db1171383415a72ad99836c", "is_disabled": 0, "rental_uris": {"android": "https://dc.lft.to/lastmile_qr_scan", "ios": "https://dc.lft.to/lastmile_qr_scan"}, "type": "electric_scooter", "lat": 38.911918666666665, "is_reserved": 0, "fusion_lat": 0.0}, {"bike_id": "a25634fbd84a6f0bbf901867f276604d", "fusion_lon": 0.0, "lon": -77.0262935, "name": "a25634fbd84a6f0bbf901867f276604d", "is_disabled": 0, "rental_uris": {"android": "https://dc.lft.to/lastmile_qr_scan", "ios": "https://dc.lft.to/lastmile_qr_scan"}, "type": "electric_bike", "lat": 38.962269, "is_reserved": 0, "fusion_lat": 0.0}, {"bike_id": "7ec260aaaf4225f2987e76bdd738301f", "fusion_lon": 0.0, "lon": -77.02825166666666, "name": "7ec260aaaf4225f2987e76bdd738301f", "is_disabled": 0, "rental_uris": {"android": "https://dc.lft.to/lastmile_qr_scan", "ios": "https://dc.lft.to/lastmile_qr_scan"}, "type": "electric_bike", "lat": 38.96507033333334, "is_reserved": 0, "fusion_lat": 0.0}, {"bike_id": "3434ddd95e3f1a2b298b1d773764fb76", "fusion_lon": 0.0, "lon": -77.02397183333333, "name": "3434ddd95e3f1a2b298b1d773764fb76", "is_disabled": 0, "rental_uris": {"android": "https://dc.lft.to/lastmile_qr_scan", "ios": "https://dc.lft.to/lastmile_qr_scan"}, "type": "electric_scooter", "lat": 38.916017333333336, "is_reserved": 0, "fusion_lat": 0.0}, {"bike_id": "0317be257c6a671960259365e5bfdae5", "fusion_lon": 0.0, "lon": -77.03486133333334, "name": "0317be257c6a671960259365e5bfdae5", "is_disabled": 0, "rental_uris": {"android": "https://dc.lft.to/lastmile_qr_scan", "ios": "https://dc.lft.to/lastmile_qr_scan"}, "type": "electric_scooter", "lat": 38.918574666666665, "is_reserved": 0, "fusion_lat": 0.0}, {"bike_id": "5d27289adfe01162d6fe875253eaec22", "fusion_lon": 0.0, "lon": -76.97703966666667, "name": "5d27289adfe01162d6fe875253eaec22", "is_disabled": 0, "rental_uris": {"android": "https://dc.lft.to/lastmile_qr_scan", "ios": "https://dc.lft.to/lastmile_qr_scan"}, "type": "electric_bike", "lat": 38.9491485, "is_reserved": 0, "fusion_lat": 0.0}, {"bike_id": "b5ac4b9f757230d387d295a8c415f4ef", "fusion_lon": 0.0, "lon": -77.03655283333333, "name": "b5ac4b9f757230d387d295a8c415f4ef", "is_disabled": 0, "rental_uris": {"android": "https://dc.lft.to/lastmile_qr_scan", "ios": "https://dc.lft.to/lastmile_qr_scan"}, "type": "electric_scooter", "lat": 38.922861, "is_reserved": 0, "fusion_lat": 0.0}, {"bike_id": "dec847fc829e4c0c9bafa039585e0e8e", "fusion_lon": 0.0, "lon": -76.88375116666667, "name": "dec847fc829e4c0c9bafa039585e0e8e", "is_disabled": 0, "rental_uris": {"android": "https://dc.lft.to/lastmile_qr_scan", "ios": "https://dc.lft.to/lastmile_qr_scan"}, "type": "electric_bike", "lat": 38.998195333333335, "is_reserved": 0, "fusion_lat": 0.0}, {"bike_id": "875ad090084a6dd48b065e7ee175b2d7", "fusion_lon": 0.0, "lon": -77.3608945, "name": "875ad090084a6dd48b065e7ee175b2d7", "is_disabled": 0, "rental_uris": {"android": "https://dc.lft.to/lastmile_qr_scan", "ios": "https://dc.lft.to/lastmile_qr_scan"}, "type": "electric_bike", "lat": 38.9396295, "is_reserved": 0, "fusion_lat": 0.0}, {"bike_id": "135f70fc92d21e2b45879d26c07f5d6c", "fusion_lon": 0.0, "lon": -77.03278516666667, "name": "135f70fc92d21e2b45879d26c07f5d6c", "is_disabled": 0, "rental_uris": {"android": "https://dc.lft.to/lastmile_qr_scan", "ios": "https://dc.lft.to/lastmile_qr_scan"}, "type": "electric_scooter", "lat": 38.900107, "is_reserved": 0, "fusion_lat": 0.0}, {"bike_id": "975da993857e4744523ec9cb6c7304af", "fusion_lon": 0.0, "lon": -76.9513915, "name": "975da993857e4744523ec9cb6c7304af", "is_disabled": 0, "rental_uris": {"android": "https://dc.lft.to/lastmile_qr_scan", "ios": "https://dc.lft.to/lastmile_qr_scan"}, "type": "electric_scooter", "lat": 38.8904315, "is_reserved": 0, "fusion_lat": 0.0}, {"bike_id": "3482ce90a5e57829237fffa65fd1ba3b", "fusion_lon": 0.0, "lon": -77.0526325, "name": "3482ce90a5e57829237fffa65fd1ba3b", "is_disabled": 0, "rental_uris": {"android": "https://dc.lft.to/lastmile_qr_scan", "ios": "https://dc.lft.to/lastmile_qr_scan"}, "type": "electric_scooter", "lat": 38.925672166666665, "is_reserved": 0, "fusion_lat": 0.0}, {"bike_id": "6548e67262c5a6ddbda3e729ff8aab76", "fusion_lon": 0.0, "lon": -77.00152866666667, "name": "6548e67262c5a6ddbda3e729ff8aab76", "is_disabled": 0, "rental_uris": {"android": "https://dc.lft.to/lastmile_qr_scan", "ios": "https://dc.lft.to/lastmile_qr_scan"}, "type": "electric_scooter", "lat": 38.923421, "is_reserved": 0, "fusion_lat": 0.0}, {"bike_id": "37581ba7e4b3eb616471b9021015966b", "fusion_lon": 0.0, "lon": -77.02105133333333, "name": "37581ba7e4b3eb616471b9021015966b", "is_disabled": 0, "rental_uris": {"android": "https://dc.lft.to/lastmile_qr_scan", "ios": "https://dc.lft.to/lastmile_qr_scan"}, "type": "electric_scooter", "lat": 38.924086333333335, "is_reserved": 0, "fusion_lat": 0.0}, {"bike_id": "65a757f8881d591acd8a29ab8f2f6080", "fusion_lon": 0.0, "lon": -77.0431245, "name": "65a757f8881d591acd8a29ab8f2f6080", "is_disabled": 0, "rental_uris": {"android": "https://dc.lft.to/lastmile_qr_scan", "ios": "https://dc.lft.to/lastmile_qr_scan"}, "type": "electric_scooter", "lat": 38.88108033333334, "is_reserved": 0, "fusion_lat": 0.0}, {"bike_id": "26500161619ed956863da767e49e0fc7", "fusion_lon": 0.0, "lon": -77.0211245, "name": "26500161619ed956863da767e49e0fc7", "is_disabled": 0, "rental_uris": {"android": "https://dc.lft.to/lastmile_qr_scan", "ios": "https://dc.lft.to/lastmile_qr_scan"}, "type": "electric_scooter", "lat": 38.917390833333336, "is_reserved": 0, "fusion_lat": 0.0}, {"bike_id": "a7cca21438f02aca544e8208dfaa6327", "fusion_lon": 0.0, "lon": -77.02043883333333, "name": "a7cca21438f02aca544e8208dfaa6327", "is_disabled": 0, "rental_uris": {"android": "https://dc.lft.to/lastmile_qr_scan", "ios": "https://dc.lft.to/lastmile_qr_scan"},