{"data": {"bikes": [{"name": "fdeec2ab4680d20a1815a882efaf0250", "fusion_lon": 0.0, "lat": 38.95614283333333, "is_reserved": 0, "type": "electric_scooter", "bike_id": "fdeec2ab4680d20a1815a882efaf0250", "is_disabled": 0, "rental_uris": {"android": "https://dc.lft.to/lastmile_qr_scan", "ios": "https://dc.lft.to/lastmile_qr_scan"}, "lon": -77.02779533333333, "fusion_lat": 0.0}, {"name": "4249e0e6cd6f7b85752b857bdd02b2aa", "fusion_lon": 0.0, "lat": 38.898408833333335, "is_reserved": 0, "type": "electric_scooter", "bike_id": "4249e0e6cd6f7b85752b857bdd02b2aa", "is_disabled": 0, "rental_uris": {"android": "https://dc.lft.to/lastmile_qr_scan", "ios": "https://dc.lft.to/lastmile_qr_scan"}, "lon": -77.022737, "fusion_lat": 0.0}, {"name": "8631ee943949d53d85517f3893020cc8", "fusion_lon": 0.0, "lat": 38.911044833333335, "is_reserved": 0, "type": "electric_scooter", "bike_id": "8631ee943949d53d85517f3893020cc8", "is_disabled": 0, "rental_uris": {"android": "https://dc.lft.to/lastmile_qr_scan", "ios": "https://dc.lft.to/lastmile_qr_scan"}, "lon": -77.0114985, "fusion_lat": 0.0}, {"name": "818a66af2d2a3d23da67e3c36b520edc", "fusion_lon": 0.0, "lat": 38.9127455, "is_reserved": 0, "type": "electric_scooter", "bike_id": "818a66af2d2a3d23da67e3c36b520edc", "is_disabled": 0, "rental_uris": {"android": "https://dc.lft.to/lastmile_qr_scan", "ios": "https://dc.lft.to/lastmile_qr_scan"}, "lon": -77.02694383333333, "fusion_lat": 0.0}, {"name": "8eb43ecc1dd7ad2f8dd8f5d3d98efa75", "fusion_lon": 0.0, "lat": 38.87935433333333, "is_reserved": 0, "type": "electric_scooter", "bike_id": "8eb43ecc1dd7ad2f8dd8f5d3d98efa75", "is_disabled": 0, "rental_uris": {"android": "https://dc.lft.to/lastmile_qr_scan", "ios": "https://dc.lft.to/lastmile_qr_scan"}, "lon": -77.00404816666666, "fusion_lat": 0.0}, {"name": "447d75bf2fca38372539ad975524a100", "fusion_lon": 0.0, "lat": 38.88820666666667, "is_reserved": 0, "type": "electric_scooter", "bike_id": "447d75bf2fca38372539ad975524a100", "is_disabled": 0, "rental_uris": {"android": "https://dc.lft.to/lastmile_qr_scan", "ios": "https://dc.lft.to/lastmile_qr_scan"}, "lon": -76.9509715, "fusion_lat": 0.0}, {"name": "512bb1f93d70e4ecf9a20c77004fc46f", "fusion_lon": 0.0, "lat": 38.91568183333333, "is_reserved": 0, "type": "electric_scooter", "bike_id": "512bb1f93d70e4ecf9a20c77004fc46f", "is_disabled": 0, "rental_uris": {"android": "https://dc.lft.to/lastmile_qr_scan", "ios": "https://dc.lft.to/lastmile_qr_scan"}, "lon": -77.01037416666667, "fusion_lat": 0.0}, {"name": "35f45319480b67cfc885507c641b3b64", "fusion_lon": 0.0, "lat": 38.90382666666667, "is_reserved": 0, "type": "electric_scooter", "bike_id": "35f45319480b67cfc885507c641b3b64", "is_disabled": 0, "rental_uris": {"android": "https://dc.lft.to/lastmile_qr_scan", "ios": "https://dc.lft.to/lastmile_qr_scan"}, "lon": -77.04493, "fusion_lat": 0.0}, {"name": "cc52c764d5acff2f44395dc1771986e7", "fusion_lon": 0.0, "lat": 38.866275, "is_reserved": 0, "type": "electric_scooter", "bike_id": "cc52c764d5acff2f44395dc1771986e7", "is_disabled": 0, "rental_uris": {"android": "https://dc.lft.to/lastmile_qr_scan", "ios": "https://dc.lft.to/lastmile_qr_scan"}, "lon": -76.989132, "fusion_lat": 0.0}, {"name": "e471d9e1c58c3c960115e8db3fa6d9a1", "fusion_lon": 0.0, "lat": 38.90824283333333, "is_reserved": 0, "type": "electric_scooter", "bike_id": "e471d9e1c58c3c960115e8db3fa6d9a1", "is_disabled": 0, "rental_uris": {"android": "https://dc.lft.to/lastmile_qr_scan", "ios": "https://dc.lft.to/lastmile_qr_scan"}, "lon": -77.00211616666667, "fusion_lat": 0.0}, {"name": "e8a7bacbfc27c544716fe9c8bf24ed3e", "fusion_lon": 0.0, "lat": 38.9224715, "is_reserved": 0, "type": "electric_scooter", "bike_id": "e8a7bacbfc27c544716fe9c8bf24ed3e", "is_disabled": 0, "rental_uris": {"android": "https://dc.lft.to/lastmile_qr_scan", "ios": "https://dc.lft.to/lastmile_qr_scan"}, "lon": -77.0302845, "fusion_lat": 0.0}, {"name": "c05f8bb712a9f8b53d651187dd248192", "fusion_lon": 0.0, "lat": 38.91555283333334, "is_reserved": 0, "type": "electric_scooter", "bike_id": "c05f8bb712a9f8b53d651187dd248192", "is_disabled": 0, "rental_uris": {"android": "https://dc.lft.to/lastmile_qr_scan", "ios": "https://dc.lft.to/lastmile_qr_scan"}, "lon": -77.041804, "fusion_lat": 0.0}, {"name": "44cd42293834d0046456aaa430d5c79b", "fusion_lon": 0.0, "lat": 38.89702883333333, "is_reserved": 0, "type": "electric_scooter", "bike_id": "44cd42293834d0046456aaa430d5c79b", "is_disabled": 0, "rental_uris": {"android": "https://dc.lft.to/lastmile_qr_scan", "ios": "https://dc.lft.to/lastmile_qr_scan"}, "lon": -76.9299545, "fusion_lat": 0.0}, {"name": "0118bb8c6d273c11e8bee49b1e323ea8", "fusion_lon": 0.0, "lat": 38.919966, "is_reserved": 0, "type": "electric_scooter", "bike_id": "0118bb8c6d273c11e8bee49b1e323ea8", "is_disabled": 0, "rental_uris": {"android": "https://dc.lft.to/lastmile_qr_scan", "ios": "https://dc.lft.to/lastmile_qr_scan"}, "lon": -77.03218033333333, "fusion_lat": 0.0}, {"name": "c659b17c2b54d30d3afc3a4e03a209ab", "fusion_lon": 0.0, "lat": 38.90081933333333, "is_reserved": 0, "type": "electric_scooter", "bike_id": "c659b17c2b54d30d3afc3a4e03a209ab", "is_disabled": 0, "rental_uris": {"android": "https://dc.lft.to/lastmile_qr_scan", "ios": "https://dc.lft.to/lastmile_qr_scan"}, "lon": -77.0243335, "fusion_lat": 0.0}, {"name": "5be52e1e84774f5232258acd3d64e7de", "fusion_lon": 0.0, "lat": 38.91643216666667, "is_reserved": 0, "type": "electric_scooter", "bike_id": "5be52e1e84774f5232258acd3d64e7de", "is_disabled": 0, "rental_uris": {"android": "https://dc.lft.to/lastmile_qr_scan", "ios": "https://dc.lft.to/lastmile_qr_scan"}, "lon": -77.02399966666667, "fusion_lat": 0.0}, {"name": "1ac110373e066f9efb11a690b382b37e", "fusion_lon": 0.0, "lat": 38.923787833333336, "is_reserved": 0, "type": "electric_scooter", "bike_id": "1ac110373e066f9efb11a690b382b37e", "is_disabled": 0, "rental_uris": {"android": "https://dc.lft.to/lastmile_qr_scan", "ios": "https://dc.lft.to/lastmile_qr_scan"}, "lon": -77.03094716666666, "fusion_lat": 0.0}, {"name": "12d0ec626dff036e06772c93e776c87e", "fusion_lon": 0.0, "lat": 38.899235166666664, "is_reserved": 0, "type": "electric_scooter", "bike_id": "12d0ec626dff036e06772c93e776c87e", "is_disabled": 0, "rental_uris": {"android": "https://dc.lft.to/lastmile_qr_scan", "ios": "https://dc.lft.to/lastmile_qr_scan"}, "lon": -77.0705835, "fusion_lat": 0.0}, {"name": "bc6e11dde9bcf64870d9042e2804d186", "fusion_lon": 0.0, "lat": 38.899561, "is_reserved": 0, "type": "electric_bike", "bike_id": "bc6e11dde9bcf64870d9042e2804d186", "is_disabled": 0, "rental_uris": {"android": "https://dc.lft.to/lastmile_qr_scan", "ios": "https://dc.lft.to/lastmile_qr_scan"}, "lon": -76.98571166666666, "fusion_lat": 0.0}, {"name": "52092392c368c15a6622b5043d45dc33", "fusion_lon": 0.0, "lat": 38.9117505, "is_reserved": 0, "type": "electric_scooter", "bike_id": "52092392c368c15a6622b5043d45dc33", "is_disabled": 0, "rental_uris": {"android": "https://dc.lft.to/lastmile_qr_scan", "ios": "https://dc.lft.to/lastmile_qr_scan"}, "lon": -77.00445, "fusion_lat": 0.0}, {"name": "826974837a6f2fc9ad43975dfa7bed46", "fusion_lon": 0.0, "lat": 38.907879333333334, "is_reserved": 0, "type": "electric_scooter", "bike_id": "826974837a6f2fc9ad43975dfa7bed46", "is_disabled": 0, "rental_uris": {"android": "https://dc.lft.to/lastmile_qr_scan", "ios": "https://dc.lft.to/lastmile_qr_scan"}, "lon": -77.009509, "fusion_lat": 0.0}, {"name": "cb514cf9d731db0690877075c3495dab", "fusion_lon": 0.0, "lat": 38.8922175, "is_reserved": 0, "type": "electric_scooter", "bike_id": "cb514cf9d731db0690877075c3495dab", "is_disabled": 0, "rental_uris": {"android": "https://dc.lft.to/lastmile_qr_scan", "ios": "https://dc.lft.to/lastmile_qr_scan"}, "lon": -77.0485995, "fusion_lat": 0.0}, {"name": "12cefb99dee6312d4898244919915f12", "fusion_lon": 0.0, "lat": 38.902387, "is_reserved": 0, "type": "electric_scooter", "bike_id": "12cefb99dee6312d4898244919915f12", "is_disabled": 0, "rental_uris": {"android": "https://dc.lft.to/lastmile_qr_scan", "ios": "https://dc.lft.to/lastmile_qr_scan"}, "lon": -77.053221, "fusion_lat": 0.0}, {"name": "6fd7ce0c28d8d39cf7175d134da03448", "fusion_lon": 0.0, "lat": 38.90277016666667, "is_reserved": 0, "type": "electric_scooter", "bike_id": "6fd7ce0c28d8d39cf7175d134da03448", "is_disabled": 0, "rental_uris": {"android": "https://dc.lft.to/lastmile_qr_scan", "ios": "https://dc.lft.to/lastmile_qr_scan"}, "lon": -77.0283005, "fusion_lat": 0.0}, {"name": "b4e86bcbcdb4431b1bed25fce8b1e61a", "fusion_lon": 0.0, "lat": 38.93026716666667, "is_reserved": 0, "type": "electric_scooter", "bike_id": "b4e86bcbcdb4431b1bed25fce8b1e61a", "is_disabled": 0, "rental_uris": {"android": "https://dc.lft.to/lastmile_qr_scan", "ios": "https://dc.lft.to/lastmile_qr_scan"}, "lon": -77.0378645, "fusion_lat": 0.0}, {"name": "a4b4d4317e53102c9b6577107f5d163c", "fusion_lon": 0.0, "lat": 38.876426, "is_reserved": 0, "type": "electric_scooter", "bike_id": "a4b4d4317e53102c9b6577107f5d163c", "is_disabled": 0, "rental_uris": {"android": "https://dc.lft.to/lastmile_qr_scan", "ios": "https://dc.lft.to/lastmile_qr_scan"}, "lon": -77.0024455, "fusion_lat": 0.0}, {"name": "56e2931165f02bafcc5e8273b38637bf", "fusion_lon": 0.0, "lat": 38.897298166666666, "is_reserved": 0, "type": "electric_scooter", "bike_id": "56e2931165f02bafcc5e8273b38637bf", "is_disabled": 0, "rental_uris": {"android": "https://dc.lft.to/lastmile_qr_scan", "ios": "https://dc.lft.to/lastmile_qr_scan"}, "lon": -77.055198, "fusion_lat": 0.0}, {"name": "4501be42258b6a46fd6b367edd9f56bc", "fusion_lon": 0.0, "lat": 38.92727, "is_reserved": 0, "type": "electric_scooter", "bike_id": "4501be42258b6a46fd6b367edd9f56bc", "is_disabled": 0, "rental_uris": {"android": "https://dc.lft.to/lastmile_qr_scan", "ios": "https://dc.lft.to/lastmile_qr_scan"}, "lon": -77.023036, "fusion_lat": 0.0}, {"name": "2585f147b3c79eace7b73ef279b23e1d", "fusion_lon": 0.0, "lat": 38.87844333333334, "is_reserved": 0, "type": "electric_scooter", "bike_id": "2585f147b3c79eace7b73ef279b23e1d", "is_disabled": 0, "rental_uris": {"android": "https://dc.lft.to/lastmile_qr_scan", "ios": "https://dc.lft.to/lastmile_qr_scan"}, "lon": -77.00819616666666, "fusion_lat": 0.0}, {"name": "e68c734a4bc10be0a34f0be711896bdf", "fusion_lon": 0.0, "lat": 38.909362, "is_reserved": 0, "type": "electric_scooter", "bike_id": "e68c734a4bc10be0a34f0be711896bdf", "is_disabled": 0, "rental_uris": {"android": "https://dc.lft.to/lastmile_qr_scan", "ios": "https://dc.lft.to/lastmile_qr_scan"}, "lon": -77.0269485, "fusion_lat": 0.0}, {"name": "cb2f82993fac3dc0267ac521b737e217", "fusion_lon": 0.0, "lat": 38.91565283333333, "is_reserved": 0, "type": "electric_scooter", "bike_id": "cb2f82993fac3dc0267ac521b737e217", "is_disabled": 0, "rental_uris": {"android": "https://dc.lft.to/lastmile_qr_scan", "ios": "https://dc.lft.to/lastmile_qr_scan"}, "lon": -77.038666, "fusion_lat": 0.0}, {"name": "3079130733b67c7a3fdb98f8076f1c4f", "fusion_lon": 0.0, "lat": 38.90270433333333, "is_reserved": 0, "type": "electric_scooter", "bike_id": "3079130733b67c7a3fdb98f8076f1c4f", "is_disabled": 0, "rental_uris": {"android": "https://dc.lft.to/lastmile_qr_scan", "ios": "https://dc.lft.to/lastmile_qr_scan"}, "lon": -77.003268, "fusion_lat": 0.0}, {"name": "5077e80b8b737e2169f3948e0d842333", "fusion_lon": 0.0, "lat": 38.9014695, "is_reserved": 0, "type": "electric_scooter", "bike_id": "5077e80b8b737e2169f3948e0d842333", "is_disabled": 0, "rental_uris": {"android": "https://dc.lft.to/lastmile_qr_scan", "ios": "https://dc.lft.to/lastmile_qr_scan"}, "lon": -76.9298495, "fusion_lat": 0.0}, {"name": "732869ba688ecd67a8306824fd3c180e", "fusion_lon": 0.0, "lat": 38.902018166666664, "is_reserved": 0, "type": "electric_scooter", "bike_id": "732869ba688ecd67a8306824fd3c180e", "is_disabled": 0, "rental_uris": {"android": "https://dc.lft.to/lastmile_qr_scan", "ios": "https://dc.lft.to/lastmile_qr_scan"}, "lon": -77.02378233333333, "fusion_lat": 0.0}, {"name": "35fe1677ab8a44511fd8a6aa5bb77695", "fusion_lon": 0.0, "lat": 38.9276985, "is_reserved": 0, "type": "electric_scooter", "bike_id": "35fe1677ab8a44511fd8a6aa5bb77695", "is_disabled": 0, "rental_uris": {"android": "https://dc.lft.to/lastmile_qr_scan", "ios": "https://dc.lft.to/lastmile_qr_scan"}, "lon": -77.04063183333334, "fusion_lat": 0.0}, {"name": "18f6232cbab7a601a8d86f0bb9bdb123", "fusion_lon": 0.0, "lat": 38.92105183333334, "is_reserved": 0, "type": "electric_scooter", "bike_id": "18f6232cbab7a601a8d86f0bb9bdb123", "is_disabled": 0, "rental_uris": {"android": "https://dc.lft.to/lastmile_qr_scan", "ios": "https://dc.lft.to/lastmile_qr_scan"}, "lon": -77.0393175, "fusion_lat": 0.0}, {"name": "ff0b93e45c142c79eabd8af52feb38e9", "fusion_lon": 0.0, "lat": 38.94796916666667, "is_reserved": 0, "type": "electric_bike", "bike_id": "ff0b93e45c142c79eabd8af52feb38e9", "is_disabled": 0, "rental_uris": {"android": "https://dc.lft.to/lastmile_qr_scan", "ios": "https://dc.lft.to/lastmile_qr_scan"}, "lon": -76.95541816666666, "fusion_lat": 0.0}, {"name": "254199552c3d5d2df724ae048f267c20", "fusion_lon": 0.0, "lat": 38.91771083333333, "is_reserved": 0, "type": "electric_scooter", "bike_id": "254199552c3d5d2df724ae048f267c20", "is_disabled": 0, "rental_uris": {"android": "https://dc.lft.to/lastmile_qr_scan", "ios": "https://dc.lft.to/lastmile_qr_scan"}, "lon": -77.04770333333333, "fusion_lat": 0.0}, {"name": "2f7d13b7e2f59ef74b49381921a8e770", "fusion_lon": 0.0, "lat": 38.8766025, "is_reserved": 0, "type": "electric_scooter", "bike_id": "2f7d13b7e2f59ef74b49381921a8e770", "is_disabled": 0, "rental_uris": {"android": "https://dc.lft.to/lastmile_qr_scan", "ios": "https://dc.lft.to/lastmile_qr_scan"}, "lon": -77.0043645, "fusion_lat": 0.0}, {"name": "9b38cad072dc92e065a524a05d453833", "fusion_lon": 0.0, "lat": 38.907815, "is_reserved": 0, "type": "electric_scooter", "bike_id": "9b38cad072dc92e065a524a05d453833", "is_disabled": 0, "rental_uris": {"android": "https://dc.lft.to/lastmile_qr_scan", "ios": "https://dc.lft.to/lastmile_qr_scan"}, "lon": -77.0383055, "fusion_lat": 0.0}, {"name": "7244dfb21b30a38b4e8de293b6e1dba1", "fusion_lon": 0.0, "lat": 38.87416233333333, "is_reserved": 0, "type": "electric_scooter", "bike_id": "7244dfb21b30a38b4e8de293b6e1dba1", "is_disabled": 0, "rental_uris": {"android": "https://dc.lft.to/lastmile_qr_scan", "ios": "https://dc.lft.to/lastmile_qr_scan"}, "lon": -76.9677255, "fusion_lat": 0.0}, {"name": "778cf6808c03698642bfdb09c4adcd0d", "fusion_lon": 0.0, "lat": 38.926635, "is_reserved": 0, "type": "electric_scooter", "bike_id": "778cf6808c03698642bfdb09c4adcd0d", "is_disabled": 0, "rental_uris": {"android": "https://dc.lft.to/lastmile_qr_scan", "ios": "https://dc.lft.to/lastmile_qr_scan"}, "lon": -77.02308183333334, "fusion_lat": 0.0}, {"name": "ccccf08c03d6718c3c3e9834db88b391", "fusion_lon": 0.0, "lat": 38.9235975, "is_reserved": 0, "type": "electric_scooter", "bike_id": "ccccf08c03d6718c3c3e9834db88b391", "is_disabled": 0, "rental_uris": {"android": "https://dc.lft.to/lastmile_qr_scan", "ios": "https://dc.lft.to/lastmile_qr_scan"}, "lon": -77.0298145, "fusion_lat": 0.0}, {"name": "af1e5fd16573189da3f17d29085a2a07", "fusion_lon": 0.0, "lat": 38.917305999999996, "is_reserved": 0, "type": "electric_scooter", "bike_id": "af1e5fd16573189da3f17d29085a2a07", "is_disabled": 0, "rental_uris": {"android": "https://dc.lft.to/lastmile_qr_scan", "ios": "https://dc.lft.to/lastmile_qr_scan"}, "lon": -77.03659933333333, "fusion_lat": 0.0}, {"name": "05ef116a278f0434f9398279a501d501", "fusion_lon": 0.0, "lat": 38.973989, "is_reserved": 0, "type": "electric_bike", "bike_id": "05ef116a278f0434f9398279a501d501", "is_disabled": 0, "rental_uris": {"android": "https://dc.lft.to/lastmile_qr_scan", "ios": "https://dc.lft.to/lastmile_qr_scan"}, "lon": -77.06456116666666, "fusion_lat": 0.0}, {"name": "f69488aeba5a39ae6ac3034678c33329", "fusion_lon": 0.0, "lat": 38.91548983333333, "is_reserved": 0, "type": "electric_scooter", "bike_id": "f69488aeba5a39ae6ac3034678c33329", "is_disabled": 0, "rental_uris": {"android": "https://dc.lft.to/lastmile_qr_scan", "ios": "https://dc.lft.to/lastmile_qr_scan"}, "lon": -77.05316266666667, "fusion_lat": 0.0}, {"name": "516e2c363ab3717e201cbd63f6a4886d", "fusion_lon": 0.0, "lat": 38.9169305, "is_reserved": 0, "type": "electric_scooter", "bike_id": "516e2c363ab3717e201cbd63f6a4886d", "is_disabled": 0, "rental_uris": {"android": "https://dc.lft.to/lastmile_qr_scan", "ios": "https://dc.lft.to/lastmile_qr_scan"}, "lon": -77.03118216666667, "fusion_lat": 0.0}, {"name": "7c000e2ffb5ec883d59f4199c8f926d7", "fusion_lon": 0.0, "lat": 38.89223616666666, "is_reserved": 0, "type": "electric_scooter", "bike_id": "7c000e2ffb5ec883d59f4199c8f926d7", "is_disabled": 0, "rental_uris": {"android": "https://dc.lft.to/lastmile_qr_scan", "ios": "https://dc.lft.to/lastmile_qr_scan"}, "lon": -77.048645, "fusion_lat": 0.0}, {"name": "66026c6efb31c0e870b8d8496d86dda8", "fusion_lon": 0.0, "lat": 38.92610366666667, "is_reserved": 0, "type": "electric_bike", "bike_id": "66026c6efb31c0e870b8d8496d86dda8", "is_disabled": 0, "rental_uris": {"android": "https://dc.lft.to/lastmile_qr_scan", "ios": "https://dc.lft.to/lastmile_qr_scan"}, "lon": -77.03956216666667, "fusion_lat": 0.0}, {"name": "46dbcc89ecf40460f441a48d4abafc2e", "fusion_lon": 0.0, "lat": 38.87707183333333, "is_reserved": 0, "type": "electric_scooter", "bike_id": "46dbcc89ecf40460f441a48d4abafc2e", "is_disabled": 0, "rental_uris": {"android": "https://dc.lft.to/lastmile_qr_scan", "ios": "https://dc.lft.to/lastmile_qr_scan"}, "lon": -77.01733616666667, "fusion_lat": 0.0}, {"name": "377aaac111fec821e44f30f22f9f387e", "fusion_lon": 0.0, "lat": 38.89618266666667, "is_reserved": 0, "type": "electric_scooter", "bike_id": "377aaac111fec821e44f30f22f9f387e", "is_disabled": 0, "rental_uris": {"android": "https://dc.lft.to/lastmile_qr_scan", "ios": "https://dc.lft.to/lastmile_qr_scan"}, "lon": -76.98168116666666, "fusion_lat": 0.0}, {"name": "792e51a492643b9b6da0513182a6c7e1", "fusion_lon": 0.0, "lat": 38.907806666666666, "is_reserved": 0, "type": "electric_scooter", "bike_id": "792e51a492643b9b6da0513182a6c7e1", "is_disabled": 0, "rental_uris": {"android": "https://dc.lft.to/lastmile_qr_scan", "ios": "https://dc.lft.to/lastmile_qr_scan"}, "lon": -77.03826, "fusion_lat": 0.0}, {"name": "3b623971dcb9f7688bcbdcbe268553df", "fusion_lon": 0.0, "lat": 38.9033545, "is_reserved": 0, "type": "electric_scooter", "bike_id": "3b623971dcb9f7688bcbdcbe268553df", "is_disabled": 0, "rental_uris": {"android": "https://dc.lft.to/lastmile_qr_scan", "ios": "https://dc.lft.to/lastmile_qr_scan"}, "lon": -77.0110735, "fusion_lat": 0.0}, {"name": "2001c6e8b73304e9451df7fb09e3760c", "fusion_lon": 0.0, "lat": 38.883888666666664, "is_reserved": 0, "type": "electric_scooter", "bike_id": "2001c6e8b73304e9451df7fb09e3760c", "is_disabled": 0, "rental_uris": {"android": "https://dc.lft.to/lastmile_qr_scan", "ios": "https://dc.lft.to/lastmile_qr_scan"}, "lon": -76.95447133333333, "fusion_lat": 0.0}, {"name": "d8d4603e8337208e216ecef8ab5369f9", "fusion_lon": 0.0, "lat": 38.908679666666664, "is_reserved": 0, "type": "electric_scooter", "bike_id": "d8d4603e8337208e216ecef8ab5369f9", "is_disabled": 0, "rental_uris": {"android": "https://dc.lft.to/lastmile_qr_scan", "ios": "https://dc.lft.to/lastmile_qr_scan"}, "lon": -76.99957583333334, "fusion_lat": 0.0}, {"name": "b6d5b1f47323848bea5b1fadfe972cac", "fusion_lon": 0.0, "lat": 38.90718533333333, "is_reserved": 0, "type": "electric_scooter", "bike_id": "b6d5b1f47323848bea5b1fadfe972cac", "is_disabled": 0, "rental_uris": {"android": "https://dc.lft.to/lastmile_qr_scan", "ios": "https://dc.lft.to/lastmile_qr_scan"}, "lon": -76.99815716666667, "fusion_lat": 0.0}, {"name": "f931ae79889715a2771ac2a8cdd8a948", "fusion_lon": 0.0, "lat": 38.90970016666667, "is_reserved": 0, "type": "electric_scooter", "bike_id": "f931ae79889715a2771ac2a8cdd8a948", "is_disabled": 0, "rental_uris": {"android": "https://dc.lft.to/lastmile_qr_scan", "ios": "https://dc.lft.to/lastmile_qr_scan"}, "lon": -77.02297066666667, "fusion_lat": 0.0}, {"name": "c97cba5b708577a2f370cf4e1cb92c69", "fusion_lon": 0.0, "lat": 38.91820383333334, "is_reserved": 0, "type": "electric_scooter", "bike_id": "c97cba5b708577a2f370cf4e1cb92c69", "is_disabled": 0, "rental_uris": {"android": "https://dc.lft.to/lastmile_qr_scan", "ios": "https://dc.lft.to/lastmile_qr_scan"}, "lon": -77.0366465, "fusion_lat": 0.0}, {"name": "afece0c45859ec410d8a7a77898b743b", "fusion_lon": 0.0, "lat": 38.90548116666667, "is_reserved": 0, "type": "electric_scooter", "bike_id": "afece0c45859ec410d8a7a77898b743b", "is_disabled": 0, "rental_uris": {"android": "https://dc.lft.to/lastmile_qr_scan", "ios": "https://dc.lft.to/lastmile_qr_scan"}, "lon": -77.03464333333334, "fusion_lat": 0.0}, {"name": "031279e6b67a38e316005071378c99fd", "fusion_lon": 0.0, "lat": 38.90650483333334, "is_reserved": 0, "type": "electric_scooter", "bike_id": "031279e6b67a38e316005071378c99fd", "is_disabled": 0, "rental_uris": {"android": "https://dc.lft.to/lastmile_qr_scan", "ios": "https://dc.lft.to/lastmile_qr_scan"}, "lon": -77.04861066666666, "fusion_lat": 0.0}, {"name": "0247b77b08612f3d10889afeffea5410", "fusion_lon": 0.0, "lat": 38.884708833333335, "is_reserved": 0, "type": "electric_scooter", "bike_id": "0247b77b08612f3d10889afeffea5410", "is_disabled": 0, "rental_uris": {"android": "https://dc.lft.to/lastmile_qr_scan", "ios": "https://dc.lft.to/lastmile_qr_scan"}, "lon": -77.02658116666667, "fusion_lat": 0.0}, {"name": "b1d38b901c9293e0834e576f76378897", "fusion_lon": 0.0, "lat": 38.95185516666667, "is_reserved": 0, "type": "electric_scooter", "bike_id": "b1d38b901c9293e0834e576f76378897", "is_disabled": 0, "rental_uris": {"android": "https://dc.lft.to/lastmile_qr_scan", "ios": "https://dc.lft.to/lastmile_qr_scan"}, "lon": -77.0261505, "fusion_lat": 0.0}, {"name": "b9313d882840e848c6686b072d9403b0", "fusion_lon": 0.0, "lat": 38.912620833333335, "is_reserved": 0, "type": "electric_scooter", "bike_id": "b9313d882840e848c6686b072d9403b0", "is_disabled": 0, "rental_uris": {"android": "https://dc.lft.to/lastmile_qr_scan", "ios": "https://dc.lft.to/lastmile_qr_scan"}, "lon": -77.01847483333333, "fusion_lat": 0.0}, {"name": "b18c032d649a3a0b424f6cd86c82bc4b", "fusion_lon": 0.0, "lat": 38.92503816666667, "is_reserved": 0, "type": "electric_scooter", "bike_id": "b18c032d649a3a0b424f6cd86c82bc4b", "is_disabled": 0, "rental_uris": {"android": "https://dc.lft.to/lastmile_qr_scan", "ios": "https://dc.lft.to/lastmile_qr_scan"}, "lon": -77.0235695, "fusion_lat": 0.0}, {"name": "5377fd7e42fb34ba6e20dafadf1fcd13", "fusion_lon": 0.0, "lat": 38.934853333333336, "is_reserved": 0, "type": "electric_scooter", "bike_id": "5377fd7e42fb34ba6e20dafadf1fcd13", "is_disabled": 0, "rental_uris": {"android": "https://dc.lft.to/lastmile_qr_scan", "ios": "https://dc.lft.to/lastmile_qr_scan"}, "lon": -77.03604816666666, "fusion_lat": 0.0}, {"name": "b3d4c4c1f08f827884f5fe7a163acf28", "fusion_lon": 0.0, "lat": 38.91473533333333, "is_reserved": 0, "type": "electric_scooter", "bike_id": "b3d4c4c1f08f827884f5fe7a163acf28", "is_disabled": 0, "rental_uris": {"android": "https://dc.lft.to/lastmile_qr_scan", "ios": "https://dc.lft.to/lastmile_qr_scan"}, "lon": -77.0318555, "fusion_lat": 0.0}, {"name": "0e2f1997afd36615ecab7227541f46ae", "fusion_lon": 0.0, "lat": 38.890907166666665, "is_reserved": 0, "type": "electric_scooter", "bike_id": "0e2f1997afd36615ecab7227541f46ae", "is_disabled": 0, "rental_uris": {"android": "https://dc.lft.to/lastmile_qr_scan", "ios": "https://dc.lft.to/lastmile_qr_scan"}, "lon": -76.9985205, "fusion_lat": 0.0}, {"name": "e8b78d3a612bda78f33a2f0f98c91962", "fusion_lon": 0.0, "lat": 38.9224855, "is_reserved": 0, "type": "electric_scooter", "bike_id": "e8b78d3a612bda78f33a2f0f98c91962", "is_disabled": 0, "rental_uris": {"android": "https://dc.lft.to/lastmile_qr_scan", "ios": "https://dc.lft.to/lastmile_qr_scan"}, "lon": -77.03394883333333, "fusion_lat": 0.0}, {"name": "dcebd3ef1a2fdd374f962c1ecfe9fb22", "fusion_lon": 0.0, "lat": 38.892195, "is_reserved": 0, "type": "electric_scooter", "bike_id": "dcebd3ef1a2fdd374f962c1ecfe9fb22", "is_disabled": 0, "rental_uris": {"android": "https://dc.lft.to/lastmile_qr_scan", "ios": "https://dc.lft.to/lastmile_qr_scan"}, "lon": -77.02228383333333, "fusion_lat": 0.0}, {"name": "bf179e835950626fa65127e871072191", "fusion_lon": 0.0, "lat": 38.866885, "is_reserved": 0, "type": "electric_scooter", "bike_id": "bf179e835950626fa65127e871072191", "is_disabled": 0, "rental_uris": {"android": "https://dc.lft.to/lastmile_qr_scan", "ios": "https://dc.lft.to/lastmile_qr_scan"}, "lon": -76.98562066666666, "fusion_lat": 0.0}, {"name": "c72248ae1b46cb22e5df5bc15e3bab86", "fusion_lon": 0.0, "lat": 38.8820975, "is_reserved": 0, "type": "electric_bike", "bike_id": "c72248ae1b46cb22e5df5bc15e3bab86", "is_disabled": 0, "rental_uris": {"android": "https://dc.lft.to/lastmile_qr_scan", "ios": "https://dc.lft.to/lastmile_qr_scan"}, "lon": -77.117395, "fusion_lat": 0.0}, {"name": "2b160083a3b49d4561b342c518dc3b4a", "fusion_lon": 0.0, "lat": 38.91612683333334, "is_reserved": 0, "type": "electric_scooter", "bike_id": "2b160083a3b49d4561b342c518dc3b4a", "is_disabled": 0, "rental_uris": {"android": "https://dc.lft.to/lastmile_qr_scan", "ios": "https://dc.lft.to/lastmile_qr_scan"}, "lon": -77.01583416666666, "fusion_lat": 0.0}, {"name": "734c701cb58c1ac7b156685fcad75dbc", "fusion_lon": 0.0, "lat": 38.89501166666667, "is_reserved": 0, "type": "electric_scooter", "bike_id": "734c701cb58c1ac7b156685fcad75dbc", "is_disabled": 0, "rental_uris": {"android": "https://dc.lft.to/lastmile_qr_scan", "ios": "https://dc.lft.to/lastmile_qr_scan"}, "lon": -76.9347785, "fusion_lat": 0.0}, {"name": "1692a71e3458eaf00677ecad49b4e449", "fusion_lon": 0.0, "lat": 38.99534333333333, "is_reserved": 0, "type": "electric_bike", "bike_id": "1692a71e3458eaf00677ecad49b4e449", "is_disabled": 0, "rental_uris": {"android": "https://dc.lft.to/lastmile_qr_scan", "ios": "https://dc.lft.to/lastmile_qr_scan"}, "lon": -77.06944783333333, "fusion_lat": 0.0}, {"name": "9ab52d0002ca9f6b1ccb07f26e4bb354", "fusion_lon": 0.0, "lat": 38.926167666666665, "is_reserved": 0, "type": "electric_scooter", "bike_id": "9ab52d0002ca9f6b1ccb07f26e4bb354", "is_disabled": 0, "rental_uris": {"android": "https://dc.lft.to/lastmile_qr_scan", "ios": "https://dc.lft.to/lastmile_qr_scan"}, "lon": -77.04329483333333, "fusion_lat": 0.0}, {"name": "8e7fc9a480d42f805ffe7012794bcd0d", "fusion_lon": 0.0, "lat": 38.85487883333333, "is_reserved": 0, "type": "electric_bike", "bike_id": "8e7fc9a480d42f805ffe7012794bcd0d", "is_disabled": 0, "rental_uris": {"android": "https://dc.lft.to/lastmile_qr_scan", "ios": "https://dc.lft.to/lastmile_qr_scan"}, "lon": -77.1161285, "fusion_lat": 0.0}, {"name": "4921e8a1650c99037f08d299ed9eaf5e", "fusion_lon": 0.0, "lat": 38.896170833333336, "is_reserved": 0, "type": "electric_scooter", "bike_id": "4921e8a1650c99037f08d299ed9eaf5e", "is_disabled": 0, "rental_uris": {"android": "https://dc.lft.to/lastmile_qr_scan", "ios": "https://dc.lft.to/lastmile_qr_scan"}, "lon": -77.04469033333334, "fusion_lat": 0.0}, {"name": "9a5b25a6c533930fb5d0193a1e5057ea", "fusion_lon": 0.0, "lat": 38.929648666666665, "is_reserved": 0, "type": "electric_bike", "bike_id": "9a5b25a6c533930fb5d0193a1e5057ea", "is_disabled": 0, "rental_uris": {"android": "https://dc.lft.to/lastmile_qr_scan", "ios": "https://dc.lft.to/lastmile_qr_scan"}, "lon": -77.1856325, "fusion_lat": 0.0}, {"name": "2c997be63caa4ecbbc8e4e2eb2147dd0", "fusion_lon": 0.0, "lat": 38.915599, "is_reserved": 0, "type": "electric_scooter", "bike_id": "2c997be63caa4ecbbc8e4e2eb2147dd0", "is_disabled": 0, "rental_uris": {"android": "https://dc.lft.to/lastmile_qr_scan", "ios": "https://dc.lft.to/lastmile_qr_scan"}, "lon": -77.0205645, "fusion_lat": 0.0}, {"name": "be07c3d75ca3715e1a8c2480c9f6aa24", "fusion_lon": 0.0, "lat": 38.92465883333333, "is_reserved": 0, "type": "electric_scooter", "bike_id": "be07c3d75ca3715e1a8c2480c9f6aa24", "is_disabled": 0, "rental_uris": {"android": "https://dc.lft.to/lastmile_qr_scan", "ios": "https://dc.lft.to/lastmile_qr_scan"}, "lon": -77.07826, "fusion_lat": 0.0}, {"name": "8f8bbbdc7a265a007cdccdcda3373d45", "fusion_lon": 0.0, "lat": 38.934045, "is_reserved": 0, "type": "electric_scooter", "bike_id": "8f8bbbdc7a265a007cdccdcda3373d45", "is_disabled": 0, "rental_uris": {"android": "https://dc.lft.to/lastmile_qr_scan", "ios": "https://dc.lft.to/lastmile_qr_scan"}, "lon": -77.03988366666667, "fusion_lat": 0.0}, {"name": "cb03e350443e20f58d48092d8e3d2129", "fusion_lon": 0.0, "lat": 38.92723133333333, "is_reserved": 0, "type": "electric_scooter", "bike_id": "cb03e350443e20f58d48092d8e3d2129", "is_disabled": 0, "rental_uris": {"android": "https://dc.lft.to/lastmile_qr_scan", "ios": "https://dc.lft.to/lastmile_qr_scan"}, "lon": -77.0228075, "fusion_lat": 0.0}, {"name": "f04d599e33921d86bfb4eaa306eeb739", "fusion_lon": 0.0, "lat": 38.886063666666665, "is_reserved": 0, "type": "electric_scooter", "bike_id": "f04d599e33921d86bfb4eaa306eeb739", "is_disabled": 0, "rental_uris": {"android": "https://dc.lft.to/lastmile_qr_scan", "ios": "https://dc.lft.to/lastmile_qr_scan"}, "lon": -76.9951085, "fusion_lat": 0.0}, {"name": "feaa1d4d3d184ea320d236bd4e095793", "fusion_lon": 0.0, "lat": 38.92413483333333, "is_reserved": 0, "type": "electric_scooter", "bike_id": "feaa1d4d3d184ea320d236bd4e095793", "is_disabled": 0, "rental_uris": {"android": "https://dc.lft.to/lastmile_qr_scan", "ios": "https://dc.lft.to/lastmile_qr_scan"}, "lon": -77.03636966666667, "fusion_lat": 0.0}, {"name": "7574471bc0758c018b2850b4ba945bdf", "fusion_lon": 0.0, "lat": 39.054949666666666, "is_reserved": 0, "type": "electric_bike", "bike_id": "7574471bc0758c018b2850b4ba945bdf", "is_disabled": 0, "rental_uris": {"android": "https://dc.lft.to/lastmile_qr_scan", "ios": "https://dc.lft.to/lastmile_qr_scan"}, "lon": -77.04650166666667, "fusion_lat": 0.0}, {"name": "b79cfc829175519794f1eff3bd9fc56f", "fusion_lon": 0.0, "lat": 38.902702833333336, "is_reserved": 0, "type": "electric_scooter", "bike_id": "b79cfc829175519794f1eff3bd9fc56f", "is_disabled": 0, "rental_uris": {"android": "https://dc.lft.to/lastmile_qr_scan", "ios": "https://dc.lft.to/lastmile_qr_scan"}, "lon": -77.05802066666666, "fusion_lat": 0.0}, {"name": "0e3e48580ab34aec4a8a58290c272a20", "fusion_lon": 0.0, "lat": 38.93180683333333, "is_reserved": 0, "type": "electric_scooter", "bike_id": "0e3e48580ab34aec4a8a58290c272a20", "is_disabled": 0, "rental_uris": {"android": "https://dc.lft.to/lastmile_qr_scan", "ios": "https://dc.lft.to/lastmile_qr_scan"}, "lon": -77.03659466666667, "fusion_lat": 0.0}, {"name": "4c3ecc2e49b4a6efa94f5fcc6374831f", "fusion_lon": 0.0, "lat": 38.90496533333334, "is_reserved": 0, "type": "electric_scooter", "bike_id": "4c3ecc2e49b4a6efa94f5fcc6374831f", "is_disabled": 0, "rental_uris": {"android": "https://dc.lft.to/lastmile_qr_scan", "ios": "https://dc.lft.to/lastmile_qr_scan"}, "lon": -77.01986866666667, "fusion_lat": 0.0}, {"name": "2f52e5a882d273ef0817ba0c06a4be83", "fusion_lon": 0.0, "lat": 38.93317966666667, "is_reserved": 0, "type": "electric_scooter", "bike_id": "2f52e5a882d273ef0817ba0c06a4be83", "is_disabled": 0, "rental_uris": {"android": "https://dc.lft.to/lastmile_qr_scan", "ios": "https://dc.lft.to/lastmile_qr_scan"}, "lon": -77.0344925, "fusion_lat": 0.0}, {"name": "0c4cb12b27aece14d20cb962a2b31fee", "fusion_lon": 0.0, "lat": 38.914062666666666, "is_reserved": 0, "type": "electric_scooter", "bike_id": "0c4cb12b27aece14d20cb962a2b31fee", "is_disabled": 0, "rental_uris": {"android": "https://dc.lft.to/lastmile_qr_scan", "ios": "https://dc.lft.to/lastmile_qr_scan"}, "lon": -77.03693033333333, "fusion_lat": 0.0}, {"name": "84a74c2464c2a7f6c1e301b69f6fd16c", "fusion_lon": 0.0, "lat": 38.942283333333336, "is_reserved": 0, "type": "electric_bike", "bike_id": "84a74c2464c2a7f6c1e301b69f6fd16c", "is_disabled": 0, "rental_uris": {"android": "https://dc.lft.to/lastmile_qr_scan", "ios": "https://dc.lft.to/lastmile_qr_scan"}, "lon": -76.96621016666667, "fusion_lat": 0.0}, {"name": "5f0856525bd936ae62a9b58d6469fea6", "fusion_lon": 0.0, "lat": 38.92035083333333, "is_reserved": 0, "type": "electric_scooter", "bike_id": "5f0856525bd936ae62a9b58d6469fea6", "is_disabled": 0, "rental_uris": {"android": "https://dc.lft.to/lastmile_qr_scan", "ios": "https://dc.lft.to/lastmile_qr_scan"}, "lon": -77.02583433333334, "fusion_lat": 0.0}, {"name": "5de2199cdc937f73b34eefe15f4fedb4", "fusion_lon": 0.0, "lat": 38.9238585, "is_reserved": 0, "type": "electric_scooter", "bike_id": "5de2199cdc937f73b34eefe15f4fedb4", "is_disabled": 0, "rental_uris": {"android": "https://dc.lft.to/lastmile_qr_scan", "ios": "https://dc.lft.to/lastmile_qr_scan"}, "lon": -77.03540166666667, "fusion_lat": 0.0}, {"name": "71f745803cde09a6672a0e842a719b2b", "fusion_lon": 0.0, "lat": 38.953585, "is_reserved": 0, "type": "electric_bike", "bike_id": "71f745803cde09a6672a0e842a719b2b", "is_disabled": 0, "rental_uris": {"android": "https://dc.lft.to/lastmile_qr_scan", "ios": "https://dc.lft.to/lastmile_qr_scan"}, "lon": -76.98093083333333, "fusion_lat": 0.0}, {"name": "6627164d9a41d78c4946bd0a69d72f7b", "fusion_lon": 0.0, "lat": 38.91906183333333, "is_reserved": 0, "type": "electric_scooter", "bike_id": "6627164d9a41d78c4946bd0a69d72f7b", "is_disabled": 0, "rental_uris": {"android": "https://dc.lft.to/lastmile_qr_scan", "ios": "https://dc.lft.to/lastmile_qr_scan"}, "lon": -77.0153975, "fusion_lat": 0.0}, {"name": "526bd240d9cdc882b3c2c468f73c55c5", "fusion_lon": 0.0, "lat": 38.9386315, "is_reserved": 0, "type": "electric_scooter", "bike_id": "526bd240d9cdc882b3c2c468f73c55c5", "is_disabled": 0, "rental_uris": {"android": "https://dc.lft.to/lastmile_qr_scan", "ios": "https://dc.lft.to/lastmile_qr_scan"}, "lon": -77.02592366666667, "fusion_lat": 0.0}, {"name": "a32bc64ab1c592851b60824c18788010", "fusion_lon": 0.0, "lat": 38.90511266666667, "is_reserved": 0, "type": "electric_scooter", "bike_id": "a32bc64ab1c592851b60824c18788010", "is_disabled": 0, "rental_uris": {"android": "https://dc.lft.to/lastmile_qr_scan", "ios": "https://dc.lft.to/lastmile_qr_scan"}, "lon": -77.070163, "fusion_lat": 0.0}, {"name": "3cd5601577b5b4c1409c5e03a381253d", "fusion_lon": 0.0, "lat": 38.96304583333333, "is_reserved": 0, "type": "electric_bike", "bike_id": "3cd5601577b5b4c1409c5e03a381253d", "is_disabled": 0, "rental_uris": {"android": "https://dc.lft.to/lastmile_qr_scan", "ios": "https://dc.lft.to/lastmile_qr_scan"}, "lon": -77.01102083333333, "fusion_lat": 0.0}, {"name": "6c343979a320198526386682feda8ca8", "fusion_lon": 0.0, "lat": 38.93228933333333, "is_reserved": 0, "type": "electric_scooter", "bike_id": "6c343979a320198526386682feda8ca8", "is_disabled": 0, "rental_uris": {"android": "https://dc.lft.to/lastmile_qr_scan", "ios": "https://dc.lft.to/lastmile_qr_scan"}, "lon": -77.03876466666667, "fusion_lat": 0.0}, {"name": "162093a62f671d3e1755b5a951e1d2f6", "fusion_lon": 0.0, "lat": 38.96324383333334, "is_reserved": 0, "type": "electric_bike", "bike_id": "162093a62f671d3e1755b5a951e1d2f6", "is_disabled": 0, "rental_uris": {"android": "https://dc.lft.to/lastmile_qr_scan", "ios": "https://dc.lft.to/lastmile_qr_scan"}, "lon": -76.973629, "fusion_lat": 0.0}, {"name": "cd67c28a526cdd0c0a429e561999e6a0", "fusion_lon": 0.0, "lat": 38.918154666666666, "is_reserved": 0, "type": "electric_scooter", "bike_id": "cd67c28a526cdd0c0a429e561999e6a0", "is_disabled": 0, "rental_uris": {"android": "https://dc.lft.to/lastmile_qr_scan", "ios": "https://dc.lft.to/lastmile_qr_scan"}, "lon": -77.08965166666667, "fusion_lat": 0.0}, {"name": "70281af5a666ef712aef018531b900f2", "fusion_lon": 0.0, "lat": 38.904734166666664, "is_reserved": 0, "type": "electric_scooter", "bike_id": "70281af5a666ef712aef018531b900f2", "is_disabled": 0, "rental_uris": {"android": "https://dc.lft.to/lastmile_qr_scan", "ios": "https://dc.lft.to/lastmile_qr_scan"}, "lon": -77.04188283333333, "fusion_lat": 0.0}, {"name": "72f6ed8475073e8c3f87cb281b424d63", "fusion_lon": 0.0, "lat": 38.896294, "is_reserved": 0, "type": "electric_scooter", "bike_id": "72f6ed8475073e8c3f87cb281b424d63", "is_disabled": 0, "rental_uris": {"android": "https://dc.lft.to/lastmile_qr_scan", "ios": "https://dc.lft.to/lastmile_qr_scan"}, "lon": -77.02195716666667, "fusion_lat": 0.0}, {"name": "f0d0f5353efd5ceb1c236044a04ac7a1", "fusion_lon": 0.0, "lat": 38.917403666666665, "is_reserved": 0, "type": "electric_scooter", "bike_id": "f0d0f5353efd5ceb1c236044a04ac7a1", "is_disabled": 0, "rental_uris": {"android": "https://dc.lft.to/lastmile_qr_scan", "ios": "https://dc.lft.to/lastmile_qr_scan"}, "lon": -77.03452866666667, "fusion_lat": 0.0}, {"name": "4d5bf450a9b84ff9e3fb40561b362fc7", "fusion_lon": 0.0, "lat": 38.9303945, "is_reserved": 0, "type": "electric_scooter", "bike_id": "4d5bf450a9b84ff9e3fb40561b362fc7", "is_disabled": 0, "rental_uris": {"android": "https://dc.lft.to/lastmile_qr_scan", "ios": "https://dc.lft.to/lastmile_qr_scan"}, "lon": -77.01224666666667, "fusion_lat": 0.0}, {"name": "f6648ab6c08d685dcda035b301556ced", "fusion_lon": 0.0, "lat": 38.914730166666665, "is_reserved": 0, "type": "electric_scooter", "bike_id": "f6648ab6c08d685dcda035b301556ced", "is_disabled": 0, "rental_uris": {"android": "https://dc.lft.to/lastmile_qr_scan", "ios": "https://dc.lft.to/lastmile_qr_scan"}, "lon": -77.03183233333333, "fusion_lat": 0.0}, {"name": "8c5d15463739ab6ff9eebadbc8fa2ffb", "fusion_lon": 0.0, "lat": 38.91267333333333, "is_reserved": 0, "type": "electric_scooter", "bike_id": "8c5d15463739ab6ff9eebadbc8fa2ffb", "is_disabled": 0, "rental_uris": {"android": "https://dc.lft.to/lastmile_qr_scan", "ios": "https://dc.lft.to/lastmile_qr_scan"}, "lon": -77.022301, "fusion_lat": 0.0}, {"name": "0e873ddd3383748517664a4d1e7b84e7", "fusion_lon": 0.0, "lat": 38.96191866666667, "is_reserved": 0, "type": "electric_bike", "bike_id": "0e873ddd3383748517664a4d1e7b84e7", "is_disabled": 0, "rental_uris": {"android": "https://dc.lft.to/lastmile_qr_scan", "ios": "https://dc.lft.to/lastmile_qr_scan"}, "lon": -77.07373383333334, "fusion_lat": 0.0}, {"name": "9212090ae853a5df3ea18c54862ba28b", "fusion_lon": 0.0, "lat": 38.91389316666667, "is_reserved": 0, "type": "electric_scooter", "bike_id": "9212090ae853a5df3ea18c54862ba28b", "is_disabled": 0, "rental_uris": {"android": "https://dc.lft.to/lastmile_qr_scan", "ios": "https://dc.lft.to/lastmile_qr_scan"}, "lon": -77.03662383333334, "fusion_lat": 0.0}, {"name": "0c9d2e290455b79d3dfc7b9df4ac4145", "fusion_lon": 0.0, "lat": 38.92534583333333, "is_reserved": 0, "type": "electric_bike", "bike_id": "0c9d2e290455b79d3dfc7b9df4ac4145", "is_disabled": 0, "rental_uris": {"android": "https://dc.lft.to/lastmile_qr_scan", "ios": "https://dc.lft.to/lastmile_qr_scan"}, "lon": -77.00117916666666, "fusion_lat": 0.0}, {"name": "70a7940948593329b3932b9190ed97d6", "fusion_lon": 0.0, "lat": 38.908415166666664, "is_reserved": 0, "type": "electric_bike", "bike_id": "70a7940948593329b3932b9190ed97d6", "is_disabled": 0, "rental_uris": {"android": "https://dc.lft.to/lastmile_qr_scan", "ios": "https://dc.lft.to/lastmile_qr_scan"}, "lon": -77.02714883333333, "fusion_lat": 0.0}, {"name": "de7ad4d9cb75bfd038d5d61b6369f30f", "fusion_lon": 0.0, "lat": 38.899672, "is_reserved": 0, "type": "electric_bike", "bike_id": "de7ad4d9cb75bfd038d5d61b6369f30f", "is_disabled": 0, "rental_uris": {"android": "https://dc.lft.to/lastmile_qr_scan", "ios": "https://dc.lft.to/lastmile_qr_scan"}, "lon": -76.986666, "fusion_lat": 0.0}, {"name": "c5569614fa3b4c637bb2b07e4959614d", "fusion_lon": 0.0, "lat": 38.8588995, "is_reserved": 0, "type": "electric_scooter", "bike_id": "c5569614fa3b4c637bb2b07e4959614d", "is_disabled": 0, "rental_uris": {"android": "https://dc.lft.to/lastmile_qr_scan", "ios": "https://dc.lft.to/lastmile_qr_scan"}, "lon": -76.9973255, "fusion_lat": 0.0}, {"name": "000f174d1031c412432b8a455fcc7bd8", "fusion_lon": 0.0, "lat": 38.904279833333334, "is_reserved": 0, "type": "electric_scooter", "bike_id": "000f174d1031c412432b8a455fcc7bd8", "is_disabled": 0, "rental_uris": {"android": "https://dc.lft.to/lastmile_qr_scan", "ios": "https://dc.lft.to/lastmile_qr_scan"}, "lon": -76.97910133333333, "fusion_lat": 0.0}, {"name": "047c3ddd66ed493a7bdf7ede53632045", "fusion_lon": 0.0, "lat": 38.929379, "is_reserved": 0, "type": "electric_scooter", "bike_id": "047c3ddd66ed493a7bdf7ede53632045", "is_disabled": 0, "rental_uris": {"android": "https://dc.lft.to/lastmile_qr_scan", "ios": "https://dc.lft.to/lastmile_qr_scan"}, "lon": -77.01992366666667, "fusion_lat": 0.0}, {"name": "178324a61199dae3a95dbac6669e7f8f", "fusion_lon": 0.0, "lat": 38.91631533333333, "is_reserved": 0, "type": "electric_scooter", "bike_id": "178324a61199dae3a95dbac6669e7f8f", "is_disabled": 0, "rental_uris": {"android": "https://dc.lft.to/lastmile_qr_scan", "ios": "https://dc.lft.to/lastmile_qr_scan"}, "lon": -77.039817, "fusion_lat": 0.0}, {"name": "a789300dc7ce9b66fe2a31d28c4e7a4b", "fusion_lon": 0.0, "lat": 38.930397166666665, "is_reserved": 0, "type": "electric_scooter", "bike_id": "a789300dc7ce9b66fe2a31d28c4e7a4b", "is_disabled": 0, "rental_uris": {"android": "https://dc.lft.to/lastmile_qr_scan", "ios": "https://dc.lft.to/lastmile_qr_scan"}, "lon": -77.03226433333333, "fusion_lat": 0.0}, {"name": "709428963c2aa4237241df88c62943a6", "fusion_lon": 0.0, "lat": 38.9095555, "is_reserved": 0, "type": "electric_scooter", "bike_id": "709428963c2aa4237241df88c62943a6", "is_disabled": 0, "rental_uris": {"android": "https://dc.lft.to/lastmile_qr_scan", "ios": "https://dc.lft.to/lastmile_qr_scan"}, "lon": -77.01187383333334, "fusion_lat": 0.0}, {"name": "7704ec99c60fefb0d89f2a3c74a11a2f", "fusion_lon": 0.0, "lat": 38.893155166666666, "is_reserved": 0, "type": "electric_scooter", "bike_id": "7704ec99c60fefb0d89f2a3c74a11a2f", "is_disabled": 0, "rental_uris": {"android": "https://dc.lft.to/lastmile_qr_scan", "ios": "https://dc.lft.to/lastmile_qr_scan"}, "lon": -77.01203133333334, "fusion_lat": 0.0}, {"name": "2582d430d755ef4e0df94513b05baace", "fusion_lon": 0.0, "lat": 38.899161166666666, "is_reserved": 0, "type": "electric_scooter", "bike_id": "2582d430d755ef4e0df94513b05baace", "is_disabled": 0, "rental_uris": {"android": "https://dc.lft.to/lastmile_qr_scan", "ios": "https://dc.lft.to/lastmile_qr_scan"}, "lon": -76.95065, "fusion_lat": 0.0}, {"name": "f78e6e272c213c8580993c9aca6774c8", "fusion_lon": 0.0, "lat": 38.92119783333333, "is_reserved": 0, "type": "electric_bike", "bike_id": "f78e6e272c213c8580993c9aca6774c8", "is_disabled": 0, "rental_uris": {"android": "https://dc.lft.to/lastmile_qr_scan", "ios": "https://dc.lft.to/lastmile_qr_scan"}, "lon": -77.01214716666667, "fusion_lat": 0.0}, {"name": "4f083f889252fffb24524e154e3f60c3", "fusion_lon": 0.0, "lat": 38.91287883333333, "is_reserved": 0, "type": "electric_scooter", "bike_id": "4f083f889252fffb24524e154e3f60c3", "is_disabled": 0, "rental_uris": {"android": "https://dc.lft.to/lastmile_qr_scan", "ios": "https://dc.lft.to/lastmile_qr_scan"}, "lon": -77.02382366666667, "fusion_lat": 0.0}, {"name": "86db4484b32402e654ccdc738529a908", "fusion_lon": 0.0, "lat": 38.89622, "is_reserved": 0, "type": "electric_scooter", "bike_id": "86db4484b32402e654ccdc738529a908", "is_disabled": 0, "rental_uris": {"android": "https://dc.lft.to/lastmile_qr_scan", "ios": "https://dc.lft.to/lastmile_qr_scan"}, "lon": -77.01602283333334, "fusion_lat": 0.0}, {"name": "9d8e5b03e76b92365919725f43d98aaa", "fusion_lon": 0.0, "lat": 38.89636816666667, "is_reserved": 0, "type": "electric_scooter", "bike_id": "9d8e5b03e76b92365919725f43d98aaa", "is_disabled": 0, "rental_uris": {"android": "https://dc.lft.to/lastmile_qr_scan", "ios": "https://dc.lft.to/lastmile_qr_scan"}, "lon": -77.02200216666667, "fusion_lat": 0.0}, {"name": "b06409da2673f3951a6d692e38b6b4f8", "fusion_lon": 0.0, "lat": 38.934433166666665, "is_reserved": 0, "type": "electric_scooter", "bike_id": "b06409da2673f3951a6d692e38b6b4f8", "is_disabled": 0, "rental_uris": {"android": "https://dc.lft.to/lastmile_qr_scan", "ios": "https://dc.lft.to/lastmile_qr_scan"}, "lon": -77.0329365, "fusion_lat": 0.0}, {"name": "23c0574ec54829e61035c9319665cb06", "fusion_lon": 0.0, "lat": 38.910216166666665, "is_reserved": 0, "type": "electric_scooter", "bike_id": "23c0574ec54829e61035c9319665cb06", "is_disabled": 0, "rental_uris": {"android": "https://dc.lft.to/lastmile_qr_scan", "ios": "https://dc.lft.to/lastmile_qr_scan"}, "lon": -77.05282616666666, "fusion_lat": 0.0}, {"name": "cf006c36c95404b01abe3e5c9ce1cea4", "fusion_lon": 0.0, "lat": 38.90082066666667, "is_reserved": 0, "type": "electric_scooter", "bike_id": "cf006c36c95404b01abe3e5c9ce1cea4", "is_disabled": 0, "rental_uris": {"android": "https://dc.lft.to/lastmile_qr_scan", "ios": "https://dc.lft.to/lastmile_qr_scan"}, "lon": -77.04744, "fusion_lat": 0.0}, {"name": "5240d7e58c41433edb9824b886d7a1ff", "fusion_lon": 0.0, "lat": 38.87444983333334, "is_reserved": 0, "type": "electric_scooter", "bike_id": "5240d7e58c41433edb9824b886d7a1ff", "is_disabled": 0, "rental_uris": {"android": "https://dc.lft.to/lastmile_qr_scan", "ios": "https://dc.lft.to/lastmile_qr_scan"}, "lon": -77.0056615, "fusion_lat": 0.0}, {"name": "c18187a7070cbe295b863340ed8b486d", "fusion_lon": 0.0, "lat": 38.942009666666664, "is_reserved": 0, "type": "electric_scooter", "bike_id": "c18187a7070cbe295b863340ed8b486d", "is_disabled": 0, "rental_uris": {"android": "https://dc.lft.to/lastmile_qr_scan", "ios": "https://dc.lft.to/lastmile_qr_scan"}, "lon": -77.02513983333333, "fusion_lat": 0.0}, {"name": "6fccc45ff674695588ec4a5bbb42a7f2", "fusion_lon": 0.0, "lat": 38.909396, "is_reserved": 0, "type": "electric_scooter", "bike_id": "6fccc45ff674695588ec4a5bbb42a7f2", "is_disabled": 0, "rental_uris": {"android": "https://dc.lft.to/lastmile_qr_scan", "ios": "https://dc.lft.to/lastmile_qr_scan"}, "lon": -77.03449366666666, "fusion_lat": 0.0}, {"name": "6f13b612e8d60583b633cd1b7a3db25b", "fusion_lon": 0.0, "lat": 38.90010183333333, "is_reserved": 0, "type": "electric_scooter", "bike_id": "6f13b612e8d60583b633cd1b7a3db25b", "is_disabled": 0, "rental_uris": {"android": "https://dc.lft.to/lastmile_qr_scan", "ios": "https://dc.lft.to/lastmile_qr_scan"}, "lon": -76.99614583333333, "fusion_lat": 0.0}, {"name": "a9061b97dc9633b4179e6f9e8098c616", "fusion_lon": 0.0, "lat": 38.91706166666667, "is_reserved": 0, "type": "electric_scooter", "bike_id": "a9061b97dc9633b4179e6f9e8098c616", "is_disabled": 0, "rental_uris": {"android": "https://dc.lft.to/lastmile_qr_scan", "ios": "https://dc.lft.to/lastmile_qr_scan"}, "lon": -77.01338083333333, "fusion_lat": 0.0}, {"name": "b3bb5d884e9839e11c385009d0a88faf", "fusion_lon": 0.0, "lat": 38.8961215, "is_reserved": 0, "type": "electric_scooter", "bike_id": "b3bb5d884e9839e11c385009d0a88faf", "is_disabled": 0, "rental_uris": {"android": "https://dc.lft.to/lastmile_qr_scan", "ios": "https://dc.lft.to/lastmile_qr_scan"}, "lon": -76.98115516666667, "fusion_lat": 0.0}, {"name": "b4721e030a88bf7300176b0ca1281060", "fusion_lon": 0.0, "lat": 38.92180583333333, "is_reserved": 0, "type": "electric_scooter", "bike_id": "b4721e030a88bf7300176b0ca1281060", "is_disabled": 0, "rental_uris": {"android": "https://dc.lft.to/lastmile_qr_scan", "ios": "https://dc.lft.to/lastmile_qr_scan"}, "lon": -77.0469415, "fusion_lat": 0.0}, {"name": "a6da9e63a4670a79e9e0dba17240a715", "fusion_lon": 0.0, "lat": 38.8986555, "is_reserved": 0, "type": "electric_scooter", "bike_id": "a6da9e63a4670a79e9e0dba17240a715", "is_disabled": 0, "rental_uris": {"android": "https://dc.lft.to/lastmile_qr_scan", "ios": "https://dc.lft.to/lastmile_qr_scan"}, "lon": -76.9466285, "fusion_lat": 0.0}, {"name": "4769d495aa3fb3164941063805309d11", "fusion_lon": 0.0, "lat": 38.87208916666667, "is_reserved": 0, "type": "electric_scooter", "bike_id": "4769d495aa3fb3164941063805309d11", "is_disabled": 0, "rental_uris": {"android": "https://dc.lft.to/lastmile_qr_scan", "ios": "https://dc.lft.to/lastmile_qr_scan"}, "lon": -76.97838266666666, "fusion_lat": 0.0}, {"name": "2f000a68e9da68d0ebddf7ca8ebb140a", "fusion_lon": 0.0, "lat": 38.9420745, "is_reserved": 0, "type": "electric_scooter", "bike_id": "2f000a68e9da68d0ebddf7ca8ebb140a", "is_disabled": 0, "rental_uris": {"android": "https://dc.lft.to/lastmile_qr_scan", "ios": "https://dc.lft.to/lastmile_qr_scan"}, "lon": -77.02512766666666, "fusion_lat": 0.0}, {"name": "5a902ffe3a3b326a134cdc6f26c8f2df", "fusion_lon": 0.0, "lat": 38.892973833333336, "is_reserved": 0, "type": "electric_scooter", "bike_id": "5a902ffe3a3b326a134cdc6f26c8f2df", "is_disabled": 0, "rental_uris": {"android": "https://dc.lft.to/lastmile_qr_scan", "ios": "https://dc.lft.to/lastmile_qr_scan"}, "lon": -76.92918766666666, "fusion_lat": 0.0}, {"name": "f5ad342cb07c82f26b92d5060b2e612c", "fusion_lon": 0.0, "lat": 38.94352966666667, "is_reserved": 0, "type": "electric_scooter", "bike_id": "f5ad342cb07c82f26b92d5060b2e612c", "is_disabled": 0, "rental_uris": {"android": "https://dc.lft.to/lastmile_qr_scan", "ios": "https://dc.lft.to/lastmile_qr_scan"}, "lon": -77.06133083333333, "fusion_lat": 0.0}, {"name": "daccb65a413fd0195d027734fc1de74f", "fusion_lon": 0.0, "lat": 38.8851035, "is_reserved": 0, "type": "electric_scooter", "bike_id": "daccb65a413fd0195d027734fc1de74f", "is_disabled": 0, "rental_uris": {"android": "https://dc.lft.to/lastmile_qr_scan", "ios": "https://dc.lft.to/lastmile_qr_scan"}, "lon": -76.99836783333333, "fusion_lat": 0.0}, {"name": "0ed3b6d6c28debd038e19feba49eca4c", "fusion_lon": 0.0, "lat": 38.9097225, "is_reserved": 0, "type": "electric_scooter", "bike_id": "0ed3b6d6c28debd038e19feba49eca4c", "is_disabled": 0, "rental_uris": {"android": "https://dc.lft.to/lastmile_qr_scan", "ios": "https://dc.lft.to/lastmile_qr_scan"}, "lon": -77.03294833333334, "fusion_lat": 0.0}, {"name": "590ca17cd6fbe3627b583c1cf56fb47d", "fusion_lon": 0.0, "lat": 38.9208195, "is_reserved": 0, "type": "electric_scooter", "bike_id": "590ca17cd6fbe3627b583c1cf56fb47d", "is_disabled": 0, "rental_uris": {"android": "https://dc.lft.to/lastmile_qr_scan", "ios": "https://dc.lft.to/lastmile_qr_scan"}, "lon": -77.03205, "fusion_lat": 0.0}, {"name": "13f7dde368126535f28b4bb171c79681", "fusion_lon": 0.0, "lat": 38.9118495, "is_reserved": 0, "type": "electric_scooter", "bike_id": "13f7dde368126535f28b4bb171c79681", "is_disabled": 0, "rental_uris": {"android": "https://dc.lft.to/lastmile_qr_scan", "ios": "https://dc.lft.to/lastmile_qr_scan"}, "lon": -77.04330166666666, "fusion_lat": 0.0}, {"name": "9cdd9d987e03489f69e56f09463b4098", "fusion_lon": 0.0, "lat": 38.908608666666666, "is_reserved": 0, "type": "electric_scooter", "bike_id": "9cdd9d987e03489f69e56f09463b4098", "is_disabled": 0, "rental_uris": {"android": "https://dc.lft.to/lastmile_qr_scan", "ios": "https://dc.lft.to/lastmile_qr_scan"}, "lon": -77.044776, "fusion_lat": 0.0}, {"name": "f4f7073c1240c0032e3a46b15d7ae3f2", "fusion_lon": 0.0, "lat": 38.80012333333333, "is_reserved": 0, "type": "electric_bike", "bike_id": "f4f7073c1240c0032e3a46b15d7ae3f2", "is_disabled": 0, "rental_uris": {"android": "https://dc.lft.to/lastmile_qr_scan", "ios": "https://dc.lft.to/lastmile_qr_scan"}, "lon": -77.05481333333333, "fusion_lat": 0.0}, {"name": "e1fa397530085aed28e1c4c48143c619", "fusion_lon": 0.0, "lat": 38.87660433333333, "is_reserved": 0, "type": "electric_scooter", "bike_id": "e1fa397530085aed28e1c4c48143c619", "is_disabled": 0, "rental_uris": {"android": "https://dc.lft.to/lastmile_qr_scan", "ios": "https://dc.lft.to/lastmile_qr_scan"}, "lon": -77.01829533333333, "fusion_lat": 0.0}, {"name": "3c220d429cc23b0164d1008fb589e52f", "fusion_lon": 0.0, "lat": 38.923611, "is_reserved": 0, "type": "electric_scooter", "bike_id": "3c220d429cc23b0164d1008fb589e52f", "is_disabled": 0, "rental_uris": {"android": "https://dc.lft.to/lastmile_qr_scan", "ios": "https://dc.lft.to/lastmile_qr_scan"}, "lon": -77.04243616666666, "fusion_lat": 0.0}, {"name": "6328c2d7f8dc453b13f063a06683e17e", "fusion_lon": 0.0, "lat": 38.917992, "is_reserved": 0, "type": "electric_scooter", "bike_id": "6328c2d7f8dc453b13f063a06683e17e", "is_disabled": 0, "rental_uris": {"android": "https://dc.lft.to/lastmile_qr_scan", "ios": "https://dc.lft.to/lastmile_qr_scan"}, "lon": -77.03434566666667, "fusion_lat": 0.0}, {"name": "07030cec25e59a1efcc32e27418fe910", "fusion_lon": 0.0, "lat": 38.91901466666667, "is_reserved": 0, "type": "electric_scooter", "bike_id": "07030cec25e59a1efcc32e27418fe910", "is_disabled": 0, "rental_uris": {"android": "https://dc.lft.to/lastmile_qr_scan", "ios": "https://dc.lft.to/lastmile_qr_scan"}, "lon": -77.02467033333333, "fusion_lat": 0.0}, {"name": "e9c757f8c193098a4630819cc93d9dac", "fusion_lon": 0.0, "lat": 38.8773315, "is_reserved": 0, "type": "electric_bike", "bike_id": "e9c757f8c193098a4630819cc93d9dac", "is_disabled": 0, "rental_uris": {"android": "https://dc.lft.to/lastmile_qr_scan", "ios": "https://dc.lft.to/lastmile_qr_scan"}, "lon": -77.11849916666667, "fusion_lat": 0.0}, {"name": "95f4dc7d46e9a0861a1a16de193ac4be", "fusion_lon": 0.0, "lat": 38.903372, "is_reserved": 0, "type": "electric_scooter", "bike_id": "95f4dc7d46e9a0861a1a16de193ac4be", "is_disabled": 0, "rental_uris": {"android": "https://dc.lft.to/lastmile_qr_scan", "ios": "https://dc.lft.to/lastmile_qr_scan"}, "lon": -77.01635966666667, "fusion_lat": 0.0}, {"name": "be0fa785b82153d35f22b5740852b234", "fusion_lon": 0.0, "lat": 38.90241816666666, "is_reserved": 0, "type": "electric_scooter", "bike_id": "be0fa785b82153d35f22b5740852b234", "is_disabled": 0, "rental_uris": {"android": "https://dc.lft.to/lastmile_qr_scan", "ios": "https://dc.lft.to/lastmile_qr_scan"}, "lon": -77.00197883333334, "fusion_lat": 0.0}, {"name": "d8e433310b61ca27b4ece72dd681d0ad", "fusion_lon": 0.0, "lat": 38.949161, "is_reserved": 0, "type": "electric_bike", "bike_id": "d8e433310b61ca27b4ece72dd681d0ad", "is_disabled": 0, "rental_uris": {"android": "https://dc.lft.to/lastmile_qr_scan", "ios": "https://dc.lft.to/lastmile_qr_scan"}, "lon": -77.00795933333333, "fusion_lat": 0.0}, {"name": "88c284da489dad9ab4433edfd8cd06e6", "fusion_lon": 0.0, "lat": 38.90322316666666, "is_reserved": 0, "type": "electric_bike", "bike_id": "88c284da489dad9ab4433edfd8cd06e6", "is_disabled": 0, "rental_uris": {"android": "https://dc.lft.to/lastmile_qr_scan", "ios": "https://dc.lft.to/lastmile_qr_scan"}, "lon": -76.9730015, "fusion_lat": 0.0}, {"name": "8dadc9cdfe1464e431f6c64bb9ce301d", "fusion_lon": 0.0, "lat": 38.91654466666667, "is_reserved": 0, "type": "electric_scooter", "bike_id": "8dadc9cdfe1464e431f6c64bb9ce301d", "is_disabled": 0, "rental_uris": {"android": "https://dc.lft.to/lastmile_qr_scan", "ios": "https://dc.lft.to/lastmile_qr_scan"}, "lon": -77.02970733333333, "fusion_lat": 0.0}, {"name": "0d293b88fc2fd6d5e0a48afef4eb6bf6", "fusion_lon": 0.0, "lat": 38.904134, "is_reserved": 0, "type": "electric_scooter", "bike_id": "0d293b88fc2fd6d5e0a48afef4eb6bf6", "is_disabled": 0, "rental_uris": {"android": "https://dc.lft.to/lastmile_qr_scan", "ios": "https://dc.lft.to/lastmile_qr_scan"}, "lon": -77.04376783333333, "fusion_lat": 0.0}, {"name": "497f165577eb9237fbf79d27581c2335", "fusion_lon": 0.0, "lat": 38.90187916666667, "is_reserved": 0, "type": "electric_scooter", "bike_id": "497f165577eb9237fbf79d27581c2335", "is_disabled": 0, "rental_uris": {"android": "https://dc.lft.to/lastmile_qr_scan", "ios": "https://dc.lft.to/lastmile_qr_scan"}, "lon": -77.02181983333334, "fusion_lat": 0.0}, {"name": "ee0fe41198319e296b559b7efc883f3f", "fusion_lon": 0.0, "lat": 38.920080166666665, "is_reserved": 0, "type": "electric_scooter", "bike_id": "ee0fe41198319e296b559b7efc883f3f", "is_disabled": 0, "rental_uris": {"android": "https://dc.lft.to/lastmile_qr_scan", "ios": "https://dc.lft.to/lastmile_qr_scan"}, "lon": -77.03890833333334, "fusion_lat": 0.0}, {"name": "615e08cabf59c79bca591a0a8063a63f", "fusion_lon": 0.0, "lat": 38.956866833333336, "is_reserved": 0, "type": "electric_scooter", "bike_id": "615e08cabf59c79bca591a0a8063a63f", "is_disabled": 0, "rental_uris": {"android": "https://dc.lft.to/lastmile_qr_scan", "ios": "https://dc.lft.to/lastmile_qr_scan"}, "lon": -77.02228733333334, "fusion_lat": 0.0}, {"name": "64963c2755433b0613c64fcd902078ba", "fusion_lon": 0.0, "lat": 38.91838466666667, "is_reserved": 0, "type": "electric_scooter", "bike_id": "64963c2755433b0613c64fcd902078ba", "is_disabled": 0, "rental_uris": {"android": "https://dc.lft.to/lastmile_qr_scan", "ios": "https://dc.lft.to/lastmile_qr_scan"}, "lon": -77.0595025, "fusion_lat": 0.0}, {"name": "692d3c3107ffb6c965a1a3f2394429c3", "fusion_lon": 0.0, "lat": 38.87855716666667, "is_reserved": 0, "type": "electric_bike", "bike_id": "692d3c3107ffb6c965a1a3f2394429c3", "is_disabled": 0, "rental_uris": {"android": "https://dc.lft.to/lastmile_qr_scan", "ios": "https://dc.lft.to/lastmile_qr_scan"}, "lon": -77.01770783333333, "fusion_lat": 0.0}, {"name": "85fc784d0abb17b83d53a56b37572c5f", "fusion_lon": 0.0, "lat": 39.00028416666667, "is_reserved": 0, "type": "electric_bike", "bike_id": "85fc784d0abb17b83d53a56b37572c5f", "is_disabled": 0, "rental_uris": {"android": "https://dc.lft.to/lastmile_qr_scan", "ios": "https://dc.lft.to/lastmile_qr_scan"}, "lon": -77.0474345, "fusion_lat": 0.0}, {"name": "07ec0bceb7ffa595c0b1317b736aee35", "fusion_lon": 0.0, "lat": 38.878236333333334, "is_reserved": 0, "type": "electric_scooter", "bike_id": "07ec0bceb7ffa595c0b1317b736aee35", "is_disabled": 0, "rental_uris": {"android": "https://dc.lft.to/lastmile_qr_scan", "ios": "https://dc.lft.to/lastmile_qr_scan"}, "lon": -76.930967, "fusion_lat": 0.0}, {"name": "84747677e3387f34fe4cb6cea2a2b413", "fusion_lon": 0.0, "lat": 38.904108666666666, "is_reserved": 0, "type": "electric_scooter", "bike_id": "84747677e3387f34fe4cb6cea2a2b413", "is_disabled": 0, "rental_uris": {"android": "https://dc.lft.to/lastmile_qr_scan", "ios": "https://dc.lft.to/lastmile_qr_scan"}, "lon": -76.97329116666667, "fusion_lat": 0.0}, {"name": "c01849b33c768d63f3548832b0bf67f7", "fusion_lon": 0.0, "lat": 38.872953, "is_reserved": 0, "type": "electric_bike", "bike_id": "c01849b33c768d63f3548832b0bf67f7", "is_disabled": 0, "rental_uris": {"android": "https://dc.lft.to/lastmile_qr_scan", "ios": "https://dc.lft.to/lastmile_qr_scan"}, "lon": -76.96978683333333, "fusion_lat": 0.0}, {"name": "72d959a126b271d7fefaf670e6015e94", "fusion_lon": 0.0, "lat": 38.91516416666666, "is_reserved": 0, "type": "electric_scooter", "bike_id": "72d959a126b271d7fefaf670e6015e94", "is_disabled": 0, "rental_uris": {"android": "https://dc.lft.to/lastmile_qr_scan", "ios": "https://dc.lft.to/lastmile_qr_scan"}, "lon": -77.012252, "fusion_lat": 0.0}, {"name": "cb1f58e3b1179529aec44909f73e5cd6", "fusion_lon": 0.0, "lat": 38.971948833333336, "is_reserved": 0, "type": "electric_scooter", "bike_id": "cb1f58e3b1179529aec44909f73e5cd6", "is_disabled": 0, "rental_uris": {"android": "https://dc.lft.to/lastmile_qr_scan", "ios": "https://dc.lft.to/lastmile_qr_scan"}, "lon": -77.0267875, "fusion_lat": 0.0}, {"name": "7a0560ba1ee1d308de5f88695740c668", "fusion_lon": 0.0, "lat": 38.92121866666667, "is_reserved": 0, "type": "electric_scooter", "bike_id": "7a0560ba1ee1d308de5f88695740c668", "is_disabled": 0, "rental_uris": {"android": "https://dc.lft.to/lastmile_qr_scan", "ios": "https://dc.lft.to/lastmile_qr_scan"}, "lon": -77.0366215, "fusion_lat": 0.0}, {"name": "7532e00778012e9d6ddc34bce14ca0fa", "fusion_lon": 0.0, "lat": 38.9498105, "is_reserved": 0, "type": "electric_scooter", "bike_id": "7532e00778012e9d6ddc34bce14ca0fa", "is_disabled": 0, "rental_uris": {"android": "https://dc.lft.to/lastmile_qr_scan", "ios": "https://dc.lft.to/lastmile_qr_scan"}, "lon": -77.02711133333334, "fusion_lat": 0.0}, {"name": "e059d13bbff92c4ae6c58f48be1fde13", "fusion_lon": 0.0, "lat": 38.911228333333334, "is_reserved": 0, "type": "electric_scooter", "bike_id": "e059d13bbff92c4ae6c58f48be1fde13", "is_disabled": 0, "rental_uris": {"android": "https://dc.lft.to/lastmile_qr_scan", "ios": "https://dc.lft.to/lastmile_qr_scan"}, "lon": -77.02240666666667, "fusion_lat": 0.0}, {"name": "30db12a06b6526893f247891079659a0", "fusion_lon": 0.0, "lat": 38.8840215, "is_reserved": 0, "type": "electric_scooter", "bike_id": "30db12a06b6526893f247891079659a0", "is_disabled": 0, "rental_uris": {"android": "https://dc.lft.to/lastmile_qr_scan", "ios": "https://dc.lft.to/lastmile_qr_scan"}, "lon": -77.02585366666666, "fusion_lat": 0.0}, {"name": "53e01545882731f4868a16b49c90a3d6", "fusion_lon": 0.0, "lat": 38.91867533333333, "is_reserved": 0, "type": "electric_scooter", "bike_id": "53e01545882731f4868a16b49c90a3d6", "is_disabled": 0, "rental_uris": {"android": "https://dc.lft.to/lastmile_qr_scan", "ios": "https://dc.lft.to/lastmile_qr_scan"}, "lon": -77.044485, "fusion_lat": 0.0}, {"name": "008dc25c98e2b62818a77724df59f6bb", "fusion_lon": 0.0, "lat": 38.90730666666666, "is_reserved": 0, "type": "electric_scooter", "bike_id": "008dc25c98e2b62818a77724df59f6bb", "is_disabled": 0, "rental_uris": {"android": "https://dc.lft.to/lastmile_qr_scan", "ios": "https://dc.lft.to/lastmile_qr_scan"}, "lon": -77.01135583333334, "fusion_lat": 0.0}, {"name": "7b0d2a89beb89d4642b568ce30fcc940", "fusion_lon": 0.0, "lat": 38.903175, "is_reserved": 0, "type": "electric_scooter", "bike_id": "7b0d2a89beb89d4642b568ce30fcc940", "is_disabled": 0, "rental_uris": {"android": "https://dc.lft.to/lastmile_qr_scan", "ios": "https://dc.lft.to/lastmile_qr_scan"}, "lon": -76.97801916666667, "fusion_lat": 0.0}, {"name": "cff491c4411f95000ee00b578cfec84a", "fusion_lon": 0.0, "lat": 38.920498333333335, "is_reserved": 0, "type": "electric_scooter", "bike_id": "cff491c4411f95000ee00b578cfec84a", "is_disabled": 0, "rental_uris": {"android": "https://dc.lft.to/lastmile_qr_scan", "ios": "https://dc.lft.to/lastmile_qr_scan"}, "lon": -77.04189833333334, "fusion_lat": 0.0}, {"name": "7d79e2a84f66f3360ef03b4aa3812b21", "fusion_lon": 0.0, "lat": 38.9265795, "is_reserved": 0, "type": "electric_scooter", "bike_id": "7d79e2a84f66f3360ef03b4aa3812b21", "is_disabled": 0, "rental_uris": {"android": "https://dc.lft.to/lastmile_qr_scan", "ios": "https://dc.lft.to/lastmile_qr_scan"}, "lon": -77.03708733333333, "fusion_lat": 0.0}, {"name": "fc82553b7b317278cb238ef1bf1383aa", "fusion_lon": 0.0, "lat": 38.88522483333333, "is_reserved": 0, "type": "electric_scooter", "bike_id": "fc82553b7b317278cb238ef1bf1383aa", "is_disabled": 0, "rental_uris": {"android": "https://dc.lft.to/lastmile_qr_scan", "ios": "https://dc.lft.to/lastmile_qr_scan"}, "lon": -77.06104966666666, "fusion_lat": 0.0}, {"name": "6bd38762a3b0e86cd42ac3958a5480cb", "fusion_lon": 0.0, "lat": 38.89842633333333, "is_reserved": 0, "type": "electric_scooter", "bike_id": "6bd38762a3b0e86cd42ac3958a5480cb", "is_disabled": 0, "rental_uris": {"android": "https://dc.lft.to/lastmile_qr_scan", "ios": "https://dc.lft.to/lastmile_qr_scan"}, "lon": -77.02273916666667, "fusion_lat": 0.0}, {"name": "a663a9d4d999ccf26d1827897ce3a0d9", "fusion_lon": 0.0, "lat": 38.90060233333333, "is_reserved": 0, "type": "electric_scooter", "bike_id": "a663a9d4d999ccf26d1827897ce3a0d9", "is_disabled": 0, "rental_uris": {"android": "https://dc.lft.to/lastmile_qr_scan", "ios": "https://dc.lft.to/lastmile_qr_scan"}, "lon": -77.0465315, "fusion_lat": 0.0}, {"name": "827ef082fdfd53446f33201f67677a0c", "fusion_lon": 0.0, "lat": 38.90608266666667, "is_reserved": 0, "type": "electric_scooter", "bike_id": "827ef082fdfd53446f33201f67677a0c", "is_disabled": 0, "rental_uris": {"android": "https://dc.lft.to/lastmile_qr_scan", "ios": "https://dc.lft.to/lastmile_qr_scan"}, "lon": -76.9926815, "fusion_lat": 0.0}, {"name": "a2bae12cb540c40b6db26f5f0aa019cb", "fusion_lon": 0.0, "lat": 38.91921166666667, "is_reserved": 0, "type": "electric_scooter", "bike_id": "a2bae12cb540c40b6db26f5f0aa019cb", "is_disabled": 0, "rental_uris": {"android": "https://dc.lft.to/lastmile_qr_scan", "ios": "https://dc.lft.to/lastmile_qr_scan"}, "lon": -77.04809333333333, "fusion_lat": 0.0}, {"name": "3a2be4e3757fa2a05a68da678abf75f0", "fusion_lon": 0.0, "lat": 38.904687333333335, "is_reserved": 0, "type": "electric_scooter", "bike_id": "3a2be4e3757fa2a05a68da678abf75f0", "is_disabled": 0, "rental_uris": {"android": "https://dc.lft.to/lastmile_qr_scan", "ios": "https://dc.lft.to/lastmile_qr_scan"}, "lon": -77.0288455, "fusion_lat": 0.0}, {"name": "2c1730f8b4cd0d71777cdbc23719707b", "fusion_lon": 0.0, "lat": 38.9451305, "is_reserved": 0, "type": "electric_scooter", "bike_id": "2c1730f8b4cd0d71777cdbc23719707b", "is_disabled": 0, "rental_uris": {"android": "https://dc.lft.to/lastmile_qr_scan", "ios": "https://dc.lft.to/lastmile_qr_scan"}, "lon": -77.0332035, "fusion_lat": 0.0}, {"name": "a17e154d122c07cb64c7824af7c4c0b8", "fusion_lon": 0.0, "lat": 38.91916666666667, "is_reserved": 0, "type": "electric_scooter", "bike_id": "a17e154d122c07cb64c7824af7c4c0b8", "is_disabled": 0, "rental_uris": {"android": "https://dc.lft.to/lastmile_qr_scan", "ios": "https://dc.lft.to/lastmile_qr_scan"}, "lon": -77.0098965, "fusion_lat": 0.0}, {"name": "2b5d8921b860bf7726c5808661178627", "fusion_lon": 0.0, "lat": 38.908579333333336, "is_reserved": 0, "type": "electric_scooter", "bike_id": "2b5d8921b860bf7726c5808661178627", "is_disabled": 0, "rental_uris": {"android": "https://dc.lft.to/lastmile_qr_scan", "ios": "https://dc.lft.to/lastmile_qr_scan"}, "lon": -77.02416866666667, "fusion_lat": 0.0}, {"name": "1457c66ddd2fa0398ce45f7aaccd1ada", "fusion_lon": 0.0, "lat": 38.94560766666667, "is_reserved": 0, "type": "electric_bike", "bike_id": "1457c66ddd2fa0398ce45f7aaccd1ada", "is_disabled": 0, "rental_uris": {"android": "https://dc.lft.to/lastmile_qr_scan", "ios": "https://dc.lft.to/lastmile_qr_scan"}, "lon": -76.98757033333334, "fusion_lat": 0.0}, {"name": "a1a0a51dfa58ef309ddd83eb20f9a9f4", "fusion_lon": 0.0, "lat": 38.88461816666667, "is_reserved": 0, "type": "electric_scooter", "bike_id": "a1a0a51dfa58ef309ddd83eb20f9a9f4", "is_disabled": 0, "rental_uris": {"android": "https://dc.lft.to/lastmile_qr_scan", "ios": "https://dc.lft.to/lastmile_qr_scan"}, "lon": -76.95745833333334, "fusion_lat": 0.0}, {"name": "624f7c85d5a1430e30085e7c02358252", "fusion_lon": 0.0, "lat": 38.858939166666666, "is_reserved": 0, "type": "electric_bike", "bike_id": "624f7c85d5a1430e30085e7c02358252", "is_disabled": 0, "rental_uris": {"android": "https://dc.lft.to/lastmile_qr_scan", "ios": "https://dc.lft.to/lastmile_qr_scan"}, "lon": -77.118634, "fusion_lat": 0.0}, {"name": "0e884313a4edba98a390473579f5e954", "fusion_lon": 0.0, "lat": 38.87346816666667, "is_reserved": 0, "type": "electric_scooter", "bike_id": "0e884313a4edba98a390473579f5e954", "is_disabled": 0, "rental_uris": {"android": "https://dc.lft.to/lastmile_qr_scan", "ios": "https://dc.lft.to/lastmile_qr_scan"}, "lon": -77.002637, "fusion_lat": 0.0}, {"name": "75cfcc22b2daf7b731a04c236c51b3fb", "fusion_lon": 0.0, "lat": 38.933791, "is_reserved": 0, "type": "electric_scooter", "bike_id": "75cfcc22b2daf7b731a04c236c51b3fb", "is_disabled": 0, "rental_uris": {"android": "https://dc.lft.to/lastmile_qr_scan", "ios": "https://dc.lft.to/lastmile_qr_scan"}, "lon": -77.02689233333334, "fusion_lat": 0.0}, {"name": "4de242ade1836d7dc13ea0b74b3130e6", "fusion_lon": 0.0, "lat": 38.916911166666665, "is_reserved": 0, "type": "electric_scooter", "bike_id": "4de242ade1836d7dc13ea0b74b3130e6", "is_disabled": 0, "rental_uris": {"android": "https://dc.lft.to/lastmile_qr_scan", "ios": "https://dc.lft.to/lastmile_qr_scan"}, "lon": -77.03170933333334, "fusion_lat": 0.0}, {"name": "84a19bec2e9cceaa5d6988e6ec6f3063", "fusion_lon": 0.0, "lat": 38.92934283333334, "is_reserved": 0, "type": "electric_scooter", "bike_id": "84a19bec2e9cceaa5d6988e6ec6f3063", "is_disabled": 0, "rental_uris": {"android": "https://dc.lft.to/lastmile_qr_scan", "ios": "https://dc.lft.to/lastmile_qr_scan"}, "lon": -77.023213, "fusion_lat": 0.0}, {"name": "aa4426ea48f24a01d055c167b8a49203", "fusion_lon": 0.0, "lat": 38.90060416666667, "is_reserved": 0, "type": "electric_scooter", "bike_id": "aa4426ea48f24a01d055c167b8a49203", "is_disabled": 0, "rental_uris": {"android": "https://dc.lft.to/lastmile_qr_scan", "ios": "https://dc.lft.to/lastmile_qr_scan"}, "lon": -77.02184716666666, "fusion_lat": 0.0}, {"name": "21fd69290ad996936358bba0c4ca2adf", "fusion_lon": 0.0, "lat": 38.9008545, "is_reserved": 0, "type": "electric_scooter", "bike_id": "21fd69290ad996936358bba0c4ca2adf", "is_disabled": 0, "rental_uris": {"android": "https://dc.lft.to/lastmile_qr_scan", "ios": "https://dc.lft.to/lastmile_qr_scan"}, "lon": -77.01226466666667, "fusion_lat": 0.0}, {"name": "c46ea905117e60d05dc5c264db5b310e", "fusion_lon": 0.0, "lat": 38.9185315, "is_reserved": 0, "type": "electric_scooter", "bike_id": "c46ea905117e60d05dc5c264db5b310e", "is_disabled": 0, "rental_uris": {"android": "https://dc.lft.to/lastmile_qr_scan", "ios": "https://dc.lft.to/lastmile_qr_scan"}, "lon": -77.02301216666666, "fusion_lat": 0.0}, {"name": "e790deda4693b6c382a6258814a8cb66", "fusion_lon": 0.0, "lat": 38.948206166666665, "is_reserved": 0, "type": "electric_scooter", "bike_id": "e790deda4693b6c382a6258814a8cb66", "is_disabled": 0, "rental_uris": {"android": "https://dc.lft.to/lastmile_qr_scan", "ios": "https://dc.lft.to/lastmile_qr_scan"}, "lon": -77.07889866666666, "fusion_lat": 0.0}, {"name": "3b774da40f15f6e04a89d110a0e11ff6", "fusion_lon": 0.0, "lat": 38.86084566666667, "is_reserved": 0, "type": "electric_scooter", "bike_id": "3b774da40f15f6e04a89d110a0e11ff6", "is_disabled": 0, "rental_uris": {"android": "https://dc.lft.to/lastmile_qr_scan", "ios": "https://dc.lft.to/lastmile_qr_scan"}, "lon": -76.96864566666666, "fusion_lat": 0.0}, {"name": "344c8e30b9798839429eb793837dd80b", "fusion_lon": 0.0, "lat": 38.92231533333333, "is_reserved": 0, "type": "electric_scooter", "bike_id": "344c8e30b9798839429eb793837dd80b", "is_disabled": 0, "rental_uris": {"android": "https://dc.lft.to/lastmile_qr_scan", "ios": "https://dc.lft.to/lastmile_qr_scan"}, "lon": -77.03519333333334, "fusion_lat": 0.0}, {"name": "cae6bed3bdb6bc20bf394a891cf84c8a", "fusion_lon": 0.0, "lat": 38.87569933333333, "is_reserved": 0, "type": "electric_scooter", "bike_id": "cae6bed3bdb6bc20bf394a891cf84c8a", "is_disabled": 0, "rental_uris": {"android": "https://dc.lft.to/lastmile_qr_scan", "ios": "https://dc.lft.to/lastmile_qr_scan"}, "lon": -77.00595866666667, "fusion_lat": 0.0}, {"name": "fa64d21b9fd4c4fb1550fb1cd1b1aff7", "fusion_lon": 0.0, "lat": 38.923839666666666, "is_reserved": 0, "type": "electric_scooter", "bike_id": "fa64d21b9fd4c4fb1550fb1cd1b1aff7", "is_disabled": 0, "rental_uris": {"android": "https://dc.lft.to/lastmile_qr_scan", "ios": "https://dc.lft.to/lastmile_qr_scan"}, "lon": -77.05191216666667, "fusion_lat": 0.0}, {"name": "31fa85c23cbe5b7b2b1f8aa1728a9404", "fusion_lon": 0.0, "lat": 38.87469766666667, "is_reserved": 0, "type": "electric_scooter", "bike_id": "31fa85c23cbe5b7b2b1f8aa1728a9404", "is_disabled": 0, "rental_uris": {"android": "https://dc.lft.to/lastmile_qr_scan", "ios": "https://dc.lft.to/lastmile_qr_scan"}, "lon": -77.01593316666667, "fusion_lat": 0.0}, {"name": "d07552d0f66ea3540cc1382f716a94bf", "fusion_lon": 0.0, "lat": 38.8848195, "is_reserved": 0, "type": "electric_scooter", "bike_id": "d07552d0f66ea3540cc1382f716a94bf", "is_disabled": 0, "rental_uris": {"android": "https://dc.lft.to/lastmile_qr_scan", "ios": "https://dc.lft.to/lastmile_qr_scan"}, "lon": -77.00914583333333, "fusion_lat": 0.0}, {"name": "0ad6a48d19f874dcb7bdb65978778a23", "fusion_lon": 0.0, "lat": 38.91551283333333, "is_reserved": 0, "type": "electric_scooter", "bike_id": "0ad6a48d19f874dcb7bdb65978778a23", "is_disabled": 0, "rental_uris": {"android": "https://dc.lft.to/lastmile_qr_scan", "ios": "https://dc.lft.to/lastmile_qr_scan"}, "lon": -77.03850083333333, "fusion_lat": 0.0}, {"name": "9651a0b40fcbc3aefd453955a1e26f6f", "fusion_lon": 0.0, "lat": 38.89317783333333, "is_reserved": 0, "type": "electric_scooter", "bike_id": "9651a0b40fcbc3aefd453955a1e26f6f", "is_disabled": 0, "rental_uris": {"android": "https://dc.lft.to/lastmile_qr_scan", "ios": "https://dc.lft.to/lastmile_qr_scan"}, "lon": -77.01779233333333, "fusion_lat": 0.0}, {"name": "4b69ff33688d5d9bca02db1514563ffb", "fusion_lon": 0.0, "lat": 38.9241635, "is_reserved": 0, "type": "electric_scooter", "bike_id": "4b69ff33688d5d9bca02db1514563ffb", "is_disabled": 0, "rental_uris": {"android": "https://dc.lft.to/lastmile_qr_scan", "ios": "https://dc.lft.to/lastmile_qr_scan"}, "lon": -77.05065083333334, "fusion_lat": 0.0}, {"name": "bed912f6933757f0f1254711bbc606f4", "fusion_lon": 0.0, "lat": 38.9102985, "is_reserved": 0, "type": "electric_scooter", "bike_id": "bed912f6933757f0f1254711bbc606f4", "is_disabled": 0, "rental_uris": {"android": "https://dc.lft.to/lastmile_qr_scan", "ios": "https://dc.lft.to/lastmile_qr_scan"}, "lon": -77.0076095, "fusion_lat": 0.0}, {"name": "073f9effd72a209554313434115c4b94", "fusion_lon": 0.0, "lat": 38.888848333333335, "is_reserved": 0, "type": "electric_scooter", "bike_id": "073f9effd72a209554313434115c4b94", "is_disabled": 0, "rental_uris": {"android": "https://dc.lft.to/lastmile_qr_scan", "ios": "https://dc.lft.to/lastmile_qr_scan"}, "lon": -76.94780316666666, "fusion_lat": 0.0}, {"name": "fbd0d41d485c834a9205f71e62708279", "fusion_lon": 0.0, "lat": 38.796088, "is_reserved": 0, "type": "electric_bike", "bike_id": "fbd0d41d485c834a9205f71e62708279", "is_disabled": 0, "rental_uris": {"android": "https://dc.lft.to/lastmile_qr_scan", "ios": "https://dc.lft.to/lastmile_qr_scan"}, "lon": -76.99743333333333, "fusion_lat": 0.0}, {"name": "fad1ca1877e2754968f595c19b09e791", "fusion_lon": 0.0, "lat": 38.977262, "is_reserved": 0, "type": "electric_scooter", "bike_id": "fad1ca1877e2754968f595c19b09e791", "is_disabled": 0, "rental_uris": {"android": "https://dc.lft.to/lastmile_qr_scan", "ios": "https://dc.lft.to/lastmile_qr_scan"}, "lon": -77.01726516666666, "fusion_lat": 0.0}, {"name": "70fac5134c2aa0ef7e97ba762864b89a", "fusion_lon": 0.0, "lat": 38.91026, "is_reserved": 0, "type": "electric_scooter", "bike_id": "70fac5134c2aa0ef7e97ba762864b89a", "is_disabled": 0, "rental_uris": {"android": "https://dc.lft.to/lastmile_qr_scan", "ios": "https://dc.lft.to/lastmile_qr_scan"}, "lon": -77.007604, "fusion_lat": 0.0}, {"name": "5157aab633ad9c8a9716885598a4b88a", "fusion_lon": 0.0, "lat": 38.900923, "is_reserved": 0, "type": "electric_scooter", "bike_id": "5157aab633ad9c8a9716885598a4b88a", "is_disabled": 0, "rental_uris": {"android": "https://dc.lft.to/lastmile_qr_scan", "ios": "https://dc.lft.to/lastmile_qr_scan"}, "lon": -76.98333533333333, "fusion_lat": 0.0}, {"name": "1005450c523b2f0041ef657a3c943f44", "fusion_lon": 0.0, "lat": 38.91681283333333, "is_reserved": 0, "type": "electric_scooter", "bike_id": "1005450c523b2f0041ef657a3c943f44", "is_disabled": 0, "rental_uris": {"android": "https://dc.lft.to/lastmile_qr_scan", "ios": "https://dc.lft.to/lastmile_qr_scan"}, "lon": -77.02948366666666, "fusion_lat": 0.0}, {"name": "5d475a05099e63d72199b3fb17ed444d", "fusion_lon": 0.0, "lat": 38.9056795, "is_reserved": 0, "type": "electric_scooter", "bike_id": "5d475a05099e63d72199b3fb17ed444d", "is_disabled": 0, "rental_uris": {"android": "https://dc.lft.to/lastmile_qr_scan", "ios": "https://dc.lft.to/lastmile_qr_scan"}, "lon": -77.005785, "fusion_lat": 0.0}, {"name": "a9a5f2f1d77bddaf6a1ab435d751df30", "fusion_lon": 0.0, "lat": 38.91407, "is_reserved": 0, "type": "electric_scooter", "bike_id": "a9a5f2f1d77bddaf6a1ab435d751df30", "is_disabled": 0, "rental_uris": {"android": "https://dc.lft.to/lastmile_qr_scan", "ios": "https://dc.lft.to/lastmile_qr_scan"}, "lon": -77.02153466666667, "fusion_lat": 0.0}, {"name": "1082bb31ac5cedeac263efefcb330a97", "fusion_lon": 0.0, "lat": 38.90267266666667, "is_reserved": 0, "type": "electric_scooter", "bike_id": "1082bb31ac5cedeac263efefcb330a97", "is_disabled": 0, "rental_uris": {"android": "https://dc.lft.to/lastmile_qr_scan", "ios": "https://dc.lft.to/lastmile_qr_scan"}, "lon": -77.0395805, "fusion_lat": 0.0}, {"name": "e00b5f3dbe35653a438ee90709ea5d74", "fusion_lon": 0.0, "lat": 38.920362, "is_reserved": 0, "type": "electric_scooter", "bike_id": "e00b5f3dbe35653a438ee90709ea5d74", "is_disabled": 0, "rental_uris": {"android": "https://dc.lft.to/lastmile_qr_scan", "ios": "https://dc.lft.to/lastmile_qr_scan"}, "lon": -77.04192433333333, "fusion_lat": 0.0}, {"name": "bb3967fa6d036f803702b891ea13b038", "fusion_lon": 0.0, "lat": 38.9119795, "is_reserved": 0, "type": "electric_scooter", "bike_id": "bb3967fa6d036f803702b891ea13b038", "is_disabled": 0, "rental_uris": {"android": "https://dc.lft.to/lastmile_qr_scan", "ios": "https://dc.lft.to/lastmile_qr_scan"}, "lon": -77.03840666666666, "fusion_lat": 0.0}, {"name": "565f2b8bfdfb0f9da451308b96ce8806", "fusion_lon": 0.0, "lat": 38.8608915, "is_reserved": 0, "type": "electric_bike", "bike_id": "565f2b8bfdfb0f9da451308b96ce8806", "is_disabled": 0, "rental_uris": {"android": "https://dc.lft.to/lastmile_qr_scan", "ios": "https://dc.lft.to/lastmile_qr_scan"}, "lon": -77.09591033333334, "fusion_lat": 0.0}, {"name": "ee343d6a6eb3f11c6c2980e78c57bf31", "fusion_lon": 0.0, "lat": 38.88120716666667, "is_reserved": 0, "type": "electric_scooter", "bike_id": "ee343d6a6eb3f11c6c2980e78c57bf31", "is_disabled": 0, "rental_uris": {"android": "https://dc.lft.to/lastmile_qr_scan", "ios": "https://dc.lft.to/lastmile_qr_scan"}, "lon": -77.0165675, "fusion_lat": 0.0}, {"name": "828f100f7e82f683bd090a0eb80c3886", "fusion_lon": 0.0, "lat": 38.93684533333333, "is_reserved": 0, "type": "electric_scooter", "bike_id": "828f100f7e82f683bd090a0eb80c3886", "is_disabled": 0, "rental_uris": {"android": "https://dc.lft.to/lastmile_qr_scan", "ios": "https://dc.lft.to/lastmile_qr_scan"}, "lon": -77.0362765, "fusion_lat": 0.0}, {"name": "eb02f5cc6ef6ad0646076bfd01b8d690", "fusion_lon": 0.0, "lat": 38.91839233333334, "is_reserved": 0, "type": "electric_scooter", "bike_id": "eb02f5cc6ef6ad0646076bfd01b8d690", "is_disabled": 0, "rental_uris": {"android": "https://dc.lft.to/lastmile_qr_scan", "ios": "https://dc.lft.to/lastmile_qr_scan"}, "lon": -77.031793, "fusion_lat": 0.0}, {"name": "fb345e4bb6a6b18723b9f4fafbb409be", "fusion_lon": 0.0, "lat": 38.917131166666664, "is_reserved": 0, "type": "electric_scooter", "bike_id": "fb345e4bb6a6b18723b9f4fafbb409be", "is_disabled": 0, "rental_uris": {"android": "https://dc.lft.to/lastmile_qr_scan", "ios": "https://dc.lft.to/lastmile_qr_scan"}, "lon": -77.03858883333334, "fusion_lat": 0.0}, {"name": "0a0633ed50d7f5f33594c0e5439ef532", "fusion_lon": 0.0, "lat": 38.9209295, "is_reserved": 0, "type": "electric_scooter", "bike_id": "0a0633ed50d7f5f33594c0e5439ef532", "is_disabled": 0, "rental_uris": {"android": "https://dc.lft.to/lastmile_qr_scan", "ios": "https://dc.lft.to/lastmile_qr_scan"}, "lon": -77.004313, "fusion_lat": 0.0}, {"name": "f0b5bd4653cb10e81df9c33717f23519", "fusion_lon": 0.0, "lat": 38.88815733333333, "is_reserved": 0, "type": "electric_scooter", "bike_id": "f0b5bd4653cb10e81df9c33717f23519", "is_disabled": 0, "rental_uris": {"android": "https://dc.lft.to/lastmile_qr_scan", "ios": "https://dc.lft.to/lastmile_qr_scan"}, "lon": -76.93342883333334, "fusion_lat": 0.0}, {"name": "b3eb8146ebb54c75bd78dff254e72419", "fusion_lon": 0.0, "lat": 38.92469033333333, "is_reserved": 0, "type": "electric_scooter", "bike_id": "b3eb8146ebb54c75bd78dff254e72419", "is_disabled": 0, "rental_uris": {"android": "https://dc.lft.to/lastmile_qr_scan", "ios": "https://dc.lft.to/lastmile_qr_scan"}, "lon": -77.02206433333333, "fusion_lat": 0.0}, {"name": "a1fb5d7e24521df334b7f4b05ce0a9db", "fusion_lon": 0.0, "lat": 38.91637683333333, "is_reserved": 0, "type": "electric_scooter", "bike_id": "a1fb5d7e24521df334b7f4b05ce0a9db", "is_disabled": 0, "rental_uris": {"android": "https://dc.lft.to/lastmile_qr_scan", "ios": "https://dc.lft.to/lastmile_qr_scan"}, "lon": -77.00196283333334, "fusion_lat": 0.0}, {"name": "f8c34acb01f13e84d9cc6543133d7381", "fusion_lon": 0.0, "lat": 38.922091333333334, "is_reserved": 0, "type": "electric_bike", "bike_id": "f8c34acb01f13e84d9cc6543133d7381", "is_disabled": 0, "rental_uris": {"android": "https://dc.lft.to/lastmile_qr_scan", "ios": "https://dc.lft.to/lastmile_qr_scan"}, "lon": -76.98796833333333, "fusion_lat": 0.0}, {"name": "d5f30ed8001b5b098f3a9552df3f26b9", "fusion_lon": 0.0, "lat": 38.83236816666667, "is_reserved": 0, "type": "electric_bike", "bike_id": "d5f30ed8001b5b098f3a9552df3f26b9", "is_disabled": 0, "rental_uris": {"android": "https://dc.lft.to/lastmile_qr_scan", "ios": "https://dc.lft.to/lastmile_qr_scan"}, "lon": -76.94617383333333, "fusion_lat": 0.0}, {"name": "a59c6c83faa7436f7c746e2ca78f902c", "fusion_lon": 0.0, "lat": 38.906340666666665, "is_reserved": 0, "type": "electric_scooter", "bike_id": "a59c6c83faa7436f7c746e2ca78f902c", "is_disabled": 0, "rental_uris": {"android": "https://dc.lft.to/lastmile_qr_scan", "ios": "https://dc.lft.to/lastmile_qr_scan"}, "lon": -77.03853283333333, "fusion_lat": 0.0}, {"name": "13d8bc44b2ea4635bd3d1394368c5019", "fusion_lon": 0.0, "lat": 39.0505195, "is_reserved": 0, "type": "electric_bike", "bike_id": "13d8bc44b2ea4635bd3d1394368c5019", "is_disabled": 0, "rental_uris": {"android": "https://dc.lft.to/lastmile_qr_scan", "ios": "https://dc.lft.to/lastmile_qr_scan"}, "lon": -77.05147216666667, "fusion_lat": 0.0}, {"name": "bd734163891b0c6a1241233bdc34ed87", "fusion_lon": 0.0, "lat": 38.92732566666667, "is_reserved": 0, "type": "electric_scooter", "bike_id": "bd734163891b0c6a1241233bdc34ed87", "is_disabled": 0, "rental_uris": {"android": "https://dc.lft.to/lastmile_qr_scan", "ios": "https://dc.lft.to/lastmile_qr_scan"}, "lon": -77.052541, "fusion_lat": 0.0}, {"name": "8857be8f617a084fd3c67c4657660a88", "fusion_lon": 0.0, "lat": 38.898073833333335, "is_reserved": 0, "type": "electric_bike", "bike_id": "8857be8f617a084fd3c67c4657660a88", "is_disabled": 0, "rental_uris": {"android": "https://dc.lft.to/lastmile_qr_scan", "ios": "https://dc.lft.to/lastmile_qr_scan"}, "lon": -76.99075983333333, "fusion_lat": 0.0}, {"name": "4a903affdd72a6ec75b0b640e8d41b2d", "fusion_lon": 0.0, "lat": 38.87441066666667, "is_reserved": 0, "type": "electric_scooter", "bike_id": "4a903affdd72a6ec75b0b640e8d41b2d", "is_disabled": 0, "rental_uris": {"android": "https://dc.lft.to/lastmile_qr_scan", "ios": "https://dc.lft.to/lastmile_qr_scan"}, "lon": -77.018652, "fusion_lat": 0.0}, {"name": "b2f5337e99c5bbf54450d98b46c36292", "fusion_lon": 0.0, "lat": 38.932437, "is_reserved": 0, "type": "electric_scooter", "bike_id": "b2f5337e99c5bbf54450d98b46c36292", "is_disabled": 0, "rental_uris": {"android": "https://dc.lft.to/lastmile_qr_scan", "ios": "https://dc.lft.to/lastmile_qr_scan"}, "lon": -77.02046016666667, "fusion_lat": 0.0}, {"name": "c98835b53db3079472961efd81ae7080", "fusion_lon": 0.0, "lat": 38.93022066666666, "is_reserved": 0, "type": "electric_scooter", "bike_id": "c98835b53db3079472961efd81ae7080", "is_disabled": 0, "rental_uris": {"android": "https://dc.lft.to/lastmile_qr_scan", "ios": "https://dc.lft.to/lastmile_qr_scan"}, "lon": -77.06308016666667, "fusion_lat": 0.0}, {"name": "cd1e28213f732b8b4a03bc1911bf4398", "fusion_lon": 0.0, "lat": 38.9041005, "is_reserved": 0, "type": "electric_scooter", "bike_id": "cd1e28213f732b8b4a03bc1911bf4398", "is_disabled": 0, "rental_uris": {"android": "https://dc.lft.to/lastmile_qr_scan", "ios": "https://dc.lft.to/lastmile_qr_scan"}, "lon": -76.97330283333334, "fusion_lat": 0.0}, {"name": "0370003575238faedcb61a405ead2d34", "fusion_lon": 0.0, "lat": 38.92315416666667, "is_reserved": 0, "type": "electric_scooter", "bike_id": "0370003575238faedcb61a405ead2d34", "is_disabled": 0, "rental_uris": {"android": "https://dc.lft.to/lastmile_qr_scan", "ios": "https://dc.lft.to/lastmile_qr_scan"}, "lon": -77.02976733333334, "fusion_lat": 0.0}, {"name": "f5d105f67314e971fe351f72914eacc2", "fusion_lon": 0.0, "lat": 38.9324375, "is_reserved": 0, "type": "electric_scooter", "bike_id": "f5d105f67314e971fe351f72914eacc2", "is_disabled": 0, "rental_uris": {"android": "https://dc.lft.to/lastmile_qr_scan", "ios": "https://dc.lft.to/lastmile_qr_scan"}, "lon": -77.03852166666667, "fusion_lat": 0.0}, {"name": "4da1dc254d35e021fee66b96c6be1111", "fusion_lon": 0.0, "lat": 38.904911166666665, "is_reserved": 0, "type": "electric_scooter", "bike_id": "4da1dc254d35e021fee66b96c6be1111", "is_disabled": 0, "rental_uris": {"android": "https://dc.lft.to/lastmile_qr_scan", "ios": "https://dc.lft.to/lastmile_qr_scan"}, "lon": -77.060192, "fusion_lat": 0.0}, {"name": "3fedd3bf3102a6622fdc437ee34767bd", "fusion_lon": 0.0, "lat": 38.90657783333333, "is_reserved": 0, "type": "electric_scooter", "bike_id": "3fedd3bf3102a6622fdc437ee34767bd", "is_disabled": 0, "rental_uris": {"android": "https://dc.lft.to/lastmile_qr_scan", "ios": "https://dc.lft.to/lastmile_qr_scan"}, "lon": -77.029776, "fusion_lat": 0.0}, {"name": "c8393258274561500db1e6d613c2c3f7", "fusion_lon": 0.0, "lat": 38.87919466666666, "is_reserved": 0, "type": "electric_scooter", "bike_id": "c8393258274561500db1e6d613c2c3f7", "is_disabled": 0, "rental_uris": {"android": "https://dc.lft.to/lastmile_qr_scan", "ios": "https://dc.lft.to/lastmile_qr_scan"}, "lon": -76.99981583333333, "fusion_lat": 0.0}, {"name": "dc3416a341377ec5c24e0b3bd77b4c7a", "fusion_lon": 0.0, "lat": 38.925145666666666, "is_reserved": 0, "type": "electric_scooter", "bike_id": "dc3416a341377ec5c24e0b3bd77b4c7a", "is_disabled": 0, "rental_uris": {"android": "https://dc.lft.to/lastmile_qr_scan", "ios": "https://dc.lft.to/lastmile_qr_scan"}, "lon": -77.02340216666667, "fusion_lat": 0.0}, {"name": "f5958d7d926c54e53dc48b715fe67ddd", "fusion_lon": 0.0, "lat": 38.893943166666666, "is_reserved": 0, "type": "electric_scooter", "bike_id": "f5958d7d926c54e53dc48b715fe67ddd", "is_disabled": 0, "rental_uris": {"android": "https://dc.lft.to/lastmile_qr_scan", "ios": "https://dc.lft.to/lastmile_qr_scan"}, "lon": -77.0279985, "fusion_lat": 0.0}, {"name": "e5b53f825c15d6d4d075fbbe84e2410a", "fusion_lon": 0.0, "lat": 38.916577833333335, "is_reserved": 0, "type": "electric_scooter", "bike_id": "e5b53f825c15d6d4d075fbbe84e2410a", "is_disabled": 0, "rental_uris": {"android": "https://dc.lft.to/lastmile_qr_scan", "ios": "https://dc.lft.to/lastmile_qr_scan"}, "lon": -77.029701, "fusion_lat": 0.0}, {"name": "0de1ff4b8377039ba351cabb3b273c94", "fusion_lon": 0.0, "lat": 38.92867833333333, "is_reserved": 0, "type": "electric_scooter", "bike_id": "0de1ff4b8377039ba351cabb3b273c94", "is_disabled": 0, "rental_uris": {"android": "https://dc.lft.to/lastmile_qr_scan", "ios": "https://dc.lft.to/lastmile_qr_scan"}, "lon": -77.02731233333333, "fusion_lat": 0.0}, {"name": "d114c196ca4d68031f58675cae8635f7", "fusion_lon": 0.0, "lat": 38.92954116666667, "is_reserved": 0, "type": "electric_scooter", "bike_id": "d114c196ca4d68031f58675cae8635f7", "is_disabled": 0, "rental_uris": {"android": "https://dc.lft.to/lastmile_qr_scan", "ios": "https://dc.lft.to/lastmile_qr_scan"}, "lon": -77.03308783333334, "fusion_lat": 0.0}, {"name": "82ae77c1b89132cf641543a71b3821f7", "fusion_lon": 0.0, "lat": 38.90574216666667, "is_reserved": 0, "type": "electric_scooter", "bike_id": "82ae77c1b89132cf641543a71b3821f7", "is_disabled": 0, "rental_uris": {"android": "https://dc.lft.to/lastmile_qr_scan", "ios": "https://dc.lft.to/lastmile_qr_scan"}, "lon": -77.00579416666666, "fusion_lat": 0.0}, {"name": "6c40d0863d76b922260ed604157d79e1", "fusion_lon": 0.0, "lat": 38.99328466666667, "is_reserved": 0, "type": "electric_bike", "bike_id": "6c40d0863d76b922260ed604157d79e1", "is_disabled": 0, "rental_uris": {"android": "https://dc.lft.to/lastmile_qr_scan", "ios": "https://dc.lft.to/lastmile_qr_scan"}, "lon": -76.94616466666666, "fusion_lat": 0.0}, {"name": "074602b80600e12631e217c005d56a92", "fusion_lon": 0.0, "lat": 38.919109, "is_reserved": 0, "type": "electric_scooter", "bike_id": "074602b80600e12631e217c005d56a92", "is_disabled": 0, "rental_uris": {"android": "https://dc.lft.to/lastmile_qr_scan", "ios": "https://dc.lft.to/lastmile_qr_scan"}, "lon": -77.04475116666667, "fusion_lat": 0.0}, {"name": "81e6f61eb78aa7d5909a18f1cec03f1b", "fusion_lon": 0.0, "lat": 38.90183116666667, "is_reserved": 0, "type": "electric_scooter", "bike_id": "81e6f61eb78aa7d5909a18f1cec03f1b", "is_disabled": 0, "rental_uris": {"android": "https://dc.lft.to/lastmile_qr_scan", "ios": "https://dc.lft.to/lastmile_qr_scan"}, "lon": -77.0218525, "fusion_lat": 0.0}, {"name": "ff871cbccff05de5de838f3aa29ba125", "fusion_lon": 0.0, "lat": 38.93930316666667, "is_reserved": 0, "type": "electric_scooter", "bike_id": "ff871cbccff05de5de838f3aa29ba125", "is_disabled": 0, "rental_uris": {"android": "https://dc.lft.to/lastmile_qr_scan", "ios": "https://dc.lft.to/lastmile_qr_scan"}, "lon": -77.02490216666666, "fusion_lat": 0.0}, {"name": "88a457b27df74f1590e1aed04114bf52", "fusion_lon": 0.0, "lat": 38.886095, "is_reserved": 0, "type": "electric_scooter", "bike_id": "88a457b27df74f1590e1aed04114bf52", "is_disabled": 0, "rental_uris": {"android": "https://dc.lft.to/lastmile_qr_scan", "ios": "https://dc.lft.to/lastmile_qr_scan"}, "lon": -76.995139, "fusion_lat": 0.0}, {"name": "6aa06eeed9aad0f4000536f831c4937c", "fusion_lon": 0.0, "lat": 38.908597666666665, "is_reserved": 0, "type": "electric_scooter", "bike_id": "6aa06eeed9aad0f4000536f831c4937c", "is_disabled": 0, "rental_uris": {"android": "https://dc.lft.to/lastmile_qr_scan", "ios": "https://dc.lft.to/lastmile_qr_scan"}, "lon": -77.0242315, "fusion_lat": 0.0}, {"name": "6bae6dfdd0f95ce9d68aaa8bab259c63", "fusion_lon": 0.0, "lat": 38.917983166666666, "is_reserved": 0, "type": "electric_scooter", "bike_id": "6bae6dfdd0f95ce9d68aaa8bab259c63", "is_disabled": 0, "rental_uris": {"android": "https://dc.lft.to/lastmile_qr_scan", "ios": "https://dc.lft.to/lastmile_qr_scan"}, "lon": -77.03435283333333, "fusion_lat": 0.0}, {"name": "7445e647db93bd92083d513fe2e537f4", "fusion_lon": 0.0, "lat": 38.855412666666666, "is_reserved": 0, "type": "electric_bike", "bike_id": "7445e647db93bd92083d513fe2e537f4", "is_disabled": 0, "rental_uris": {"android": "https://dc.lft.to/lastmile_qr_scan", "ios": "https://dc.lft.to/lastmile_qr_scan"}, "lon": -77.12011666666666, "fusion_lat": 0.0}, {"name": "fa465f292a541c3e640b6aadf75dbd0d", "fusion_lon": 0.0, "lat": 38.93591766666667, "is_reserved": 0, "type": "electric_scooter", "bike_id": "fa465f292a541c3e640b6aadf75dbd0d", "is_disabled": 0, "rental_uris": {"android": "https://dc.lft.to/lastmile_qr_scan", "ios": "https://dc.lft.to/lastmile_qr_scan"}, "lon": -77.0353345, "fusion_lat": 0.0}, {"name": "78a4081c87ac239544ee1533b42c2c30", "fusion_lon": 0.0, "lat": 38.9243285, "is_reserved": 0, "type": "electric_scooter", "bike_id": "78a4081c87ac239544ee1533b42c2c30", "is_disabled": 0, "rental_uris": {"android": "https://dc.lft.to/lastmile_qr_scan", "ios": "https://dc.lft.to/lastmile_qr_scan"}, "lon": -77.04243833333334, "fusion_lat": 0.0}, {"name": "a1e2a2c5ce177220bfcc2ab508a247ab", "fusion_lon": 0.0, "lat": 38.88729216666667, "is_reserved": 0, "type": "electric_scooter", "bike_id": "a1e2a2c5ce177220bfcc2ab508a247ab", "is_disabled": 0, "rental_uris": {"android": "https://dc.lft.to/lastmile_qr_scan", "ios": "https://dc.lft.to/lastmile_qr_scan"}, "lon": -77.02837333333333, "fusion_lat": 0.0}, {"name": "ac959d50bab676ef2ffcd90d2f419f7e", "fusion_lon": 0.0, "lat": 38.8710335, "is_reserved": 0, "type": "electric_scooter", "bike_id": "ac959d50bab676ef2ffcd90d2f419f7e", "is_disabled": 0, "rental_uris": {"android": "https://dc.lft.to/lastmile_qr_scan", "ios": "https://dc.lft.to/lastmile_qr_scan"}, "lon": -76.96570633333333, "fusion_lat": 0.0}, {"name": "ca204abf1efd47c06d71bceca5615a30", "fusion_lon": 0.0, "lat": 38.918293166666665, "is_reserved": 0, "type": "electric_scooter", "bike_id": "ca204abf1efd47c06d71bceca5615a30", "is_disabled": 0, "rental_uris": {"android": "https://dc.lft.to/lastmile_qr_scan", "ios": "https://dc.lft.to/lastmile_qr_scan"}, "lon": -77.03180183333333, "fusion_lat": 0.0}, {"name": "8c9fdb52069bd1ba54961db39f342175", "fusion_lon": 0.0, "lat": 38.867001333333334, "is_reserved": 0, "type": "electric_scooter", "bike_id": "8c9fdb52069bd1ba54961db39f342175", "is_disabled": 0, "rental_uris": {"android": "https://dc.lft.to/lastmile_qr_scan", "ios": "https://dc.lft.to/lastmile_qr_scan"}, "lon": -76.98716883333333, "fusion_lat": 0.0}, {"name": "e4474dcb34d21b734e39c1a22931b569", "fusion_lon": 0.0, "lat": 38.91467866666667, "is_reserved": 0, "type": "electric_scooter", "bike_id": "e4474dcb34d21b734e39c1a22931b569", "is_disabled": 0, "rental_uris": {"android": "https://dc.lft.to/lastmile_qr_scan", "ios": "https://dc.lft.to/lastmile_qr_scan"}, "lon": -76.98404016666667, "fusion_lat": 0.0}, {"name": "51fd837b89bb3f03351c2d37d6f71d54", "fusion_lon": 0.0, "lat": 38.919125, "is_reserved": 0, "type": "electric_scooter", "bike_id": "51fd837b89bb3f03351c2d37d6f71d54", "is_disabled": 0, "rental_uris": {"android": "https://dc.lft.to/lastmile_qr_scan", "ios": "https://dc.lft.to/lastmile_qr_scan"}, "lon": -77.002201, "fusion_lat": 0.0}, {"name": "6ad3327f0c449bc444bc0eac7c4fb060", "fusion_lon": 0.0, "lat": 38.947937333333336, "is_reserved": 0, "type": "electric_scooter", "bike_id": "6ad3327f0c449bc444bc0eac7c4fb060", "is_disabled": 0, "rental_uris": {"android": "https://dc.lft.to/lastmile_qr_scan", "ios": "https://dc.lft.to/lastmile_qr_scan"}, "lon": -77.08016316666667, "fusion_lat": 0.0}, {"name": "ba78f509784fc3805e7bd4b62b612f0a", "fusion_lon": 0.0, "lat": 38.91592833333333, "is_reserved": 0, "type": "electric_scooter", "bike_id": "ba78f509784fc3805e7bd4b62b612f0a", "is_disabled": 0, "rental_uris": {"android": "https://dc.lft.to/lastmile_qr_scan", "ios": "https://dc.lft.to/lastmile_qr_scan"}, "lon": -76.98376483333334, "fusion_lat": 0.0}, {"name": "9257a6c0418653910c502482b9afa208", "fusion_lon": 0.0, "lat": 38.869965666666666, "is_reserved": 0, "type": "electric_scooter", "bike_id": "9257a6c0418653910c502482b9afa208", "is_disabled": 0, "rental_uris": {"android": "https://dc.lft.to/lastmile_qr_scan", "ios": "https://dc.lft.to/lastmile_qr_scan"}, "lon": -76.97591733333333, "fusion_lat": 0.0}, {"name": "d93f3928d27e0b6f7977ab2943e76050", "fusion_lon": 0.0, "lat": 38.899548333333335, "is_reserved": 0, "type": "electric_scooter", "bike_id": "d93f3928d27e0b6f7977ab2943e76050", "is_disabled": 0, "rental_uris": {"android": "https://dc.lft.to/lastmile_qr_scan", "ios": "https://dc.lft.to/lastmile_qr_scan"}, "lon": -77.01616766666666, "fusion_lat": 0.0}, {"name": "00ba8d782f09c676250d0534d74f5f4f", "fusion_lon": 0.0, "lat": 38.878299166666665, "is_reserved": 0, "type": "electric_scooter", "bike_id": "00ba8d782f09c676250d0534d74f5f4f", "is_disabled": 0, "rental_uris": {"android": "https://dc.lft.to/lastmile_qr_scan", "ios": "https://dc.lft.to/lastmile_qr_scan"}, "lon": -76.96309483333333, "fusion_lat": 0.0}, {"name": "de99b5ed876ac32640da704b65ee9566", "fusion_lon": 0.0, "lat": 39.05277733333333, "is_reserved": 0, "type": "electric_bike", "bike_id": "de99b5ed876ac32640da704b65ee9566", "is_disabled": 0, "rental_uris": {"android": "https://dc.lft.to/lastmile_qr_scan", "ios": "https://dc.lft.to/lastmile_qr_scan"}, "lon": -77.0807175, "fusion_lat": 0.0}, {"name": "a6a81a1c6b4ef80f895d04c0aaff3941", "fusion_lon": 0.0, "lat": 38.929688166666665, "is_reserved": 0, "type": "electric_scooter", "bike_id": "a6a81a1c6b4ef80f895d04c0aaff3941", "is_disabled": 0, "rental_uris": {"android": "https://dc.lft.to/lastmile_qr_scan", "ios": "https://dc.lft.to/lastmile_qr_scan"}, "lon": -77.027493, "fusion_lat": 0.0}, {"name": "55edf3b2d491ca09212f576916f253bb", "fusion_lon": 0.0, "lat": 38.9149335, "is_reserved": 0, "type": "electric_scooter", "bike_id": "55edf3b2d491ca09212f576916f253bb", "is_disabled": 0, "rental_uris": {"android": "https://dc.lft.to/lastmile_qr_scan", "ios": "https://dc.lft.to/lastmile_qr_scan"}, "lon": -77.01470333333333, "fusion_lat": 0.0}, {"name": "d4c933f887cb3f00a3349dd30f04bc15", "fusion_lon": 0.0, "lat": 38.8665825, "is_reserved": 0, "type": "electric_scooter", "bike_id": "d4c933f887cb3f00a3349dd30f04bc15", "is_disabled": 0, "rental_uris": {"android": "https://dc.lft.to/lastmile_qr_scan", "ios": "https://dc.lft.to/lastmile_qr_scan"}, "lon": -76.98882366666666, "fusion_lat": 0.0}, {"name": "25b11c38c4ba5a10096c46c61cf22b21", "fusion_lon": 0.0, "lat": 38.88208733333333, "is_reserved": 0, "type": "electric_scooter", "bike_id": "25b11c38c4ba5a10096c46c61cf22b21", "is_disabled": 0, "rental_uris": {"android": "https://dc.lft.to/lastmile_qr_scan", "ios": "https://dc.lft.to/lastmile_qr_scan"}, "lon": -76.9270625, "fusion_lat": 0.0}, {"name": "0f62465efebd45d923b3a5760a40587b", "fusion_lon": 0.0, "lat": 38.91954616666666, "is_reserved": 0, "type": "electric_scooter", "bike_id": "0f62465efebd45d923b3a5760a40587b", "is_disabled": 0, "rental_uris": {"android": "https://dc.lft.to/lastmile_qr_scan", "ios": "https://dc.lft.to/lastmile_qr_scan"}, "lon": -77.0270375, "fusion_lat": 0.0}, {"name": "d5d7ceeaf4ed32f027e95282268704b7", "fusion_lon": 0.0, "lat": 38.897410666666666, "is_reserved": 0, "type": "electric_scooter", "bike_id": "d5d7ceeaf4ed32f027e95282268704b7", "is_disabled": 0, "rental_uris": {"android": "https://dc.lft.to/lastmile_qr_scan", "ios": "https://dc.lft.to/lastmile_qr_scan"}, "lon": -77.0075825, "fusion_lat": 0.0}, {"name": "3824eb15af9573ef5972d7889bb85f50", "fusion_lon": 0.0, "lat": 38.900278, "is_reserved": 0, "type": "electric_scooter", "bike_id": "3824eb15af9573ef5972d7889bb85f50", "is_disabled": 0, "rental_uris": {"android": "https://dc.lft.to/lastmile_qr_scan", "ios": "https://dc.lft.to/lastmile_qr_scan"}, "lon": -77.00134233333333, "fusion_lat": 0.0}, {"name": "0e1832f64d53e9de9cec5c71d0e5a203", "fusion_lon": 0.0, "lat": 38.89961733333333, "is_reserved": 0, "type": "electric_scooter", "bike_id": "0e1832f64d53e9de9cec5c71d0e5a203", "is_disabled": 0, "rental_uris": {"android": "https://dc.lft.to/lastmile_qr_scan", "ios": "https://dc.lft.to/lastmile_qr_scan"}, "lon": -77.0478305, "fusion_lat": 0.0}, {"name": "c922b4f47dbd13c6bcefcedd38773fb5", "fusion_lon": 0.0, "lat": 38.91387683333333, "is_reserved": 0, "type": "electric_scooter", "bike_id": "c922b4f47dbd13c6bcefcedd38773fb5", "is_disabled": 0, "rental_uris": {"android": "https://dc.lft.to/lastmile_qr_scan", "ios": "https://dc.lft.to/lastmile_qr_scan"}, "lon": -77.03928733333333, "fusion_lat": 0.0}, {"name": "60dfaa077494d1ec6f9f5bd27087f04e", "fusion_lon": 0.0, "lat": 38.93069166666667, "is_reserved": 0, "type": "electric_scooter", "bike_id": "60dfaa077494d1ec6f9f5bd27087f04e", "is_disabled": 0, "rental_uris": {"android": "https://dc.lft.to/lastmile_qr_scan", "ios": "https://dc.lft.to/lastmile_qr_scan"}, "lon": -77.021894, "fusion_lat": 0.0}, {"name": "fcd188ead16c647cedc0f6d75635dc94", "fusion_lon": 0.0, "lat": 38.901431333333335, "is_reserved": 0, "type": "electric_scooter", "bike_id": "fcd188ead16c647cedc0f6d75635dc94", "is_disabled": 0, "rental_uris": {"android": "https://dc.lft.to/lastmile_qr_scan", "ios": "https://dc.lft.to/lastmile_qr_scan"}, "lon": -77.0197955, "fusion_lat": 0.0}, {"name": "d5898214e5352bb5152085b3f5db3fe5", "fusion_lon": 0.0, "lat": 38.869518, "is_reserved": 0, "type": "electric_scooter", "bike_id": "d5898214e5352bb5152085b3f5db3fe5", "is_disabled": 0, "rental_uris": {"android": "https://dc.lft.to/lastmile_qr_scan", "ios": "https://dc.lft.to/lastmile_qr_scan"}, "lon": -76.981631, "fusion_lat": 0.0}, {"name": "47b5106d2df9de608f1cb68b5d2b6b55", "fusion_lon": 0.0, "lat": 38.911863333333336, "is_reserved": 0, "type": "electric_scooter", "bike_id": "47b5106d2df9de608f1cb68b5d2b6b55", "is_disabled": 0, "rental_uris": {"android": "https://dc.lft.to/lastmile_qr_scan", "ios": "https://dc.lft.to/lastmile_qr_scan"}, "lon": -77.017882, "fusion_lat": 0.0},