{"data": {"bikes": [{"name": "61cd9163e66a0bb22230e921952b0cbe", "fusion_lat": 0.0, "fusion_lon": 0.0, "bike_id": "61cd9163e66a0bb22230e921952b0cbe", "rental_uris": {"ios": "https://dc.lft.to/lastmile_qr_scan", "android": "https://dc.lft.to/lastmile_qr_scan"}, "type": "electric_bike", "lat": 39.000184833333336, "is_disabled": 0, "lon": -76.8728505, "is_reserved": 0}, {"name": "6071b6facbae8dd9536ebda0eba4cbae", "fusion_lat": 0.0, "fusion_lon": 0.0, "bike_id": "6071b6facbae8dd9536ebda0eba4cbae", "rental_uris": {"ios": "https://dc.lft.to/lastmile_qr_scan", "android": "https://dc.lft.to/lastmile_qr_scan"}, "type": "electric_scooter", "lat": 38.922868, "is_disabled": 0, "lon": -77.072926, "is_reserved": 0}, {"name": "c7159b08d6e0c8563153a3baefea2a28", "fusion_lat": 0.0, "fusion_lon": 0.0, "bike_id": "c7159b08d6e0c8563153a3baefea2a28", "rental_uris": {"ios": "https://dc.lft.to/lastmile_qr_scan", "android": "https://dc.lft.to/lastmile_qr_scan"}, "type": "electric_scooter", "lat": 38.89820183333333, "is_disabled": 0, "lon": -77.029942, "is_reserved": 0}, {"name": "dc8366922d53737edb4a778b21416fb2", "fusion_lat": 0.0, "fusion_lon": 0.0, "bike_id": "dc8366922d53737edb4a778b21416fb2", "rental_uris": {"ios": "https://dc.lft.to/lastmile_qr_scan", "android": "https://dc.lft.to/lastmile_qr_scan"}, "type": "electric_scooter", "lat": 38.90235166666667, "is_disabled": 0, "lon": -77.06096966666667, "is_reserved": 0}, {"name": "bbf36e56cbd89827c6a8bbbe66a03d4e", "fusion_lat": 0.0, "fusion_lon": 0.0, "bike_id": "bbf36e56cbd89827c6a8bbbe66a03d4e", "rental_uris": {"ios": "https://dc.lft.to/lastmile_qr_scan", "android": "https://dc.lft.to/lastmile_qr_scan"}, "type": "electric_scooter", "lat": 38.908652000000004, "is_disabled": 0, "lon": -77.03839483333333, "is_reserved": 0}, {"name": "b13793ea7aeb60a1ad3f8ec5a95d11e9", "fusion_lat": 0.0, "fusion_lon": 0.0, "bike_id": "b13793ea7aeb60a1ad3f8ec5a95d11e9", "rental_uris": {"ios": "https://dc.lft.to/lastmile_qr_scan", "android": "https://dc.lft.to/lastmile_qr_scan"}, "type": "electric_bike", "lat": 38.8287315, "is_disabled": 0, "lon": -77.11221233333333, "is_reserved": 0}, {"name": "3839fa0591bf0621d7f81ce1f6ffebea", "fusion_lat": 0.0, "fusion_lon": 0.0, "bike_id": "3839fa0591bf0621d7f81ce1f6ffebea", "rental_uris": {"ios": "https://dc.lft.to/lastmile_qr_scan", "android": "https://dc.lft.to/lastmile_qr_scan"}, "type": "electric_scooter", "lat": 38.9035195, "is_disabled": 0, "lon": -77.01624316666667, "is_reserved": 0}, {"name": "1530eac31128ff16cfef5ba1bc279fb4", "fusion_lat": 0.0, "fusion_lon": 0.0, "bike_id": "1530eac31128ff16cfef5ba1bc279fb4", "rental_uris": {"ios": "https://dc.lft.to/lastmile_qr_scan", "android": "https://dc.lft.to/lastmile_qr_scan"}, "type": "electric_scooter", "lat": 38.91693866666667, "is_disabled": 0, "lon": -77.02847433333334, "is_reserved": 0}, {"name": "c28f683eb56fc58417c91dc4d2ffa2e3", "fusion_lat": 0.0, "fusion_lon": 0.0, "bike_id": "c28f683eb56fc58417c91dc4d2ffa2e3", "rental_uris": {"ios": "https://dc.lft.to/lastmile_qr_scan", "android": "https://dc.lft.to/lastmile_qr_scan"}, "type": "electric_scooter", "lat": 38.90971116666667, "is_disabled": 0, "lon": -77.01104033333333, "is_reserved": 0}, {"name": "3ee644fe7745c62756ea4547f36649a0", "fusion_lat": 0.0, "fusion_lon": 0.0, "bike_id": "3ee644fe7745c62756ea4547f36649a0", "rental_uris": {"ios": "https://dc.lft.to/lastmile_qr_scan", "android": "https://dc.lft.to/lastmile_qr_scan"}, "type": "electric_scooter", "lat": 38.897423833333335, "is_disabled": 0, "lon": -77.02152533333333, "is_reserved": 0}, {"name": "b7ea75a723d9436a1d8d71d05a1906e4", "fusion_lat": 0.0, "fusion_lon": 0.0, "bike_id": "b7ea75a723d9436a1d8d71d05a1906e4", "rental_uris": {"ios": "https://dc.lft.to/lastmile_qr_scan", "android": "https://dc.lft.to/lastmile_qr_scan"}, "type": "electric_scooter", "lat": 38.91568933333333, "is_disabled": 0, "lon": -77.03275916666666, "is_reserved": 0}, {"name": "97fca14bd4bd51172dad83a8156fdfff", "fusion_lat": 0.0, "fusion_lon": 0.0, "bike_id": "97fca14bd4bd51172dad83a8156fdfff", "rental_uris": {"ios": "https://dc.lft.to/lastmile_qr_scan", "android": "https://dc.lft.to/lastmile_qr_scan"}, "type": "electric_scooter", "lat": 38.91483083333333, "is_disabled": 0, "lon": -77.03211883333333, "is_reserved": 0}, {"name": "4e3bd3c48e65993cc60201c7cd759951", "fusion_lat": 0.0, "fusion_lon": 0.0, "bike_id": "4e3bd3c48e65993cc60201c7cd759951", "rental_uris": {"ios": "https://dc.lft.to/lastmile_qr_scan", "android": "https://dc.lft.to/lastmile_qr_scan"}, "type": "electric_scooter", "lat": 38.896168833333334, "is_disabled": 0, "lon": -76.99636216666667, "is_reserved": 0}, {"name": "b83be6b9eeeeac1d606af49d7f40e863", "fusion_lat": 0.0, "fusion_lon": 0.0, "bike_id": "b83be6b9eeeeac1d606af49d7f40e863", "rental_uris": {"ios": "https://dc.lft.to/lastmile_qr_scan", "android": "https://dc.lft.to/lastmile_qr_scan"}, "type": "electric_scooter", "lat": 38.90180266666667, "is_disabled": 0, "lon": -76.92826166666667, "is_reserved": 0}, {"name": "0b69ea1066b6f1a76d228e7286700b97", "fusion_lat": 0.0, "fusion_lon": 0.0, "bike_id": "0b69ea1066b6f1a76d228e7286700b97", "rental_uris": {"ios": "https://dc.lft.to/lastmile_qr_scan", "android": "https://dc.lft.to/lastmile_qr_scan"}, "type": "electric_scooter", "lat": 38.93250783333333, "is_disabled": 0, "lon": -77.03281966666667, "is_reserved": 0}, {"name": "48c2170feb33aa73e5ae822f96738be1", "fusion_lat": 0.0, "fusion_lon": 0.0, "bike_id": "48c2170feb33aa73e5ae822f96738be1", "rental_uris": {"ios": "https://dc.lft.to/lastmile_qr_scan", "android": "https://dc.lft.to/lastmile_qr_scan"}, "type": "electric_scooter", "lat": 38.920787, "is_disabled": 0, "lon": -77.0252475, "is_reserved": 0}, {"name": "5591fa303ede1bbf36f3bd1e82920df9", "fusion_lat": 0.0, "fusion_lon": 0.0, "bike_id": "5591fa303ede1bbf36f3bd1e82920df9", "rental_uris": {"ios": "https://dc.lft.to/lastmile_qr_scan", "android": "https://dc.lft.to/lastmile_qr_scan"}, "type": "electric_scooter", "lat": 38.930084666666666, "is_disabled": 0, "lon": -77.0551905, "is_reserved": 0}, {"name": "d62bfc636a28e1d56b18e185dc946458", "fusion_lat": 0.0, "fusion_lon": 0.0, "bike_id": "d62bfc636a28e1d56b18e185dc946458", "rental_uris": {"ios": "https://dc.lft.to/lastmile_qr_scan", "android": "https://dc.lft.to/lastmile_qr_scan"}, "type": "electric_scooter", "lat": 38.910777833333334, "is_disabled": 0, "lon": -77.0015105, "is_reserved": 0}, {"name": "ce95ef8b7ffaddd3992aa6c593968f61", "fusion_lat": 0.0, "fusion_lon": 0.0, "bike_id": "ce95ef8b7ffaddd3992aa6c593968f61", "rental_uris": {"ios": "https://dc.lft.to/lastmile_qr_scan", "android": "https://dc.lft.to/lastmile_qr_scan"}, "type": "electric_scooter", "lat": 38.89947466666667, "is_disabled": 0, "lon": -77.0461485, "is_reserved": 0}, {"name": "1c654476e4353a8a4ecdc9d3e7674544", "fusion_lat": 0.0, "fusion_lon": 0.0, "bike_id": "1c654476e4353a8a4ecdc9d3e7674544", "rental_uris": {"ios": "https://dc.lft.to/lastmile_qr_scan", "android": "https://dc.lft.to/lastmile_qr_scan"}, "type": "electric_bike", "lat": 38.95752733333333, "is_disabled": 0, "lon": -76.9802305, "is_reserved": 0}, {"name": "751963ad72e1d2745fb62c2e4e3836c5", "fusion_lat": 0.0, "fusion_lon": 0.0, "bike_id": "751963ad72e1d2745fb62c2e4e3836c5", "rental_uris": {"ios": "https://dc.lft.to/lastmile_qr_scan", "android": "https://dc.lft.to/lastmile_qr_scan"}, "type": "electric_scooter", "lat": 38.897263, "is_disabled": 0, "lon": -76.99260816666667, "is_reserved": 0}, {"name": "2c37034b873770ffcc65ef60bcab025a", "fusion_lat": 0.0, "fusion_lon": 0.0, "bike_id": "2c37034b873770ffcc65ef60bcab025a", "rental_uris": {"ios": "https://dc.lft.to/lastmile_qr_scan", "android": "https://dc.lft.to/lastmile_qr_scan"}, "type": "electric_scooter", "lat": 38.9003615, "is_disabled": 0, "lon": -77.04409216666667, "is_reserved": 0}, {"name": "4e7649d3602b03d3ad767c203194b900", "fusion_lat": 0.0, "fusion_lon": 0.0, "bike_id": "4e7649d3602b03d3ad767c203194b900", "rental_uris": {"ios": "https://dc.lft.to/lastmile_qr_scan", "android": "https://dc.lft.to/lastmile_qr_scan"}, "type": "electric_scooter", "lat": 38.90841416666667, "is_disabled": 0, "lon": -77.038374, "is_reserved": 0}, {"name": "1677a1290c1f2400938e3c25244fb455", "fusion_lat": 0.0, "fusion_lon": 0.0, "bike_id": "1677a1290c1f2400938e3c25244fb455", "rental_uris": {"ios": "https://dc.lft.to/lastmile_qr_scan", "android": "https://dc.lft.to/lastmile_qr_scan"}, "type": "electric_scooter", "lat": 38.900166, "is_disabled": 0, "lon": -76.99594, "is_reserved": 0}, {"name": "10829071fb5f0c1bc8ed56f385821b92", "fusion_lat": 0.0, "fusion_lon": 0.0, "bike_id": "10829071fb5f0c1bc8ed56f385821b92", "rental_uris": {"ios": "https://dc.lft.to/lastmile_qr_scan", "android": "https://dc.lft.to/lastmile_qr_scan"}, "type": "electric_scooter", "lat": 38.904109166666665, "is_disabled": 0, "lon": -77.0184755, "is_reserved": 0}, {"name": "59dc8af424976b14d0f1de41ebb615cc", "fusion_lat": 0.0, "fusion_lon": 0.0, "bike_id": "59dc8af424976b14d0f1de41ebb615cc", "rental_uris": {"ios": "https://dc.lft.to/lastmile_qr_scan", "android": "https://dc.lft.to/lastmile_qr_scan"}, "type": "electric_scooter", "lat": 38.895112, "is_disabled": 0, "lon": -76.94887116666666, "is_reserved": 0}, {"name": "f6537d2f808736c71782f46c33538d15", "fusion_lat": 0.0, "fusion_lon": 0.0, "bike_id": "f6537d2f808736c71782f46c33538d15", "rental_uris": {"ios": "https://dc.lft.to/lastmile_qr_scan", "android": "https://dc.lft.to/lastmile_qr_scan"}, "type": "electric_scooter", "lat": 38.86040216666667, "is_disabled": 0, "lon": -76.99684483333333, "is_reserved": 0}, {"name": "b58a2bdfd11908bf5d391a3eef0236a7", "fusion_lat": 0.0, "fusion_lon": 0.0, "bike_id": "b58a2bdfd11908bf5d391a3eef0236a7", "rental_uris": {"ios": "https://dc.lft.to/lastmile_qr_scan", "android": "https://dc.lft.to/lastmile_qr_scan"}, "type": "electric_scooter", "lat": 38.899619666666666, "is_disabled": 0, "lon": -77.02569216666667, "is_reserved": 0}, {"name": "c01af4b15b381d5c15a93de4ea79b66c", "fusion_lat": 0.0, "fusion_lon": 0.0, "bike_id": "c01af4b15b381d5c15a93de4ea79b66c", "rental_uris": {"ios": "https://dc.lft.to/lastmile_qr_scan", "android": "https://dc.lft.to/lastmile_qr_scan"}, "type": "electric_scooter", "lat": 38.911912666666666, "is_disabled": 0, "lon": -77.00253683333334, "is_reserved": 0}, {"name": "8cb377ad99af322a41bbe47e921140fb", "fusion_lat": 0.0, "fusion_lon": 0.0, "bike_id": "8cb377ad99af322a41bbe47e921140fb", "rental_uris": {"ios": "https://dc.lft.to/lastmile_qr_scan", "android": "https://dc.lft.to/lastmile_qr_scan"}, "type": "electric_bike", "lat": 39.09589833333333, "is_disabled": 0, "lon": -77.14777033333333, "is_reserved": 0}, {"name": "555b398810fdf3a2e96f573ddc4bbe3e", "fusion_lat": 0.0, "fusion_lon": 0.0, "bike_id": "555b398810fdf3a2e96f573ddc4bbe3e", "rental_uris": {"ios": "https://dc.lft.to/lastmile_qr_scan", "android": "https://dc.lft.to/lastmile_qr_scan"}, "type": "electric_scooter", "lat": 38.956056, "is_disabled": 0, "lon": -77.0362895, "is_reserved": 0}, {"name": "4a54a556507b3cc26205609813424d6f", "fusion_lat": 0.0, "fusion_lon": 0.0, "bike_id": "4a54a556507b3cc26205609813424d6f", "rental_uris": {"ios": "https://dc.lft.to/lastmile_qr_scan", "android": "https://dc.lft.to/lastmile_qr_scan"}, "type": "electric_scooter", "lat": 38.89730866666667, "is_disabled": 0, "lon": -76.94702016666666, "is_reserved": 0}, {"name": "d404a9b6af4c9293ac6df8f7aeff3de9", "fusion_lat": 0.0, "fusion_lon": 0.0, "bike_id": "d404a9b6af4c9293ac6df8f7aeff3de9", "rental_uris": {"ios": "https://dc.lft.to/lastmile_qr_scan", "android": "https://dc.lft.to/lastmile_qr_scan"}, "type": "electric_bike", "lat": 38.9993435, "is_disabled": 0, "lon": -77.00124133333334, "is_reserved": 0}, {"name": "a8c5f98972aa3f67e2f447be237d87e1", "fusion_lat": 0.0, "fusion_lon": 0.0, "bike_id": "a8c5f98972aa3f67e2f447be237d87e1", "rental_uris": {"ios": "https://dc.lft.to/lastmile_qr_scan", "android": "https://dc.lft.to/lastmile_qr_scan"}, "type": "electric_scooter", "lat": 38.9315205, "is_disabled": 0, "lon": -77.0360775, "is_reserved": 0}, {"name": "254f5f34b33e07f45d25906fdddc9d01", "fusion_lat": 0.0, "fusion_lon": 0.0, "bike_id": "254f5f34b33e07f45d25906fdddc9d01", "rental_uris": {"ios": "https://dc.lft.to/lastmile_qr_scan", "android": "https://dc.lft.to/lastmile_qr_scan"}, "type": "electric_bike", "lat": 38.8556815, "is_disabled": 0, "lon": -77.1070705, "is_reserved": 0}, {"name": "33961c2f4a587a69eaac72e3d034d76f", "fusion_lat": 0.0, "fusion_lon": 0.0, "bike_id": "33961c2f4a587a69eaac72e3d034d76f", "rental_uris": {"ios": "https://dc.lft.to/lastmile_qr_scan", "android": "https://dc.lft.to/lastmile_qr_scan"}, "type": "electric_bike", "lat": 38.8419365, "is_disabled": 0, "lon": -77.07746833333333, "is_reserved": 0}, {"name": "aa70ccc00a2e146685d15785dfde10b8", "fusion_lat": 0.0, "fusion_lon": 0.0, "bike_id": "aa70ccc00a2e146685d15785dfde10b8", "rental_uris": {"ios": "https://dc.lft.to/lastmile_qr_scan", "android": "https://dc.lft.to/lastmile_qr_scan"}, "type": "electric_scooter", "lat": 38.8650635, "is_disabled": 0, "lon": -76.99002916666667, "is_reserved": 0}, {"name": "3e0fdfb02c96987c58e78b84b762d49b", "fusion_lat": 0.0, "fusion_lon": 0.0, "bike_id": "3e0fdfb02c96987c58e78b84b762d49b", "rental_uris": {"ios": "https://dc.lft.to/lastmile_qr_scan", "android": "https://dc.lft.to/lastmile_qr_scan"}, "type": "electric_scooter", "lat": 38.89557033333333, "is_disabled": 0, "lon": -77.00918133333333, "is_reserved": 0}, {"name": "b5f6f6bd3346c973bee74eebb72fe39a", "fusion_lat": 0.0, "fusion_lon": 0.0, "bike_id": "b5f6f6bd3346c973bee74eebb72fe39a", "rental_uris": {"ios": "https://dc.lft.to/lastmile_qr_scan", "android": "https://dc.lft.to/lastmile_qr_scan"}, "type": "electric_scooter", "lat": 38.91744816666667, "is_disabled": 0, "lon": -77.0366165, "is_reserved": 0}, {"name": "99bdd7c100dbdb197da7dbf0e2e2826a", "fusion_lat": 0.0, "fusion_lon": 0.0, "bike_id": "99bdd7c100dbdb197da7dbf0e2e2826a", "rental_uris": {"ios": "https://dc.lft.to/lastmile_qr_scan", "android": "https://dc.lft.to/lastmile_qr_scan"}, "type": "electric_scooter", "lat": 38.939589166666664, "is_disabled": 0, "lon": -77.027728, "is_reserved": 0}, {"name": "05c43acba655e6708565db39fea4c550", "fusion_lat": 0.0, "fusion_lon": 0.0, "bike_id": "05c43acba655e6708565db39fea4c550", "rental_uris": {"ios": "https://dc.lft.to/lastmile_qr_scan", "android": "https://dc.lft.to/lastmile_qr_scan"}, "type": "electric_scooter", "lat": 38.87629716666667, "is_disabled": 0, "lon": -76.96526433333334, "is_reserved": 0}, {"name": "64df1011753afde3ecf0a649d766e9e0", "fusion_lat": 0.0, "fusion_lon": 0.0, "bike_id": "64df1011753afde3ecf0a649d766e9e0", "rental_uris": {"ios": "https://dc.lft.to/lastmile_qr_scan", "android": "https://dc.lft.to/lastmile_qr_scan"}, "type": "electric_scooter", "lat": 38.88634883333334, "is_disabled": 0, "lon": -77.02252933333334, "is_reserved": 0}, {"name": "252a8081b788f96b4cb2c83e207e9b4b", "fusion_lat": 0.0, "fusion_lon": 0.0, "bike_id": "252a8081b788f96b4cb2c83e207e9b4b", "rental_uris": {"ios": "https://dc.lft.to/lastmile_qr_scan", "android": "https://dc.lft.to/lastmile_qr_scan"}, "type": "electric_scooter", "lat": 38.92241816666667, "is_disabled": 0, "lon": -77.028478, "is_reserved": 0}, {"name": "744c0849bdc87c29f5ec0d9ff3b58bc6", "fusion_lat": 0.0, "fusion_lon": 0.0, "bike_id": "744c0849bdc87c29f5ec0d9ff3b58bc6", "rental_uris": {"ios": "https://dc.lft.to/lastmile_qr_scan", "android": "https://dc.lft.to/lastmile_qr_scan"}, "type": "electric_scooter", "lat": 38.91029916666667, "is_disabled": 0, "lon": -77.03840633333333, "is_reserved": 0}, {"name": "735a52c53f3c3c1c381e4f93c0ef67d8", "fusion_lat": 0.0, "fusion_lon": 0.0, "bike_id": "735a52c53f3c3c1c381e4f93c0ef67d8", "rental_uris": {"ios": "https://dc.lft.to/lastmile_qr_scan", "android": "https://dc.lft.to/lastmile_qr_scan"}, "type": "electric_scooter", "lat": 38.899176, "is_disabled": 0, "lon": -76.93368833333334, "is_reserved": 0}, {"name": "b76aeac1273a423e1f35359df648296a", "fusion_lat": 0.0, "fusion_lon": 0.0, "bike_id": "b76aeac1273a423e1f35359df648296a", "rental_uris": {"ios": "https://dc.lft.to/lastmile_qr_scan", "android": "https://dc.lft.to/lastmile_qr_scan"}, "type": "electric_scooter", "lat": 38.90784633333333, "is_disabled": 0, "lon": -77.04494566666666, "is_reserved": 0}, {"name": "5159cfd70a62724d7697701605b5efc6", "fusion_lat": 0.0, "fusion_lon": 0.0, "bike_id": "5159cfd70a62724d7697701605b5efc6", "rental_uris": {"ios": "https://dc.lft.to/lastmile_qr_scan", "android": "https://dc.lft.to/lastmile_qr_scan"}, "type": "electric_bike", "lat": 39.02298283333333, "is_disabled": 0, "lon": -77.02103883333334, "is_reserved": 0}, {"name": "1a52a6849efa37d8209332d7d8c7f8b1", "fusion_lat": 0.0, "fusion_lon": 0.0, "bike_id": "1a52a6849efa37d8209332d7d8c7f8b1", "rental_uris": {"ios": "https://dc.lft.to/lastmile_qr_scan", "android": "https://dc.lft.to/lastmile_qr_scan"}, "type": "electric_scooter", "lat": 38.89968866666667, "is_disabled": 0, "lon": -76.93778516666667, "is_reserved": 0}, {"name": "6bcc375a47926d1fec21f9c03b70508d", "fusion_lat": 0.0, "fusion_lon": 0.0, "bike_id": "6bcc375a47926d1fec21f9c03b70508d", "rental_uris": {"ios": "https://dc.lft.to/lastmile_qr_scan", "android": "https://dc.lft.to/lastmile_qr_scan"}, "type": "electric_bike", "lat": 38.86378966666667, "is_disabled": 0, "lon": -77.12898033333333, "is_reserved": 0}, {"name": "ec68f9b937b8484b1bc240ba44d5e9dd", "fusion_lat": 0.0, "fusion_lon": 0.0, "bike_id": "ec68f9b937b8484b1bc240ba44d5e9dd", "rental_uris": {"ios": "https://dc.lft.to/lastmile_qr_scan", "android": "https://dc.lft.to/lastmile_qr_scan"}, "type": "electric_scooter", "lat": 38.900077833333334, "is_disabled": 0, "lon": -77.01030966666667, "is_reserved": 0}, {"name": "1b63411920eee83c11952e9796253dff", "fusion_lat": 0.0, "fusion_lon": 0.0, "bike_id": "1b63411920eee83c11952e9796253dff", "rental_uris": {"ios": "https://dc.lft.to/lastmile_qr_scan", "android": "https://dc.lft.to/lastmile_qr_scan"}, "type": "electric_scooter", "lat": 38.940841, "is_disabled": 0, "lon": -77.02723783333333, "is_reserved": 0}, {"name": "e8597b01ed6b08384eaa1a524afb8cfb", "fusion_lat": 0.0, "fusion_lon": 0.0, "bike_id": "e8597b01ed6b08384eaa1a524afb8cfb", "rental_uris": {"ios": "https://dc.lft.to/lastmile_qr_scan", "android": "https://dc.lft.to/lastmile_qr_scan"}, "type": "electric_scooter", "lat": 38.89763383333333, "is_disabled": 0, "lon": -77.05165583333333, "is_reserved": 0}, {"name": "ba452dc93a6621f0bcecb1b9fd40ecb6", "fusion_lat": 0.0, "fusion_lon": 0.0, "bike_id": "ba452dc93a6621f0bcecb1b9fd40ecb6", "rental_uris": {"ios": "https://dc.lft.to/lastmile_qr_scan", "android": "https://dc.lft.to/lastmile_qr_scan"}, "type": "electric_scooter", "lat": 38.91666716666667, "is_disabled": 0, "lon": -77.02322616666666, "is_reserved": 0}, {"name": "ba9e1541bb660510e246297f7299873f", "fusion_lat": 0.0, "fusion_lon": 0.0, "bike_id": "ba9e1541bb660510e246297f7299873f", "rental_uris": {"ios": "https://dc.lft.to/lastmile_qr_scan", "android": "https://dc.lft.to/lastmile_qr_scan"}, "type": "electric_scooter", "lat": 38.90338116666667, "is_disabled": 0, "lon": -77.04337666666666, "is_reserved": 0}, {"name": "9c5c341fe678b623b7ef67775a7a96e0", "fusion_lat": 0.0, "fusion_lon": 0.0, "bike_id": "9c5c341fe678b623b7ef67775a7a96e0", "rental_uris": {"ios": "https://dc.lft.to/lastmile_qr_scan", "android": "https://dc.lft.to/lastmile_qr_scan"}, "type": "electric_scooter", "lat": 38.9105585, "is_disabled": 0, "lon": -77.04328933333333, "is_reserved": 0}, {"name": "c613d27465ebc38b1e979236786245d5", "fusion_lat": 0.0, "fusion_lon": 0.0, "bike_id": "c613d27465ebc38b1e979236786245d5", "rental_uris": {"ios": "https://dc.lft.to/lastmile_qr_scan", "android": "https://dc.lft.to/lastmile_qr_scan"}, "type": "electric_scooter", "lat": 38.90745866666666, "is_disabled": 0, "lon": -77.0078125, "is_reserved": 0}, {"name": "bc9b79c8b1cf8c139677c9d9db4e1245", "fusion_lat": 0.0, "fusion_lon": 0.0, "bike_id": "bc9b79c8b1cf8c139677c9d9db4e1245", "rental_uris": {"ios": "https://dc.lft.to/lastmile_qr_scan", "android": "https://dc.lft.to/lastmile_qr_scan"}, "type": "electric_scooter", "lat": 38.92441383333333, "is_disabled": 0, "lon": -77.02610166666666, "is_reserved": 0}, {"name": "be0092f1a09f241555d5526a65c7d82d", "fusion_lat": 0.0, "fusion_lon": 0.0, "bike_id": "be0092f1a09f241555d5526a65c7d82d", "rental_uris": {"ios": "https://dc.lft.to/lastmile_qr_scan", "android": "https://dc.lft.to/lastmile_qr_scan"}, "type": "electric_scooter", "lat": 38.917708833333336, "is_disabled": 0, "lon": -77.04765716666667, "is_reserved": 0}, {"name": "1a6c53e229a2b2797e75dfc9baf70530", "fusion_lat": 0.0, "fusion_lon": 0.0, "bike_id": "1a6c53e229a2b2797e75dfc9baf70530", "rental_uris": {"ios": "https://dc.lft.to/lastmile_qr_scan", "android": "https://dc.lft.to/lastmile_qr_scan"}, "type": "electric_scooter", "lat": 38.896558166666665, "is_disabled": 0, "lon": -77.0501775, "is_reserved": 0}, {"name": "80d1e7ddf6a0c994e14b1f205db1b3a4", "fusion_lat": 0.0, "fusion_lon": 0.0, "bike_id": "80d1e7ddf6a0c994e14b1f205db1b3a4", "rental_uris": {"ios": "https://dc.lft.to/lastmile_qr_scan", "android": "https://dc.lft.to/lastmile_qr_scan"}, "type": "electric_scooter", "lat": 38.90136833333333, "is_disabled": 0, "lon": -77.031426, "is_reserved": 0}, {"name": "eb6ee9e47f2c2e02724f438d9e93ce97", "fusion_lat": 0.0, "fusion_lon": 0.0, "bike_id": "eb6ee9e47f2c2e02724f438d9e93ce97", "rental_uris": {"ios": "https://dc.lft.to/lastmile_qr_scan", "android": "https://dc.lft.to/lastmile_qr_scan"}, "type": "electric_scooter", "lat": 38.9170355, "is_disabled": 0, "lon": -77.02774683333334, "is_reserved": 0}, {"name": "0cc0f78daad151fabf2c1b65be230f82", "fusion_lat": 0.0, "fusion_lon": 0.0, "bike_id": "0cc0f78daad151fabf2c1b65be230f82", "rental_uris": {"ios": "https://dc.lft.to/lastmile_qr_scan", "android": "https://dc.lft.to/lastmile_qr_scan"}, "type": "electric_bike", "lat": 38.913594333333336, "is_disabled": 0, "lon": -77.0284615, "is_reserved": 0}, {"name": "13bfee2a0e447ab5bbe77216daaeba00", "fusion_lat": 0.0, "fusion_lon": 0.0, "bike_id": "13bfee2a0e447ab5bbe77216daaeba00", "rental_uris": {"ios": "https://dc.lft.to/lastmile_qr_scan", "android": "https://dc.lft.to/lastmile_qr_scan"}, "type": "electric_scooter", "lat": 38.96733733333333, "is_disabled": 0, "lon": -77.02761616666666, "is_reserved": 0}, {"name": "f19eab53f713511d8673f3f2d4d467a9", "fusion_lat": 0.0, "fusion_lon": 0.0, "bike_id": "f19eab53f713511d8673f3f2d4d467a9", "rental_uris": {"ios": "https://dc.lft.to/lastmile_qr_scan", "android": "https://dc.lft.to/lastmile_qr_scan"}, "type": "electric_scooter", "lat": 38.89719916666667, "is_disabled": 0, "lon": -77.04697116666667, "is_reserved": 0}, {"name": "95fdbd9f9d6b098d09f156d2fdf25393", "fusion_lat": 0.0, "fusion_lon": 0.0, "bike_id": "95fdbd9f9d6b098d09f156d2fdf25393", "rental_uris": {"ios": "https://dc.lft.to/lastmile_qr_scan", "android": "https://dc.lft.to/lastmile_qr_scan"}, "type": "electric_scooter", "lat": 38.923316666666665, "is_disabled": 0, "lon": -77.04614033333333, "is_reserved": 0}, {"name": "f4e505c223723f4198e3c2b183c2eb6a", "fusion_lat": 0.0, "fusion_lon": 0.0, "bike_id": "f4e505c223723f4198e3c2b183c2eb6a", "rental_uris": {"ios": "https://dc.lft.to/lastmile_qr_scan", "android": "https://dc.lft.to/lastmile_qr_scan"}, "type": "electric_scooter", "lat": 38.92800966666667, "is_disabled": 0, "lon": -77.01409016666666, "is_reserved": 0}, {"name": "32314eaa20265a6abcd9000292ca40c3", "fusion_lat": 0.0, "fusion_lon": 0.0, "bike_id": "32314eaa20265a6abcd9000292ca40c3", "rental_uris": {"ios": "https://dc.lft.to/lastmile_qr_scan", "android": "https://dc.lft.to/lastmile_qr_scan"}, "type": "electric_scooter", "lat": 38.86714883333333, "is_disabled": 0, "lon": -77.010084, "is_reserved": 0}, {"name": "acf3dad789173030781ca062ff2b592c", "fusion_lat": 0.0, "fusion_lon": 0.0, "bike_id": "acf3dad789173030781ca062ff2b592c", "rental_uris": {"ios": "https://dc.lft.to/lastmile_qr_scan", "android": "https://dc.lft.to/lastmile_qr_scan"}, "type": "electric_scooter", "lat": 38.918408166666666, "is_disabled": 0, "lon": -76.9655425, "is_reserved": 0}, {"name": "940e23faf44fe2c865587f0c42449195", "fusion_lat": 0.0, "fusion_lon": 0.0, "bike_id": "940e23faf44fe2c865587f0c42449195", "rental_uris": {"ios": "https://dc.lft.to/lastmile_qr_scan", "android": "https://dc.lft.to/lastmile_qr_scan"}, "type": "electric_scooter", "lat": 38.90123366666667, "is_disabled": 0, "lon": -77.030584, "is_reserved": 0}, {"name": "f3440d27ee92f75d8a6c1e5d3831e862", "fusion_lat": 0.0, "fusion_lon": 0.0, "bike_id": "f3440d27ee92f75d8a6c1e5d3831e862", "rental_uris": {"ios": "https://dc.lft.to/lastmile_qr_scan", "android": "https://dc.lft.to/lastmile_qr_scan"}, "type": "electric_scooter", "lat": 38.89390066666667, "is_disabled": 0, "lon": -76.94997133333334, "is_reserved": 0}, {"name": "ffe931b9c39215a68131e6a4bc236a24", "fusion_lat": 0.0, "fusion_lon": 0.0, "bike_id": "ffe931b9c39215a68131e6a4bc236a24", "rental_uris": {"ios": "https://dc.lft.to/lastmile_qr_scan", "android": "https://dc.lft.to/lastmile_qr_scan"}, "type": "electric_scooter", "lat": 38.90049616666667, "is_disabled": 0, "lon": -77.04816633333333, "is_reserved": 0}, {"name": "9bf409c2554b954ed7e62bb3dcad745a", "fusion_lat": 0.0, "fusion_lon": 0.0, "bike_id": "9bf409c2554b954ed7e62bb3dcad745a", "rental_uris": {"ios": "https://dc.lft.to/lastmile_qr_scan", "android": "https://dc.lft.to/lastmile_qr_scan"}, "type": "electric_scooter", "lat": 38.92693716666667, "is_disabled": 0, "lon": -77.022812, "is_reserved": 0}, {"name": "74118769d13fde361ae8ec8311f6a3d9", "fusion_lat": 0.0, "fusion_lon": 0.0, "bike_id": "74118769d13fde361ae8ec8311f6a3d9", "rental_uris": {"ios": "https://dc.lft.to/lastmile_qr_scan", "android": "https://dc.lft.to/lastmile_qr_scan"}, "type": "electric_bike", "lat": 38.952375, "is_disabled": 0, "lon": -77.00275583333334, "is_reserved": 0}, {"name": "f6d2550dc22a1ba65edb0ccae3643105", "fusion_lat": 0.0, "fusion_lon": 0.0, "bike_id": "f6d2550dc22a1ba65edb0ccae3643105", "rental_uris": {"ios": "https://dc.lft.to/lastmile_qr_scan", "android": "https://dc.lft.to/lastmile_qr_scan"}, "type": "electric_scooter", "lat": 38.91840166666667, "is_disabled": 0, "lon": -77.04179633333334, "is_reserved": 0}, {"name": "ea696a7d72a576e7316a1f185f3bdbc8", "fusion_lat": 0.0, "fusion_lon": 0.0, "bike_id": "ea696a7d72a576e7316a1f185f3bdbc8", "rental_uris": {"ios": "https://dc.lft.to/lastmile_qr_scan", "android": "https://dc.lft.to/lastmile_qr_scan"}, "type": "electric_bike", "lat": 38.854194, "is_disabled": 0, "lon": -76.90970783333333, "is_reserved": 0}, {"name": "24d25a38156942865e7aae3d0a7abcce", "fusion_lat": 0.0, "fusion_lon": 0.0, "bike_id": "24d25a38156942865e7aae3d0a7abcce", "rental_uris": {"ios": "https://dc.lft.to/lastmile_qr_scan", "android": "https://dc.lft.to/lastmile_qr_scan"}, "type": "electric_scooter", "lat": 38.89009933333333, "is_disabled": 0, "lon": -76.93738316666666, "is_reserved": 0}, {"name": "0474391ec5d29cbdf2f81756578e5f06", "fusion_lat": 0.0, "fusion_lon": 0.0, "bike_id": "0474391ec5d29cbdf2f81756578e5f06", "rental_uris": {"ios": "https://dc.lft.to/lastmile_qr_scan", "android": "https://dc.lft.to/lastmile_qr_scan"}, "type": "electric_scooter", "lat": 38.89982166666667, "is_disabled": 0, "lon": -77.04189716666667, "is_reserved": 0}, {"name": "7f6ef71d303acd5ec4be7baac54a54c2", "fusion_lat": 0.0, "fusion_lon": 0.0, "bike_id": "7f6ef71d303acd5ec4be7baac54a54c2", "rental_uris": {"ios": "https://dc.lft.to/lastmile_qr_scan", "android": "https://dc.lft.to/lastmile_qr_scan"}, "type": "electric_scooter", "lat": 38.930250666666666, "is_disabled": 0, "lon": -77.03801366666667, "is_reserved": 0}, {"name": "3d81c44c57398dd2687109c0e65d0e21", "fusion_lat": 0.0, "fusion_lon": 0.0, "bike_id": "3d81c44c57398dd2687109c0e65d0e21", "rental_uris": {"ios": "https://dc.lft.to/lastmile_qr_scan", "android": "https://dc.lft.to/lastmile_qr_scan"}, "type": "electric_scooter", "lat": 38.907152833333335, "is_disabled": 0, "lon": -77.04386383333333, "is_reserved": 0}, {"name": "94b0149c11380ba523845e20115c4103", "fusion_lat": 0.0, "fusion_lon": 0.0, "bike_id": "94b0149c11380ba523845e20115c4103", "rental_uris": {"ios": "https://dc.lft.to/lastmile_qr_scan", "android": "https://dc.lft.to/lastmile_qr_scan"}, "type": "electric_scooter", "lat": 38.90863916666667, "is_disabled": 0, "lon": -77.031843, "is_reserved": 0}, {"name": "1b6929dab11da34d046c71c06515ceb5", "fusion_lat": 0.0, "fusion_lon": 0.0, "bike_id": "1b6929dab11da34d046c71c06515ceb5", "rental_uris": {"ios": "https://dc.lft.to/lastmile_qr_scan", "android": "https://dc.lft.to/lastmile_qr_scan"}, "type": "electric_bike", "lat": 38.910073, "is_disabled": 0, "lon": -76.98418733333334, "is_reserved": 0}, {"name": "4bd0134755ada4e8c8fbafd5ccde53b5", "fusion_lat": 0.0, "fusion_lon": 0.0, "bike_id": "4bd0134755ada4e8c8fbafd5ccde53b5", "rental_uris": {"ios": "https://dc.lft.to/lastmile_qr_scan", "android": "https://dc.lft.to/lastmile_qr_scan"}, "type": "electric_scooter", "lat": 38.90773683333333, "is_disabled": 0, "lon": -77.04179616666667, "is_reserved": 0}, {"name": "f19c36e7114dab8b229cb8807c86fa33", "fusion_lat": 0.0, "fusion_lon": 0.0, "bike_id": "f19c36e7114dab8b229cb8807c86fa33", "rental_uris": {"ios": "https://dc.lft.to/lastmile_qr_scan", "android": "https://dc.lft.to/lastmile_qr_scan"}, "type": "electric_scooter", "lat": 38.911106833333335, "is_disabled": 0, "lon": -77.0408865, "is_reserved": 0}, {"name": "6dde910d9f1ad0762292f2cc40b937d2", "fusion_lat": 0.0, "fusion_lon": 0.0, "bike_id": "6dde910d9f1ad0762292f2cc40b937d2", "rental_uris": {"ios": "https://dc.lft.to/lastmile_qr_scan", "android": "https://dc.lft.to/lastmile_qr_scan"}, "type": "electric_scooter", "lat": 38.9420585, "is_disabled": 0, "lon": -77.025922, "is_reserved": 0}, {"name": "cf23eac5d9b4c931b8195900be50c1b3", "fusion_lat": 0.0, "fusion_lon": 0.0, "bike_id": "cf23eac5d9b4c931b8195900be50c1b3", "rental_uris": {"ios": "https://dc.lft.to/lastmile_qr_scan", "android": "https://dc.lft.to/lastmile_qr_scan"}, "type": "electric_scooter", "lat": 38.904600333333335, "is_disabled": 0, "lon": -77.028225, "is_reserved": 0}, {"name": "0e0fc266bab00b8a0e5cc369cd2d6b59", "fusion_lat": 0.0, "fusion_lon": 0.0, "bike_id": "0e0fc266bab00b8a0e5cc369cd2d6b59", "rental_uris": {"ios": "https://dc.lft.to/lastmile_qr_scan", "android": "https://dc.lft.to/lastmile_qr_scan"}, "type": "electric_scooter", "lat": 38.895488666666665, "is_disabled": 0, "lon": -77.00916066666667, "is_reserved": 0}, {"name": "459ccb50dff5e63bad5b8616f5ee6313", "fusion_lat": 0.0, "fusion_lon": 0.0, "bike_id": "459ccb50dff5e63bad5b8616f5ee6313", "rental_uris": {"ios": "https://dc.lft.to/lastmile_qr_scan", "android": "https://dc.lft.to/lastmile_qr_scan"}, "type": "electric_scooter", "lat": 38.90291766666667, "is_disabled": 0, "lon": -77.00213716666667, "is_reserved": 0}, {"name": "9c99ff457cecc5ae066a7b5264150216", "fusion_lat": 0.0, "fusion_lon": 0.0, "bike_id": "9c99ff457cecc5ae066a7b5264150216", "rental_uris": {"ios": "https://dc.lft.to/lastmile_qr_scan", "android": "https://dc.lft.to/lastmile_qr_scan"}, "type": "electric_scooter", "lat": 38.8989735, "is_disabled": 0, "lon": -76.99349283333333, "is_reserved": 0}, {"name": "77d72200d6262f142f356fa7af2c6e15", "fusion_lat": 0.0, "fusion_lon": 0.0, "bike_id": "77d72200d6262f142f356fa7af2c6e15", "rental_uris": {"ios": "https://dc.lft.to/lastmile_qr_scan", "android": "https://dc.lft.to/lastmile_qr_scan"}, "type": "electric_scooter", "lat": 38.93612433333333, "is_disabled": 0, "lon": -77.0328935, "is_reserved": 0}, {"name": "57f5cf57533c73c6a1ab437a7ca01cf8", "fusion_lat": 0.0, "fusion_lon": 0.0, "bike_id": "57f5cf57533c73c6a1ab437a7ca01cf8", "rental_uris": {"ios": "https://dc.lft.to/lastmile_qr_scan", "android": "https://dc.lft.to/lastmile_qr_scan"}, "type": "electric_scooter", "lat": 38.91716983333333, "is_disabled": 0, "lon": -77.0344465, "is_reserved": 0}, {"name": "6d6f1c4a855ddd1ab7b3ac4688f07cb3", "fusion_lat": 0.0, "fusion_lon": 0.0, "bike_id": "6d6f1c4a855ddd1ab7b3ac4688f07cb3", "rental_uris": {"ios": "https://dc.lft.to/lastmile_qr_scan", "android": "https://dc.lft.to/lastmile_qr_scan"}, "type": "electric_scooter", "lat": 38.918432333333335, "is_disabled": 0, "lon": -77.03535433333333, "is_reserved": 0}, {"name": "00d1bea1305ba804e0c1bf408b085369", "fusion_lat": 0.0, "fusion_lon": 0.0, "bike_id": "00d1bea1305ba804e0c1bf408b085369", "rental_uris": {"ios": "https://dc.lft.to/lastmile_qr_scan", "android": "https://dc.lft.to/lastmile_qr_scan"}, "type": "electric_scooter", "lat": 38.917699999999996, "is_disabled": 0, "lon": -77.03447866666667, "is_reserved": 0}, {"name": "b5444720bd5c1966a4a655d540a80438", "fusion_lat": 0.0, "fusion_lon": 0.0, "bike_id": "b5444720bd5c1966a4a655d540a80438", "rental_uris": {"ios": "https://dc.lft.to/lastmile_qr_scan", "android": "https://dc.lft.to/lastmile_qr_scan"}, "type": "electric_scooter", "lat": 38.910346833333335, "is_disabled": 0, "lon": -77.04013983333333, "is_reserved": 0}, {"name": "be114fd669a9161527ea89c8f07d9188", "fusion_lat": 0.0, "fusion_lon": 0.0, "bike_id": "be114fd669a9161527ea89c8f07d9188", "rental_uris": {"ios": "https://dc.lft.to/lastmile_qr_scan", "android": "https://dc.lft.to/lastmile_qr_scan"}, "type": "electric_scooter", "lat": 38.858087166666664, "is_disabled": 0, "lon": -76.98652966666667, "is_reserved": 0}, {"name": "e513352ca2246445e1e6a9576e2cc1ae", "fusion_lat": 0.0, "fusion_lon": 0.0, "bike_id": "e513352ca2246445e1e6a9576e2cc1ae", "rental_uris": {"ios": "https://dc.lft.to/lastmile_qr_scan", "android": "https://dc.lft.to/lastmile_qr_scan"}, "type": "electric_scooter", "lat": 38.913129833333336, "is_disabled": 0, "lon": -76.98652633333333, "is_reserved": 0}, {"name": "3328b5096488a9bb18e19b0135e42aee", "fusion_lat": 0.0, "fusion_lon": 0.0, "bike_id": "3328b5096488a9bb18e19b0135e42aee", "rental_uris": {"ios": "https://dc.lft.to/lastmile_qr_scan", "android": "https://dc.lft.to/lastmile_qr_scan"}, "type": "electric_bike", "lat": 38.909927333333336, "is_disabled": 0, "lon": -77.00468583333334, "is_reserved": 0}, {"name": "e23a18fa6dfeb2c15f14aacd738e24af", "fusion_lat": 0.0, "fusion_lon": 0.0, "bike_id": "e23a18fa6dfeb2c15f14aacd738e24af", "rental_uris": {"ios": "https://dc.lft.to/lastmile_qr_scan", "android": "https://dc.lft.to/lastmile_qr_scan"}, "type": "electric_scooter", "lat": 38.95609116666667, "is_disabled": 0, "lon": -77.027897, "is_reserved": 0}, {"name": "f8a8fc6043b1c110dac95e9c7acd2fe4", "fusion_lat": 0.0, "fusion_lon": 0.0, "bike_id": "f8a8fc6043b1c110dac95e9c7acd2fe4", "rental_uris": {"ios": "https://dc.lft.to/lastmile_qr_scan", "android": "https://dc.lft.to/lastmile_qr_scan"}, "type": "electric_bike", "lat": 38.93563483333333, "is_disabled": 0, "lon": -76.95461016666667, "is_reserved": 0}, {"name": "3bf95281ead1ff560402f77af40141ca", "fusion_lat": 0.0, "fusion_lon": 0.0, "bike_id": "3bf95281ead1ff560402f77af40141ca", "rental_uris": {"ios": "https://dc.lft.to/lastmile_qr_scan", "android": "https://dc.lft.to/lastmile_qr_scan"}, "type": "electric_scooter", "lat": 38.8621115, "is_disabled": 0, "lon": -76.99472966666667, "is_reserved": 0}, {"name": "d92b849a3491081c312f0d9afdf40902", "fusion_lat": 0.0, "fusion_lon": 0.0, "bike_id": "d92b849a3491081c312f0d9afdf40902", "rental_uris": {"ios": "https://dc.lft.to/lastmile_qr_scan", "android": "https://dc.lft.to/lastmile_qr_scan"}, "type": "electric_bike", "lat": 38.917012166666666, "is_disabled": 0, "lon": -77.22110883333333, "is_reserved": 0}, {"name": "733b709b2a1cbef2ecbce08450cfe4ef", "fusion_lat": 0.0, "fusion_lon": 0.0, "bike_id": "733b709b2a1cbef2ecbce08450cfe4ef", "rental_uris": {"ios": "https://dc.lft.to/lastmile_qr_scan", "android": "https://dc.lft.to/lastmile_qr_scan"}, "type": "electric_scooter", "lat": 38.87628516666667, "is_disabled": 0, "lon": -77.0081385, "is_reserved": 0}, {"name": "b07967318fe9f05dc5ced2adba6a6713", "fusion_lat": 0.0, "fusion_lon": 0.0, "bike_id": "b07967318fe9f05dc5ced2adba6a6713", "rental_uris": {"ios": "https://dc.lft.to/lastmile_qr_scan", "android": "https://dc.lft.to/lastmile_qr_scan"}, "type": "electric_scooter", "lat": 38.939556, "is_disabled": 0, "lon": -77.0277855, "is_reserved": 0}, {"name": "c2022557f9048ffc660f17a2d0d4bb40", "fusion_lat": 0.0, "fusion_lon": 0.0, "bike_id": "c2022557f9048ffc660f17a2d0d4bb40", "rental_uris": {"ios": "https://dc.lft.to/lastmile_qr_scan", "android": "https://dc.lft.to/lastmile_qr_scan"}, "type": "electric_scooter", "lat": 38.90038333333333, "is_disabled": 0, "lon": -77.0122515, "is_reserved": 0}, {"name": "b6275092608e26f59486f95ccad5d718", "fusion_lat": 0.0, "fusion_lon": 0.0, "bike_id": "b6275092608e26f59486f95ccad5d718", "rental_uris": {"ios": "https://dc.lft.to/lastmile_qr_scan", "android": "https://dc.lft.to/lastmile_qr_scan"}, "type": "electric_bike", "lat": 39.0388645, "is_disabled": 0, "lon": -77.1090785, "is_reserved": 0}, {"name": "fc2e63e5d7b0573d55d97c8b58b1d72b", "fusion_lat": 0.0, "fusion_lon": 0.0, "bike_id": "fc2e63e5d7b0573d55d97c8b58b1d72b", "rental_uris": {"ios": "https://dc.lft.to/lastmile_qr_scan", "android": "https://dc.lft.to/lastmile_qr_scan"}, "type": "electric_scooter", "lat": 38.90136566666666, "is_disabled": 0, "lon": -77.03245466666667, "is_reserved": 0}, {"name": "e31cfcf87144e646c1fbd520c77c5e8a", "fusion_lat": 0.0, "fusion_lon": 0.0, "bike_id": "e31cfcf87144e646c1fbd520c77c5e8a", "rental_uris": {"ios": "https://dc.lft.to/lastmile_qr_scan", "android": "https://dc.lft.to/lastmile_qr_scan"}, "type": "electric_scooter", "lat": 38.91692533333333, "is_disabled": 0, "lon": -77.03167133333334, "is_reserved": 0}, {"name": "dc5a4b5363b77a177fb78aa54665d100", "fusion_lat": 0.0, "fusion_lon": 0.0, "bike_id": "dc5a4b5363b77a177fb78aa54665d100", "rental_uris": {"ios": "https://dc.lft.to/lastmile_qr_scan", "android": "https://dc.lft.to/lastmile_qr_scan"}, "type": "electric_scooter", "lat": 38.9136145, "is_disabled": 0, "lon": -77.041642, "is_reserved": 0}, {"name": "909794de208360d2066b84d45f65c7a0", "fusion_lat": 0.0, "fusion_lon": 0.0, "bike_id": "909794de208360d2066b84d45f65c7a0", "rental_uris": {"ios": "https://dc.lft.to/lastmile_qr_scan", "android": "https://dc.lft.to/lastmile_qr_scan"}, "type": "electric_scooter", "lat": 38.905842, "is_disabled": 0, "lon": -77.0218155, "is_reserved": 0}, {"name": "0a2440d4afb54eaf763c935eb825c905", "fusion_lat": 0.0, "fusion_lon": 0.0, "bike_id": "0a2440d4afb54eaf763c935eb825c905", "rental_uris": {"ios": "https://dc.lft.to/lastmile_qr_scan", "android": "https://dc.lft.to/lastmile_qr_scan"}, "type": "electric_scooter", "lat": 38.92231833333334, "is_disabled": 0, "lon": -76.9753315, "is_reserved": 0}, {"name": "5c4465bd59ce5968fa11e5f9b9d28352", "fusion_lat": 0.0, "fusion_lon": 0.0, "bike_id": "5c4465bd59ce5968fa11e5f9b9d28352", "rental_uris": {"ios": "https://dc.lft.to/lastmile_qr_scan", "android": "https://dc.lft.to/lastmile_qr_scan"}, "type": "electric_scooter", "lat": 38.903806, "is_disabled": 0, "lon": -77.01763766666667, "is_reserved": 0}, {"name": "028cd5f1bcb066885eb619c6a6f3d8b3", "fusion_lat": 0.0, "fusion_lon": 0.0, "bike_id": "028cd5f1bcb066885eb619c6a6f3d8b3", "rental_uris": {"ios": "https://dc.lft.to/lastmile_qr_scan", "android": "https://dc.lft.to/lastmile_qr_scan"}, "type": "electric_scooter", "lat": 38.90243366666667, "is_disabled": 0, "lon": -77.017525, "is_reserved": 0}, {"name": "910832a1bd0ac6b411d6aef8ecfa1c51", "fusion_lat": 0.0, "fusion_lon": 0.0, "bike_id": "910832a1bd0ac6b411d6aef8ecfa1c51", "rental_uris": {"ios": "https://dc.lft.to/lastmile_qr_scan", "android": "https://dc.lft.to/lastmile_qr_scan"}, "type": "electric_scooter", "lat": 38.916118833333336, "is_disabled": 0, "lon": -77.048762, "is_reserved": 0}, {"name": "110843258867955499dcd2033055d542", "fusion_lat": 0.0, "fusion_lon": 0.0, "bike_id": "110843258867955499dcd2033055d542", "rental_uris": {"ios": "https://dc.lft.to/lastmile_qr_scan", "android": "https://dc.lft.to/lastmile_qr_scan"}, "type": "electric_scooter", "lat": 38.919262833333335, "is_disabled": 0, "lon": -77.042416, "is_reserved": 0}, {"name": "caf7f4abb173b844b7730ab7c9be963d", "fusion_lat": 0.0, "fusion_lon": 0.0, "bike_id": "caf7f4abb173b844b7730ab7c9be963d", "rental_uris": {"ios": "https://dc.lft.to/lastmile_qr_scan", "android": "https://dc.lft.to/lastmile_qr_scan"}, "type": "electric_scooter", "lat": 38.897350833333334, "is_disabled": 0, "lon": -77.03348483333333, "is_reserved": 0}, {"name": "bd6c4746ed64a3df5115ce1c09d7c811", "fusion_lat": 0.0, "fusion_lon": 0.0, "bike_id": "bd6c4746ed64a3df5115ce1c09d7c811", "rental_uris": {"ios": "https://dc.lft.to/lastmile_qr_scan", "android": "https://dc.lft.to/lastmile_qr_scan"}, "type": "electric_scooter", "lat": 38.887215833333336, "is_disabled": 0, "lon": -76.996469, "is_reserved": 0}, {"name": "54d323a964aa83c357646a16488cfe9d", "fusion_lat": 0.0, "fusion_lon": 0.0, "bike_id": "54d323a964aa83c357646a16488cfe9d", "rental_uris": {"ios": "https://dc.lft.to/lastmile_qr_scan", "android": "https://dc.lft.to/lastmile_qr_scan"}, "type": "electric_scooter", "lat": 38.905128166666664, "is_disabled": 0, "lon": -77.0578735, "is_reserved": 0}, {"name": "0c653e7ab512df3cb5c03496edb2f25b", "fusion_lat": 0.0, "fusion_lon": 0.0, "bike_id": "0c653e7ab512df3cb5c03496edb2f25b", "rental_uris": {"ios": "https://dc.lft.to/lastmile_qr_scan", "android": "https://dc.lft.to/lastmile_qr_scan"}, "type": "electric_scooter", "lat": 38.884915, "is_disabled": 0, "lon": -77.01524683333334, "is_reserved": 0}, {"name": "99496eb1073869117a647768e3c204c3", "fusion_lat": 0.0, "fusion_lon": 0.0, "bike_id": "99496eb1073869117a647768e3c204c3", "rental_uris": {"ios": "https://dc.lft.to/lastmile_qr_scan", "android": "https://dc.lft.to/lastmile_qr_scan"}, "type": "electric_scooter", "lat": 38.911188333333335, "is_disabled": 0, "lon": -77.04462983333333, "is_reserved": 0}, {"name": "b6d7328278e8f0077a89747a1ee09d7f", "fusion_lat": 0.0, "fusion_lon": 0.0, "bike_id": "b6d7328278e8f0077a89747a1ee09d7f", "rental_uris": {"ios": "https://dc.lft.to/lastmile_qr_scan", "android": "https://dc.lft.to/lastmile_qr_scan"}, "type": "electric_scooter", "lat": 38.904474666666665, "is_disabled": 0, "lon": -77.0325285, "is_reserved": 0}, {"name": "4b894e40151ca66e481f84748de1cde3", "fusion_lat": 0.0, "fusion_lon": 0.0, "bike_id": "4b894e40151ca66e481f84748de1cde3", "rental_uris": {"ios": "https://dc.lft.to/lastmile_qr_scan", "android": "https://dc.lft.to/lastmile_qr_scan"}, "type": "electric_scooter", "lat": 38.897235, "is_disabled": 0, "lon": -77.04796366666666, "is_reserved": 0}, {"name": "38af47d68af81d5a2a6e76bfaf2f7186", "fusion_lat": 0.0, "fusion_lon": 0.0, "bike_id": "38af47d68af81d5a2a6e76bfaf2f7186", "rental_uris": {"ios": "https://dc.lft.to/lastmile_qr_scan", "android": "https://dc.lft.to/lastmile_qr_scan"}, "type": "electric_scooter", "lat": 38.9126955, "is_disabled": 0, "lon": -77.0415595, "is_reserved": 0}, {"name": "a84265c32a121c4ca8d4ac23dabedfc6", "fusion_lat": 0.0, "fusion_lon": 0.0, "bike_id": "a84265c32a121c4ca8d4ac23dabedfc6", "rental_uris": {"ios": "https://dc.lft.to/lastmile_qr_scan", "android": "https://dc.lft.to/lastmile_qr_scan"}, "type": "electric_scooter", "lat": 38.897364, "is_disabled": 0, "lon": -77.04696316666667, "is_reserved": 0}, {"name": "51dcc0ef0c352634fbe91ee93e52eaa9", "fusion_lat": 0.0, "fusion_lon": 0.0, "bike_id": "51dcc0ef0c352634fbe91ee93e52eaa9", "rental_uris": {"ios": "https://dc.lft.to/lastmile_qr_scan", "android": "https://dc.lft.to/lastmile_qr_scan"}, "type": "electric_scooter", "lat": 38.92874666666667, "is_disabled": 0, "lon": -77.034526, "is_reserved": 0}, {"name": "9c12e49d8eb1f50b00156ff10b4e5301", "fusion_lat": 0.0, "fusion_lon": 0.0, "bike_id": "9c12e49d8eb1f50b00156ff10b4e5301", "rental_uris": {"ios": "https://dc.lft.to/lastmile_qr_scan", "android": "https://dc.lft.to/lastmile_qr_scan"}, "type": "electric_scooter", "lat": 38.900176333333334, "is_disabled": 0, "lon": -77.043958, "is_reserved": 0}, {"name": "6afb262567e5b3d04429493577bc8ad7", "fusion_lat": 0.0, "fusion_lon": 0.0, "bike_id": "6afb262567e5b3d04429493577bc8ad7", "rental_uris": {"ios": "https://dc.lft.to/lastmile_qr_scan", "android": "https://dc.lft.to/lastmile_qr_scan"}, "type": "electric_bike", "lat": 38.8990905, "is_disabled": 0, "lon": -76.986338, "is_reserved": 0}, {"name": "e9e9861456ac43abcbf5bffe208a4c45", "fusion_lat": 0.0, "fusion_lon": 0.0, "bike_id": "e9e9861456ac43abcbf5bffe208a4c45", "rental_uris": {"ios": "https://dc.lft.to/lastmile_qr_scan", "android": "https://dc.lft.to/lastmile_qr_scan"}, "type": "electric_scooter", "lat": 38.9013305, "is_disabled": 0, "lon": -77.02889533333334, "is_reserved": 0}, {"name": "f193417c83832e556a98b8c23197225d", "fusion_lat": 0.0, "fusion_lon": 0.0, "bike_id": "f193417c83832e556a98b8c23197225d", "rental_uris": {"ios": "https://dc.lft.to/lastmile_qr_scan", "android": "https://dc.lft.to/lastmile_qr_scan"}, "type": "electric_scooter", "lat": 38.96217216666667, "is_disabled": 0, "lon": -77.02809033333334, "is_reserved": 0}, {"name": "4801a7f44c25e6d442839a34c4178f3d", "fusion_lat": 0.0, "fusion_lon": 0.0, "bike_id": "4801a7f44c25e6d442839a34c4178f3d", "rental_uris": {"ios": "https://dc.lft.to/lastmile_qr_scan", "android": "https://dc.lft.to/lastmile_qr_scan"}, "type": "electric_scooter", "lat": 38.901370666666665, "is_disabled": 0, "lon": -77.016395, "is_reserved": 0}, {"name": "3361253ec94d55f979bc9568bedcec6f", "fusion_lat": 0.0, "fusion_lon": 0.0, "bike_id": "3361253ec94d55f979bc9568bedcec6f", "rental_uris": {"ios": "https://dc.lft.to/lastmile_qr_scan", "android": "https://dc.lft.to/lastmile_qr_scan"}, "type": "electric_scooter", "lat": 38.942834166666664, "is_disabled": 0, "lon": -77.03633233333333, "is_reserved": 0}, {"name": "cd997990e21e2e11f4ae85c12f9f760e", "fusion_lat": 0.0, "fusion_lon": 0.0, "bike_id": "cd997990e21e2e11f4ae85c12f9f760e", "rental_uris": {"ios": "https://dc.lft.to/lastmile_qr_scan", "android": "https://dc.lft.to/lastmile_qr_scan"}, "type": "electric_scooter", "lat": 38.873770666666665, "is_disabled": 0, "lon": -77.00150783333333, "is_reserved": 0}, {"name": "212ae18255b44dd6af9dea1b0336a6cb", "fusion_lat": 0.0, "fusion_lon": 0.0, "bike_id": "212ae18255b44dd6af9dea1b0336a6cb", "rental_uris": {"ios": "https://dc.lft.to/lastmile_qr_scan", "android": "https://dc.lft.to/lastmile_qr_scan"}, "type": "electric_scooter", "lat": 38.858134, "is_disabled": 0, "lon": -76.98965333333334, "is_reserved": 0}, {"name": "7aa4e6eb5fb3cb517cd4d827825cbdd9", "fusion_lat": 0.0, "fusion_lon": 0.0, "bike_id": "7aa4e6eb5fb3cb517cd4d827825cbdd9", "rental_uris": {"ios": "https://dc.lft.to/lastmile_qr_scan", "android": "https://dc.lft.to/lastmile_qr_scan"}, "type": "electric_scooter", "lat": 38.9497985, "is_disabled": 0, "lon": -77.0270535, "is_reserved": 0}, {"name": "c59479e1a4d40decf652d6d9d2800abb", "fusion_lat": 0.0, "fusion_lon": 0.0, "bike_id": "c59479e1a4d40decf652d6d9d2800abb", "rental_uris": {"ios": "https://dc.lft.to/lastmile_qr_scan", "android": "https://dc.lft.to/lastmile_qr_scan"}, "type": "electric_scooter", "lat": 38.93750266666667, "is_disabled": 0, "lon": -77.02481983333334, "is_reserved": 0}, {"name": "5f2f23086c56ee06858f9fe8c08e7482", "fusion_lat": 0.0, "fusion_lon": 0.0, "bike_id": "5f2f23086c56ee06858f9fe8c08e7482", "rental_uris": {"ios": "https://dc.lft.to/lastmile_qr_scan", "android": "https://dc.lft.to/lastmile_qr_scan"}, "type": "electric_scooter", "lat": 38.84799483333333, "is_disabled": 0, "lon": -76.96713833333334, "is_reserved": 0}, {"name": "99db9f3c6058ac40bc2767af4f8b8c9b", "fusion_lat": 0.0, "fusion_lon": 0.0, "bike_id": "99db9f3c6058ac40bc2767af4f8b8c9b", "rental_uris": {"ios": "https://dc.lft.to/lastmile_qr_scan", "android": "https://dc.lft.to/lastmile_qr_scan"}, "type": "electric_scooter", "lat": 38.938593, "is_disabled": 0, "lon": -77.024742, "is_reserved": 0}, {"name": "c63fc8998279a42714893de9a2d896b7", "fusion_lat": 0.0, "fusion_lon": 0.0, "bike_id": "c63fc8998279a42714893de9a2d896b7", "rental_uris": {"ios": "https://dc.lft.to/lastmile_qr_scan", "android": "https://dc.lft.to/lastmile_qr_scan"}, "type": "electric_scooter", "lat": 38.8953605, "is_disabled": 0, "lon": -77.00343516666666, "is_reserved": 0}, {"name": "8ba7e25e7ddb856932ab67cf82689615", "fusion_lat": 0.0, "fusion_lon": 0.0, "bike_id": "8ba7e25e7ddb856932ab67cf82689615", "rental_uris": {"ios": "https://dc.lft.to/lastmile_qr_scan", "android": "https://dc.lft.to/lastmile_qr_scan"}, "type": "electric_scooter", "lat": 38.899942, "is_disabled": 0, "lon": -77.02719733333333, "is_reserved": 0}, {"name": "6d8894d880b821c1d8c5571be67fcf8f", "fusion_lat": 0.0, "fusion_lon": 0.0, "bike_id": "6d8894d880b821c1d8c5571be67fcf8f", "rental_uris": {"ios": "https://dc.lft.to/lastmile_qr_scan", "android": "https://dc.lft.to/lastmile_qr_scan"}, "type": "electric_scooter", "lat": 38.910788833333335, "is_disabled": 0, "lon": -77.00152283333334, "is_reserved": 0}, {"name": "855f7603bcdeca5cec98a53479374fe0", "fusion_lat": 0.0, "fusion_lon": 0.0, "bike_id": "855f7603bcdeca5cec98a53479374fe0", "rental_uris": {"ios": "https://dc.lft.to/lastmile_qr_scan", "android": "https://dc.lft.to/lastmile_qr_scan"}, "type": "electric_scooter", "lat": 38.917508833333336, "is_disabled": 0, "lon": -77.04770733333334, "is_reserved": 0}, {"name": "f6209688c88e6d7833e0afaf34cf979d", "fusion_lat": 0.0, "fusion_lon": 0.0, "bike_id": "f6209688c88e6d7833e0afaf34cf979d", "rental_uris": {"ios": "https://dc.lft.to/lastmile_qr_scan", "android": "https://dc.lft.to/lastmile_qr_scan"}, "type": "electric_scooter", "lat": 38.916369, "is_disabled": 0, "lon": -77.05060883333333, "is_reserved": 0}, {"name": "cab8d8873fcdf176562360bc984e0cfd", "fusion_lat": 0.0, "fusion_lon": 0.0, "bike_id": "cab8d8873fcdf176562360bc984e0cfd", "rental_uris": {"ios": "https://dc.lft.to/lastmile_qr_scan", "android": "https://dc.lft.to/lastmile_qr_scan"}, "type": "electric_scooter", "lat": 38.93192766666667, "is_disabled": 0, "lon": -77.0283465, "is_reserved": 0}, {"name": "c5d76d30607320fdb3d94e5f6bae859f", "fusion_lat": 0.0, "fusion_lon": 0.0, "bike_id": "c5d76d30607320fdb3d94e5f6bae859f", "rental_uris": {"ios": "https://dc.lft.to/lastmile_qr_scan", "android": "https://dc.lft.to/lastmile_qr_scan"}, "type": "electric_scooter", "lat": 38.89009, "is_disabled": 0, "lon": -76.9373505, "is_reserved": 0}, {"name": "687c9dd0753ce13c42fe0d00cec97d8d", "fusion_lat": 0.0, "fusion_lon": 0.0, "bike_id": "687c9dd0753ce13c42fe0d00cec97d8d", "rental_uris": {"ios": "https://dc.lft.to/lastmile_qr_scan", "android": "https://dc.lft.to/lastmile_qr_scan"}, "type": "electric_bike", "lat": 38.865988333333334, "is_disabled": 0, "lon": -76.932253, "is_reserved": 0}, {"name": "efee1af7b1e3e098c8f122bd8f9bd7a6", "fusion_lat": 0.0, "fusion_lon": 0.0, "bike_id": "efee1af7b1e3e098c8f122bd8f9bd7a6", "rental_uris": {"ios": "https://dc.lft.to/lastmile_qr_scan", "android": "https://dc.lft.to/lastmile_qr_scan"}, "type": "electric_scooter", "lat": 38.9199305, "is_disabled": 0, "lon": -76.98395183333334, "is_reserved": 0}, {"name": "47dd7212d9d1068ec5ef1ca00ea0f7a4", "fusion_lat": 0.0, "fusion_lon": 0.0, "bike_id": "47dd7212d9d1068ec5ef1ca00ea0f7a4", "rental_uris": {"ios": "https://dc.lft.to/lastmile_qr_scan", "android": "https://dc.lft.to/lastmile_qr_scan"}, "type": "electric_scooter", "lat": 38.89859516666667, "is_disabled": 0, "lon": -77.026075, "is_reserved": 0}, {"name": "bbbf8c0a9fa2a6676db019a90b97563b", "fusion_lat": 0.0, "fusion_lon": 0.0, "bike_id": "bbbf8c0a9fa2a6676db019a90b97563b", "rental_uris": {"ios": "https://dc.lft.to/lastmile_qr_scan", "android": "https://dc.lft.to/lastmile_qr_scan"}, "type": "electric_bike", "lat": 38.80577383333333, "is_disabled": 0, "lon": -77.06065183333334, "is_reserved": 0}, {"name": "46bc070bbd877d26366c4463c32a46ef", "fusion_lat": 0.0, "fusion_lon": 0.0, "bike_id": "46bc070bbd877d26366c4463c32a46ef", "rental_uris": {"ios": "https://dc.lft.to/lastmile_qr_scan", "android": "https://dc.lft.to/lastmile_qr_scan"}, "type": "electric_scooter", "lat": 38.917562, "is_disabled": 0, "lon": -77.04161283333333, "is_reserved": 0}, {"name": "ecff5bfbfdad4f418c3dc961277b9fa5", "fusion_lat": 0.0, "fusion_lon": 0.0, "bike_id": "ecff5bfbfdad4f418c3dc961277b9fa5", "rental_uris": {"ios": "https://dc.lft.to/lastmile_qr_scan", "android": "https://dc.lft.to/lastmile_qr_scan"}, "type": "electric_scooter", "lat": 38.897564, "is_disabled": 0, "lon": -77.05143466666667, "is_reserved": 0}, {"name": "1f522e0f5a3e2c25f4debcbe730bf744", "fusion_lat": 0.0, "fusion_lon": 0.0, "bike_id": "1f522e0f5a3e2c25f4debcbe730bf744", "rental_uris": {"ios": "https://dc.lft.to/lastmile_qr_scan", "android": "https://dc.lft.to/lastmile_qr_scan"}, "type": "electric_scooter", "lat": 38.8974315, "is_disabled": 0, "lon": -77.04720033333334, "is_reserved": 0}, {"name": "6837a9669ecd908ebba3dceab6e72fa2", "fusion_lat": 0.0, "fusion_lon": 0.0, "bike_id": "6837a9669ecd908ebba3dceab6e72fa2", "rental_uris": {"ios": "https://dc.lft.to/lastmile_qr_scan", "android": "https://dc.lft.to/lastmile_qr_scan"}, "type": "electric_scooter", "lat": 38.915398333333336, "is_disabled": 0, "lon": -77.022061, "is_reserved": 0}, {"name": "8871ee4c4896da302fe8f26b0c38b3f3", "fusion_lat": 0.0, "fusion_lon": 0.0, "bike_id": "8871ee4c4896da302fe8f26b0c38b3f3", "rental_uris": {"ios": "https://dc.lft.to/lastmile_qr_scan", "android": "https://dc.lft.to/lastmile_qr_scan"}, "type": "electric_scooter", "lat": 38.91183783333334, "is_disabled": 0, "lon": -77.03740516666667, "is_reserved": 0}, {"name": "78fde62631dc84e7a748774d9e70a893", "fusion_lat": 0.0, "fusion_lon": 0.0, "bike_id": "78fde62631dc84e7a748774d9e70a893", "rental_uris": {"ios": "https://dc.lft.to/lastmile_qr_scan", "android": "https://dc.lft.to/lastmile_qr_scan"}, "type": "electric_bike", "lat": 38.852113, "is_disabled": 0, "lon": -77.12752183333333, "is_reserved": 0}, {"name": "682fc7db14f15e41072cbf4ea780d479", "fusion_lat": 0.0, "fusion_lon": 0.0, "bike_id": "682fc7db14f15e41072cbf4ea780d479", "rental_uris": {"ios": "https://dc.lft.to/lastmile_qr_scan", "android": "https://dc.lft.to/lastmile_qr_scan"}, "type": "electric_scooter", "lat": 38.90834016666667, "is_disabled": 0, "lon": -76.99701, "is_reserved": 0}, {"name": "4b815d630effba5716115cfafbc4aa98", "fusion_lat": 0.0, "fusion_lon": 0.0, "bike_id": "4b815d630effba5716115cfafbc4aa98", "rental_uris": {"ios": "https://dc.lft.to/lastmile_qr_scan", "android": "https://dc.lft.to/lastmile_qr_scan"}, "type": "electric_scooter", "lat": 38.918079666666664, "is_disabled": 0, "lon": -77.0356505, "is_reserved": 0}, {"name": "696911a2688add9d02d0b523eaebf731", "fusion_lat": 0.0, "fusion_lon": 0.0, "bike_id": "696911a2688add9d02d0b523eaebf731", "rental_uris": {"ios": "https://dc.lft.to/lastmile_qr_scan", "android": "https://dc.lft.to/lastmile_qr_scan"}, "type": "electric_scooter", "lat": 38.91782083333333, "is_disabled": 0, "lon": -77.03209666666666, "is_reserved": 0}, {"name": "1a91c54b4b093b80c82525c59803cdd0", "fusion_lat": 0.0, "fusion_lon": 0.0, "bike_id": "1a91c54b4b093b80c82525c59803cdd0", "rental_uris": {"ios": "https://dc.lft.to/lastmile_qr_scan", "android": "https://dc.lft.to/lastmile_qr_scan"}, "type": "electric_scooter", "lat": 38.92205, "is_disabled": 0, "lon": -77.01819366666666, "is_reserved": 0}, {"name": "1cef8968cba81d6dee5539684ee88723", "fusion_lat": 0.0, "fusion_lon": 0.0, "bike_id": "1cef8968cba81d6dee5539684ee88723", "rental_uris": {"ios": "https://dc.lft.to/lastmile_qr_scan", "android": "https://dc.lft.to/lastmile_qr_scan"}, "type": "electric_scooter", "lat": 38.906072333333334, "is_disabled": 0, "lon": -77.047363, "is_reserved": 0}, {"name": "fc07b1d1db8b1705502850823662b8d8", "fusion_lat": 0.0, "fusion_lon": 0.0, "bike_id": "fc07b1d1db8b1705502850823662b8d8", "rental_uris": {"ios": "https://dc.lft.to/lastmile_qr_scan", "android": "https://dc.lft.to/lastmile_qr_scan"}, "type": "electric_scooter", "lat": 38.88229616666667, "is_disabled": 0, "lon": -76.990855, "is_reserved": 0}, {"name": "83681cbfd5fc0d545a3afc85b07ce138", "fusion_lat": 0.0, "fusion_lon": 0.0, "bike_id": "83681cbfd5fc0d545a3afc85b07ce138", "rental_uris": {"ios": "https://dc.lft.to/lastmile_qr_scan", "android": "https://dc.lft.to/lastmile_qr_scan"}, "type": "electric_scooter", "lat": 38.88372366666667, "is_disabled": 0, "lon": -76.9951895, "is_reserved": 0}, {"name": "174ab3662f602014abb02b2b5edf53c3", "fusion_lat": 0.0, "fusion_lon": 0.0, "bike_id": "174ab3662f602014abb02b2b5edf53c3", "rental_uris": {"ios": "https://dc.lft.to/lastmile_qr_scan", "android": "https://dc.lft.to/lastmile_qr_scan"}, "type": "electric_scooter", "lat": 38.908316666666664, "is_disabled": 0, "lon": -77.036801, "is_reserved": 0}, {"name": "df202f2d516027e430916e9145915a7e", "fusion_lat": 0.0, "fusion_lon": 0.0, "bike_id": "df202f2d516027e430916e9145915a7e", "rental_uris": {"ios": "https://dc.lft.to/lastmile_qr_scan", "android": "https://dc.lft.to/lastmile_qr_scan"}, "type": "electric_scooter", "lat": 38.905242, "is_disabled": 0, "lon": -77.0597435, "is_reserved": 0}, {"name": "5438fe47a3317ecb58ada4f39ce0aa32", "fusion_lat": 0.0, "fusion_lon": 0.0, "bike_id": "5438fe47a3317ecb58ada4f39ce0aa32", "rental_uris": {"ios": "https://dc.lft.to/lastmile_qr_scan", "android": "https://dc.lft.to/lastmile_qr_scan"}, "type": "electric_scooter", "lat": 38.932463, "is_disabled": 0, "lon": -77.03413183333333, "is_reserved": 0}, {"name": "d351dfcbbf3daef5f3741cb060a1f933", "fusion_lat": 0.0, "fusion_lon": 0.0, "bike_id": "d351dfcbbf3daef5f3741cb060a1f933", "rental_uris": {"ios": "https://dc.lft.to/lastmile_qr_scan", "android": "https://dc.lft.to/lastmile_qr_scan"}, "type": "electric_scooter", "lat": 38.905235833333336, "is_disabled": 0, "lon": -77.0661445, "is_reserved": 0}, {"name": "f596933f193807210b50ba5d99d9a27f", "fusion_lat": 0.0, "fusion_lon": 0.0, "bike_id": "f596933f193807210b50ba5d99d9a27f", "rental_uris": {"ios": "https://dc.lft.to/lastmile_qr_scan", "android": "https://dc.lft.to/lastmile_qr_scan"}, "type": "electric_scooter", "lat": 38.918828, "is_disabled": 0, "lon": -77.04172516666667, "is_reserved": 0}, {"name": "493595151ef107343bab6f116d8a441d", "fusion_lat": 0.0, "fusion_lon": 0.0, "bike_id": "493595151ef107343bab6f116d8a441d", "rental_uris": {"ios": "https://dc.lft.to/lastmile_qr_scan", "android": "https://dc.lft.to/lastmile_qr_scan"}, "type": "electric_bike", "lat": 38.93912016666667, "is_disabled": 0, "lon": -77.0768865, "is_reserved": 0}, {"name": "81e482f5749b1b880a0efad6a5d6b13c", "fusion_lat": 0.0, "fusion_lon": 0.0, "bike_id": "81e482f5749b1b880a0efad6a5d6b13c", "rental_uris": {"ios": "https://dc.lft.to/lastmile_qr_scan", "android": "https://dc.lft.to/lastmile_qr_scan"}, "type": "electric_scooter", "lat": 38.907824833333336, "is_disabled": 0, "lon": -77.029791, "is_reserved": 0}, {"name": "fe85dd3851052d72c7a301d01a3fa89e", "fusion_lat": 0.0, "fusion_lon": 0.0, "bike_id": "fe85dd3851052d72c7a301d01a3fa89e", "rental_uris": {"ios": "https://dc.lft.to/lastmile_qr_scan", "android": "https://dc.lft.to/lastmile_qr_scan"}, "type": "electric_scooter", "lat": 38.91110166666667, "is_disabled": 0, "lon": -77.04310533333333, "is_reserved": 0}, {"name": "f4523f84b676081d66152427cc004ce9", "fusion_lat": 0.0, "fusion_lon": 0.0, "bike_id": "f4523f84b676081d66152427cc004ce9", "rental_uris": {"ios": "https://dc.lft.to/lastmile_qr_scan", "android": "https://dc.lft.to/lastmile_qr_scan"}, "type": "electric_scooter", "lat": 38.887440166666664, "is_disabled": 0, "lon": -77.02122083333333, "is_reserved": 0}, {"name": "4ef8e5be475dcd746ac813e8067363ad", "fusion_lat": 0.0, "fusion_lon": 0.0, "bike_id": "4ef8e5be475dcd746ac813e8067363ad", "rental_uris": {"ios": "https://dc.lft.to/lastmile_qr_scan", "android": "https://dc.lft.to/lastmile_qr_scan"}, "type": "electric_scooter", "lat": 38.876333333333335, "is_disabled": 0, "lon": -77.01257366666667, "is_reserved": 0}, {"name": "2ec2afb5fdc174d15ce93a088812372b", "fusion_lat": 0.0, "fusion_lon": 0.0, "bike_id": "2ec2afb5fdc174d15ce93a088812372b", "rental_uris": {"ios": "https://dc.lft.to/lastmile_qr_scan", "android": "https://dc.lft.to/lastmile_qr_scan"}, "type": "electric_bike", "lat": 38.94626, "is_disabled": 0, "lon": -76.9341165, "is_reserved": 0}, {"name": "76bd555b056011a1d40ccb231893e965", "fusion_lat": 0.0, "fusion_lon": 0.0, "bike_id": "76bd555b056011a1d40ccb231893e965", "rental_uris": {"ios": "https://dc.lft.to/lastmile_qr_scan", "android": "https://dc.lft.to/lastmile_qr_scan"}, "type": "electric_scooter", "lat": 38.93872116666667, "is_disabled": 0, "lon": -77.02919683333333, "is_reserved": 0}, {"name": "e86a36d62489e62876e6d0ed6b55ddc3", "fusion_lat": 0.0, "fusion_lon": 0.0, "bike_id": "e86a36d62489e62876e6d0ed6b55ddc3", "rental_uris": {"ios": "https://dc.lft.to/lastmile_qr_scan", "android": "https://dc.lft.to/lastmile_qr_scan"}, "type": "electric_scooter", "lat": 38.903040833333336, "is_disabled": 0, "lon": -77.02374633333334, "is_reserved": 0}, {"name": "18b46b8003d6aaebb658700fa4998049", "fusion_lat": 0.0, "fusion_lon": 0.0, "bike_id": "18b46b8003d6aaebb658700fa4998049", "rental_uris": {"ios": "https://dc.lft.to/lastmile_qr_scan", "android": "https://dc.lft.to/lastmile_qr_scan"}, "type": "electric_scooter", "lat": 38.90546166666667, "is_disabled": 0, "lon": -77.05708016666667, "is_reserved": 0}, {"name": "961b02a82a3aa81ee9170c907700f173", "fusion_lat": 0.0, "fusion_lon": 0.0, "bike_id": "961b02a82a3aa81ee9170c907700f173", "rental_uris": {"ios": "https://dc.lft.to/lastmile_qr_scan", "android": "https://dc.lft.to/lastmile_qr_scan"}, "type": "electric_scooter", "lat": 38.9169715, "is_disabled": 0, "lon": -77.04014183333334, "is_reserved": 0}, {"name": "20cca0eab57f204f4dad4c26df9a5a8e", "fusion_lat": 0.0, "fusion_lon": 0.0, "bike_id": "20cca0eab57f204f4dad4c26df9a5a8e", "rental_uris": {"ios": "https://dc.lft.to/lastmile_qr_scan", "android": "https://dc.lft.to/lastmile_qr_scan"}, "type": "electric_scooter", "lat": 38.92379733333333, "is_disabled": 0, "lon": -77.0312685, "is_reserved": 0}, {"name": "2631d3ce0524ebd4880a15ff66865c3b", "fusion_lat": 0.0, "fusion_lon": 0.0, "bike_id": "2631d3ce0524ebd4880a15ff66865c3b", "rental_uris": {"ios": "https://dc.lft.to/lastmile_qr_scan", "android": "https://dc.lft.to/lastmile_qr_scan"}, "type": "electric_scooter", "lat": 38.89206683333333, "is_disabled": 0, "lon": -76.98798766666667, "is_reserved": 0}, {"name": "8f94bf4cf6483f3d0478f9f631ebb901", "fusion_lat": 0.0, "fusion_lon": 0.0, "bike_id": "8f94bf4cf6483f3d0478f9f631ebb901", "rental_uris": {"ios": "https://dc.lft.to/lastmile_qr_scan", "android": "https://dc.lft.to/lastmile_qr_scan"}, "type": "electric_scooter", "lat": 38.938822333333334, "is_disabled": 0, "lon": -77.0247975, "is_reserved": 0}, {"name": "b08895d2571bf5369cb072f5c1b3431a", "fusion_lat": 0.0, "fusion_lon": 0.0, "bike_id": "b08895d2571bf5369cb072f5c1b3431a", "rental_uris": {"ios": "https://dc.lft.to/lastmile_qr_scan", "android": "https://dc.lft.to/lastmile_qr_scan"}, "type": "electric_bike", "lat": 38.918641, "is_disabled": 0, "lon": -76.96175766666667, "is_reserved": 0}, {"name": "a6cfdacf2c0a6fd54e9aafc3427514e9", "fusion_lat": 0.0, "fusion_lon": 0.0, "bike_id": "a6cfdacf2c0a6fd54e9aafc3427514e9", "rental_uris": {"ios": "https://dc.lft.to/lastmile_qr_scan", "android": "https://dc.lft.to/lastmile_qr_scan"}, "type": "electric_scooter", "lat": 38.90972216666667, "is_disabled": 0, "lon": -77.03145316666667, "is_reserved": 0}, {"name": "9679a0bc7d3ff857422b3f7715a71319", "fusion_lat": 0.0, "fusion_lon": 0.0, "bike_id": "9679a0bc7d3ff857422b3f7715a71319", "rental_uris": {"ios": "https://dc.lft.to/lastmile_qr_scan", "android": "https://dc.lft.to/lastmile_qr_scan"}, "type": "electric_scooter", "lat": 38.920550666666664, "is_disabled": 0, "lon": -76.99874983333333, "is_reserved": 0}, {"name": "539b81eb4f1b3ea4ec3ed833ec3cd0e6", "fusion_lat": 0.0, "fusion_lon": 0.0, "bike_id": "539b81eb4f1b3ea4ec3ed833ec3cd0e6", "rental_uris": {"ios": "https://dc.lft.to/lastmile_qr_scan", "android": "https://dc.lft.to/lastmile_qr_scan"}, "type": "electric_scooter", "lat": 38.902464333333334, "is_disabled": 0, "lon": -77.02494333333334, "is_reserved": 0}, {"name": "9f7404fde85ae8bddf2ae928c9587751", "fusion_lat": 0.0, "fusion_lon": 0.0, "bike_id": "9f7404fde85ae8bddf2ae928c9587751", "rental_uris": {"ios": "https://dc.lft.to/lastmile_qr_scan", "android": "https://dc.lft.to/lastmile_qr_scan"}, "type": "electric_bike", "lat": 38.83694216666667, "is_disabled": 0, "lon": -77.00594433333333, "is_reserved": 0}, {"name": "aec8599475740d6c964b3c200e197371", "fusion_lat": 0.0, "fusion_lon": 0.0, "bike_id": "aec8599475740d6c964b3c200e197371", "rental_uris": {"ios": "https://dc.lft.to/lastmile_qr_scan", "android": "https://dc.lft.to/lastmile_qr_scan"}, "type": "electric_bike", "lat": 38.90289816666667, "is_disabled": 0, "lon": -76.9293545, "is_reserved": 0}, {"name": "9313cca2187263aacd572321b9694a71", "fusion_lat": 0.0, "fusion_lon": 0.0, "bike_id": "9313cca2187263aacd572321b9694a71", "rental_uris": {"ios": "https://dc.lft.to/lastmile_qr_scan", "android": "https://dc.lft.to/lastmile_qr_scan"}, "type": "electric_scooter", "lat": 38.89908783333333, "is_disabled": 0, "lon": -76.933909, "is_reserved": 0}, {"name": "417fb452832cde8a8d66e4319ddda0f1", "fusion_lat": 0.0, "fusion_lon": 0.0, "bike_id": "417fb452832cde8a8d66e4319ddda0f1", "rental_uris": {"ios": "https://dc.lft.to/lastmile_qr_scan", "android": "https://dc.lft.to/lastmile_qr_scan"}, "type": "electric_scooter", "lat": 38.93539283333333, "is_disabled": 0, "lon": -77.030896, "is_reserved": 0}, {"name": "b9edfd6deeb58baacba1fab77554264a", "fusion_lat": 0.0, "fusion_lon": 0.0, "bike_id": "b9edfd6deeb58baacba1fab77554264a", "rental_uris": {"ios": "https://dc.lft.to/lastmile_qr_scan", "android": "https://dc.lft.to/lastmile_qr_scan"}, "type": "electric_scooter", "lat": 38.976108833333335, "is_disabled": 0, "lon": -77.02671266666667, "is_reserved": 0}, {"name": "a7b2fd24ff9475c05cf17568861ff5fd", "fusion_lat": 0.0, "fusion_lon": 0.0, "bike_id": "a7b2fd24ff9475c05cf17568861ff5fd", "rental_uris": {"ios": "https://dc.lft.to/lastmile_qr_scan", "android": "https://dc.lft.to/lastmile_qr_scan"}, "type": "electric_scooter", "lat": 38.95629133333333, "is_disabled": 0, "lon": -77.0329955, "is_reserved": 0}, {"name": "459f6f301c57669c0754be80966db369", "fusion_lat": 0.0, "fusion_lon": 0.0, "bike_id": "459f6f301c57669c0754be80966db369", "rental_uris": {"ios": "https://dc.lft.to/lastmile_qr_scan", "android": "https://dc.lft.to/lastmile_qr_scan"}, "type": "electric_scooter", "lat": 38.89776366666667, "is_disabled": 0, "lon": -77.039305, "is_reserved": 0}, {"name": "f085044df15c19a3e034efc9d1828504", "fusion_lat": 0.0, "fusion_lon": 0.0, "bike_id": "f085044df15c19a3e034efc9d1828504", "rental_uris": {"ios": "https://dc.lft.to/lastmile_qr_scan", "android": "https://dc.lft.to/lastmile_qr_scan"}, "type": "electric_scooter", "lat": 38.932481833333334, "is_disabled": 0, "lon": -77.02726216666667, "is_reserved": 0}, {"name": "88eae87b49226ae5e0c36139de96ee2c", "fusion_lat": 0.0, "fusion_lon": 0.0, "bike_id": "88eae87b49226ae5e0c36139de96ee2c", "rental_uris": {"ios": "https://dc.lft.to/lastmile_qr_scan", "android": "https://dc.lft.to/lastmile_qr_scan"}, "type": "electric_scooter", "lat": 38.9220555, "is_disabled": 0, "lon": -77.04015983333333, "is_reserved": 0}, {"name": "3ca96b231d5c7c576cd99fb4771bd3f4", "fusion_lat": 0.0, "fusion_lon": 0.0, "bike_id": "3ca96b231d5c7c576cd99fb4771bd3f4", "rental_uris": {"ios": "https://dc.lft.to/lastmile_qr_scan", "android": "https://dc.lft.to/lastmile_qr_scan"}, "type": "electric_scooter", "lat": 38.916829166666666, "is_disabled": 0, "lon": -77.03686633333334, "is_reserved": 0}, {"name": "6d59ce634a163f56b5134e59f3ac0d44", "fusion_lat": 0.0, "fusion_lon": 0.0, "bike_id": "6d59ce634a163f56b5134e59f3ac0d44", "rental_uris": {"ios": "https://dc.lft.to/lastmile_qr_scan", "android": "https://dc.lft.to/lastmile_qr_scan"}, "type": "electric_scooter", "lat": 38.91614883333333, "is_disabled": 0, "lon": -77.02483266666667, "is_reserved": 0}, {"name": "ec980b7ac22107a8c8403b2fe85d86b2", "fusion_lat": 0.0, "fusion_lon": 0.0, "bike_id": "ec980b7ac22107a8c8403b2fe85d86b2", "rental_uris": {"ios": "https://dc.lft.to/lastmile_qr_scan", "android": "https://dc.lft.to/lastmile_qr_scan"}, "type": "electric_scooter", "lat": 38.930666333333335, "is_disabled": 0, "lon": -77.0381495, "is_reserved": 0}, {"name": "666576b81da28c2935e9bbcc504ff3be", "fusion_lat": 0.0, "fusion_lon": 0.0, "bike_id": "666576b81da28c2935e9bbcc504ff3be", "rental_uris": {"ios": "https://dc.lft.to/lastmile_qr_scan", "android": "https://dc.lft.to/lastmile_qr_scan"}, "type": "electric_scooter", "lat": 38.884241, "is_disabled": 0, "lon": -77.02560066666666, "is_reserved": 0}, {"name": "ce2a468be03b71cc0ab8265b8704cbb7", "fusion_lat": 0.0, "fusion_lon": 0.0, "bike_id": "ce2a468be03b71cc0ab8265b8704cbb7", "rental_uris": {"ios": "https://dc.lft.to/lastmile_qr_scan", "android": "https://dc.lft.to/lastmile_qr_scan"}, "type": "electric_scooter", "lat": 38.885066, "is_disabled": 0, "lon": -76.99651716666666, "is_reserved": 0}, {"name": "23803d6146db685c612d3e928fa93880", "fusion_lat": 0.0, "fusion_lon": 0.0, "bike_id": "23803d6146db685c612d3e928fa93880", "rental_uris": {"ios": "https://dc.lft.to/lastmile_qr_scan", "android": "https://dc.lft.to/lastmile_qr_scan"}, "type": "electric_scooter", "lat": 38.93154333333333, "is_disabled": 0, "lon": -77.0361185, "is_reserved": 0}, {"name": "1fd10f78ad64c40c10bf0f7a6708ca55", "fusion_lat": 0.0, "fusion_lon": 0.0, "bike_id": "1fd10f78ad64c40c10bf0f7a6708ca55", "rental_uris": {"ios": "https://dc.lft.to/lastmile_qr_scan", "android": "https://dc.lft.to/lastmile_qr_scan"}, "type": "electric_scooter", "lat": 38.9057565, "is_disabled": 0, "lon": -77.00718916666666, "is_reserved": 0}, {"name": "f21c59e11d9b59c8cb133affc0367e15", "fusion_lat": 0.0, "fusion_lon": 0.0, "bike_id": "f21c59e11d9b59c8cb133affc0367e15", "rental_uris": {"ios": "https://dc.lft.to/lastmile_qr_scan", "android": "https://dc.lft.to/lastmile_qr_scan"}, "type": "electric_scooter", "lat": 38.902748833333334, "is_disabled": 0, "lon": -77.03864983333334, "is_reserved": 0}, {"name": "f52fe38ab5a9e98ec8d5d2200859b9a1", "fusion_lat": 0.0, "fusion_lon": 0.0, "bike_id": "f52fe38ab5a9e98ec8d5d2200859b9a1", "rental_uris": {"ios": "https://dc.lft.to/lastmile_qr_scan", "android": "https://dc.lft.to/lastmile_qr_scan"}, "type": "electric_scooter", "lat": 38.919917, "is_disabled": 0, "lon": -77.03789233333333, "is_reserved": 0}, {"name": "daf82dc6a0dc6f665c8684b461eb6d37", "fusion_lat": 0.0, "fusion_lon": 0.0, "bike_id": "daf82dc6a0dc6f665c8684b461eb6d37", "rental_uris": {"ios": "https://dc.lft.to/lastmile_qr_scan", "android": "https://dc.lft.to/lastmile_qr_scan"}, "type": "electric_scooter", "lat": 38.92263716666667, "is_disabled": 0, "lon": -77.03519583333333, "is_reserved": 0}, {"name": "cf9d186c332fbdac9080bed86f6989a5", "fusion_lat": 0.0, "fusion_lon": 0.0, "bike_id": "cf9d186c332fbdac9080bed86f6989a5", "rental_uris": {"ios": "https://dc.lft.to/lastmile_qr_scan", "android": "https://dc.lft.to/lastmile_qr_scan"}, "type": "electric_bike", "lat": 38.85071133333334, "is_disabled": 0, "lon": -76.97331, "is_reserved": 0}, {"name": "ce5c8d5ac6172d800f542a8e9d65c33d", "fusion_lat": 0.0, "fusion_lon": 0.0, "bike_id": "ce5c8d5ac6172d800f542a8e9d65c33d", "rental_uris": {"ios": "https://dc.lft.to/lastmile_qr_scan", "android": "https://dc.lft.to/lastmile_qr_scan"}, "type": "electric_scooter", "lat": 38.9275165, "is_disabled": 0, "lon": -77.03304683333333, "is_reserved": 0}, {"name": "bc58e50077e68995d98eeca049dbcd22", "fusion_lat": 0.0, "fusion_lon": 0.0, "bike_id": "bc58e50077e68995d98eeca049dbcd22", "rental_uris": {"ios": "https://dc.lft.to/lastmile_qr_scan", "android": "https://dc.lft.to/lastmile_qr_scan"}, "type": "electric_scooter", "lat": 38.866677333333335, "is_disabled": 0, "lon": -76.98874316666667, "is_reserved": 0}, {"name": "c23b0e70e5fe58452cb0d057e05a2b93", "fusion_lat": 0.0, "fusion_lon": 0.0, "bike_id": "c23b0e70e5fe58452cb0d057e05a2b93", "rental_uris": {"ios": "https://dc.lft.to/lastmile_qr_scan", "android": "https://dc.lft.to/lastmile_qr_scan"}, "type": "electric_scooter", "lat": 38.950038, "is_disabled": 0, "lon": -77.01930816666666, "is_reserved": 0}, {"name": "b62fe0bf4a4c7caccc6caa965c564827", "fusion_lat": 0.0, "fusion_lon": 0.0, "bike_id": "b62fe0bf4a4c7caccc6caa965c564827", "rental_uris": {"ios": "https://dc.lft.to/lastmile_qr_scan", "android": "https://dc.lft.to/lastmile_qr_scan"}, "type": "electric_bike", "lat": 39.054585833333334, "is_disabled": 0, "lon": -77.14326633333333, "is_reserved": 0}, {"name": "45887d694d191a0ae8fae75513c6a869", "fusion_lat": 0.0, "fusion_lon": 0.0, "bike_id": "45887d694d191a0ae8fae75513c6a869", "rental_uris": {"ios": "https://dc.lft.to/lastmile_qr_scan", "android": "https://dc.lft.to/lastmile_qr_scan"}, "type": "electric_bike", "lat": 38.94592333333333, "is_disabled": 0, "lon": -77.34406233333333, "is_reserved": 0}, {"name": "90c6ea34667eea28a9c7b28416383a69", "fusion_lat": 0.0, "fusion_lon": 0.0, "bike_id": "90c6ea34667eea28a9c7b28416383a69", "rental_uris": {"ios": "https://dc.lft.to/lastmile_qr_scan", "android": "https://dc.lft.to/lastmile_qr_scan"}, "type": "electric_scooter", "lat": 38.93011383333333, "is_disabled": 0, "lon": -77.061841, "is_reserved": 0}, {"name": "aa7d3e77642e6b360d97d18f3be25e1c", "fusion_lat": 0.0, "fusion_lon": 0.0, "bike_id": "aa7d3e77642e6b360d97d18f3be25e1c", "rental_uris": {"ios": "https://dc.lft.to/lastmile_qr_scan", "android": "https://dc.lft.to/lastmile_qr_scan"}, "type": "electric_scooter", "lat": 38.868071666666665, "is_disabled": 0, "lon": -77.0117525, "is_reserved": 0}, {"name": "352b6c5f54acd08ac2068814e23902ca", "fusion_lat": 0.0, "fusion_lon": 0.0, "bike_id": "352b6c5f54acd08ac2068814e23902ca", "rental_uris": {"ios": "https://dc.lft.to/lastmile_qr_scan", "android": "https://dc.lft.to/lastmile_qr_scan"}, "type": "electric_scooter", "lat": 38.893903, "is_disabled": 0, "lon": -76.949957, "is_reserved": 0}, {"name": "f8eb6d3e71f0ed16582043c860c43dc5", "fusion_lat": 0.0, "fusion_lon": 0.0, "bike_id": "f8eb6d3e71f0ed16582043c860c43dc5", "rental_uris": {"ios": "https://dc.lft.to/lastmile_qr_scan", "android": "https://dc.lft.to/lastmile_qr_scan"}, "type": "electric_scooter", "lat": 38.917067, "is_disabled": 0, "lon": -77.03468583333333, "is_reserved": 0}, {"name": "8c85187eaec7b11770bacea828477300", "fusion_lat": 0.0, "fusion_lon": 0.0, "bike_id": "8c85187eaec7b11770bacea828477300", "rental_uris": {"ios": "https://dc.lft.to/lastmile_qr_scan", "android": "https://dc.lft.to/lastmile_qr_scan"}, "type": "electric_scooter", "lat": 38.92604716666666, "is_disabled": 0, "lon": -77.02156766666667, "is_reserved": 0}, {"name": "55d518a544e56646f844c2fca9ddad23", "fusion_lat": 0.0, "fusion_lon": 0.0, "bike_id": "55d518a544e56646f844c2fca9ddad23", "rental_uris": {"ios": "https://dc.lft.to/lastmile_qr_scan", "android": "https://dc.lft.to/lastmile_qr_scan"}, "type": "electric_scooter", "lat": 38.88501216666667, "is_disabled": 0, "lon": -77.007073, "is_reserved": 0}, {"name": "f09e4ee89484cb9fb4113078a39fba39", "fusion_lat": 0.0, "fusion_lon": 0.0, "bike_id": "f09e4ee89484cb9fb4113078a39fba39", "rental_uris": {"ios": "https://dc.lft.to/lastmile_qr_scan", "android": "https://dc.lft.to/lastmile_qr_scan"}, "type": "electric_scooter", "lat": 38.84881433333334, "is_disabled": 0, "lon": -77.0051465, "is_reserved": 0}, {"name": "3f460949f22462199e951f53d923ee06", "fusion_lat": 0.0, "fusion_lon": 0.0, "bike_id": "3f460949f22462199e951f53d923ee06", "rental_uris": {"ios": "https://dc.lft.to/lastmile_qr_scan", "android": "https://dc.lft.to/lastmile_qr_scan"}, "type": "electric_scooter", "lat": 38.915422166666666, "is_disabled": 0, "lon": -77.02203966666667, "is_reserved": 0}, {"name": "1ba106b3cfa775a29f2e4bd029270658", "fusion_lat": 0.0, "fusion_lon": 0.0, "bike_id": "1ba106b3cfa775a29f2e4bd029270658", "rental_uris": {"ios": "https://dc.lft.to/lastmile_qr_scan", "android": "https://dc.lft.to/lastmile_qr_scan"}, "type": "electric_scooter", "lat": 38.900393333333334, "is_disabled": 0, "lon": -76.99961566666667, "is_reserved": 0}, {"name": "947e93a658818eaf8cf2ce3c2f2b6a33", "fusion_lat": 0.0, "fusion_lon": 0.0, "bike_id": "947e93a658818eaf8cf2ce3c2f2b6a33", "rental_uris": {"ios": "https://dc.lft.to/lastmile_qr_scan", "android": "https://dc.lft.to/lastmile_qr_scan"}, "type": "electric_scooter", "lat": 38.914633, "is_disabled": 0, "lon": -77.02210183333334, "is_reserved": 0}, {"name": "416a92f6c2a0f8e7351e0f4494786968", "fusion_lat": 0.0, "fusion_lon": 0.0, "bike_id": "416a92f6c2a0f8e7351e0f4494786968", "rental_uris": {"ios": "https://dc.lft.to/lastmile_qr_scan", "android": "https://dc.lft.to/lastmile_qr_scan"}, "type": "electric_scooter", "lat": 38.918158, "is_disabled": 0, "lon": -77.04158416666667, "is_reserved": 0}, {"name": "d8e84b6763baa41cb25b0d83628801ef", "fusion_lat": 0.0, "fusion_lon": 0.0, "bike_id": "d8e84b6763baa41cb25b0d83628801ef", "rental_uris": {"ios": "https://dc.lft.to/lastmile_qr_scan", "android": "https://dc.lft.to/lastmile_qr_scan"}, "type": "electric_bike", "lat": 38.941519666666665, "is_disabled": 0, "lon": -77.00198816666666, "is_reserved": 0}, {"name": "614da89617b4b7885bdc25a2a00ec449", "fusion_lat": 0.0, "fusion_lon": 0.0, "bike_id": "614da89617b4b7885bdc25a2a00ec449", "rental_uris": {"ios": "https://dc.lft.to/lastmile_qr_scan", "android": "https://dc.lft.to/lastmile_qr_scan"}, "type": "electric_scooter", "lat": 38.91007616666667, "is_disabled": 0, "lon": -77.01388333333334, "is_reserved": 0}, {"name": "bbc93591910f879aa431c056863c350f", "fusion_lat": 0.0, "fusion_lon": 0.0, "bike_id": "bbc93591910f879aa431c056863c350f", "rental_uris": {"ios": "https://dc.lft.to/lastmile_qr_scan", "android": "https://dc.lft.to/lastmile_qr_scan"}, "type": "electric_scooter", "lat": 38.8778155, "is_disabled": 0, "lon": -77.01439183333333, "is_reserved": 0}, {"name": "887e2b7f921263508b479f857ee96e44", "fusion_lat": 0.0, "fusion_lon": 0.0, "bike_id": "887e2b7f921263508b479f857ee96e44", "rental_uris": {"ios": "https://dc.lft.to/lastmile_qr_scan", "android": "https://dc.lft.to/lastmile_qr_scan"}, "type": "electric_scooter", "lat": 38.897149666666664, "is_disabled": 0, "lon": -77.0205235, "is_reserved": 0}, {"name": "871feed51a43cb9015f2cfc4fd01b0e5", "fusion_lat": 0.0, "fusion_lon": 0.0, "bike_id": "871feed51a43cb9015f2cfc4fd01b0e5", "rental_uris": {"ios": "https://dc.lft.to/lastmile_qr_scan", "android": "https://dc.lft.to/lastmile_qr_scan"}, "type": "electric_scooter", "lat": 38.899611, "is_disabled": 0, "lon": -77.021998, "is_reserved": 0}, {"name": "1e7b20e13674f68e5f79fd34dd1a6093", "fusion_lat": 0.0, "fusion_lon": 0.0, "bike_id": "1e7b20e13674f68e5f79fd34dd1a6093", "rental_uris": {"ios": "https://dc.lft.to/lastmile_qr_scan", "android": "https://dc.lft.to/lastmile_qr_scan"}, "type": "electric_bike", "lat": 38.83121666666667, "is_disabled": 0, "lon": -77.04323433333333, "is_reserved": 0}, {"name": "de16fbc2db1271087bb6777e35f293cc", "fusion_lat": 0.0, "fusion_lon": 0.0, "bike_id": "de16fbc2db1271087bb6777e35f293cc", "rental_uris": {"ios": "https://dc.lft.to/lastmile_qr_scan", "android": "https://dc.lft.to/lastmile_qr_scan"}, "type": "electric_scooter", "lat": 38.92375216666667, "is_disabled": 0, "lon": -77.03078583333334, "is_reserved": 0}, {"name": "596e222407557a473a24cd94f509c21e", "fusion_lat": 0.0, "fusion_lon": 0.0, "bike_id": "596e222407557a473a24cd94f509c21e", "rental_uris": {"ios": "https://dc.lft.to/lastmile_qr_scan", "android": "https://dc.lft.to/lastmile_qr_scan"}, "type": "electric_scooter", "lat": 38.9006895, "is_disabled": 0, "lon": -77.04536216666666, "is_reserved": 0}, {"name": "36103166b95496a19ab817ae519255ab", "fusion_lat": 0.0, "fusion_lon": 0.0, "bike_id": "36103166b95496a19ab817ae519255ab", "rental_uris": {"ios": "https://dc.lft.to/lastmile_qr_scan", "android": "https://dc.lft.to/lastmile_qr_scan"}, "type": "electric_scooter", "lat": 38.918411666666664, "is_disabled": 0, "lon": -76.96556933333333, "is_reserved": 0}, {"name": "b1755a9cf6838f68ff33d98c46963cfc", "fusion_lat": 0.0, "fusion_lon": 0.0, "bike_id": "b1755a9cf6838f68ff33d98c46963cfc", "rental_uris": {"ios": "https://dc.lft.to/lastmile_qr_scan", "android": "https://dc.lft.to/lastmile_qr_scan"}, "type": "electric_scooter", "lat": 38.89817983333333, "is_disabled": 0, "lon": -77.04662216666667, "is_reserved": 0}, {"name": "2129e56deb516edb19a38f8f2f939dd4", "fusion_lat": 0.0, "fusion_lon": 0.0, "bike_id": "2129e56deb516edb19a38f8f2f939dd4", "rental_uris": {"ios": "https://dc.lft.to/lastmile_qr_scan", "android": "https://dc.lft.to/lastmile_qr_scan"}, "type": "electric_scooter", "lat": 38.90800483333334, "is_disabled": 0, "lon": -77.03434766666666, "is_reserved": 0}, {"name": "ff0429d6bd0b5cfc17dc40b4f09b313e", "fusion_lat": 0.0, "fusion_lon": 0.0, "bike_id": "ff0429d6bd0b5cfc17dc40b4f09b313e", "rental_uris": {"ios": "https://dc.lft.to/lastmile_qr_scan", "android": "https://dc.lft.to/lastmile_qr_scan"}, "type": "electric_scooter", "lat": 38.893512666666666, "is_disabled": 0, "lon": -77.00332883333333, "is_reserved": 0}, {"name": "941ba7edb90a35202e3df29430f25eee", "fusion_lat": 0.0, "fusion_lon": 0.0, "bike_id": "941ba7edb90a35202e3df29430f25eee", "rental_uris": {"ios": "https://dc.lft.to/lastmile_qr_scan", "android": "https://dc.lft.to/lastmile_qr_scan"}, "type": "electric_bike", "lat": 38.827309166666666, "is_disabled": 0, "lon": -77.0086405, "is_reserved": 0}, {"name": "073a17ecc44a43dcefbdfd26d266b276", "fusion_lat": 0.0, "fusion_lon": 0.0, "bike_id": "073a17ecc44a43dcefbdfd26d266b276", "rental_uris": {"ios": "https://dc.lft.to/lastmile_qr_scan", "android": "https://dc.lft.to/lastmile_qr_scan"}, "type": "electric_scooter", "lat": 38.895475, "is_disabled": 0, "lon": -76.983368, "is_reserved": 0}, {"name": "4629222c455620e5118dbebb7515ac15", "fusion_lat": 0.0, "fusion_lon": 0.0, "bike_id": "4629222c455620e5118dbebb7515ac15", "rental_uris": {"ios": "https://dc.lft.to/lastmile_qr_scan", "android": "https://dc.lft.to/lastmile_qr_scan"}, "type": "electric_scooter", "lat": 38.8837375, "is_disabled": 0, "lon": -76.99518833333333, "is_reserved": 0}, {"name": "1008b0e24c67ef32d42f3f12089a6d33", "fusion_lat": 0.0, "fusion_lon": 0.0, "bike_id": "1008b0e24c67ef32d42f3f12089a6d33", "rental_uris": {"ios": "https://dc.lft.to/lastmile_qr_scan", "android": "https://dc.lft.to/lastmile_qr_scan"}, "type": "electric_scooter", "lat": 38.906166666666664, "is_disabled": 0, "lon": -77.0332525, "is_reserved": 0}, {"name": "144e7a2c12d519ef80d321354802b730", "fusion_lat": 0.0, "fusion_lon": 0.0, "bike_id": "144e7a2c12d519ef80d321354802b730", "rental_uris": {"ios": "https://dc.lft.to/lastmile_qr_scan", "android": "https://dc.lft.to/lastmile_qr_scan"}, "type": "electric_scooter", "lat": 38.876475666666664, "is_disabled": 0, "lon": -77.00614783333333, "is_reserved": 0}, {"name": "a50e87cae43a972a26734fa9839d41cf", "fusion_lat": 0.0, "fusion_lon": 0.0, "bike_id": "a50e87cae43a972a26734fa9839d41cf", "rental_uris": {"ios": "https://dc.lft.to/lastmile_qr_scan", "android": "https://dc.lft.to/lastmile_qr_scan"}, "type": "electric_bike", "lat": 38.90159516666667, "is_disabled": 0, "lon": -76.9796185, "is_reserved": 0}, {"name": "8d415fff852163c8acbcbb38bdb7467b", "fusion_lat": 0.0, "fusion_lon": 0.0, "bike_id": "8d415fff852163c8acbcbb38bdb7467b", "rental_uris": {"ios": "https://dc.lft.to/lastmile_qr_scan", "android": "https://dc.lft.to/lastmile_qr_scan"}, "type": "electric_scooter", "lat": 38.917002, "is_disabled": 0, "lon": -77.02996666666667, "is_reserved": 0}, {"name": "6eb6870dc4bd46c67bf35970f8094662", "fusion_lat": 0.0, "fusion_lon": 0.0, "bike_id": "6eb6870dc4bd46c67bf35970f8094662", "rental_uris": {"ios": "https://dc.lft.to/lastmile_qr_scan", "android": "https://dc.lft.to/lastmile_qr_scan"}, "type": "electric_scooter", "lat": 38.91816766666667, "is_disabled": 0, "lon": -77.00295, "is_reserved": 0}, {"name": "b592059c421ebe9a7f28bc9a61f914b5", "fusion_lat": 0.0, "fusion_lon": 0.0, "bike_id": "b592059c421ebe9a7f28bc9a61f914b5", "rental_uris": {"ios": "https://dc.lft.to/lastmile_qr_scan", "android": "https://dc.lft.to/lastmile_qr_scan"}, "type": "electric_scooter", "lat": 38.901546, "is_disabled": 0, "lon": -77.0418555, "is_reserved": 0}, {"name": "224f1f41140b48b65529c74778efe3ca", "fusion_lat": 0.0, "fusion_lon": 0.0, "bike_id": "224f1f41140b48b65529c74778efe3ca", "rental_uris": {"ios": "https://dc.lft.to/lastmile_qr_scan", "android": "https://dc.lft.to/lastmile_qr_scan"}, "type": "electric_scooter", "lat": 38.850810333333335, "is_disabled": 0, "lon": -76.96521466666667, "is_reserved": 0}, {"name": "d93a24d32bf36794f1bc32f20dc3328e", "fusion_lat": 0.0, "fusion_lon": 0.0, "bike_id": "d93a24d32bf36794f1bc32f20dc3328e", "rental_uris": {"ios": "https://dc.lft.to/lastmile_qr_scan", "android": "https://dc.lft.to/lastmile_qr_scan"}, "type": "electric_scooter", "lat": 38.901148666666664, "is_disabled": 0, "lon": -77.03233883333333, "is_reserved": 0}, {"name": "1b19d0875eee93c6d710a5b93cf64cbc", "fusion_lat": 0.0, "fusion_lon": 0.0, "bike_id": "1b19d0875eee93c6d710a5b93cf64cbc", "rental_uris": {"ios": "https://dc.lft.to/lastmile_qr_scan", "android": "https://dc.lft.to/lastmile_qr_scan"}, "type": "electric_scooter", "lat": 38.914289, "is_disabled": 0, "lon": -77.0390155, "is_reserved": 0}, {"name": "56de4f012c0bf4d626347bc1d96e44ed", "fusion_lat": 0.0, "fusion_lon": 0.0, "bike_id": "56de4f012c0bf4d626347bc1d96e44ed", "rental_uris": {"ios": "https://dc.lft.to/lastmile_qr_scan", "android": "https://dc.lft.to/lastmile_qr_scan"}, "type": "electric_scooter", "lat": 38.8978555, "is_disabled": 0, "lon": -77.00727183333333, "is_reserved": 0}, {"name": "7b492efea900e6dc43ae5f7bc0e4a807", "fusion_lat": 0.0, "fusion_lon": 0.0, "bike_id": "7b492efea900e6dc43ae5f7bc0e4a807", "rental_uris": {"ios": "https://dc.lft.to/lastmile_qr_scan", "android": "https://dc.lft.to/lastmile_qr_scan"}, "type": "electric_scooter", "lat": 38.917498333333334, "is_disabled": 0, "lon": -77.02491633333334, "is_reserved": 0}, {"name": "aa930cd8f0c63283808174b2d29f2301", "fusion_lat": 0.0, "fusion_lon": 0.0, "bike_id": "aa930cd8f0c63283808174b2d29f2301", "rental_uris": {"ios": "https://dc.lft.to/lastmile_qr_scan", "android": "https://dc.lft.to/lastmile_qr_scan"}, "type": "electric_bike", "lat": 38.998441, "is_disabled": 0, "lon": -77.02895, "is_reserved": 0}, {"name": "4eaec0647b1aaae1092af9cd47d60052", "fusion_lat": 0.0, "fusion_lon": 0.0, "bike_id": "4eaec0647b1aaae1092af9cd47d60052", "rental_uris": {"ios": "https://dc.lft.to/lastmile_qr_scan", "android": "https://dc.lft.to/lastmile_qr_scan"}, "type": "electric_scooter", "lat": 38.88503166666667, "is_disabled": 0, "lon": -77.00564316666667, "is_reserved": 0}, {"name": "bd364d1fa8b537570cbcc133f278f42a", "fusion_lat": 0.0, "fusion_lon": 0.0, "bike_id": "bd364d1fa8b537570cbcc133f278f42a", "rental_uris": {"ios": "https://dc.lft.to/lastmile_qr_scan", "android": "https://dc.lft.to/lastmile_qr_scan"}, "type": "electric_bike", "lat": 38.9319705, "is_disabled": 0, "lon": -77.22932633333333, "is_reserved": 0}, {"name": "8de42eeb5ec2304acaa8d1715da369af", "fusion_lat": 0.0, "fusion_lon": 0.0, "bike_id": "8de42eeb5ec2304acaa8d1715da369af", "rental_uris": {"ios": "https://dc.lft.to/lastmile_qr_scan", "android": "https://dc.lft.to/lastmile_qr_scan"}, "type": "electric_bike", "lat": 38.8685995, "is_disabled": 0, "lon": -76.91657333333333, "is_reserved": 0}, {"name": "912df9e175c6beeab34448b488551d07", "fusion_lat": 0.0, "fusion_lon": 0.0, "bike_id": "912df9e175c6beeab34448b488551d07", "rental_uris": {"ios": "https://dc.lft.to/lastmile_qr_scan", "android": "https://dc.lft.to/lastmile_qr_scan"}, "type": "electric_bike", "lat": 38.83153933333333, "is_disabled": 0, "lon": -76.99696183333333, "is_reserved": 0}, {"name": "5e9b3c41d29046c60fe790c77e85fc60", "fusion_lat": 0.0, "fusion_lon": 0.0, "bike_id": "5e9b3c41d29046c60fe790c77e85fc60", "rental_uris": {"ios": "https://dc.lft.to/lastmile_qr_scan", "android": "https://dc.lft.to/lastmile_qr_scan"}, "type": "electric_scooter", "lat": 38.885451, "is_disabled": 0, "lon": -77.0059215, "is_reserved": 0}, {"name": "6949a828d3547c68b0f882c65a990d1f", "fusion_lat": 0.0, "fusion_lon": 0.0, "bike_id": "6949a828d3547c68b0f882c65a990d1f", "rental_uris": {"ios": "https://dc.lft.to/lastmile_qr_scan", "android": "https://dc.lft.to/lastmile_qr_scan"}, "type": "electric_scooter", "lat": 38.89018766666667, "is_disabled": 0, "lon": -76.9374125, "is_reserved": 0}, {"name": "37435311a4d811665fd8083fe24019e8", "fusion_lat": 0.0, "fusion_lon": 0.0, "bike_id": "37435311a4d811665fd8083fe24019e8", "rental_uris": {"ios": "https://dc.lft.to/lastmile_qr_scan", "android": "https://dc.lft.to/lastmile_qr_scan"}, "type": "electric_scooter", "lat": 38.9214585, "is_disabled": 0, "lon": -77.03480916666666, "is_reserved": 0}, {"name": "1129b0f2ed92f930dca52730d10aa396", "fusion_lat": 0.0, "fusion_lon": 0.0, "bike_id": "1129b0f2ed92f930dca52730d10aa396", "rental_uris": {"ios": "https://dc.lft.to/lastmile_qr_scan", "android": "https://dc.lft.to/lastmile_qr_scan"}, "type": "electric_scooter", "lat": 38.919137166666665, "is_disabled": 0, "lon": -77.03918016666667, "is_reserved": 0}, {"name": "4dee3566c0d5b96cc0cb2210aabd9806", "fusion_lat": 0.0, "fusion_lon": 0.0, "bike_id": "4dee3566c0d5b96cc0cb2210aabd9806", "rental_uris": {"ios": "https://dc.lft.to/lastmile_qr_scan", "android": "https://dc.lft.to/lastmile_qr_scan"}, "type": "electric_scooter", "lat": 38.89513316666667, "is_disabled": 0, "lon": -77.021944, "is_reserved": 0}, {"name": "09f6119ee65f5b32f03e99343b849b89", "fusion_lat": 0.0, "fusion_lon": 0.0, "bike_id": "09f6119ee65f5b32f03e99343b849b89", "rental_uris": {"ios": "https://dc.lft.to/lastmile_qr_scan", "android": "https://dc.lft.to/lastmile_qr_scan"}, "type": "electric_scooter", "lat": 38.92467933333333, "is_disabled": 0, "lon": -77.03937316666666, "is_reserved": 0}, {"name": "ab2c3ea5db9134ab92484cbfd7675c9a", "fusion_lat": 0.0, "fusion_lon": 0.0, "bike_id": "ab2c3ea5db9134ab92484cbfd7675c9a", "rental_uris": {"ios": "https://dc.lft.to/lastmile_qr_scan", "android": "https://dc.lft.to/lastmile_qr_scan"}, "type": "electric_scooter", "lat": 38.84623966666667, "is_disabled": 0, "lon": -76.9963265, "is_reserved": 0}, {"name": "cd3acc689779b2056f320fd96341fcd1", "fusion_lat": 0.0, "fusion_lon": 0.0, "bike_id": "cd3acc689779b2056f320fd96341fcd1", "rental_uris": {"ios": "https://dc.lft.to/lastmile_qr_scan", "android": "https://dc.lft.to/lastmile_qr_scan"}, "type": "electric_bike", "lat": 38.8866245, "is_disabled": 0, "lon": -77.16242583333333, "is_reserved": 0}, {"name": "462a6bf9ee5fcfef3a17bfbbbb8560c7", "fusion_lat": 0.0, "fusion_lon": 0.0, "bike_id": "462a6bf9ee5fcfef3a17bfbbbb8560c7", "rental_uris": {"ios": "https://dc.lft.to/lastmile_qr_scan", "android": "https://dc.lft.to/lastmile_qr_scan"}, "type": "electric_scooter", "lat": 38.899443166666664, "is_disabled": 0, "lon": -77.01497983333333, "is_reserved": 0}, {"name": "560dfdadcf9c4652402d32676136fa77", "fusion_lat": 0.0, "fusion_lon": 0.0, "bike_id": "560dfdadcf9c4652402d32676136fa77", "rental_uris": {"ios": "https://dc.lft.to/lastmile_qr_scan", "android": "https://dc.lft.to/lastmile_qr_scan"}, "type": "electric_scooter", "lat": 38.91852566666667, "is_disabled": 0, "lon": -77.03220733333333, "is_reserved": 0}, {"name": "a27e828c0c76e10707dba10cd63c221a", "fusion_lat": 0.0, "fusion_lon": 0.0, "bike_id": "a27e828c0c76e10707dba10cd63c221a", "rental_uris": {"ios": "https://dc.lft.to/lastmile_qr_scan", "android": "https://dc.lft.to/lastmile_qr_scan"}, "type": "electric_scooter", "lat": 38.90983466666667, "is_disabled": 0, "lon": -77.03172866666667, "is_reserved": 0}, {"name": "99a3b3d64d5e1d76bbff3d79c79ddf7a", "fusion_lat": 0.0, "fusion_lon": 0.0, "bike_id": "99a3b3d64d5e1d76bbff3d79c79ddf7a", "rental_uris": {"ios": "https://dc.lft.to/lastmile_qr_scan", "android": "https://dc.lft.to/lastmile_qr_scan"}, "type": "electric_scooter", "lat": 38.8924435, "is_disabled": 0, "lon": -77.0465745, "is_reserved": 0}, {"name": "9a0e0dd57a6e3fa55d8a6e93916ad5ae", "fusion_lat": 0.0, "fusion_lon": 0.0, "bike_id": "9a0e0dd57a6e3fa55d8a6e93916ad5ae", "rental_uris": {"ios": "https://dc.lft.to/lastmile_qr_scan", "android": "https://dc.lft.to/lastmile_qr_scan"}, "type": "electric_scooter", "lat": 38.9142305, "is_disabled": 0, "lon": -77.04158583333333, "is_reserved": 0}, {"name": "717d366f1264b3264cf7bac95350a54d", "fusion_lat": 0.0, "fusion_lon": 0.0, "bike_id": "717d366f1264b3264cf7bac95350a54d", "rental_uris": {"ios": "https://dc.lft.to/lastmile_qr_scan", "android": "https://dc.lft.to/lastmile_qr_scan"}, "type": "electric_scooter", "lat": 38.897958, "is_disabled": 0, "lon": -76.93054166666667, "is_reserved": 0}, {"name": "8dbf0b6f7532dba2fefd8de752ec215c", "fusion_lat": 0.0, "fusion_lon": 0.0, "bike_id": "8dbf0b6f7532dba2fefd8de752ec215c", "rental_uris": {"ios": "https://dc.lft.to/lastmile_qr_scan", "android": "https://dc.lft.to/lastmile_qr_scan"}, "type": "electric_scooter", "lat": 38.899676166666666, "is_disabled": 0, "lon": -77.01950516666666, "is_reserved": 0}, {"name": "52e5d3bf63e01f329e7532f9cba88c08", "fusion_lat": 0.0, "fusion_lon": 0.0, "bike_id": "52e5d3bf63e01f329e7532f9cba88c08", "rental_uris": {"ios": "https://dc.lft.to/lastmile_qr_scan", "android": "https://dc.lft.to/lastmile_qr_scan"}, "type": "electric_scooter", "lat": 38.8985535, "is_disabled": 0, "lon": -77.0160885, "is_reserved": 0}, {"name": "ddd911d87327692a0c0c5808635c6f17", "fusion_lat": 0.0, "fusion_lon": 0.0, "bike_id": "ddd911d87327692a0c0c5808635c6f17", "rental_uris": {"ios": "https://dc.lft.to/lastmile_qr_scan", "android": "https://dc.lft.to/lastmile_qr_scan"}, "type": "electric_scooter", "lat": 38.87947333333334, "is_disabled": 0, "lon": -77.0146635, "is_reserved": 0}, {"name": "f97f62684305b1920e9dd062baf5ac70", "fusion_lat": 0.0, "fusion_lon": 0.0, "bike_id": "f97f62684305b1920e9dd062baf5ac70", "rental_uris": {"ios": "https://dc.lft.to/lastmile_qr_scan", "android": "https://dc.lft.to/lastmile_qr_scan"}, "type": "electric_bike", "lat": 38.83933, "is_disabled": 0, "lon": -77.07902583333333, "is_reserved": 0}, {"name": "bbf096e184f3a222d0f718756c839a24", "fusion_lat": 0.0, "fusion_lon": 0.0, "bike_id": "bbf096e184f3a222d0f718756c839a24", "rental_uris": {"ios": "https://dc.lft.to/lastmile_qr_scan", "android": "https://dc.lft.to/lastmile_qr_scan"}, "type": "electric_scooter", "lat": 38.91354233333333, "is_disabled": 0, "lon": -77.01757133333334, "is_reserved": 0}, {"name": "74a0f56dfe46d228e7ecd83a8549a82e", "fusion_lat": 0.0, "fusion_lon": 0.0, "bike_id": "74a0f56dfe46d228e7ecd83a8549a82e", "rental_uris": {"ios": "https://dc.lft.to/lastmile_qr_scan", "android": "https://dc.lft.to/lastmile_qr_scan"}, "type": "electric_bike", "lat": 38.812720666666664, "is_disabled": 0, "lon": -77.06175216666666, "is_reserved": 0}, {"name": "3c2d82c4f15f2322ca1007c550d0b83e", "fusion_lat": 0.0, "fusion_lon": 0.0, "bike_id": "3c2d82c4f15f2322ca1007c550d0b83e", "rental_uris": {"ios": "https://dc.lft.to/lastmile_qr_scan", "android": "https://dc.lft.to/lastmile_qr_scan"}, "type": "electric_scooter", "lat": 38.90576383333333, "is_disabled": 0, "lon": -77.00610316666666, "is_reserved": 0}, {"name": "93554b2ee6f990c38ef45d4bce73be86", "fusion_lat": 0.0, "fusion_lon": 0.0, "bike_id": "93554b2ee6f990c38ef45d4bce73be86", "rental_uris": {"ios": "https://dc.lft.to/lastmile_qr_scan", "android": "https://dc.lft.to/lastmile_qr_scan"}, "type": "electric_scooter", "lat": 38.91990083333334, "is_disabled": 0, "lon": -77.03316366666667, "is_reserved": 0}, {"name": "a6a23b32c1b8aa697d019aa241975436", "fusion_lat": 0.0, "fusion_lon": 0.0, "bike_id": "a6a23b32c1b8aa697d019aa241975436", "rental_uris": {"ios": "https://dc.lft.to/lastmile_qr_scan", "android": "https://dc.lft.to/lastmile_qr_scan"}, "type": "electric_scooter", "lat": 38.9176505, "is_disabled": 0, "lon": -77.02809783333333, "is_reserved": 0}, {"name": "49cb30c4d70b346df27fdf9dcc9476ab", "fusion_lat": 0.0, "fusion_lon": 0.0, "bike_id": "49cb30c4d70b346df27fdf9dcc9476ab", "rental_uris": {"ios": "https://dc.lft.to/lastmile_qr_scan", "android": "https://dc.lft.to/lastmile_qr_scan"}, "type": "electric_scooter", "lat": 38.932263666666664, "is_disabled": 0, "lon": -76.994841, "is_reserved": 0}, {"name": "98093e60a777059c146b89514b8386eb", "fusion_lat": 0.0, "fusion_lon": 0.0, "bike_id": "98093e60a777059c146b89514b8386eb", "rental_uris": {"ios": "https://dc.lft.to/lastmile_qr_scan", "android": "https://dc.lft.to/lastmile_qr_scan"}, "type": "electric_scooter", "lat": 38.897452333333334, "is_disabled": 0, "lon": -77.01009916666666, "is_reserved": 0}, {"name": "3c3787af25730016d028adf7a3b734e2", "fusion_lat": 0.0, "fusion_lon": 0.0, "bike_id": "3c3787af25730016d028adf7a3b734e2", "rental_uris": {"ios": "https://dc.lft.to/lastmile_qr_scan", "android": "https://dc.lft.to/lastmile_qr_scan"}, "type": "electric_bike", "lat": 38.972593333333336, "is_disabled": 0, "lon": -76.991699, "is_reserved": 0}, {"name": "b85cb892a54f7600b804c0ed287036fa", "fusion_lat": 0.0, "fusion_lon": 0.0, "bike_id": "b85cb892a54f7600b804c0ed287036fa", "rental_uris": {"ios": "https://dc.lft.to/lastmile_qr_scan", "android": "https://dc.lft.to/lastmile_qr_scan"}, "type": "electric_scooter", "lat": 38.934707, "is_disabled": 0, "lon": -77.06878283333333, "is_reserved": 0}, {"name": "79fdede60fa83bbd22c4707598798c06", "fusion_lat": 0.0, "fusion_lon": 0.0, "bike_id": "79fdede60fa83bbd22c4707598798c06", "rental_uris": {"ios": "https://dc.lft.to/lastmile_qr_scan", "android": "https://dc.lft.to/lastmile_qr_scan"}, "type": "electric_scooter", "lat": 38.88411116666666, "is_disabled": 0, "lon": -77.030505, "is_reserved": 0}, {"name": "90e02b1eb2066a5e0cd0c5b5212fead3", "fusion_lat": 0.0, "fusion_lon": 0.0, "bike_id": "90e02b1eb2066a5e0cd0c5b5212fead3", "rental_uris": {"ios": "https://dc.lft.to/lastmile_qr_scan", "android": "https://dc.lft.to/lastmile_qr_scan"}, "type": "electric_scooter", "lat": 38.905413, "is_disabled": 0, "lon": -77.01701116666666, "is_reserved": 0}, {"name": "bb5ed7b0289671c2814c5d1aeba6be60", "fusion_lat": 0.0, "fusion_lon": 0.0, "bike_id": "bb5ed7b0289671c2814c5d1aeba6be60", "rental_uris": {"ios": "https://dc.lft.to/lastmile_qr_scan", "android": "https://dc.lft.to/lastmile_qr_scan"}, "type": "electric_scooter", "lat": 38.93315666666667, "is_disabled": 0, "lon": -77.03285266666667, "is_reserved": 0}, {"name": "259af1c8a59d4ff47b13f0d1d3752df8", "fusion_lat": 0.0, "fusion_lon": 0.0, "bike_id": "259af1c8a59d4ff47b13f0d1d3752df8", "rental_uris": {"ios": "https://dc.lft.to/lastmile_qr_scan", "android": "https://dc.lft.to/lastmile_qr_scan"}, "type": "electric_scooter", "lat": 38.934362166666666, "is_disabled": 0, "lon": -77.03439433333334, "is_reserved": 0}, {"name": "f8002726b5eca6d0bdf83080e3c5c073", "fusion_lat": 0.0, "fusion_lon": 0.0, "bike_id": "f8002726b5eca6d0bdf83080e3c5c073", "rental_uris": {"ios": "https://dc.lft.to/lastmile_qr_scan", "android": "https://dc.lft.to/lastmile_qr_scan"}, "type": "electric_scooter", "lat": 38.875964333333336, "is_disabled": 0, "lon": -77.00584583333334, "is_reserved": 0}, {"name": "bb941b7cab666a73e843010da0578f69", "fusion_lat": 0.0, "fusion_lon": 0.0, "bike_id": "bb941b7cab666a73e843010da0578f69", "rental_uris": {"ios": "https://dc.lft.to/lastmile_qr_scan", "android": "https://dc.lft.to/lastmile_qr_scan"}, "type": "electric_scooter", "lat": 38.91580366666667, "is_disabled": 0, "lon": -77.04692283333333, "is_reserved": 0}, {"name": "f9c12d48d04434ce7f64aa3bf1740996", "fusion_lat": 0.0, "fusion_lon": 0.0, "bike_id": "f9c12d48d04434ce7f64aa3bf1740996", "rental_uris": {"ios": "https://dc.lft.to/lastmile_qr_scan", "android": "https://dc.lft.to/lastmile_qr_scan"}, "type": "electric_scooter", "lat": 38.91912516666667, "is_disabled": 0, "lon": -77.017765, "is_reserved": 0},