{"data": {"bikes": [{"rental_uris": {"ios": "https://dc.lft.to/lastmile_qr_scan", "android": "https://dc.lft.to/lastmile_qr_scan"}, "lon": -77.024811, "type": "electric_scooter", "fusion_lat": 0.0, "lat": 38.933508833333335, "name": "f02152ca5ecec1ee68407d07b8f3ab5e", "fusion_lon": 0.0, "bike_id": "f02152ca5ecec1ee68407d07b8f3ab5e", "is_disabled": 0, "is_reserved": 0}, {"rental_uris": {"ios": "https://dc.lft.to/lastmile_qr_scan", "android": "https://dc.lft.to/lastmile_qr_scan"}, "lon": -77.0248035, "type": "electric_scooter", "fusion_lat": 0.0, "lat": 38.930955, "name": "66fe67d49e46d1f060be0f5421816653", "fusion_lon": 0.0, "bike_id": "66fe67d49e46d1f060be0f5421816653", "is_disabled": 0, "is_reserved": 0}, {"rental_uris": {"ios": "https://dc.lft.to/lastmile_qr_scan", "android": "https://dc.lft.to/lastmile_qr_scan"}, "lon": -77.02935683333334, "type": "electric_scooter", "fusion_lat": 0.0, "lat": 38.90370383333333, "name": "707b1a4826219f2f7a25c4375abd653d", "fusion_lon": 0.0, "bike_id": "707b1a4826219f2f7a25c4375abd653d", "is_disabled": 0, "is_reserved": 0}, {"rental_uris": {"ios": "https://dc.lft.to/lastmile_qr_scan", "android": "https://dc.lft.to/lastmile_qr_scan"}, "lon": -77.19907783333333, "type": "electric_bike", "fusion_lat": 0.0, "lat": 38.87529766666667, "name": "35aca4bfa217acff52917db3134f5c22", "fusion_lon": 0.0, "bike_id": "35aca4bfa217acff52917db3134f5c22", "is_disabled": 0, "is_reserved": 0}, {"rental_uris": {"ios": "https://dc.lft.to/lastmile_qr_scan", "android": "https://dc.lft.to/lastmile_qr_scan"}, "lon": -77.14987133333334, "type": "electric_bike", "fusion_lat": 0.0, "lat": 39.094584833333336, "name": "3d0ba7bf996adebbdde2d945b59002bd", "fusion_lon": 0.0, "bike_id": "3d0ba7bf996adebbdde2d945b59002bd", "is_disabled": 0, "is_reserved": 0}, {"rental_uris": {"ios": "https://dc.lft.to/lastmile_qr_scan", "android": "https://dc.lft.to/lastmile_qr_scan"}, "lon": -77.0065045, "type": "electric_scooter", "fusion_lat": 0.0, "lat": 38.9085785, "name": "0d2070d76341c46e19768c0197767616", "fusion_lon": 0.0, "bike_id": "0d2070d76341c46e19768c0197767616", "is_disabled": 0, "is_reserved": 0}, {"rental_uris": {"ios": "https://dc.lft.to/lastmile_qr_scan", "android": "https://dc.lft.to/lastmile_qr_scan"}, "lon": -77.00347483333333, "type": "electric_scooter", "fusion_lat": 0.0, "lat": 38.89159, "name": "3ac1ea0b76da828cb15f30b34d17c669", "fusion_lon": 0.0, "bike_id": "3ac1ea0b76da828cb15f30b34d17c669", "is_disabled": 0, "is_reserved": 0}, {"rental_uris": {"ios": "https://dc.lft.to/lastmile_qr_scan", "android": "https://dc.lft.to/lastmile_qr_scan"}, "lon": -77.071033, "type": "electric_bike", "fusion_lat": 0.0, "lat": 38.91446766666667, "name": "2c0c26eb1eec478c70e46be17cba1d22", "fusion_lon": 0.0, "bike_id": "2c0c26eb1eec478c70e46be17cba1d22", "is_disabled": 0, "is_reserved": 0}, {"rental_uris": {"ios": "https://dc.lft.to/lastmile_qr_scan", "android": "https://dc.lft.to/lastmile_qr_scan"}, "lon": -77.02178666666667, "type": "electric_scooter", "fusion_lat": 0.0, "lat": 38.88040616666667, "name": "77ec3776228d5d8d1112b13335a7ead4", "fusion_lon": 0.0, "bike_id": "77ec3776228d5d8d1112b13335a7ead4", "is_disabled": 0, "is_reserved": 0}, {"rental_uris": {"ios": "https://dc.lft.to/lastmile_qr_scan", "android": "https://dc.lft.to/lastmile_qr_scan"}, "lon": -77.047801, "type": "electric_scooter", "fusion_lat": 0.0, "lat": 38.89953933333334, "name": "225acd6e6b9c81ddb9cd222e51ba887b", "fusion_lon": 0.0, "bike_id": "225acd6e6b9c81ddb9cd222e51ba887b", "is_disabled": 0, "is_reserved": 0}, {"rental_uris": {"ios": "https://dc.lft.to/lastmile_qr_scan", "android": "https://dc.lft.to/lastmile_qr_scan"}, "lon": -77.033642, "type": "electric_scooter", "fusion_lat": 0.0, "lat": 38.9321515, "name": "82669821451197e5b4b0149f006feb0c", "fusion_lon": 0.0, "bike_id": "82669821451197e5b4b0149f006feb0c", "is_disabled": 0, "is_reserved": 0}, {"rental_uris": {"ios": "https://dc.lft.to/lastmile_qr_scan", "android": "https://dc.lft.to/lastmile_qr_scan"}, "lon": -76.98093383333334, "type": "electric_bike", "fusion_lat": 0.0, "lat": 38.88134733333333, "name": "e1cf3ba2e168e52b73f6a8aee4b8cca6", "fusion_lon": 0.0, "bike_id": "e1cf3ba2e168e52b73f6a8aee4b8cca6", "is_disabled": 0, "is_reserved": 0}, {"rental_uris": {"ios": "https://dc.lft.to/lastmile_qr_scan", "android": "https://dc.lft.to/lastmile_qr_scan"}, "lon": -77.03659083333334, "type": "electric_scooter", "fusion_lat": 0.0, "lat": 38.918146666666665, "name": "0c1cd389ff8368258027dfb9fb036a57", "fusion_lon": 0.0, "bike_id": "0c1cd389ff8368258027dfb9fb036a57", "is_disabled": 0, "is_reserved": 0}, {"rental_uris": {"ios": "https://dc.lft.to/lastmile_qr_scan", "android": "https://dc.lft.to/lastmile_qr_scan"}, "lon": -77.006017, "type": "electric_scooter", "fusion_lat": 0.0, "lat": 38.8849065, "name": "430d676d82447f13d639e23aec459689", "fusion_lon": 0.0, "bike_id": "430d676d82447f13d639e23aec459689", "is_disabled": 0, "is_reserved": 0}, {"rental_uris": {"ios": "https://dc.lft.to/lastmile_qr_scan", "android": "https://dc.lft.to/lastmile_qr_scan"}, "lon": -77.037173, "type": "electric_scooter", "fusion_lat": 0.0, "lat": 38.907004, "name": "a485cf47054d48be76d4bf3d4f5e514a", "fusion_lon": 0.0, "bike_id": "a485cf47054d48be76d4bf3d4f5e514a", "is_disabled": 0, "is_reserved": 0}, {"rental_uris": {"ios": "https://dc.lft.to/lastmile_qr_scan", "android": "https://dc.lft.to/lastmile_qr_scan"}, "lon": -77.03839583333334, "type": "electric_scooter", "fusion_lat": 0.0, "lat": 38.90751, "name": "06986928feb4fa45e59374956dbd1d92", "fusion_lon": 0.0, "bike_id": "06986928feb4fa45e59374956dbd1d92", "is_disabled": 0, "is_reserved": 0}, {"rental_uris": {"ios": "https://dc.lft.to/lastmile_qr_scan", "android": "https://dc.lft.to/lastmile_qr_scan"}, "lon": -77.02775083333333, "type": "electric_scooter", "fusion_lat": 0.0, "lat": 38.95379633333334, "name": "0dfc34a65464bb217bde546e17b16360", "fusion_lon": 0.0, "bike_id": "0dfc34a65464bb217bde546e17b16360", "is_disabled": 0, "is_reserved": 0}, {"rental_uris": {"ios": "https://dc.lft.to/lastmile_qr_scan", "android": "https://dc.lft.to/lastmile_qr_scan"}, "lon": -77.07719233333333, "type": "electric_scooter", "fusion_lat": 0.0, "lat": 38.947082, "name": "a108495ed49ab1609c4793f9fe3abfd1", "fusion_lon": 0.0, "bike_id": "a108495ed49ab1609c4793f9fe3abfd1", "is_disabled": 0, "is_reserved": 0}, {"rental_uris": {"ios": "https://dc.lft.to/lastmile_qr_scan", "android": "https://dc.lft.to/lastmile_qr_scan"}, "lon": -77.02547733333333, "type": "electric_scooter", "fusion_lat": 0.0, "lat": 38.924012, "name": "0b1bc78cd7a33c8fa8cc33be823a95ac", "fusion_lon": 0.0, "bike_id": "0b1bc78cd7a33c8fa8cc33be823a95ac", "is_disabled": 0, "is_reserved": 0}, {"rental_uris": {"ios": "https://dc.lft.to/lastmile_qr_scan", "android": "https://dc.lft.to/lastmile_qr_scan"}, "lon": -76.97305883333334, "type": "electric_scooter", "fusion_lat": 0.0, "lat": 38.91988333333333, "name": "3b9e197c2b8514d42433c1bc6eeb74f2", "fusion_lon": 0.0, "bike_id": "3b9e197c2b8514d42433c1bc6eeb74f2", "is_disabled": 0, "is_reserved": 0}, {"rental_uris": {"ios": "https://dc.lft.to/lastmile_qr_scan", "android": "https://dc.lft.to/lastmile_qr_scan"}, "lon": -77.0345235, "type": "electric_scooter", "fusion_lat": 0.0, "lat": 38.923495833333334, "name": "484cc294561159946540d0662c7b906c", "fusion_lon": 0.0, "bike_id": "484cc294561159946540d0662c7b906c", "is_disabled": 0, "is_reserved": 0}, {"rental_uris": {"ios": "https://dc.lft.to/lastmile_qr_scan", "android": "https://dc.lft.to/lastmile_qr_scan"}, "lon": -77.01311566666666, "type": "electric_scooter", "fusion_lat": 0.0, "lat": 38.897426333333335, "name": "8ef8edf2653976ef3fa4e2c94ae9b246", "fusion_lon": 0.0, "bike_id": "8ef8edf2653976ef3fa4e2c94ae9b246", "is_disabled": 0, "is_reserved": 0}, {"rental_uris": {"ios": "https://dc.lft.to/lastmile_qr_scan", "android": "https://dc.lft.to/lastmile_qr_scan"}, "lon": -77.01356383333334, "type": "electric_scooter", "fusion_lat": 0.0, "lat": 38.91989233333334, "name": "ce9e46de1f7fc0f6cb03c67609d51dc0", "fusion_lon": 0.0, "bike_id": "ce9e46de1f7fc0f6cb03c67609d51dc0", "is_disabled": 0, "is_reserved": 0}, {"rental_uris": {"ios": "https://dc.lft.to/lastmile_qr_scan", "android": "https://dc.lft.to/lastmile_qr_scan"}, "lon": -76.95245616666666, "type": "electric_bike", "fusion_lat": 0.0, "lat": 38.906991833333336, "name": "d206df2b4a96b143d3b2950a08a07141", "fusion_lon": 0.0, "bike_id": "d206df2b4a96b143d3b2950a08a07141", "is_disabled": 0, "is_reserved": 0}, {"rental_uris": {"ios": "https://dc.lft.to/lastmile_qr_scan", "android": "https://dc.lft.to/lastmile_qr_scan"}, "lon": -77.0220855, "type": "electric_scooter", "fusion_lat": 0.0, "lat": 38.9083075, "name": "f1e27d3b302981316881f22500e6df15", "fusion_lon": 0.0, "bike_id": "f1e27d3b302981316881f22500e6df15", "is_disabled": 0, "is_reserved": 0}, {"rental_uris": {"ios": "https://dc.lft.to/lastmile_qr_scan", "android": "https://dc.lft.to/lastmile_qr_scan"}, "lon": -76.98031333333333, "type": "electric_bike", "fusion_lat": 0.0, "lat": 38.90027333333333, "name": "7e4b23b2d8400b71c0577520cc7f7f9e", "fusion_lon": 0.0, "bike_id": "7e4b23b2d8400b71c0577520cc7f7f9e", "is_disabled": 0, "is_reserved": 0}, {"rental_uris": {"ios": "https://dc.lft.to/lastmile_qr_scan", "android": "https://dc.lft.to/lastmile_qr_scan"}, "lon": -77.02203783333333, "type": "electric_scooter", "fusion_lat": 0.0, "lat": 38.8872, "name": "40b4f3eda5c0f2bd416e5ffafaa751cd", "fusion_lon": 0.0, "bike_id": "40b4f3eda5c0f2bd416e5ffafaa751cd", "is_disabled": 0, "is_reserved": 0}, {"rental_uris": {"ios": "https://dc.lft.to/lastmile_qr_scan", "android": "https://dc.lft.to/lastmile_qr_scan"}, "lon": -77.021956, "type": "electric_scooter", "fusion_lat": 0.0, "lat": 38.93124783333333, "name": "55035c419b01b5768cbac8a3ac022215", "fusion_lon": 0.0, "bike_id": "55035c419b01b5768cbac8a3ac022215", "is_disabled": 0, "is_reserved": 0}, {"rental_uris": {"ios": "https://dc.lft.to/lastmile_qr_scan", "android": "https://dc.lft.to/lastmile_qr_scan"}, "lon": -77.0414835, "type": "electric_scooter", "fusion_lat": 0.0, "lat": 38.9235945, "name": "652fb90f5bfca48dc3e9ce14a46e89c6", "fusion_lon": 0.0, "bike_id": "652fb90f5bfca48dc3e9ce14a46e89c6", "is_disabled": 0, "is_reserved": 0}, {"rental_uris": {"ios": "https://dc.lft.to/lastmile_qr_scan", "android": "https://dc.lft.to/lastmile_qr_scan"}, "lon": -77.01813083333333, "type": "electric_scooter", "fusion_lat": 0.0, "lat": 38.91110616666667, "name": "1716f310ff79c1cc59fb1bc33d2c3116", "fusion_lon": 0.0, "bike_id": "1716f310ff79c1cc59fb1bc33d2c3116", "is_disabled": 0, "is_reserved": 0}, {"rental_uris": {"ios": "https://dc.lft.to/lastmile_qr_scan", "android": "https://dc.lft.to/lastmile_qr_scan"}, "lon": -77.05002883333333, "type": "electric_scooter", "fusion_lat": 0.0, "lat": 38.8922845, "name": "bd36a06ef9d22b1ae6c0dbe720581645", "fusion_lon": 0.0, "bike_id": "bd36a06ef9d22b1ae6c0dbe720581645", "is_disabled": 0, "is_reserved": 0}, {"rental_uris": {"ios": "https://dc.lft.to/lastmile_qr_scan", "android": "https://dc.lft.to/lastmile_qr_scan"}, "lon": -77.01357216666666, "type": "electric_scooter", "fusion_lat": 0.0, "lat": 38.871156666666664, "name": "57497fed36b5e7dd026f118dce6d95f4", "fusion_lon": 0.0, "bike_id": "57497fed36b5e7dd026f118dce6d95f4", "is_disabled": 0, "is_reserved": 0}, {"rental_uris": {"ios": "https://dc.lft.to/lastmile_qr_scan", "android": "https://dc.lft.to/lastmile_qr_scan"}, "lon": -77.02826383333333, "type": "electric_bike", "fusion_lat": 0.0, "lat": 38.9649305, "name": "ab12c2317507274e81b160deafed8f03", "fusion_lon": 0.0, "bike_id": "ab12c2317507274e81b160deafed8f03", "is_disabled": 0, "is_reserved": 0}, {"rental_uris": {"ios": "https://dc.lft.to/lastmile_qr_scan", "android": "https://dc.lft.to/lastmile_qr_scan"}, "lon": -76.94930133333334, "type": "electric_scooter", "fusion_lat": 0.0, "lat": 38.894779666666665, "name": "c31ed2210ae20ef6dfe9495bedcbda2f", "fusion_lon": 0.0, "bike_id": "c31ed2210ae20ef6dfe9495bedcbda2f", "is_disabled": 0, "is_reserved": 0}, {"rental_uris": {"ios": "https://dc.lft.to/lastmile_qr_scan", "android": "https://dc.lft.to/lastmile_qr_scan"}, "lon": -77.0320565, "type": "electric_scooter", "fusion_lat": 0.0, "lat": 38.920078333333336, "name": "9b3dca8d4f0e59843df798dc931af303", "fusion_lon": 0.0, "bike_id": "9b3dca8d4f0e59843df798dc931af303", "is_disabled": 0, "is_reserved": 0}, {"rental_uris": {"ios": "https://dc.lft.to/lastmile_qr_scan", "android": "https://dc.lft.to/lastmile_qr_scan"}, "lon": -77.11242683333333, "type": "electric_bike", "fusion_lat": 0.0, "lat": 38.81242733333333, "name": "c7dab16f1fc211bf2aac405769a72e4f", "fusion_lon": 0.0, "bike_id": "c7dab16f1fc211bf2aac405769a72e4f", "is_disabled": 0, "is_reserved": 0}, {"rental_uris": {"ios": "https://dc.lft.to/lastmile_qr_scan", "android": "https://dc.lft.to/lastmile_qr_scan"}, "lon": -77.02329816666666, "type": "electric_scooter", "fusion_lat": 0.0, "lat": 38.893940666666666, "name": "b882adbf186cb1d3da3ec5b2b9719e86", "fusion_lon": 0.0, "bike_id": "b882adbf186cb1d3da3ec5b2b9719e86", "is_disabled": 0, "is_reserved": 0}, {"rental_uris": {"ios": "https://dc.lft.to/lastmile_qr_scan", "android": "https://dc.lft.to/lastmile_qr_scan"}, "lon": -77.0492865, "type": "electric_scooter", "fusion_lat": 0.0, "lat": 38.90055183333333, "name": "d06b58dcd2dd5a464cb984e48ccbfecd", "fusion_lon": 0.0, "bike_id": "d06b58dcd2dd5a464cb984e48ccbfecd", "is_disabled": 0, "is_reserved": 0}, {"rental_uris": {"ios": "https://dc.lft.to/lastmile_qr_scan", "android": "https://dc.lft.to/lastmile_qr_scan"}, "lon": -76.951799, "type": "electric_scooter", "fusion_lat": 0.0, "lat": 38.89128933333333, "name": "e396b626eb7fa21468a58dc5ca2d3e77", "fusion_lon": 0.0, "bike_id": "e396b626eb7fa21468a58dc5ca2d3e77", "is_disabled": 0, "is_reserved": 0}, {"rental_uris": {"ios": "https://dc.lft.to/lastmile_qr_scan", "android": "https://dc.lft.to/lastmile_qr_scan"}, "lon": -77.00879416666666, "type": "electric_scooter", "fusion_lat": 0.0, "lat": 38.9050905, "name": "2bfb24d18c740e0a5d65596c51e8d32a", "fusion_lon": 0.0, "bike_id": "2bfb24d18c740e0a5d65596c51e8d32a", "is_disabled": 0, "is_reserved": 0}, {"rental_uris": {"ios": "https://dc.lft.to/lastmile_qr_scan", "android": "https://dc.lft.to/lastmile_qr_scan"}, "lon": -77.02585016666667, "type": "electric_scooter", "fusion_lat": 0.0, "lat": 38.915052833333334, "name": "bcf56ca3ace9ee7c39eac9a2c200a7ab", "fusion_lon": 0.0, "bike_id": "bcf56ca3ace9ee7c39eac9a2c200a7ab", "is_disabled": 0, "is_reserved": 0}, {"rental_uris": {"ios": "https://dc.lft.to/lastmile_qr_scan", "android": "https://dc.lft.to/lastmile_qr_scan"}, "lon": -77.01646083333333, "type": "electric_scooter", "fusion_lat": 0.0, "lat": 38.92931516666667, "name": "ab30d2c3a1e46b8cc3d75705b7f25285", "fusion_lon": 0.0, "bike_id": "ab30d2c3a1e46b8cc3d75705b7f25285", "is_disabled": 0, "is_reserved": 0}, {"rental_uris": {"ios": "https://dc.lft.to/lastmile_qr_scan", "android": "https://dc.lft.to/lastmile_qr_scan"}, "lon": -77.009118, "type": "electric_scooter", "fusion_lat": 0.0, "lat": 38.90917666666667, "name": "2c11f89f168ddd2b894058f979501069", "fusion_lon": 0.0, "bike_id": "2c11f89f168ddd2b894058f979501069", "is_disabled": 0, "is_reserved": 0}, {"rental_uris": {"ios": "https://dc.lft.to/lastmile_qr_scan", "android": "https://dc.lft.to/lastmile_qr_scan"}, "lon": -77.10331916666667, "type": "electric_bike", "fusion_lat": 0.0, "lat": 38.965095833333336, "name": "76812bd5e549186557ea9683f688ff73", "fusion_lon": 0.0, "bike_id": "76812bd5e549186557ea9683f688ff73", "is_disabled": 0, "is_reserved": 0}, {"rental_uris": {"ios": "https://dc.lft.to/lastmile_qr_scan", "android": "https://dc.lft.to/lastmile_qr_scan"}, "lon": -77.03840466666666, "type": "electric_scooter", "fusion_lat": 0.0, "lat": 38.90753866666667, "name": "f2200d48f52321894f9eb4131aa2b7e8", "fusion_lon": 0.0, "bike_id": "f2200d48f52321894f9eb4131aa2b7e8", "is_disabled": 0, "is_reserved": 0}, {"rental_uris": {"ios": "https://dc.lft.to/lastmile_qr_scan", "android": "https://dc.lft.to/lastmile_qr_scan"}, "lon": -77.0327505, "type": "electric_scooter", "fusion_lat": 0.0, "lat": 38.916231833333335, "name": "33c2a6ccff2b29a779f8dc5b30b78a25", "fusion_lon": 0.0, "bike_id": "33c2a6ccff2b29a779f8dc5b30b78a25", "is_disabled": 0, "is_reserved": 0}, {"rental_uris": {"ios": "https://dc.lft.to/lastmile_qr_scan", "android": "https://dc.lft.to/lastmile_qr_scan"}, "lon": -76.94911666666667, "type": "electric_scooter", "fusion_lat": 0.0, "lat": 38.89550083333334, "name": "c90ff58be6eb71b77c796e6806a5d51f", "fusion_lon": 0.0, "bike_id": "c90ff58be6eb71b77c796e6806a5d51f", "is_disabled": 0, "is_reserved": 0}, {"rental_uris": {"ios": "https://dc.lft.to/lastmile_qr_scan", "android": "https://dc.lft.to/lastmile_qr_scan"}, "lon": -77.05513133333334, "type": "electric_scooter", "fusion_lat": 0.0, "lat": 38.89962533333333, "name": "764757828437e34c52850a6e6faad3e7", "fusion_lon": 0.0, "bike_id": "764757828437e34c52850a6e6faad3e7", "is_disabled": 0, "is_reserved": 0}, {"rental_uris": {"ios": "https://dc.lft.to/lastmile_qr_scan", "android": "https://dc.lft.to/lastmile_qr_scan"}, "lon": -77.040344, "type": "electric_scooter", "fusion_lat": 0.0, "lat": 38.92429583333333, "name": "36a42f8dd566c30260ee7a717a47ac2a", "fusion_lon": 0.0, "bike_id": "36a42f8dd566c30260ee7a717a47ac2a", "is_disabled": 0, "is_reserved": 0}, {"rental_uris": {"ios": "https://dc.lft.to/lastmile_qr_scan", "android": "https://dc.lft.to/lastmile_qr_scan"}, "lon": -77.02930066666667, "type": "electric_scooter", "fusion_lat": 0.0, "lat": 38.933242666666665, "name": "8a74848ba414cf8935250d600fc1d66f", "fusion_lon": 0.0, "bike_id": "8a74848ba414cf8935250d600fc1d66f", "is_disabled": 0, "is_reserved": 0}, {"rental_uris": {"ios": "https://dc.lft.to/lastmile_qr_scan", "android": "https://dc.lft.to/lastmile_qr_scan"}, "lon": -77.03255783333333, "type": "electric_scooter", "fusion_lat": 0.0, "lat": 38.93530366666667, "name": "1d4e26f83df6ab6d9b255e3d10a770f8", "fusion_lon": 0.0, "bike_id": "1d4e26f83df6ab6d9b255e3d10a770f8", "is_disabled": 0, "is_reserved": 0}, {"rental_uris": {"ios": "https://dc.lft.to/lastmile_qr_scan", "android": "https://dc.lft.to/lastmile_qr_scan"}, "lon": -77.03129966666667, "type": "electric_scooter", "fusion_lat": 0.0, "lat": 38.9237945, "name": "152411492c3abfd743eb7ebb1c5764a6", "fusion_lon": 0.0, "bike_id": "152411492c3abfd743eb7ebb1c5764a6", "is_disabled": 0, "is_reserved": 0}, {"rental_uris": {"ios": "https://dc.lft.to/lastmile_qr_scan", "android": "https://dc.lft.to/lastmile_qr_scan"}, "lon": -77.05001666666666, "type": "electric_scooter", "fusion_lat": 0.0, "lat": 38.89227016666667, "name": "dfc57e4b02aaa502673ef167b02db4e0", "fusion_lon": 0.0, "bike_id": "dfc57e4b02aaa502673ef167b02db4e0", "is_disabled": 0, "is_reserved": 0}, {"rental_uris": {"ios": "https://dc.lft.to/lastmile_qr_scan", "android": "https://dc.lft.to/lastmile_qr_scan"}, "lon": -76.93830833333334, "type": "electric_scooter", "fusion_lat": 0.0, "lat": 38.89759566666667, "name": "a2e4b6a85dc36ce7dc2341ce380beda1", "fusion_lon": 0.0, "bike_id": "a2e4b6a85dc36ce7dc2341ce380beda1", "is_disabled": 0, "is_reserved": 0}, {"rental_uris": {"ios": "https://dc.lft.to/lastmile_qr_scan", "android": "https://dc.lft.to/lastmile_qr_scan"}, "lon": -77.03428433333333, "type": "electric_scooter", "fusion_lat": 0.0, "lat": 38.919185666666664, "name": "706816ff8f229654e6daa17b79b814b9", "fusion_lon": 0.0, "bike_id": "706816ff8f229654e6daa17b79b814b9", "is_disabled": 0, "is_reserved": 0}, {"rental_uris": {"ios": "https://dc.lft.to/lastmile_qr_scan", "android": "https://dc.lft.to/lastmile_qr_scan"}, "lon": -77.04416616666667, "type": "electric_scooter", "fusion_lat": 0.0, "lat": 38.92135316666667, "name": "23ca867b874f74b184cecbc43e019248", "fusion_lon": 0.0, "bike_id": "23ca867b874f74b184cecbc43e019248", "is_disabled": 0, "is_reserved": 0}, {"rental_uris": {"ios": "https://dc.lft.to/lastmile_qr_scan", "android": "https://dc.lft.to/lastmile_qr_scan"}, "lon": -77.03554633333333, "type": "electric_scooter", "fusion_lat": 0.0, "lat": 38.924060833333336, "name": "c0b2facef118a5fd93a07d8a6a88d29d", "fusion_lon": 0.0, "bike_id": "c0b2facef118a5fd93a07d8a6a88d29d", "is_disabled": 0, "is_reserved": 0}, {"rental_uris": {"ios": "https://dc.lft.to/lastmile_qr_scan", "android": "https://dc.lft.to/lastmile_qr_scan"}, "lon": -77.02720883333333, "type": "electric_scooter", "fusion_lat": 0.0, "lat": 38.8922455, "name": "feff3151eeb22cb51792ee71472b953d", "fusion_lon": 0.0, "bike_id": "feff3151eeb22cb51792ee71472b953d", "is_disabled": 0, "is_reserved": 0}, {"rental_uris": {"ios": "https://dc.lft.to/lastmile_qr_scan", "android": "https://dc.lft.to/lastmile_qr_scan"}, "lon": -76.994834, "type": "electric_scooter", "fusion_lat": 0.0, "lat": 38.9319935, "name": "de5489c0e94ad016b3be0c7eccb5681c", "fusion_lon": 0.0, "bike_id": "de5489c0e94ad016b3be0c7eccb5681c", "is_disabled": 0, "is_reserved": 0}, {"rental_uris": {"ios": "https://dc.lft.to/lastmile_qr_scan", "android": "https://dc.lft.to/lastmile_qr_scan"}, "lon": -77.02209633333334, "type": "electric_scooter", "fusion_lat": 0.0, "lat": 38.90573033333333, "name": "1b2acce8490525d736564762706316cf", "fusion_lon": 0.0, "bike_id": "1b2acce8490525d736564762706316cf", "is_disabled": 0, "is_reserved": 0}, {"rental_uris": {"ios": "https://dc.lft.to/lastmile_qr_scan", "android": "https://dc.lft.to/lastmile_qr_scan"}, "lon": -77.001146, "type": "electric_scooter", "fusion_lat": 0.0, "lat": 38.894373333333334, "name": "3f7f2afd95a77618dec95e0866c756c7", "fusion_lon": 0.0, "bike_id": "3f7f2afd95a77618dec95e0866c756c7", "is_disabled": 0, "is_reserved": 0}, {"rental_uris": {"ios": "https://dc.lft.to/lastmile_qr_scan", "android": "https://dc.lft.to/lastmile_qr_scan"}, "lon": -77.04818816666666, "type": "electric_scooter", "fusion_lat": 0.0, "lat": 38.9038335, "name": "eb2511ca4f9d81e33adfaaf93825edea", "fusion_lon": 0.0, "bike_id": "eb2511ca4f9d81e33adfaaf93825edea", "is_disabled": 0, "is_reserved": 0}, {"rental_uris": {"ios": "https://dc.lft.to/lastmile_qr_scan", "android": "https://dc.lft.to/lastmile_qr_scan"}, "lon": -77.02523866666667, "type": "electric_scooter", "fusion_lat": 0.0, "lat": 38.919821166666665, "name": "0ec44c0c24af721a91ba7b85b3883f10", "fusion_lon": 0.0, "bike_id": "0ec44c0c24af721a91ba7b85b3883f10", "is_disabled": 0, "is_reserved": 0}, {"rental_uris": {"ios": "https://dc.lft.to/lastmile_qr_scan", "android": "https://dc.lft.to/lastmile_qr_scan"}, "lon": -77.02617433333333, "type": "electric_scooter", "fusion_lat": 0.0, "lat": 38.929140333333336, "name": "bf222ebcf83371422d459a05bab3b172", "fusion_lon": 0.0, "bike_id": "bf222ebcf83371422d459a05bab3b172", "is_disabled": 0, "is_reserved": 0}, {"rental_uris": {"ios": "https://dc.lft.to/lastmile_qr_scan", "android": "https://dc.lft.to/lastmile_qr_scan"}, "lon": -77.057521, "type": "electric_scooter", "fusion_lat": 0.0, "lat": 38.934135166666664, "name": "0acb40bebd74885cb653e20d607b01a9", "fusion_lon": 0.0, "bike_id": "0acb40bebd74885cb653e20d607b01a9", "is_disabled": 0, "is_reserved": 0}, {"rental_uris": {"ios": "https://dc.lft.to/lastmile_qr_scan", "android": "https://dc.lft.to/lastmile_qr_scan"}, "lon": -77.03853366666667, "type": "electric_scooter", "fusion_lat": 0.0, "lat": 38.932491, "name": "610ab913fd73fc64f10dcc1c2c60dfc0", "fusion_lon": 0.0, "bike_id": "610ab913fd73fc64f10dcc1c2c60dfc0", "is_disabled": 0, "is_reserved": 0}, {"rental_uris": {"ios": "https://dc.lft.to/lastmile_qr_scan", "android": "https://dc.lft.to/lastmile_qr_scan"}, "lon": -77.11524733333333, "type": "electric_bike", "fusion_lat": 0.0, "lat": 38.85492166666667, "name": "c1314dd5f7e1645219a23e7998697780", "fusion_lon": 0.0, "bike_id": "c1314dd5f7e1645219a23e7998697780", "is_disabled": 0, "is_reserved": 0}, {"rental_uris": {"ios": "https://dc.lft.to/lastmile_qr_scan", "android": "https://dc.lft.to/lastmile_qr_scan"}, "lon": -77.04111116666667, "type": "electric_scooter", "fusion_lat": 0.0, "lat": 38.915593, "name": "50c79e94fc32bfc55b41d62d624bd18a", "fusion_lon": 0.0, "bike_id": "50c79e94fc32bfc55b41d62d624bd18a", "is_disabled": 0, "is_reserved": 0}, {"rental_uris": {"ios": "https://dc.lft.to/lastmile_qr_scan", "android": "https://dc.lft.to/lastmile_qr_scan"}, "lon": -76.99908283333333, "type": "electric_scooter", "fusion_lat": 0.0, "lat": 38.90936133333334, "name": "21590633877124b697f06e813b3485cb", "fusion_lon": 0.0, "bike_id": "21590633877124b697f06e813b3485cb", "is_disabled": 0, "is_reserved": 0}, {"rental_uris": {"ios": "https://dc.lft.to/lastmile_qr_scan", "android": "https://dc.lft.to/lastmile_qr_scan"}, "lon": -77.03068366666666, "type": "electric_scooter", "fusion_lat": 0.0, "lat": 38.91185816666667, "name": "b961d338b5d2e7e19399c39a5a2e2ed3", "fusion_lon": 0.0, "bike_id": "b961d338b5d2e7e19399c39a5a2e2ed3", "is_disabled": 0, "is_reserved": 0}, {"rental_uris": {"ios": "https://dc.lft.to/lastmile_qr_scan", "android": "https://dc.lft.to/lastmile_qr_scan"}, "lon": -77.04589516666667, "type": "electric_scooter", "fusion_lat": 0.0, "lat": 38.91718933333333, "name": "6d7d734fde9c62bc22276a5d12255bd1", "fusion_lon": 0.0, "bike_id": "6d7d734fde9c62bc22276a5d12255bd1", "is_disabled": 0, "is_reserved": 0}, {"rental_uris": {"ios": "https://dc.lft.to/lastmile_qr_scan", "android": "https://dc.lft.to/lastmile_qr_scan"}, "lon": -77.02836533333333, "type": "electric_scooter", "fusion_lat": 0.0, "lat": 38.8876895, "name": "fbc695e02526ba75aa4164f0facb6cb8", "fusion_lon": 0.0, "bike_id": "fbc695e02526ba75aa4164f0facb6cb8", "is_disabled": 0, "is_reserved": 0}, {"rental_uris": {"ios": "https://dc.lft.to/lastmile_qr_scan", "android": "https://dc.lft.to/lastmile_qr_scan"}, "lon": -77.03741716666667, "type": "electric_scooter", "fusion_lat": 0.0, "lat": 38.92564816666667, "name": "163f178202033e74ec15c370e180f8e4", "fusion_lon": 0.0, "bike_id": "163f178202033e74ec15c370e180f8e4", "is_disabled": 0, "is_reserved": 0}, {"rental_uris": {"ios": "https://dc.lft.to/lastmile_qr_scan", "android": "https://dc.lft.to/lastmile_qr_scan"}, "lon": -76.98768166666666, "type": "electric_scooter", "fusion_lat": 0.0, "lat": 38.911724, "name": "624f54260823692b5b734db0a911416d", "fusion_lon": 0.0, "bike_id": "624f54260823692b5b734db0a911416d", "is_disabled": 0, "is_reserved": 0}, {"rental_uris": {"ios": "https://dc.lft.to/lastmile_qr_scan", "android": "https://dc.lft.to/lastmile_qr_scan"}, "lon": -76.93161233333333, "type": "electric_scooter", "fusion_lat": 0.0, "lat": 38.89872233333333, "name": "81af9c075aab50aa3750d18a9b8227c8", "fusion_lon": 0.0, "bike_id": "81af9c075aab50aa3750d18a9b8227c8", "is_disabled": 0, "is_reserved": 0}, {"rental_uris": {"ios": "https://dc.lft.to/lastmile_qr_scan", "android": "https://dc.lft.to/lastmile_qr_scan"}, "lon": -77.029797, "type": "electric_scooter", "fusion_lat": 0.0, "lat": 38.907796, "name": "9c06462cde93b990e643f789c8865428", "fusion_lon": 0.0, "bike_id": "9c06462cde93b990e643f789c8865428", "is_disabled": 0, "is_reserved": 0}, {"rental_uris": {"ios": "https://dc.lft.to/lastmile_qr_scan", "android": "https://dc.lft.to/lastmile_qr_scan"}, "lon": -76.935241, "type": "electric_scooter", "fusion_lat": 0.0, "lat": 38.90870233333333, "name": "34069822a35c65523bce6e663b9e160b", "fusion_lon": 0.0, "bike_id": "34069822a35c65523bce6e663b9e160b", "is_disabled": 0, "is_reserved": 0}, {"rental_uris": {"ios": "https://dc.lft.to/lastmile_qr_scan", "android": "https://dc.lft.to/lastmile_qr_scan"}, "lon": -76.93808516666667, "type": "electric_scooter", "fusion_lat": 0.0, "lat": 38.913044, "name": "3f8d601d72e62201165754ad972fb614", "fusion_lon": 0.0, "bike_id": "3f8d601d72e62201165754ad972fb614", "is_disabled": 0, "is_reserved": 0}, {"rental_uris": {"ios": "https://dc.lft.to/lastmile_qr_scan", "android": "https://dc.lft.to/lastmile_qr_scan"}, "lon": -77.035063, "type": "electric_scooter", "fusion_lat": 0.0, "lat": 38.9215515, "name": "816304a3cb7553c976e381798064a8c9", "fusion_lon": 0.0, "bike_id": "816304a3cb7553c976e381798064a8c9", "is_disabled": 0, "is_reserved": 0}, {"rental_uris": {"ios": "https://dc.lft.to/lastmile_qr_scan", "android": "https://dc.lft.to/lastmile_qr_scan"}, "lon": -77.02839, "type": "electric_scooter", "fusion_lat": 0.0, "lat": 38.88766716666667, "name": "32b2b84012e2523ee4a10a185282d8ca", "fusion_lon": 0.0, "bike_id": "32b2b84012e2523ee4a10a185282d8ca", "is_disabled": 0, "is_reserved": 0}, {"rental_uris": {"ios": "https://dc.lft.to/lastmile_qr_scan", "android": "https://dc.lft.to/lastmile_qr_scan"}, "lon": -77.0404185, "type": "electric_scooter", "fusion_lat": 0.0, "lat": 38.9256625, "name": "99701eb6efeecd26819b0d84c47fff3c", "fusion_lon": 0.0, "bike_id": "99701eb6efeecd26819b0d84c47fff3c", "is_disabled": 0, "is_reserved": 0}, {"rental_uris": {"ios": "https://dc.lft.to/lastmile_qr_scan", "android": "https://dc.lft.to/lastmile_qr_scan"}, "lon": -77.032613, "type": "electric_scooter", "fusion_lat": 0.0, "lat": 38.91402716666666, "name": "42b3bc085b7b344c20e4d3d72462fde2", "fusion_lon": 0.0, "bike_id": "42b3bc085b7b344c20e4d3d72462fde2", "is_disabled": 0, "is_reserved": 0}, {"rental_uris": {"ios": "https://dc.lft.to/lastmile_qr_scan", "android": "https://dc.lft.to/lastmile_qr_scan"}, "lon": -76.98707816666666, "type": "electric_bike", "fusion_lat": 0.0, "lat": 38.901411333333336, "name": "23fb7b5536d7af08e79c4a8ebafdd162", "fusion_lon": 0.0, "bike_id": "23fb7b5536d7af08e79c4a8ebafdd162", "is_disabled": 0, "is_reserved": 0}, {"rental_uris": {"ios": "https://dc.lft.to/lastmile_qr_scan", "android": "https://dc.lft.to/lastmile_qr_scan"}, "lon": -77.127464, "type": "electric_bike", "fusion_lat": 0.0, "lat": 38.888121, "name": "6abd68e8cfd2e698b0d2ba35a9a496b1", "fusion_lon": 0.0, "bike_id": "6abd68e8cfd2e698b0d2ba35a9a496b1", "is_disabled": 0, "is_reserved": 0}, {"rental_uris": {"ios": "https://dc.lft.to/lastmile_qr_scan", "android": "https://dc.lft.to/lastmile_qr_scan"}, "lon": -77.0239565, "type": "electric_scooter", "fusion_lat": 0.0, "lat": 38.887434, "name": "bb7b3ac47fe46059b56bd1d2312af9de", "fusion_lon": 0.0, "bike_id": "bb7b3ac47fe46059b56bd1d2312af9de", "is_disabled": 0, "is_reserved": 0}, {"rental_uris": {"ios": "https://dc.lft.to/lastmile_qr_scan", "android": "https://dc.lft.to/lastmile_qr_scan"}, "lon": -77.031718, "type": "electric_scooter", "fusion_lat": 0.0, "lat": 38.89605, "name": "87071d07f72ef9266dfb56cea2c8150a", "fusion_lon": 0.0, "bike_id": "87071d07f72ef9266dfb56cea2c8150a", "is_disabled": 0, "is_reserved": 0}, {"rental_uris": {"ios": "https://dc.lft.to/lastmile_qr_scan", "android": "https://dc.lft.to/lastmile_qr_scan"}, "lon": -77.06160533333333, "type": "electric_scooter", "fusion_lat": 0.0, "lat": 38.94232266666667, "name": "ad8fc303e1f2fbea498e288e8fab2559", "fusion_lon": 0.0, "bike_id": "ad8fc303e1f2fbea498e288e8fab2559", "is_disabled": 0, "is_reserved": 0}, {"rental_uris": {"ios": "https://dc.lft.to/lastmile_qr_scan", "android": "https://dc.lft.to/lastmile_qr_scan"}, "lon": -77.02987233333333, "type": "electric_scooter", "fusion_lat": 0.0, "lat": 38.93113683333333, "name": "39e7b59f240b8f26323553b85af5a073", "fusion_lon": 0.0, "bike_id": "39e7b59f240b8f26323553b85af5a073", "is_disabled": 0, "is_reserved": 0}, {"rental_uris": {"ios": "https://dc.lft.to/lastmile_qr_scan", "android": "https://dc.lft.to/lastmile_qr_scan"}, "lon": -76.9788775, "type": "electric_scooter", "fusion_lat": 0.0, "lat": 38.91673866666667, "name": "58d843a20593bdd4449ed95fc77ad7e0", "fusion_lon": 0.0, "bike_id": "58d843a20593bdd4449ed95fc77ad7e0", "is_disabled": 0, "is_reserved": 0}, {"rental_uris": {"ios": "https://dc.lft.to/lastmile_qr_scan", "android": "https://dc.lft.to/lastmile_qr_scan"}, "lon": -77.04960716666666, "type": "electric_scooter", "fusion_lat": 0.0, "lat": 38.896460833333336, "name": "59ac4976f3a292974537eb8e57fa7f39", "fusion_lon": 0.0, "bike_id": "59ac4976f3a292974537eb8e57fa7f39", "is_disabled": 0, "is_reserved": 0}, {"rental_uris": {"ios": "https://dc.lft.to/lastmile_qr_scan", "android": "https://dc.lft.to/lastmile_qr_scan"}, "lon": -77.04656533333333, "type": "electric_scooter", "fusion_lat": 0.0, "lat": 38.905628, "name": "8181aac8a7331f070c71eb2b24f61290", "fusion_lon": 0.0, "bike_id": "8181aac8a7331f070c71eb2b24f61290", "is_disabled": 0, "is_reserved": 0}, {"rental_uris": {"ios": "https://dc.lft.to/lastmile_qr_scan", "android": "https://dc.lft.to/lastmile_qr_scan"}, "lon": -77.02927316666667, "type": "electric_scooter", "fusion_lat": 0.0, "lat": 38.88219216666667, "name": "98f6a3360d84d1cdee7792750002d8e9", "fusion_lon": 0.0, "bike_id": "98f6a3360d84d1cdee7792750002d8e9", "is_disabled": 0, "is_reserved": 0}, {"rental_uris": {"ios": "https://dc.lft.to/lastmile_qr_scan", "android": "https://dc.lft.to/lastmile_qr_scan"}, "lon": -77.073603, "type": "electric_scooter", "fusion_lat": 0.0, "lat": 38.93740283333333, "name": "f94ded5d23b48b47ad6060399afe15b7", "fusion_lon": 0.0, "bike_id": "f94ded5d23b48b47ad6060399afe15b7", "is_disabled": 0, "is_reserved": 0}, {"rental_uris": {"ios": "https://dc.lft.to/lastmile_qr_scan", "android": "https://dc.lft.to/lastmile_qr_scan"}, "lon": -77.01867283333333, "type": "electric_scooter", "fusion_lat": 0.0, "lat": 38.949000166666664, "name": "74489a91987bdb3d42c78102dcf366be", "fusion_lon": 0.0, "bike_id": "74489a91987bdb3d42c78102dcf366be", "is_disabled": 0, "is_reserved": 0}, {"rental_uris": {"ios": "https://dc.lft.to/lastmile_qr_scan", "android": "https://dc.lft.to/lastmile_qr_scan"}, "lon": -76.976307, "type": "electric_scooter", "fusion_lat": 0.0, "lat": 38.905707666666665, "name": "0fd22592e5f916a4d033aeec62a10302", "fusion_lon": 0.0, "bike_id": "0fd22592e5f916a4d033aeec62a10302", "is_disabled": 0, "is_reserved": 0}, {"rental_uris": {"ios": "https://dc.lft.to/lastmile_qr_scan", "android": "https://dc.lft.to/lastmile_qr_scan"}, "lon": -77.04807116666667, "type": "electric_scooter", "fusion_lat": 0.0, "lat": 38.89736, "name": "47d503aa1ebfdbbcf4918fd20668111e", "fusion_lon": 0.0, "bike_id": "47d503aa1ebfdbbcf4918fd20668111e", "is_disabled": 0, "is_reserved": 0}, {"rental_uris": {"ios": "https://dc.lft.to/lastmile_qr_scan", "android": "https://dc.lft.to/lastmile_qr_scan"}, "lon": -77.05575933333333, "type": "electric_scooter", "fusion_lat": 0.0, "lat": 38.89959866666667, "name": "8639d3de816109e63122e3d4cb9d4009", "fusion_lon": 0.0, "bike_id": "8639d3de816109e63122e3d4cb9d4009", "is_disabled": 0, "is_reserved": 0}, {"rental_uris": {"ios": "https://dc.lft.to/lastmile_qr_scan", "android": "https://dc.lft.to/lastmile_qr_scan"}, "lon": -77.06638816666667, "type": "electric_scooter", "fusion_lat": 0.0, "lat": 38.913784, "name": "2bad9cf74449b373e6821c6afd3ea362", "fusion_lon": 0.0, "bike_id": "2bad9cf74449b373e6821c6afd3ea362", "is_disabled": 0, "is_reserved": 0}, {"rental_uris": {"ios": "https://dc.lft.to/lastmile_qr_scan", "android": "https://dc.lft.to/lastmile_qr_scan"}, "lon": -77.02980816666667, "type": "electric_bike", "fusion_lat": 0.0, "lat": 38.9369825, "name": "921afad941ae92267d759c691ec2e7f7", "fusion_lon": 0.0, "bike_id": "921afad941ae92267d759c691ec2e7f7", "is_disabled": 0, "is_reserved": 0}, {"rental_uris": {"ios": "https://dc.lft.to/lastmile_qr_scan", "android": "https://dc.lft.to/lastmile_qr_scan"}, "lon": -77.031843, "type": "electric_scooter", "fusion_lat": 0.0, "lat": 38.90844033333333, "name": "dd47bede0578a32a6f3b00d9536223a4", "fusion_lon": 0.0, "bike_id": "dd47bede0578a32a6f3b00d9536223a4", "is_disabled": 0, "is_reserved": 0}, {"rental_uris": {"ios": "https://dc.lft.to/lastmile_qr_scan", "android": "https://dc.lft.to/lastmile_qr_scan"}, "lon": -76.96527583333334, "type": "electric_scooter", "fusion_lat": 0.0, "lat": 38.8762525, "name": "37a1d71072c45c7ae7a111dd92037076", "fusion_lon": 0.0, "bike_id": "37a1d71072c45c7ae7a111dd92037076", "is_disabled": 0, "is_reserved": 0}, {"rental_uris": {"ios": "https://dc.lft.to/lastmile_qr_scan", "android": "https://dc.lft.to/lastmile_qr_scan"}, "lon": -77.046124, "type": "electric_scooter", "fusion_lat": 0.0, "lat": 38.90269583333333, "name": "e89e1f4a60e479b8df3f36477b5030db", "fusion_lon": 0.0, "bike_id": "e89e1f4a60e479b8df3f36477b5030db", "is_disabled": 0, "is_reserved": 0}, {"rental_uris": {"ios": "https://dc.lft.to/lastmile_qr_scan", "android": "https://dc.lft.to/lastmile_qr_scan"}, "lon": -76.9933585, "type": "electric_bike", "fusion_lat": 0.0, "lat": 38.96193616666667, "name": "d4b0db328969954a285b789da190c7f6", "fusion_lon": 0.0, "bike_id": "d4b0db328969954a285b789da190c7f6", "is_disabled": 0, "is_reserved": 0}, {"rental_uris": {"ios": "https://dc.lft.to/lastmile_qr_scan", "android": "https://dc.lft.to/lastmile_qr_scan"}, "lon": -77.0150745, "type": "electric_scooter", "fusion_lat": 0.0, "lat": 38.916116, "name": "5a8e876d513dde2570a77e18fe9e51bc", "fusion_lon": 0.0, "bike_id": "5a8e876d513dde2570a77e18fe9e51bc", "is_disabled": 0, "is_reserved": 0}, {"rental_uris": {"ios": "https://dc.lft.to/lastmile_qr_scan", "android": "https://dc.lft.to/lastmile_qr_scan"}, "lon": -77.0262145, "type": "electric_scooter", "fusion_lat": 0.0, "lat": 38.92787633333333, "name": "0c9233f7e036fb55f3cb3994410b5590", "fusion_lon": 0.0, "bike_id": "0c9233f7e036fb55f3cb3994410b5590", "is_disabled": 0, "is_reserved": 0}, {"rental_uris": {"ios": "https://dc.lft.to/lastmile_qr_scan", "android": "https://dc.lft.to/lastmile_qr_scan"}, "lon": -77.0366455, "type": "electric_scooter", "fusion_lat": 0.0, "lat": 38.90276766666667, "name": "4ac4d60f2daf632dacff6be8725653e8", "fusion_lon": 0.0, "bike_id": "4ac4d60f2daf632dacff6be8725653e8", "is_disabled": 0, "is_reserved": 0}, {"rental_uris": {"ios": "https://dc.lft.to/lastmile_qr_scan", "android": "https://dc.lft.to/lastmile_qr_scan"}, "lon": -77.04828166666667, "type": "electric_scooter", "fusion_lat": 0.0, "lat": 38.909486666666666, "name": "ba38b6629b27ddb19ab8cc53ff44dd70", "fusion_lon": 0.0, "bike_id": "ba38b6629b27ddb19ab8cc53ff44dd70", "is_disabled": 0, "is_reserved": 0}, {"rental_uris": {"ios": "https://dc.lft.to/lastmile_qr_scan", "android": "https://dc.lft.to/lastmile_qr_scan"}, "lon": -76.98514616666667, "type": "electric_scooter", "fusion_lat": 0.0, "lat": 38.91002016666667, "name": "d278682df2d1adf871e590c97f6fc1fb", "fusion_lon": 0.0, "bike_id": "d278682df2d1adf871e590c97f6fc1fb", "is_disabled": 0, "is_reserved": 0}, {"rental_uris": {"ios": "https://dc.lft.to/lastmile_qr_scan", "android": "https://dc.lft.to/lastmile_qr_scan"}, "lon": -76.98610133333334, "type": "electric_scooter", "fusion_lat": 0.0, "lat": 38.878284, "name": "0db768f6a3319217d8caa84939589d2b", "fusion_lon": 0.0, "bike_id": "0db768f6a3319217d8caa84939589d2b", "is_disabled": 0, "is_reserved": 0}, {"rental_uris": {"ios": "https://dc.lft.to/lastmile_qr_scan", "android": "https://dc.lft.to/lastmile_qr_scan"}, "lon": -76.9741315, "type": "electric_scooter", "fusion_lat": 0.0, "lat": 38.9023115, "name": "dd1e5af66754a006e2990719388a460f", "fusion_lon": 0.0, "bike_id": "dd1e5af66754a006e2990719388a460f", "is_disabled": 0, "is_reserved": 0}, {"rental_uris": {"ios": "https://dc.lft.to/lastmile_qr_scan", "android": "https://dc.lft.to/lastmile_qr_scan"}, "lon": -76.95673366666666, "type": "electric_bike", "fusion_lat": 0.0, "lat": 38.947294, "name": "031c2d1593762f4567e5bab487405650", "fusion_lon": 0.0, "bike_id": "031c2d1593762f4567e5bab487405650", "is_disabled": 0, "is_reserved": 0}, {"rental_uris": {"ios": "https://dc.lft.to/lastmile_qr_scan", "android": "https://dc.lft.to/lastmile_qr_scan"}, "lon": -77.01118133333334, "type": "electric_scooter", "fusion_lat": 0.0, "lat": 38.870847166666664, "name": "2c133cac56d87b9bfe507ece3393c83a", "fusion_lon": 0.0, "bike_id": "2c133cac56d87b9bfe507ece3393c83a", "is_disabled": 0, "is_reserved": 0}, {"rental_uris": {"ios": "https://dc.lft.to/lastmile_qr_scan", "android": "https://dc.lft.to/lastmile_qr_scan"}, "lon": -77.03834633333334, "type": "electric_scooter", "fusion_lat": 0.0, "lat": 38.90751783333333, "name": "cd634d581b1328d4817158c009a88283", "fusion_lon": 0.0, "bike_id": "cd634d581b1328d4817158c009a88283", "is_disabled": 0, "is_reserved": 0}, {"rental_uris": {"ios": "https://dc.lft.to/lastmile_qr_scan", "android": "https://dc.lft.to/lastmile_qr_scan"}, "lon": -77.00333266666667, "type": "electric_bike", "fusion_lat": 0.0, "lat": 38.8765495, "name": "a1e418e5a0c06c59ae77491390f9af80", "fusion_lon": 0.0, "bike_id": "a1e418e5a0c06c59ae77491390f9af80", "is_disabled": 0, "is_reserved": 0}, {"rental_uris": {"ios": "https://dc.lft.to/lastmile_qr_scan", "android": "https://dc.lft.to/lastmile_qr_scan"}, "lon": -77.0389265, "type": "electric_scooter", "fusion_lat": 0.0, "lat": 38.92245583333333, "name": "8244ea106ac58b5a4682f12d72db2569", "fusion_lon": 0.0, "bike_id": "8244ea106ac58b5a4682f12d72db2569", "is_disabled": 0, "is_reserved": 0}, {"rental_uris": {"ios": "https://dc.lft.to/lastmile_qr_scan", "android": "https://dc.lft.to/lastmile_qr_scan"}, "lon": -76.92848066666667, "type": "electric_scooter", "fusion_lat": 0.0, "lat": 38.88357766666667, "name": "de7f827caa3ed34396bbb660cb2fc89c", "fusion_lon": 0.0, "bike_id": "de7f827caa3ed34396bbb660cb2fc89c", "is_disabled": 0, "is_reserved": 0}, {"rental_uris": {"ios": "https://dc.lft.to/lastmile_qr_scan", "android": "https://dc.lft.to/lastmile_qr_scan"}, "lon": -77.03412466666667, "type": "electric_scooter", "fusion_lat": 0.0, "lat": 38.924263833333335, "name": "bb9e5575f9048c26677a41a61030cd03", "fusion_lon": 0.0, "bike_id": "bb9e5575f9048c26677a41a61030cd03", "is_disabled": 0, "is_reserved": 0}, {"rental_uris": {"ios": "https://dc.lft.to/lastmile_qr_scan", "android": "https://dc.lft.to/lastmile_qr_scan"}, "lon": -77.031779, "type": "electric_scooter", "fusion_lat": 0.0, "lat": 38.893493, "name": "9de48e89dfc80223e655cb841c5c08b6", "fusion_lon": 0.0, "bike_id": "9de48e89dfc80223e655cb841c5c08b6", "is_disabled": 0, "is_reserved": 0}, {"rental_uris": {"ios": "https://dc.lft.to/lastmile_qr_scan", "android": "https://dc.lft.to/lastmile_qr_scan"}, "lon": -76.99460383333333, "type": "electric_scooter", "fusion_lat": 0.0, "lat": 38.8516085, "name": "ed6a8cdfb4a2a4785ee70cec25644fc8", "fusion_lon": 0.0, "bike_id": "ed6a8cdfb4a2a4785ee70cec25644fc8", "is_disabled": 0, "is_reserved": 0}, {"rental_uris": {"ios": "https://dc.lft.to/lastmile_qr_scan", "android": "https://dc.lft.to/lastmile_qr_scan"}, "lon": -77.03567783333334, "type": "electric_scooter", "fusion_lat": 0.0, "lat": 38.9397065, "name": "20328111a46d40d597f59212af06b00c", "fusion_lon": 0.0, "bike_id": "20328111a46d40d597f59212af06b00c", "is_disabled": 0, "is_reserved": 0}, {"rental_uris": {"ios": "https://dc.lft.to/lastmile_qr_scan", "android": "https://dc.lft.to/lastmile_qr_scan"}, "lon": -77.02016416666666, "type": "electric_bike", "fusion_lat": 0.0, "lat": 38.9373025, "name": "0ec847597d1770f6850d300498ffe583", "fusion_lon": 0.0, "bike_id": "0ec847597d1770f6850d300498ffe583", "is_disabled": 0, "is_reserved": 0}, {"rental_uris": {"ios": "https://dc.lft.to/lastmile_qr_scan", "android": "https://dc.lft.to/lastmile_qr_scan"}, "lon": -76.93159516666667, "type": "electric_scooter", "fusion_lat": 0.0, "lat": 38.898755666666666, "name": "acc20c53737f1d5f16e697f69f3e9c1c", "fusion_lon": 0.0, "bike_id": "acc20c53737f1d5f16e697f69f3e9c1c", "is_disabled": 0, "is_reserved": 0}, {"rental_uris": {"ios": "https://dc.lft.to/lastmile_qr_scan", "android": "https://dc.lft.to/lastmile_qr_scan"}, "lon": -76.9484065, "type": "electric_scooter", "fusion_lat": 0.0, "lat": 38.884118666666666, "name": "5d869b2ac76764ad9babad13e68fa74c", "fusion_lon": 0.0, "bike_id": "5d869b2ac76764ad9babad13e68fa74c", "is_disabled": 0, "is_reserved": 0}, {"rental_uris": {"ios": "https://dc.lft.to/lastmile_qr_scan", "android": "https://dc.lft.to/lastmile_qr_scan"}, "lon": -77.04571366666667, "type": "electric_scooter", "fusion_lat": 0.0, "lat": 38.9105535, "name": "25e491ce707df84c7f14c0bb771e8635", "fusion_lon": 0.0, "bike_id": "25e491ce707df84c7f14c0bb771e8635", "is_disabled": 0, "is_reserved": 0}, {"rental_uris": {"ios": "https://dc.lft.to/lastmile_qr_scan", "android": "https://dc.lft.to/lastmile_qr_scan"}, "lon": -76.92879383333333, "type": "electric_scooter", "fusion_lat": 0.0, "lat": 38.884413333333335, "name": "b9423420666c0535e153644ec34242c9", "fusion_lon": 0.0, "bike_id": "b9423420666c0535e153644ec34242c9", "is_disabled": 0, "is_reserved": 0}, {"rental_uris": {"ios": "https://dc.lft.to/lastmile_qr_scan", "android": "https://dc.lft.to/lastmile_qr_scan"}, "lon": -77.08043233333333, "type": "electric_bike", "fusion_lat": 0.0, "lat": 38.848448166666664, "name": "eb9ca12e92dc10ad5062f37829cc5da6", "fusion_lon": 0.0, "bike_id": "eb9ca12e92dc10ad5062f37829cc5da6", "is_disabled": 0, "is_reserved": 0}, {"rental_uris": {"ios": "https://dc.lft.to/lastmile_qr_scan", "android": "https://dc.lft.to/lastmile_qr_scan"}, "lon": -77.03952616666666, "type": "electric_scooter", "fusion_lat": 0.0, "lat": 38.902686333333335, "name": "9ed38c0519d97c118777171d84d1df0e", "fusion_lon": 0.0, "bike_id": "9ed38c0519d97c118777171d84d1df0e", "is_disabled": 0, "is_reserved": 0}, {"rental_uris": {"ios": "https://dc.lft.to/lastmile_qr_scan", "android": "https://dc.lft.to/lastmile_qr_scan"}, "lon": -77.04539033333333, "type": "electric_scooter", "fusion_lat": 0.0, "lat": 38.89480566666667, "name": "8a8fa5b2ed0a363eb442fe18a4e641f0", "fusion_lon": 0.0, "bike_id": "8a8fa5b2ed0a363eb442fe18a4e641f0", "is_disabled": 0, "is_reserved": 0}, {"rental_uris": {"ios": "https://dc.lft.to/lastmile_qr_scan", "android": "https://dc.lft.to/lastmile_qr_scan"}, "lon": -77.02708766666667, "type": "electric_scooter", "fusion_lat": 0.0, "lat": 38.909454, "name": "1aac6657e1869296aa97e267e29256d7", "fusion_lon": 0.0, "bike_id": "1aac6657e1869296aa97e267e29256d7", "is_disabled": 0, "is_reserved": 0}, {"rental_uris": {"ios": "https://dc.lft.to/lastmile_qr_scan", "android": "https://dc.lft.to/lastmile_qr_scan"}, "lon": -76.98338516666666, "type": "electric_scooter", "fusion_lat": 0.0, "lat": 38.915342333333335, "name": "15cc5e222cb0392f822a71684ab300e4", "fusion_lon": 0.0, "bike_id": "15cc5e222cb0392f822a71684ab300e4", "is_disabled": 0, "is_reserved": 0}, {"rental_uris": {"ios": "https://dc.lft.to/lastmile_qr_scan", "android": "https://dc.lft.to/lastmile_qr_scan"}, "lon": -77.055181, "type": "electric_scooter", "fusion_lat": 0.0, "lat": 38.89961616666667, "name": "8bd9b275c6c430607583212264f6993b", "fusion_lon": 0.0, "bike_id": "8bd9b275c6c430607583212264f6993b", "is_disabled": 0, "is_reserved": 0}, {"rental_uris": {"ios": "https://dc.lft.to/lastmile_qr_scan", "android": "https://dc.lft.to/lastmile_qr_scan"}, "lon": -77.02698883333333, "type": "electric_scooter", "fusion_lat": 0.0, "lat": 38.9066925, "name": "6a1c8976bb36519e2aa20e0ff964c88c", "fusion_lon": 0.0, "bike_id": "6a1c8976bb36519e2aa20e0ff964c88c", "is_disabled": 0, "is_reserved": 0}, {"rental_uris": {"ios": "https://dc.lft.to/lastmile_qr_scan", "android": "https://dc.lft.to/lastmile_qr_scan"}, "lon": -77.031772, "type": "electric_scooter", "fusion_lat": 0.0, "lat": 38.89819283333333, "name": "05340b2b1ebf24744601d25c312bbad4", "fusion_lon": 0.0, "bike_id": "05340b2b1ebf24744601d25c312bbad4", "is_disabled": 0, "is_reserved": 0}, {"rental_uris": {"ios": "https://dc.lft.to/lastmile_qr_scan", "android": "https://dc.lft.to/lastmile_qr_scan"}, "lon": -77.07305283333334, "type": "electric_scooter", "fusion_lat": 0.0, "lat": 38.93620083333333, "name": "06106ee421c072715e232ff3317d1b2d", "fusion_lon": 0.0, "bike_id": "06106ee421c072715e232ff3317d1b2d", "is_disabled": 0, "is_reserved": 0}, {"rental_uris": {"ios": "https://dc.lft.to/lastmile_qr_scan", "android": "https://dc.lft.to/lastmile_qr_scan"}, "lon": -77.02650666666666, "type": "electric_scooter", "fusion_lat": 0.0, "lat": 38.88109383333333, "name": "ee5abbc003e58a06c8f11844ceb6f07b", "fusion_lon": 0.0, "bike_id": "ee5abbc003e58a06c8f11844ceb6f07b", "is_disabled": 0, "is_reserved": 0}, {"rental_uris": {"ios": "https://dc.lft.to/lastmile_qr_scan", "android": "https://dc.lft.to/lastmile_qr_scan"}, "lon": -77.02846416666667, "type": "electric_scooter", "fusion_lat": 0.0, "lat": 38.93450966666666, "name": "1e4fb3aaff4169dd3ae65973f4d0dcc3", "fusion_lon": 0.0, "bike_id": "1e4fb3aaff4169dd3ae65973f4d0dcc3", "is_disabled": 0, "is_reserved": 0}, {"rental_uris": {"ios": "https://dc.lft.to/lastmile_qr_scan", "android": "https://dc.lft.to/lastmile_qr_scan"}, "lon": -76.95469266666667, "type": "electric_bike", "fusion_lat": 0.0, "lat": 38.88638316666667, "name": "72b6c0e4767316cc3c695fab18ddb1a9", "fusion_lon": 0.0, "bike_id": "72b6c0e4767316cc3c695fab18ddb1a9", "is_disabled": 0, "is_reserved": 0}, {"rental_uris": {"ios": "https://dc.lft.to/lastmile_qr_scan", "android": "https://dc.lft.to/lastmile_qr_scan"}, "lon": -77.02660766666666, "type": "electric_scooter", "fusion_lat": 0.0, "lat": 38.92877266666667, "name": "aeb3d3c1e6a41379add1f978362bde19", "fusion_lon": 0.0, "bike_id": "aeb3d3c1e6a41379add1f978362bde19", "is_disabled": 0, "is_reserved": 0}, {"rental_uris": {"ios": "https://dc.lft.to/lastmile_qr_scan", "android": "https://dc.lft.to/lastmile_qr_scan"}, "lon": -77.00660133333334, "type": "electric_scooter", "fusion_lat": 0.0, "lat": 38.87642066666667, "name": "7ec25a07cda2e0a5ee78d6eea2f6115b", "fusion_lon": 0.0, "bike_id": "7ec25a07cda2e0a5ee78d6eea2f6115b", "is_disabled": 0, "is_reserved": 0}, {"rental_uris": {"ios": "https://dc.lft.to/lastmile_qr_scan", "android": "https://dc.lft.to/lastmile_qr_scan"}, "lon": -76.99062366666666, "type": "electric_scooter", "fusion_lat": 0.0, "lat": 38.86348683333333, "name": "821b6e934ec43c25465f78c22d354a39", "fusion_lon": 0.0, "bike_id": "821b6e934ec43c25465f78c22d354a39", "is_disabled": 0, "is_reserved": 0}, {"rental_uris": {"ios": "https://dc.lft.to/lastmile_qr_scan", "android": "https://dc.lft.to/lastmile_qr_scan"}, "lon": -77.0363255, "type": "electric_scooter", "fusion_lat": 0.0, "lat": 38.9130425, "name": "172cdb6ef5a4f843a66026f929f2740c", "fusion_lon": 0.0, "bike_id": "172cdb6ef5a4f843a66026f929f2740c", "is_disabled": 0, "is_reserved": 0}, {"rental_uris": {"ios": "https://dc.lft.to/lastmile_qr_scan", "android": "https://dc.lft.to/lastmile_qr_scan"}, "lon": -77.03205366666667, "type": "electric_scooter", "fusion_lat": 0.0, "lat": 38.90018416666667, "name": "ab4ecc4528ec8a022a7fc0ad2b0b66f3", "fusion_lon": 0.0, "bike_id": "ab4ecc4528ec8a022a7fc0ad2b0b66f3", "is_disabled": 0, "is_reserved": 0}, {"rental_uris": {"ios": "https://dc.lft.to/lastmile_qr_scan", "android": "https://dc.lft.to/lastmile_qr_scan"}, "lon": -77.03303633333333, "type": "electric_scooter", "fusion_lat": 0.0, "lat": 38.90906366666667, "name": "1189ba5b0f8094b34b2e360329dd2bf8", "fusion_lon": 0.0, "bike_id": "1189ba5b0f8094b34b2e360329dd2bf8", "is_disabled": 0, "is_reserved": 0}, {"rental_uris": {"ios": "https://dc.lft.to/lastmile_qr_scan", "android": "https://dc.lft.to/lastmile_qr_scan"}, "lon": -77.12625783333333, "type": "electric_bike", "fusion_lat": 0.0, "lat": 39.058102, "name": "ba6afed9a7e1cf5dbeced7aebf60787e", "fusion_lon": 0.0, "bike_id": "ba6afed9a7e1cf5dbeced7aebf60787e", "is_disabled": 0, "is_reserved": 0}, {"rental_uris": {"ios": "https://dc.lft.to/lastmile_qr_scan", "android": "https://dc.lft.to/lastmile_qr_scan"}, "lon": -77.0204325, "type": "electric_scooter", "fusion_lat": 0.0, "lat": 38.91557666666667, "name": "aa97a3814e1fb00a473070aa583cb0cd", "fusion_lon": 0.0, "bike_id": "aa97a3814e1fb00a473070aa583cb0cd", "is_disabled": 0, "is_reserved": 0}, {"rental_uris": {"ios": "https://dc.lft.to/lastmile_qr_scan", "android": "https://dc.lft.to/lastmile_qr_scan"}, "lon": -77.03329433333333, "type": "electric_scooter", "fusion_lat": 0.0, "lat": 38.89882333333333, "name": "66934000a9617ae207c77834dd24b31c", "fusion_lon": 0.0, "bike_id": "66934000a9617ae207c77834dd24b31c", "is_disabled": 0, "is_reserved": 0}, {"rental_uris": {"ios": "https://dc.lft.to/lastmile_qr_scan", "android": "https://dc.lft.to/lastmile_qr_scan"}, "lon": -77.04852133333333, "type": "electric_scooter", "fusion_lat": 0.0, "lat": 38.906155166666665, "name": "aa92a46cc1228b9fb0de8da8128057b8", "fusion_lon": 0.0, "bike_id": "aa92a46cc1228b9fb0de8da8128057b8", "is_disabled": 0, "is_reserved": 0}, {"rental_uris": {"ios": "https://dc.lft.to/lastmile_qr_scan", "android": "https://dc.lft.to/lastmile_qr_scan"}, "lon": -77.02967866666667, "type": "electric_scooter", "fusion_lat": 0.0, "lat": 38.8921205, "name": "68be8a1efac9ed0dd8687f866051c1a1", "fusion_lon": 0.0, "bike_id": "68be8a1efac9ed0dd8687f866051c1a1", "is_disabled": 0, "is_reserved": 0}, {"rental_uris": {"ios": "https://dc.lft.to/lastmile_qr_scan", "android": "https://dc.lft.to/lastmile_qr_scan"}, "lon": -77.03420683333333, "type": "electric_scooter", "fusion_lat": 0.0, "lat": 38.93537383333334, "name": "5656f03e388608787e01288398779451", "fusion_lon": 0.0, "bike_id": "5656f03e388608787e01288398779451", "is_disabled": 0, "is_reserved": 0}, {"rental_uris": {"ios": "https://dc.lft.to/lastmile_qr_scan", "android": "https://dc.lft.to/lastmile_qr_scan"}, "lon": -77.07162016666666, "type": "electric_scooter", "fusion_lat": 0.0, "lat": 38.907750166666666, "name": "20b31292d169a90d0f235a365e13f80e", "fusion_lon": 0.0, "bike_id": "20b31292d169a90d0f235a365e13f80e", "is_disabled": 0, "is_reserved": 0}, {"rental_uris": {"ios": "https://dc.lft.to/lastmile_qr_scan", "android": "https://dc.lft.to/lastmile_qr_scan"}, "lon": -77.03269983333334, "type": "electric_scooter", "fusion_lat": 0.0, "lat": 38.928905, "name": "3273f218d898630bbc5acdcbfabc26b2", "fusion_lon": 0.0, "bike_id": "3273f218d898630bbc5acdcbfabc26b2", "is_disabled": 0, "is_reserved": 0}, {"rental_uris": {"ios": "https://dc.lft.to/lastmile_qr_scan", "android": "https://dc.lft.to/lastmile_qr_scan"}, "lon": -77.03136983333333, "type": "electric_scooter", "fusion_lat": 0.0, "lat": 38.910341833333334, "name": "906deb7869e0b5a26a2a37d22d071b08", "fusion_lon": 0.0, "bike_id": "906deb7869e0b5a26a2a37d22d071b08", "is_disabled": 0, "is_reserved": 0}, {"rental_uris": {"ios": "https://dc.lft.to/lastmile_qr_scan", "android": "https://dc.lft.to/lastmile_qr_scan"}, "lon": -76.97825966666667, "type": "electric_bike", "fusion_lat": 0.0, "lat": 38.8461285, "name": "2ca980dc30c360b63c948d143273a5cf", "fusion_lon": 0.0, "bike_id": "2ca980dc30c360b63c948d143273a5cf", "is_disabled": 0, "is_reserved": 0}, {"rental_uris": {"ios": "https://dc.lft.to/lastmile_qr_scan", "android": "https://dc.lft.to/lastmile_qr_scan"}, "lon": -77.043645, "type": "electric_scooter", "fusion_lat": 0.0, "lat": 38.903668833333334, "name": "662763d98d79e74d94e76aba7140e815", "fusion_lon": 0.0, "bike_id": "662763d98d79e74d94e76aba7140e815", "is_disabled": 0, "is_reserved": 0}, {"rental_uris": {"ios": "https://dc.lft.to/lastmile_qr_scan", "android": "https://dc.lft.to/lastmile_qr_scan"}, "lon": -77.01988916666667, "type": "electric_scooter", "fusion_lat": 0.0, "lat": 38.89740483333333, "name": "661da48ac8af3bf981af8f7c6506d337", "fusion_lon": 0.0, "bike_id": "661da48ac8af3bf981af8f7c6506d337", "is_disabled": 0, "is_reserved": 0}, {"rental_uris": {"ios": "https://dc.lft.to/lastmile_qr_scan", "android": "https://dc.lft.to/lastmile_qr_scan"}, "lon": -76.98389133333333, "type": "electric_bike", "fusion_lat": 0.0, "lat": 38.92202783333333, "name": "c191b8deb1e140a897ed3ad04aec44ca", "fusion_lon": 0.0, "bike_id": "c191b8deb1e140a897ed3ad04aec44ca", "is_disabled": 0, "is_reserved": 0}, {"rental_uris": {"ios": "https://dc.lft.to/lastmile_qr_scan", "android": "https://dc.lft.to/lastmile_qr_scan"}, "lon": -77.03221366666666, "type": "electric_scooter", "fusion_lat": 0.0, "lat": 38.89222, "name": "150f74d69a50baab8e20abc3c7f9ab7d", "fusion_lon": 0.0, "bike_id": "150f74d69a50baab8e20abc3c7f9ab7d", "is_disabled": 0, "is_reserved": 0}, {"rental_uris": {"ios": "https://dc.lft.to/lastmile_qr_scan", "android": "https://dc.lft.to/lastmile_qr_scan"}, "lon": -76.99025116666667, "type": "electric_scooter", "fusion_lat": 0.0, "lat": 38.864049333333334, "name": "2a96c176818b4f36d710e86d2172bcb8", "fusion_lon": 0.0, "bike_id": "2a96c176818b4f36d710e86d2172bcb8", "is_disabled": 0, "is_reserved": 0}, {"rental_uris": {"ios": "https://dc.lft.to/lastmile_qr_scan", "android": "https://dc.lft.to/lastmile_qr_scan"}, "lon": -77.07493066666666, "type": "electric_bike", "fusion_lat": 0.0, "lat": 38.892936666666664, "name": "d9a810b37891207d20248ef82a8f7d88", "fusion_lon": 0.0, "bike_id": "d9a810b37891207d20248ef82a8f7d88", "is_disabled": 0, "is_reserved": 0}, {"rental_uris": {"ios": "https://dc.lft.to/lastmile_qr_scan", "android": "https://dc.lft.to/lastmile_qr_scan"}, "lon": -77.0307285, "type": "electric_scooter", "fusion_lat": 0.0, "lat": 38.899783, "name": "1760c7ca409eec24f9d1628ef05206be", "fusion_lon": 0.0, "bike_id": "1760c7ca409eec24f9d1628ef05206be", "is_disabled": 0, "is_reserved": 0}, {"rental_uris": {"ios": "https://dc.lft.to/lastmile_qr_scan", "android": "https://dc.lft.to/lastmile_qr_scan"}, "lon": -77.07933533333333, "type": "electric_scooter", "fusion_lat": 0.0, "lat": 38.948642, "name": "1262b3fae53f4b126cee1b4449d6e86a", "fusion_lon": 0.0, "bike_id": "1262b3fae53f4b126cee1b4449d6e86a", "is_disabled": 0, "is_reserved": 0}, {"rental_uris": {"ios": "https://dc.lft.to/lastmile_qr_scan", "android": "https://dc.lft.to/lastmile_qr_scan"}, "lon": -77.018975, "type": "electric_scooter", "fusion_lat": 0.0, "lat": 38.9055765, "name": "1e224063a78648b0fc177cec723ab937", "fusion_lon": 0.0, "bike_id": "1e224063a78648b0fc177cec723ab937", "is_disabled": 0, "is_reserved": 0}, {"rental_uris": {"ios": "https://dc.lft.to/lastmile_qr_scan", "android": "https://dc.lft.to/lastmile_qr_scan"}, "lon": -77.03977, "type": "electric_scooter", "fusion_lat": 0.0, "lat": 38.91991066666667, "name": "b1f44b1caf967987a4344148fd53ef06", "fusion_lon": 0.0, "bike_id": "b1f44b1caf967987a4344148fd53ef06", "is_disabled": 0, "is_reserved": 0}, {"rental_uris": {"ios": "https://dc.lft.to/lastmile_qr_scan", "android": "https://dc.lft.to/lastmile_qr_scan"}, "lon": -77.05260716666666, "type": "electric_scooter", "fusion_lat": 0.0, "lat": 38.910158833333334, "name": "c22cb8a2c45ef1eb747d0079f11f0e13", "fusion_lon": 0.0, "bike_id": "c22cb8a2c45ef1eb747d0079f11f0e13", "is_disabled": 0, "is_reserved": 0}, {"rental_uris": {"ios": "https://dc.lft.to/lastmile_qr_scan", "android": "https://dc.lft.to/lastmile_qr_scan"}, "lon": -77.00716733333333, "type": "electric_scooter", "fusion_lat": 0.0, "lat": 38.913414833333334, "name": "74fa5e10211071483207f99e430172df", "fusion_lon": 0.0, "bike_id": "74fa5e10211071483207f99e430172df", "is_disabled": 0, "is_reserved": 0}, {"rental_uris": {"ios": "https://dc.lft.to/lastmile_qr_scan", "android": "https://dc.lft.to/lastmile_qr_scan"}, "lon": -77.02620816666666, "type": "electric_scooter", "fusion_lat": 0.0, "lat": 38.919105, "name": "5ff398dbacc826e7fc3b5bc4e453e99c", "fusion_lon": 0.0, "bike_id": "5ff398dbacc826e7fc3b5bc4e453e99c", "is_disabled": 0, "is_reserved": 0}, {"rental_uris": {"ios": "https://dc.lft.to/lastmile_qr_scan", "android": "https://dc.lft.to/lastmile_qr_scan"}, "lon": -77.0022615, "type": "electric_scooter", "fusion_lat": 0.0, "lat": 38.908290666666666, "name": "0c1cfed015bb250ddba0316a65040d2c", "fusion_lon": 0.0, "bike_id": "0c1cfed015bb250ddba0316a65040d2c", "is_disabled": 0, "is_reserved": 0}, {"rental_uris": {"ios": "https://dc.lft.to/lastmile_qr_scan", "android": "https://dc.lft.to/lastmile_qr_scan"}, "lon": -77.04922466666666, "type": "electric_scooter", "fusion_lat": 0.0, "lat": 38.9007775, "name": "3e3c2d75e8533787e0c0807e4e998f01", "fusion_lon": 0.0, "bike_id": "3e3c2d75e8533787e0c0807e4e998f01", "is_disabled": 0, "is_reserved": 0}, {"rental_uris": {"ios": "https://dc.lft.to/lastmile_qr_scan", "android": "https://dc.lft.to/lastmile_qr_scan"}, "lon": -76.92998183333333, "type": "electric_bike", "fusion_lat": 0.0, "lat": 38.88798166666667, "name": "4b4a245e4f795173fd102e4348f87e4e", "fusion_lon": 0.0, "bike_id": "4b4a245e4f795173fd102e4348f87e4e", "is_disabled": 0, "is_reserved": 0}, {"rental_uris": {"ios": "https://dc.lft.to/lastmile_qr_scan", "android": "https://dc.lft.to/lastmile_qr_scan"}, "lon": -77.01594816666666, "type": "electric_scooter", "fusion_lat": 0.0, "lat": 38.896147666666664, "name": "914834d6d961a10b86ab020cf23d5a08", "fusion_lon": 0.0, "bike_id": "914834d6d961a10b86ab020cf23d5a08", "is_disabled": 0, "is_reserved": 0}, {"rental_uris": {"ios": "https://dc.lft.to/lastmile_qr_scan", "android": "https://dc.lft.to/lastmile_qr_scan"}, "lon": -77.01392783333333, "type": "electric_scooter", "fusion_lat": 0.0, "lat": 38.8757085, "name": "d27546711cf6845d3c048e439097b07b", "fusion_lon": 0.0, "bike_id": "d27546711cf6845d3c048e439097b07b", "is_disabled": 0, "is_reserved": 0}, {"rental_uris": {"ios": "https://dc.lft.to/lastmile_qr_scan", "android": "https://dc.lft.to/lastmile_qr_scan"}, "lon": -77.00252566666667, "type": "electric_scooter", "fusion_lat": 0.0, "lat": 38.90126683333333, "name": "3250ea292ca1a0feec28e5780221ecf8", "fusion_lon": 0.0, "bike_id": "3250ea292ca1a0feec28e5780221ecf8", "is_disabled": 0, "is_reserved": 0}, {"rental_uris": {"ios": "https://dc.lft.to/lastmile_qr_scan", "android": "https://dc.lft.to/lastmile_qr_scan"}, "lon": -76.99979733333333, "type": "electric_scooter", "fusion_lat": 0.0, "lat": 38.83833216666667, "name": "6c9fb50d045728e216754d836b19c6d5", "fusion_lon": 0.0, "bike_id": "6c9fb50d045728e216754d836b19c6d5", "is_disabled": 0, "is_reserved": 0}, {"rental_uris": {"ios": "https://dc.lft.to/lastmile_qr_scan", "android": "https://dc.lft.to/lastmile_qr_scan"}, "lon": -77.03457183333333, "type": "electric_scooter", "fusion_lat": 0.0, "lat": 38.908956, "name": "0c6c0e2b602bce968aa56f4e71829ccf", "fusion_lon": 0.0, "bike_id": "0c6c0e2b602bce968aa56f4e71829ccf", "is_disabled": 0, "is_reserved": 0}, {"rental_uris": {"ios": "https://dc.lft.to/lastmile_qr_scan", "android": "https://dc.lft.to/lastmile_qr_scan"}, "lon": -77.04030683333333, "type": "electric_scooter", "fusion_lat": 0.0, "lat": 38.923426666666664, "name": "d11ae6125e8e860358547f803334d816", "fusion_lon": 0.0, "bike_id": "d11ae6125e8e860358547f803334d816", "is_disabled": 0, "is_reserved": 0}, {"rental_uris": {"ios": "https://dc.lft.to/lastmile_qr_scan", "android": "https://dc.lft.to/lastmile_qr_scan"}, "lon": -77.038971, "type": "electric_scooter", "fusion_lat": 0.0, "lat": 38.92326883333333, "name": "4bb8203087964c99e236a175bc10a8e5", "fusion_lon": 0.0, "bike_id": "4bb8203087964c99e236a175bc10a8e5", "is_disabled": 0, "is_reserved": 0}, {"rental_uris": {"ios": "https://dc.lft.to/lastmile_qr_scan", "android": "https://dc.lft.to/lastmile_qr_scan"}, "lon": -77.03916866666667, "type": "electric_scooter", "fusion_lat": 0.0, "lat": 38.911138333333334, "name": "67d353618f17aad59d7874212d11ec16", "fusion_lon": 0.0, "bike_id": "67d353618f17aad59d7874212d11ec16", "is_disabled": 0, "is_reserved": 0}, {"rental_uris": {"ios": "https://dc.lft.to/lastmile_qr_scan", "android": "https://dc.lft.to/lastmile_qr_scan"}, "lon": -77.0727435, "type": "electric_scooter", "fusion_lat": 0.0, "lat": 38.934814, "name": "7e66987a998b2cd5a3c7f8e0101a69be", "fusion_lon": 0.0, "bike_id": "7e66987a998b2cd5a3c7f8e0101a69be", "is_disabled": 0, "is_reserved": 0}, {"rental_uris": {"ios": "https://dc.lft.to/lastmile_qr_scan", "android": "https://dc.lft.to/lastmile_qr_scan"}, "lon": -77.04286483333334, "type": "electric_scooter", "fusion_lat": 0.0, "lat": 38.9226435, "name": "4f12734f3d42fe5e2d04b16dfa039330", "fusion_lon": 0.0, "bike_id": "4f12734f3d42fe5e2d04b16dfa039330", "is_disabled": 0, "is_reserved": 0}, {"rental_uris": {"ios": "https://dc.lft.to/lastmile_qr_scan", "android": "https://dc.lft.to/lastmile_qr_scan"}, "lon": -77.00078616666667, "type": "electric_scooter", "fusion_lat": 0.0, "lat": 38.907544666666666, "name": "a6aad02f782c6b9e824bb7a7e3772e79", "fusion_lon": 0.0, "bike_id": "a6aad02f782c6b9e824bb7a7e3772e79", "is_disabled": 0, "is_reserved": 0}, {"rental_uris": {"ios": "https://dc.lft.to/lastmile_qr_scan", "android": "https://dc.lft.to/lastmile_qr_scan"}, "lon": -77.04983516666667, "type": "electric_scooter", "fusion_lat": 0.0, "lat": 38.90105616666666, "name": "a851c677495c1111d9613cdbed9dc70e", "fusion_lon": 0.0, "bike_id": "a851c677495c1111d9613cdbed9dc70e", "is_disabled": 0, "is_reserved": 0}, {"rental_uris": {"ios": "https://dc.lft.to/lastmile_qr_scan", "android": "https://dc.lft.to/lastmile_qr_scan"}, "lon": -76.99004983333333, "type": "electric_scooter", "fusion_lat": 0.0, "lat": 38.86504733333334, "name": "a5518563b09d6e59ae88fada1fb20626", "fusion_lon": 0.0, "bike_id": "a5518563b09d6e59ae88fada1fb20626", "is_disabled": 0, "is_reserved": 0}, {"rental_uris": {"ios": "https://dc.lft.to/lastmile_qr_scan", "android": "https://dc.lft.to/lastmile_qr_scan"}, "lon": -77.00658783333333, "type": "electric_scooter", "fusion_lat": 0.0, "lat": 38.9446165, "name": "ff26b7da6ca7b5d9a60a0cbf5d74769c", "fusion_lon": 0.0, "bike_id": "ff26b7da6ca7b5d9a60a0cbf5d74769c", "is_disabled": 0, "is_reserved": 0}, {"rental_uris": {"ios": "https://dc.lft.to/lastmile_qr_scan", "android": "https://dc.lft.to/lastmile_qr_scan"}, "lon": -76.984068, "type": "electric_scooter", "fusion_lat": 0.0, "lat": 38.859726, "name": "d03b593ebcaff6348650d86568fcd301", "fusion_lon": 0.0, "bike_id": "d03b593ebcaff6348650d86568fcd301", "is_disabled": 0, "is_reserved": 0}, {"rental_uris": {"ios": "https://dc.lft.to/lastmile_qr_scan", "android": "https://dc.lft.to/lastmile_qr_scan"}, "lon": -77.0554195, "type": "electric_scooter", "fusion_lat": 0.0, "lat": 38.899419, "name": "19bbc4af410b0b6cc4f5ade8cee72688", "fusion_lon": 0.0, "bike_id": "19bbc4af410b0b6cc4f5ade8cee72688", "is_disabled": 0, "is_reserved": 0}, {"rental_uris": {"ios": "https://dc.lft.to/lastmile_qr_scan", "android": "https://dc.lft.to/lastmile_qr_scan"}, "lon": -77.02211766666667, "type": "electric_scooter", "fusion_lat": 0.0, "lat": 38.8876565, "name": "16a8516bba5c9c5a2522b5f605a1970f", "fusion_lon": 0.0, "bike_id": "16a8516bba5c9c5a2522b5f605a1970f", "is_disabled": 0, "is_reserved": 0}, {"rental_uris": {"ios": "https://dc.lft.to/lastmile_qr_scan", "android": "https://dc.lft.to/lastmile_qr_scan"}, "lon": -77.00276566666666, "type": "electric_scooter", "fusion_lat": 0.0, "lat": 38.897484166666665, "name": "d85a32d7cdd12a912047cae24454b5ba", "fusion_lon": 0.0, "bike_id": "d85a32d7cdd12a912047cae24454b5ba", "is_disabled": 0, "is_reserved": 0}, {"rental_uris": {"ios": "https://dc.lft.to/lastmile_qr_scan", "android": "https://dc.lft.to/lastmile_qr_scan"}, "lon": -77.0893915, "type": "electric_bike", "fusion_lat": 0.0, "lat": 38.840854, "name": "c9ad13b7ec70184d49c013bbc54562eb", "fusion_lon": 0.0, "bike_id": "c9ad13b7ec70184d49c013bbc54562eb", "is_disabled": 0, "is_reserved": 0}, {"rental_uris": {"ios": "https://dc.lft.to/lastmile_qr_scan", "android": "https://dc.lft.to/lastmile_qr_scan"}, "lon": -77.0307255, "type": "electric_scooter", "fusion_lat": 0.0, "lat": 38.90038166666667, "name": "0b3b5bb1ec756397c30c236db980f1d8", "fusion_lon": 0.0, "bike_id": "0b3b5bb1ec756397c30c236db980f1d8", "is_disabled": 0, "is_reserved": 0}, {"rental_uris": {"ios": "https://dc.lft.to/lastmile_qr_scan", "android": "https://dc.lft.to/lastmile_qr_scan"}, "lon": -77.04475366666667, "type": "electric_scooter", "fusion_lat": 0.0, "lat": 38.91562, "name": "0969caa8c55c0d370e8362b68c0eb521", "fusion_lon": 0.0, "bike_id": "0969caa8c55c0d370e8362b68c0eb521", "is_disabled": 0, "is_reserved": 0}, {"rental_uris": {"ios": "https://dc.lft.to/lastmile_qr_scan", "android": "https://dc.lft.to/lastmile_qr_scan"}, "lon": -77.10508233333333, "type": "electric_bike", "fusion_lat": 0.0, "lat": 38.92845066666667, "name": "243c686f85c3a47e1fe82492a13261df", "fusion_lon": 0.0, "bike_id": "243c686f85c3a47e1fe82492a13261df", "is_disabled": 0, "is_reserved": 0}, {"rental_uris": {"ios": "https://dc.lft.to/lastmile_qr_scan", "android": "https://dc.lft.to/lastmile_qr_scan"}, "lon": -76.9478195, "type": "electric_bike", "fusion_lat": 0.0, "lat": 38.894406000000004, "name": "2d11b9f7da3c3ee3d85b7f36bb86bb54", "fusion_lon": 0.0, "bike_id": "2d11b9f7da3c3ee3d85b7f36bb86bb54", "is_disabled": 0, "is_reserved": 0}, {"rental_uris": {"ios": "https://dc.lft.to/lastmile_qr_scan", "android": "https://dc.lft.to/lastmile_qr_scan"}, "lon": -77.020939, "type": "electric_scooter", "fusion_lat": 0.0, "lat": 38.910039, "name": "fa6712c13064d9e0d791b9b492643389", "fusion_lon": 0.0, "bike_id": "fa6712c13064d9e0d791b9b492643389", "is_disabled": 0, "is_reserved": 0}, {"rental_uris": {"ios": "https://dc.lft.to/lastmile_qr_scan", "android": "https://dc.lft.to/lastmile_qr_scan"}, "lon": -77.02999516666667, "type": "electric_scooter", "fusion_lat": 0.0, "lat": 38.9248035, "name": "7d8bcea775dd08690a5b2222f54f238a", "fusion_lon": 0.0, "bike_id": "7d8bcea775dd08690a5b2222f54f238a", "is_disabled": 0, "is_reserved": 0}, {"rental_uris": {"ios": "https://dc.lft.to/lastmile_qr_scan", "android": "https://dc.lft.to/lastmile_qr_scan"}, "lon": -77.01580533333333, "type": "electric_scooter", "fusion_lat": 0.0, "lat": 38.9168315, "name": "ae1683bb99756ccfb9b0f87e0993e1a0", "fusion_lon": 0.0, "bike_id": "ae1683bb99756ccfb9b0f87e0993e1a0", "is_disabled": 0, "is_reserved": 0}, {"rental_uris": {"ios": "https://dc.lft.to/lastmile_qr_scan", "android": "https://dc.lft.to/lastmile_qr_scan"}, "lon": -77.36090233333333, "type": "electric_bike", "fusion_lat": 0.0, "lat": 38.939577, "name": "79fd4a1ab74eb75063adc86a93bfccc9", "fusion_lon": 0.0, "bike_id": "79fd4a1ab74eb75063adc86a93bfccc9", "is_disabled": 0, "is_reserved": 0}, {"rental_uris": {"ios": "https://dc.lft.to/lastmile_qr_scan", "android": "https://dc.lft.to/lastmile_qr_scan"}, "lon": -76.97989433333333, "type": "electric_bike", "fusion_lat": 0.0, "lat": 38.877507666666666, "name": "eb741f6e28494587ea36d10e0f0d7b0d", "fusion_lon": 0.0, "bike_id": "eb741f6e28494587ea36d10e0f0d7b0d", "is_disabled": 0, "is_reserved": 0}, {"rental_uris": {"ios": "https://dc.lft.to/lastmile_qr_scan", "android": "https://dc.lft.to/lastmile_qr_scan"}, "lon": -77.01181133333333, "type": "electric_scooter", "fusion_lat": 0.0, "lat": 38.90726216666667, "name": "3da00bc26a91934a926613d530c1b39d", "fusion_lon": 0.0, "bike_id": "3da00bc26a91934a926613d530c1b39d", "is_disabled": 0, "is_reserved": 0}, {"rental_uris": {"ios": "https://dc.lft.to/lastmile_qr_scan", "android": "https://dc.lft.to/lastmile_qr_scan"}, "lon": -77.03497216666666, "type": "electric_scooter", "fusion_lat": 0.0, "lat": 38.92856533333333, "name": "61f0d1dc3be91bcb24a9b23a74950b38", "fusion_lon": 0.0, "bike_id": "61f0d1dc3be91bcb24a9b23a74950b38", "is_disabled": 0, "is_reserved": 0}, {"rental_uris": {"ios": "https://dc.lft.to/lastmile_qr_scan", "android": "https://dc.lft.to/lastmile_qr_scan"}, "lon": -77.046577, "type": "electric_scooter", "fusion_lat": 0.0, "lat": 38.905658333333335, "name": "4c1f5dd5860b504477070777f2abbf93", "fusion_lon": 0.0, "bike_id": "4c1f5dd5860b504477070777f2abbf93", "is_disabled": 0, "is_reserved": 0}, {"rental_uris": {"ios": "https://dc.lft.to/lastmile_qr_scan", "android": "https://dc.lft.to/lastmile_qr_scan"}, "lon": -77.010904, "type": "electric_scooter", "fusion_lat": 0.0, "lat": 38.918158, "name": "53b1041117a2ae205b38a74d3372e681", "fusion_lon": 0.0, "bike_id": "53b1041117a2ae205b38a74d3372e681", "is_disabled": 0, "is_reserved": 0}, {"rental_uris": {"ios": "https://dc.lft.to/lastmile_qr_scan", "android": "https://dc.lft.to/lastmile_qr_scan"}, "lon": -77.04082833333334, "type": "electric_scooter", "fusion_lat": 0.0, "lat": 38.9070745, "name": "7c3d956380f9a7255219517362ff6fe9", "fusion_lon": 0.0, "bike_id": "7c3d956380f9a7255219517362ff6fe9", "is_disabled": 0, "is_reserved": 0}, {"rental_uris": {"ios": "https://dc.lft.to/lastmile_qr_scan", "android": "https://dc.lft.to/lastmile_qr_scan"}, "lon": -77.00102916666667, "type": "electric_scooter", "fusion_lat": 0.0, "lat": 38.894329666666664, "name": "f8e6ffef0a39509a917a10cde74970ca", "fusion_lon": 0.0, "bike_id": "f8e6ffef0a39509a917a10cde74970ca", "is_disabled": 0, "is_reserved": 0}, {"rental_uris": {"ios": "https://dc.lft.to/lastmile_qr_scan", "android": "https://dc.lft.to/lastmile_qr_scan"}, "lon": -77.03291866666666, "type": "electric_scooter", "fusion_lat": 0.0, "lat": 38.922104, "name": "fa2f97866761fc183ba935e6f051b673", "fusion_lon": 0.0, "bike_id": "fa2f97866761fc183ba935e6f051b673", "is_disabled": 0, "is_reserved": 0}, {"rental_uris": {"ios": "https://dc.lft.to/lastmile_qr_scan", "android": "https://dc.lft.to/lastmile_qr_scan"}, "lon": -77.02083883333333, "type": "electric_scooter", "fusion_lat": 0.0, "lat": 38.89959233333333, "name": "3ca56a46195087841d14f572ffe06ada", "fusion_lon": 0.0, "bike_id": "3ca56a46195087841d14f572ffe06ada", "is_disabled": 0, "is_reserved": 0}, {"rental_uris": {"ios": "https://dc.lft.to/lastmile_qr_scan", "android": "https://dc.lft.to/lastmile_qr_scan"}, "lon": -77.02655616666667, "type": "electric_scooter", "fusion_lat": 0.0, "lat": 38.9106205, "name": "84f9372a3112ed82a44f3d02d0e87fdc", "fusion_lon": 0.0, "bike_id": "84f9372a3112ed82a44f3d02d0e87fdc", "is_disabled": 0, "is_reserved": 0}, {"rental_uris": {"ios": "https://dc.lft.to/lastmile_qr_scan", "android": "https://dc.lft.to/lastmile_qr_scan"}, "lon": -77.02814866666667, "type": "electric_scooter", "fusion_lat": 0.0, "lat": 38.914796833333334, "name": "bbdc53a6ddb64e1bd44d528cfd510d7e", "fusion_lon": 0.0, "bike_id": "bbdc53a6ddb64e1bd44d528cfd510d7e", "is_disabled": 0, "is_reserved": 0}, {"rental_uris": {"ios": "https://dc.lft.to/lastmile_qr_scan", "android": "https://dc.lft.to/lastmile_qr_scan"}, "lon": -77.04579483333333, "type": "electric_scooter", "fusion_lat": 0.0, "lat": 38.92127216666667, "name": "197dfeb365278cb07031a12a227364a0", "fusion_lon": 0.0, "bike_id": "197dfeb365278cb07031a12a227364a0", "is_disabled": 0, "is_reserved": 0}, {"rental_uris": {"ios": "https://dc.lft.to/lastmile_qr_scan", "android": "https://dc.lft.to/lastmile_qr_scan"}, "lon": -77.02086416666667, "type": "electric_scooter", "fusion_lat": 0.0, "lat": 38.931131, "name": "ebecb795c196a69c13cd7cc57c76d627", "fusion_lon": 0.0, "bike_id": "ebecb795c196a69c13cd7cc57c76d627", "is_disabled": 0, "is_reserved": 0}, {"rental_uris": {"ios": "https://dc.lft.to/lastmile_qr_scan", "android": "https://dc.lft.to/lastmile_qr_scan"}, "lon": -76.9792885, "type": "electric_scooter", "fusion_lat": 0.0, "lat": 38.866057, "name": "749273ad79bc09cf1c4862875d4d559a", "fusion_lon": 0.0, "bike_id": "749273ad79bc09cf1c4862875d4d559a", "is_disabled": 0, "is_reserved": 0}, {"rental_uris": {"ios": "https://dc.lft.to/lastmile_qr_scan", "android": "https://dc.lft.to/lastmile_qr_scan"}, "lon": -76.97944666666666, "type": "electric_scooter", "fusion_lat": 0.0, "lat": 38.902369, "name": "1429e7aa49346a485952d513d94c577e", "fusion_lon": 0.0, "bike_id": "1429e7aa49346a485952d513d94c577e", "is_disabled": 0, "is_reserved": 0}, {"rental_uris": {"ios": "https://dc.lft.to/lastmile_qr_scan", "android": "https://dc.lft.to/lastmile_qr_scan"}, "lon": -77.02785, "type": "electric_scooter", "fusion_lat": 0.0, "lat": 38.92372783333333, "name": "9116970eecf1c922ae5272e4474001c9", "fusion_lon": 0.0, "bike_id": "9116970eecf1c922ae5272e4474001c9", "is_disabled": 0, "is_reserved": 0}, {"rental_uris": {"ios": "https://dc.lft.to/lastmile_qr_scan", "android": "https://dc.lft.to/lastmile_qr_scan"}, "lon": -77.0034045, "type": "electric_scooter", "fusion_lat": 0.0, "lat": 38.8935195, "name": "d7af456727a7105fecb6550175c53b83", "fusion_lon": 0.0, "bike_id": "d7af456727a7105fecb6550175c53b83", "is_disabled": 0, "is_reserved": 0}, {"rental_uris": {"ios": "https://dc.lft.to/lastmile_qr_scan", "android": "https://dc.lft.to/lastmile_qr_scan"}, "lon": -77.01795416666667, "type": "electric_scooter", "fusion_lat": 0.0, "lat": 38.90561483333333, "name": "baf4d6b9179b20775942d734d1964a39", "fusion_lon": 0.0, "bike_id": "baf4d6b9179b20775942d734d1964a39", "is_disabled": 0, "is_reserved": 0}, {"rental_uris": {"ios": "https://dc.lft.to/lastmile_qr_scan", "android": "https://dc.lft.to/lastmile_qr_scan"}, "lon": -76.9854145, "type": "electric_scooter", "fusion_lat": 0.0, "lat": 38.89957016666666, "name": "824e2c03465c595212865218e064c7ed", "fusion_lon": 0.0, "bike_id": "824e2c03465c595212865218e064c7ed", "is_disabled": 0, "is_reserved": 0}, {"rental_uris": {"ios": "https://dc.lft.to/lastmile_qr_scan", "android": "https://dc.lft.to/lastmile_qr_scan"}, "lon": -77.03257566666667, "type": "electric_scooter", "fusion_lat": 0.0, "lat": 38.91817266666666, "name": "a0801b9b6896749cded58e390cf8d5ce", "fusion_lon": 0.0, "bike_id": "a0801b9b6896749cded58e390cf8d5ce", "is_disabled": 0, "is_reserved": 0}, {"rental_uris": {"ios": "https://dc.lft.to/lastmile_qr_scan", "android": "https://dc.lft.to/lastmile_qr_scan"}, "lon": -77.04372633333334, "type": "electric_scooter", "fusion_lat": 0.0, "lat": 38.902372, "name": "5326c7a5e6fe9da0f1654869206a256d", "fusion_lon": 0.0, "bike_id": "5326c7a5e6fe9da0f1654869206a256d", "is_disabled": 0, "is_reserved": 0}, {"rental_uris": {"ios": "https://dc.lft.to/lastmile_qr_scan", "android": "https://dc.lft.to/lastmile_qr_scan"}, "lon": -77.03822433333333, "type": "electric_scooter", "fusion_lat": 0.0, "lat": 38.920560333333334, "name": "84db571fc11a94d95714874eb07741b2", "fusion_lon": 0.0, "bike_id": "84db571fc11a94d95714874eb07741b2", "is_disabled": 0, "is_reserved": 0}, {"rental_uris": {"ios": "https://dc.lft.to/lastmile_qr_scan", "android": "https://dc.lft.to/lastmile_qr_scan"}, "lon": -77.02785483333334, "type": "electric_scooter", "fusion_lat": 0.0, "lat": 38.893804, "name": "6577c8d60da4927aef1e6ec19c86b1dd", "fusion_lon": 0.0, "bike_id": "6577c8d60da4927aef1e6ec19c86b1dd", "is_disabled": 0, "is_reserved": 0}, {"rental_uris": {"ios": "https://dc.lft.to/lastmile_qr_scan", "android": "https://dc.lft.to/lastmile_qr_scan"}, "lon": -77.0400315, "type": "electric_scooter", "fusion_lat": 0.0, "lat": 38.8888765, "name": "740281d095a00329e050838626d5b22d", "fusion_lon": 0.0, "bike_id": "740281d095a00329e050838626d5b22d", "is_disabled": 0, "is_reserved": 0}, {"rental_uris": {"ios": "https://dc.lft.to/lastmile_qr_scan", "android": "https://dc.lft.to/lastmile_qr_scan"}, "lon": -77.03562716666667, "type": "electric_scooter", "fusion_lat": 0.0, "lat": 38.9181425, "name": "a945fd9a4f606f22c407e5d5b9cbf603", "fusion_lon": 0.0, "bike_id": "a945fd9a4f606f22c407e5d5b9cbf603", "is_disabled": 0, "is_reserved": 0}, {"rental_uris": {"ios": "https://dc.lft.to/lastmile_qr_scan", "android": "https://dc.lft.to/lastmile_qr_scan"}, "lon": -77.0320915, "type": "electric_scooter", "fusion_lat": 0.0, "lat": 38.913184333333334, "name": "cef717c294f63c40aacb136d46f42515", "fusion_lon": 0.0, "bike_id": "cef717c294f63c40aacb136d46f42515", "is_disabled": 0, "is_reserved": 0}, {"rental_uris": {"ios": "https://dc.lft.to/lastmile_qr_scan", "android": "https://dc.lft.to/lastmile_qr_scan"}, "lon": -77.03211633333333, "type": "electric_scooter", "fusion_lat": 0.0, "lat": 38.9169355, "name": "4b16805ee20e7b3556d42858bc093589", "fusion_lon": 0.0, "bike_id": "4b16805ee20e7b3556d42858bc093589", "is_disabled": 0, "is_reserved": 0}, {"rental_uris": {"ios": "https://dc.lft.to/lastmile_qr_scan", "android": "https://dc.lft.to/lastmile_qr_scan"}, "lon": -77.031994, "type": "electric_scooter", "fusion_lat": 0.0, "lat": 38.91742133333333, "name": "212766acbd7bd14d52bd3bd7c9f63f49", "fusion_lon": 0.0, "bike_id": "212766acbd7bd14d52bd3bd7c9f63f49", "is_disabled": 0, "is_reserved": 0}, {"rental_uris": {"ios": "https://dc.lft.to/lastmile_qr_scan", "android": "https://dc.lft.to/lastmile_qr_scan"}, "lon": -76.958163, "type": "electric_scooter", "fusion_lat": 0.0, "lat": 38.890561, "name": "0712c4ca9ab311adc937c47b4e64241b", "fusion_lon": 0.0, "bike_id": "0712c4ca9ab311adc937c47b4e64241b", "is_disabled": 0, "is_reserved": 0}, {"rental_uris": {"ios": "https://dc.lft.to/lastmile_qr_scan", "android": "https://dc.lft.to/lastmile_qr_scan"}, "lon": -77.033484, "type": "electric_scooter", "fusion_lat": 0.0, "lat": 38.885113, "name": "28f77838cd951ea4139d3b53e6962091", "fusion_lon": 0.0, "bike_id": "28f77838cd951ea4139d3b53e6962091", "is_disabled": 0, "is_reserved": 0}, {"rental_uris": {"ios": "https://dc.lft.to/lastmile_qr_scan", "android": "https://dc.lft.to/lastmile_qr_scan"}, "lon": -77.05597466666667, "type": "electric_scooter", "fusion_lat": 0.0, "lat": 38.927824333333334, "name": "b407ba9e31116112e1d7115a27a7d64b", "fusion_lon": 0.0, "bike_id": "b407ba9e31116112e1d7115a27a7d64b", "is_disabled": 0, "is_reserved": 0}, {"rental_uris": {"ios": "https://dc.lft.to/lastmile_qr_scan", "android": "https://dc.lft.to/lastmile_qr_scan"}, "lon": -77.04519666666667, "type": "electric_scooter", "fusion_lat": 0.0, "lat": 38.9096595, "name": "9caf9327eec765b8ac3447e5fdca41c5", "fusion_lon": 0.0, "bike_id": "9caf9327eec765b8ac3447e5fdca41c5", "is_disabled": 0, "is_reserved": 0}, {"rental_uris": {"ios": "https://dc.lft.to/lastmile_qr_scan", "android": "https://dc.lft.to/lastmile_qr_scan"}, "lon": -77.0952175, "type": "electric_bike", "fusion_lat": 0.0, "lat": 38.8381035, "name": "123df0d308f68d6053e87dbc852e6141", "fusion_lon": 0.0, "bike_id": "123df0d308f68d6053e87dbc852e6141", "is_disabled": 0, "is_reserved": 0}, {"rental_uris": {"ios": "https://dc.lft.to/lastmile_qr_scan", "android": "https://dc.lft.to/lastmile_qr_scan"}, "lon": -77.0444505, "type": "electric_scooter", "fusion_lat": 0.0, "lat": 38.91877133333333, "name": "03205eee56ce1e2408216ec0bfd79ee7", "fusion_lon": 0.0, "bike_id": "03205eee56ce1e2408216ec0bfd79ee7", "is_disabled": 0, "is_reserved": 0}, {"rental_uris": {"ios": "https://dc.lft.to/lastmile_qr_scan", "android": "https://dc.lft.to/lastmile_qr_scan"}, "lon": -77.006199, "type": "electric_scooter", "fusion_lat": 0.0, "lat": 38.8771375, "name": "11a978489648e06b4ee17c738f490fcc", "fusion_lon": 0.0, "bike_id": "11a978489648e06b4ee17c738f490fcc", "is_disabled": 0, "is_reserved": 0}, {"rental_uris": {"ios": "https://dc.lft.to/lastmile_qr_scan", "android": "https://dc.lft.to/lastmile_qr_scan"}, "lon": -77.00205816666667, "type": "electric_scooter", "fusion_lat": 0.0, "lat": 38.900324499999996, "name": "fc3af4347070b535c19b2056aa3e949f", "fusion_lon": 0.0, "bike_id": "fc3af4347070b535c19b2056aa3e949f", "is_disabled": 0, "is_reserved": 0}, {"rental_uris": {"ios": "https://dc.lft.to/lastmile_qr_scan", "android": "https://dc.lft.to/lastmile_qr_scan"}, "lon": -77.03560483333334, "type": "electric_bike", "fusion_lat": 0.0, "lat": 38.96465216666667, "name": "367e2d9c607704359d486a43ef218a89", "fusion_lon": 0.0, "bike_id": "367e2d9c607704359d486a43ef218a89", "is_disabled": 0, "is_reserved": 0}, {"rental_uris": {"ios": "https://dc.lft.to/lastmile_qr_scan", "android": "https://dc.lft.to/lastmile_qr_scan"}, "lon": -77.03527916666667, "type": "electric_scooter", "fusion_lat": 0.0, "lat": 38.92226866666667, "name": "0c6e3523a6c538b53352bcef8a027ef6", "fusion_lon": 0.0, "bike_id": "0c6e3523a6c538b53352bcef8a027ef6", "is_disabled": 0, "is_reserved": 0}, {"rental_uris": {"ios": "https://dc.lft.to/lastmile_qr_scan", "android": "https://dc.lft.to/lastmile_qr_scan"}, "lon": -76.9981725, "type": "electric_scooter", "fusion_lat": 0.0, "lat": 38.88877, "name": "904f36a87c9e56c5de0ba1b19eff8376", "fusion_lon": 0.0, "bike_id": "904f36a87c9e56c5de0ba1b19eff8376", "is_disabled": 0, "is_reserved": 0}, {"rental_uris": {"ios": "https://dc.lft.to/lastmile_qr_scan", "android": "https://dc.lft.to/lastmile_qr_scan"}, "lon": -77.01616083333333, "type": "electric_scooter", "fusion_lat": 0.0, "lat": 38.9070775, "name": "a9d0d9d9199561986e6ddfe7e2931d5f", "fusion_lon": 0.0, "bike_id": "a9d0d9d9199561986e6ddfe7e2931d5f", "is_disabled": 0, "is_reserved": 0}, {"rental_uris": {"ios": "https://dc.lft.to/lastmile_qr_scan", "android": "https://dc.lft.to/lastmile_qr_scan"}, "lon": -77.02561066666667, "type": "electric_scooter", "fusion_lat": 0.0, "lat": 38.88421116666667, "name": "d6f8ec0cb9703f0465f87c155c0fe0e6", "fusion_lon": 0.0, "bike_id": "d6f8ec0cb9703f0465f87c155c0fe0e6", "is_disabled": 0, "is_reserved": 0}, {"rental_uris": {"ios": "https://dc.lft.to/lastmile_qr_scan", "android": "https://dc.lft.to/lastmile_qr_scan"}, "lon": -77.04347583333333, "type": "electric_scooter", "fusion_lat": 0.0, "lat": 38.896520333333335, "name": "6c99d4578071b65d85fbecee6919879e", "fusion_lon": 0.0, "bike_id": "6c99d4578071b65d85fbecee6919879e", "is_disabled": 0, "is_reserved": 0}, {"rental_uris": {"ios": "https://dc.lft.to/lastmile_qr_scan", "android": "https://dc.lft.to/lastmile_qr_scan"}, "lon": -77.0413715, "type": "electric_scooter", "fusion_lat": 0.0, "lat": 38.92172766666667, "name": "470e6f3b9aeee72a24a35a96eae8884d", "fusion_lon": 0.0, "bike_id": "470e6f3b9aeee72a24a35a96eae8884d", "is_disabled": 0, "is_reserved": 0}, {"rental_uris": {"ios": "https://dc.lft.to/lastmile_qr_scan", "android": "https://dc.lft.to/lastmile_qr_scan"}, "lon": -77.01886833333333, "type": "electric_scooter", "fusion_lat": 0.0, "lat": 38.9119595, "name": "ceccdbe0a0237a393d6454f5fcb076f7", "fusion_lon": 0.0, "bike_id": "ceccdbe0a0237a393d6454f5fcb076f7", "is_disabled": 0, "is_reserved": 0}, {"rental_uris": {"ios": "https://dc.lft.to/lastmile_qr_scan", "android": "https://dc.lft.to/lastmile_qr_scan"}, "lon": -77.04364116666666, "type": "electric_scooter", "fusion_lat": 0.0, "lat": 38.917881, "name": "45ac1df26170e2a0e63089087a436e15", "fusion_lon": 0.0, "bike_id": "45ac1df26170e2a0e63089087a436e15", "is_disabled": 0, "is_reserved": 0}, {"rental_uris": {"ios": "https://dc.lft.to/lastmile_qr_scan", "android": "https://dc.lft.to/lastmile_qr_scan"}, "lon": -77.01877133333333, "type": "electric_scooter", "fusion_lat": 0.0, "lat": 38.906151333333334, "name": "eb16a8f3f74dc0663b1f80caa5a5ca7a", "fusion_lon": 0.0, "bike_id": "eb16a8f3f74dc0663b1f80caa5a5ca7a", "is_disabled": 0, "is_reserved": 0}, {"rental_uris": {"ios": "https://dc.lft.to/lastmile_qr_scan", "android": "https://dc.lft.to/lastmile_qr_scan"}, "lon": -76.98512533333333, "type": "electric_scooter", "fusion_lat": 0.0, "lat": 38.90607166666667, "name": "96a05be4738451747bef7bee88dcdfef", "fusion_lon": 0.0, "bike_id": "96a05be4738451747bef7bee88dcdfef", "is_disabled": 0, "is_reserved": 0}, {"rental_uris": {"ios": "https://dc.lft.to/lastmile_qr_scan", "android": "https://dc.lft.to/lastmile_qr_scan"}, "lon": -76.999607, "type": "electric_scooter", "fusion_lat": 0.0, "lat": 38.909189166666664, "name": "88fad0ca76ea9068abc1744bf42c1eea", "fusion_lon": 0.0, "bike_id": "88fad0ca76ea9068abc1744bf42c1eea", "is_disabled": 0, "is_reserved": 0}, {"rental_uris": {"ios": "https://dc.lft.to/lastmile_qr_scan", "android": "https://dc.lft.to/lastmile_qr_scan"}, "lon": -77.00647566666666, "type": "electric_scooter", "fusion_lat": 0.0, "lat": 38.9170845, "name": "61b617f79d2406e181463369bc08a8a2", "fusion_lon": 0.0, "bike_id": "61b617f79d2406e181463369bc08a8a2", "is_disabled": 0, "is_reserved": 0}, {"rental_uris": {"ios": "https://dc.lft.to/lastmile_qr_scan", "android": "https://dc.lft.to/lastmile_qr_scan"}, "lon": -77.02402233333333, "type": "electric_scooter", "fusion_lat": 0.0, "lat": 38.91589833333333, "name": "6bb2fbc23baf510ce6a2d48d9c669c65", "fusion_lon": 0.0, "bike_id": "6bb2fbc23baf510ce6a2d48d9c669c65", "is_disabled": 0, "is_reserved": 0}, {"rental_uris": {"ios": "https://dc.lft.to/lastmile_qr_scan", "android": "https://dc.lft.to/lastmile_qr_scan"}, "lon": -77.06404183333333, "type": "electric_bike", "fusion_lat": 0.0, "lat": 38.8434555, "name": "edda7de4d2773c12affc269c9a22a32a", "fusion_lon": 0.0, "bike_id": "edda7de4d2773c12affc269c9a22a32a", "is_disabled": 0, "is_reserved": 0}, {"rental_uris": {"ios": "https://dc.lft.to/lastmile_qr_scan", "android": "https://dc.lft.to/lastmile_qr_scan"}, "lon": -77.031747, "type": "electric_scooter", "fusion_lat": 0.0, "lat": 38.893545, "name": "7fe28a8a898d082e234b781a41af181b", "fusion_lon": 0.0, "bike_id": "7fe28a8a898d082e234b781a41af181b", "is_disabled": 0, "is_reserved": 0}, {"rental_uris": {"ios": "https://dc.lft.to/lastmile_qr_scan", "android": "https://dc.lft.to/lastmile_qr_scan"}, "lon": -77.03852883333333, "type": "electric_scooter", "fusion_lat": 0.0, "lat": 38.90371116666667, "name": "65ea66d5e6ae07f26b0f55e369dfb712", "fusion_lon": 0.0, "bike_id": "65ea66d5e6ae07f26b0f55e369dfb712", "is_disabled": 0, "is_reserved": 0}, {"rental_uris": {"ios": "https://dc.lft.to/lastmile_qr_scan", "android": "https://dc.lft.to/lastmile_qr_scan"}, "lon": -77.03009433333334, "type": "electric_scooter", "fusion_lat": 0.0, "lat": 38.90022183333333, "name": "46f3e882fdfbd07da7f20468d64ccda0", "fusion_lon": 0.0, "bike_id": "46f3e882fdfbd07da7f20468d64ccda0", "is_disabled": 0, "is_reserved": 0}, {"rental_uris": {"ios": "https://dc.lft.to/lastmile_qr_scan", "android": "https://dc.lft.to/lastmile_qr_scan"}, "lon": -77.03017516666667, "type": "electric_bike", "fusion_lat": 0.0, "lat": 38.93490083333333, "name": "b049abb1a59094d1e5b4a60ccd07dd93", "fusion_lon": 0.0, "bike_id": "b049abb1a59094d1e5b4a60ccd07dd93", "is_disabled": 0, "is_reserved": 0}, {"rental_uris": {"ios": "https://dc.lft.to/lastmile_qr_scan", "android": "https://dc.lft.to/lastmile_qr_scan"}, "lon": -77.04233816666667, "type": "electric_scooter", "fusion_lat": 0.0, "lat": 38.911118, "name": "7b4665554a7fa667bc6534e7d86d7f80", "fusion_lon": 0.0, "bike_id": "7b4665554a7fa667bc6534e7d86d7f80", "is_disabled": 0, "is_reserved": 0}, {"rental_uris": {"ios": "https://dc.lft.to/lastmile_qr_scan", "android": "https://dc.lft.to/lastmile_qr_scan"}, "lon": -77.04019683333334, "type": "electric_scooter", "fusion_lat": 0.0, "lat": 38.92349733333333, "name": "26317708640152663fa37417189bdbd4", "fusion_lon": 0.0, "bike_id": "26317708640152663fa37417189bdbd4", "is_disabled": 0, "is_reserved": 0}, {"rental_uris": {"ios": "https://dc.lft.to/lastmile_qr_scan", "android": "https://dc.lft.to/lastmile_qr_scan"}, "lon": -77.0448345, "type": "electric_scooter", "fusion_lat": 0.0, "lat": 38.9033005, "name": "fbcd3a61fbf28e4378a9682f6b5e988c", "fusion_lon": 0.0, "bike_id": "fbcd3a61fbf28e4378a9682f6b5e988c", "is_disabled": 0, "is_reserved": 0}, {"rental_uris": {"ios": "https://dc.lft.to/lastmile_qr_scan", "android": "https://dc.lft.to/lastmile_qr_scan"}, "lon": -77.00807516666667, "type": "electric_scooter", "fusion_lat": 0.0, "lat": 38.905780666666665, "name": "923cf19103b64e25c7e4ddd907e4c597", "fusion_lon": 0.0, "bike_id": "923cf19103b64e25c7e4ddd907e4c597", "is_disabled": 0, "is_reserved": 0}, {"rental_uris": {"ios": "https://dc.lft.to/lastmile_qr_scan", "android": "https://dc.lft.to/lastmile_qr_scan"}, "lon": -77.04301433333333, "type": "electric_scooter", "fusion_lat": 0.0, "lat": 38.90893633333334, "name": "c268b4b5879def8a3a9bee5747559189", "fusion_lon": 0.0, "bike_id": "c268b4b5879def8a3a9bee5747559189", "is_disabled": 0, "is_reserved": 0}, {"rental_uris": {"ios": "https://dc.lft.to/lastmile_qr_scan", "android": "https://dc.lft.to/lastmile_qr_scan"}, "lon": -76.9756775, "type": "electric_bike", "fusion_lat": 0.0, "lat": 38.92507166666667, "name": "ff3a61a6586666fe8a733387859d412d", "fusion_lon": 0.0, "bike_id": "ff3a61a6586666fe8a733387859d412d", "is_disabled": 0, "is_reserved": 0}, {"rental_uris": {"ios": "https://dc.lft.to/lastmile_qr_scan", "android": "https://dc.lft.to/lastmile_qr_scan"}, "lon": -76.99586383333333, "type": "electric_scooter", "fusion_lat": 0.0, "lat": 38.95503333333333, "name": "5f681fcd26d89bb516aa3e60ad9eeb2b", "fusion_lon": 0.0, "bike_id": "5f681fcd26d89bb516aa3e60ad9eeb2b", "is_disabled": 0, "is_reserved": 0}, {"rental_uris": {"ios": "https://dc.lft.to/lastmile_qr_scan", "android": "https://dc.lft.to/lastmile_qr_scan"}, "lon": -76.99571466666667, "type": "electric_scooter", "fusion_lat": 0.0, "lat": 38.90027766666667, "name": "483415eaee1eeb1284dc1b00975352ea", "fusion_lon": 0.0, "bike_id": "483415eaee1eeb1284dc1b00975352ea", "is_disabled": 0, "is_reserved": 0}, {"rental_uris": {"ios": "https://dc.lft.to/lastmile_qr_scan", "android": "https://dc.lft.to/lastmile_qr_scan"}, "lon": -77.04175816666667, "type": "electric_scooter", "fusion_lat": 0.0, "lat": 38.911848, "name": "db80264b84899e2253a31339af6a2d2d", "fusion_lon": 0.0, "bike_id": "db80264b84899e2253a31339af6a2d2d", "is_disabled": 0, "is_reserved": 0}, {"rental_uris": {"ios": "https://dc.lft.to/lastmile_qr_scan", "android": "https://dc.lft.to/lastmile_qr_scan"}, "lon": -77.04497716666667, "type": "electric_scooter", "fusion_lat": 0.0, "lat": 38.91113433333334, "name": "2b99dd60ee6f50913dcf84857fd382ee", "fusion_lon": 0.0, "bike_id": "2b99dd60ee6f50913dcf84857fd382ee", "is_disabled": 0, "is_reserved": 0}, {"rental_uris": {"ios": "https://dc.lft.to/lastmile_qr_scan", "android": "https://dc.lft.to/lastmile_qr_scan"}, "lon": -77.027638, "type": "electric_scooter", "fusion_lat": 0.0, "lat": 38.9134445, "name": "caaa10c151cfa02c5dc882154eddd2d3", "fusion_lon": 0.0, "bike_id": "caaa10c151cfa02c5dc882154eddd2d3", "is_disabled": 0, "is_reserved": 0}, {"rental_uris": {"ios": "https://dc.lft.to/lastmile_qr_scan", "android": "https://dc.lft.to/lastmile_qr_scan"}, "lon": -77.0434985, "type": "electric_scooter", "fusion_lat": 0.0, "lat": 38.921434166666664, "name": "88826eb1ab0b35be0bcb40709531f249", "fusion_lon": 0.0, "bike_id": "88826eb1ab0b35be0bcb40709531f249", "is_disabled": 0, "is_reserved": 0}, {"rental_uris": {"ios": "https://dc.lft.to/lastmile_qr_scan", "android": "https://dc.lft.to/lastmile_qr_scan"}, "lon": -77.07391516666667, "type": "electric_bike", "fusion_lat": 0.0, "lat": 38.961710333333336, "name": "64c133385336c0bd0ca70429291f9bbb", "fusion_lon": 0.0, "bike_id": "64c133385336c0bd0ca70429291f9bbb", "is_disabled": 0, "is_reserved": 0}, {"rental_uris": {"ios": "https://dc.lft.to/lastmile_qr_scan", "android": "https://dc.lft.to/lastmile_qr_scan"}, "lon": -77.024333, "type": "electric_scooter", "fusion_lat": 0.0, "lat": 38.92055033333333, "name": "1a60c43e8fd5db1d213d2bb2f85f5633", "fusion_lon": 0.0, "bike_id": "1a60c43e8fd5db1d213d2bb2f85f5633", "is_disabled": 0, "is_reserved": 0}, {"rental_uris": {"ios": "https://dc.lft.to/lastmile_qr_scan", "android": "https://dc.lft.to/lastmile_qr_scan"}, "lon": -76.93174716666667, "type": "electric_scooter", "fusion_lat": 0.0, "lat": 38.8988635, "name": "67ec8867a1460ba425bcc4f05eedffb2", "fusion_lon": 0.0, "bike_id": "67ec8867a1460ba425bcc4f05eedffb2", "is_disabled": 0, "is_reserved": 0}, {"rental_uris": {"ios": "https://dc.lft.to/lastmile_qr_scan", "android": "https://dc.lft.to/lastmile_qr_scan"}, "lon": -77.03813783333334, "type": "electric_scooter", "fusion_lat": 0.0, "lat": 38.9207265, "name": "ec8b3895dc6c702dc41747617d987c75", "fusion_lon": 0.0, "bike_id": "ec8b3895dc6c702dc41747617d987c75", "is_disabled": 0, "is_reserved": 0}, {"rental_uris": {"ios": "https://dc.lft.to/lastmile_qr_scan", "android": "https://dc.lft.to/lastmile_qr_scan"}, "lon": -77.00239116666667, "type": "electric_scooter", "fusion_lat": 0.0, "lat": 38.91181183333333, "name": "056f90ae6d34a0f97c9b69fa391cf4d4", "fusion_lon": 0.0, "bike_id": "056f90ae6d34a0f97c9b69fa391cf4d4", "is_disabled": 0, "is_reserved": 0}, {"rental_uris": {"ios": "https://dc.lft.to/lastmile_qr_scan", "android": "https://dc.lft.to/lastmile_qr_scan"}, "lon": -77.03036033333333, "type": "electric_scooter", "fusion_lat": 0.0, "lat": 38.88395666666667, "name": "b2ce5108037be1a441e8d7e1b189caf5", "fusion_lon": 0.0, "bike_id": "b2ce5108037be1a441e8d7e1b189caf5", "is_disabled": 0, "is_reserved": 0}, {"rental_uris": {"ios": "https://dc.lft.to/lastmile_qr_scan", "android": "https://dc.lft.to/lastmile_qr_scan"}, "lon": -77.0235725, "type": "electric_scooter", "fusion_lat": 0.0, "lat": 38.920658333333336, "name": "4de7384bcdb326d519a96c90c3bde49d", "fusion_lon": 0.0, "bike_id": "4de7384bcdb326d519a96c90c3bde49d", "is_disabled": 0, "is_reserved": 0}, {"rental_uris": {"ios": "https://dc.lft.to/lastmile_qr_scan", "android": "https://dc.lft.to/lastmile_qr_scan"}, "lon": -77.04789883333333, "type": "electric_scooter", "fusion_lat": 0.0, "lat": 38.893739, "name": "f3dac0540c99aa30db5afcafaaedf93a", "fusion_lon": 0.0, "bike_id": "f3dac0540c99aa30db5afcafaaedf93a", "is_disabled": 0, "is_reserved": 0}, {"rental_uris": {"ios": "https://dc.lft.to/lastmile_qr_scan", "android": "https://dc.lft.to/lastmile_qr_scan"}, "lon": -77.0419795, "type": "electric_scooter", "fusion_lat": 0.0, "lat": 38.91871416666667, "name": "7f4e8de3f914bdb147f6344574395bbb", "fusion_lon": 0.0, "bike_id": "7f4e8de3f914bdb147f6344574395bbb", "is_disabled": 0, "is_reserved": 0}, {"rental_uris": {"ios": "https://dc.lft.to/lastmile_qr_scan", "android": "https://dc.lft.to/lastmile_qr_scan"}, "lon": -77.098781, "type": "electric_bike", "fusion_lat": 0.0, "lat": 38.947898, "name": "eb0751a241e4e873cd521c6e716e0483", "fusion_lon": 0.0, "bike_id": "eb0751a241e4e873cd521c6e716e0483", "is_disabled": 0, "is_reserved": 0}, {"rental_uris": {"ios": "https://dc.lft.to/lastmile_qr_scan", "android": "https://dc.lft.to/lastmile_qr_scan"}, "lon": -76.92369333333333, "type": "electric_bike", "fusion_lat": 0.0, "lat": 38.8837835, "name": "86efa4bf1ac7b4c84cc57a1d72fb0547", "fusion_lon": 0.0, "bike_id": "86efa4bf1ac7b4c84cc57a1d72fb0547", "is_disabled": 0, "is_reserved": 0}, {"rental_uris": {"ios": "https://dc.lft.to/lastmile_qr_scan", "android": "https://dc.lft.to/lastmile_qr_scan"}, "lon": -77.016304, "type": "electric_scooter", "fusion_lat": 0.0, "lat": 38.903654, "name": "e7ae4946614bdfd301ba08ff97171cc7", "fusion_lon": 0.0, "bike_id": "e7ae4946614bdfd301ba08ff97171cc7", "is_disabled": 0, "is_reserved": 0}, {"rental_uris": {"ios": "https://dc.lft.to/lastmile_qr_scan", "android": "https://dc.lft.to/lastmile_qr_scan"}, "lon": -77.02044466666666, "type": "electric_scooter", "fusion_lat": 0.0, "lat": 38.91552983333333, "name": "73cf32354aa1b2125205274e74d98421", "fusion_lon": 0.0, "bike_id": "73cf32354aa1b2125205274e74d98421", "is_disabled": 0, "is_reserved": 0}, {"rental_uris": {"ios": "https://dc.lft.to/lastmile_qr_scan", "android": "https://dc.lft.to/lastmile_qr_scan"}, "lon": -77.0522175, "type": "electric_scooter", "fusion_lat": 0.0, "lat": 38.9248775, "name": "40730a7b8260695680898437e229bdaf", "fusion_lon": 0.0, "bike_id": "40730a7b8260695680898437e229bdaf", "is_disabled": 0, "is_reserved": 0}, {"rental_uris": {"ios": "https://dc.lft.to/lastmile_qr_scan", "android": "https://dc.lft.to/lastmile_qr_scan"}, "lon": -77.00497183333333, "type": "electric_scooter", "fusion_lat": 0.0, "lat": 38.878966, "name": "8ae519d58e9c4fa41414ddea627c6796", "fusion_lon": 0.0, "bike_id": "8ae519d58e9c4fa41414ddea627c6796", "is_disabled": 0, "is_reserved": 0}, {"rental_uris": {"ios": "https://dc.lft.to/lastmile_qr_scan", "android": "https://dc.lft.to/lastmile_qr_scan"}, "lon": -76.98642016666666, "type": "electric_scooter", "fusion_lat": 0.0, "lat": 38.9001025, "name": "904158bf7cd1f7488522029114ba33af", "fusion_lon": 0.0, "bike_id": "904158bf7cd1f7488522029114ba33af", "is_disabled": 0, "is_reserved": 0}, {"rental_uris": {"ios": "https://dc.lft.to/lastmile_qr_scan", "android": "https://dc.lft.to/lastmile_qr_scan"}, "lon": -77.041217, "type": "electric_scooter", "fusion_lat": 0.0, "lat": 38.93400716666667, "name": "a3e0b87c683e07adc31bfe965da3c137", "fusion_lon": 0.0, "bike_id": "a3e0b87c683e07adc31bfe965da3c137", "is_disabled": 0, "is_reserved": 0}, {"rental_uris": {"ios": "https://dc.lft.to/lastmile_qr_scan", "android": "https://dc.lft.to/lastmile_qr_scan"}, "lon": -77.00364466666667, "type": "electric_scooter", "fusion_lat": 0.0, "lat": 38.89257, "name": "d3b6671214039e254be90dc37f8a2669", "fusion_lon": 0.0, "bike_id": "d3b6671214039e254be90dc37f8a2669", "is_disabled": 0, "is_reserved": 0}, {"rental_uris": {"ios": "https://dc.lft.to/lastmile_qr_scan", "android": "https://dc.lft.to/lastmile_qr_scan"}, "lon": -76.99002933333334, "type": "electric_scooter", "fusion_lat": 0.0, "lat": 38.86505, "name": "f14965d1aa2029400ff642360d1848fd", "fusion_lon": 0.0, "bike_id": "f14965d1aa2029400ff642360d1848fd", "is_disabled": 0, "is_reserved": 0}, {"rental_uris": {"ios": "https://dc.lft.to/lastmile_qr_scan", "android": "https://dc.lft.to/lastmile_qr_scan"},