{"data": {"bikes": [{"lat": 38.899571, "fusion_lat": 0.0, "type": "electric_scooter", "bike_id": "53b3952840b9c1c518f02cd2a2f7206b", "is_reserved": 0, "rental_uris": {"ios": "https://dc.lft.to/lastmile_qr_scan", "android": "https://dc.lft.to/lastmile_qr_scan"}, "is_disabled": 0, "lon": -77.02637133333333, "name": "53b3952840b9c1c518f02cd2a2f7206b", "fusion_lon": 0.0}, {"lat": 38.9084035, "fusion_lat": 0.0, "type": "electric_scooter", "bike_id": "65189bd4ad5dbb502b96599c091bb9af", "is_reserved": 0, "rental_uris": {"ios": "https://dc.lft.to/lastmile_qr_scan", "android": "https://dc.lft.to/lastmile_qr_scan"}, "is_disabled": 0, "lon": -77.03872366666667, "name": "65189bd4ad5dbb502b96599c091bb9af", "fusion_lon": 0.0}, {"lat": 38.929348, "fusion_lat": 0.0, "type": "electric_scooter", "bike_id": "79bcd351ddd51b467072417b92ff241a", "is_reserved": 0, "rental_uris": {"ios": "https://dc.lft.to/lastmile_qr_scan", "android": "https://dc.lft.to/lastmile_qr_scan"}, "is_disabled": 0, "lon": -77.03272316666667, "name": "79bcd351ddd51b467072417b92ff241a", "fusion_lon": 0.0}, {"lat": 38.90562233333333, "fusion_lat": 0.0, "type": "electric_scooter", "bike_id": "52edb7c51ce3585eff27ac671bff3436", "is_reserved": 0, "rental_uris": {"ios": "https://dc.lft.to/lastmile_qr_scan", "android": "https://dc.lft.to/lastmile_qr_scan"}, "is_disabled": 0, "lon": -77.028426, "name": "52edb7c51ce3585eff27ac671bff3436", "fusion_lon": 0.0}, {"lat": 38.91973983333333, "fusion_lat": 0.0, "type": "electric_scooter", "bike_id": "737bc4b4f8ddd2e171fb44b320f04fee", "is_reserved": 0, "rental_uris": {"ios": "https://dc.lft.to/lastmile_qr_scan", "android": "https://dc.lft.to/lastmile_qr_scan"}, "is_disabled": 0, "lon": -77.02186866666666, "name": "737bc4b4f8ddd2e171fb44b320f04fee", "fusion_lon": 0.0}, {"lat": 38.90368133333333, "fusion_lat": 0.0, "type": "electric_scooter", "bike_id": "39a54783dc8fdb782f5daf2d44308f71", "is_reserved": 0, "rental_uris": {"ios": "https://dc.lft.to/lastmile_qr_scan", "android": "https://dc.lft.to/lastmile_qr_scan"}, "is_disabled": 0, "lon": -76.93759383333334, "name": "39a54783dc8fdb782f5daf2d44308f71", "fusion_lon": 0.0}, {"lat": 38.9135565, "fusion_lat": 0.0, "type": "electric_scooter", "bike_id": "8c60de3f98c1f074b94d311e8443f4a1", "is_reserved": 0, "rental_uris": {"ios": "https://dc.lft.to/lastmile_qr_scan", "android": "https://dc.lft.to/lastmile_qr_scan"}, "is_disabled": 0, "lon": -77.04487966666667, "name": "8c60de3f98c1f074b94d311e8443f4a1", "fusion_lon": 0.0}, {"lat": 38.920137, "fusion_lat": 0.0, "type": "electric_scooter", "bike_id": "c2775f1a58a459bc6ec90dbcec3bda47", "is_reserved": 0, "rental_uris": {"ios": "https://dc.lft.to/lastmile_qr_scan", "android": "https://dc.lft.to/lastmile_qr_scan"}, "is_disabled": 0, "lon": -77.0194745, "name": "c2775f1a58a459bc6ec90dbcec3bda47", "fusion_lon": 0.0}, {"lat": 38.876828833333335, "fusion_lat": 0.0, "type": "electric_scooter", "bike_id": "ecf47ed0847ad4adc11d74d59e521bbc", "is_reserved": 0, "rental_uris": {"ios": "https://dc.lft.to/lastmile_qr_scan", "android": "https://dc.lft.to/lastmile_qr_scan"}, "is_disabled": 0, "lon": -77.00587866666666, "name": "ecf47ed0847ad4adc11d74d59e521bbc", "fusion_lon": 0.0}, {"lat": 39.0629435, "fusion_lat": 0.0, "type": "electric_bike", "bike_id": "6d1d01648dcf1a7a780dcef08df196d0", "is_reserved": 0, "rental_uris": {"ios": "https://dc.lft.to/lastmile_qr_scan", "android": "https://dc.lft.to/lastmile_qr_scan"}, "is_disabled": 0, "lon": -77.04977916666667, "name": "6d1d01648dcf1a7a780dcef08df196d0", "fusion_lon": 0.0}, {"lat": 38.9240925, "fusion_lat": 0.0, "type": "electric_scooter", "bike_id": "b4621dbba936612e67e1d09c1ca0ef4c", "is_reserved": 0, "rental_uris": {"ios": "https://dc.lft.to/lastmile_qr_scan", "android": "https://dc.lft.to/lastmile_qr_scan"}, "is_disabled": 0, "lon": -77.044622, "name": "b4621dbba936612e67e1d09c1ca0ef4c", "fusion_lon": 0.0}, {"lat": 38.901534166666664, "fusion_lat": 0.0, "type": "electric_scooter", "bike_id": "b814b10270426f1eb3cdbd4bca025f6c", "is_reserved": 0, "rental_uris": {"ios": "https://dc.lft.to/lastmile_qr_scan", "android": "https://dc.lft.to/lastmile_qr_scan"}, "is_disabled": 0, "lon": -76.93058966666666, "name": "b814b10270426f1eb3cdbd4bca025f6c", "fusion_lon": 0.0}, {"lat": 38.90864833333333, "fusion_lat": 0.0, "type": "electric_scooter", "bike_id": "a79ac5a0b179e9f05ec3007ebd208b20", "is_reserved": 0, "rental_uris": {"ios": "https://dc.lft.to/lastmile_qr_scan", "android": "https://dc.lft.to/lastmile_qr_scan"}, "is_disabled": 0, "lon": -77.0376405, "name": "a79ac5a0b179e9f05ec3007ebd208b20", "fusion_lon": 0.0}, {"lat": 38.90721383333333, "fusion_lat": 0.0, "type": "electric_scooter", "bike_id": "af7486c8f2cd8b5b9495c735d9508389", "is_reserved": 0, "rental_uris": {"ios": "https://dc.lft.to/lastmile_qr_scan", "android": "https://dc.lft.to/lastmile_qr_scan"}, "is_disabled": 0, "lon": -77.0146885, "name": "af7486c8f2cd8b5b9495c735d9508389", "fusion_lon": 0.0}, {"lat": 38.89223916666667, "fusion_lat": 0.0, "type": "electric_scooter", "bike_id": "c994cfab4ad4f311bc430eb6e2468c21", "is_reserved": 0, "rental_uris": {"ios": "https://dc.lft.to/lastmile_qr_scan", "android": "https://dc.lft.to/lastmile_qr_scan"}, "is_disabled": 0, "lon": -77.048596, "name": "c994cfab4ad4f311bc430eb6e2468c21", "fusion_lon": 0.0}, {"lat": 38.870119333333335, "fusion_lat": 0.0, "type": "electric_scooter", "bike_id": "33078ea85f8e747780aae1194c1eb376", "is_reserved": 0, "rental_uris": {"ios": "https://dc.lft.to/lastmile_qr_scan", "android": "https://dc.lft.to/lastmile_qr_scan"}, "is_disabled": 0, "lon": -76.98084066666667, "name": "33078ea85f8e747780aae1194c1eb376", "fusion_lon": 0.0}, {"lat": 38.92328833333333, "fusion_lat": 0.0, "type": "electric_scooter", "bike_id": "acfe0cc108a2d311a01af71abd633eba", "is_reserved": 0, "rental_uris": {"ios": "https://dc.lft.to/lastmile_qr_scan", "android": "https://dc.lft.to/lastmile_qr_scan"}, "is_disabled": 0, "lon": -77.02130283333334, "name": "acfe0cc108a2d311a01af71abd633eba", "fusion_lon": 0.0}, {"lat": 38.92357166666667, "fusion_lat": 0.0, "type": "electric_scooter", "bike_id": "9c0c66bda7889e03cec2ea54a4ee5bcb", "is_reserved": 0, "rental_uris": {"ios": "https://dc.lft.to/lastmile_qr_scan", "android": "https://dc.lft.to/lastmile_qr_scan"}, "is_disabled": 0, "lon": -77.05105683333333, "name": "9c0c66bda7889e03cec2ea54a4ee5bcb", "fusion_lon": 0.0}, {"lat": 38.89673166666667, "fusion_lat": 0.0, "type": "electric_scooter", "bike_id": "4e1173f39256855ca6265761f18e8306", "is_reserved": 0, "rental_uris": {"ios": "https://dc.lft.to/lastmile_qr_scan", "android": "https://dc.lft.to/lastmile_qr_scan"}, "is_disabled": 0, "lon": -77.03194933333333, "name": "4e1173f39256855ca6265761f18e8306", "fusion_lon": 0.0}, {"lat": 38.8935935, "fusion_lat": 0.0, "type": "electric_scooter", "bike_id": "aa59ec5d310c41ebed7907563ed777ef", "is_reserved": 0, "rental_uris": {"ios": "https://dc.lft.to/lastmile_qr_scan", "android": "https://dc.lft.to/lastmile_qr_scan"}, "is_disabled": 0, "lon": -77.00336433333334, "name": "aa59ec5d310c41ebed7907563ed777ef", "fusion_lon": 0.0}, {"lat": 38.89847833333334, "fusion_lat": 0.0, "type": "electric_scooter", "bike_id": "45fc57246bb8ccb3fe59fbdf2a3e4b6b", "is_reserved": 0, "rental_uris": {"ios": "https://dc.lft.to/lastmile_qr_scan", "android": "https://dc.lft.to/lastmile_qr_scan"}, "is_disabled": 0, "lon": -77.033339, "name": "45fc57246bb8ccb3fe59fbdf2a3e4b6b", "fusion_lon": 0.0}, {"lat": 38.905842666666665, "fusion_lat": 0.0, "type": "electric_scooter", "bike_id": "49fc0399e44b7296ce3bf1964fd70268", "is_reserved": 0, "rental_uris": {"ios": "https://dc.lft.to/lastmile_qr_scan", "android": "https://dc.lft.to/lastmile_qr_scan"}, "is_disabled": 0, "lon": -77.05131366666667, "name": "49fc0399e44b7296ce3bf1964fd70268", "fusion_lon": 0.0}, {"lat": 38.93360283333333, "fusion_lat": 0.0, "type": "electric_scooter", "bike_id": "d6f6138929df9da91a1faf042a0cbb73", "is_reserved": 0, "rental_uris": {"ios": "https://dc.lft.to/lastmile_qr_scan", "android": "https://dc.lft.to/lastmile_qr_scan"}, "is_disabled": 0, "lon": -77.08860483333333, "name": "d6f6138929df9da91a1faf042a0cbb73", "fusion_lon": 0.0}, {"lat": 38.9090495, "fusion_lat": 0.0, "type": "electric_scooter", "bike_id": "ebe323575b3e40bd130270cec51fdf06", "is_reserved": 0, "rental_uris": {"ios": "https://dc.lft.to/lastmile_qr_scan", "android": "https://dc.lft.to/lastmile_qr_scan"}, "is_disabled": 0, "lon": -77.04405183333333, "name": "ebe323575b3e40bd130270cec51fdf06", "fusion_lon": 0.0}, {"lat": 38.90772483333333, "fusion_lat": 0.0, "type": "electric_scooter", "bike_id": "a5a23d96919f2ae244d7fb391936aea4", "is_reserved": 0, "rental_uris": {"ios": "https://dc.lft.to/lastmile_qr_scan", "android": "https://dc.lft.to/lastmile_qr_scan"}, "is_disabled": 0, "lon": -77.034633, "name": "a5a23d96919f2ae244d7fb391936aea4", "fusion_lon": 0.0}, {"lat": 38.903737, "fusion_lat": 0.0, "type": "electric_scooter", "bike_id": "1b80c585a131ad89be4bd61b492a2f48", "is_reserved": 0, "rental_uris": {"ios": "https://dc.lft.to/lastmile_qr_scan", "android": "https://dc.lft.to/lastmile_qr_scan"}, "is_disabled": 0, "lon": -77.04493816666667, "name": "1b80c585a131ad89be4bd61b492a2f48", "fusion_lon": 0.0}, {"lat": 38.90201583333333, "fusion_lat": 0.0, "type": "electric_scooter", "bike_id": "c99b4eab7e67de60f584497fb6faabb7", "is_reserved": 0, "rental_uris": {"ios": "https://dc.lft.to/lastmile_qr_scan", "android": "https://dc.lft.to/lastmile_qr_scan"}, "is_disabled": 0, "lon": -77.02821483333334, "name": "c99b4eab7e67de60f584497fb6faabb7", "fusion_lon": 0.0}, {"lat": 38.90941383333333, "fusion_lat": 0.0, "type": "electric_scooter", "bike_id": "2ac626ba1e2f4a83d464854acc5b3e3b", "is_reserved": 0, "rental_uris": {"ios": "https://dc.lft.to/lastmile_qr_scan", "android": "https://dc.lft.to/lastmile_qr_scan"}, "is_disabled": 0, "lon": -77.0318055, "name": "2ac626ba1e2f4a83d464854acc5b3e3b", "fusion_lon": 0.0}, {"lat": 38.899929, "fusion_lat": 0.0, "type": "electric_scooter", "bike_id": "c66705d48e9a6161a980a92c979f2785", "is_reserved": 0, "rental_uris": {"ios": "https://dc.lft.to/lastmile_qr_scan", "android": "https://dc.lft.to/lastmile_qr_scan"}, "is_disabled": 0, "lon": -77.023955, "name": "c66705d48e9a6161a980a92c979f2785", "fusion_lon": 0.0}, {"lat": 38.93381866666667, "fusion_lat": 0.0, "type": "electric_scooter", "bike_id": "bd7fcf46b416241876bd6066703cd157", "is_reserved": 0, "rental_uris": {"ios": "https://dc.lft.to/lastmile_qr_scan", "android": "https://dc.lft.to/lastmile_qr_scan"}, "is_disabled": 0, "lon": -77.03094716666666, "name": "bd7fcf46b416241876bd6066703cd157", "fusion_lon": 0.0}, {"lat": 38.898384666666665, "fusion_lat": 0.0, "type": "electric_scooter", "bike_id": "4745a96eb9d36ddefa4fac18fc38ec20", "is_reserved": 0, "rental_uris": {"ios": "https://dc.lft.to/lastmile_qr_scan", "android": "https://dc.lft.to/lastmile_qr_scan"}, "is_disabled": 0, "lon": -77.03335566666667, "name": "4745a96eb9d36ddefa4fac18fc38ec20", "fusion_lon": 0.0}, {"lat": 38.898672, "fusion_lat": 0.0, "type": "electric_scooter", "bike_id": "4571492675853f4da8b54ead7e62c444", "is_reserved": 0, "rental_uris": {"ios": "https://dc.lft.to/lastmile_qr_scan", "android": "https://dc.lft.to/lastmile_qr_scan"}, "is_disabled": 0, "lon": -76.94662116666666, "name": "4571492675853f4da8b54ead7e62c444", "fusion_lon": 0.0}, {"lat": 38.908383, "fusion_lat": 0.0, "type": "electric_scooter", "bike_id": "b2a7f42d0c69642b0ac9b2eebc436dd9", "is_reserved": 0, "rental_uris": {"ios": "https://dc.lft.to/lastmile_qr_scan", "android": "https://dc.lft.to/lastmile_qr_scan"}, "is_disabled": 0, "lon": -77.03668766666667, "name": "b2a7f42d0c69642b0ac9b2eebc436dd9", "fusion_lon": 0.0}, {"lat": 38.942008, "fusion_lat": 0.0, "type": "electric_scooter", "bike_id": "71698654f1c2ea67226e40bf267425ae", "is_reserved": 0, "rental_uris": {"ios": "https://dc.lft.to/lastmile_qr_scan", "android": "https://dc.lft.to/lastmile_qr_scan"}, "is_disabled": 0, "lon": -77.0251715, "name": "71698654f1c2ea67226e40bf267425ae", "fusion_lon": 0.0}, {"lat": 38.93493016666667, "fusion_lat": 0.0, "type": "electric_scooter", "bike_id": "4f826bae87854adf4e652cfe1e104867", "is_reserved": 0, "rental_uris": {"ios": "https://dc.lft.to/lastmile_qr_scan", "android": "https://dc.lft.to/lastmile_qr_scan"}, "is_disabled": 0, "lon": -77.07393966666666, "name": "4f826bae87854adf4e652cfe1e104867", "fusion_lon": 0.0}, {"lat": 38.93082616666667, "fusion_lat": 0.0, "type": "electric_scooter", "bike_id": "d879655e2789a56f626f84e924540e98", "is_reserved": 0, "rental_uris": {"ios": "https://dc.lft.to/lastmile_qr_scan", "android": "https://dc.lft.to/lastmile_qr_scan"}, "is_disabled": 0, "lon": -77.02568783333334, "name": "d879655e2789a56f626f84e924540e98", "fusion_lon": 0.0}, {"lat": 38.900756666666666, "fusion_lat": 0.0, "type": "electric_scooter", "bike_id": "b6f3b5fa06150d0d4e37de0b6fe53b9b", "is_reserved": 0, "rental_uris": {"ios": "https://dc.lft.to/lastmile_qr_scan", "android": "https://dc.lft.to/lastmile_qr_scan"}, "is_disabled": 0, "lon": -77.0450375, "name": "b6f3b5fa06150d0d4e37de0b6fe53b9b", "fusion_lon": 0.0}, {"lat": 38.898524, "fusion_lat": 0.0, "type": "electric_scooter", "bike_id": "77bb595b59208738f5b0004e69b56173", "is_reserved": 0, "rental_uris": {"ios": "https://dc.lft.to/lastmile_qr_scan", "android": "https://dc.lft.to/lastmile_qr_scan"}, "is_disabled": 0, "lon": -76.98171766666667, "name": "77bb595b59208738f5b0004e69b56173", "fusion_lon": 0.0}, {"lat": 38.80904833333334, "fusion_lat": 0.0, "type": "electric_bike", "bike_id": "7838a2252bee5dfc0b82a5567ec93964", "is_reserved": 0, "rental_uris": {"ios": "https://dc.lft.to/lastmile_qr_scan", "android": "https://dc.lft.to/lastmile_qr_scan"}, "is_disabled": 0, "lon": -77.08664633333333, "name": "7838a2252bee5dfc0b82a5567ec93964", "fusion_lon": 0.0}, {"lat": 38.923421166666664, "fusion_lat": 0.0, "type": "electric_scooter", "bike_id": "7d56c73e71bc68e61567adab34e0705f", "is_reserved": 0, "rental_uris": {"ios": "https://dc.lft.to/lastmile_qr_scan", "android": "https://dc.lft.to/lastmile_qr_scan"}, "is_disabled": 0, "lon": -77.05082466666667, "name": "7d56c73e71bc68e61567adab34e0705f", "fusion_lon": 0.0}, {"lat": 38.93478283333334, "fusion_lat": 0.0, "type": "electric_scooter", "bike_id": "d4b2088afd1f78faa657d1a05dbf5bf9", "is_reserved": 0, "rental_uris": {"ios": "https://dc.lft.to/lastmile_qr_scan", "android": "https://dc.lft.to/lastmile_qr_scan"}, "is_disabled": 0, "lon": -77.07268783333333, "name": "d4b2088afd1f78faa657d1a05dbf5bf9", "fusion_lon": 0.0}, {"lat": 38.911971666666666, "fusion_lat": 0.0, "type": "electric_scooter", "bike_id": "f3ba4b0d14a214a9e32abf6abff5569d", "is_reserved": 0, "rental_uris": {"ios": "https://dc.lft.to/lastmile_qr_scan", "android": "https://dc.lft.to/lastmile_qr_scan"}, "is_disabled": 0, "lon": -77.03855566666667, "name": "f3ba4b0d14a214a9e32abf6abff5569d", "fusion_lon": 0.0}, {"lat": 38.8638695, "fusion_lat": 0.0, "type": "electric_scooter", "bike_id": "7fd11979650488d52d1426d52e693bd3", "is_reserved": 0, "rental_uris": {"ios": "https://dc.lft.to/lastmile_qr_scan", "android": "https://dc.lft.to/lastmile_qr_scan"}, "is_disabled": 0, "lon": -76.99038733333333, "name": "7fd11979650488d52d1426d52e693bd3", "fusion_lon": 0.0}, {"lat": 38.88620133333333, "fusion_lat": 0.0, "type": "electric_scooter", "bike_id": "b68e02f2a93d229f5bac07b4145f06c5", "is_reserved": 0, "rental_uris": {"ios": "https://dc.lft.to/lastmile_qr_scan", "android": "https://dc.lft.to/lastmile_qr_scan"}, "is_disabled": 0, "lon": -76.95582833333333, "name": "b68e02f2a93d229f5bac07b4145f06c5", "fusion_lon": 0.0}, {"lat": 38.934263, "fusion_lat": 0.0, "type": "electric_scooter", "bike_id": "c1ce645164b225b48eb9b4e44c816382", "is_reserved": 0, "rental_uris": {"ios": "https://dc.lft.to/lastmile_qr_scan", "android": "https://dc.lft.to/lastmile_qr_scan"}, "is_disabled": 0, "lon": -77.040022, "name": "c1ce645164b225b48eb9b4e44c816382", "fusion_lon": 0.0}, {"lat": 38.922154666666664, "fusion_lat": 0.0, "type": "electric_scooter", "bike_id": "75086a2086ea5e2a22bda1c11405e234", "is_reserved": 0, "rental_uris": {"ios": "https://dc.lft.to/lastmile_qr_scan", "android": "https://dc.lft.to/lastmile_qr_scan"}, "is_disabled": 0, "lon": -77.0345355, "name": "75086a2086ea5e2a22bda1c11405e234", "fusion_lon": 0.0}, {"lat": 38.928566833333335, "fusion_lat": 0.0, "type": "electric_scooter", "bike_id": "920821554e01c8729a33de94304fdaef", "is_reserved": 0, "rental_uris": {"ios": "https://dc.lft.to/lastmile_qr_scan", "android": "https://dc.lft.to/lastmile_qr_scan"}, "is_disabled": 0, "lon": -77.01419583333333, "name": "920821554e01c8729a33de94304fdaef", "fusion_lon": 0.0}, {"lat": 38.90324833333333, "fusion_lat": 0.0, "type": "electric_scooter", "bike_id": "ce050ae9c10613f0641136890e549488", "is_reserved": 0, "rental_uris": {"ios": "https://dc.lft.to/lastmile_qr_scan", "android": "https://dc.lft.to/lastmile_qr_scan"}, "is_disabled": 0, "lon": -76.97548583333334, "name": "ce050ae9c10613f0641136890e549488", "fusion_lon": 0.0}, {"lat": 38.97240866666667, "fusion_lat": 0.0, "type": "electric_bike", "bike_id": "2243e91e995ca06476ca7efa47435850", "is_reserved": 0, "rental_uris": {"ios": "https://dc.lft.to/lastmile_qr_scan", "android": "https://dc.lft.to/lastmile_qr_scan"}, "is_disabled": 0, "lon": -77.0271325, "name": "2243e91e995ca06476ca7efa47435850", "fusion_lon": 0.0}, {"lat": 38.884763666666665, "fusion_lat": 0.0, "type": "electric_scooter", "bike_id": "9312402b07d356adfc36a7b210adc9b8", "is_reserved": 0, "rental_uris": {"ios": "https://dc.lft.to/lastmile_qr_scan", "android": "https://dc.lft.to/lastmile_qr_scan"}, "is_disabled": 0, "lon": -77.03174783333333, "name": "9312402b07d356adfc36a7b210adc9b8", "fusion_lon": 0.0}, {"lat": 38.894859, "fusion_lat": 0.0, "type": "electric_scooter", "bike_id": "ae207691843872ca6254525a5be8ef36", "is_reserved": 0, "rental_uris": {"ios": "https://dc.lft.to/lastmile_qr_scan", "android": "https://dc.lft.to/lastmile_qr_scan"}, "is_disabled": 0, "lon": -77.02262683333333, "name": "ae207691843872ca6254525a5be8ef36", "fusion_lon": 0.0}, {"lat": 38.92975116666667, "fusion_lat": 0.0, "type": "electric_scooter", "bike_id": "078d6b4e1f569e978ff607e9e9a3e12c", "is_reserved": 0, "rental_uris": {"ios": "https://dc.lft.to/lastmile_qr_scan", "android": "https://dc.lft.to/lastmile_qr_scan"}, "is_disabled": 0, "lon": -77.02821233333333, "name": "078d6b4e1f569e978ff607e9e9a3e12c", "fusion_lon": 0.0}, {"lat": 38.92434933333333, "fusion_lat": 0.0, "type": "electric_scooter", "bike_id": "39e650b2f100e4a8b43097dc3e2c4626", "is_reserved": 0, "rental_uris": {"ios": "https://dc.lft.to/lastmile_qr_scan", "android": "https://dc.lft.to/lastmile_qr_scan"}, "is_disabled": 0, "lon": -77.05210133333334, "name": "39e650b2f100e4a8b43097dc3e2c4626", "fusion_lon": 0.0}, {"lat": 38.865136, "fusion_lat": 0.0, "type": "electric_scooter", "bike_id": "b24d65c56739ed8a7e4cb9d69521736b", "is_reserved": 0, "rental_uris": {"ios": "https://dc.lft.to/lastmile_qr_scan", "android": "https://dc.lft.to/lastmile_qr_scan"}, "is_disabled": 0, "lon": -76.99016266666666, "name": "b24d65c56739ed8a7e4cb9d69521736b", "fusion_lon": 0.0}, {"lat": 38.887473166666666, "fusion_lat": 0.0, "type": "electric_scooter", "bike_id": "6370ec1118c2f3d6d52832ca760b334a", "is_reserved": 0, "rental_uris": {"ios": "https://dc.lft.to/lastmile_qr_scan", "android": "https://dc.lft.to/lastmile_qr_scan"}, "is_disabled": 0, "lon": -77.02730183333334, "name": "6370ec1118c2f3d6d52832ca760b334a", "fusion_lon": 0.0}, {"lat": 38.90014633333333, "fusion_lat": 0.0, "type": "electric_scooter", "bike_id": "d962546fc32aec900fda1e7d7d1f7181", "is_reserved": 0, "rental_uris": {"ios": "https://dc.lft.to/lastmile_qr_scan", "android": "https://dc.lft.to/lastmile_qr_scan"}, "is_disabled": 0, "lon": -77.04478166666667, "name": "d962546fc32aec900fda1e7d7d1f7181", "fusion_lon": 0.0}, {"lat": 38.957323, "fusion_lat": 0.0, "type": "electric_scooter", "bike_id": "6c1cacc8df3667499f3c2e65f7e837a7", "is_reserved": 0, "rental_uris": {"ios": "https://dc.lft.to/lastmile_qr_scan", "android": "https://dc.lft.to/lastmile_qr_scan"}, "is_disabled": 0, "lon": -77.0240145, "name": "6c1cacc8df3667499f3c2e65f7e837a7", "fusion_lon": 0.0}, {"lat": 38.917041833333336, "fusion_lat": 0.0, "type": "electric_scooter", "bike_id": "8fc4b50e1b405bcb1e9a14f04dd13af1", "is_reserved": 0, "rental_uris": {"ios": "https://dc.lft.to/lastmile_qr_scan", "android": "https://dc.lft.to/lastmile_qr_scan"}, "is_disabled": 0, "lon": -77.095778, "name": "8fc4b50e1b405bcb1e9a14f04dd13af1", "fusion_lon": 0.0}, {"lat": 38.893666, "fusion_lat": 0.0, "type": "electric_scooter", "bike_id": "06a1f56fafbb71f54f59d1aad51f1cb0", "is_reserved": 0, "rental_uris": {"ios": "https://dc.lft.to/lastmile_qr_scan", "android": "https://dc.lft.to/lastmile_qr_scan"}, "is_disabled": 0, "lon": -77.02000383333333, "name": "06a1f56fafbb71f54f59d1aad51f1cb0", "fusion_lon": 0.0}, {"lat": 38.9515435, "fusion_lat": 0.0, "type": "electric_scooter", "bike_id": "a7bf8955ce43ea5aa2949bc2afa5590c", "is_reserved": 0, "rental_uris": {"ios": "https://dc.lft.to/lastmile_qr_scan", "android": "https://dc.lft.to/lastmile_qr_scan"}, "is_disabled": 0, "lon": -77.01870016666666, "name": "a7bf8955ce43ea5aa2949bc2afa5590c", "fusion_lon": 0.0}, {"lat": 38.8982635, "fusion_lat": 0.0, "type": "electric_scooter", "bike_id": "56345c48699757cd25bc8e5f3f3d3193", "is_reserved": 0, "rental_uris": {"ios": "https://dc.lft.to/lastmile_qr_scan", "android": "https://dc.lft.to/lastmile_qr_scan"}, "is_disabled": 0, "lon": -77.02577183333334, "name": "56345c48699757cd25bc8e5f3f3d3193", "fusion_lon": 0.0}, {"lat": 38.921740666666665, "fusion_lat": 0.0, "type": "electric_scooter", "bike_id": "4265cf58d77e200a15918e9eafc3ca9f", "is_reserved": 0, "rental_uris": {"ios": "https://dc.lft.to/lastmile_qr_scan", "android": "https://dc.lft.to/lastmile_qr_scan"}, "is_disabled": 0, "lon": -77.01917566666667, "name": "4265cf58d77e200a15918e9eafc3ca9f", "fusion_lon": 0.0}, {"lat": 38.904148, "fusion_lat": 0.0, "type": "electric_scooter", "bike_id": "4dec49a8339f4791caa04ecc59a0be91", "is_reserved": 0, "rental_uris": {"ios": "https://dc.lft.to/lastmile_qr_scan", "android": "https://dc.lft.to/lastmile_qr_scan"}, "is_disabled": 0, "lon": -77.05011766666667, "name": "4dec49a8339f4791caa04ecc59a0be91", "fusion_lon": 0.0}, {"lat": 38.9008085, "fusion_lat": 0.0, "type": "electric_scooter", "bike_id": "c59b67308d8739bfcf47b38df9b351fa", "is_reserved": 0, "rental_uris": {"ios": "https://dc.lft.to/lastmile_qr_scan", "android": "https://dc.lft.to/lastmile_qr_scan"}, "is_disabled": 0, "lon": -77.05001416666667, "name": "c59b67308d8739bfcf47b38df9b351fa", "fusion_lon": 0.0}, {"lat": 38.92322216666667, "fusion_lat": 0.0, "type": "electric_scooter", "bike_id": "5826adb8c707cdd605800c328e476bfe", "is_reserved": 0, "rental_uris": {"ios": "https://dc.lft.to/lastmile_qr_scan", "android": "https://dc.lft.to/lastmile_qr_scan"}, "is_disabled": 0, "lon": -77.02129666666667, "name": "5826adb8c707cdd605800c328e476bfe", "fusion_lon": 0.0}, {"lat": 38.919142, "fusion_lat": 0.0, "type": "electric_scooter", "bike_id": "a32d9af27016b1afaccfeb048e97be68", "is_reserved": 0, "rental_uris": {"ios": "https://dc.lft.to/lastmile_qr_scan", "android": "https://dc.lft.to/lastmile_qr_scan"}, "is_disabled": 0, "lon": -77.03386966666666, "name": "a32d9af27016b1afaccfeb048e97be68", "fusion_lon": 0.0}, {"lat": 38.90969283333333, "fusion_lat": 0.0, "type": "electric_bike", "bike_id": "08408aec33591dc0ef32ec9cb6decd1b", "is_reserved": 0, "rental_uris": {"ios": "https://dc.lft.to/lastmile_qr_scan", "android": "https://dc.lft.to/lastmile_qr_scan"}, "is_disabled": 0, "lon": -77.0463005, "name": "08408aec33591dc0ef32ec9cb6decd1b", "fusion_lon": 0.0}, {"lat": 38.906555833333336, "fusion_lat": 0.0, "type": "electric_scooter", "bike_id": "2dabe586ed8334a3927c4a9100f79c04", "is_reserved": 0, "rental_uris": {"ios": "https://dc.lft.to/lastmile_qr_scan", "android": "https://dc.lft.to/lastmile_qr_scan"}, "is_disabled": 0, "lon": -77.03871233333334, "name": "2dabe586ed8334a3927c4a9100f79c04", "fusion_lon": 0.0}, {"lat": 38.904091, "fusion_lat": 0.0, "type": "electric_scooter", "bike_id": "9f8c9ad26ac99b6a274713195a463953", "is_reserved": 0, "rental_uris": {"ios": "https://dc.lft.to/lastmile_qr_scan", "android": "https://dc.lft.to/lastmile_qr_scan"}, "is_disabled": 0, "lon": -76.97329066666667, "name": "9f8c9ad26ac99b6a274713195a463953", "fusion_lon": 0.0}, {"lat": 38.9130185, "fusion_lat": 0.0, "type": "electric_scooter", "bike_id": "02bf0ff94343f4c920f2c972fbc7077d", "is_reserved": 0, "rental_uris": {"ios": "https://dc.lft.to/lastmile_qr_scan", "android": "https://dc.lft.to/lastmile_qr_scan"}, "is_disabled": 0, "lon": -77.06682, "name": "02bf0ff94343f4c920f2c972fbc7077d", "fusion_lon": 0.0}, {"lat": 38.912174666666665, "fusion_lat": 0.0, "type": "electric_scooter", "bike_id": "19240f7e6109ed0aff0c47b913402608", "is_reserved": 0, "rental_uris": {"ios": "https://dc.lft.to/lastmile_qr_scan", "android": "https://dc.lft.to/lastmile_qr_scan"}, "is_disabled": 0, "lon": -77.03207233333333, "name": "19240f7e6109ed0aff0c47b913402608", "fusion_lon": 0.0}, {"lat": 38.91787216666667, "fusion_lat": 0.0, "type": "electric_scooter", "bike_id": "f893cd111298f71402d4a82c5fdfd460", "is_reserved": 0, "rental_uris": {"ios": "https://dc.lft.to/lastmile_qr_scan", "android": "https://dc.lft.to/lastmile_qr_scan"}, "is_disabled": 0, "lon": -77.04215983333333, "name": "f893cd111298f71402d4a82c5fdfd460", "fusion_lon": 0.0}, {"lat": 38.90028266666667, "fusion_lat": 0.0, "type": "electric_scooter", "bike_id": "cdacf68780c83f78123ebc7034663e49", "is_reserved": 0, "rental_uris": {"ios": "https://dc.lft.to/lastmile_qr_scan", "android": "https://dc.lft.to/lastmile_qr_scan"}, "is_disabled": 0, "lon": -76.9955775, "name": "cdacf68780c83f78123ebc7034663e49", "fusion_lon": 0.0}, {"lat": 38.99348233333333, "fusion_lat": 0.0, "type": "electric_bike", "bike_id": "d83a0b67718218206a24181d6f32739f", "is_reserved": 0, "rental_uris": {"ios": "https://dc.lft.to/lastmile_qr_scan", "android": "https://dc.lft.to/lastmile_qr_scan"}, "is_disabled": 0, "lon": -77.11575916666666, "name": "d83a0b67718218206a24181d6f32739f", "fusion_lon": 0.0}, {"lat": 38.87204933333334, "fusion_lat": 0.0, "type": "electric_scooter", "bike_id": "5aa0ee68857fe317b616bbd6ffc41fe9", "is_reserved": 0, "rental_uris": {"ios": "https://dc.lft.to/lastmile_qr_scan", "android": "https://dc.lft.to/lastmile_qr_scan"}, "is_disabled": 0, "lon": -77.009652, "name": "5aa0ee68857fe317b616bbd6ffc41fe9", "fusion_lon": 0.0}, {"lat": 38.941777, "fusion_lat": 0.0, "type": "electric_scooter", "bike_id": "ccb92b228e35087c155015a8f06bebd7", "is_reserved": 0, "rental_uris": {"ios": "https://dc.lft.to/lastmile_qr_scan", "android": "https://dc.lft.to/lastmile_qr_scan"}, "is_disabled": 0, "lon": -77.02792933333333, "name": "ccb92b228e35087c155015a8f06bebd7", "fusion_lon": 0.0}, {"lat": 38.91696, "fusion_lat": 0.0, "type": "electric_scooter", "bike_id": "5b490bd9d7a46f72c8396994deec14a1", "is_reserved": 0, "rental_uris": {"ios": "https://dc.lft.to/lastmile_qr_scan", "android": "https://dc.lft.to/lastmile_qr_scan"}, "is_disabled": 0, "lon": -77.0251865, "name": "5b490bd9d7a46f72c8396994deec14a1", "fusion_lon": 0.0}, {"lat": 38.92216066666667, "fusion_lat": 0.0, "type": "electric_scooter", "bike_id": "57b8da367e17eb42ceeaea6a40a1dee5", "is_reserved": 0, "rental_uris": {"ios": "https://dc.lft.to/lastmile_qr_scan", "android": "https://dc.lft.to/lastmile_qr_scan"}, "is_disabled": 0, "lon": -77.03292483333334, "name": "57b8da367e17eb42ceeaea6a40a1dee5", "fusion_lon": 0.0}, {"lat": 38.923654666666664, "fusion_lat": 0.0, "type": "electric_scooter", "bike_id": "33dc26b6d9f3ced44b8c70c9e8f65401", "is_reserved": 0, "rental_uris": {"ios": "https://dc.lft.to/lastmile_qr_scan", "android": "https://dc.lft.to/lastmile_qr_scan"}, "is_disabled": 0, "lon": -77.0527115, "name": "33dc26b6d9f3ced44b8c70c9e8f65401", "fusion_lon": 0.0}, {"lat": 38.941851, "fusion_lat": 0.0, "type": "electric_scooter", "bike_id": "8ab45f3ad08c1aa9dd46655ad2da01dc", "is_reserved": 0, "rental_uris": {"ios": "https://dc.lft.to/lastmile_qr_scan", "android": "https://dc.lft.to/lastmile_qr_scan"}, "is_disabled": 0, "lon": -77.02489366666667, "name": "8ab45f3ad08c1aa9dd46655ad2da01dc", "fusion_lon": 0.0}, {"lat": 38.92569866666667, "fusion_lat": 0.0, "type": "electric_scooter", "bike_id": "83f966bb41a894896df3a6d0c90ba7f8", "is_reserved": 0, "rental_uris": {"ios": "https://dc.lft.to/lastmile_qr_scan", "android": "https://dc.lft.to/lastmile_qr_scan"}, "is_disabled": 0, "lon": -77.0322145, "name": "83f966bb41a894896df3a6d0c90ba7f8", "fusion_lon": 0.0}, {"lat": 38.8650865, "fusion_lat": 0.0, "type": "electric_scooter", "bike_id": "1bf2cc160e4e5cb7f8f35d3fbb399dd3", "is_reserved": 0, "rental_uris": {"ios": "https://dc.lft.to/lastmile_qr_scan", "android": "https://dc.lft.to/lastmile_qr_scan"}, "is_disabled": 0, "lon": -76.99003783333333, "name": "1bf2cc160e4e5cb7f8f35d3fbb399dd3", "fusion_lon": 0.0}, {"lat": 38.918151333333334, "fusion_lat": 0.0, "type": "electric_scooter", "bike_id": "8fb3e008480fd1939572629c7b3a2ccb", "is_reserved": 0, "rental_uris": {"ios": "https://dc.lft.to/lastmile_qr_scan", "android": "https://dc.lft.to/lastmile_qr_scan"}, "is_disabled": 0, "lon": -77.04008133333333, "name": "8fb3e008480fd1939572629c7b3a2ccb", "fusion_lon": 0.0}, {"lat": 38.926955, "fusion_lat": 0.0, "type": "electric_scooter", "bike_id": "73e69ecaf0dd744b16979a0829f33b52", "is_reserved": 0, "rental_uris": {"ios": "https://dc.lft.to/lastmile_qr_scan", "android": "https://dc.lft.to/lastmile_qr_scan"}, "is_disabled": 0, "lon": -77.02423116666667, "name": "73e69ecaf0dd744b16979a0829f33b52", "fusion_lon": 0.0}, {"lat": 38.91562483333333, "fusion_lat": 0.0, "type": "electric_scooter", "bike_id": "2c5164553a2abd2b6c11b27a2e12146b", "is_reserved": 0, "rental_uris": {"ios": "https://dc.lft.to/lastmile_qr_scan", "android": "https://dc.lft.to/lastmile_qr_scan"}, "is_disabled": 0, "lon": -77.03957083333333, "name": "2c5164553a2abd2b6c11b27a2e12146b", "fusion_lon": 0.0}, {"lat": 38.92307016666667, "fusion_lat": 0.0, "type": "electric_bike", "bike_id": "fe49765c787abc2c674b88188c2b5722", "is_reserved": 0, "rental_uris": {"ios": "https://dc.lft.to/lastmile_qr_scan", "android": "https://dc.lft.to/lastmile_qr_scan"}, "is_disabled": 0, "lon": -77.0225875, "name": "fe49765c787abc2c674b88188c2b5722", "fusion_lon": 0.0}, {"lat": 38.80762383333333, "fusion_lat": 0.0, "type": "electric_bike", "bike_id": "2b9ebff5a6d2d1734e815470c805d7da", "is_reserved": 0, "rental_uris": {"ios": "https://dc.lft.to/lastmile_qr_scan", "android": "https://dc.lft.to/lastmile_qr_scan"}, "is_disabled": 0, "lon": -77.09464783333334, "name": "2b9ebff5a6d2d1734e815470c805d7da", "fusion_lon": 0.0}, {"lat": 38.915797833333336, "fusion_lat": 0.0, "type": "electric_scooter", "bike_id": "14851e370261ff68664e71cab59a443b", "is_reserved": 0, "rental_uris": {"ios": "https://dc.lft.to/lastmile_qr_scan", "android": "https://dc.lft.to/lastmile_qr_scan"}, "is_disabled": 0, "lon": -77.01230033333333, "name": "14851e370261ff68664e71cab59a443b", "fusion_lon": 0.0}, {"lat": 38.89727833333333, "fusion_lat": 0.0, "type": "electric_scooter", "bike_id": "bfd58c8bf8ea7363e2768755b2711373", "is_reserved": 0, "rental_uris": {"ios": "https://dc.lft.to/lastmile_qr_scan", "android": "https://dc.lft.to/lastmile_qr_scan"}, "is_disabled": 0, "lon": -77.0318745, "name": "bfd58c8bf8ea7363e2768755b2711373", "fusion_lon": 0.0}, {"lat": 38.90854933333333, "fusion_lat": 0.0, "type": "electric_scooter", "bike_id": "57fbf950f60be29d439675f14a0bc9ce", "is_reserved": 0, "rental_uris": {"ios": "https://dc.lft.to/lastmile_qr_scan", "android": "https://dc.lft.to/lastmile_qr_scan"}, "is_disabled": 0, "lon": -77.02544166666667, "name": "57fbf950f60be29d439675f14a0bc9ce", "fusion_lon": 0.0}, {"lat": 38.8891185, "fusion_lat": 0.0, "type": "electric_scooter", "bike_id": "0e3da84533326b2e030e2339d0a0e0c2", "is_reserved": 0, "rental_uris": {"ios": "https://dc.lft.to/lastmile_qr_scan", "android": "https://dc.lft.to/lastmile_qr_scan"}, "is_disabled": 0, "lon": -76.99175666666666, "name": "0e3da84533326b2e030e2339d0a0e0c2", "fusion_lon": 0.0}, {"lat": 38.83834133333333, "fusion_lat": 0.0, "type": "electric_bike", "bike_id": "d86762c39fd30243efe696a4b481fcb4", "is_reserved": 0, "rental_uris": {"ios": "https://dc.lft.to/lastmile_qr_scan", "android": "https://dc.lft.to/lastmile_qr_scan"}, "is_disabled": 0, "lon": -77.00239533333334, "name": "d86762c39fd30243efe696a4b481fcb4", "fusion_lon": 0.0}, {"lat": 38.932499666666665, "fusion_lat": 0.0, "type": "electric_scooter", "bike_id": "d8a8d432c498855e11c6e59483842d78", "is_reserved": 0, "rental_uris": {"ios": "https://dc.lft.to/lastmile_qr_scan", "android": "https://dc.lft.to/lastmile_qr_scan"}, "is_disabled": 0, "lon": -77.038501, "name": "d8a8d432c498855e11c6e59483842d78", "fusion_lon": 0.0}, {"lat": 38.83549283333333, "fusion_lat": 0.0, "type": "electric_bike", "bike_id": "9bd8077041130475aa17f046bff6a069", "is_reserved": 0, "rental_uris": {"ios": "https://dc.lft.to/lastmile_qr_scan", "android": "https://dc.lft.to/lastmile_qr_scan"}, "is_disabled": 0, "lon": -76.98727083333333, "name": "9bd8077041130475aa17f046bff6a069", "fusion_lon": 0.0}, {"lat": 38.90567633333333, "fusion_lat": 0.0, "type": "electric_scooter", "bike_id": "9387dd5d764b24a07b6536175897d138", "is_reserved": 0, "rental_uris": {"ios": "https://dc.lft.to/lastmile_qr_scan", "android": "https://dc.lft.to/lastmile_qr_scan"}, "is_disabled": 0, "lon": -77.04145966666667, "name": "9387dd5d764b24a07b6536175897d138", "fusion_lon": 0.0}, {"lat": 38.8998105, "fusion_lat": 0.0, "type": "electric_scooter", "bike_id": "a51c49014a1d01d3098fd523c90d9553", "is_reserved": 0, "rental_uris": {"ios": "https://dc.lft.to/lastmile_qr_scan", "android": "https://dc.lft.to/lastmile_qr_scan"}, "is_disabled": 0, "lon": -77.02195883333333, "name": "a51c49014a1d01d3098fd523c90d9553", "fusion_lon": 0.0}, {"lat": 38.884595833333336, "fusion_lat": 0.0, "type": "electric_scooter", "bike_id": "23383d6c587f82dbf7169869bd05e086", "is_reserved": 0, "rental_uris": {"ios": "https://dc.lft.to/lastmile_qr_scan", "android": "https://dc.lft.to/lastmile_qr_scan"}, "is_disabled": 0, "lon": -76.926233, "name": "23383d6c587f82dbf7169869bd05e086", "fusion_lon": 0.0}, {"lat": 38.962187, "fusion_lat": 0.0, "type": "electric_bike", "bike_id": "a7a2be810320b81074b062a14fd61502", "is_reserved": 0, "rental_uris": {"ios": "https://dc.lft.to/lastmile_qr_scan", "android": "https://dc.lft.to/lastmile_qr_scan"}, "is_disabled": 0, "lon": -77.02625483333334, "name": "a7a2be810320b81074b062a14fd61502", "fusion_lon": 0.0}, {"lat": 38.910006833333334, "fusion_lat": 0.0, "type": "electric_scooter", "bike_id": "5f109003c8b28506a9a7562887c428b8", "is_reserved": 0, "rental_uris": {"ios": "https://dc.lft.to/lastmile_qr_scan", "android": "https://dc.lft.to/lastmile_qr_scan"}, "is_disabled": 0, "lon": -77.04361216666666, "name": "5f109003c8b28506a9a7562887c428b8", "fusion_lon": 0.0}, {"lat": 38.9000865, "fusion_lat": 0.0, "type": "electric_scooter", "bike_id": "b2d2ef324068d5a55666ea643c469d68", "is_reserved": 0, "rental_uris": {"ios": "https://dc.lft.to/lastmile_qr_scan", "android": "https://dc.lft.to/lastmile_qr_scan"}, "is_disabled": 0, "lon": -76.9934745, "name": "b2d2ef324068d5a55666ea643c469d68", "fusion_lon": 0.0}, {"lat": 38.90610733333333, "fusion_lat": 0.0, "type": "electric_scooter", "bike_id": "298029dc9206556d1daf1191ae04e63c", "is_reserved": 0, "rental_uris": {"ios": "https://dc.lft.to/lastmile_qr_scan", "android": "https://dc.lft.to/lastmile_qr_scan"}, "is_disabled": 0, "lon": -77.02107216666667, "name": "298029dc9206556d1daf1191ae04e63c", "fusion_lon": 0.0}, {"lat": 38.93012733333333, "fusion_lat": 0.0, "type": "electric_scooter", "bike_id": "a88769eb3f12052b60e8cb0dcb9436d4", "is_reserved": 0, "rental_uris": {"ios": "https://dc.lft.to/lastmile_qr_scan", "android": "https://dc.lft.to/lastmile_qr_scan"}, "is_disabled": 0, "lon": -77.05527133333334, "name": "a88769eb3f12052b60e8cb0dcb9436d4", "fusion_lon": 0.0}, {"lat": 38.901288666666666, "fusion_lat": 0.0, "type": "electric_scooter", "bike_id": "9938f04fdc8bad69374351e668dd9921", "is_reserved": 0, "rental_uris": {"ios": "https://dc.lft.to/lastmile_qr_scan", "android": "https://dc.lft.to/lastmile_qr_scan"}, "is_disabled": 0, "lon": -77.04343666666666, "name": "9938f04fdc8bad69374351e668dd9921", "fusion_lon": 0.0}, {"lat": 38.934947333333334, "fusion_lat": 0.0, "type": "electric_scooter", "bike_id": "2ee053d44eda2d68fe5f78c95208be94", "is_reserved": 0, "rental_uris": {"ios": "https://dc.lft.to/lastmile_qr_scan", "android": "https://dc.lft.to/lastmile_qr_scan"}, "is_disabled": 0, "lon": -77.03518516666666, "name": "2ee053d44eda2d68fe5f78c95208be94", "fusion_lon": 0.0}, {"lat": 38.91151383333333, "fusion_lat": 0.0, "type": "electric_scooter", "bike_id": "3871fcd2cf1c05dbfd869cdb30eac9cc", "is_reserved": 0, "rental_uris": {"ios": "https://dc.lft.to/lastmile_qr_scan", "android": "https://dc.lft.to/lastmile_qr_scan"}, "is_disabled": 0, "lon": -77.038373, "name": "3871fcd2cf1c05dbfd869cdb30eac9cc", "fusion_lon": 0.0}, {"lat": 38.920136, "fusion_lat": 0.0, "type": "electric_scooter", "bike_id": "6208583d8af7415dc45c1ecfabcb7c22", "is_reserved": 0, "rental_uris": {"ios": "https://dc.lft.to/lastmile_qr_scan", "android": "https://dc.lft.to/lastmile_qr_scan"}, "is_disabled": 0, "lon": -77.031195, "name": "6208583d8af7415dc45c1ecfabcb7c22", "fusion_lon": 0.0}, {"lat": 38.909382, "fusion_lat": 0.0, "type": "electric_scooter", "bike_id": "f198ebaa755e47229f1fc3f0fe974c52", "is_reserved": 0, "rental_uris": {"ios": "https://dc.lft.to/lastmile_qr_scan", "android": "https://dc.lft.to/lastmile_qr_scan"}, "is_disabled": 0, "lon": -77.0270375, "name": "f198ebaa755e47229f1fc3f0fe974c52", "fusion_lon": 0.0}, {"lat": 38.897274333333336, "fusion_lat": 0.0, "type": "electric_scooter", "bike_id": "7e603b9c54ae0971cb417a24c6c5e04a", "is_reserved": 0, "rental_uris": {"ios": "https://dc.lft.to/lastmile_qr_scan", "android": "https://dc.lft.to/lastmile_qr_scan"}, "is_disabled": 0, "lon": -77.04420516666667, "name": "7e603b9c54ae0971cb417a24c6c5e04a", "fusion_lon": 0.0}, {"lat": 38.90529683333333, "fusion_lat": 0.0, "type": "electric_scooter", "bike_id": "98d0eaa27b3ecbb64c7af2ae6c58e6ad", "is_reserved": 0, "rental_uris": {"ios": "https://dc.lft.to/lastmile_qr_scan", "android": "https://dc.lft.to/lastmile_qr_scan"}, "is_disabled": 0, "lon": -76.98099616666667, "name": "98d0eaa27b3ecbb64c7af2ae6c58e6ad", "fusion_lon": 0.0}, {"lat": 38.90627533333333, "fusion_lat": 0.0, "type": "electric_scooter", "bike_id": "b8e7e911cc455f1a4b8c0e34defa0a77", "is_reserved": 0, "rental_uris": {"ios": "https://dc.lft.to/lastmile_qr_scan", "android": "https://dc.lft.to/lastmile_qr_scan"}, "is_disabled": 0, "lon": -77.038402, "name": "b8e7e911cc455f1a4b8c0e34defa0a77", "fusion_lon": 0.0}, {"lat": 38.924164833333336, "fusion_lat": 0.0, "type": "electric_scooter", "bike_id": "dde9a881df7235706489f91558c8692c", "is_reserved": 0, "rental_uris": {"ios": "https://dc.lft.to/lastmile_qr_scan", "android": "https://dc.lft.to/lastmile_qr_scan"}, "is_disabled": 0, "lon": -77.050668, "name": "dde9a881df7235706489f91558c8692c", "fusion_lon": 0.0}, {"lat": 38.93515133333333, "fusion_lat": 0.0, "type": "electric_scooter", "bike_id": "0fd94d817ded98c576187dd4c64dcdbe", "is_reserved": 0, "rental_uris": {"ios": "https://dc.lft.to/lastmile_qr_scan", "android": "https://dc.lft.to/lastmile_qr_scan"}, "is_disabled": 0, "lon": -77.03292183333333, "name": "0fd94d817ded98c576187dd4c64dcdbe", "fusion_lon": 0.0}, {"lat": 38.8953995, "fusion_lat": 0.0, "type": "electric_scooter", "bike_id": "37e1ce43b7ed1a06eddd5d9d713dc7f8", "is_reserved": 0, "rental_uris": {"ios": "https://dc.lft.to/lastmile_qr_scan", "android": "https://dc.lft.to/lastmile_qr_scan"}, "is_disabled": 0, "lon": -76.929468, "name": "37e1ce43b7ed1a06eddd5d9d713dc7f8", "fusion_lon": 0.0}, {"lat": 38.9150725, "fusion_lat": 0.0, "type": "electric_scooter", "bike_id": "e27b988ff62b4d4fa07dc21c9b02935e", "is_reserved": 0, "rental_uris": {"ios": "https://dc.lft.to/lastmile_qr_scan", "android": "https://dc.lft.to/lastmile_qr_scan"}, "is_disabled": 0, "lon": -76.98360316666667, "name": "e27b988ff62b4d4fa07dc21c9b02935e", "fusion_lon": 0.0}, {"lat": 38.86265383333333, "fusion_lat": 0.0, "type": "electric_bike", "bike_id": "2ea25046751eddb0327f7e39c189930b", "is_reserved": 0, "rental_uris": {"ios": "https://dc.lft.to/lastmile_qr_scan", "android": "https://dc.lft.to/lastmile_qr_scan"}, "is_disabled": 0, "lon": -76.9834815, "name": "2ea25046751eddb0327f7e39c189930b", "fusion_lon": 0.0}, {"lat": 38.85788266666667, "fusion_lat": 0.0, "type": "electric_bike", "bike_id": "e020bee683f0f3de06a9360969538f0b", "is_reserved": 0, "rental_uris": {"ios": "https://dc.lft.to/lastmile_qr_scan", "android": "https://dc.lft.to/lastmile_qr_scan"}, "is_disabled": 0, "lon": -77.12019783333334, "name": "e020bee683f0f3de06a9360969538f0b", "fusion_lon": 0.0}, {"lat": 38.903744833333334, "fusion_lat": 0.0, "type": "electric_scooter", "bike_id": "d43ba077d86eef02ce290679c83d6bfa", "is_reserved": 0, "rental_uris": {"ios": "https://dc.lft.to/lastmile_qr_scan", "android": "https://dc.lft.to/lastmile_qr_scan"}, "is_disabled": 0, "lon": -77.04351666666666, "name": "d43ba077d86eef02ce290679c83d6bfa", "fusion_lon": 0.0}, {"lat": 38.869501666666665, "fusion_lat": 0.0, "type": "electric_scooter", "bike_id": "6adae7b778a3c774b5a09ad253903a16", "is_reserved": 0, "rental_uris": {"ios": "https://dc.lft.to/lastmile_qr_scan", "android": "https://dc.lft.to/lastmile_qr_scan"}, "is_disabled": 0, "lon": -76.98170116666667, "name": "6adae7b778a3c774b5a09ad253903a16", "fusion_lon": 0.0}, {"lat": 38.900414, "fusion_lat": 0.0, "type": "electric_scooter", "bike_id": "178a95af37fc9f8ac22c2a3e6ed2cd73", "is_reserved": 0, "rental_uris": {"ios": "https://dc.lft.to/lastmile_qr_scan", "android": "https://dc.lft.to/lastmile_qr_scan"}, "is_disabled": 0, "lon": -77.001583, "name": "178a95af37fc9f8ac22c2a3e6ed2cd73", "fusion_lon": 0.0}, {"lat": 38.90275283333333, "fusion_lat": 0.0, "type": "electric_scooter", "bike_id": "6a87cef027251a1e3193361cd725c71b", "is_reserved": 0, "rental_uris": {"ios": "https://dc.lft.to/lastmile_qr_scan", "android": "https://dc.lft.to/lastmile_qr_scan"}, "is_disabled": 0, "lon": -77.02012266666667, "name": "6a87cef027251a1e3193361cd725c71b", "fusion_lon": 0.0}, {"lat": 38.928462833333334, "fusion_lat": 0.0, "type": "electric_scooter", "bike_id": "a3f1d6179defd364dbddf3cbc3a5487a", "is_reserved": 0, "rental_uris": {"ios": "https://dc.lft.to/lastmile_qr_scan", "android": "https://dc.lft.to/lastmile_qr_scan"}, "is_disabled": 0, "lon": -77.03262933333333, "name": "a3f1d6179defd364dbddf3cbc3a5487a", "fusion_lon": 0.0}, {"lat": 38.90595483333333, "fusion_lat": 0.0, "type": "electric_scooter", "bike_id": "13b895271213d944cd1e452735072539", "is_reserved": 0, "rental_uris": {"ios": "https://dc.lft.to/lastmile_qr_scan", "android": "https://dc.lft.to/lastmile_qr_scan"}, "is_disabled": 0, "lon": -77.06428416666667, "name": "13b895271213d944cd1e452735072539", "fusion_lon": 0.0}, {"lat": 38.902609166666664, "fusion_lat": 0.0, "type": "electric_scooter", "bike_id": "bad0d8def9b496a9dfa47577669f08f1", "is_reserved": 0, "rental_uris": {"ios": "https://dc.lft.to/lastmile_qr_scan", "android": "https://dc.lft.to/lastmile_qr_scan"}, "is_disabled": 0, "lon": -77.05918233333334, "name": "bad0d8def9b496a9dfa47577669f08f1", "fusion_lon": 0.0}, {"lat": 38.9307015, "fusion_lat": 0.0, "type": "electric_scooter", "bike_id": "f8aab4b627eef503cbce408ba53f2828", "is_reserved": 0, "rental_uris": {"ios": "https://dc.lft.to/lastmile_qr_scan", "android": "https://dc.lft.to/lastmile_qr_scan"}, "is_disabled": 0, "lon": -77.02192366666667, "name": "f8aab4b627eef503cbce408ba53f2828", "fusion_lon": 0.0}, {"lat": 38.8971465, "fusion_lat": 0.0, "type": "electric_scooter", "bike_id": "e26c6064711131aa59d7e65a1f316697", "is_reserved": 0, "rental_uris": {"ios": "https://dc.lft.to/lastmile_qr_scan", "android": "https://dc.lft.to/lastmile_qr_scan"}, "is_disabled": 0, "lon": -77.0213685, "name": "e26c6064711131aa59d7e65a1f316697", "fusion_lon": 0.0}, {"lat": 38.90503416666667, "fusion_lat": 0.0, "type": "electric_scooter", "bike_id": "7ea203910fa50a64c179be73c2a4e04a", "is_reserved": 0, "rental_uris": {"ios": "https://dc.lft.to/lastmile_qr_scan", "android": "https://dc.lft.to/lastmile_qr_scan"}, "is_disabled": 0, "lon": -77.06016533333333, "name": "7ea203910fa50a64c179be73c2a4e04a", "fusion_lon": 0.0}, {"lat": 38.900716333333335, "fusion_lat": 0.0, "type": "electric_scooter", "bike_id": "1a1d6a47eb3ac775fd7c931283d0652d", "is_reserved": 0, "rental_uris": {"ios": "https://dc.lft.to/lastmile_qr_scan", "android": "https://dc.lft.to/lastmile_qr_scan"}, "is_disabled": 0, "lon": -77.01292866666667, "name": "1a1d6a47eb3ac775fd7c931283d0652d", "fusion_lon": 0.0}, {"lat": 38.919197, "fusion_lat": 0.0, "type": "electric_scooter", "bike_id": "e0ed8a0e4cd42055b9098aebbdd082ef", "is_reserved": 0, "rental_uris": {"ios": "https://dc.lft.to/lastmile_qr_scan", "android": "https://dc.lft.to/lastmile_qr_scan"}, "is_disabled": 0, "lon": -77.03227333333334, "name": "e0ed8a0e4cd42055b9098aebbdd082ef", "fusion_lon": 0.0}, {"lat": 38.90251633333333, "fusion_lat": 0.0, "type": "electric_scooter", "bike_id": "83efc7b199bcc86a3a87a08da1805275", "is_reserved": 0, "rental_uris": {"ios": "https://dc.lft.to/lastmile_qr_scan", "android": "https://dc.lft.to/lastmile_qr_scan"}, "is_disabled": 0, "lon": -77.03843683333334, "name": "83efc7b199bcc86a3a87a08da1805275", "fusion_lon": 0.0}, {"lat": 38.91622533333334, "fusion_lat": 0.0, "type": "electric_scooter", "bike_id": "65e1e21f96f03c53c3a0a03cfffceb00", "is_reserved": 0, "rental_uris": {"ios": "https://dc.lft.to/lastmile_qr_scan", "android": "https://dc.lft.to/lastmile_qr_scan"}, "is_disabled": 0, "lon": -77.0460665, "name": "65e1e21f96f03c53c3a0a03cfffceb00", "fusion_lon": 0.0}, {"lat": 38.903712666666664, "fusion_lat": 0.0, "type": "electric_scooter", "bike_id": "74e972d391fd58e972c0baf8785354d7", "is_reserved": 0, "rental_uris": {"ios": "https://dc.lft.to/lastmile_qr_scan", "android": "https://dc.lft.to/lastmile_qr_scan"}, "is_disabled": 0, "lon": -77.04009533333333, "name": "74e972d391fd58e972c0baf8785354d7", "fusion_lon": 0.0}, {"lat": 38.882476, "fusion_lat": 0.0, "type": "electric_scooter", "bike_id": "6374e8bd5080685a91ebce809f5c0b8b", "is_reserved": 0, "rental_uris": {"ios": "https://dc.lft.to/lastmile_qr_scan", "android": "https://dc.lft.to/lastmile_qr_scan"}, "is_disabled": 0, "lon": -76.99120866666667, "name": "6374e8bd5080685a91ebce809f5c0b8b", "fusion_lon": 0.0}, {"lat": 38.90138733333333, "fusion_lat": 0.0, "type": "electric_scooter", "bike_id": "4b6306b2341a8c273ad7146b5e30c0ca", "is_reserved": 0, "rental_uris": {"ios": "https://dc.lft.to/lastmile_qr_scan", "android": "https://dc.lft.to/lastmile_qr_scan"}, "is_disabled": 0, "lon": -77.02495383333333, "name": "4b6306b2341a8c273ad7146b5e30c0ca", "fusion_lon": 0.0}, {"lat": 38.89608166666667, "fusion_lat": 0.0, "type": "electric_scooter", "bike_id": "8e9e2513fab3a01f8a2d607e8122db10", "is_reserved": 0, "rental_uris": {"ios": "https://dc.lft.to/lastmile_qr_scan", "android": "https://dc.lft.to/lastmile_qr_scan"}, "is_disabled": 0, "lon": -77.045553, "name": "8e9e2513fab3a01f8a2d607e8122db10", "fusion_lon": 0.0}, {"lat": 38.91272766666667, "fusion_lat": 0.0, "type": "electric_scooter", "bike_id": "677ad6aa44bf531afb21353c03331734", "is_reserved": 0, "rental_uris": {"ios": "https://dc.lft.to/lastmile_qr_scan", "android": "https://dc.lft.to/lastmile_qr_scan"}, "is_disabled": 0, "lon": -77.073443, "name": "677ad6aa44bf531afb21353c03331734", "fusion_lon": 0.0}, {"lat": 38.957326333333334, "fusion_lat": 0.0, "type": "electric_scooter", "bike_id": "e216bf360ac3c68e4c72cd4042cf445f", "is_reserved": 0, "rental_uris": {"ios": "https://dc.lft.to/lastmile_qr_scan", "android": "https://dc.lft.to/lastmile_qr_scan"}, "is_disabled": 0, "lon": -77.024052, "name": "e216bf360ac3c68e4c72cd4042cf445f", "fusion_lon": 0.0}, {"lat": 38.917061833333335, "fusion_lat": 0.0, "type": "electric_scooter", "bike_id": "ac30be1ccbacbf75ad2279b3fc1fd81e", "is_reserved": 0, "rental_uris": {"ios": "https://dc.lft.to/lastmile_qr_scan", "android": "https://dc.lft.to/lastmile_qr_scan"}, "is_disabled": 0, "lon": -77.029728, "name": "ac30be1ccbacbf75ad2279b3fc1fd81e", "fusion_lon": 0.0}, {"lat": 38.90410966666666, "fusion_lat": 0.0, "type": "electric_scooter", "bike_id": "8119a3db56edc8cd1c81ee870f5de7fc", "is_reserved": 0, "rental_uris": {"ios": "https://dc.lft.to/lastmile_qr_scan", "android": "https://dc.lft.to/lastmile_qr_scan"}, "is_disabled": 0, "lon": -76.97333266666666, "name": "8119a3db56edc8cd1c81ee870f5de7fc", "fusion_lon": 0.0}, {"lat": 38.902521666666665, "fusion_lat": 0.0, "type": "electric_scooter", "bike_id": "a9263aa1f20fea7c4dbdc125edbd3b33", "is_reserved": 0, "rental_uris": {"ios": "https://dc.lft.to/lastmile_qr_scan", "android": "https://dc.lft.to/lastmile_qr_scan"}, "is_disabled": 0, "lon": -77.04813983333334, "name": "a9263aa1f20fea7c4dbdc125edbd3b33", "fusion_lon": 0.0}, {"lat": 38.908869833333334, "fusion_lat": 0.0, "type": "electric_scooter", "bike_id": "14dcb846bcf9566cd96ad42cb8204fc7", "is_reserved": 0, "rental_uris": {"ios": "https://dc.lft.to/lastmile_qr_scan", "android": "https://dc.lft.to/lastmile_qr_scan"}, "is_disabled": 0, "lon": -77.03001, "name": "14dcb846bcf9566cd96ad42cb8204fc7", "fusion_lon": 0.0}, {"lat": 38.90224083333333, "fusion_lat": 0.0, "type": "electric_scooter", "bike_id": "6e472c80f2c0df86883c1996b62b076e", "is_reserved": 0, "rental_uris": {"ios": "https://dc.lft.to/lastmile_qr_scan", "android": "https://dc.lft.to/lastmile_qr_scan"}, "is_disabled": 0, "lon": -77.05139566666666, "name": "6e472c80f2c0df86883c1996b62b076e", "fusion_lon": 0.0}, {"lat": 38.900861166666665, "fusion_lat": 0.0, "type": "electric_scooter", "bike_id": "68a8558076eb5da10dba72c7349f5eaa", "is_reserved": 0, "rental_uris": {"ios": "https://dc.lft.to/lastmile_qr_scan", "android": "https://dc.lft.to/lastmile_qr_scan"}, "is_disabled": 0, "lon": -77.04692133333333, "name": "68a8558076eb5da10dba72c7349f5eaa", "fusion_lon": 0.0}, {"lat": 38.91957583333333, "fusion_lat": 0.0, "type": "electric_scooter", "bike_id": "1e0bedf77ab7bdd2ef38456afa0bf6cf", "is_reserved": 0, "rental_uris": {"ios": "https://dc.lft.to/lastmile_qr_scan", "android": "https://dc.lft.to/lastmile_qr_scan"}, "is_disabled": 0, "lon": -77.04179933333333, "name": "1e0bedf77ab7bdd2ef38456afa0bf6cf", "fusion_lon": 0.0}, {"lat": 38.898704, "fusion_lat": 0.0, "type": "electric_scooter", "bike_id": "c83236f0d842d5d4e6ef71cea9c23b17", "is_reserved": 0, "rental_uris": {"ios": "https://dc.lft.to/lastmile_qr_scan", "android": "https://dc.lft.to/lastmile_qr_scan"}, "is_disabled": 0, "lon": -76.94665933333333, "name": "c83236f0d842d5d4e6ef71cea9c23b17", "fusion_lon": 0.0}, {"lat": 38.90771083333333, "fusion_lat": 0.0, "type": "electric_scooter", "bike_id": "5c0f120c839aa7b88af2a3cbc79486e6", "is_reserved": 0, "rental_uris": {"ios": "https://dc.lft.to/lastmile_qr_scan", "android": "https://dc.lft.to/lastmile_qr_scan"}, "is_disabled": 0, "lon": -76.97833, "name": "5c0f120c839aa7b88af2a3cbc79486e6", "fusion_lon": 0.0}, {"lat": 38.90080666666667, "fusion_lat": 0.0, "type": "electric_scooter", "bike_id": "d26ff761fa4025766bc64edad2ae55bd", "is_reserved": 0, "rental_uris": {"ios": "https://dc.lft.to/lastmile_qr_scan", "android": "https://dc.lft.to/lastmile_qr_scan"}, "is_disabled": 0, "lon": -77.03941366666666, "name": "d26ff761fa4025766bc64edad2ae55bd", "fusion_lon": 0.0}, {"lat": 38.89369816666667, "fusion_lat": 0.0, "type": "electric_scooter", "bike_id": "b1289b3637614cf6005e3746faeed077", "is_reserved": 0, "rental_uris": {"ios": "https://dc.lft.to/lastmile_qr_scan", "android": "https://dc.lft.to/lastmile_qr_scan"}, "is_disabled": 0, "lon": -77.02082316666667, "name": "b1289b3637614cf6005e3746faeed077", "fusion_lon": 0.0}, {"lat": 38.946282833333335, "fusion_lat": 0.0, "type": "electric_scooter", "bike_id": "bc9730b481d20738d38af6e8690199c5", "is_reserved": 0, "rental_uris": {"ios": "https://dc.lft.to/lastmile_qr_scan", "android": "https://dc.lft.to/lastmile_qr_scan"}, "is_disabled": 0, "lon": -77.018431, "name": "bc9730b481d20738d38af6e8690199c5", "fusion_lon": 0.0}, {"lat": 38.92317283333333, "fusion_lat": 0.0, "type": "electric_scooter", "bike_id": "a21f2eda89847daddeaac4bba083832d", "is_reserved": 0, "rental_uris": {"ios": "https://dc.lft.to/lastmile_qr_scan", "android": "https://dc.lft.to/lastmile_qr_scan"}, "is_disabled": 0, "lon": -77.0213785, "name": "a21f2eda89847daddeaac4bba083832d", "fusion_lon": 0.0}, {"lat": 38.92866516666667, "fusion_lat": 0.0, "type": "electric_scooter", "bike_id": "72b22b5a89b3128e2322869bef2b6350", "is_reserved": 0, "rental_uris": {"ios": "https://dc.lft.to/lastmile_qr_scan", "android": "https://dc.lft.to/lastmile_qr_scan"}, "is_disabled": 0, "lon": -77.03407583333333, "name": "72b22b5a89b3128e2322869bef2b6350", "fusion_lon": 0.0}, {"lat": 38.915797833333336, "fusion_lat": 0.0, "type": "electric_scooter", "bike_id": "63fd93102fcbce94f55b707f18500e1d", "is_reserved": 0, "rental_uris": {"ios": "https://dc.lft.to/lastmile_qr_scan", "android": "https://dc.lft.to/lastmile_qr_scan"}, "is_disabled": 0, "lon": -77.0428675, "name": "63fd93102fcbce94f55b707f18500e1d", "fusion_lon": 0.0}, {"lat": 38.914576333333336, "fusion_lat": 0.0, "type": "electric_scooter", "bike_id": "f830059f17063b06f6f0ba6d225f22d3", "is_reserved": 0, "rental_uris": {"ios": "https://dc.lft.to/lastmile_qr_scan", "android": "https://dc.lft.to/lastmile_qr_scan"}, "is_disabled": 0, "lon": -77.002087, "name": "f830059f17063b06f6f0ba6d225f22d3", "fusion_lon": 0.0}, {"lat": 38.9151705, "fusion_lat": 0.0, "type": "electric_scooter", "bike_id": "9707d3c78cbda8f861cf2737030ae66d", "is_reserved": 0, "rental_uris": {"ios": "https://dc.lft.to/lastmile_qr_scan", "android": "https://dc.lft.to/lastmile_qr_scan"}, "is_disabled": 0, "lon": -77.04161233333333, "name": "9707d3c78cbda8f861cf2737030ae66d", "fusion_lon": 0.0}, {"lat": 38.8763475, "fusion_lat": 0.0, "type": "electric_scooter", "bike_id": "68fad88ffa9f4e4c7f6bab026fc017c7", "is_reserved": 0, "rental_uris": {"ios": "https://dc.lft.to/lastmile_qr_scan", "android": "https://dc.lft.to/lastmile_qr_scan"}, "is_disabled": 0, "lon": -77.0038615, "name": "68fad88ffa9f4e4c7f6bab026fc017c7", "fusion_lon": 0.0}, {"lat": 38.9028905, "fusion_lat": 0.0, "type": "electric_scooter", "bike_id": "3486509c72f1f3e61ddc23f51d46d7f4", "is_reserved": 0, "rental_uris": {"ios": "https://dc.lft.to/lastmile_qr_scan", "android": "https://dc.lft.to/lastmile_qr_scan"}, "is_disabled": 0, "lon": -77.02278366666667, "name": "3486509c72f1f3e61ddc23f51d46d7f4", "fusion_lon": 0.0}, {"lat": 38.927331833333334, "fusion_lat": 0.0, "type": "electric_scooter", "bike_id": "2b8eeb5e09cee401273d7e90e84ed32b", "is_reserved": 0, "rental_uris": {"ios": "https://dc.lft.to/lastmile_qr_scan", "android": "https://dc.lft.to/lastmile_qr_scan"}, "is_disabled": 0, "lon": -77.02230133333333, "name": "2b8eeb5e09cee401273d7e90e84ed32b", "fusion_lon": 0.0}, {"lat": 38.892224, "fusion_lat": 0.0, "type": "electric_scooter", "bike_id": "f3b58af6414d6e4c16308795ec6c4fe6", "is_reserved": 0, "rental_uris": {"ios": "https://dc.lft.to/lastmile_qr_scan", "android": "https://dc.lft.to/lastmile_qr_scan"}, "is_disabled": 0, "lon": -77.0229085, "name": "f3b58af6414d6e4c16308795ec6c4fe6", "fusion_lon": 0.0}, {"lat": 38.911373833333336, "fusion_lat": 0.0, "type": "electric_scooter", "bike_id": "438394e9ec358da00ac6c63a648e5093", "is_reserved": 0, "rental_uris": {"ios": "https://dc.lft.to/lastmile_qr_scan", "android": "https://dc.lft.to/lastmile_qr_scan"}, "is_disabled": 0, "lon": -77.03849766666667, "name": "438394e9ec358da00ac6c63a648e5093", "fusion_lon": 0.0}, {"lat": 38.910530666666666, "fusion_lat": 0.0, "type": "electric_scooter", "bike_id": "0b1994c2eb6788fdfa2a4d749d9489ab", "is_reserved": 0, "rental_uris": {"ios": "https://dc.lft.to/lastmile_qr_scan", "android": "https://dc.lft.to/lastmile_qr_scan"}, "is_disabled": 0, "lon": -77.00913, "name": "0b1994c2eb6788fdfa2a4d749d9489ab", "fusion_lon": 0.0}, {"lat": 38.894008666666664, "fusion_lat": 0.0, "type": "electric_scooter", "bike_id": "09147b2c80d5a69fd088fccc112fff3a", "is_reserved": 0, "rental_uris": {"ios": "https://dc.lft.to/lastmile_qr_scan", "android": "https://dc.lft.to/lastmile_qr_scan"}, "is_disabled": 0, "lon": -77.022599, "name": "09147b2c80d5a69fd088fccc112fff3a", "fusion_lon": 0.0}, {"lat": 38.90678716666667, "fusion_lat": 0.0, "type": "electric_scooter", "bike_id": "af1ecbb9df88971b524133b1ff5f8e25", "is_reserved": 0, "rental_uris": {"ios": "https://dc.lft.to/lastmile_qr_scan", "android": "https://dc.lft.to/lastmile_qr_scan"}, "is_disabled": 0, "lon": -77.0376325, "name": "af1ecbb9df88971b524133b1ff5f8e25", "fusion_lon": 0.0}, {"lat": 38.90568916666667, "fusion_lat": 0.0, "type": "electric_scooter", "bike_id": "edf47511c6723e260dd5d6619a37378e", "is_reserved": 0, "rental_uris": {"ios": "https://dc.lft.to/lastmile_qr_scan", "android": "https://dc.lft.to/lastmile_qr_scan"}, "is_disabled": 0, "lon": -77.034592, "name": "edf47511c6723e260dd5d6619a37378e", "fusion_lon": 0.0}, {"lat": 38.923129833333334, "fusion_lat": 0.0, "type": "electric_scooter", "bike_id": "525113dd956e33b6391b8513da961b8d", "is_reserved": 0, "rental_uris": {"ios": "https://dc.lft.to/lastmile_qr_scan", "android": "https://dc.lft.to/lastmile_qr_scan"}, "is_disabled": 0, "lon": -77.027562, "name": "525113dd956e33b6391b8513da961b8d", "fusion_lon": 0.0}, {"lat": 38.91016966666667, "fusion_lat": 0.0, "type": "electric_bike", "bike_id": "097ec1c080970d151fd577bd6d34a5ff", "is_reserved": 0, "rental_uris": {"ios": "https://dc.lft.to/lastmile_qr_scan", "android": "https://dc.lft.to/lastmile_qr_scan"}, "is_disabled": 0, "lon": -77.2279455, "name": "097ec1c080970d151fd577bd6d34a5ff", "fusion_lon": 0.0}, {"lat": 38.86352483333334, "fusion_lat": 0.0, "type": "electric_scooter", "bike_id": "dc7c8d4cb9d1dccb6448c5ddc59faba1", "is_reserved": 0, "rental_uris": {"ios": "https://dc.lft.to/lastmile_qr_scan", "android": "https://dc.lft.to/lastmile_qr_scan"}, "is_disabled": 0, "lon": -76.98705666666666, "name": "dc7c8d4cb9d1dccb6448c5ddc59faba1", "fusion_lon": 0.0}, {"lat": 38.914217666666666, "fusion_lat": 0.0, "type": "electric_scooter", "bike_id": "d8f69ccdcd7dda5fb7facd49fcb964b3", "is_reserved": 0, "rental_uris": {"ios": "https://dc.lft.to/lastmile_qr_scan", "android": "https://dc.lft.to/lastmile_qr_scan"}, "is_disabled": 0, "lon": -77.02107166666667, "name": "d8f69ccdcd7dda5fb7facd49fcb964b3", "fusion_lon": 0.0}, {"lat": 38.9152205, "fusion_lat": 0.0, "type": "electric_scooter", "bike_id": "ae62b56bf59e07ca16a9267b3862c5a9", "is_reserved": 0, "rental_uris": {"ios": "https://dc.lft.to/lastmile_qr_scan", "android": "https://dc.lft.to/lastmile_qr_scan"}, "is_disabled": 0, "lon": -77.03191483333333, "name": "ae62b56bf59e07ca16a9267b3862c5a9", "fusion_lon": 0.0}, {"lat": 38.915637833333335, "fusion_lat": 0.0, "type": "electric_scooter", "bike_id": "e0a2a336b1c048db141476d4619b24e0", "is_reserved": 0, "rental_uris": {"ios": "https://dc.lft.to/lastmile_qr_scan", "android": "https://dc.lft.to/lastmile_qr_scan"}, "is_disabled": 0, "lon": -77.0395665, "name": "e0a2a336b1c048db141476d4619b24e0", "fusion_lon": 0.0}, {"lat": 38.869542833333334, "fusion_lat": 0.0, "type": "electric_scooter", "bike_id": "5e13aed3ba8cf8237e37d9257be50639", "is_reserved": 0, "rental_uris": {"ios": "https://dc.lft.to/lastmile_qr_scan", "android": "https://dc.lft.to/lastmile_qr_scan"}, "is_disabled": 0, "lon": -76.98175466666666, "name": "5e13aed3ba8cf8237e37d9257be50639", "fusion_lon": 0.0}, {"lat": 38.90964866666667, "fusion_lat": 0.0, "type": "electric_scooter", "bike_id": "57994ec3c8fa7f7fb93a2a508979bc68", "is_reserved": 0, "rental_uris": {"ios": "https://dc.lft.to/lastmile_qr_scan", "android": "https://dc.lft.to/lastmile_qr_scan"}, "is_disabled": 0, "lon": -77.04546583333334, "name": "57994ec3c8fa7f7fb93a2a508979bc68", "fusion_lon": 0.0}, {"lat": 38.910174833333336, "fusion_lat": 0.0, "type": "electric_scooter", "bike_id": "c469a270a95accf5d235d5944b5276be", "is_reserved": 0, "rental_uris": {"ios": "https://dc.lft.to/lastmile_qr_scan", "android": "https://dc.lft.to/lastmile_qr_scan"}, "is_disabled": 0, "lon": -76.98612916666667, "name": "c469a270a95accf5d235d5944b5276be", "fusion_lon": 0.0}, {"lat": 38.939708833333334, "fusion_lat": 0.0, "type": "electric_bike", "bike_id": "fd8b61f1dec329f5d8310c4a9c3e9fe1", "is_reserved": 0, "rental_uris": {"ios": "https://dc.lft.to/lastmile_qr_scan", "android": "https://dc.lft.to/lastmile_qr_scan"}, "is_disabled": 0, "lon": -77.0375825, "name": "fd8b61f1dec329f5d8310c4a9c3e9fe1", "fusion_lon": 0.0}, {"lat": 38.916166833333335, "fusion_lat": 0.0, "type": "electric_scooter", "bike_id": "f831a2485c6b79df848489ebfd4a5760", "is_reserved": 0, "rental_uris": {"ios": "https://dc.lft.to/lastmile_qr_scan", "android": "https://dc.lft.to/lastmile_qr_scan"}, "is_disabled": 0, "lon": -77.048528, "name": "f831a2485c6b79df848489ebfd4a5760", "fusion_lon": 0.0}, {"lat": 38.92398, "fusion_lat": 0.0, "type": "electric_scooter", "bike_id": "289de163e08399f0432082730e2230d2", "is_reserved": 0, "rental_uris": {"ios": "https://dc.lft.to/lastmile_qr_scan", "android": "https://dc.lft.to/lastmile_qr_scan"}, "is_disabled": 0, "lon": -77.02141283333333, "name": "289de163e08399f0432082730e2230d2", "fusion_lon": 0.0}, {"lat": 38.8728795, "fusion_lat": 0.0, "type": "electric_scooter", "bike_id": "1d9c557b1cc0280c5421101013950bc6", "is_reserved": 0, "rental_uris": {"ios": "https://dc.lft.to/lastmile_qr_scan", "android": "https://dc.lft.to/lastmile_qr_scan"}, "is_disabled": 0, "lon": -77.00987216666667, "name": "1d9c557b1cc0280c5421101013950bc6", "fusion_lon": 0.0}, {"lat": 38.8986125, "fusion_lat": 0.0, "type": "electric_scooter", "bike_id": "d740ab4a3f7585ac79e32d1cac154738", "is_reserved": 0, "rental_uris": {"ios": "https://dc.lft.to/lastmile_qr_scan", "android": "https://dc.lft.to/lastmile_qr_scan"}, "is_disabled": 0, "lon": -77.03347916666667, "name": "d740ab4a3f7585ac79e32d1cac154738", "fusion_lon": 0.0}, {"lat": 38.904771833333335, "fusion_lat": 0.0, "type": "electric_scooter", "bike_id": "518b5160b0fdf854928644a43e1d1f3a", "is_reserved": 0, "rental_uris": {"ios": "https://dc.lft.to/lastmile_qr_scan", "android": "https://dc.lft.to/lastmile_qr_scan"}, "is_disabled": 0, "lon": -77.038437, "name": "518b5160b0fdf854928644a43e1d1f3a", "fusion_lon": 0.0}, {"lat": 38.872787333333335, "fusion_lat": 0.0, "type": "electric_bike", "bike_id": "33cfb0416ef4bcccee4770b3e21de7bd", "is_reserved": 0, "rental_uris": {"ios": "https://dc.lft.to/lastmile_qr_scan", "android": "https://dc.lft.to/lastmile_qr_scan"}, "is_disabled": 0, "lon": -77.23314883333333, "name": "33cfb0416ef4bcccee4770b3e21de7bd", "fusion_lon": 0.0}, {"lat": 38.900954166666665, "fusion_lat": 0.0, "type": "electric_scooter", "bike_id": "0863ec0eb8567042783b68c38dbac2bd", "is_reserved": 0, "rental_uris": {"ios": "https://dc.lft.to/lastmile_qr_scan", "android": "https://dc.lft.to/lastmile_qr_scan"}, "is_disabled": 0, "lon": -77.05785966666667, "name": "0863ec0eb8567042783b68c38dbac2bd", "fusion_lon": 0.0}, {"lat": 38.91217366666667, "fusion_lat": 0.0, "type": "electric_scooter", "bike_id": "b3610166a50bc3ce540d8818ce63af4a", "is_reserved": 0, "rental_uris": {"ios": "https://dc.lft.to/lastmile_qr_scan", "android": "https://dc.lft.to/lastmile_qr_scan"}, "is_disabled": 0, "lon": -77.02274216666666, "name": "b3610166a50bc3ce540d8818ce63af4a", "fusion_lon": 0.0}, {"lat": 38.9215025, "fusion_lat": 0.0, "type": "electric_scooter", "bike_id": "5075f07ba8fc9817aec0bffd9a793c96", "is_reserved": 0, "rental_uris": {"ios": "https://dc.lft.to/lastmile_qr_scan", "android": "https://dc.lft.to/lastmile_qr_scan"}, "is_disabled": 0, "lon": -77.03868866666667, "name": "5075f07ba8fc9817aec0bffd9a793c96", "fusion_lon": 0.0}, {"lat": 38.8650975, "fusion_lat": 0.0, "type": "electric_scooter", "bike_id": "80b79d02e23b7b3c28a6aeaa1580c122", "is_reserved": 0, "rental_uris": {"ios": "https://dc.lft.to/lastmile_qr_scan", "android": "https://dc.lft.to/lastmile_qr_scan"}, "is_disabled": 0, "lon": -76.97340783333334, "name": "80b79d02e23b7b3c28a6aeaa1580c122", "fusion_lon": 0.0}, {"lat": 38.900379666666666, "fusion_lat": 0.0, "type": "electric_scooter", "bike_id": "80488a9bce025b0f34d9483860f9f029", "is_reserved": 0, "rental_uris": {"ios": "https://dc.lft.to/lastmile_qr_scan", "android": "https://dc.lft.to/lastmile_qr_scan"}, "is_disabled": 0, "lon": -77.01216416666666, "name": "80488a9bce025b0f34d9483860f9f029", "fusion_lon": 0.0}, {"lat": 38.862425333333334, "fusion_lat": 0.0, "type": "electric_scooter", "bike_id": "13273c5320465864beae8d2d2e91e4f7", "is_reserved": 0, "rental_uris": {"ios": "https://dc.lft.to/lastmile_qr_scan", "android": "https://dc.lft.to/lastmile_qr_scan"}, "is_disabled": 0, "lon": -76.99494416666667, "name": "13273c5320465864beae8d2d2e91e4f7", "fusion_lon": 0.0}, {"lat": 38.90512983333333, "fusion_lat": 0.0, "type": "electric_scooter", "bike_id": "17bd1f160772f428ceb5cb4d35fb81d0", "is_reserved": 0, "rental_uris": {"ios": "https://dc.lft.to/lastmile_qr_scan", "android": "https://dc.lft.to/lastmile_qr_scan"}, "is_disabled": 0, "lon": -77.001331, "name": "17bd1f160772f428ceb5cb4d35fb81d0", "fusion_lon": 0.0}, {"lat": 38.849281500000004, "fusion_lat": 0.0, "type": "electric_bike", "bike_id": "49dfb3ab9fc864cf965fb6135fc47e2e", "is_reserved": 0, "rental_uris": {"ios": "https://dc.lft.to/lastmile_qr_scan", "android": "https://dc.lft.to/lastmile_qr_scan"}, "is_disabled": 0, "lon": -77.07797766666667, "name": "49dfb3ab9fc864cf965fb6135fc47e2e", "fusion_lon": 0.0}, {"lat": 38.866581, "fusion_lat": 0.0, "type": "electric_scooter", "bike_id": "64696d1142db31b9384c9964b56c3839", "is_reserved": 0, "rental_uris": {"ios": "https://dc.lft.to/lastmile_qr_scan", "android": "https://dc.lft.to/lastmile_qr_scan"}, "is_disabled": 0, "lon": -76.988843, "name": "64696d1142db31b9384c9964b56c3839", "fusion_lon": 0.0}, {"lat": 38.897666, "fusion_lat": 0.0, "type": "electric_scooter", "bike_id": "a46b1db60579375fb194282ac2ea49a5", "is_reserved": 0, "rental_uris": {"ios": "https://dc.lft.to/lastmile_qr_scan", "android": "https://dc.lft.to/lastmile_qr_scan"}, "is_disabled": 0, "lon": -77.009003, "name": "a46b1db60579375fb194282ac2ea49a5", "fusion_lon": 0.0}, {"lat": 38.9160225, "fusion_lat": 0.0, "type": "electric_scooter", "bike_id": "e1260fb8a784399cdba4bcae805f4158", "is_reserved": 0, "rental_uris": {"ios": "https://dc.lft.to/lastmile_qr_scan", "android": "https://dc.lft.to/lastmile_qr_scan"}, "is_disabled": 0, "lon": -77.03197183333333, "name": "e1260fb8a784399cdba4bcae805f4158", "fusion_lon": 0.0}, {"lat": 38.898472166666664, "fusion_lat": 0.0, "type": "electric_scooter", "bike_id": "19679b79dcaf84b7859339724e6942ef", "is_reserved": 0, "rental_uris": {"ios": "https://dc.lft.to/lastmile_qr_scan", "android": "https://dc.lft.to/lastmile_qr_scan"}, "is_disabled": 0, "lon": -77.0219485, "name": "19679b79dcaf84b7859339724e6942ef", "fusion_lon": 0.0}, {"lat": 38.9565265, "fusion_lat": 0.0, "type": "electric_bike", "bike_id": "b6799f11d49c2e82631f5ac0980780e4", "is_reserved": 0, "rental_uris": {"ios": "https://dc.lft.to/lastmile_qr_scan", "android": "https://dc.lft.to/lastmile_qr_scan"}, "is_disabled": 0, "lon": -77.0127975, "name": "b6799f11d49c2e82631f5ac0980780e4", "fusion_lon": 0.0}, {"lat": 38.904006833333334, "fusion_lat": 0.0, "type": "electric_scooter", "bike_id": "6e118848919be57c8c817e7346181661", "is_reserved": 0, "rental_uris": {"ios": "https://dc.lft.to/lastmile_qr_scan", "android": "https://dc.lft.to/lastmile_qr_scan"}, "is_disabled": 0, "lon": -77.0676545, "name": "6e118848919be57c8c817e7346181661", "fusion_lon": 0.0}, {"lat": 38.925387, "fusion_lat": 0.0, "type": "electric_scooter", "bike_id": "4059d6769f4774bca5dab00bf781be0b", "is_reserved": 0, "rental_uris": {"ios": "https://dc.lft.to/lastmile_qr_scan", "android": "https://dc.lft.to/lastmile_qr_scan"}, "is_disabled": 0, "lon": -77.03295, "name": "4059d6769f4774bca5dab00bf781be0b", "fusion_lon": 0.0}, {"lat": 38.88253733333333, "fusion_lat": 0.0, "type": "electric_scooter", "bike_id": "d81897525e856d6e75694bf385a8f4bb", "is_reserved": 0, "rental_uris": {"ios": "https://dc.lft.to/lastmile_qr_scan", "android": "https://dc.lft.to/lastmile_qr_scan"}, "is_disabled": 0, "lon": -77.004172, "name": "d81897525e856d6e75694bf385a8f4bb", "fusion_lon": 0.0}, {"lat": 38.91859483333333, "fusion_lat": 0.0, "type": "electric_scooter", "bike_id": "9305b2623ddcf353239a299ad184295a", "is_reserved": 0, "rental_uris": {"ios": "https://dc.lft.to/lastmile_qr_scan", "android": "https://dc.lft.to/lastmile_qr_scan"}, "is_disabled": 0, "lon": -77.031974, "name": "9305b2623ddcf353239a299ad184295a", "fusion_lon": 0.0}, {"lat": 38.917194, "fusion_lat": 0.0, "type": "electric_scooter", "bike_id": "40d083ae1634ae08af43fa3cd0176bc3", "is_reserved": 0, "rental_uris": {"ios": "https://dc.lft.to/lastmile_qr_scan", "android": "https://dc.lft.to/lastmile_qr_scan"}, "is_disabled": 0, "lon": -77.026009, "name": "40d083ae1634ae08af43fa3cd0176bc3", "fusion_lon": 0.0}, {"lat": 38.934817, "fusion_lat": 0.0, "type": "electric_scooter", "bike_id": "c798c5eff400e30ccec4ef688f172b30", "is_reserved": 0, "rental_uris": {"ios": "https://dc.lft.to/lastmile_qr_scan", "android": "https://dc.lft.to/lastmile_qr_scan"}, "is_disabled": 0, "lon": -77.07270183333333, "name": "c798c5eff400e30ccec4ef688f172b30", "fusion_lon": 0.0}, {"lat": 38.9084985, "fusion_lat": 0.0, "type": "electric_scooter", "bike_id": "d9041f02019ded89b758c3690988c897", "is_reserved": 0, "rental_uris": {"ios": "https://dc.lft.to/lastmile_qr_scan", "android": "https://dc.lft.to/lastmile_qr_scan"}, "is_disabled": 0, "lon": -77.043404, "name": "d9041f02019ded89b758c3690988c897", "fusion_lon": 0.0}, {"lat": 38.90643633333333, "fusion_lat": 0.0, "type": "electric_scooter", "bike_id": "d846d77e4e133fd20e40115063d4842b", "is_reserved": 0, "rental_uris": {"ios": "https://dc.lft.to/lastmile_qr_scan", "android": "https://dc.lft.to/lastmile_qr_scan"}, "is_disabled": 0, "lon": -77.02964316666667, "name": "d846d77e4e133fd20e40115063d4842b", "fusion_lon": 0.0}, {"lat": 38.9080295, "fusion_lat": 0.0, "type": "electric_scooter", "bike_id": "bce6dabc81ca114788ee29bfa1002f3a", "is_reserved": 0, "rental_uris": {"ios": "https://dc.lft.to/lastmile_qr_scan", "android": "https://dc.lft.to/lastmile_qr_scan"}, "is_disabled": 0, "lon": -77.03128966666667, "name": "bce6dabc81ca114788ee29bfa1002f3a", "fusion_lon": 0.0}, {"lat": 38.93676033333333, "fusion_lat": 0.0, "type": "electric_scooter", "bike_id": "7177c4b3ef336aa49f44107f31443f4c", "is_reserved": 0, "rental_uris": {"ios": "https://dc.lft.to/lastmile_qr_scan", "android": "https://dc.lft.to/lastmile_qr_scan"}, "is_disabled": 0, "lon": -77.03592566666667, "name": "7177c4b3ef336aa49f44107f31443f4c", "fusion_lon": 0.0}, {"lat": 38.9161845, "fusion_lat": 0.0, "type": "electric_scooter", "bike_id": "5506c02a32afe69c20ebaacebc511f8c", "is_reserved": 0, "rental_uris": {"ios": "https://dc.lft.to/lastmile_qr_scan", "android": "https://dc.lft.to/lastmile_qr_scan"}, "is_disabled": 0, "lon": -77.040304, "name": "5506c02a32afe69c20ebaacebc511f8c", "fusion_lon": 0.0}, {"lat": 38.8922045, "fusion_lat": 0.0, "type": "electric_scooter", "bike_id": "30be65091fe22e1d12571314662f0c26", "is_reserved": 0, "rental_uris": {"ios": "https://dc.lft.to/lastmile_qr_scan", "android": "https://dc.lft.to/lastmile_qr_scan"}, "is_disabled": 0, "lon": -77.04306933333334, "name": "30be65091fe22e1d12571314662f0c26", "fusion_lon": 0.0}, {"lat": 38.910998, "fusion_lat": 0.0, "type": "electric_scooter", "bike_id": "73a05761bdb8bcdb47ee5c2d2e582532", "is_reserved": 0, "rental_uris": {"ios": "https://dc.lft.to/lastmile_qr_scan", "android": "https://dc.lft.to/lastmile_qr_scan"}, "is_disabled": 0, "lon": -77.0296415, "name": "73a05761bdb8bcdb47ee5c2d2e582532", "fusion_lon": 0.0}, {"lat": 38.892181, "fusion_lat": 0.0, "type": "electric_scooter", "bike_id": "5dd61d3a72c986c94e7d49b565efd091", "is_reserved": 0, "rental_uris": {"ios": "https://dc.lft.to/lastmile_qr_scan", "android": "https://dc.lft.to/lastmile_qr_scan"}, "is_disabled": 0, "lon": -77.032156, "name": "5dd61d3a72c986c94e7d49b565efd091", "fusion_lon": 0.0}, {"lat": 38.8874135, "fusion_lat": 0.0, "type": "electric_scooter", "bike_id": "ecda8bfcad14c024256ed655f7555389", "is_reserved": 0, "rental_uris": {"ios": "https://dc.lft.to/lastmile_qr_scan", "android": "https://dc.lft.to/lastmile_qr_scan"}, "is_disabled": 0, "lon": -77.01531216666666, "name": "ecda8bfcad14c024256ed655f7555389", "fusion_lon": 0.0}, {"lat": 38.916822, "fusion_lat": 0.0, "type": "electric_scooter", "bike_id": "a64072d8c96b627ba9a91539701d0fed", "is_reserved": 0, "rental_uris": {"ios": "https://dc.lft.to/lastmile_qr_scan", "android": "https://dc.lft.to/lastmile_qr_scan"}, "is_disabled": 0, "lon": -77.02526483333334, "name": "a64072d8c96b627ba9a91539701d0fed", "fusion_lon": 0.0}, {"lat": 38.8763605, "fusion_lat": 0.0, "type": "electric_scooter", "bike_id": "ba364585e8bb280856c6135f44036b13", "is_reserved": 0, "rental_uris": {"ios": "https://dc.lft.to/lastmile_qr_scan", "android": "https://dc.lft.to/lastmile_qr_scan"}, "is_disabled": 0, "lon": -77.00461583333333, "name": "ba364585e8bb280856c6135f44036b13", "fusion_lon": 0.0}, {"lat": 38.89264433333334, "fusion_lat": 0.0, "type": "electric_scooter", "bike_id": "1d7a71438410e776f4e050872e830dcd", "is_reserved": 0, "rental_uris": {"ios": "https://dc.lft.to/lastmile_qr_scan", "android": "https://dc.lft.to/lastmile_qr_scan"}, "is_disabled": 0, "lon": -77.00349633333333, "name": "1d7a71438410e776f4e050872e830dcd", "fusion_lon": 0.0}, {"lat": 38.92452, "fusion_lat": 0.0, "type": "electric_scooter", "bike_id": "ff9d02eebd1a5e1d83996ef8826aaed8", "is_reserved": 0, "rental_uris": {"ios": "https://dc.lft.to/lastmile_qr_scan", "android": "https://dc.lft.to/lastmile_qr_scan"}, "is_disabled": 0, "lon": -77.0411315, "name": "ff9d02eebd1a5e1d83996ef8826aaed8", "fusion_lon": 0.0}, {"lat": 38.893692333333334, "fusion_lat": 0.0, "type": "electric_scooter", "bike_id": "d4bbb2272d2981532afa9fea30383e4f", "is_reserved": 0, "rental_uris": {"ios": "https://dc.lft.to/lastmile_qr_scan", "android": "https://dc.lft.to/lastmile_qr_scan"}, "is_disabled": 0, "lon": -77.03180666666667, "name": "d4bbb2272d2981532afa9fea30383e4f", "fusion_lon": 0.0}, {"lat": 38.894871333333334, "fusion_lat": 0.0, "type": "electric_scooter", "bike_id": "ee65b21331cfd265792beb8689b53dc9", "is_reserved": 0, "rental_uris": {"ios": "https://dc.lft.to/lastmile_qr_scan", "android": "https://dc.lft.to/lastmile_qr_scan"}, "is_disabled": 0, "lon": -77.02785716666666, "name": "ee65b21331cfd265792beb8689b53dc9", "fusion_lon": 0.0}, {"lat": 38.832072333333336, "fusion_lat": 0.0, "type": "electric_scooter", "bike_id": "63c82238479f2df590cb3e46bb727745", "is_reserved": 0, "rental_uris": {"ios": "https://dc.lft.to/lastmile_qr_scan", "android": "https://dc.lft.to/lastmile_qr_scan"}, "is_disabled": 0, "lon": -77.00796366666667, "name": "63c82238479f2df590cb3e46bb727745", "fusion_lon": 0.0}, {"lat": 38.905377333333334, "fusion_lat": 0.0, "type": "electric_scooter", "bike_id": "8314c5756502beebeac5574f35df21fd", "is_reserved": 0, "rental_uris": {"ios": "https://dc.lft.to/lastmile_qr_scan", "android": "https://dc.lft.to/lastmile_qr_scan"}, "is_disabled": 0, "lon": -76.98108183333333, "name": "8314c5756502beebeac5574f35df21fd", "fusion_lon": 0.0}, {"lat": 38.896807833333334, "fusion_lat": 0.0, "type": "electric_scooter", "bike_id": "355546a3ab9c6b9a3a236beac24858e9", "is_reserved": 0, "rental_uris": {"ios": "https://dc.lft.to/lastmile_qr_scan", "android": "https://dc.lft.to/lastmile_qr_scan"}, "is_disabled": 0, "lon": -77.00348133333334, "name": "355546a3ab9c6b9a3a236beac24858e9", "fusion_lon": 0.0}, {"lat": 38.86057783333333, "fusion_lat": 0.0, "type": "electric_scooter", "bike_id": "5e2dafc3fd838fee30c2c63040c30e82", "is_reserved": 0, "rental_uris": {"ios": "https://dc.lft.to/lastmile_qr_scan", "android": "https://dc.lft.to/lastmile_qr_scan"}, "is_disabled": 0, "lon": -76.9842595, "name": "5e2dafc3fd838fee30c2c63040c30e82", "fusion_lon": 0.0}, {"lat": 38.92258316666667, "fusion_lat": 0.0, "type": "electric_scooter", "bike_id": "68f0aabb656f32d355ac7b35e4ac8320", "is_reserved": 0, "rental_uris": {"ios": "https://dc.lft.to/lastmile_qr_scan", "android": "https://dc.lft.to/lastmile_qr_scan"}, "is_disabled": 0, "lon": -77.0209005, "name": "68f0aabb656f32d355ac7b35e4ac8320", "fusion_lon": 0.0}, {"lat": 38.88229966666667, "fusion_lat": 0.0, "type": "electric_scooter", "bike_id": "ab24e3154a9836550e2de20e9ca37f99", "is_reserved": 0, "rental_uris": {"ios": "https://dc.lft.to/lastmile_qr_scan", "android": "https://dc.lft.to/lastmile_qr_scan"}, "is_disabled": 0, "lon": -77.02953333333333, "name": "ab24e3154a9836550e2de20e9ca37f99", "fusion_lon": 0.0}, {"lat": 38.928685, "fusion_lat": 0.0, "type": "electric_scooter", "bike_id": "4a49328a18848238245507785943053a", "is_reserved": 0, "rental_uris": {"ios": "https://dc.lft.to/lastmile_qr_scan", "android": "https://dc.lft.to/lastmile_qr_scan"}, "is_disabled": 0, "lon": -77.03346616666667, "name": "4a49328a18848238245507785943053a", "fusion_lon": 0.0}, {"lat": 38.899416, "fusion_lat": 0.0, "type": "electric_scooter", "bike_id": "a868b19552eda7b7195c07f628464eaa", "is_reserved": 0, "rental_uris": {"ios": "https://dc.lft.to/lastmile_qr_scan", "android": "https://dc.lft.to/lastmile_qr_scan"}, "is_disabled": 0, "lon": -77.0065625, "name": "a868b19552eda7b7195c07f628464eaa", "fusion_lon": 0.0}, {"lat": 38.85424883333334, "fusion_lat": 0.0, "type": "electric_bike", "bike_id": "1a70a17d9d75fe9b27d105b686d8fb76", "is_reserved": 0, "rental_uris": {"ios": "https://dc.lft.to/lastmile_qr_scan", "android": "https://dc.lft.to/lastmile_qr_scan"}, "is_disabled": 0, "lon": -77.12073433333333, "name": "1a70a17d9d75fe9b27d105b686d8fb76", "fusion_lon": 0.0}, {"lat": 38.901536166666666, "fusion_lat": 0.0, "type": "electric_scooter", "bike_id": "bf9184a6b3f84f241fe23256e2aab2e8", "is_reserved": 0, "rental_uris": {"ios": "https://dc.lft.to/lastmile_qr_scan", "android": "https://dc.lft.to/lastmile_qr_scan"}, "is_disabled": 0, "lon": -76.9213855, "name": "bf9184a6b3f84f241fe23256e2aab2e8", "fusion_lon": 0.0}, {"lat": 38.9033805, "fusion_lat": 0.0, "type": "electric_scooter", "bike_id": "75f314fbc2f6ebeac430ec67f2c8e7cc", "is_reserved": 0, "rental_uris": {"ios": "https://dc.lft.to/lastmile_qr_scan", "android": "https://dc.lft.to/lastmile_qr_scan"}, "is_disabled": 0, "lon": -76.97583033333333, "name": "75f314fbc2f6ebeac430ec67f2c8e7cc", "fusion_lon": 0.0}, {"lat": 38.862424833333336, "fusion_lat": 0.0, "type": "electric_scooter", "bike_id": "13053c74373632d87dfe9d896ef4fa5a", "is_reserved": 0, "rental_uris": {"ios": "https://dc.lft.to/lastmile_qr_scan", "android": "https://dc.lft.to/lastmile_qr_scan"}, "is_disabled": 0, "lon": -76.99492416666666, "name": "13053c74373632d87dfe9d896ef4fa5a", "fusion_lon": 0.0}, {"lat": 38.91566783333333, "fusion_lat": 0.0, "type": "electric_scooter", "bike_id": "4ae7e743a7b1b44b9eedee94b546d91c", "is_reserved": 0, "rental_uris": {"ios": "https://dc.lft.to/lastmile_qr_scan", "android": "https://dc.lft.to/lastmile_qr_scan"}, "is_disabled": 0, "lon": -77.02285983333333, "name": "4ae7e743a7b1b44b9eedee94b546d91c", "fusion_lon": 0.0}, {"lat": 38.935347, "fusion_lat": 0.0, "type": "electric_scooter", "bike_id": "9a5c425f5cb7c8d57c7f3ca58674cb4e", "is_reserved": 0, "rental_uris": {"ios": "https://dc.lft.to/lastmile_qr_scan", "android": "https://dc.lft.to/lastmile_qr_scan"}, "is_disabled": 0, "lon": -77.02344066666667, "name": "9a5c425f5cb7c8d57c7f3ca58674cb4e", "fusion_lon": 0.0}, {"lat": 38.9195615, "fusion_lat": 0.0, "type": "electric_scooter", "bike_id": "9a2b3d5f1267336bb72a48286528b037", "is_reserved": 0, "rental_uris": {"ios": "https://dc.lft.to/lastmile_qr_scan", "android": "https://dc.lft.to/lastmile_qr_scan"}, "is_disabled": 0, "lon": -77.0415525, "name": "9a2b3d5f1267336bb72a48286528b037", "fusion_lon": 0.0}, {"lat": 38.89965316666667, "fusion_lat": 0.0, "type": "electric_scooter", "bike_id": "6088623b0a385956c1a82267ba93ef02", "is_reserved": 0, "rental_uris": {"ios": "https://dc.lft.to/lastmile_qr_scan", "android": "https://dc.lft.to/lastmile_qr_scan"}, "is_disabled": 0, "lon": -77.0467565, "name": "6088623b0a385956c1a82267ba93ef02", "fusion_lon": 0.0}, {"lat": 38.900283, "fusion_lat": 0.0, "type": "electric_scooter", "bike_id": "e6635dd3bfc3ecc428a99ae4c144de50", "is_reserved": 0, "rental_uris": {"ios": "https://dc.lft.to/lastmile_qr_scan", "android": "https://dc.lft.to/lastmile_qr_scan"}, "is_disabled": 0, "lon": -77.01039733333333, "name": "e6635dd3bfc3ecc428a99ae4c144de50", "fusion_lon": 0.0}, {"lat": 38.88312616666666, "fusion_lat": 0.0, "type": "electric_scooter", "bike_id": "7700d59a93ca0e32035521e16d3eec47", "is_reserved": 0, "rental_uris": {"ios": "https://dc.lft.to/lastmile_qr_scan", "android": "https://dc.lft.to/lastmile_qr_scan"}, "is_disabled": 0, "lon": -77.00050716666667, "name": "7700d59a93ca0e32035521e16d3eec47", "fusion_lon": 0.0}, {"lat": 38.8431305, "fusion_lat": 0.0, "type": "electric_scooter", "bike_id": "386eeb7662cb3ab3f1aaff8fcd107070", "is_reserved": 0, "rental_uris": {"ios": "https://dc.lft.to/lastmile_qr_scan", "android": "https://dc.lft.to/lastmile_qr_scan"}, "is_disabled": 0, "lon": -76.99926616666667, "name": "386eeb7662cb3ab3f1aaff8fcd107070", "fusion_lon": 0.0}, {"lat": 38.905003, "fusion_lat": 0.0, "type": "electric_scooter", "bike_id": "35a82699c4ee1d0caa14c2fe6e90c4f7", "is_reserved": 0, "rental_uris": {"ios": "https://dc.lft.to/lastmile_qr_scan", "android": "https://dc.lft.to/lastmile_qr_scan"}, "is_disabled": 0, "lon": -77.06007133333334, "name": "35a82699c4ee1d0caa14c2fe6e90c4f7", "fusion_lon": 0.0}, {"lat": 38.893154333333335, "fusion_lat": 0.0, "type": "electric_scooter", "bike_id": "57a54058c0fd0477b5546fbb78758297", "is_reserved": 0, "rental_uris": {"ios": "https://dc.lft.to/lastmile_qr_scan", "android": "https://dc.lft.to/lastmile_qr_scan"}, "is_disabled": 0, "lon": -77.01208633333333, "name": "57a54058c0fd0477b5546fbb78758297", "fusion_lon": 0.0}, {"lat": 38.93481933333333, "fusion_lat": 0.0, "type": "electric_scooter", "bike_id": "19abf483507fffd6c513eae559b8427e", "is_reserved": 0, "rental_uris": {"ios": "https://dc.lft.to/lastmile_qr_scan", "android": "https://dc.lft.to/lastmile_qr_scan"}, "is_disabled": 0, "lon": -77.07268166666667, "name": "19abf483507fffd6c513eae559b8427e", "fusion_lon": 0.0}, {"lat": 38.919168666666664, "fusion_lat": 0.0, "type": "electric_scooter", "bike_id": "8ef1662b875ea5e460524f60d8531192", "is_reserved": 0, "rental_uris": {"ios": "https://dc.lft.to/lastmile_qr_scan", "android": "https://dc.lft.to/lastmile_qr_scan"}, "is_disabled": 0, "lon": -77.03185, "name": "8ef1662b875ea5e460524f60d8531192", "fusion_lon": 0.0}, {"lat": 38.910096333333335, "fusion_lat": 0.0, "type": "electric_scooter", "bike_id": "66cf13843206b3be6ddb5a069f4c6ea3", "is_reserved": 0, "rental_uris": {"ios": "https://dc.lft.to/lastmile_qr_scan", "android": "https://dc.lft.to/lastmile_qr_scan"}, "is_disabled": 0, "lon": -77.033799, "name": "66cf13843206b3be6ddb5a069f4c6ea3", "fusion_lon": 0.0}, {"lat": 38.900109, "fusion_lat": 0.0, "type": "electric_scooter", "bike_id": "f618182e8c01939e97867bc94ce907b7", "is_reserved": 0, "rental_uris": {"ios": "https://dc.lft.to/lastmile_qr_scan", "android": "https://dc.lft.to/lastmile_qr_scan"}, "is_disabled": 0, "lon": -77.0427335, "name": "f618182e8c01939e97867bc94ce907b7", "fusion_lon": 0.0}, {"lat": 38.85517, "fusion_lat": 0.0, "type": "electric_bike", "bike_id": "9bc3ad8130fbe7f3eb65f4565d270480", "is_reserved": 0, "rental_uris": {"ios": "https://dc.lft.to/lastmile_qr_scan", "android": "https://dc.lft.to/lastmile_qr_scan"}, "is_disabled": 0, "lon": -76.9844165, "name": "9bc3ad8130fbe7f3eb65f4565d270480", "fusion_lon": 0.0}, {"lat": 38.87486333333333, "fusion_lat": 0.0, "type": "electric_scooter", "bike_id": "e889c189c913e12632b9dd6b57f9c79f", "is_reserved": 0, "rental_uris": {"ios": "https://dc.lft.to/lastmile_qr_scan", "android": "https://dc.lft.to/lastmile_qr_scan"}, "is_disabled": 0, "lon": -77.00950233333333, "name": "e889c189c913e12632b9dd6b57f9c79f", "fusion_lon": 0.0}, {"lat": 38.89734133333333, "fusion_lat": 0.0, "type": "electric_scooter", "bike_id": "a3f01c697ef32da6a0faa6ef66963792", "is_reserved": 0, "rental_uris": {"ios": "https://dc.lft.to/lastmile_qr_scan", "android": "https://dc.lft.to/lastmile_qr_scan"}, "is_disabled": 0, "lon": -76.9975385, "name": "a3f01c697ef32da6a0faa6ef66963792", "fusion_lon": 0.0}, {"lat": 38.93192166666667, "fusion_lat": 0.0, "type": "electric_scooter", "bike_id": "e77a7141723ce2542f872873cbe2e319", "is_reserved": 0, "rental_uris": {"ios": "https://dc.lft.to/lastmile_qr_scan", "android": "https://dc.lft.to/lastmile_qr_scan"}, "is_disabled": 0, "lon": -77.0453405, "name": "e77a7141723ce2542f872873cbe2e319", "fusion_lon": 0.0}, {"lat": 38.87473883333333, "fusion_lat": 0.0, "type": "electric_bike", "bike_id": "2c102f5f3349066dd4276a4215fbd58b", "is_reserved": 0, "rental_uris": {"ios": "https://dc.lft.to/lastmile_qr_scan", "android": "https://dc.lft.to/lastmile_qr_scan"}, "is_disabled": 0, "lon": -76.965344, "name": "2c102f5f3349066dd4276a4215fbd58b", "fusion_lon": 0.0}, {"lat": 38.923545, "fusion_lat": 0.0, "type": "electric_scooter", "bike_id": "e5a97bb4212bf56c02b9b5a99fff15f9", "is_reserved": 0, "rental_uris": {"ios": "https://dc.lft.to/lastmile_qr_scan", "android": "https://dc.lft.to/lastmile_qr_scan"}, "is_disabled": 0, "lon": -77.05102633333334, "name": "e5a97bb4212bf56c02b9b5a99fff15f9", "fusion_lon": 0.0}, {"lat": 38.917463166666664, "fusion_lat": 0.0, "type": "electric_scooter", "bike_id": "2ffedac8c82562f9eb531845ea528c9b", "is_reserved": 0, "rental_uris": {"ios": "https://dc.lft.to/lastmile_qr_scan", "android": "https://dc.lft.to/lastmile_qr_scan"}, "is_disabled": 0, "lon": -77.02808116666667, "name": "2ffedac8c82562f9eb531845ea528c9b", "fusion_lon": 0.0}, {"lat": 38.874675333333336, "fusion_lat": 0.0, "type": "electric_scooter", "bike_id": "803ce47aeec2816fddccb3ae01fd0c2e", "is_reserved": 0, "rental_uris": {"ios": "https://dc.lft.to/lastmile_qr_scan", "android": "https://dc.lft.to/lastmile_qr_scan"}, "is_disabled": 0, "lon": -77.00559233333334, "name": "803ce47aeec2816fddccb3ae01fd0c2e", "fusion_lon": 0.0}, {"lat": 38.907499666666666, "fusion_lat": 0.0, "type": "electric_scooter", "bike_id": "b93715bd912e4a02790a7c8b70410e09", "is_reserved": 0, "rental_uris": {"ios": "https://dc.lft.to/lastmile_qr_scan", "android": "https://dc.lft.to/lastmile_qr_scan"}, "is_disabled": 0, "lon": -77.03195883333333, "name": "b93715bd912e4a02790a7c8b70410e09", "fusion_lon": 0.0}, {"lat": 38.90166516666667, "fusion_lat": 0.0, "type": "electric_scooter", "bike_id": "2a3bae6abc9a35f1c6e25a174dd48cf8", "is_reserved": 0, "rental_uris": {"ios": "https://dc.lft.to/lastmile_qr_scan", "android": "https://dc.lft.to/lastmile_qr_scan"}, "is_disabled": 0, "lon": -76.930254, "name": "2a3bae6abc9a35f1c6e25a174dd48cf8", "fusion_lon": 0.0}, {"lat": 38.9241665, "fusion_lat": 0.0, "type": "electric_scooter", "bike_id": "f1dc6524da7df09000c74592bc8fc2c0", "is_reserved": 0, "rental_uris": {"ios": "https://dc.lft.to/lastmile_qr_scan", "android": "https://dc.lft.to/lastmile_qr_scan"}, "is_disabled": 0, "lon": -77.0505465, "name": "f1dc6524da7df09000c74592bc8fc2c0", "fusion_lon": 0.0}, {"lat": 38.9287185, "fusion_lat": 0.0, "type": "electric_scooter", "bike_id": "f6aef5debdbf43d169ba6f135c6b7249", "is_reserved": 0, "rental_uris": {"ios": "https://dc.lft.to/lastmile_qr_scan", "android": "https://dc.lft.to/lastmile_qr_scan"}, "is_disabled": 0, "lon": -77.034086, "name": "f6aef5debdbf43d169ba6f135c6b7249", "fusion_lon": 0.0}, {"lat": 38.81308466666667, "fusion_lat": 0.0, "type": "electric_bike", "bike_id": "48618e97f4185eda91da7ff72c4d819e", "is_reserved": 0, "rental_uris": {"ios": "https://dc.lft.to/lastmile_qr_scan", "android": "https://dc.lft.to/lastmile_qr_scan"}, "is_disabled": 0, "lon": -77.10960933333334, "name": "48618e97f4185eda91da7ff72c4d819e", "fusion_lon": 0.0}, {"lat": 38.9070625, "fusion_lat": 0.0, "type": "electric_scooter", "bike_id": "c5f110bde5a201e1f62770d2de36c95d", "is_reserved": 0, "rental_uris": {"ios": "https://dc.lft.to/lastmile_qr_scan", "android": "https://dc.lft.to/lastmile_qr_scan"}, "is_disabled": 0, "lon": -77.02945283333334, "name": "c5f110bde5a201e1f62770d2de36c95d", "fusion_lon": 0.0}, {"lat": 38.914139, "fusion_lat": 0.0, "type": "electric_scooter", "bike_id": "d602fc55fd8ec603ab596fcc067b4e42", "is_reserved": 0, "rental_uris": {"ios": "https://dc.lft.to/lastmile_qr_scan", "android": "https://dc.lft.to/lastmile_qr_scan"}, "is_disabled": 0, "lon": -77.04924933333334, "name": "d602fc55fd8ec603ab596fcc067b4e42", "fusion_lon": 0.0}, {"lat": 38.885198833333334, "fusion_lat": 0.0, "type": "electric_scooter", "bike_id": "e27d0ed37e71f92d633758f0fee3f2e2", "is_reserved": 0, "rental_uris": {"ios": "https://dc.lft.to/lastmile_qr_scan", "android": "https://dc.lft.to/lastmile_qr_scan"}, "is_disabled": 0, "lon": -77.00270166666667, "name": "e27d0ed37e71f92d633758f0fee3f2e2", "fusion_lon": 0.0}, {"lat": 38.945968666666666, "fusion_lat": 0.0, "type": "electric_scooter", "bike_id": "8d39857ac3b747ac1e95c6989d44a852", "is_reserved": 0, "rental_uris": {"ios": "https://dc.lft.to/lastmile_qr_scan", "android": "https://dc.lft.to/lastmile_qr_scan"}, "is_disabled": 0, "lon": -77.0704195, "name": "8d39857ac3b747ac1e95c6989d44a852", "fusion_lon": 0.0}, {"lat": 38.937650166666664, "fusion_lat": 0.0, "type": "electric_scooter", "bike_id": "68855e511eb1079a178dadb614e4ea3b", "is_reserved": 0, "rental_uris": {"ios": "https://dc.lft.to/lastmile_qr_scan", "android": "https://dc.lft.to/lastmile_qr_scan"}, "is_disabled": 0, "lon": -77.02518433333333, "name": "68855e511eb1079a178dadb614e4ea3b", "fusion_lon": 0.0}, {"lat": 38.9004165, "fusion_lat": 0.0, "type": "electric_scooter", "bike_id": "7bb054077102187f24b2fde9dc10c9de", "is_reserved": 0, "rental_uris": {"ios": "https://dc.lft.to/lastmile_qr_scan", "android": "https://dc.lft.to/lastmile_qr_scan"}, "is_disabled": 0, "lon": -77.02380283333333, "name": "7bb054077102187f24b2fde9dc10c9de", "fusion_lon": 0.0}, {"lat": 38.89734133333333, "fusion_lat": 0.0, "type": "electric_scooter", "bike_id": "5cbf244c2889e2f61c25fdae931d4518", "is_reserved": 0, "rental_uris": {"ios": "https://dc.lft.to/lastmile_qr_scan", "android": "https://dc.lft.to/lastmile_qr_scan"}, "is_disabled": 0, "lon": -77.00755683333334, "name": "5cbf244c2889e2f61c25fdae931d4518", "fusion_lon": 0.0}, {"lat": 38.87675216666667, "fusion_lat": 0.0, "type": "electric_scooter", "bike_id": "edad74cfba26e96ce1bea58af8d2b7cb", "is_reserved": 0, "rental_uris": {"ios": "https://dc.lft.to/lastmile_qr_scan", "android": "https://dc.lft.to/lastmile_qr_scan"}, "is_disabled": 0, "lon": -76.99820833333334, "name": "edad74cfba26e96ce1bea58af8d2b7cb", "fusion_lon": 0.0}, {"lat": 38.9672945, "fusion_lat": 0.0, "type": "electric_scooter", "bike_id": "465069a7ca508c2dfe13cf282fd7aba6", "is_reserved": 0, "rental_uris": {"ios": "https://dc.lft.to/lastmile_qr_scan", "android": "https://dc.lft.to/lastmile_qr_scan"}, "is_disabled": 0, "lon": -77.01860783333333, "name": "465069a7ca508c2dfe13cf282fd7aba6", "fusion_lon": 0.0}, {"lat": 38.90027883333333, "fusion_lat": 0.0, "type": "electric_scooter", "bike_id": "cdc3fc29810e419f69dc8c6760696653", "is_reserved": 0, "rental_uris": {"ios": "https://dc.lft.to/lastmile_qr_scan", "android": "https://dc.lft.to/lastmile_qr_scan"}, "is_disabled": 0, "lon": -76.99866033333333, "name": "cdc3fc29810e419f69dc8c6760696653", "fusion_lon": 0.0}, {"lat": 38.893669333333335, "fusion_lat": 0.0, "type": "electric_scooter", "bike_id": "a18cc02bdfb955a9326b7a56e241e3f5", "is_reserved": 0, "rental_uris": {"ios": "https://dc.lft.to/lastmile_qr_scan", "android": "https://dc.lft.to/lastmile_qr_scan"}, "is_disabled": 0, "lon": -77.04691333333334, "name": "a18cc02bdfb955a9326b7a56e241e3f5", "fusion_lon": 0.0}, {"lat": 38.8852625, "fusion_lat": 0.0, "type": "electric_scooter", "bike_id": "00458560b829e63bf3ff00c88a87f8ac", "is_reserved": 0, "rental_uris": {"ios": "https://dc.lft.to/lastmile_qr_scan", "android": "https://dc.lft.to/lastmile_qr_scan"}, "is_disabled": 0, "lon": -77.0113465, "name": "00458560b829e63bf3ff00c88a87f8ac", "fusion_lon": 0.0}, {"lat": 39.039985333333334, "fusion_lat": 0.0, "type": "electric_bike", "bike_id": "71db9612db91f8eb56306408b599cad1", "is_reserved": 0, "rental_uris": {"ios": "https://dc.lft.to/lastmile_qr_scan", "android": "https://dc.lft.to/lastmile_qr_scan"}, "is_disabled": 0, "lon": -76.99929583333333, "name": "71db9612db91f8eb56306408b599cad1", "fusion_lon": 0.0}, {"lat": 38.905121333333334, "fusion_lat": 0.0, "type": "electric_scooter", "bike_id": "711c7cd5d4280978c9bbe7896a01a796", "is_reserved": 0, "rental_uris": {"ios": "https://dc.lft.to/lastmile_qr_scan", "android": "https://dc.lft.to/lastmile_qr_scan"}, "is_disabled": 0, "lon": -77.001293, "name": "711c7cd5d4280978c9bbe7896a01a796", "fusion_lon": 0.0}, {"lat": 38.90596333333333, "fusion_lat": 0.0, "type": "electric_scooter", "bike_id": "f041fad1e3e20935fb5736b50d8e15da", "is_reserved": 0, "rental_uris": {"ios": "https://dc.lft.to/lastmile_qr_scan", "android": "https://dc.lft.to/lastmile_qr_scan"}, "is_disabled": 0, "lon": -77.070165, "name": "f041fad1e3e20935fb5736b50d8e15da", "fusion_lon": 0.0}, {"lat": 38.905334, "fusion_lat": 0.0, "type": "electric_scooter", "bike_id": "6ac2620655681df5561c9f736fb6dac4", "is_reserved": 0, "rental_uris": {"ios": "https://dc.lft.to/lastmile_qr_scan", "android": "https://dc.lft.to/lastmile_qr_scan"}, "is_disabled": 0, "lon": -77.05015516666667, "name": "6ac2620655681df5561c9f736fb6dac4", "fusion_lon": 0.0}, {"lat": 38.90233283333333, "fusion_lat": 0.0, "type": "electric_scooter", "bike_id": "da16ba3538f1bc590345ef9b03d26ba4", "is_reserved": 0, "rental_uris": {"ios": "https://dc.lft.to/lastmile_qr_scan", "android": "https://dc.lft.to/lastmile_qr_scan"}, "is_disabled": 0, "lon": -77.0395995, "name": "da16ba3538f1bc590345ef9b03d26ba4", "fusion_lon": 0.0}, {"lat": 38.97397016666667, "fusion_lat": 0.0, "type": "electric_bike", "bike_id": "6456f05c03c5270c4d0f6d013d4d4f63", "is_reserved": 0, "rental_uris": {"ios": "https://dc.lft.to/lastmile_qr_scan", "android": "https://dc.lft.to/lastmile_qr_scan"}, "is_disabled": 0, "lon": -77.0644645, "name": "6456f05c03c5270c4d0f6d013d4d4f63", "fusion_lon": 0.0}, {"lat": 38.915512, "fusion_lat": 0.0, "type": "electric_scooter", "bike_id": "898fb21d4b06020fb17a04cf80f58662", "is_reserved": 0, "rental_uris": {"ios": "https://dc.lft.to/lastmile_qr_scan", "android": "https://dc.lft.to/lastmile_qr_scan"}, "is_disabled": 0, "lon": -77.053211, "name": "898fb21d4b06020fb17a04cf80f58662", "fusion_lon": 0.0}, {"lat": 38.901322666666665, "fusion_lat": 0.0, "type": "electric_scooter", "bike_id": "dae418aba45ee56717469eea420e11c3", "is_reserved": 0, "rental_uris": {"ios": "https://dc.lft.to/lastmile_qr_scan", "android": "https://dc.lft.to/lastmile_qr_scan"}, "is_disabled": 0, "lon": -77.02714066666667, "name": "dae418aba45ee56717469eea420e11c3", "fusion_lon": 0.0}, {"lat": 38.9205175, "fusion_lat": 0.0, "type": "electric_scooter", "bike_id": "1f0c5955c702a7b6bd770849b4d5edd6", "is_reserved": 0, "rental_uris": {"ios": "https://dc.lft.to/lastmile_qr_scan", "android": "https://dc.lft.to/lastmile_qr_scan"}, "is_disabled": 0, "lon": -77.01670333333334, "name": "1f0c5955c702a7b6bd770849b4d5edd6", "fusion_lon": 0.0}, {"lat": 38.930122833333336, "fusion_lat": 0.0, "type": "electric_scooter", "bike_id": "178f6a9bc88d6109abda26548fd60285", "is_reserved": 0, "rental_uris": {"ios": "https://dc.lft.to/lastmile_qr_scan", "android": "https://dc.lft.to/lastmile_qr_scan"}, "is_disabled": 0, "lon": -77.05524183333333, "name": "178f6a9bc88d6109abda26548fd60285", "fusion_lon": 0.0}, {"lat": 38.924948, "fusion_lat": 0.0, "type": "electric_scooter", "bike_id": "7bb93dfd4d74e98df48a9a2454f50f4b", "is_reserved": 0, "rental_uris": {"ios": "https://dc.lft.to/lastmile_qr_scan", "android": "https://dc.lft.to/lastmile_qr_scan"}, "is_disabled": 0, "lon": -77.0318395, "name": "7bb93dfd4d74e98df48a9a2454f50f4b", "fusion_lon": 0.0}, {"lat": 38.87418316666667, "fusion_lat": 0.0, "type": "electric_scooter", "bike_id": "91253804ef7ff7a5811e2b2c4bba415b", "is_reserved": 0, "rental_uris": {"ios": "https://dc.lft.to/lastmile_qr_scan", "android": "https://dc.lft.to/lastmile_qr_scan"}, "is_disabled": 0, "lon": -76.9676995, "name": "91253804ef7ff7a5811e2b2c4bba415b", "fusion_lon": 0.0}, {"lat": 38.883683, "fusion_lat": 0.0, "type": "electric_scooter", "bike_id": "d62d0cd46985166ee9af8f6170af40ee", "is_reserved": 0, "rental_uris": {"ios": "https://dc.lft.to/lastmile_qr_scan", "android": "https://dc.lft.to/lastmile_qr_scan"}, "is_disabled": 0, "lon": -76.994892, "name": "d62d0cd46985166ee9af8f6170af40ee", "fusion_lon": 0.0}, {"lat": 38.9019595, "fusion_lat": 0.0, "type": "electric_scooter", "bike_id": "94738d9f1e4a462dccc5473d1842468d", "is_reserved": 0, "rental_uris": {"ios": "https://dc.lft.to/lastmile_qr_scan", "android": "https://dc.lft.to/lastmile_qr_scan"}, "is_disabled": 0, "lon": -77.02370733333333, "name": "94738d9f1e4a462dccc5473d1842468d", "fusion_lon": 0.0}, {"lat": 38.90148966666667, "fusion_lat": 0.0, "type": "electric_scooter", "bike_id": "1626ca11cb7d239ba01515866ffa73cc", "is_reserved": 0, "rental_uris": {"ios": "https://dc.lft.to/lastmile_qr_scan", "android": "https://dc.lft.to/lastmile_qr_scan"}, "is_disabled": 0, "lon": -76.92980933333334, "name": "1626ca11cb7d239ba01515866ffa73cc", "fusion_lon": 0.0}, {"lat": 38.90517966666667, "fusion_lat": 0.0, "type": "electric_scooter", "bike_id": "aa081952c346d083f2150e486b681a76", "is_reserved": 0, "rental_uris": {"ios": "https://dc.lft.to/lastmile_qr_scan", "android": "https://dc.lft.to/lastmile_qr_scan"}, "is_disabled": 0, "lon": -77.03476766666667, "name": "aa081952c346d083f2150e486b681a76", "fusion_lon": 0.0}, {"lat": 38.910777, "fusion_lat": 0.0, "type": "electric_scooter", "bike_id": "810f0668c860f8ad7c34a0074291b64c", "is_reserved": 0, "rental_uris": {"ios": "https://dc.lft.to/lastmile_qr_scan", "android": "https://dc.lft.to/lastmile_qr_scan"}, "is_disabled": 0, "lon": -77.00854966666667, "name": "810f0668c860f8ad7c34a0074291b64c", "fusion_lon": 0.0}, {"lat": 38.9087525, "fusion_lat": 0.0, "type": "electric_scooter", "bike_id": "897a04c3f64a5e41a145116cd96113ad", "is_reserved": 0, "rental_uris": {"ios": "https://dc.lft.to/lastmile_qr_scan", "android": "https://dc.lft.to/lastmile_qr_scan"}, "is_disabled": 0, "lon": -77.04407483333334, "name": "897a04c3f64a5e41a145116cd96113ad", "fusion_lon": 0.0}, {"lat": 38.92277083333333, "fusion_lat": 0.0, "type": "electric_scooter", "bike_id": "0e43d6f8ffe4d5c5c93b293e5bbb6712", "is_reserved": 0, "rental_uris": {"ios": "https://dc.lft.to/lastmile_qr_scan", "android": "https://dc.lft.to/lastmile_qr_scan"}, "is_disabled": 0, "lon": -77.02241966666666, "name": "0e43d6f8ffe4d5c5c93b293e5bbb6712", "fusion_lon": 0.0}, {"lat": 38.89912866666667, "fusion_lat": 0.0, "type": "electric_scooter", "bike_id": "4b89d558f2855732769e8122005056c6", "is_reserved": 0, "rental_uris": {"ios": "https://dc.lft.to/lastmile_qr_scan", "android": "https://dc.lft.to/lastmile_qr_scan"}, "is_disabled": 0, "lon": -76.93406466666667, "name": "4b89d558f2855732769e8122005056c6", "fusion_lon": 0.0}, {"lat": 38.83366816666667, "fusion_lat": 0.0, "type": "electric_scooter", "bike_id": "0b3415f44fe391478d7259e68e8c0839", "is_reserved": 0, "rental_uris": {"ios": "https://dc.lft.to/lastmile_qr_scan", "android": "https://dc.lft.to/lastmile_qr_scan"},