{"data": {"bikes": [{"is_disabled": 0, "type": "electric_scooter", "is_reserved": 0, "lat": 38.905278, "rental_uris": {"ios": "https://dc.lft.to/lastmile_qr_scan", "android": "https://dc.lft.to/lastmile_qr_scan"}, "fusion_lon": 0.0, "fusion_lat": 0.0, "bike_id": "15f8c96707602d34659e65b528d4b92d", "name": "15f8c96707602d34659e65b528d4b92d", "lon": -77.05106166666667}, {"is_disabled": 0, "type": "electric_scooter", "is_reserved": 0, "lat": 38.876325333333334, "rental_uris": {"ios": "https://dc.lft.to/lastmile_qr_scan", "android": "https://dc.lft.to/lastmile_qr_scan"}, "fusion_lon": 0.0, "fusion_lat": 0.0, "bike_id": "417d3c6324f1295d80cc9a79e1a27103", "name": "417d3c6324f1295d80cc9a79e1a27103", "lon": -77.00464983333333}, {"is_disabled": 0, "type": "electric_scooter", "is_reserved": 0, "lat": 38.88270133333333, "rental_uris": {"ios": "https://dc.lft.to/lastmile_qr_scan", "android": "https://dc.lft.to/lastmile_qr_scan"}, "fusion_lon": 0.0, "fusion_lat": 0.0, "bike_id": "2d89b808b0783585320f69a7dfc60e23", "name": "2d89b808b0783585320f69a7dfc60e23", "lon": -76.990188}, {"is_disabled": 0, "type": "electric_scooter", "is_reserved": 0, "lat": 38.915867666666664, "rental_uris": {"ios": "https://dc.lft.to/lastmile_qr_scan", "android": "https://dc.lft.to/lastmile_qr_scan"}, "fusion_lon": 0.0, "fusion_lat": 0.0, "bike_id": "3c3910a9057dfd3d4c3cfe023e34621a", "name": "3c3910a9057dfd3d4c3cfe023e34621a", "lon": -77.04156483333334}, {"is_disabled": 0, "type": "electric_scooter", "is_reserved": 0, "lat": 38.923436833333334, "rental_uris": {"ios": "https://dc.lft.to/lastmile_qr_scan", "android": "https://dc.lft.to/lastmile_qr_scan"}, "fusion_lon": 0.0, "fusion_lat": 0.0, "bike_id": "a2a914d7c487de32d4189262f2844a12", "name": "a2a914d7c487de32d4189262f2844a12", "lon": -77.05121966666667}, {"is_disabled": 0, "type": "electric_bike", "is_reserved": 0, "lat": 38.87166066666666, "rental_uris": {"ios": "https://dc.lft.to/lastmile_qr_scan", "android": "https://dc.lft.to/lastmile_qr_scan"}, "fusion_lon": 0.0, "fusion_lat": 0.0, "bike_id": "d9196d2f3d03f354d6bc1477004f1005", "name": "d9196d2f3d03f354d6bc1477004f1005", "lon": -77.01283483333333}, {"is_disabled": 0, "type": "electric_scooter", "is_reserved": 0, "lat": 38.913658166666664, "rental_uris": {"ios": "https://dc.lft.to/lastmile_qr_scan", "android": "https://dc.lft.to/lastmile_qr_scan"}, "fusion_lon": 0.0, "fusion_lat": 0.0, "bike_id": "e84b4a7a6322a6a249b913695fcbec6e", "name": "e84b4a7a6322a6a249b913695fcbec6e", "lon": -77.04489466666666}, {"is_disabled": 0, "type": "electric_scooter", "is_reserved": 0, "lat": 38.90440816666667, "rental_uris": {"ios": "https://dc.lft.to/lastmile_qr_scan", "android": "https://dc.lft.to/lastmile_qr_scan"}, "fusion_lon": 0.0, "fusion_lat": 0.0, "bike_id": "a8f9e7bb3804c19fde9dddb60ea2e3ee", "name": "a8f9e7bb3804c19fde9dddb60ea2e3ee", "lon": -76.979158}, {"is_disabled": 0, "type": "electric_scooter", "is_reserved": 0, "lat": 38.930819666666665, "rental_uris": {"ios": "https://dc.lft.to/lastmile_qr_scan", "android": "https://dc.lft.to/lastmile_qr_scan"}, "fusion_lon": 0.0, "fusion_lat": 0.0, "bike_id": "5ab13de25aba488af548d38a1a8486b9", "name": "5ab13de25aba488af548d38a1a8486b9", "lon": -77.0280935}, {"is_disabled": 0, "type": "electric_scooter", "is_reserved": 0, "lat": 38.893230833333334, "rental_uris": {"ios": "https://dc.lft.to/lastmile_qr_scan", "android": "https://dc.lft.to/lastmile_qr_scan"}, "fusion_lon": 0.0, "fusion_lat": 0.0, "bike_id": "348258c74ccfd302024d29f17e2e8cf5", "name": "348258c74ccfd302024d29f17e2e8cf5", "lon": -77.05582933333334}, {"is_disabled": 0, "type": "electric_scooter", "is_reserved": 0, "lat": 38.892248333333335, "rental_uris": {"ios": "https://dc.lft.to/lastmile_qr_scan", "android": "https://dc.lft.to/lastmile_qr_scan"}, "fusion_lon": 0.0, "fusion_lat": 0.0, "bike_id": "2f7a8cf1888b2a968eae5d2a9dbf8272", "name": "2f7a8cf1888b2a968eae5d2a9dbf8272", "lon": -77.00313733333333}, {"is_disabled": 0, "type": "electric_scooter", "is_reserved": 0, "lat": 38.9261205, "rental_uris": {"ios": "https://dc.lft.to/lastmile_qr_scan", "android": "https://dc.lft.to/lastmile_qr_scan"}, "fusion_lon": 0.0, "fusion_lat": 0.0, "bike_id": "bbe1eb8704ad7e41429dcfe707f43e53", "name": "bbe1eb8704ad7e41429dcfe707f43e53", "lon": -77.02163866666666}, {"is_disabled": 0, "type": "electric_scooter", "is_reserved": 0, "lat": 38.909699, "rental_uris": {"ios": "https://dc.lft.to/lastmile_qr_scan", "android": "https://dc.lft.to/lastmile_qr_scan"}, "fusion_lon": 0.0, "fusion_lat": 0.0, "bike_id": "14222f74188d18df9e9776e38a465431", "name": "14222f74188d18df9e9776e38a465431", "lon": -77.046218}, {"is_disabled": 0, "type": "electric_scooter", "is_reserved": 0, "lat": 38.8666105, "rental_uris": {"ios": "https://dc.lft.to/lastmile_qr_scan", "android": "https://dc.lft.to/lastmile_qr_scan"}, "fusion_lon": 0.0, "fusion_lat": 0.0, "bike_id": "30904249d053ec67edc8e25d9db88c8d", "name": "30904249d053ec67edc8e25d9db88c8d", "lon": -76.98887216666667}, {"is_disabled": 0, "type": "electric_scooter", "is_reserved": 0, "lat": 38.879966833333334, "rental_uris": {"ios": "https://dc.lft.to/lastmile_qr_scan", "android": "https://dc.lft.to/lastmile_qr_scan"}, "fusion_lon": 0.0, "fusion_lat": 0.0, "bike_id": "337d9a7a307101480df6394d43ec03e9", "name": "337d9a7a307101480df6394d43ec03e9", "lon": -76.98546166666667}, {"is_disabled": 0, "type": "electric_scooter", "is_reserved": 0, "lat": 38.916843166666666, "rental_uris": {"ios": "https://dc.lft.to/lastmile_qr_scan", "android": "https://dc.lft.to/lastmile_qr_scan"}, "fusion_lon": 0.0, "fusion_lat": 0.0, "bike_id": "7cf209af3c12aca0408ca6bc3073aa40", "name": "7cf209af3c12aca0408ca6bc3073aa40", "lon": -77.02806333333334}, {"is_disabled": 0, "type": "electric_scooter", "is_reserved": 0, "lat": 38.935628666666666, "rental_uris": {"ios": "https://dc.lft.to/lastmile_qr_scan", "android": "https://dc.lft.to/lastmile_qr_scan"}, "fusion_lon": 0.0, "fusion_lat": 0.0, "bike_id": "aa02febb75bd038839ab5aea72e8b211", "name": "aa02febb75bd038839ab5aea72e8b211", "lon": -77.073184}, {"is_disabled": 0, "type": "electric_scooter", "is_reserved": 0, "lat": 38.956282333333334, "rental_uris": {"ios": "https://dc.lft.to/lastmile_qr_scan", "android": "https://dc.lft.to/lastmile_qr_scan"}, "fusion_lon": 0.0, "fusion_lat": 0.0, "bike_id": "ca311eafa91c4361972dc50b6551c429", "name": "ca311eafa91c4361972dc50b6551c429", "lon": -77.02429883333333}, {"is_disabled": 0, "type": "electric_scooter", "is_reserved": 0, "lat": 38.9095275, "rental_uris": {"ios": "https://dc.lft.to/lastmile_qr_scan", "android": "https://dc.lft.to/lastmile_qr_scan"}, "fusion_lon": 0.0, "fusion_lat": 0.0, "bike_id": "bde7535077aa15964eafa0d9514aaa03", "name": "bde7535077aa15964eafa0d9514aaa03", "lon": -76.98545616666667}, {"is_disabled": 0, "type": "electric_scooter", "is_reserved": 0, "lat": 38.908675, "rental_uris": {"ios": "https://dc.lft.to/lastmile_qr_scan", "android": "https://dc.lft.to/lastmile_qr_scan"}, "fusion_lon": 0.0, "fusion_lat": 0.0, "bike_id": "ff5a7cf06fb82c3adf34d384913d5e42", "name": "ff5a7cf06fb82c3adf34d384913d5e42", "lon": -77.08595816666667}, {"is_disabled": 0, "type": "electric_scooter", "is_reserved": 0, "lat": 38.8952785, "rental_uris": {"ios": "https://dc.lft.to/lastmile_qr_scan", "android": "https://dc.lft.to/lastmile_qr_scan"}, "fusion_lon": 0.0, "fusion_lat": 0.0, "bike_id": "f9c4a07ec1b96040c7fd231b70d4522b", "name": "f9c4a07ec1b96040c7fd231b70d4522b", "lon": -77.04339666666667}, {"is_disabled": 0, "type": "electric_scooter", "is_reserved": 0, "lat": 38.842948166666666, "rental_uris": {"ios": "https://dc.lft.to/lastmile_qr_scan", "android": "https://dc.lft.to/lastmile_qr_scan"}, "fusion_lon": 0.0, "fusion_lat": 0.0, "bike_id": "dcf9096f83c791d2962958720d68f264", "name": "dcf9096f83c791d2962958720d68f264", "lon": -76.99948533333334}, {"is_disabled": 0, "type": "electric_scooter", "is_reserved": 0, "lat": 38.910838, "rental_uris": {"ios": "https://dc.lft.to/lastmile_qr_scan", "android": "https://dc.lft.to/lastmile_qr_scan"}, "fusion_lon": 0.0, "fusion_lat": 0.0, "bike_id": "02e5318b4966d3961fa6ea00547ccecc", "name": "02e5318b4966d3961fa6ea00547ccecc", "lon": -77.04394733333334}, {"is_disabled": 0, "type": "electric_scooter", "is_reserved": 0, "lat": 38.934461166666665, "rental_uris": {"ios": "https://dc.lft.to/lastmile_qr_scan", "android": "https://dc.lft.to/lastmile_qr_scan"}, "fusion_lon": 0.0, "fusion_lat": 0.0, "bike_id": "a51bddc2a3508dd094d18a6f3fe0a21b", "name": "a51bddc2a3508dd094d18a6f3fe0a21b", "lon": -76.96466083333334}, {"is_disabled": 0, "type": "electric_scooter", "is_reserved": 0, "lat": 38.893862666666664, "rental_uris": {"ios": "https://dc.lft.to/lastmile_qr_scan", "android": "https://dc.lft.to/lastmile_qr_scan"}, "fusion_lon": 0.0, "fusion_lat": 0.0, "bike_id": "f967c7937d77d9b31ac5b6f5c1c8a017", "name": "f967c7937d77d9b31ac5b6f5c1c8a017", "lon": -76.95018933333333}, {"is_disabled": 0, "type": "electric_scooter", "is_reserved": 0, "lat": 38.87926483333333, "rental_uris": {"ios": "https://dc.lft.to/lastmile_qr_scan", "android": "https://dc.lft.to/lastmile_qr_scan"}, "fusion_lon": 0.0, "fusion_lat": 0.0, "bike_id": "a920bcb37b12affec5bb0647d77533d2", "name": "a920bcb37b12affec5bb0647d77533d2", "lon": -77.02381383333334}, {"is_disabled": 0, "type": "electric_scooter", "is_reserved": 0, "lat": 38.905714333333336, "rental_uris": {"ios": "https://dc.lft.to/lastmile_qr_scan", "android": "https://dc.lft.to/lastmile_qr_scan"}, "fusion_lon": 0.0, "fusion_lat": 0.0, "bike_id": "d2859ce83dd84e0c3c0f1f6494c91c6a", "name": "d2859ce83dd84e0c3c0f1f6494c91c6a", "lon": -77.03686783333333}, {"is_disabled": 0, "type": "electric_scooter", "is_reserved": 0, "lat": 38.874916666666664, "rental_uris": {"ios": "https://dc.lft.to/lastmile_qr_scan", "android": "https://dc.lft.to/lastmile_qr_scan"}, "fusion_lon": 0.0, "fusion_lat": 0.0, "bike_id": "8b8b57812791aec88a0ce7ec12ef5947", "name": "8b8b57812791aec88a0ce7ec12ef5947", "lon": -76.999708}, {"is_disabled": 0, "type": "electric_bike", "is_reserved": 0, "lat": 39.0304675, "rental_uris": {"ios": "https://dc.lft.to/lastmile_qr_scan", "android": "https://dc.lft.to/lastmile_qr_scan"}, "fusion_lon": 0.0, "fusion_lat": 0.0, "bike_id": "ea0633bacfdbd6a48aa5bea12d5f8b89", "name": "ea0633bacfdbd6a48aa5bea12d5f8b89", "lon": -77.0948505}, {"is_disabled": 0, "type": "electric_scooter", "is_reserved": 0, "lat": 38.92473833333333, "rental_uris": {"ios": "https://dc.lft.to/lastmile_qr_scan", "android": "https://dc.lft.to/lastmile_qr_scan"}, "fusion_lon": 0.0, "fusion_lat": 0.0, "bike_id": "0789f2cd1e08ce12a58c08fbcc69939a", "name": "0789f2cd1e08ce12a58c08fbcc69939a", "lon": -77.02337633333333}, {"is_disabled": 0, "type": "electric_scooter", "is_reserved": 0, "lat": 38.909943, "rental_uris": {"ios": "https://dc.lft.to/lastmile_qr_scan", "android": "https://dc.lft.to/lastmile_qr_scan"}, "fusion_lon": 0.0, "fusion_lat": 0.0, "bike_id": "c9cdad91e452e35a7a6b84ae2a4951bd", "name": "c9cdad91e452e35a7a6b84ae2a4951bd", "lon": -77.03672816666666}, {"is_disabled": 0, "type": "electric_scooter", "is_reserved": 0, "lat": 38.91474766666666, "rental_uris": {"ios": "https://dc.lft.to/lastmile_qr_scan", "android": "https://dc.lft.to/lastmile_qr_scan"}, "fusion_lon": 0.0, "fusion_lat": 0.0, "bike_id": "27460227ced664b3b49fffbc8b314749", "name": "27460227ced664b3b49fffbc8b314749", "lon": -77.032088}, {"is_disabled": 0, "type": "electric_scooter", "is_reserved": 0, "lat": 38.88470133333333, "rental_uris": {"ios": "https://dc.lft.to/lastmile_qr_scan", "android": "https://dc.lft.to/lastmile_qr_scan"}, "fusion_lon": 0.0, "fusion_lat": 0.0, "bike_id": "38cc7997ff974f4623f7f9e0957c4f00", "name": "38cc7997ff974f4623f7f9e0957c4f00", "lon": -77.01982833333334}, {"is_disabled": 0, "type": "electric_scooter", "is_reserved": 0, "lat": 38.9086005, "rental_uris": {"ios": "https://dc.lft.to/lastmile_qr_scan", "android": "https://dc.lft.to/lastmile_qr_scan"}, "fusion_lon": 0.0, "fusion_lat": 0.0, "bike_id": "bb00bade246abf8a88b6e1dff2fc24d6", "name": "bb00bade246abf8a88b6e1dff2fc24d6", "lon": -77.0270075}, {"is_disabled": 0, "type": "electric_scooter", "is_reserved": 0, "lat": 38.904933166666666, "rental_uris": {"ios": "https://dc.lft.to/lastmile_qr_scan", "android": "https://dc.lft.to/lastmile_qr_scan"}, "fusion_lon": 0.0, "fusion_lat": 0.0, "bike_id": "827eb32896d975b9876a4d6764916fec", "name": "827eb32896d975b9876a4d6764916fec", "lon": -77.029569}, {"is_disabled": 0, "type": "electric_scooter", "is_reserved": 0, "lat": 38.90397266666667, "rental_uris": {"ios": "https://dc.lft.to/lastmile_qr_scan", "android": "https://dc.lft.to/lastmile_qr_scan"}, "fusion_lon": 0.0, "fusion_lat": 0.0, "bike_id": "9817e66e1610fdf6079bf2d042e660b4", "name": "9817e66e1610fdf6079bf2d042e660b4", "lon": -77.04030316666666}, {"is_disabled": 0, "type": "electric_scooter", "is_reserved": 0, "lat": 38.87575, "rental_uris": {"ios": "https://dc.lft.to/lastmile_qr_scan", "android": "https://dc.lft.to/lastmile_qr_scan"}, "fusion_lon": 0.0, "fusion_lat": 0.0, "bike_id": "dc49e1881766a8ee16dbfac3c6587277", "name": "dc49e1881766a8ee16dbfac3c6587277", "lon": -77.02076333333333}, {"is_disabled": 0, "type": "electric_scooter", "is_reserved": 0, "lat": 38.900273, "rental_uris": {"ios": "https://dc.lft.to/lastmile_qr_scan", "android": "https://dc.lft.to/lastmile_qr_scan"}, "fusion_lon": 0.0, "fusion_lat": 0.0, "bike_id": "e97ce884cf1ada0e86392ea6774e0cfe", "name": "e97ce884cf1ada0e86392ea6774e0cfe", "lon": -76.9883125}, {"is_disabled": 0, "type": "electric_scooter", "is_reserved": 0, "lat": 38.9019605, "rental_uris": {"ios": "https://dc.lft.to/lastmile_qr_scan", "android": "https://dc.lft.to/lastmile_qr_scan"}, "fusion_lon": 0.0, "fusion_lat": 0.0, "bike_id": "a80076c288c1ff4579bbf5242cc2e2ab", "name": "a80076c288c1ff4579bbf5242cc2e2ab", "lon": -77.04665333333334}, {"is_disabled": 0, "type": "electric_scooter", "is_reserved": 0, "lat": 38.90378366666667, "rental_uris": {"ios": "https://dc.lft.to/lastmile_qr_scan", "android": "https://dc.lft.to/lastmile_qr_scan"}, "fusion_lon": 0.0, "fusion_lat": 0.0, "bike_id": "8c74ef77f65264257243a640119ae877", "name": "8c74ef77f65264257243a640119ae877", "lon": -77.03868016666667}, {"is_disabled": 0, "type": "electric_scooter", "is_reserved": 0, "lat": 38.904496, "rental_uris": {"ios": "https://dc.lft.to/lastmile_qr_scan", "android": "https://dc.lft.to/lastmile_qr_scan"}, "fusion_lon": 0.0, "fusion_lat": 0.0, "bike_id": "85188ac63097adde5474ebc04a0fa57e", "name": "85188ac63097adde5474ebc04a0fa57e", "lon": -76.97431566666667}, {"is_disabled": 0, "type": "electric_scooter", "is_reserved": 0, "lat": 38.900715166666664, "rental_uris": {"ios": "https://dc.lft.to/lastmile_qr_scan", "android": "https://dc.lft.to/lastmile_qr_scan"}, "fusion_lon": 0.0, "fusion_lat": 0.0, "bike_id": "f5514e282c2cbed423704f8b0cc196c7", "name": "f5514e282c2cbed423704f8b0cc196c7", "lon": -77.0467465}, {"is_disabled": 0, "type": "electric_scooter", "is_reserved": 0, "lat": 38.892330666666666, "rental_uris": {"ios": "https://dc.lft.to/lastmile_qr_scan", "android": "https://dc.lft.to/lastmile_qr_scan"}, "fusion_lon": 0.0, "fusion_lat": 0.0, "bike_id": "8c28475aa54245682ef8c199649b7d43", "name": "8c28475aa54245682ef8c199649b7d43", "lon": -77.05003233333333}, {"is_disabled": 0, "type": "electric_scooter", "is_reserved": 0, "lat": 38.923429666666664, "rental_uris": {"ios": "https://dc.lft.to/lastmile_qr_scan", "android": "https://dc.lft.to/lastmile_qr_scan"}, "fusion_lon": 0.0, "fusion_lat": 0.0, "bike_id": "50f529fd12ddee155c3d385bb93a7f0c", "name": "50f529fd12ddee155c3d385bb93a7f0c", "lon": -77.05125283333334}, {"is_disabled": 0, "type": "electric_scooter", "is_reserved": 0, "lat": 38.928554166666665, "rental_uris": {"ios": "https://dc.lft.to/lastmile_qr_scan", "android": "https://dc.lft.to/lastmile_qr_scan"}, "fusion_lon": 0.0, "fusion_lat": 0.0, "bike_id": "4ffe26ff8ecb2b13435af97f042df83a", "name": "4ffe26ff8ecb2b13435af97f042df83a", "lon": -77.032454}, {"is_disabled": 0, "type": "electric_scooter", "is_reserved": 0, "lat": 38.902519, "rental_uris": {"ios": "https://dc.lft.to/lastmile_qr_scan", "android": "https://dc.lft.to/lastmile_qr_scan"}, "fusion_lon": 0.0, "fusion_lat": 0.0, "bike_id": "91fa6079b4d7687e67aeff9ea075fc93", "name": "91fa6079b4d7687e67aeff9ea075fc93", "lon": -76.97703833333334}, {"is_disabled": 0, "type": "electric_scooter", "is_reserved": 0, "lat": 38.927229833333335, "rental_uris": {"ios": "https://dc.lft.to/lastmile_qr_scan", "android": "https://dc.lft.to/lastmile_qr_scan"}, "fusion_lon": 0.0, "fusion_lat": 0.0, "bike_id": "2405ed878e7b30a78f1f704754672127", "name": "2405ed878e7b30a78f1f704754672127", "lon": -77.036668}, {"is_disabled": 0, "type": "electric_scooter", "is_reserved": 0, "lat": 38.908276, "rental_uris": {"ios": "https://dc.lft.to/lastmile_qr_scan", "android": "https://dc.lft.to/lastmile_qr_scan"}, "fusion_lon": 0.0, "fusion_lat": 0.0, "bike_id": "3c17ed17843cace5be841401b3d7ac44", "name": "3c17ed17843cace5be841401b3d7ac44", "lon": -77.036676}, {"is_disabled": 0, "type": "electric_scooter", "is_reserved": 0, "lat": 38.91663, "rental_uris": {"ios": "https://dc.lft.to/lastmile_qr_scan", "android": "https://dc.lft.to/lastmile_qr_scan"}, "fusion_lon": 0.0, "fusion_lat": 0.0, "bike_id": "b5db0dcd7cbf1972e1829e429d026d1c", "name": "b5db0dcd7cbf1972e1829e429d026d1c", "lon": -77.04186233333333}, {"is_disabled": 0, "type": "electric_bike", "is_reserved": 0, "lat": 38.9587685, "rental_uris": {"ios": "https://dc.lft.to/lastmile_qr_scan", "android": "https://dc.lft.to/lastmile_qr_scan"}, "fusion_lon": 0.0, "fusion_lat": 0.0, "bike_id": "cb36e01c735e39a285bf05d3576f4be0", "name": "cb36e01c735e39a285bf05d3576f4be0", "lon": -77.01032516666666}, {"is_disabled": 0, "type": "electric_scooter", "is_reserved": 0, "lat": 38.8942895, "rental_uris": {"ios": "https://dc.lft.to/lastmile_qr_scan", "android": "https://dc.lft.to/lastmile_qr_scan"}, "fusion_lon": 0.0, "fusion_lat": 0.0, "bike_id": "69bcd195feada5f49e5008b8d0066852", "name": "69bcd195feada5f49e5008b8d0066852", "lon": -77.026076}, {"is_disabled": 0, "type": "electric_scooter", "is_reserved": 0, "lat": 38.916872, "rental_uris": {"ios": "https://dc.lft.to/lastmile_qr_scan", "android": "https://dc.lft.to/lastmile_qr_scan"}, "fusion_lon": 0.0, "fusion_lat": 0.0, "bike_id": "ce387fb8438db0797e651989ad9395ba", "name": "ce387fb8438db0797e651989ad9395ba", "lon": -77.04614916666667}, {"is_disabled": 0, "type": "electric_scooter", "is_reserved": 0, "lat": 38.939366166666666, "rental_uris": {"ios": "https://dc.lft.to/lastmile_qr_scan", "android": "https://dc.lft.to/lastmile_qr_scan"}, "fusion_lon": 0.0, "fusion_lat": 0.0, "bike_id": "b125088b4b3fa195d554d98d4eeb8cbd", "name": "b125088b4b3fa195d554d98d4eeb8cbd", "lon": -77.05272083333334}, {"is_disabled": 0, "type": "electric_scooter", "is_reserved": 0, "lat": 38.922003333333336, "rental_uris": {"ios": "https://dc.lft.to/lastmile_qr_scan", "android": "https://dc.lft.to/lastmile_qr_scan"}, "fusion_lon": 0.0, "fusion_lat": 0.0, "bike_id": "219926155f5b011efa53b9863bc597b3", "name": "219926155f5b011efa53b9863bc597b3", "lon": -77.0390245}, {"is_disabled": 0, "type": "electric_scooter", "is_reserved": 0, "lat": 38.88998683333333, "rental_uris": {"ios": "https://dc.lft.to/lastmile_qr_scan", "android": "https://dc.lft.to/lastmile_qr_scan"}, "fusion_lon": 0.0, "fusion_lat": 0.0, "bike_id": "6c93bb35ffa11fb647d440f7ae6e390f", "name": "6c93bb35ffa11fb647d440f7ae6e390f", "lon": -76.95941383333333}, {"is_disabled": 0, "type": "electric_scooter", "is_reserved": 0, "lat": 38.90084683333333, "rental_uris": {"ios": "https://dc.lft.to/lastmile_qr_scan", "android": "https://dc.lft.to/lastmile_qr_scan"}, "fusion_lon": 0.0, "fusion_lat": 0.0, "bike_id": "4659a19c1982392bafc614c88304b49f", "name": "4659a19c1982392bafc614c88304b49f", "lon": -77.04893266666667}, {"is_disabled": 0, "type": "electric_scooter", "is_reserved": 0, "lat": 38.91145016666667, "rental_uris": {"ios": "https://dc.lft.to/lastmile_qr_scan", "android": "https://dc.lft.to/lastmile_qr_scan"}, "fusion_lon": 0.0, "fusion_lat": 0.0, "bike_id": "2c154e84b398016bb486509ac6d1b03b", "name": "2c154e84b398016bb486509ac6d1b03b", "lon": -77.01687083333333}, {"is_disabled": 0, "type": "electric_scooter", "is_reserved": 0, "lat": 38.89625383333333, "rental_uris": {"ios": "https://dc.lft.to/lastmile_qr_scan", "android": "https://dc.lft.to/lastmile_qr_scan"}, "fusion_lon": 0.0, "fusion_lat": 0.0, "bike_id": "c015b12b91bbcbc37e6fa6795860d038", "name": "c015b12b91bbcbc37e6fa6795860d038", "lon": -77.02258183333333}, {"is_disabled": 0, "type": "electric_scooter", "is_reserved": 0, "lat": 38.905186, "rental_uris": {"ios": "https://dc.lft.to/lastmile_qr_scan", "android": "https://dc.lft.to/lastmile_qr_scan"}, "fusion_lon": 0.0, "fusion_lat": 0.0, "bike_id": "654213166cb5d629cd546f225a3412a9", "name": "654213166cb5d629cd546f225a3412a9", "lon": -77.04340283333333}, {"is_disabled": 0, "type": "electric_scooter", "is_reserved": 0, "lat": 38.8972345, "rental_uris": {"ios": "https://dc.lft.to/lastmile_qr_scan", "android": "https://dc.lft.to/lastmile_qr_scan"}, "fusion_lon": 0.0, "fusion_lat": 0.0, "bike_id": "0edc364c47eb96d06ef24003c8844b18", "name": "0edc364c47eb96d06ef24003c8844b18", "lon": -77.0270265}, {"is_disabled": 0, "type": "electric_scooter", "is_reserved": 0, "lat": 38.907250166666664, "rental_uris": {"ios": "https://dc.lft.to/lastmile_qr_scan", "android": "https://dc.lft.to/lastmile_qr_scan"}, "fusion_lon": 0.0, "fusion_lat": 0.0, "bike_id": "339ff0ea5fee2c290c6218488872402c", "name": "339ff0ea5fee2c290c6218488872402c", "lon": -77.02973933333334}, {"is_disabled": 0, "type": "electric_scooter", "is_reserved": 0, "lat": 38.90686216666667, "rental_uris": {"ios": "https://dc.lft.to/lastmile_qr_scan", "android": "https://dc.lft.to/lastmile_qr_scan"}, "fusion_lon": 0.0, "fusion_lat": 0.0, "bike_id": "299e63db8b76cf548d01851a0a11bc83", "name": "299e63db8b76cf548d01851a0a11bc83", "lon": -77.02717516666667}, {"is_disabled": 0, "type": "electric_bike", "is_reserved": 0, "lat": 38.842750333333335, "rental_uris": {"ios": "https://dc.lft.to/lastmile_qr_scan", "android": "https://dc.lft.to/lastmile_qr_scan"}, "fusion_lon": 0.0, "fusion_lat": 0.0, "bike_id": "194b33f1cc4911bf6f77406363ae1a17", "name": "194b33f1cc4911bf6f77406363ae1a17", "lon": -76.98841966666667}, {"is_disabled": 0, "type": "electric_scooter", "is_reserved": 0, "lat": 38.90072716666667, "rental_uris": {"ios": "https://dc.lft.to/lastmile_qr_scan", "android": "https://dc.lft.to/lastmile_qr_scan"}, "fusion_lon": 0.0, "fusion_lat": 0.0, "bike_id": "87e095fe7b788047c1df1cc98bbcb8b4", "name": "87e095fe7b788047c1df1cc98bbcb8b4", "lon": -77.02716183333334}, {"is_disabled": 0, "type": "electric_bike", "is_reserved": 0, "lat": 38.838619666666666, "rental_uris": {"ios": "https://dc.lft.to/lastmile_qr_scan", "android": "https://dc.lft.to/lastmile_qr_scan"}, "fusion_lon": 0.0, "fusion_lat": 0.0, "bike_id": "d0123c4c669cc4e00f1ebf0bb07db65f", "name": "d0123c4c669cc4e00f1ebf0bb07db65f", "lon": -76.99702216666667}, {"is_disabled": 0, "type": "electric_scooter", "is_reserved": 0, "lat": 38.9027605, "rental_uris": {"ios": "https://dc.lft.to/lastmile_qr_scan", "android": "https://dc.lft.to/lastmile_qr_scan"}, "fusion_lon": 0.0, "fusion_lat": 0.0, "bike_id": "d21ccaf08a7a5e3163fec77d411f2feb", "name": "d21ccaf08a7a5e3163fec77d411f2feb", "lon": -77.0455785}, {"is_disabled": 0, "type": "electric_scooter", "is_reserved": 0, "lat": 38.925587666666665, "rental_uris": {"ios": "https://dc.lft.to/lastmile_qr_scan", "android": "https://dc.lft.to/lastmile_qr_scan"}, "fusion_lon": 0.0, "fusion_lat": 0.0, "bike_id": "3a1538f3f7a4210707e1ed42f5a113ce", "name": "3a1538f3f7a4210707e1ed42f5a113ce", "lon": -77.02282283333334}, {"is_disabled": 0, "type": "electric_scooter", "is_reserved": 0, "lat": 38.91623716666667, "rental_uris": {"ios": "https://dc.lft.to/lastmile_qr_scan", "android": "https://dc.lft.to/lastmile_qr_scan"}, "fusion_lon": 0.0, "fusion_lat": 0.0, "bike_id": "03ac9c281e739085aafb07a1540c036a", "name": "03ac9c281e739085aafb07a1540c036a", "lon": -77.04268316666666}, {"is_disabled": 0, "type": "electric_scooter", "is_reserved": 0, "lat": 38.91950883333333, "rental_uris": {"ios": "https://dc.lft.to/lastmile_qr_scan", "android": "https://dc.lft.to/lastmile_qr_scan"}, "fusion_lon": 0.0, "fusion_lat": 0.0, "bike_id": "0cf1055aedf0ad28d1eaa047ca149f1c", "name": "0cf1055aedf0ad28d1eaa047ca149f1c", "lon": -77.0236585}, {"is_disabled": 0, "type": "electric_scooter", "is_reserved": 0, "lat": 38.90561916666667, "rental_uris": {"ios": "https://dc.lft.to/lastmile_qr_scan", "android": "https://dc.lft.to/lastmile_qr_scan"}, "fusion_lon": 0.0, "fusion_lat": 0.0, "bike_id": "bb78a79cf3687f0dad8fcef1c8f73aea", "name": "bb78a79cf3687f0dad8fcef1c8f73aea", "lon": -77.03391083333334}, {"is_disabled": 0, "type": "electric_scooter", "is_reserved": 0, "lat": 38.932156, "rental_uris": {"ios": "https://dc.lft.to/lastmile_qr_scan", "android": "https://dc.lft.to/lastmile_qr_scan"}, "fusion_lon": 0.0, "fusion_lat": 0.0, "bike_id": "d0733cd8e2cc41cf5915fd5808f0fb00", "name": "d0733cd8e2cc41cf5915fd5808f0fb00", "lon": -77.03395266666666}, {"is_disabled": 0, "type": "electric_scooter", "is_reserved": 0, "lat": 38.909413666666666, "rental_uris": {"ios": "https://dc.lft.to/lastmile_qr_scan", "android": "https://dc.lft.to/lastmile_qr_scan"}, "fusion_lon": 0.0, "fusion_lat": 0.0, "bike_id": "1bf56e60e6eeae90a3de1f8d658d8d94", "name": "1bf56e60e6eeae90a3de1f8d658d8d94", "lon": -77.02199783333333}, {"is_disabled": 0, "type": "electric_scooter", "is_reserved": 0, "lat": 38.86645933333333, "rental_uris": {"ios": "https://dc.lft.to/lastmile_qr_scan", "android": "https://dc.lft.to/lastmile_qr_scan"}, "fusion_lon": 0.0, "fusion_lat": 0.0, "bike_id": "507bb9c4bd90520a8e5acff441e5f659", "name": "507bb9c4bd90520a8e5acff441e5f659", "lon": -76.98538766666667}, {"is_disabled": 0, "type": "electric_scooter", "is_reserved": 0, "lat": 38.89949933333333, "rental_uris": {"ios": "https://dc.lft.to/lastmile_qr_scan", "android": "https://dc.lft.to/lastmile_qr_scan"}, "fusion_lon": 0.0, "fusion_lat": 0.0, "bike_id": "dcf58bfc9fb3dc3b50b5ddc5a4bff1eb", "name": "dcf58bfc9fb3dc3b50b5ddc5a4bff1eb", "lon": -77.021216}, {"is_disabled": 0, "type": "electric_scooter", "is_reserved": 0, "lat": 38.94959133333333, "rental_uris": {"ios": "https://dc.lft.to/lastmile_qr_scan", "android": "https://dc.lft.to/lastmile_qr_scan"}, "fusion_lon": 0.0, "fusion_lat": 0.0, "bike_id": "94e1f82d7a5e8797f82d559a371bc3d9", "name": "94e1f82d7a5e8797f82d559a371bc3d9", "lon": -77.02727516666667}, {"is_disabled": 0, "type": "electric_scooter", "is_reserved": 0, "lat": 38.897499833333335, "rental_uris": {"ios": "https://dc.lft.to/lastmile_qr_scan", "android": "https://dc.lft.to/lastmile_qr_scan"}, "fusion_lon": 0.0, "fusion_lat": 0.0, "bike_id": "5bf0d0029ae0da0f08fbf56a1fd3bde1", "name": "5bf0d0029ae0da0f08fbf56a1fd3bde1", "lon": -77.02684883333333}, {"is_disabled": 0, "type": "electric_scooter", "is_reserved": 0, "lat": 38.906603, "rental_uris": {"ios": "https://dc.lft.to/lastmile_qr_scan", "android": "https://dc.lft.to/lastmile_qr_scan"}, "fusion_lon": 0.0, "fusion_lat": 0.0, "bike_id": "c3655039e11bbea8b0e7e527dc32a88b", "name": "c3655039e11bbea8b0e7e527dc32a88b", "lon": -77.04867916666667}, {"is_disabled": 0, "type": "electric_scooter", "is_reserved": 0, "lat": 38.90582233333333, "rental_uris": {"ios": "https://dc.lft.to/lastmile_qr_scan", "android": "https://dc.lft.to/lastmile_qr_scan"}, "fusion_lon": 0.0, "fusion_lat": 0.0, "bike_id": "2fab7f558fcb94ecb117005ff9c710b6", "name": "2fab7f558fcb94ecb117005ff9c710b6", "lon": -77.0444535}, {"is_disabled": 0, "type": "electric_scooter", "is_reserved": 0, "lat": 38.89221916666666, "rental_uris": {"ios": "https://dc.lft.to/lastmile_qr_scan", "android": "https://dc.lft.to/lastmile_qr_scan"}, "fusion_lon": 0.0, "fusion_lat": 0.0, "bike_id": "0cd264287d99be1582cfac25e82ef763", "name": "0cd264287d99be1582cfac25e82ef763", "lon": -77.04326983333333}, {"is_disabled": 0, "type": "electric_scooter", "is_reserved": 0, "lat": 38.93590316666667, "rental_uris": {"ios": "https://dc.lft.to/lastmile_qr_scan", "android": "https://dc.lft.to/lastmile_qr_scan"}, "fusion_lon": 0.0, "fusion_lat": 0.0, "bike_id": "403b5f35785d919e7116e1c62e7c9db5", "name": "403b5f35785d919e7116e1c62e7c9db5", "lon": -77.03516966666666}, {"is_disabled": 0, "type": "electric_scooter", "is_reserved": 0, "lat": 38.89744483333333, "rental_uris": {"ios": "https://dc.lft.to/lastmile_qr_scan", "android": "https://dc.lft.to/lastmile_qr_scan"}, "fusion_lon": 0.0, "fusion_lat": 0.0, "bike_id": "d1e6d2038d6a3878ca5f48379113e1a9", "name": "d1e6d2038d6a3878ca5f48379113e1a9", "lon": -77.026758}, {"is_disabled": 0, "type": "electric_scooter", "is_reserved": 0, "lat": 38.89226, "rental_uris": {"ios": "https://dc.lft.to/lastmile_qr_scan", "android": "https://dc.lft.to/lastmile_qr_scan"}, "fusion_lon": 0.0, "fusion_lat": 0.0, "bike_id": "95dee0037045c95c0819458575a72415", "name": "95dee0037045c95c0819458575a72415", "lon": -77.0258015}, {"is_disabled": 0, "type": "electric_scooter", "is_reserved": 0, "lat": 38.93780916666667, "rental_uris": {"ios": "https://dc.lft.to/lastmile_qr_scan", "android": "https://dc.lft.to/lastmile_qr_scan"}, "fusion_lon": 0.0, "fusion_lat": 0.0, "bike_id": "fb6808ccfdc918b70fb4eb4f39fc9216", "name": "fb6808ccfdc918b70fb4eb4f39fc9216", "lon": -77.02315683333333}, {"is_disabled": 0, "type": "electric_scooter", "is_reserved": 0, "lat": 38.905212166666665, "rental_uris": {"ios": "https://dc.lft.to/lastmile_qr_scan", "android": "https://dc.lft.to/lastmile_qr_scan"}, "fusion_lon": 0.0, "fusion_lat": 0.0, "bike_id": "0e582d8c3142eab31317369e9eb7bc87", "name": "0e582d8c3142eab31317369e9eb7bc87", "lon": -77.04174466666667}, {"is_disabled": 0, "type": "electric_scooter", "is_reserved": 0, "lat": 38.900829333333334, "rental_uris": {"ios": "https://dc.lft.to/lastmile_qr_scan", "android": "https://dc.lft.to/lastmile_qr_scan"}, "fusion_lon": 0.0, "fusion_lat": 0.0, "bike_id": "b782a7dc27763876c0adc71a99d5e242", "name": "b782a7dc27763876c0adc71a99d5e242", "lon": -77.0491995}, {"is_disabled": 0, "type": "electric_scooter", "is_reserved": 0, "lat": 38.918472666666666, "rental_uris": {"ios": "https://dc.lft.to/lastmile_qr_scan", "android": "https://dc.lft.to/lastmile_qr_scan"}, "fusion_lon": 0.0, "fusion_lat": 0.0, "bike_id": "7f1a39f34578dd9652068fa746368f93", "name": "7f1a39f34578dd9652068fa746368f93", "lon": -76.96539116666666}, {"is_disabled": 0, "type": "electric_scooter", "is_reserved": 0, "lat": 38.90490416666667, "rental_uris": {"ios": "https://dc.lft.to/lastmile_qr_scan", "android": "https://dc.lft.to/lastmile_qr_scan"}, "fusion_lon": 0.0, "fusion_lat": 0.0, "bike_id": "7e9af11b867770f6e1fe2bc2adb023da", "name": "7e9af11b867770f6e1fe2bc2adb023da", "lon": -77.04081383333333}, {"is_disabled": 0, "type": "electric_scooter", "is_reserved": 0, "lat": 38.92577566666667, "rental_uris": {"ios": "https://dc.lft.to/lastmile_qr_scan", "android": "https://dc.lft.to/lastmile_qr_scan"}, "fusion_lon": 0.0, "fusion_lat": 0.0, "bike_id": "52b4731d900eb88203a048484d06089f", "name": "52b4731d900eb88203a048484d06089f", "lon": -77.02911833333333}, {"is_disabled": 0, "type": "electric_scooter", "is_reserved": 0, "lat": 38.90566666666667, "rental_uris": {"ios": "https://dc.lft.to/lastmile_qr_scan", "android": "https://dc.lft.to/lastmile_qr_scan"}, "fusion_lon": 0.0, "fusion_lat": 0.0, "bike_id": "39564916f416b98929f3a693dc550c8d", "name": "39564916f416b98929f3a693dc550c8d", "lon": -77.04198816666667}, {"is_disabled": 0, "type": "electric_scooter", "is_reserved": 0, "lat": 38.925479333333335, "rental_uris": {"ios": "https://dc.lft.to/lastmile_qr_scan", "android": "https://dc.lft.to/lastmile_qr_scan"}, "fusion_lon": 0.0, "fusion_lat": 0.0, "bike_id": "eead3c3247d7513444f44891ef802765", "name": "eead3c3247d7513444f44891ef802765", "lon": -77.00074266666667}, {"is_disabled": 0, "type": "electric_scooter", "is_reserved": 0, "lat": 38.91477733333333, "rental_uris": {"ios": "https://dc.lft.to/lastmile_qr_scan", "android": "https://dc.lft.to/lastmile_qr_scan"}, "fusion_lon": 0.0, "fusion_lat": 0.0, "bike_id": "6ce58449f3fbc00586b05f41f20c181b", "name": "6ce58449f3fbc00586b05f41f20c181b", "lon": -77.02170183333334}, {"is_disabled": 0, "type": "electric_scooter", "is_reserved": 0, "lat": 38.908643833333336, "rental_uris": {"ios": "https://dc.lft.to/lastmile_qr_scan", "android": "https://dc.lft.to/lastmile_qr_scan"}, "fusion_lon": 0.0, "fusion_lat": 0.0, "bike_id": "42460445f4e931b1a64a658c5b457262", "name": "42460445f4e931b1a64a658c5b457262", "lon": -77.02706366666666}, {"is_disabled": 0, "type": "electric_bike", "is_reserved": 0, "lat": 38.85209716666667, "rental_uris": {"ios": "https://dc.lft.to/lastmile_qr_scan", "android": "https://dc.lft.to/lastmile_qr_scan"}, "fusion_lon": 0.0, "fusion_lat": 0.0, "bike_id": "e5c10af7ccf8feb3ccd2ff19d35f8ddc", "name": "e5c10af7ccf8feb3ccd2ff19d35f8ddc", "lon": -77.1013545}, {"is_disabled": 0, "type": "electric_scooter", "is_reserved": 0, "lat": 38.87708966666667, "rental_uris": {"ios": "https://dc.lft.to/lastmile_qr_scan", "android": "https://dc.lft.to/lastmile_qr_scan"}, "fusion_lon": 0.0, "fusion_lat": 0.0, "bike_id": "7e1caebe2cc7224f57415bf384b5f1f8", "name": "7e1caebe2cc7224f57415bf384b5f1f8", "lon": -77.01768316666667}, {"is_disabled": 0, "type": "electric_scooter", "is_reserved": 0, "lat": 38.898777333333335, "rental_uris": {"ios": "https://dc.lft.to/lastmile_qr_scan", "android": "https://dc.lft.to/lastmile_qr_scan"}, "fusion_lon": 0.0, "fusion_lat": 0.0, "bike_id": "336143286382b64ef8e68ab9ca0b748c", "name": "336143286382b64ef8e68ab9ca0b748c", "lon": -76.9318545}, {"is_disabled": 0, "type": "electric_scooter", "is_reserved": 0, "lat": 38.9056035, "rental_uris": {"ios": "https://dc.lft.to/lastmile_qr_scan", "android": "https://dc.lft.to/lastmile_qr_scan"}, "fusion_lon": 0.0, "fusion_lat": 0.0, "bike_id": "5443c6305bc1274dc9d9e0c768e6d3c3", "name": "5443c6305bc1274dc9d9e0c768e6d3c3", "lon": -77.04005283333333}, {"is_disabled": 0, "type": "electric_scooter", "is_reserved": 0, "lat": 38.89222, "rental_uris": {"ios": "https://dc.lft.to/lastmile_qr_scan", "android": "https://dc.lft.to/lastmile_qr_scan"}, "fusion_lon": 0.0, "fusion_lat": 0.0, "bike_id": "0cdb696a2020c99ba8226e2b3accf30d", "name": "0cdb696a2020c99ba8226e2b3accf30d", "lon": -77.04688616666667}, {"is_disabled": 0, "type": "electric_scooter", "is_reserved": 0, "lat": 38.89822433333333, "rental_uris": {"ios": "https://dc.lft.to/lastmile_qr_scan", "android": "https://dc.lft.to/lastmile_qr_scan"}, "fusion_lon": 0.0, "fusion_lat": 0.0, "bike_id": "2a68a0fc938d55f4577cff9a9a69c2b0", "name": "2a68a0fc938d55f4577cff9a9a69c2b0", "lon": -77.007119}, {"is_disabled": 0, "type": "electric_scooter", "is_reserved": 0, "lat": 38.89221533333333, "rental_uris": {"ios": "https://dc.lft.to/lastmile_qr_scan", "android": "https://dc.lft.to/lastmile_qr_scan"}, "fusion_lon": 0.0, "fusion_lat": 0.0, "bike_id": "68ed84fbe5b8f534dca05300b1218a89", "name": "68ed84fbe5b8f534dca05300b1218a89", "lon": -77.02365316666666}, {"is_disabled": 0, "type": "electric_scooter", "is_reserved": 0, "lat": 38.9084765, "rental_uris": {"ios": "https://dc.lft.to/lastmile_qr_scan", "android": "https://dc.lft.to/lastmile_qr_scan"}, "fusion_lon": 0.0, "fusion_lat": 0.0, "bike_id": "36ab9b2c98c69d3a8a53c0b40908cc42", "name": "36ab9b2c98c69d3a8a53c0b40908cc42", "lon": -76.99964533333333}, {"is_disabled": 0, "type": "electric_scooter", "is_reserved": 0, "lat": 38.887440833333336, "rental_uris": {"ios": "https://dc.lft.to/lastmile_qr_scan", "android": "https://dc.lft.to/lastmile_qr_scan"}, "fusion_lon": 0.0, "fusion_lat": 0.0, "bike_id": "a855a179e8e638063c232731026119af", "name": "a855a179e8e638063c232731026119af", "lon": -76.99853433333334}, {"is_disabled": 0, "type": "electric_scooter", "is_reserved": 0, "lat": 38.842934666666665, "rental_uris": {"ios": "https://dc.lft.to/lastmile_qr_scan", "android": "https://dc.lft.to/lastmile_qr_scan"}, "fusion_lon": 0.0, "fusion_lat": 0.0, "bike_id": "167b8d8d65004ce162003af37f164b81", "name": "167b8d8d65004ce162003af37f164b81", "lon": -76.99946316666667}, {"is_disabled": 0, "type": "electric_scooter", "is_reserved": 0, "lat": 38.897129166666666, "rental_uris": {"ios": "https://dc.lft.to/lastmile_qr_scan", "android": "https://dc.lft.to/lastmile_qr_scan"}, "fusion_lon": 0.0, "fusion_lat": 0.0, "bike_id": "7e018b06b058bc49551f2c98ac43aead", "name": "7e018b06b058bc49551f2c98ac43aead", "lon": -77.02382933333334}, {"is_disabled": 0, "type": "electric_scooter", "is_reserved": 0, "lat": 38.883485666666665, "rental_uris": {"ios": "https://dc.lft.to/lastmile_qr_scan", "android": "https://dc.lft.to/lastmile_qr_scan"}, "fusion_lon": 0.0, "fusion_lat": 0.0, "bike_id": "53bb1e4349059a0d99939d7b28ec45d2", "name": "53bb1e4349059a0d99939d7b28ec45d2", "lon": -77.02590983333333}, {"is_disabled": 0, "type": "electric_scooter", "is_reserved": 0, "lat": 38.914026166666666, "rental_uris": {"ios": "https://dc.lft.to/lastmile_qr_scan", "android": "https://dc.lft.to/lastmile_qr_scan"}, "fusion_lon": 0.0, "fusion_lat": 0.0, "bike_id": "86a5dc6c06bde50728298f73b28dca7f", "name": "86a5dc6c06bde50728298f73b28dca7f", "lon": -77.03268116666666}, {"is_disabled": 0, "type": "electric_scooter", "is_reserved": 0, "lat": 38.913107833333335, "rental_uris": {"ios": "https://dc.lft.to/lastmile_qr_scan", "android": "https://dc.lft.to/lastmile_qr_scan"}, "fusion_lon": 0.0, "fusion_lat": 0.0, "bike_id": "ae9578fbb38fcf5f5321eebdd052d25b", "name": "ae9578fbb38fcf5f5321eebdd052d25b", "lon": -77.0200825}, {"is_disabled": 0, "type": "electric_scooter", "is_reserved": 0, "lat": 38.89867, "rental_uris": {"ios": "https://dc.lft.to/lastmile_qr_scan", "android": "https://dc.lft.to/lastmile_qr_scan"}, "fusion_lon": 0.0, "fusion_lat": 0.0, "bike_id": "1d4b01a33f505d82c5161d04fce12cb0", "name": "1d4b01a33f505d82c5161d04fce12cb0", "lon": -77.029333}, {"is_disabled": 0, "type": "electric_scooter", "is_reserved": 0, "lat": 38.926176833333336, "rental_uris": {"ios": "https://dc.lft.to/lastmile_qr_scan", "android": "https://dc.lft.to/lastmile_qr_scan"}, "fusion_lon": 0.0, "fusion_lat": 0.0, "bike_id": "4af19a95da9bb5d161ede4e66d4e7f60", "name": "4af19a95da9bb5d161ede4e66d4e7f60", "lon": -77.041992}, {"is_disabled": 0, "type": "electric_scooter", "is_reserved": 0, "lat": 38.916492, "rental_uris": {"ios": "https://dc.lft.to/lastmile_qr_scan", "android": "https://dc.lft.to/lastmile_qr_scan"}, "fusion_lon": 0.0, "fusion_lat": 0.0, "bike_id": "52af3a45edb391200f29a8d050944e4f", "name": "52af3a45edb391200f29a8d050944e4f", "lon": -77.02390466666667}, {"is_disabled": 0, "type": "electric_scooter", "is_reserved": 0, "lat": 38.89420533333333, "rental_uris": {"ios": "https://dc.lft.to/lastmile_qr_scan", "android": "https://dc.lft.to/lastmile_qr_scan"}, "fusion_lon": 0.0, "fusion_lat": 0.0, "bike_id": "015db39d540a8418f7d8514ee5df7fca", "name": "015db39d540a8418f7d8514ee5df7fca", "lon": -76.91171366666667}, {"is_disabled": 0, "type": "electric_scooter", "is_reserved": 0, "lat": 38.907669, "rental_uris": {"ios": "https://dc.lft.to/lastmile_qr_scan", "android": "https://dc.lft.to/lastmile_qr_scan"}, "fusion_lon": 0.0, "fusion_lat": 0.0, "bike_id": "ae33c738ad8ed3b3853184a27631e16b", "name": "ae33c738ad8ed3b3853184a27631e16b", "lon": -77.0421305}, {"is_disabled": 0, "type": "electric_scooter", "is_reserved": 0, "lat": 38.90886316666667, "rental_uris": {"ios": "https://dc.lft.to/lastmile_qr_scan", "android": "https://dc.lft.to/lastmile_qr_scan"}, "fusion_lon": 0.0, "fusion_lat": 0.0, "bike_id": "24d92c3d4de5153d4559a5af5d54c2fe", "name": "24d92c3d4de5153d4559a5af5d54c2fe", "lon": -76.98236633333333}, {"is_disabled": 0, "type": "electric_scooter", "is_reserved": 0, "lat": 38.92745016666667, "rental_uris": {"ios": "https://dc.lft.to/lastmile_qr_scan", "android": "https://dc.lft.to/lastmile_qr_scan"}, "fusion_lon": 0.0, "fusion_lat": 0.0, "bike_id": "42c26fa7e1a9dbb4579107949c1dcb84", "name": "42c26fa7e1a9dbb4579107949c1dcb84", "lon": -77.024353}, {"is_disabled": 0, "type": "electric_scooter", "is_reserved": 0, "lat": 38.902466, "rental_uris": {"ios": "https://dc.lft.to/lastmile_qr_scan", "android": "https://dc.lft.to/lastmile_qr_scan"}, "fusion_lon": 0.0, "fusion_lat": 0.0, "bike_id": "3e790413848738225cb89fbf20fcbf28", "name": "3e790413848738225cb89fbf20fcbf28", "lon": -77.05422483333334}, {"is_disabled": 0, "type": "electric_scooter", "is_reserved": 0, "lat": 38.86522733333334, "rental_uris": {"ios": "https://dc.lft.to/lastmile_qr_scan", "android": "https://dc.lft.to/lastmile_qr_scan"}, "fusion_lon": 0.0, "fusion_lat": 0.0, "bike_id": "d70937da2fae288b2b87c4f884227c73", "name": "d70937da2fae288b2b87c4f884227c73", "lon": -76.986053}, {"is_disabled": 0, "type": "electric_bike", "is_reserved": 0, "lat": 39.056375, "rental_uris": {"ios": "https://dc.lft.to/lastmile_qr_scan", "android": "https://dc.lft.to/lastmile_qr_scan"}, "fusion_lon": 0.0, "fusion_lat": 0.0, "bike_id": "a250ec2064f8c3536e33e0ff402f22b8", "name": "a250ec2064f8c3536e33e0ff402f22b8", "lon": -77.12529116666667}, {"is_disabled": 0, "type": "electric_scooter", "is_reserved": 0, "lat": 38.89900933333333, "rental_uris": {"ios": "https://dc.lft.to/lastmile_qr_scan", "android": "https://dc.lft.to/lastmile_qr_scan"}, "fusion_lon": 0.0, "fusion_lat": 0.0, "bike_id": "10f93277b67c244547cf2a6ff22a4e16", "name": "10f93277b67c244547cf2a6ff22a4e16", "lon": -76.9950175}, {"is_disabled": 0, "type": "electric_scooter", "is_reserved": 0, "lat": 38.898438166666665, "rental_uris": {"ios": "https://dc.lft.to/lastmile_qr_scan", "android": "https://dc.lft.to/lastmile_qr_scan"}, "fusion_lon": 0.0, "fusion_lat": 0.0, "bike_id": "f14c4bcb8ad7866b368925bb3e2536f7", "name": "f14c4bcb8ad7866b368925bb3e2536f7", "lon": -76.94639083333334}, {"is_disabled": 0, "type": "electric_scooter", "is_reserved": 0, "lat": 38.908365833333335, "rental_uris": {"ios": "https://dc.lft.to/lastmile_qr_scan", "android": "https://dc.lft.to/lastmile_qr_scan"}, "fusion_lon": 0.0, "fusion_lat": 0.0, "bike_id": "8d24f643094c9ae34fad7beadce96a10", "name": "8d24f643094c9ae34fad7beadce96a10", "lon": -77.0396305}, {"is_disabled": 0, "type": "electric_scooter", "is_reserved": 0, "lat": 38.92345366666667, "rental_uris": {"ios": "https://dc.lft.to/lastmile_qr_scan", "android": "https://dc.lft.to/lastmile_qr_scan"}, "fusion_lon": 0.0, "fusion_lat": 0.0, "bike_id": "75b047c78c28da024d89df60f4ecbe07", "name": "75b047c78c28da024d89df60f4ecbe07", "lon": -77.0436135}, {"is_disabled": 0, "type": "electric_scooter", "is_reserved": 0, "lat": 38.9027235, "rental_uris": {"ios": "https://dc.lft.to/lastmile_qr_scan", "android": "https://dc.lft.to/lastmile_qr_scan"}, "fusion_lon": 0.0, "fusion_lat": 0.0, "bike_id": "d2bbb719737f16c6331ae756b8c40bbc", "name": "d2bbb719737f16c6331ae756b8c40bbc", "lon": -77.0347785}, {"is_disabled": 0, "type": "electric_scooter", "is_reserved": 0, "lat": 38.92646216666667, "rental_uris": {"ios": "https://dc.lft.to/lastmile_qr_scan", "android": "https://dc.lft.to/lastmile_qr_scan"}, "fusion_lon": 0.0, "fusion_lat": 0.0, "bike_id": "7de0655b8ccf47fbb36158697807ca4a", "name": "7de0655b8ccf47fbb36158697807ca4a", "lon": -77.03705883333333}, {"is_disabled": 0, "type": "electric_scooter", "is_reserved": 0, "lat": 38.90957516666667, "rental_uris": {"ios": "https://dc.lft.to/lastmile_qr_scan", "android": "https://dc.lft.to/lastmile_qr_scan"}, "fusion_lon": 0.0, "fusion_lat": 0.0, "bike_id": "995468360aa19c2b60ee11cd83cf1911", "name": "995468360aa19c2b60ee11cd83cf1911", "lon": -77.03260833333333}, {"is_disabled": 0, "type": "electric_scooter", "is_reserved": 0, "lat": 38.9270955, "rental_uris": {"ios": "https://dc.lft.to/lastmile_qr_scan", "android": "https://dc.lft.to/lastmile_qr_scan"}, "fusion_lon": 0.0, "fusion_lat": 0.0, "bike_id": "53dc0d086254b526cea69f7ae72e00c7", "name": "53dc0d086254b526cea69f7ae72e00c7", "lon": -77.0209525}, {"is_disabled": 0, "type": "electric_scooter", "is_reserved": 0, "lat": 38.96391333333333, "rental_uris": {"ios": "https://dc.lft.to/lastmile_qr_scan", "android": "https://dc.lft.to/lastmile_qr_scan"}, "fusion_lon": 0.0, "fusion_lat": 0.0, "bike_id": "473a139c9fbecd5c15c339644ea976d7", "name": "473a139c9fbecd5c15c339644ea976d7", "lon": -77.025916}, {"is_disabled": 0, "type": "electric_scooter", "is_reserved": 0, "lat": 38.902690666666665, "rental_uris": {"ios": "https://dc.lft.to/lastmile_qr_scan", "android": "https://dc.lft.to/lastmile_qr_scan"}, "fusion_lon": 0.0, "fusion_lat": 0.0, "bike_id": "3dcf4b5283fd31c86d1dd10e6dfc1d41", "name": "3dcf4b5283fd31c86d1dd10e6dfc1d41", "lon": -77.03468266666667}, {"is_disabled": 0, "type": "electric_scooter", "is_reserved": 0, "lat": 38.89478616666667, "rental_uris": {"ios": "https://dc.lft.to/lastmile_qr_scan", "android": "https://dc.lft.to/lastmile_qr_scan"}, "fusion_lon": 0.0, "fusion_lat": 0.0, "bike_id": "6e0ed147003a5500f138f9a62bd0096d", "name": "6e0ed147003a5500f138f9a62bd0096d", "lon": -77.0014145}, {"is_disabled": 0, "type": "electric_bike", "is_reserved": 0, "lat": 38.9003055, "rental_uris": {"ios": "https://dc.lft.to/lastmile_qr_scan", "android": "https://dc.lft.to/lastmile_qr_scan"}, "fusion_lon": 0.0, "fusion_lat": 0.0, "bike_id": "e01fc0db93b87d873e2d92aa79789767", "name": "e01fc0db93b87d873e2d92aa79789767", "lon": -77.04084116666667}, {"is_disabled": 0, "type": "electric_scooter", "is_reserved": 0, "lat": 38.907880666666664, "rental_uris": {"ios": "https://dc.lft.to/lastmile_qr_scan", "android": "https://dc.lft.to/lastmile_qr_scan"}, "fusion_lon": 0.0, "fusion_lat": 0.0, "bike_id": "3946c89324a5aef387bff3df820eaeb7", "name": "3946c89324a5aef387bff3df820eaeb7", "lon": -76.997351}, {"is_disabled": 0, "type": "electric_scooter", "is_reserved": 0, "lat": 38.91402766666667, "rental_uris": {"ios": "https://dc.lft.to/lastmile_qr_scan", "android": "https://dc.lft.to/lastmile_qr_scan"}, "fusion_lon": 0.0, "fusion_lat": 0.0, "bike_id": "0eecf093175592699af92d5fab3f40f6", "name": "0eecf093175592699af92d5fab3f40f6", "lon": -77.03259683333333}, {"is_disabled": 0, "type": "electric_scooter", "is_reserved": 0, "lat": 38.912744833333335, "rental_uris": {"ios": "https://dc.lft.to/lastmile_qr_scan", "android": "https://dc.lft.to/lastmile_qr_scan"}, "fusion_lon": 0.0, "fusion_lat": 0.0, "bike_id": "3d6f2f64cd21e4c2bca717fb86f79407", "name": "3d6f2f64cd21e4c2bca717fb86f79407", "lon": -77.07827666666667}, {"is_disabled": 0, "type": "electric_scooter", "is_reserved": 0, "lat": 38.93189866666667, "rental_uris": {"ios": "https://dc.lft.to/lastmile_qr_scan", "android": "https://dc.lft.to/lastmile_qr_scan"}, "fusion_lon": 0.0, "fusion_lat": 0.0, "bike_id": "9d8d287eaec652422d826d94e8a72f4c", "name": "9d8d287eaec652422d826d94e8a72f4c", "lon": -77.02965433333334}, {"is_disabled": 0, "type": "electric_scooter", "is_reserved": 0, "lat": 38.929689833333335, "rental_uris": {"ios": "https://dc.lft.to/lastmile_qr_scan", "android": "https://dc.lft.to/lastmile_qr_scan"}, "fusion_lon": 0.0, "fusion_lat": 0.0, "bike_id": "e340567237ca06c2dd519fcbcf78eead", "name": "e340567237ca06c2dd519fcbcf78eead", "lon": -77.0550035}, {"is_disabled": 0, "type": "electric_scooter", "is_reserved": 0, "lat": 38.908586, "rental_uris": {"ios": "https://dc.lft.to/lastmile_qr_scan", "android": "https://dc.lft.to/lastmile_qr_scan"}, "fusion_lon": 0.0, "fusion_lat": 0.0, "bike_id": "547e2d30dbfb658fd506c3820728550b", "name": "547e2d30dbfb658fd506c3820728550b", "lon": -77.027084}, {"is_disabled": 0, "type": "electric_scooter", "is_reserved": 0, "lat": 38.899845, "rental_uris": {"ios": "https://dc.lft.to/lastmile_qr_scan", "android": "https://dc.lft.to/lastmile_qr_scan"}, "fusion_lon": 0.0, "fusion_lat": 0.0, "bike_id": "75765683817c341ee18744a11c908814", "name": "75765683817c341ee18744a11c908814", "lon": -76.98292616666667}, {"is_disabled": 0, "type": "electric_scooter", "is_reserved": 0, "lat": 38.92355366666666, "rental_uris": {"ios": "https://dc.lft.to/lastmile_qr_scan", "android": "https://dc.lft.to/lastmile_qr_scan"}, "fusion_lon": 0.0, "fusion_lat": 0.0, "bike_id": "eb436b03acc2c106b2a01ad010c62780", "name": "eb436b03acc2c106b2a01ad010c62780", "lon": -77.05042266666666}, {"is_disabled": 0, "type": "electric_scooter", "is_reserved": 0, "lat": 38.91406383333333, "rental_uris": {"ios": "https://dc.lft.to/lastmile_qr_scan", "android": "https://dc.lft.to/lastmile_qr_scan"}, "fusion_lon": 0.0, "fusion_lat": 0.0, "bike_id": "4747a819ce7e26c64ba2d28c334dc68d", "name": "4747a819ce7e26c64ba2d28c334dc68d", "lon": -77.013102}, {"is_disabled": 0, "type": "electric_scooter", "is_reserved": 0, "lat": 38.92118383333333, "rental_uris": {"ios": "https://dc.lft.to/lastmile_qr_scan", "android": "https://dc.lft.to/lastmile_qr_scan"}, "fusion_lon": 0.0, "fusion_lat": 0.0, "bike_id": "f394f608c4db53f4795776ce473537d9", "name": "f394f608c4db53f4795776ce473537d9", "lon": -77.0121575}, {"is_disabled": 0, "type": "electric_scooter", "is_reserved": 0, "lat": 38.8898955, "rental_uris": {"ios": "https://dc.lft.to/lastmile_qr_scan", "android": "https://dc.lft.to/lastmile_qr_scan"}, "fusion_lon": 0.0, "fusion_lat": 0.0, "bike_id": "59b3ebd5e810cd4fcdd24de8322c7263", "name": "59b3ebd5e810cd4fcdd24de8322c7263", "lon": -77.003522}, {"is_disabled": 0, "type": "electric_scooter", "is_reserved": 0, "lat": 38.90525516666666, "rental_uris": {"ios": "https://dc.lft.to/lastmile_qr_scan", "android": "https://dc.lft.to/lastmile_qr_scan"}, "fusion_lon": 0.0, "fusion_lat": 0.0, "bike_id": "6038db7cad0c27bb0f0569fa46471e3a", "name": "6038db7cad0c27bb0f0569fa46471e3a", "lon": -77.05764266666667}, {"is_disabled": 0, "type": "electric_bike", "is_reserved": 0, "lat": 38.95127816666667, "rental_uris": {"ios": "https://dc.lft.to/lastmile_qr_scan", "android": "https://dc.lft.to/lastmile_qr_scan"}, "fusion_lon": 0.0, "fusion_lat": 0.0, "bike_id": "e9844392f1146b20797d6a617203822c", "name": "e9844392f1146b20797d6a617203822c", "lon": -77.0333535}, {"is_disabled": 0, "type": "electric_scooter", "is_reserved": 0, "lat": 38.924852333333334, "rental_uris": {"ios": "https://dc.lft.to/lastmile_qr_scan", "android": "https://dc.lft.to/lastmile_qr_scan"}, "fusion_lon": 0.0, "fusion_lat": 0.0, "bike_id": "9e22a8665b3ae0f0c92faf569d09cba3", "name": "9e22a8665b3ae0f0c92faf569d09cba3", "lon": -77.0318455}, {"is_disabled": 0, "type": "electric_scooter", "is_reserved": 0, "lat": 38.87195766666667, "rental_uris": {"ios": "https://dc.lft.to/lastmile_qr_scan", "android": "https://dc.lft.to/lastmile_qr_scan"}, "fusion_lon": 0.0, "fusion_lat": 0.0, "bike_id": "44ada78eaeffc6473042f49fbf2aa30f", "name": "44ada78eaeffc6473042f49fbf2aa30f", "lon": -77.0062015}, {"is_disabled": 0, "type": "electric_scooter", "is_reserved": 0, "lat": 38.924875166666666, "rental_uris": {"ios": "https://dc.lft.to/lastmile_qr_scan", "android": "https://dc.lft.to/lastmile_qr_scan"}, "fusion_lon": 0.0, "fusion_lat": 0.0, "bike_id": "b0894b606196990f21d9bbbbf1548c64", "name": "b0894b606196990f21d9bbbbf1548c64", "lon": -77.052132}, {"is_disabled": 0, "type": "electric_scooter", "is_reserved": 0, "lat": 38.907834333333334, "rental_uris": {"ios": "https://dc.lft.to/lastmile_qr_scan", "android": "https://dc.lft.to/lastmile_qr_scan"}, "fusion_lon": 0.0, "fusion_lat": 0.0, "bike_id": "f2bc9529b0e1494a9b681f44a81ea98f", "name": "f2bc9529b0e1494a9b681f44a81ea98f", "lon": -77.04219066666667}, {"is_disabled": 0, "type": "electric_scooter", "is_reserved": 0, "lat": 38.82784733333333, "rental_uris": {"ios": "https://dc.lft.to/lastmile_qr_scan", "android": "https://dc.lft.to/lastmile_qr_scan"}, "fusion_lon": 0.0, "fusion_lat": 0.0, "bike_id": "6966896f3af2f12659edb3ac34017e74", "name": "6966896f3af2f12659edb3ac34017e74", "lon": -77.00926866666667}, {"is_disabled": 0, "type": "electric_scooter", "is_reserved": 0, "lat": 38.90635066666667, "rental_uris": {"ios": "https://dc.lft.to/lastmile_qr_scan", "android": "https://dc.lft.to/lastmile_qr_scan"}, "fusion_lon": 0.0, "fusion_lat": 0.0, "bike_id": "9f8f881f258aa9c1bc9a00ec5617ffe2", "name": "9f8f881f258aa9c1bc9a00ec5617ffe2", "lon": -77.006015}, {"is_disabled": 0, "type": "electric_scooter", "is_reserved": 0, "lat": 38.928103166666666, "rental_uris": {"ios": "https://dc.lft.to/lastmile_qr_scan", "android": "https://dc.lft.to/lastmile_qr_scan"}, "fusion_lon": 0.0, "fusion_lat": 0.0, "bike_id": "5ee5983e375424c3ce3f7ef2c126c8dd", "name": "5ee5983e375424c3ce3f7ef2c126c8dd", "lon": -77.0325445}, {"is_disabled": 0, "type": "electric_scooter", "is_reserved": 0, "lat": 38.89829183333333, "rental_uris": {"ios": "https://dc.lft.to/lastmile_qr_scan", "android": "https://dc.lft.to/lastmile_qr_scan"}, "fusion_lon": 0.0, "fusion_lat": 0.0, "bike_id": "46c067a1d05949d3c996e1a927e12139", "name": "46c067a1d05949d3c996e1a927e12139", "lon": -77.02964966666667}, {"is_disabled": 0, "type": "electric_bike", "is_reserved": 0, "lat": 39.051954333333335, "rental_uris": {"ios": "https://dc.lft.to/lastmile_qr_scan", "android": "https://dc.lft.to/lastmile_qr_scan"}, "fusion_lon": 0.0, "fusion_lat": 0.0, "bike_id": "bb30b7cff55b4ccd6c30029136a7cd4f", "name": "bb30b7cff55b4ccd6c30029136a7cd4f", "lon": -77.1091865}, {"is_disabled": 0, "type": "electric_scooter", "is_reserved": 0, "lat": 38.905362333333336, "rental_uris": {"ios": "https://dc.lft.to/lastmile_qr_scan", "android": "https://dc.lft.to/lastmile_qr_scan"}, "fusion_lon": 0.0, "fusion_lat": 0.0, "bike_id": "d5532e970744f5f0bfbfe55e789be3da", "name": "d5532e970744f5f0bfbfe55e789be3da", "lon": -77.03988633333333}, {"is_disabled": 0, "type": "electric_scooter", "is_reserved": 0, "lat": 38.863737, "rental_uris": {"ios": "https://dc.lft.to/lastmile_qr_scan", "android": "https://dc.lft.to/lastmile_qr_scan"}, "fusion_lon": 0.0, "fusion_lat": 0.0, "bike_id": "ab9f5ec30b0a135b9eb814a541112f12", "name": "ab9f5ec30b0a135b9eb814a541112f12", "lon": -76.99026866666667}, {"is_disabled": 0, "type": "electric_scooter", "is_reserved": 0, "lat": 38.91064983333333, "rental_uris": {"ios": "https://dc.lft.to/lastmile_qr_scan", "android": "https://dc.lft.to/lastmile_qr_scan"}, "fusion_lon": 0.0, "fusion_lat": 0.0, "bike_id": "efb80500308c043d264d0b208f3d5542", "name": "efb80500308c043d264d0b208f3d5542", "lon": -77.0229565}, {"is_disabled": 0, "type": "electric_scooter", "is_reserved": 0, "lat": 38.95639416666667, "rental_uris": {"ios": "https://dc.lft.to/lastmile_qr_scan", "android": "https://dc.lft.to/lastmile_qr_scan"}, "fusion_lon": 0.0, "fusion_lat": 0.0, "bike_id": "e2edf8c8f5e753edceb22e60143342e0", "name": "e2edf8c8f5e753edceb22e60143342e0", "lon": -77.0330105}, {"is_disabled": 0, "type": "electric_scooter", "is_reserved": 0, "lat": 38.902425666666666, "rental_uris": {"ios": "https://dc.lft.to/lastmile_qr_scan", "android": "https://dc.lft.to/lastmile_qr_scan"}, "fusion_lon": 0.0, "fusion_lat": 0.0, "bike_id": "afdfc737a814e18a46dff7758dc2ddb1", "name": "afdfc737a814e18a46dff7758dc2ddb1", "lon": -77.0456335}, {"is_disabled": 0, "type": "electric_scooter", "is_reserved": 0, "lat": 38.9066205, "rental_uris": {"ios": "https://dc.lft.to/lastmile_qr_scan", "android": "https://dc.lft.to/lastmile_qr_scan"}, "fusion_lon": 0.0, "fusion_lat": 0.0, "bike_id": "e6873a0aa89a0da4e5c69bb028db13cf", "name": "e6873a0aa89a0da4e5c69bb028db13cf", "lon": -77.0462175}, {"is_disabled": 0, "type": "electric_scooter", "is_reserved": 0, "lat": 38.90185183333333, "rental_uris": {"ios": "https://dc.lft.to/lastmile_qr_scan", "android": "https://dc.lft.to/lastmile_qr_scan"}, "fusion_lon": 0.0, "fusion_lat": 0.0, "bike_id": "df41084abf9eb4a3e01b625c4ed180fd", "name": "df41084abf9eb4a3e01b625c4ed180fd", "lon": -76.93002816666667}, {"is_disabled": 0, "type": "electric_scooter", "is_reserved": 0, "lat": 38.908837166666665, "rental_uris": {"ios": "https://dc.lft.to/lastmile_qr_scan", "android": "https://dc.lft.to/lastmile_qr_scan"}, "fusion_lon": 0.0, "fusion_lat": 0.0, "bike_id": "23b544afe520c076d0f3440bfac7fcb0", "name": "23b544afe520c076d0f3440bfac7fcb0", "lon": -77.04332016666666}, {"is_disabled": 0, "type": "electric_scooter", "is_reserved": 0, "lat": 38.9141285, "rental_uris": {"ios": "https://dc.lft.to/lastmile_qr_scan", "android": "https://dc.lft.to/lastmile_qr_scan"}, "fusion_lon": 0.0, "fusion_lat": 0.0, "bike_id": "8fa51a895d4c753fc24628dfb534de11", "name": "8fa51a895d4c753fc24628dfb534de11", "lon": -77.0428495}, {"is_disabled": 0, "type": "electric_scooter", "is_reserved": 0, "lat": 38.91418933333333, "rental_uris": {"ios": "https://dc.lft.to/lastmile_qr_scan", "android": "https://dc.lft.to/lastmile_qr_scan"}, "fusion_lon": 0.0, "fusion_lat": 0.0, "bike_id": "b7b98c4a96d79a0491a5875c5ed4b9f3", "name": "b7b98c4a96d79a0491a5875c5ed4b9f3", "lon": -77.03197816666666}, {"is_disabled": 0, "type": "electric_scooter", "is_reserved": 0, "lat": 38.899574, "rental_uris": {"ios": "https://dc.lft.to/lastmile_qr_scan", "android": "https://dc.lft.to/lastmile_qr_scan"}, "fusion_lon": 0.0, "fusion_lat": 0.0, "bike_id": "f332beec4bfcb239d28abb000d191be6", "name": "f332beec4bfcb239d28abb000d191be6", "lon": -77.03346083333334}, {"is_disabled": 0, "type": "electric_scooter", "is_reserved": 0, "lat": 38.915595333333336, "rental_uris": {"ios": "https://dc.lft.to/lastmile_qr_scan", "android": "https://dc.lft.to/lastmile_qr_scan"}, "fusion_lon": 0.0, "fusion_lat": 0.0, "bike_id": "a28ff92a7ed0bf2e61f291766a5f6b35", "name": "a28ff92a7ed0bf2e61f291766a5f6b35", "lon": -77.00985916666667}, {"is_disabled": 0, "type": "electric_scooter", "is_reserved": 0, "lat": 38.90554266666667, "rental_uris": {"ios": "https://dc.lft.to/lastmile_qr_scan", "android": "https://dc.lft.to/lastmile_qr_scan"}, "fusion_lon": 0.0, "fusion_lat": 0.0, "bike_id": "ed2e656daa9d109c5062038cb9d4ea1d", "name": "ed2e656daa9d109c5062038cb9d4ea1d", "lon": -77.04045033333334}, {"is_disabled": 0, "type": "electric_scooter", "is_reserved": 0, "lat": 38.9226655, "rental_uris": {"ios": "https://dc.lft.to/lastmile_qr_scan", "android": "https://dc.lft.to/lastmile_qr_scan"}, "fusion_lon": 0.0, "fusion_lat": 0.0, "bike_id": "f39baecc426c56c2e83bd26beb5fbada", "name": "f39baecc426c56c2e83bd26beb5fbada", "lon": -77.04195383333334}, {"is_disabled": 0, "type": "electric_scooter", "is_reserved": 0, "lat": 38.89608883333333, "rental_uris": {"ios": "https://dc.lft.to/lastmile_qr_scan", "android": "https://dc.lft.to/lastmile_qr_scan"}, "fusion_lon": 0.0, "fusion_lat": 0.0, "bike_id": "da09450d755d9a3fcf07fcfcda6b81c6", "name": "da09450d755d9a3fcf07fcfcda6b81c6", "lon": -77.04595333333333}, {"is_disabled": 0, "type": "electric_scooter", "is_reserved": 0, "lat": 38.91149083333333, "rental_uris": {"ios": "https://dc.lft.to/lastmile_qr_scan", "android": "https://dc.lft.to/lastmile_qr_scan"}, "fusion_lon": 0.0, "fusion_lat": 0.0, "bike_id": "f3b5590cdd64096a74a5f852a35cf905", "name": "f3b5590cdd64096a74a5f852a35cf905", "lon": -77.00464783333334}, {"is_disabled": 0, "type": "electric_scooter", "is_reserved": 0, "lat": 38.91776083333333, "rental_uris": {"ios": "https://dc.lft.to/lastmile_qr_scan", "android": "https://dc.lft.to/lastmile_qr_scan"}, "fusion_lon": 0.0, "fusion_lat": 0.0, "bike_id": "136067a7fa7e583344362b152ba282c9", "name": "136067a7fa7e583344362b152ba282c9", "lon": -77.03861816666667}, {"is_disabled": 0, "type": "electric_scooter", "is_reserved": 0, "lat": 38.91841683333333, "rental_uris": {"ios": "https://dc.lft.to/lastmile_qr_scan", "android": "https://dc.lft.to/lastmile_qr_scan"}, "fusion_lon": 0.0, "fusion_lat": 0.0, "bike_id": "fadd56a053cd5b97d1e511cbb0bb3a0f", "name": "fadd56a053cd5b97d1e511cbb0bb3a0f", "lon": -77.03450166666667}, {"is_disabled": 0, "type": "electric_scooter", "is_reserved": 0, "lat": 38.90587133333333, "rental_uris": {"ios": "https://dc.lft.to/lastmile_qr_scan", "android": "https://dc.lft.to/lastmile_qr_scan"}, "fusion_lon": 0.0, "fusion_lat": 0.0, "bike_id": "fe79a211b70dd9683dad6fcfc5f6a9b9", "name": "fe79a211b70dd9683dad6fcfc5f6a9b9", "lon": -77.04309716666667}, {"is_disabled": 0, "type": "electric_scooter", "is_reserved": 0, "lat": 38.92359183333333, "rental_uris": {"ios": "https://dc.lft.to/lastmile_qr_scan", "android": "https://dc.lft.to/lastmile_qr_scan"}, "fusion_lon": 0.0, "fusion_lat": 0.0, "bike_id": "eb527161ff58faebb911a39d6af06dd1", "name": "eb527161ff58faebb911a39d6af06dd1", "lon": -77.0542595}, {"is_disabled": 0, "type": "electric_scooter", "is_reserved": 0, "lat": 38.928656, "rental_uris": {"ios": "https://dc.lft.to/lastmile_qr_scan", "android": "https://dc.lft.to/lastmile_qr_scan"}, "fusion_lon": 0.0, "fusion_lat": 0.0, "bike_id": "df8956999676d35301b180006474c34d", "name": "df8956999676d35301b180006474c34d", "lon": -77.03243233333333}, {"is_disabled": 0, "type": "electric_scooter", "is_reserved": 0, "lat": 38.915617833333336, "rental_uris": {"ios": "https://dc.lft.to/lastmile_qr_scan", "android": "https://dc.lft.to/lastmile_qr_scan"}, "fusion_lon": 0.0, "fusion_lat": 0.0, "bike_id": "0f05a7170a094d45a82083655191c8b4", "name": "0f05a7170a094d45a82083655191c8b4", "lon": -77.02292566666667}, {"is_disabled": 0, "type": "electric_scooter", "is_reserved": 0, "lat": 38.932610333333336, "rental_uris": {"ios": "https://dc.lft.to/lastmile_qr_scan", "android": "https://dc.lft.to/lastmile_qr_scan"}, "fusion_lon": 0.0, "fusion_lat": 0.0, "bike_id": "16386f54c97460c805d990f367a12f8d", "name": "16386f54c97460c805d990f367a12f8d", "lon": -77.03498616666667}, {"is_disabled": 0, "type": "electric_scooter", "is_reserved": 0, "lat": 38.932707, "rental_uris": {"ios": "https://dc.lft.to/lastmile_qr_scan", "android": "https://dc.lft.to/lastmile_qr_scan"}, "fusion_lon": 0.0, "fusion_lat": 0.0, "bike_id": "305b571f4772332b08a1341829eea986", "name": "305b571f4772332b08a1341829eea986", "lon": -77.0364795}, {"is_disabled": 0, "type": "electric_bike", "is_reserved": 0, "lat": 38.999433833333335, "rental_uris": {"ios": "https://dc.lft.to/lastmile_qr_scan", "android": "https://dc.lft.to/lastmile_qr_scan"}, "fusion_lon": 0.0, "fusion_lat": 0.0, "bike_id": "4b35dd371e310e4fbdd567917fbb00c6", "name": "4b35dd371e310e4fbdd567917fbb00c6", "lon": -77.03168266666667}, {"is_disabled": 0, "type": "electric_scooter", "is_reserved": 0, "lat": 38.918293166666665, "rental_uris": {"ios": "https://dc.lft.to/lastmile_qr_scan", "android": "https://dc.lft.to/lastmile_qr_scan"}, "fusion_lon": 0.0, "fusion_lat": 0.0, "bike_id": "4c0301a7d9d1a5965f61f2bbca139f3c", "name": "4c0301a7d9d1a5965f61f2bbca139f3c", "lon": -77.04158016666666}, {"is_disabled": 0, "type": "electric_scooter", "is_reserved": 0, "lat": 38.90590383333333, "rental_uris": {"ios": "https://dc.lft.to/lastmile_qr_scan", "android": "https://dc.lft.to/lastmile_qr_scan"}, "fusion_lon": 0.0, "fusion_lat": 0.0, "bike_id": "44d60f2adf59288c94861faee17a1242", "name": "44d60f2adf59288c94861faee17a1242", "lon": -77.046822}, {"is_disabled": 0, "type": "electric_scooter", "is_reserved": 0, "lat": 38.88587616666667, "rental_uris": {"ios": "https://dc.lft.to/lastmile_qr_scan", "android": "https://dc.lft.to/lastmile_qr_scan"}, "fusion_lon": 0.0, "fusion_lat": 0.0, "bike_id": "5516ca4b84141c6a27dac16649786851", "name": "5516ca4b84141c6a27dac16649786851", "lon": -76.98366966666667}, {"is_disabled": 0, "type": "electric_scooter", "is_reserved": 0, "lat": 38.919262, "rental_uris": {"ios": "https://dc.lft.to/lastmile_qr_scan", "android": "https://dc.lft.to/lastmile_qr_scan"}, "fusion_lon": 0.0, "fusion_lat": 0.0, "bike_id": "edbbde8ad6a3419d6863438ded8396be", "name": "edbbde8ad6a3419d6863438ded8396be", "lon": -77.03197833333333}, {"is_disabled": 0, "type": "electric_scooter", "is_reserved": 0, "lat": 38.91832, "rental_uris": {"ios": "https://dc.lft.to/lastmile_qr_scan", "android": "https://dc.lft.to/lastmile_qr_scan"}, "fusion_lon": 0.0, "fusion_lat": 0.0, "bike_id": "32db8e09f11d7e22755258cac41407e3", "name": "32db8e09f11d7e22755258cac41407e3", "lon": -77.04160483333334}, {"is_disabled": 0, "type": "electric_scooter", "is_reserved": 0, "lat": 38.91116016666667, "rental_uris": {"ios": "https://dc.lft.to/lastmile_qr_scan", "android": "https://dc.lft.to/lastmile_qr_scan"}, "fusion_lon": 0.0, "fusion_lat": 0.0, "bike_id": "cbf138684eab9bfdf1fbf64ad6708330", "name": "cbf138684eab9bfdf1fbf64ad6708330", "lon": -77.03839766666667}, {"is_disabled": 0, "type": "electric_scooter", "is_reserved": 0, "lat": 38.920424, "rental_uris": {"ios": "https://dc.lft.to/lastmile_qr_scan", "android": "https://dc.lft.to/lastmile_qr_scan"}, "fusion_lon": 0.0, "fusion_lat": 0.0, "bike_id": "f93280a05ec40f484351be97a774f814", "name": "f93280a05ec40f484351be97a774f814", "lon": -77.0329855}, {"is_disabled": 0, "type": "electric_scooter", "is_reserved": 0, "lat": 38.9023615, "rental_uris": {"ios": "https://dc.lft.to/lastmile_qr_scan", "android": "https://dc.lft.to/lastmile_qr_scan"}, "fusion_lon": 0.0, "fusion_lat": 0.0, "bike_id": "0867b10a3e8a2cdf7b9fc16af5a887cc", "name": "0867b10a3e8a2cdf7b9fc16af5a887cc", "lon": -77.00354716666666}, {"is_disabled": 0, "type": "electric_bike", "is_reserved": 0, "lat": 38.84089266666667, "rental_uris": {"ios": "https://dc.lft.to/lastmile_qr_scan", "android": "https://dc.lft.to/lastmile_qr_scan"}, "fusion_lon": 0.0, "fusion_lat": 0.0, "bike_id": "2fd03aae44b62e1bbe67c7783b6f6d3e", "name": "2fd03aae44b62e1bbe67c7783b6f6d3e", "lon": -77.07708666666667}, {"is_disabled": 0, "type": "electric_scooter", "is_reserved": 0, "lat": 38.90961133333333, "rental_uris": {"ios": "https://dc.lft.to/lastmile_qr_scan", "android": "https://dc.lft.to/lastmile_qr_scan"}, "fusion_lon": 0.0, "fusion_lat": 0.0, "bike_id": "a23cb3fe329fcecf83d8d70fcd701b8b", "name": "a23cb3fe329fcecf83d8d70fcd701b8b", "lon": -77.02537283333334}, {"is_disabled": 0, "type": "electric_scooter", "is_reserved": 0, "lat": 38.923319166666666, "rental_uris": {"ios": "https://dc.lft.to/lastmile_qr_scan", "android": "https://dc.lft.to/lastmile_qr_scan"}, "fusion_lon": 0.0, "fusion_lat": 0.0, "bike_id": "021fd92d1479fc8e1ca975a5c9e418a8", "name": "021fd92d1479fc8e1ca975a5c9e418a8", "lon": -77.029666}, {"is_disabled": 0, "type": "electric_scooter", "is_reserved": 0, "lat": 38.8841015, "rental_uris": {"ios": "https://dc.lft.to/lastmile_qr_scan", "android": "https://dc.lft.to/lastmile_qr_scan"}, "fusion_lon": 0.0, "fusion_lat": 0.0, "bike_id": "602d42dcc401cf45b48d2cd1b3c0709e", "name": "602d42dcc401cf45b48d2cd1b3c0709e", "lon": -77.0154545}, {"is_disabled": 0, "type": "electric_scooter", "is_reserved": 0, "lat": 38.90185866666667, "rental_uris": {"ios": "https://dc.lft.to/lastmile_qr_scan", "android": "https://dc.lft.to/lastmile_qr_scan"}, "fusion_lon": 0.0, "fusion_lat": 0.0, "bike_id": "b8fb6b483a3386502fb1a85ba1049003", "name": "b8fb6b483a3386502fb1a85ba1049003", "lon": -76.99035933333333}, {"is_disabled": 0, "type": "electric_scooter", "is_reserved": 0, "lat": 38.89222483333333, "rental_uris": {"ios": "https://dc.lft.to/lastmile_qr_scan", "android": "https://dc.lft.to/lastmile_qr_scan"}, "fusion_lon": 0.0, "fusion_lat": 0.0, "bike_id": "40ab291fbfc00da460efbd828112d570", "name": "40ab291fbfc00da460efbd828112d570", "lon": -77.04330833333333}, {"is_disabled": 0, "type": "electric_scooter", "is_reserved": 0, "lat": 38.892736166666666, "rental_uris": {"ios": "https://dc.lft.to/lastmile_qr_scan", "android": "https://dc.lft.to/lastmile_qr_scan"}, "fusion_lon": 0.0, "fusion_lat": 0.0, "bike_id": "6fd3a2108590bfcf99403c858a177a6c", "name": "6fd3a2108590bfcf99403c858a177a6c", "lon": -77.0201855}, {"is_disabled": 0, "type": "electric_scooter", "is_reserved": 0, "lat": 38.92359416666667, "rental_uris": {"ios": "https://dc.lft.to/lastmile_qr_scan", "android": "https://dc.lft.to/lastmile_qr_scan"}, "fusion_lon": 0.0, "fusion_lat": 0.0, "bike_id": "75129b55869b67160fa64f520653708a", "name": "75129b55869b67160fa64f520653708a", "lon": -77.051354}, {"is_disabled": 0, "type": "electric_scooter", "is_reserved": 0, "lat": 38.90582416666667, "rental_uris": {"ios": "https://dc.lft.to/lastmile_qr_scan", "android": "https://dc.lft.to/lastmile_qr_scan"}, "fusion_lon": 0.0, "fusion_lat": 0.0, "bike_id": "b0ef4408917c3c4218828a9fd0caaa92", "name": "b0ef4408917c3c4218828a9fd0caaa92", "lon": -77.00605933333334}, {"is_disabled": 0, "type": "electric_scooter", "is_reserved": 0, "lat": 38.91727, "rental_uris": {"ios": "https://dc.lft.to/lastmile_qr_scan", "android": "https://dc.lft.to/lastmile_qr_scan"}, "fusion_lon": 0.0, "fusion_lat": 0.0, "bike_id": "0f1a33057ab23ad073f596ce12918f26", "name": "0f1a33057ab23ad073f596ce12918f26", "lon": -77.04607116666666}, {"is_disabled": 0, "type": "electric_scooter", "is_reserved": 0, "lat": 38.92612583333333, "rental_uris": {"ios": "https://dc.lft.to/lastmile_qr_scan", "android": "https://dc.lft.to/lastmile_qr_scan"}, "fusion_lon": 0.0, "fusion_lat": 0.0, "bike_id": "41e20f90ed9113bd38d7c986c7e449b7", "name": "41e20f90ed9113bd38d7c986c7e449b7", "lon": -77.02161283333334}, {"is_disabled": 0, "type": "electric_bike", "is_reserved": 0, "lat": 38.900989, "rental_uris": {"ios": "https://dc.lft.to/lastmile_qr_scan", "android": "https://dc.lft.to/lastmile_qr_scan"}, "fusion_lon": 0.0, "fusion_lat": 0.0, "bike_id": "98e2715ea057450ad2f8ab053b0a13e6", "name": "98e2715ea057450ad2f8ab053b0a13e6", "lon": -77.04869433333333}, {"is_disabled": 0, "type": "electric_scooter", "is_reserved": 0, "lat": 38.9214995, "rental_uris": {"ios": "https://dc.lft.to/lastmile_qr_scan", "android": "https://dc.lft.to/lastmile_qr_scan"}, "fusion_lon": 0.0, "fusion_lat": 0.0, "bike_id": "a61d9010256cd8a7e692f2fea2591ac1", "name": "a61d9010256cd8a7e692f2fea2591ac1", "lon": -77.02426516666667}, {"is_disabled": 0, "type": "electric_scooter", "is_reserved": 0, "lat": 38.90659683333333, "rental_uris": {"ios": "https://dc.lft.to/lastmile_qr_scan", "android": "https://dc.lft.to/lastmile_qr_scan"}, "fusion_lon": 0.0, "fusion_lat": 0.0, "bike_id": "1cd6b4fc6c87d29ea88bd2bd28936ff7", "name": "1cd6b4fc6c87d29ea88bd2bd28936ff7", "lon": -77.02697933333333}, {"is_disabled": 0, "type": "electric_scooter", "is_reserved": 0, "lat": 38.94686083333333, "rental_uris": {"ios": "https://dc.lft.to/lastmile_qr_scan", "android": "https://dc.lft.to/lastmile_qr_scan"}, "fusion_lon": 0.0, "fusion_lat": 0.0, "bike_id": "0b29dea82e100e211f08f23c84870dec", "name": "0b29dea82e100e211f08f23c84870dec", "lon": -76.9991245}, {"is_disabled": 0, "type": "electric_scooter", "is_reserved": 0, "lat": 38.9268, "rental_uris": {"ios": "https://dc.lft.to/lastmile_qr_scan", "android": "https://dc.lft.to/lastmile_qr_scan"}, "fusion_lon": 0.0, "fusion_lat": 0.0, "bike_id": "cdd1d0da973281678b41f542afbabadd", "name": "cdd1d0da973281678b41f542afbabadd", "lon": -77.01576833333333}, {"is_disabled": 0, "type": "electric_scooter", "is_reserved": 0, "lat": 38.896272333333336, "rental_uris": {"ios": "https://dc.lft.to/lastmile_qr_scan", "android": "https://dc.lft.to/lastmile_qr_scan"}, "fusion_lon": 0.0, "fusion_lat": 0.0, "bike_id": "c9a9b07b5fe83340b231f0124bbbf7d8", "name": "c9a9b07b5fe83340b231f0124bbbf7d8", "lon": -77.02203166666666}, {"is_disabled": 0, "type": "electric_scooter", "is_reserved": 0, "lat": 38.866973333333334, "rental_uris": {"ios": "https://dc.lft.to/lastmile_qr_scan", "android": "https://dc.lft.to/lastmile_qr_scan"}, "fusion_lon": 0.0, "fusion_lat": 0.0, "bike_id": "d07b96f8c952a6be5d1e0bee9e94b2e1", "name": "d07b96f8c952a6be5d1e0bee9e94b2e1", "lon": -76.98717}, {"is_disabled": 0, "type": "electric_scooter", "is_reserved": 0, "lat": 38.87525983333333, "rental_uris": {"ios": "https://dc.lft.to/lastmile_qr_scan", "android": "https://dc.lft.to/lastmile_qr_scan"}, "fusion_lon": 0.0, "fusion_lat": 0.0, "bike_id": "583aeb1cee22981e3b5009e234133aa8", "name": "583aeb1cee22981e3b5009e234133aa8", "lon": -77.00073966666666}, {"is_disabled": 0, "type": "electric_scooter", "is_reserved": 0, "lat": 38.9176205, "rental_uris": {"ios": "https://dc.lft.to/lastmile_qr_scan", "android": "https://dc.lft.to/lastmile_qr_scan"}, "fusion_lon": 0.0, "fusion_lat": 0.0, "bike_id": "4d3dc71ef23ee6747bda8ae3187623f6", "name": "4d3dc71ef23ee6747bda8ae3187623f6", "lon": -77.023173}, {"is_disabled": 0, "type": "electric_scooter", "is_reserved": 0, "lat": 38.913186, "rental_uris": {"ios": "https://dc.lft.to/lastmile_qr_scan", "android": "https://dc.lft.to/lastmile_qr_scan"}, "fusion_lon": 0.0, "fusion_lat": 0.0, "bike_id": "c8ee51523b079aba2b3c1e90039ec99d", "name": "c8ee51523b079aba2b3c1e90039ec99d", "lon": -77.03325216666667}, {"is_disabled": 0, "type": "electric_scooter", "is_reserved": 0, "lat": 38.9461295, "rental_uris": {"ios": "https://dc.lft.to/lastmile_qr_scan", "android": "https://dc.lft.to/lastmile_qr_scan"}, "fusion_lon": 0.0, "fusion_lat": 0.0, "bike_id": "83ec0c340340b14837a0a8209ab66056", "name": "83ec0c340340b14837a0a8209ab66056", "lon": -77.02352166666667}, {"is_disabled": 0, "type": "electric_scooter", "is_reserved": 0, "lat": 38.921593333333334, "rental_uris": {"ios": "https://dc.lft.to/lastmile_qr_scan", "android": "https://dc.lft.to/lastmile_qr_scan"}, "fusion_lon": 0.0, "fusion_lat": 0.0, "bike_id": "5f7d72192bc16479551a3de10bb96d15", "name": "5f7d72192bc16479551a3de10bb96d15", "lon": -77.03319483333334}, {"is_disabled": 0, "type": "electric_scooter", "is_reserved": 0, "lat": 38.892875833333335, "rental_uris": {"ios": "https://dc.lft.to/lastmile_qr_scan", "android": "https://dc.lft.to/lastmile_qr_scan"}, "fusion_lon": 0.0, "fusion_lat": 0.0, "bike_id": "cbea5b5f95107b4304931e784c69a837", "name": "cbea5b5f95107b4304931e784c69a837", "lon": -77.04186133333333}, {"is_disabled": 0, "type": "electric_scooter", "is_reserved": 0, "lat": 38.904003833333334, "rental_uris": {"ios": "https://dc.lft.to/lastmile_qr_scan", "android": "https://dc.lft.to/lastmile_qr_scan"}, "fusion_lon": 0.0, "fusion_lat": 0.0, "bike_id": "67d224933ffd5ad6fc7e9a6f8b33a9f4", "name": "67d224933ffd5ad6fc7e9a6f8b33a9f4", "lon": -77.04352583333333}, {"is_disabled": 0, "type": "electric_scooter", "is_reserved": 0, "lat": 38.94182133333333, "rental_uris": {"ios": "https://dc.lft.to/lastmile_qr_scan", "android": "https://dc.lft.to/lastmile_qr_scan"}, "fusion_lon": 0.0, "fusion_lat": 0.0, "bike_id": "9d9996512a817efbfbcb4d5f4975cb58", "name": "9d9996512a817efbfbcb4d5f4975cb58", "lon": -77.024917}, {"is_disabled": 0, "type": "electric_scooter", "is_reserved": 0, "lat": 38.86201116666667, "rental_uris": {"ios": "https://dc.lft.to/lastmile_qr_scan", "android": "https://dc.lft.to/lastmile_qr_scan"}, "fusion_lon": 0.0, "fusion_lat": 0.0, "bike_id": "8308224b20efeff5e687174b270a8bf5", "name": "8308224b20efeff5e687174b270a8bf5", "lon": -76.99128433333334}, {"is_disabled": 0, "type": "electric_scooter", "is_reserved": 0, "lat": 38.9171245, "rental_uris": {"ios": "https://dc.lft.to/lastmile_qr_scan", "android": "https://dc.lft.to/lastmile_qr_scan"}, "fusion_lon": 0.0, "fusion_lat": 0.0, "bike_id": "1be46c4b556498a29ac2e163e49b9927", "name": "1be46c4b556498a29ac2e163e49b9927", "lon": -77.0289905}, {"is_disabled": 0, "type": "electric_scooter", "is_reserved": 0, "lat": 38.90371233333333, "rental_uris": {"ios": "https://dc.lft.to/lastmile_qr_scan", "android": "https://dc.lft.to/lastmile_qr_scan"}, "fusion_lon": 0.0, "fusion_lat": 0.0, "bike_id": "571c2be4e7ffef534043105953d5b217", "name": "571c2be4e7ffef534043105953d5b217", "lon": -77.03301683333333}, {"is_disabled": 0, "type": "electric_scooter", "is_reserved": 0, "lat": 38.917085666666665, "rental_uris": {"ios": "https://dc.lft.to/lastmile_qr_scan", "android": "https://dc.lft.to/lastmile_qr_scan"}, "fusion_lon": 0.0, "fusion_lat": 0.0, "bike_id": "e3fc1e330b89ffbfbef21bc1bfa5bc1c", "name": "e3fc1e330b89ffbfbef21bc1bfa5bc1c", "lon": -77.01032133333334}, {"is_disabled": 0, "type": "electric_scooter", "is_reserved": 0, "lat": 38.90966216666666, "rental_uris": {"ios": "https://dc.lft.to/lastmile_qr_scan", "android": "https://dc.lft.to/lastmile_qr_scan"}, "fusion_lon": 0.0, "fusion_lat": 0.0, "bike_id": "9dbe8294ab7bf128d5c28b70b83e92de", "name": "9dbe8294ab7bf128d5c28b70b83e92de", "lon": -77.034419}, {"is_disabled": 0, "type": "electric_scooter", "is_reserved": 0, "lat": 38.8730775, "rental_uris": {"ios": "https://dc.lft.to/lastmile_qr_scan", "android": "https://dc.lft.to/lastmile_qr_scan"}, "fusion_lon": 0.0, "fusion_lat": 0.0, "bike_id": "5ba047475a6a094ca4c9c5ff36f61323", "name": "5ba047475a6a094ca4c9c5ff36f61323", "lon": -77.00579983333333}, {"is_disabled": 0, "type": "electric_bike", "is_reserved": 0, "lat": 38.9286845, "rental_uris": {"ios": "https://dc.lft.to/lastmile_qr_scan", "android": "https://dc.lft.to/lastmile_qr_scan"}, "fusion_lon": 0.0, "fusion_lat": 0.0, "bike_id": "7c26b106564095dfe1d24a41a552f6d6", "name": "7c26b106564095dfe1d24a41a552f6d6", "lon": -77.05667316666667}, {"is_disabled": 0, "type": "electric_scooter", "is_reserved": 0, "lat": 38.94714866666666, "rental_uris": {"ios": "https://dc.lft.to/lastmile_qr_scan", "android": "https://dc.lft.to/lastmile_qr_scan"}, "fusion_lon": 0.0, "fusion_lat": 0.0, "bike_id": "68d57a8629a05bc66e602365cf1d922e", "name": "68d57a8629a05bc66e602365cf1d922e", "lon": -77.03298066666666}, {"is_disabled": 0, "type": "electric_scooter", "is_reserved": 0, "lat": 38.89849816666667, "rental_uris": {"ios": "https://dc.lft.to/lastmile_qr_scan", "android": "https://dc.lft.to/lastmile_qr_scan"}, "fusion_lon": 0.0, "fusion_lat": 0.0, "bike_id": "3bb323e5a6fd43a37ae978230aede47b", "name": "3bb323e5a6fd43a37ae978230aede47b", "lon": -77.02916116666667}, {"is_disabled": 0, "type": "electric_scooter", "is_reserved": 0, "lat": 38.9103915, "rental_uris": {"ios": "https://dc.lft.to/lastmile_qr_scan", "android": "https://dc.lft.to/lastmile_qr_scan"}, "fusion_lon": 0.0, "fusion_lat": 0.0, "bike_id": "b786204fa0c252df05fc3df1b78972f4", "name": "b786204fa0c252df05fc3df1b78972f4", "lon": -77.043571}, {"is_disabled": 0, "type": "electric_scooter", "is_reserved": 0, "lat": 38.90267166666667, "rental_uris": {"ios": "https://dc.lft.to/lastmile_qr_scan", "android": "https://dc.lft.to/lastmile_qr_scan"}, "fusion_lon": 0.0, "fusion_lat": 0.0, "bike_id": "7864ef7ba0864666678f3a371e46d135", "name": "7864ef7ba0864666678f3a371e46d135", "lon": -77.03476533333334}, {"is_disabled": 0, "type": "electric_scooter", "is_reserved": 0, "lat": 38.89947133333333, "rental_uris": {"ios": "https://dc.lft.to/lastmile_qr_scan", "android": "https://dc.lft.to/lastmile_qr_scan"}, "fusion_lon": 0.0, "fusion_lat": 0.0, "bike_id": "0e2bbddb384579a317b1b5783b118a3b", "name": "0e2bbddb384579a317b1b5783b118a3b", "lon": -77.04674516666667}, {"is_disabled": 0, "type": "electric_scooter", "is_reserved": 0, "lat": 38.90028183333333, "rental_uris": {"ios": "https://dc.lft.to/lastmile_qr_scan", "android": "https://dc.lft.to/lastmile_qr_scan"}, "fusion_lon": 0.0, "fusion_lat": 0.0, "bike_id": "c7b3fde1c4e18d672a31d71b9a1878ac", "name": "c7b3fde1c4e18d672a31d71b9a1878ac", "lon": -76.98834916666667}, {"is_disabled": 0, "type": "electric_scooter", "is_reserved": 0, "lat": 38.89999483333333, "rental_uris": {"ios": "https://dc.lft.to/lastmile_qr_scan", "android": "https://dc.lft.to/lastmile_qr_scan"}, "fusion_lon": 0.0, "fusion_lat": 0.0, "bike_id": "e6698d2f5939fe95955f5842bc1eeed9", "name": "e6698d2f5939fe95955f5842bc1eeed9", "lon": -76.99309766666667}, {"is_disabled": 0, "type": "electric_scooter", "is_reserved": 0, "lat": 38.930805, "rental_uris": {"ios": "https://dc.lft.to/lastmile_qr_scan", "android": "https://dc.lft.to/lastmile_qr_scan"}, "fusion_lon": 0.0, "fusion_lat": 0.0, "bike_id": "00013a75d2011c3249587180a758290a", "name": "00013a75d2011c3249587180a758290a", "lon": -77.02806166666667}, {"is_disabled": 0, "type": "electric_scooter", "is_reserved": 0, "lat": 38.921633166666666, "rental_uris": {"ios": "https://dc.lft.to/lastmile_qr_scan", "android": "https://dc.lft.to/lastmile_qr_scan"}, "fusion_lon": 0.0, "fusion_lat": 0.0, "bike_id": "5c53bbd510aac6a68640a5bddc59f567", "name": "5c53bbd510aac6a68640a5bddc59f567", "lon": -77.04122466666666}, {"is_disabled": 0, "type": "electric_scooter", "is_reserved": 0, "lat": 38.9088855, "rental_uris": {"ios": "https://dc.lft.to/lastmile_qr_scan", "android": "https://dc.lft.to/lastmile_qr_scan"}, "fusion_lon": 0.0, "fusion_lat": 0.0, "bike_id": "85b0b1b42a1f6776545cb2a1abba5f3b", "name": "85b0b1b42a1f6776545cb2a1abba5f3b", "lon": -77.03831483333333}, {"is_disabled": 0, "type": "electric_scooter", "is_reserved": 0, "lat": 38.92430683333333, "rental_uris": {"ios": "https://dc.lft.to/lastmile_qr_scan", "android": "https://dc.lft.to/lastmile_qr_scan"}, "fusion_lon": 0.0, "fusion_lat": 0.0, "bike_id": "3ceec5dad72a22b23c54a825c91c8c58", "name": "3ceec5dad72a22b23c54a825c91c8c58", "lon": -77.04005366666667}, {"is_disabled": 0, "type": "electric_scooter", "is_reserved": 0, "lat": 38.89223483333333, "rental_uris": {"ios": "https://dc.lft.to/lastmile_qr_scan", "android": "https://dc.lft.to/lastmile_qr_scan"}, "fusion_lon": 0.0, "fusion_lat": 0.0, "bike_id": "1adf111ab95bde49ef74ae367935cabf", "name": "1adf111ab95bde49ef74ae367935cabf", "lon": -77.0418315}, {"is_disabled": 0, "type": "electric_scooter", "is_reserved": 0, "lat": 38.926643, "rental_uris": {"ios": "https://dc.lft.to/lastmile_qr_scan", "android": "https://dc.lft.to/lastmile_qr_scan"}, "fusion_lon": 0.0, "fusion_lat": 0.0, "bike_id": "2b83f5f43854151bb80b590958ba89db", "name": "2b83f5f43854151bb80b590958ba89db", "lon": -77.01481716666666}, {"is_disabled": 0, "type": "electric_bike", "is_reserved": 0, "lat": 38.92457016666667, "rental_uris": {"ios": "https://dc.lft.to/lastmile_qr_scan", "android": "https://dc.lft.to/lastmile_qr_scan"}, "fusion_lon": 0.0, "fusion_lat": 0.0, "bike_id": "68eb5b9067023849c4109b3c05d81c7e", "name": "68eb5b9067023849c4109b3c05d81c7e", "lon": -77.05204316666666}, {"is_disabled": 0, "type": "electric_scooter", "is_reserved": 0, "lat": 38.88744333333333, "rental_uris": {"ios": "https://dc.lft.to/lastmile_qr_scan", "android": "https://dc.lft.to/lastmile_qr_scan"}, "fusion_lon": 0.0, "fusion_lat": 0.0, "bike_id": "82f003ab4caf472fd1c61645e3b8405a", "name": "82f003ab4caf472fd1c61645e3b8405a", "lon": -77.02833716666666}, {"is_disabled": 0, "type": "electric_scooter", "is_reserved": 0, "lat": 38.913625, "rental_uris": {"ios": "https://dc.lft.to/lastmile_qr_scan", "android": "https://dc.lft.to/lastmile_qr_scan"}, "fusion_lon": 0.0, "fusion_lat": 0.0, "bike_id": "1978482280fd467aadaec4147adf2d7e", "name": "1978482280fd467aadaec4147adf2d7e", "lon": -77.04487616666667}, {"is_disabled": 0, "type": "electric_bike", "is_reserved": 0, "lat": 38.9613385, "rental_uris": {"ios": "https://dc.lft.to/lastmile_qr_scan", "android": "https://dc.lft.to/lastmile_qr_scan"}, "fusion_lon": 0.0, "fusion_lat": 0.0, "bike_id": "37d53e9a3f9c2ba6bc2cb072ad678373", "name": "37d53e9a3f9c2ba6bc2cb072ad678373", "lon": -77.00977483333334}, {"is_disabled": 0, "type": "electric_scooter", "is_reserved": 0, "lat": 38.890157333333335, "rental_uris": {"ios": "https://dc.lft.to/lastmile_qr_scan", "android": "https://dc.lft.to/lastmile_qr_scan"}, "fusion_lon": 0.0, "fusion_lat": 0.0, "bike_id": "64779fd897ec2fb99957744f77ec59dc", "name": "64779fd897ec2fb99957744f77ec59dc", "lon": -76.9374775}, {"is_disabled": 0, "type": "electric_scooter", "is_reserved": 0, "lat": 38.887429166666664, "rental_uris": {"ios": "https://dc.lft.to/lastmile_qr_scan", "android": "https://dc.lft.to/lastmile_qr_scan"}, "fusion_lon": 0.0, "fusion_lat": 0.0, "bike_id": "f591c8b563a49ccc15142ba1ce1674e1", "name": "f591c8b563a49ccc15142ba1ce1674e1", "lon": -77.0140715}, {"is_disabled": 0, "type": "electric_scooter", "is_reserved": 0, "lat": 38.88986083333333, "rental_uris": {"ios": "https://dc.lft.to/lastmile_qr_scan", "android": "https://dc.lft.to/lastmile_qr_scan"}, "fusion_lon": 0.0, "fusion_lat": 0.0, "bike_id": "694acad772e730032a65fa9c5c563bcd", "name": "694acad772e730032a65fa9c5c563bcd", "lon": -77.0033745}, {"is_disabled": 0, "type": "electric_scooter", "is_reserved": 0, "lat": 38.9026585, "rental_uris": {"ios": "https://dc.lft.to/lastmile_qr_scan", "android": "https://dc.lft.to/lastmile_qr_scan"}, "fusion_lon": 0.0, "fusion_lat": 0.0, "bike_id": "8dbea1ee8de17090be36472b91692191", "name": "8dbea1ee8de17090be36472b91692191", "lon": -77.03069}, {"is_disabled": 0, "type": "electric_scooter", "is_reserved": 0, "lat": 38.9203595, "rental_uris": {"ios": "https://dc.lft.to/lastmile_qr_scan", "android": "https://dc.lft.to/lastmile_qr_scan"}, "fusion_lon": 0.0, "fusion_lat": 0.0, "bike_id": "94ddabd899f838f967d376a621e59e66", "name": "94ddabd899f838f967d376a621e59e66", "lon": -77.030824}, {"is_disabled": 0, "type": "electric_scooter", "is_reserved": 0, "lat": 38.923409666666664, "rental_uris": {"ios": "https://dc.lft.to/lastmile_qr_scan", "android": "https://dc.lft.to/lastmile_qr_scan"}, "fusion_lon": 0.0, "fusion_lat": 0.0, "bike_id": "cb6c10286af52b90b806c96dacbee7f7", "name": "cb6c10286af52b90b806c96dacbee7f7", "lon": -77.05129866666667}, {"is_disabled": 0, "type": "electric_scooter", "is_reserved": 0, "lat": 38.844341666666665, "rental_uris": {"ios": "https://dc.lft.to/lastmile_qr_scan", "android": "https://dc.lft.to/lastmile_qr_scan"}, "fusion_lon": 0.0, "fusion_lat": 0.0, "bike_id": "19ed0ca5a3cc221efb9cc06549a4cf8c", "name": "19ed0ca5a3cc221efb9cc06549a4cf8c", "lon": -76.99708516666666}, {"is_disabled": 0, "type": "electric_scooter", "is_reserved": 0, "lat": 38.9147685, "rental_uris": {"ios": "https://dc.lft.to/lastmile_qr_scan", "android": "https://dc.lft.to/lastmile_qr_scan"}, "fusion_lon": 0.0, "fusion_lat": 0.0, "bike_id": "63e53315b3db7e8590398fd7d9609607", "name": "63e53315b3db7e8590398fd7d9609607", "lon": -77.0319575}, {"is_disabled": 0, "type": "electric_scooter", "is_reserved": 0, "lat": 38.9112535, "rental_uris": {"ios": "https://dc.lft.to/lastmile_qr_scan", "android": "https://dc.lft.to/lastmile_qr_scan"}, "fusion_lon": 0.0, "fusion_lat": 0.0, "bike_id": "2234f70377fb4a75284f23e3c1976621", "name": "2234f70377fb4a75284f23e3c1976621", "lon": -77.02693466666666}, {"is_disabled": 0, "type": "electric_scooter", "is_reserved": 0, "lat": 38.89358, "rental_uris": {"ios": "https://dc.lft.to/lastmile_qr_scan", "android": "https://dc.lft.to/lastmile_qr_scan"}, "fusion_lon": 0.0, "fusion_lat": 0.0, "bike_id": "deab57ce3f541ef436d39051d439a398", "name": "deab57ce3f541ef436d39051d439a398", "lon": -77.00336033333333}, {"is_disabled": 0, "type": "electric_scooter", "is_reserved": 0, "lat": 38.90954033333333, "rental_uris": {"ios": "https://dc.lft.to/lastmile_qr_scan", "android": "https://dc.lft.to/lastmile_qr_scan"}, "fusion_lon": 0.0, "fusion_lat": 0.0, "bike_id": "a0327ac937ab21cc42963086e695975d", "name": "a0327ac937ab21cc42963086e695975d", "lon": -77.022826}, {"is_disabled": 0, "type": "electric_bike", "is_reserved": 0, "lat": 38.90482466666667, "rental_uris": {"ios": "https://dc.lft.to/lastmile_qr_scan", "android": "https://dc.lft.to/lastmile_qr_scan"}, "fusion_lon": 0.0, "fusion_lat": 0.0, "bike_id": "060e4d3d398e3d848121891b849ba2b9", "name": "060e4d3d398e3d848121891b849ba2b9", "lon": -77.068047}, {"is_disabled": 0, "type": "electric_scooter", "is_reserved": 0, "lat": 38.90308266666667, "rental_uris": {"ios": "https://dc.lft.to/lastmile_qr_scan", "android": "https://dc.lft.to/lastmile_qr_scan"}, "fusion_lon": 0.0, "fusion_lat": 0.0, "bike_id": "e2ce69a47b8ee1a768d0440830374c05", "name": "e2ce69a47b8ee1a768d0440830374c05", "lon": -77.04001983333333}, {"is_disabled": 0, "type": "electric_scooter", "is_reserved": 0, "lat": 38.917212, "rental_uris": {"ios": "https://dc.lft.to/lastmile_qr_scan", "android": "https://dc.lft.to/lastmile_qr_scan"}, "fusion_lon": 0.0, "fusion_lat": 0.0, "bike_id": "191b80ac653475560cfca48a12d9f023", "name": "191b80ac653475560cfca48a12d9f023", "lon": -77.02970416666666}, {"is_disabled": 0, "type": "electric_scooter", "is_reserved": 0, "lat": 38.910515333333336, "rental_uris": {"ios": "https://dc.lft.to/lastmile_qr_scan", "android": "https://dc.lft.to/lastmile_qr_scan"}, "fusion_lon": 0.0, "fusion_lat": 0.0, "bike_id": "7c36164d6aa69538e62ca668b3bb4d5b", "name": "7c36164d6aa69538e62ca668b3bb4d5b", "lon": -77.04837583333334}, {"is_disabled": 0, "type": "electric_scooter", "is_reserved": 0, "lat": 38.89963683333333, "rental_uris": {"ios": "https://dc.lft.to/lastmile_qr_scan", "android": "https://dc.lft.to/lastmile_qr_scan"}, "fusion_lon": 0.0, "fusion_lat": 0.0, "bike_id": "0e50ab7a13377be2db7e59e2729e04c5", "name": "0e50ab7a13377be2db7e59e2729e04c5", "lon": -76.93971533333334}, {"is_disabled": 0, "type": "electric_scooter", "is_reserved": 0, "lat": 38.89350316666667, "rental_uris": {"ios": "https://dc.lft.to/lastmile_qr_scan", "android": "https://dc.lft.to/lastmile_qr_scan"}, "fusion_lon": 0.0, "fusion_lat": 0.0, "bike_id": "6f8315412374c7bbe4dc529af579649a", "name": "6f8315412374c7bbe4dc529af579649a", "lon": -77.0414295}, {"is_disabled": 0, "type": "electric_scooter", "is_reserved": 0, "lat": 38.91681166666667, "rental_uris": {"ios": "https://dc.lft.to/lastmile_qr_scan", "android": "https://dc.lft.to/lastmile_qr_scan"}, "fusion_lon": 0.0, "fusion_lat": 0.0, "bike_id": "e7cd8b332b2466dd3e699f2ebfac43f6", "name": "e7cd8b332b2466dd3e699f2ebfac43f6", "lon": -77.0369135}, {"is_disabled": 0, "type": "electric_scooter", "is_reserved": 0, "lat": 38.900393333333334, "rental_uris": {"ios": "https://dc.lft.to/lastmile_qr_scan", "android": "https://dc.lft.to/lastmile_qr_scan"}, "fusion_lon": 0.0, "fusion_lat": 0.0, "bike_id": "93fce4d2be93c72df1e0af2ce5270478", "name": "93fce4d2be93c72df1e0af2ce5270478", "lon": -77.029073}, {"is_disabled": 0, "type": "electric_scooter", "is_reserved": 0, "lat": 38.923420166666666, "rental_uris": {"ios": "https://dc.lft.to/lastmile_qr_scan", "android": "https://dc.lft.to/lastmile_qr_scan"}, "fusion_lon": 0.0, "fusion_lat": 0.0, "bike_id": "5cc47e277ca3e20052e80bbb15411dbc", "name": "5cc47e277ca3e20052e80bbb15411dbc", "lon": -77.05126766666666}, {"is_disabled": 0, "type": "electric_scooter", "is_reserved": 0, "lat": 38.922532333333336, "rental_uris": {"ios": "https://dc.lft.to/lastmile_qr_scan", "android": "https://dc.lft.to/lastmile_qr_scan"}, "fusion_lon": 0.0, "fusion_lat": 0.0, "bike_id": "e3797b00a7c83fd5de729adeeaf4849e", "name": "e3797b00a7c83fd5de729adeeaf4849e", "lon": -77.01953466666667}, {"is_disabled": 0, "type": "electric_scooter", "is_reserved": 0, "lat": 38.902449833333336, "rental_uris": {"ios": "https://dc.lft.to/lastmile_qr_scan", "android": "https://dc.lft.to/lastmile_qr_scan"}, "fusion_lon": 0.0, "fusion_lat": 0.0, "bike_id": "c42c1a5ea15fdfbe41529d3ca465ae2d", "name": "c42c1a5ea15fdfbe41529d3ca465ae2d", "lon": -77.032267}, {"is_disabled": 0, "type": "electric_scooter", "is_reserved": 0, "lat": 38.92310283333333, "rental_uris": {"ios": "https://dc.lft.to/lastmile_qr_scan", "android": "https://dc.lft.to/lastmile_qr_scan"}, "fusion_lon": 0.0, "fusion_lat": 0.0, "bike_id": "e3c1065ea90cc41d286b56a2edacd8f7", "name": "e3c1065ea90cc41d286b56a2edacd8f7", "lon": -77.0422425}, {"is_disabled": 0, "type": "electric_scooter", "is_reserved": 0, "lat": 38.90448133333334, "rental_uris": {"ios": "https://dc.lft.to/lastmile_qr_scan", "android": "https://dc.lft.to/lastmile_qr_scan"}, "fusion_lon": 0.0, "fusion_lat": 0.0, "bike_id": "98fe78f77818b2c11b262da0517ea33a", "name": "98fe78f77818b2c11b262da0517ea33a", "lon": -77.04173083333333}, {"is_disabled": 0, "type": "electric_scooter", "is_reserved": 0, "lat": 38.95388633333334, "rental_uris": {"ios": "https://dc.lft.to/lastmile_qr_scan", "android": "https://dc.lft.to/lastmile_qr_scan"}, "fusion_lon": 0.0, "fusion_lat": 0.0, "bike_id": "d1cf02cc2e86c9f2e524b2f813705ecf", "name": "d1cf02cc2e86c9f2e524b2f813705ecf", "lon": -77.02796616666667}, {"is_disabled": 0, "type": "electric_scooter", "is_reserved": 0, "lat": 38.8877975, "rental_uris": {"ios": "https://dc.lft.to/lastmile_qr_scan", "android": "https://dc.lft.to/lastmile_qr_scan"}, "fusion_lon": 0.0, "fusion_lat": 0.0, "bike_id": "905899ed27daae834d24e1bbea1e6fc4", "name": "905899ed27daae834d24e1bbea1e6fc4", "lon": -76.95126033333334}, {"is_disabled": 0, "type": "electric_scooter", "is_reserved": 0, "lat": 38.91489216666667, "rental_uris": {"ios": "https://dc.lft.to/lastmile_qr_scan", "android": "https://dc.lft.to/lastmile_qr_scan"}, "fusion_lon": 0.0, "fusion_lat": 0.0, "bike_id": "938c7d0256494f73c5046e95910618c3", "name": "938c7d0256494f73c5046e95910618c3", "lon": -77.03126316666666}, {"is_disabled": 0, "type": "electric_scooter", "is_reserved": 0, "lat": 38.918143666666666, "rental_uris": {"ios": "https://dc.lft.to/lastmile_qr_scan", "android": "https://dc.lft.to/lastmile_qr_scan"}, "fusion_lon": 0.0, "fusion_lat": 0.0, "bike_id": "754412367d36caa6d3e7f415f9b7d8de", "name": "754412367d36caa6d3e7f415f9b7d8de", "lon": -77.03830983333333}, {"is_disabled": 0, "type": "electric_scooter", "is_reserved": 0, "lat": 38.92417233333333, "rental_uris": {"ios": "https://dc.lft.to/lastmile_qr_scan", "android": "https://dc.lft.to/lastmile_qr_scan"}, "fusion_lon": 0.0, "fusion_lat": 0.0, "bike_id": "47ebab921d4a423d49e7dddb57e4a719", "name": "47ebab921d4a423d49e7dddb57e4a719", "lon": -77.05057816666667}, {"is_disabled": 0, "type": "electric_bike", "is_reserved": 0, "lat": 38.903289, "rental_uris": {"ios": "https://dc.lft.to/lastmile_qr_scan", "android": "https://dc.lft.to/lastmile_qr_scan"}, "fusion_lon": 0.0, "fusion_lat": 0.0, "bike_id": "4dd50b9f30997ce5b00b47fcf08e50b7", "name": "4dd50b9f30997ce5b00b47fcf08e50b7", "lon": -76.97595683333333}, {"is_disabled": 0, "type": "electric_scooter", "is_reserved": 0, "lat": 38.8922405, "rental_uris": {"ios": "https://dc.lft.to/lastmile_qr_scan", "android": "https://dc.lft.to/lastmile_qr_scan"}, "fusion_lon": 0.0, "fusion_lat": 0.0, "bike_id": "d4b11c82c999acdd6a8115c9e678a104", "name": "d4b11c82c999acdd6a8115c9e678a104", "lon": -77.0465545}, {"is_disabled": 0, "type": "electric_scooter", "is_reserved": 0, "lat": 38.920134833333336, "rental_uris": {"ios": "https://dc.lft.to/lastmile_qr_scan", "android": "https://dc.lft.to/lastmile_qr_scan"}, "fusion_lon": 0.0, "fusion_lat": 0.0, "bike_id": "00e5e3c4304df4e376990cd8bc01012d", "name": "00e5e3c4304df4e376990cd8bc01012d", "lon": -77.04409016666666}, {"is_disabled": 0, "type": "electric_scooter", "is_reserved": 0, "lat": 38.904931, "rental_uris": {"ios": "https://dc.lft.to/lastmile_qr_scan", "android": "https://dc.lft.to/lastmile_qr_scan"}, "fusion_lon": 0.0, "fusion_lat": 0.0, "bike_id": "d5235131180c6702039ef4a45f5d0d3f", "name": "d5235131180c6702039ef4a45f5d0d3f", "lon": -76.94963166666666}, {"is_disabled": 0, "type": "electric_scooter", "is_reserved": 0, "lat": 38.91728033333333, "rental_uris": {"ios": "https://dc.lft.to/lastmile_qr_scan", "android": "https://dc.lft.to/lastmile_qr_scan"}, "fusion_lon": 0.0, "fusion_lat": 0.0, "bike_id": "c8821be86773e0287e9c4ae99183542f", "name": "c8821be86773e0287e9c4ae99183542f", "lon": -77.04178066666667}, {"is_disabled": 0, "type": "electric_scooter", "is_reserved": 0, "lat": 38.871923833333334, "rental_uris": {"ios": "https://dc.lft.to/lastmile_qr_scan", "android": "https://dc.lft.to/lastmile_qr_scan"}, "fusion_lon": 0.0, "fusion_lat": 0.0, "bike_id": "4b8d7c746d6f5f92ce4f1a8bb58ed5e4", "name": "4b8d7c746d6f5f92ce4f1a8bb58ed5e4", "lon": -77.00621666666666}, {"is_disabled": 0, "type": "electric_scooter", "is_reserved": 0, "lat": 38.934827, "rental_uris": {"ios": "https://dc.lft.to/lastmile_qr_scan", "android": "https://dc.lft.to/lastmile_qr_scan"}, "fusion_lon": 0.0, "fusion_lat": 0.0, "bike_id": "547ea76a46666b7bc90981f3f1a76338", "name": "547ea76a46666b7bc90981f3f1a76338", "lon": -77.07274233333334}, {"is_disabled": 0, "type": "electric_scooter", "is_reserved": 0, "lat": 38.868893666666665, "rental_uris": {"ios": "https://dc.lft.to/lastmile_qr_scan", "android": "https://dc.lft.to/lastmile_qr_scan"}, "fusion_lon": 0.0, "fusion_lat": 0.0, "bike_id": "4d54909fb2c6d9fc8ab54a77471ed714", "name": "4d54909fb2c6d9fc8ab54a77471ed714", "lon": -76.983128}, {"is_disabled": 0, "type": "electric_scooter", "is_reserved": 0, "lat": 38.8960315, "rental_uris": {"ios": "https://dc.lft.to/lastmile_qr_scan", "android": "https://dc.lft.to/lastmile_qr_scan"}, "fusion_lon": 0.0, "fusion_lat": 0.0, "bike_id": "2b5eac91961c3fb67f5272c6d1121a3a", "name": "2b5eac91961c3fb67f5272c6d1121a3a", "lon": -77.0271345}, {"is_disabled": 0, "type": "electric_scooter", "is_reserved": 0, "lat": 38.8840575, "rental_uris": {"ios": "https://dc.lft.to/lastmile_qr_scan", "android": "https://dc.lft.to/lastmile_qr_scan"}, "fusion_lon": 0.0, "fusion_lat": 0.0, "bike_id": "5da40d3fc871b9d708d65ec6af24711b", "name": "5da40d3fc871b9d708d65ec6af24711b", "lon": -77.03041033333334}, {"is_disabled": 0, "type": "electric_scooter", "is_reserved": 0, "lat": 38.911217666666666, "rental_uris": {"ios": "https://dc.lft.to/lastmile_qr_scan", "android": "https://dc.lft.to/lastmile_qr_scan"}, "fusion_lon": 0.0, "fusion_lat": 0.0, "bike_id": "648ed770722836ff543bd17cbcf7658a", "name": "648ed770722836ff543bd17cbcf7658a", "lon": -77.04371483333334}, {"is_disabled": 0, "type": "electric_scooter", "is_reserved": 0, "lat": 38.91708533333333, "rental_uris": {"ios": "https://dc.lft.to/lastmile_qr_scan", "android": "https://dc.lft.to/lastmile_qr_scan"}, "fusion_lon": 0.0, "fusion_lat": 0.0, "bike_id": "d10e6668dcc6aaadb59b8b15325d764b", "name": "d10e6668dcc6aaadb59b8b15325d764b", "lon": -77.0289575}, {"is_disabled": 0, "type": "electric_scooter", "is_reserved": 0, "lat": 38.896206, "rental_uris": {"ios": "https://dc.lft.to/lastmile_qr_scan", "android": "https://dc.lft.to/lastmile_qr_scan"}, "fusion_lon": 0.0, "fusion_lat": 0.0, "bike_id": "71731217b5f21ec643e81381f5dbaa02", "name": "71731217b5f21ec643e81381f5dbaa02", "lon": -77.024059}, {"is_disabled": 0, "type": "electric_scooter", "is_reserved": 0, "lat": 38.862573, "rental_uris": {"ios": "https://dc.lft.to/lastmile_qr_scan", "android": "https://dc.lft.to/lastmile_qr_scan"}, "fusion_lon": 0.0, "fusion_lat": 0.0, "bike_id": "95fe57b7362c75d9fc3f9e6a38d2ecd7", "name": "95fe57b7362c75d9fc3f9e6a38d2ecd7", "lon": -76.99558433333333}, {"is_disabled": 0, "type": "electric_scooter", "is_reserved": 0, "lat": 38.905719166666664, "rental_uris": {"ios": "https://dc.lft.to/lastmile_qr_scan", "android": "https://dc.lft.to/lastmile_qr_scan"}, "fusion_lon": 0.0, "fusion_lat": 0.0, "bike_id": "c76f0166f8b8a8b609503af315274a3a", "name": "c76f0166f8b8a8b609503af315274a3a", "lon": -77.04122016666666}, {"is_disabled": 0, "type": "electric_scooter", "is_reserved": 0, "lat": 38.8981245, "rental_uris": {"ios": "https://dc.lft.to/lastmile_qr_scan", "android": "https://dc.lft.to/lastmile_qr_scan"}, "fusion_lon": 0.0, "fusion_lat": 0.0, "bike_id": "05d20b489135fddc0afbbdb2a53bce90", "name": "05d20b489135fddc0afbbdb2a53bce90", "lon": -77.04410516666667}, {"is_disabled": 0, "type": "electric_scooter", "is_reserved": 0, "lat": 38.8442765, "rental_uris": {"ios": "https://dc.lft.to/lastmile_qr_scan", "android": "https://dc.lft.to/lastmile_qr_scan"}, "fusion_lon": 0.0, "fusion_lat": 0.0, "bike_id": "2d246a41ae8131b0a21a0390537dd14a", "name": "2d246a41ae8131b0a21a0390537dd14a", "lon": -76.99781816666666}, {"is_disabled": 0, "type": "electric_scooter", "is_reserved": 0, "lat": 38.88274916666667, "rental_uris": {"ios": "https://dc.lft.to/lastmile_qr_scan", "android": "https://dc.lft.to/lastmile_qr_scan"}, "fusion_lon": 0.0, "fusion_lat": 0.0, "bike_id": "f03009e4040a54dd29da20b5d435ad0f", "name": "f03009e4040a54dd29da20b5d435ad0f", "lon": -76.99558633333334}, {"is_disabled": 0, "type": "electric_scooter", "is_reserved": 0, "lat": 38.92306133333334, "rental_uris": {"ios": "https://dc.lft.to/lastmile_qr_scan", "android": "https://dc.lft.to/lastmile_qr_scan"}, "fusion_lon": 0.0, "fusion_lat": 0.0, "bike_id": "8bd8e723392aff424c2308a2034f9faf", "name": "8bd8e723392aff424c2308a2034f9faf", "lon": -77.02258016666667}, {"is_disabled": 0, "type": "electric_scooter", "is_reserved": 0, "lat": 38.8665805, "rental_uris": {"ios": "https://dc.lft.to/lastmile_qr_scan", "android": "https://dc.lft.to/lastmile_qr_scan"}, "fusion_lon": 0.0, "fusion_lat": 0.0, "bike_id": "dfb27173b586c3189c72781186c9a105", "name": "dfb27173b586c3189c72781186c9a105", "lon": -76.98496066666667},