{"data": {"bikes": [{"rental_uris": {"android": "https://dc.lft.to/lastmile_qr_scan", "ios": "https://dc.lft.to/lastmile_qr_scan"}, "type": "electric_scooter", "lon": -76.9913915, "name": "6bba648450d98d54d672596eddbf30e0", "bike_id": "6bba648450d98d54d672596eddbf30e0", "fusion_lat": 0.0, "is_reserved": 0, "lat": 38.897318, "fusion_lon": 0.0, "is_disabled": 0}, {"rental_uris": {"android": "https://dc.lft.to/lastmile_qr_scan", "ios": "https://dc.lft.to/lastmile_qr_scan"}, "type": "electric_scooter", "lon": -76.99848266666666, "name": "a3a6cf57eda291f7927d4c1eb9e625df", "bike_id": "a3a6cf57eda291f7927d4c1eb9e625df", "fusion_lat": 0.0, "is_reserved": 0, "lat": 38.953626166666666, "fusion_lon": 0.0, "is_disabled": 0}, {"rental_uris": {"android": "https://dc.lft.to/lastmile_qr_scan", "ios": "https://dc.lft.to/lastmile_qr_scan"}, "type": "electric_scooter", "lon": -77.06812616666667, "name": "4ac7b7e1bb069fd5e5323932e0d5f7ac", "bike_id": "4ac7b7e1bb069fd5e5323932e0d5f7ac", "fusion_lat": 0.0, "is_reserved": 0, "lat": 38.95197266666667, "fusion_lon": 0.0, "is_disabled": 0}, {"rental_uris": {"android": "https://dc.lft.to/lastmile_qr_scan", "ios": "https://dc.lft.to/lastmile_qr_scan"}, "type": "electric_scooter", "lon": -77.04378833333334, "name": "dbd4f607066b77e621c611d28852de8b", "bike_id": "dbd4f607066b77e621c611d28852de8b", "fusion_lat": 0.0, "is_reserved": 0, "lat": 38.92069566666667, "fusion_lon": 0.0, "is_disabled": 0}, {"rental_uris": {"android": "https://dc.lft.to/lastmile_qr_scan", "ios": "https://dc.lft.to/lastmile_qr_scan"}, "type": "electric_scooter", "lon": -77.02359766666666, "name": "8e7f34105afd59f1fa31fb824baae72b", "bike_id": "8e7f34105afd59f1fa31fb824baae72b", "fusion_lat": 0.0, "is_reserved": 0, "lat": 38.925033166666665, "fusion_lon": 0.0, "is_disabled": 0}, {"rental_uris": {"android": "https://dc.lft.to/lastmile_qr_scan", "ios": "https://dc.lft.to/lastmile_qr_scan"}, "type": "electric_scooter", "lon": -77.04348016666667, "name": "cbde49e46ae7b1774c1cc5d18decdc24", "bike_id": "cbde49e46ae7b1774c1cc5d18decdc24", "fusion_lat": 0.0, "is_reserved": 0, "lat": 38.931365666666665, "fusion_lon": 0.0, "is_disabled": 0}, {"rental_uris": {"android": "https://dc.lft.to/lastmile_qr_scan", "ios": "https://dc.lft.to/lastmile_qr_scan"}, "type": "electric_scooter", "lon": -77.058873, "name": "c27523a011302f04c18f1310fe662da5", "bike_id": "c27523a011302f04c18f1310fe662da5", "fusion_lat": 0.0, "is_reserved": 0, "lat": 38.936328833333334, "fusion_lon": 0.0, "is_disabled": 0}, {"rental_uris": {"android": "https://dc.lft.to/lastmile_qr_scan", "ios": "https://dc.lft.to/lastmile_qr_scan"}, "type": "electric_scooter", "lon": -76.9892445, "name": "0766d450b5a6cb06d8f8d55ff6a002a5", "bike_id": "0766d450b5a6cb06d8f8d55ff6a002a5", "fusion_lat": 0.0, "is_reserved": 0, "lat": 38.902336166666664, "fusion_lon": 0.0, "is_disabled": 0}, {"rental_uris": {"android": "https://dc.lft.to/lastmile_qr_scan", "ios": "https://dc.lft.to/lastmile_qr_scan"}, "type": "electric_scooter", "lon": -76.986091, "name": "3d8b35dbbd81fcb3f986fd13f467ce6b", "bike_id": "3d8b35dbbd81fcb3f986fd13f467ce6b", "fusion_lat": 0.0, "is_reserved": 0, "lat": 38.85440033333333, "fusion_lon": 0.0, "is_disabled": 0}, {"rental_uris": {"android": "https://dc.lft.to/lastmile_qr_scan", "ios": "https://dc.lft.to/lastmile_qr_scan"}, "type": "electric_bike", "lon": -76.99396566666667, "name": "42216e0b7453e84b75a74bbdbc23caea", "bike_id": "42216e0b7453e84b75a74bbdbc23caea", "fusion_lat": 0.0, "is_reserved": 0, "lat": 38.922619166666664, "fusion_lon": 0.0, "is_disabled": 0}, {"rental_uris": {"android": "https://dc.lft.to/lastmile_qr_scan", "ios": "https://dc.lft.to/lastmile_qr_scan"}, "type": "electric_scooter", "lon": -77.03500233333334, "name": "31d7ef81cce57d4fa62d897d3e9e92fd", "bike_id": "31d7ef81cce57d4fa62d897d3e9e92fd", "fusion_lat": 0.0, "is_reserved": 0, "lat": 38.9263175, "fusion_lon": 0.0, "is_disabled": 0}, {"rental_uris": {"android": "https://dc.lft.to/lastmile_qr_scan", "ios": "https://dc.lft.to/lastmile_qr_scan"}, "type": "electric_scooter", "lon": -77.0315565, "name": "9e7984662d6e8368a59a441dc2a35e7d", "bike_id": "9e7984662d6e8368a59a441dc2a35e7d", "fusion_lat": 0.0, "is_reserved": 0, "lat": 38.887569, "fusion_lon": 0.0, "is_disabled": 0}, {"rental_uris": {"android": "https://dc.lft.to/lastmile_qr_scan", "ios": "https://dc.lft.to/lastmile_qr_scan"}, "type": "electric_scooter", "lon": -77.03457783333333, "name": "5df4754ee6e4058eb60565e354413022", "bike_id": "5df4754ee6e4058eb60565e354413022", "fusion_lat": 0.0, "is_reserved": 0, "lat": 38.902716833333336, "fusion_lon": 0.0, "is_disabled": 0}, {"rental_uris": {"android": "https://dc.lft.to/lastmile_qr_scan", "ios": "https://dc.lft.to/lastmile_qr_scan"}, "type": "electric_scooter", "lon": -77.05513516666667, "name": "445ac43796567c96ef2911184192db7a", "bike_id": "445ac43796567c96ef2911184192db7a", "fusion_lat": 0.0, "is_reserved": 0, "lat": 38.9441675, "fusion_lon": 0.0, "is_disabled": 0}, {"rental_uris": {"android": "https://dc.lft.to/lastmile_qr_scan", "ios": "https://dc.lft.to/lastmile_qr_scan"}, "type": "electric_scooter", "lon": -76.948386, "name": "039607f0b17b99e01ccb5443fb7e4754", "bike_id": "039607f0b17b99e01ccb5443fb7e4754", "fusion_lat": 0.0, "is_reserved": 0, "lat": 38.894844166666665, "fusion_lon": 0.0, "is_disabled": 0}, {"rental_uris": {"android": "https://dc.lft.to/lastmile_qr_scan", "ios": "https://dc.lft.to/lastmile_qr_scan"}, "type": "electric_scooter", "lon": -77.02416416666667, "name": "60f8dbe4102d8d4c53136af3162e568a", "bike_id": "60f8dbe4102d8d4c53136af3162e568a", "fusion_lat": 0.0, "is_reserved": 0, "lat": 38.893797166666666, "fusion_lon": 0.0, "is_disabled": 0}, {"rental_uris": {"android": "https://dc.lft.to/lastmile_qr_scan", "ios": "https://dc.lft.to/lastmile_qr_scan"}, "type": "electric_scooter", "lon": -77.030137, "name": "f8d20841682e3fe10c0b9babc1cf913c", "bike_id": "f8d20841682e3fe10c0b9babc1cf913c", "fusion_lat": 0.0, "is_reserved": 0, "lat": 38.931135166666664, "fusion_lon": 0.0, "is_disabled": 0}, {"rental_uris": {"android": "https://dc.lft.to/lastmile_qr_scan", "ios": "https://dc.lft.to/lastmile_qr_scan"}, "type": "electric_scooter", "lon": -77.04581983333334, "name": "7267e70548d435dc9f8d444d03a7d94e", "bike_id": "7267e70548d435dc9f8d444d03a7d94e", "fusion_lat": 0.0, "is_reserved": 0, "lat": 38.921262, "fusion_lon": 0.0, "is_disabled": 0}, {"rental_uris": {"android": "https://dc.lft.to/lastmile_qr_scan", "ios": "https://dc.lft.to/lastmile_qr_scan"}, "type": "electric_scooter", "lon": -77.00109883333333, "name": "84da4f784d96e786b1b82aca89b5209a", "bike_id": "84da4f784d96e786b1b82aca89b5209a", "fusion_lat": 0.0, "is_reserved": 0, "lat": 38.916306166666665, "fusion_lon": 0.0, "is_disabled": 0}, {"rental_uris": {"android": "https://dc.lft.to/lastmile_qr_scan", "ios": "https://dc.lft.to/lastmile_qr_scan"}, "type": "electric_scooter", "lon": -76.9485635, "name": "4f7378c58230042e46ec9e2b9f8718db", "bike_id": "4f7378c58230042e46ec9e2b9f8718db", "fusion_lat": 0.0, "is_reserved": 0, "lat": 38.883032666666665, "fusion_lon": 0.0, "is_disabled": 0}, {"rental_uris": {"android": "https://dc.lft.to/lastmile_qr_scan", "ios": "https://dc.lft.to/lastmile_qr_scan"}, "type": "electric_scooter", "lon": -77.028755, "name": "ad2efedefc364825218a1b42a272ce6d", "bike_id": "ad2efedefc364825218a1b42a272ce6d", "fusion_lat": 0.0, "is_reserved": 0, "lat": 38.903725333333334, "fusion_lon": 0.0, "is_disabled": 0}, {"rental_uris": {"android": "https://dc.lft.to/lastmile_qr_scan", "ios": "https://dc.lft.to/lastmile_qr_scan"}, "type": "electric_scooter", "lon": -77.01944216666666, "name": "bec713cfbadeb67bddb735653998600b", "bike_id": "bec713cfbadeb67bddb735653998600b", "fusion_lat": 0.0, "is_reserved": 0, "lat": 38.87674483333333, "fusion_lon": 0.0, "is_disabled": 0}, {"rental_uris": {"android": "https://dc.lft.to/lastmile_qr_scan", "ios": "https://dc.lft.to/lastmile_qr_scan"}, "type": "electric_scooter", "lon": -76.937853, "name": "7f847a729167d88edaa841873274a14b", "bike_id": "7f847a729167d88edaa841873274a14b", "fusion_lat": 0.0, "is_reserved": 0, "lat": 38.8997235, "fusion_lon": 0.0, "is_disabled": 0}, {"rental_uris": {"android": "https://dc.lft.to/lastmile_qr_scan", "ios": "https://dc.lft.to/lastmile_qr_scan"}, "type": "electric_scooter", "lon": -76.990259, "name": "d602d8e7f688818eb17168da2e387f39", "bike_id": "d602d8e7f688818eb17168da2e387f39", "fusion_lat": 0.0, "is_reserved": 0, "lat": 38.90151483333333, "fusion_lon": 0.0, "is_disabled": 0}, {"rental_uris": {"android": "https://dc.lft.to/lastmile_qr_scan", "ios": "https://dc.lft.to/lastmile_qr_scan"}, "type": "electric_scooter", "lon": -76.99023183333334, "name": "7ff399b3e1af303b858228dd81e48258", "bike_id": "7ff399b3e1af303b858228dd81e48258", "fusion_lat": 0.0, "is_reserved": 0, "lat": 38.86404233333333, "fusion_lon": 0.0, "is_disabled": 0}, {"rental_uris": {"android": "https://dc.lft.to/lastmile_qr_scan", "ios": "https://dc.lft.to/lastmile_qr_scan"}, "type": "electric_scooter", "lon": -77.070784, "name": "348bfa10775a9990be5f776efec6b6b6", "bike_id": "348bfa10775a9990be5f776efec6b6b6", "fusion_lat": 0.0, "is_reserved": 0, "lat": 38.93902833333333, "fusion_lon": 0.0, "is_disabled": 0}, {"rental_uris": {"android": "https://dc.lft.to/lastmile_qr_scan", "ios": "https://dc.lft.to/lastmile_qr_scan"}, "type": "electric_scooter", "lon": -77.02649116666667, "name": "b0f79f1b44230acf436da8d1c99eb501", "bike_id": "b0f79f1b44230acf436da8d1c99eb501", "fusion_lat": 0.0, "is_reserved": 0, "lat": 38.902477833333336, "fusion_lon": 0.0, "is_disabled": 0}, {"rental_uris": {"android": "https://dc.lft.to/lastmile_qr_scan", "ios": "https://dc.lft.to/lastmile_qr_scan"}, "type": "electric_bike", "lon": -76.93190916666667, "name": "5030966b45db3ab376bbaeeb9128494f", "bike_id": "5030966b45db3ab376bbaeeb9128494f", "fusion_lat": 0.0, "is_reserved": 0, "lat": 38.89851933333333, "fusion_lon": 0.0, "is_disabled": 0}, {"rental_uris": {"android": "https://dc.lft.to/lastmile_qr_scan", "ios": "https://dc.lft.to/lastmile_qr_scan"}, "type": "electric_scooter", "lon": -77.03484816666666, "name": "b1e2957b7474f87b193ca3050658d2eb", "bike_id": "b1e2957b7474f87b193ca3050658d2eb", "fusion_lat": 0.0, "is_reserved": 0, "lat": 38.92484966666667, "fusion_lon": 0.0, "is_disabled": 0}, {"rental_uris": {"android": "https://dc.lft.to/lastmile_qr_scan", "ios": "https://dc.lft.to/lastmile_qr_scan"}, "type": "electric_scooter", "lon": -76.982432, "name": "f5973f0fb1d33934be25c4a4d8953d0a", "bike_id": "f5973f0fb1d33934be25c4a4d8953d0a", "fusion_lat": 0.0, "is_reserved": 0, "lat": 38.90310316666667, "fusion_lon": 0.0, "is_disabled": 0}, {"rental_uris": {"android": "https://dc.lft.to/lastmile_qr_scan", "ios": "https://dc.lft.to/lastmile_qr_scan"}, "type": "electric_bike", "lon": -77.06954416666666, "name": "e62a40205df3f93e49a4be13507b7f19", "bike_id": "e62a40205df3f93e49a4be13507b7f19", "fusion_lat": 0.0, "is_reserved": 0, "lat": 38.99045266666667, "fusion_lon": 0.0, "is_disabled": 0}, {"rental_uris": {"android": "https://dc.lft.to/lastmile_qr_scan", "ios": "https://dc.lft.to/lastmile_qr_scan"}, "type": "electric_scooter", "lon": -77.02509933333333, "name": "c77f45fc4709dfa493203db93529183a", "bike_id": "c77f45fc4709dfa493203db93529183a", "fusion_lat": 0.0, "is_reserved": 0, "lat": 38.926400666666666, "fusion_lon": 0.0, "is_disabled": 0}, {"rental_uris": {"android": "https://dc.lft.to/lastmile_qr_scan", "ios": "https://dc.lft.to/lastmile_qr_scan"}, "type": "electric_scooter", "lon": -77.01675083333333, "name": "4ccb2bc637d905f02fb4f1b7dd2d09ef", "bike_id": "4ccb2bc637d905f02fb4f1b7dd2d09ef", "fusion_lat": 0.0, "is_reserved": 0, "lat": 38.883214833333334, "fusion_lon": 0.0, "is_disabled": 0}, {"rental_uris": {"android": "https://dc.lft.to/lastmile_qr_scan", "ios": "https://dc.lft.to/lastmile_qr_scan"}, "type": "electric_scooter", "lon": -77.038351, "name": "5ae5a623397f680497927f02eb7aaf0f", "bike_id": "5ae5a623397f680497927f02eb7aaf0f", "fusion_lat": 0.0, "is_reserved": 0, "lat": 38.90333, "fusion_lon": 0.0, "is_disabled": 0}, {"rental_uris": {"android": "https://dc.lft.to/lastmile_qr_scan", "ios": "https://dc.lft.to/lastmile_qr_scan"}, "type": "electric_scooter", "lon": -76.99032466666667, "name": "f16cf34c4d60997cbfd10bbdfa2bcaaa", "bike_id": "f16cf34c4d60997cbfd10bbdfa2bcaaa", "fusion_lat": 0.0, "is_reserved": 0, "lat": 38.888710333333336, "fusion_lon": 0.0, "is_disabled": 0}, {"rental_uris": {"android": "https://dc.lft.to/lastmile_qr_scan", "ios": "https://dc.lft.to/lastmile_qr_scan"}, "type": "electric_scooter", "lon": -77.03443816666666, "name": "37e58932a1223ab6ef25b9edcd8e207e", "bike_id": "37e58932a1223ab6ef25b9edcd8e207e", "fusion_lat": 0.0, "is_reserved": 0, "lat": 38.928661, "fusion_lon": 0.0, "is_disabled": 0}, {"rental_uris": {"android": "https://dc.lft.to/lastmile_qr_scan", "ios": "https://dc.lft.to/lastmile_qr_scan"}, "type": "electric_scooter", "lon": -77.04201116666667, "name": "30a326873dd6bb45094deca562b58e81", "bike_id": "30a326873dd6bb45094deca562b58e81", "fusion_lat": 0.0, "is_reserved": 0, "lat": 38.89222866666667, "fusion_lon": 0.0, "is_disabled": 0}, {"rental_uris": {"android": "https://dc.lft.to/lastmile_qr_scan", "ios": "https://dc.lft.to/lastmile_qr_scan"}, "type": "electric_scooter", "lon": -77.00143366666667, "name": "0e1e03dc2e7124ece496a11db31c4838", "bike_id": "0e1e03dc2e7124ece496a11db31c4838", "fusion_lat": 0.0, "is_reserved": 0, "lat": 38.900143666666665, "fusion_lon": 0.0, "is_disabled": 0}, {"rental_uris": {"android": "https://dc.lft.to/lastmile_qr_scan", "ios": "https://dc.lft.to/lastmile_qr_scan"}, "type": "electric_scooter", "lon": -77.02703133333333, "name": "cf77e1261b6586965ae3ee0868c7274a", "bike_id": "cf77e1261b6586965ae3ee0868c7274a", "fusion_lat": 0.0, "is_reserved": 0, "lat": 38.927787, "fusion_lon": 0.0, "is_disabled": 0}, {"rental_uris": {"android": "https://dc.lft.to/lastmile_qr_scan", "ios": "https://dc.lft.to/lastmile_qr_scan"}, "type": "electric_scooter", "lon": -76.99034216666666, "name": "d98ce595805997d2bda747c83abb1d34", "bike_id": "d98ce595805997d2bda747c83abb1d34", "fusion_lat": 0.0, "is_reserved": 0, "lat": 38.8985225, "fusion_lon": 0.0, "is_disabled": 0}, {"rental_uris": {"android": "https://dc.lft.to/lastmile_qr_scan", "ios": "https://dc.lft.to/lastmile_qr_scan"}, "type": "electric_scooter", "lon": -77.0059475, "name": "edea433881bd21746091bd9c93b074a2", "bike_id": "edea433881bd21746091bd9c93b074a2", "fusion_lat": 0.0, "is_reserved": 0, "lat": 38.905828666666665, "fusion_lon": 0.0, "is_disabled": 0}, {"rental_uris": {"android": "https://dc.lft.to/lastmile_qr_scan", "ios": "https://dc.lft.to/lastmile_qr_scan"}, "type": "electric_scooter", "lon": -77.04226416666667, "name": "c57080c143254a209b95b8a7983630bc", "bike_id": "c57080c143254a209b95b8a7983630bc", "fusion_lat": 0.0, "is_reserved": 0, "lat": 38.91107916666667, "fusion_lon": 0.0, "is_disabled": 0}, {"rental_uris": {"android": "https://dc.lft.to/lastmile_qr_scan", "ios": "https://dc.lft.to/lastmile_qr_scan"}, "type": "electric_scooter", "lon": -76.974561, "name": "278ec0872d5a605454947b66b7f16c05", "bike_id": "278ec0872d5a605454947b66b7f16c05", "fusion_lat": 0.0, "is_reserved": 0, "lat": 38.863718, "fusion_lon": 0.0, "is_disabled": 0}, {"rental_uris": {"android": "https://dc.lft.to/lastmile_qr_scan", "ios": "https://dc.lft.to/lastmile_qr_scan"}, "type": "electric_scooter", "lon": -77.0365985, "name": "4cb464c3cbe3f6a8515649e45c3f1c7b", "bike_id": "4cb464c3cbe3f6a8515649e45c3f1c7b", "fusion_lat": 0.0, "is_reserved": 0, "lat": 38.918671833333335, "fusion_lon": 0.0, "is_disabled": 0}, {"rental_uris": {"android": "https://dc.lft.to/lastmile_qr_scan", "ios": "https://dc.lft.to/lastmile_qr_scan"}, "type": "electric_scooter", "lon": -77.04180933333333, "name": "758cb9757a6177aba71740a6983581ff", "bike_id": "758cb9757a6177aba71740a6983581ff", "fusion_lat": 0.0, "is_reserved": 0, "lat": 38.92049566666667, "fusion_lon": 0.0, "is_disabled": 0}, {"rental_uris": {"android": "https://dc.lft.to/lastmile_qr_scan", "ios": "https://dc.lft.to/lastmile_qr_scan"}, "type": "electric_bike", "lon": -77.06980583333333, "name": "f694cb6d09d8a82421b4a23bf22ed262", "bike_id": "f694cb6d09d8a82421b4a23bf22ed262", "fusion_lat": 0.0, "is_reserved": 0, "lat": 38.9526905, "fusion_lon": 0.0, "is_disabled": 0}, {"rental_uris": {"android": "https://dc.lft.to/lastmile_qr_scan", "ios": "https://dc.lft.to/lastmile_qr_scan"}, "type": "electric_scooter", "lon": -77.0018475, "name": "1ae30256e99cf914c84c7d73cae3e409", "bike_id": "1ae30256e99cf914c84c7d73cae3e409", "fusion_lat": 0.0, "is_reserved": 0, "lat": 38.90036216666667, "fusion_lon": 0.0, "is_disabled": 0}, {"rental_uris": {"android": "https://dc.lft.to/lastmile_qr_scan", "ios": "https://dc.lft.to/lastmile_qr_scan"}, "type": "electric_scooter", "lon": -77.01609466666666, "name": "88aab14c1b2716b0b7b0cff2704d2f67", "bike_id": "88aab14c1b2716b0b7b0cff2704d2f67", "fusion_lat": 0.0, "is_reserved": 0, "lat": 38.89965983333333, "fusion_lon": 0.0, "is_disabled": 0}, {"rental_uris": {"android": "https://dc.lft.to/lastmile_qr_scan", "ios": "https://dc.lft.to/lastmile_qr_scan"}, "type": "electric_scooter", "lon": -76.98999816666667, "name": "3db2a110e9a6f7826812d743da31496a", "bike_id": "3db2a110e9a6f7826812d743da31496a", "fusion_lat": 0.0, "is_reserved": 0, "lat": 38.8650425, "fusion_lon": 0.0, "is_disabled": 0}, {"rental_uris": {"android": "https://dc.lft.to/lastmile_qr_scan", "ios": "https://dc.lft.to/lastmile_qr_scan"}, "type": "electric_scooter", "lon": -77.01764066666667, "name": "30612ab0f98a20c777dda84516e8ec7d", "bike_id": "30612ab0f98a20c777dda84516e8ec7d", "fusion_lat": 0.0, "is_reserved": 0, "lat": 38.87293833333333, "fusion_lon": 0.0, "is_disabled": 0}, {"rental_uris": {"android": "https://dc.lft.to/lastmile_qr_scan", "ios": "https://dc.lft.to/lastmile_qr_scan"}, "type": "electric_scooter", "lon": -77.01131383333333, "name": "dc5db345a6a6f47b3a79b1cd6ae2adc5", "bike_id": "dc5db345a6a6f47b3a79b1cd6ae2adc5", "fusion_lat": 0.0, "is_reserved": 0, "lat": 38.907316333333334, "fusion_lon": 0.0, "is_disabled": 0}, {"rental_uris": {"android": "https://dc.lft.to/lastmile_qr_scan", "ios": "https://dc.lft.to/lastmile_qr_scan"}, "type": "electric_scooter", "lon": -77.05144933333334, "name": "d24110a2e44713887d0c54f1081bff34", "bike_id": "d24110a2e44713887d0c54f1081bff34", "fusion_lat": 0.0, "is_reserved": 0, "lat": 38.90801066666667, "fusion_lon": 0.0, "is_disabled": 0}, {"rental_uris": {"android": "https://dc.lft.to/lastmile_qr_scan", "ios": "https://dc.lft.to/lastmile_qr_scan"}, "type": "electric_bike", "lon": -76.9790495, "name": "17d1eae0b39ee5847cc6e1804399d0da", "bike_id": "17d1eae0b39ee5847cc6e1804399d0da", "fusion_lat": 0.0, "is_reserved": 0, "lat": 38.88835783333333, "fusion_lon": 0.0, "is_disabled": 0}, {"rental_uris": {"android": "https://dc.lft.to/lastmile_qr_scan", "ios": "https://dc.lft.to/lastmile_qr_scan"}, "type": "electric_scooter", "lon": -77.052912, "name": "24535d454c6e6deb0380de9b3aabf180", "bike_id": "24535d454c6e6deb0380de9b3aabf180", "fusion_lat": 0.0, "is_reserved": 0, "lat": 38.9279125, "fusion_lon": 0.0, "is_disabled": 0}, {"rental_uris": {"android": "https://dc.lft.to/lastmile_qr_scan", "ios": "https://dc.lft.to/lastmile_qr_scan"}, "type": "electric_scooter", "lon": -77.0390425, "name": "67a11d712caefa6e613b436ac53357df", "bike_id": "67a11d712caefa6e613b436ac53357df", "fusion_lat": 0.0, "is_reserved": 0, "lat": 38.92236916666667, "fusion_lon": 0.0, "is_disabled": 0}, {"rental_uris": {"android": "https://dc.lft.to/lastmile_qr_scan", "ios": "https://dc.lft.to/lastmile_qr_scan"}, "type": "electric_scooter", "lon": -77.02858733333333, "name": "abca30d59340250ffe2fb3d66e4bf110", "bike_id": "abca30d59340250ffe2fb3d66e4bf110", "fusion_lat": 0.0, "is_reserved": 0, "lat": 38.922317, "fusion_lon": 0.0, "is_disabled": 0}, {"rental_uris": {"android": "https://dc.lft.to/lastmile_qr_scan", "ios": "https://dc.lft.to/lastmile_qr_scan"}, "type": "electric_scooter", "lon": -77.03260966666667, "name": "4d62c3633b30d076a15d973f6aaeec71", "bike_id": "4d62c3633b30d076a15d973f6aaeec71", "fusion_lat": 0.0, "is_reserved": 0, "lat": 38.93664916666667, "fusion_lon": 0.0, "is_disabled": 0}, {"rental_uris": {"android": "https://dc.lft.to/lastmile_qr_scan", "ios": "https://dc.lft.to/lastmile_qr_scan"}, "type": "electric_scooter", "lon": -76.94828183333334, "name": "e26cc1e474f3e8731b9b5bcf08e14bf0", "bike_id": "e26cc1e474f3e8731b9b5bcf08e14bf0", "fusion_lat": 0.0, "is_reserved": 0, "lat": 38.89347383333333, "fusion_lon": 0.0, "is_disabled": 0}, {"rental_uris": {"android": "https://dc.lft.to/lastmile_qr_scan", "ios": "https://dc.lft.to/lastmile_qr_scan"}, "type": "electric_scooter", "lon": -77.0021905, "name": "99ebc5c3e28210d688d3acd4f20109f4", "bike_id": "99ebc5c3e28210d688d3acd4f20109f4", "fusion_lat": 0.0, "is_reserved": 0, "lat": 38.908275, "fusion_lon": 0.0, "is_disabled": 0}, {"rental_uris": {"android": "https://dc.lft.to/lastmile_qr_scan", "ios": "https://dc.lft.to/lastmile_qr_scan"}, "type": "electric_scooter", "lon": -76.93431433333333, "name": "b33c5a61eaf2ba4a8c596097ff36ff15", "bike_id": "b33c5a61eaf2ba4a8c596097ff36ff15", "fusion_lat": 0.0, "is_reserved": 0, "lat": 38.899671166666664, "fusion_lon": 0.0, "is_disabled": 0}, {"rental_uris": {"android": "https://dc.lft.to/lastmile_qr_scan", "ios": "https://dc.lft.to/lastmile_qr_scan"}, "type": "electric_scooter", "lon": -77.0022175, "name": "eff9707c258c4cdf109c233973899647", "bike_id": "eff9707c258c4cdf109c233973899647", "fusion_lat": 0.0, "is_reserved": 0, "lat": 38.95726033333333, "fusion_lon": 0.0, "is_disabled": 0}, {"rental_uris": {"android": "https://dc.lft.to/lastmile_qr_scan", "ios": "https://dc.lft.to/lastmile_qr_scan"}, "type": "electric_scooter", "lon": -77.04000633333334, "name": "573857afdcfe65010d00ca47bea52d04", "bike_id": "573857afdcfe65010d00ca47bea52d04", "fusion_lat": 0.0, "is_reserved": 0, "lat": 38.918054833333336, "fusion_lon": 0.0, "is_disabled": 0}, {"rental_uris": {"android": "https://dc.lft.to/lastmile_qr_scan", "ios": "https://dc.lft.to/lastmile_qr_scan"}, "type": "electric_scooter", "lon": -77.01010316666667, "name": "4880ead67e45be4c5d5a861d7d20ba7c", "bike_id": "4880ead67e45be4c5d5a861d7d20ba7c", "fusion_lat": 0.0, "is_reserved": 0, "lat": 38.867156666666666, "fusion_lon": 0.0, "is_disabled": 0}, {"rental_uris": {"android": "https://dc.lft.to/lastmile_qr_scan", "ios": "https://dc.lft.to/lastmile_qr_scan"}, "type": "electric_scooter", "lon": -77.03972966666667, "name": "03b2d6dbfea73cfac8f900645bdaf110", "bike_id": "03b2d6dbfea73cfac8f900645bdaf110", "fusion_lat": 0.0, "is_reserved": 0, "lat": 38.916363833333335, "fusion_lon": 0.0, "is_disabled": 0}, {"rental_uris": {"android": "https://dc.lft.to/lastmile_qr_scan", "ios": "https://dc.lft.to/lastmile_qr_scan"}, "type": "electric_scooter", "lon": -77.036452, "name": "a1db02fffb327eb828e7ee59e9bb6bf9", "bike_id": "a1db02fffb327eb828e7ee59e9bb6bf9", "fusion_lat": 0.0, "is_reserved": 0, "lat": 38.9176655, "fusion_lon": 0.0, "is_disabled": 0}, {"rental_uris": {"android": "https://dc.lft.to/lastmile_qr_scan", "ios": "https://dc.lft.to/lastmile_qr_scan"}, "type": "electric_scooter", "lon": -76.998779, "name": "86ebea89e99c557408a18923fc164b45", "bike_id": "86ebea89e99c557408a18923fc164b45", "fusion_lat": 0.0, "is_reserved": 0, "lat": 38.92051466666667, "fusion_lon": 0.0, "is_disabled": 0}, {"rental_uris": {"android": "https://dc.lft.to/lastmile_qr_scan", "ios": "https://dc.lft.to/lastmile_qr_scan"}, "type": "electric_scooter", "lon": -77.04992516666667, "name": "08e13c9b6d46d83c975e89acd5c69625", "bike_id": "08e13c9b6d46d83c975e89acd5c69625", "fusion_lat": 0.0, "is_reserved": 0, "lat": 38.90424983333333, "fusion_lon": 0.0, "is_disabled": 0}, {"rental_uris": {"android": "https://dc.lft.to/lastmile_qr_scan", "ios": "https://dc.lft.to/lastmile_qr_scan"}, "type": "electric_scooter", "lon": -76.99366766666667, "name": "e340c35af73d797456582ed269c18079", "bike_id": "e340c35af73d797456582ed269c18079", "fusion_lat": 0.0, "is_reserved": 0, "lat": 38.90054333333333, "fusion_lon": 0.0, "is_disabled": 0}, {"rental_uris": {"android": "https://dc.lft.to/lastmile_qr_scan", "ios": "https://dc.lft.to/lastmile_qr_scan"}, "type": "electric_scooter", "lon": -76.98848566666666, "name": "8d0a21d3efc5048c07d846c99c300c3f", "bike_id": "8d0a21d3efc5048c07d846c99c300c3f", "fusion_lat": 0.0, "is_reserved": 0, "lat": 38.9034475, "fusion_lon": 0.0, "is_disabled": 0}, {"rental_uris": {"android": "https://dc.lft.to/lastmile_qr_scan", "ios": "https://dc.lft.to/lastmile_qr_scan"}, "type": "electric_scooter", "lon": -77.02770566666666, "name": "3e9e3d44a84105ec41a8825e4d5fce6e", "bike_id": "3e9e3d44a84105ec41a8825e4d5fce6e", "fusion_lat": 0.0, "is_reserved": 0, "lat": 38.892239000000004, "fusion_lon": 0.0, "is_disabled": 0}, {"rental_uris": {"android": "https://dc.lft.to/lastmile_qr_scan", "ios": "https://dc.lft.to/lastmile_qr_scan"}, "type": "electric_scooter", "lon": -77.024992, "name": "765dd984d869055f1a99e2c731812d61", "bike_id": "765dd984d869055f1a99e2c731812d61", "fusion_lat": 0.0, "is_reserved": 0, "lat": 38.93279183333333, "fusion_lon": 0.0, "is_disabled": 0}, {"rental_uris": {"android": "https://dc.lft.to/lastmile_qr_scan", "ios": "https://dc.lft.to/lastmile_qr_scan"}, "type": "electric_scooter", "lon": -77.02692716666667, "name": "37baa81d257703ba326e25051a39abfc", "bike_id": "37baa81d257703ba326e25051a39abfc", "fusion_lat": 0.0, "is_reserved": 0, "lat": 38.904589, "fusion_lon": 0.0, "is_disabled": 0}, {"rental_uris": {"android": "https://dc.lft.to/lastmile_qr_scan", "ios": "https://dc.lft.to/lastmile_qr_scan"}, "type": "electric_scooter", "lon": -76.97819916666667, "name": "147fcf0e38a70cc25f06b74d6630a373", "bike_id": "147fcf0e38a70cc25f06b74d6630a373", "fusion_lat": 0.0, "is_reserved": 0, "lat": 38.89600566666667, "fusion_lon": 0.0, "is_disabled": 0}, {"rental_uris": {"android": "https://dc.lft.to/lastmile_qr_scan", "ios": "https://dc.lft.to/lastmile_qr_scan"}, "type": "electric_scooter", "lon": -77.02302116666667, "name": "be1cd11a6fed880456437d42d3aa0958", "bike_id": "be1cd11a6fed880456437d42d3aa0958", "fusion_lat": 0.0, "is_reserved": 0, "lat": 38.9178665, "fusion_lon": 0.0, "is_disabled": 0}, {"rental_uris": {"android": "https://dc.lft.to/lastmile_qr_scan", "ios": "https://dc.lft.to/lastmile_qr_scan"}, "type": "electric_scooter", "lon": -77.0329215, "name": "91dbc56e75ef39696cbadca2625950f2", "bike_id": "91dbc56e75ef39696cbadca2625950f2", "fusion_lat": 0.0, "is_reserved": 0, "lat": 38.9565315, "fusion_lon": 0.0, "is_disabled": 0}, {"rental_uris": {"android": "https://dc.lft.to/lastmile_qr_scan", "ios": "https://dc.lft.to/lastmile_qr_scan"}, "type": "electric_bike", "lon": -77.12736216666667, "name": "5f7e37aa29b26f03507ef514a9d319c4", "bike_id": "5f7e37aa29b26f03507ef514a9d319c4", "fusion_lat": 0.0, "is_reserved": 0, "lat": 38.895673, "fusion_lon": 0.0, "is_disabled": 0}, {"rental_uris": {"android": "https://dc.lft.to/lastmile_qr_scan", "ios": "https://dc.lft.to/lastmile_qr_scan"}, "type": "electric_scooter", "lon": -77.04111733333333, "name": "3b8ba9cf8d1328f46f03b7d9114b261d", "bike_id": "3b8ba9cf8d1328f46f03b7d9114b261d", "fusion_lat": 0.0, "is_reserved": 0, "lat": 38.92528716666666, "fusion_lon": 0.0, "is_disabled": 0}, {"rental_uris": {"android": "https://dc.lft.to/lastmile_qr_scan", "ios": "https://dc.lft.to/lastmile_qr_scan"}, "type": "electric_scooter", "lon": -76.99625616666667, "name": "b81b95f96cb14d0f2bd64a1423011968", "bike_id": "b81b95f96cb14d0f2bd64a1423011968", "fusion_lat": 0.0, "is_reserved": 0, "lat": 38.880294, "fusion_lon": 0.0, "is_disabled": 0}, {"rental_uris": {"android": "https://dc.lft.to/lastmile_qr_scan", "ios": "https://dc.lft.to/lastmile_qr_scan"}, "type": "electric_scooter", "lon": -77.0228405, "name": "22c4e88b7c822b667b253b252f4637dd", "bike_id": "22c4e88b7c822b667b253b252f4637dd", "fusion_lat": 0.0, "is_reserved": 0, "lat": 38.9269235, "fusion_lon": 0.0, "is_disabled": 0}, {"rental_uris": {"android": "https://dc.lft.to/lastmile_qr_scan", "ios": "https://dc.lft.to/lastmile_qr_scan"}, "type": "electric_scooter", "lon": -77.018061, "name": "bb50524ec64fd230bd1841653e276691", "bike_id": "bb50524ec64fd230bd1841653e276691", "fusion_lat": 0.0, "is_reserved": 0, "lat": 38.90394366666666, "fusion_lon": 0.0, "is_disabled": 0}, {"rental_uris": {"android": "https://dc.lft.to/lastmile_qr_scan", "ios": "https://dc.lft.to/lastmile_qr_scan"}, "type": "electric_scooter", "lon": -76.99089516666666, "name": "d028667eb509025bb25fb1c428305d14", "bike_id": "d028667eb509025bb25fb1c428305d14", "fusion_lat": 0.0, "is_reserved": 0, "lat": 38.9294955, "fusion_lon": 0.0, "is_disabled": 0}, {"rental_uris": {"android": "https://dc.lft.to/lastmile_qr_scan", "ios": "https://dc.lft.to/lastmile_qr_scan"}, "type": "electric_scooter", "lon": -76.9893385, "name": "0155a1f4097903f8c3749552c25ecaa9", "bike_id": "0155a1f4097903f8c3749552c25ecaa9", "fusion_lat": 0.0, "is_reserved": 0, "lat": 38.865865166666666, "fusion_lon": 0.0, "is_disabled": 0}, {"rental_uris": {"android": "https://dc.lft.to/lastmile_qr_scan", "ios": "https://dc.lft.to/lastmile_qr_scan"}, "type": "electric_bike", "lon": -77.03984366666667, "name": "d5f4c9dcad3f0d98e9ea33d9b3879ab4", "bike_id": "d5f4c9dcad3f0d98e9ea33d9b3879ab4", "fusion_lat": 0.0, "is_reserved": 0, "lat": 38.80295516666666, "fusion_lon": 0.0, "is_disabled": 0}, {"rental_uris": {"android": "https://dc.lft.to/lastmile_qr_scan", "ios": "https://dc.lft.to/lastmile_qr_scan"}, "type": "electric_scooter", "lon": -77.0238685, "name": "9a88603be733f2333b8d9b627e4aa44b", "bike_id": "9a88603be733f2333b8d9b627e4aa44b", "fusion_lat": 0.0, "is_reserved": 0, "lat": 38.92074516666667, "fusion_lon": 0.0, "is_disabled": 0}, {"rental_uris": {"android": "https://dc.lft.to/lastmile_qr_scan", "ios": "https://dc.lft.to/lastmile_qr_scan"}, "type": "electric_scooter", "lon": -77.00604016666666, "name": "86866bd7bb56e9d65ed0f6711f24ae4e", "bike_id": "86866bd7bb56e9d65ed0f6711f24ae4e", "fusion_lat": 0.0, "is_reserved": 0, "lat": 38.905661, "fusion_lon": 0.0, "is_disabled": 0}, {"rental_uris": {"android": "https://dc.lft.to/lastmile_qr_scan", "ios": "https://dc.lft.to/lastmile_qr_scan"}, "type": "electric_scooter", "lon": -77.018839, "name": "3e749e0485895c96da5ced25fec06942", "bike_id": "3e749e0485895c96da5ced25fec06942", "fusion_lat": 0.0, "is_reserved": 0, "lat": 38.91768916666667, "fusion_lon": 0.0, "is_disabled": 0}, {"rental_uris": {"android": "https://dc.lft.to/lastmile_qr_scan", "ios": "https://dc.lft.to/lastmile_qr_scan"}, "type": "electric_scooter", "lon": -76.9950255, "name": "801857e456ca9aed4886e08221266083", "bike_id": "801857e456ca9aed4886e08221266083", "fusion_lat": 0.0, "is_reserved": 0, "lat": 38.84467183333334, "fusion_lon": 0.0, "is_disabled": 0}, {"rental_uris": {"android": "https://dc.lft.to/lastmile_qr_scan", "ios": "https://dc.lft.to/lastmile_qr_scan"}, "type": "electric_scooter", "lon": -77.03318233333333, "name": "f706ec179f5d1fdde2c06a6884be8e90", "bike_id": "f706ec179f5d1fdde2c06a6884be8e90", "fusion_lat": 0.0, "is_reserved": 0, "lat": 38.89230283333333, "fusion_lon": 0.0, "is_disabled": 0}, {"rental_uris": {"android": "https://dc.lft.to/lastmile_qr_scan", "ios": "https://dc.lft.to/lastmile_qr_scan"}, "type": "electric_scooter", "lon": -77.0365725, "name": "035cb82971d66a93bc3f536b2b30cfe0", "bike_id": "035cb82971d66a93bc3f536b2b30cfe0", "fusion_lat": 0.0, "is_reserved": 0, "lat": 38.9224865, "fusion_lon": 0.0, "is_disabled": 0}, {"rental_uris": {"android": "https://dc.lft.to/lastmile_qr_scan", "ios": "https://dc.lft.to/lastmile_qr_scan"}, "type": "electric_scooter", "lon": -77.00359633333333, "name": "b03d5c14589dbf92206c591a4c6c2efc", "bike_id": "b03d5c14589dbf92206c591a4c6c2efc", "fusion_lat": 0.0, "is_reserved": 0, "lat": 38.90602, "fusion_lon": 0.0, "is_disabled": 0}, {"rental_uris": {"android": "https://dc.lft.to/lastmile_qr_scan", "ios": "https://dc.lft.to/lastmile_qr_scan"}, "type": "electric_scooter", "lon": -77.00144066666667, "name": "d9275a264c1056a0aec2b512dfed3c88", "bike_id": "d9275a264c1056a0aec2b512dfed3c88", "fusion_lat": 0.0, "is_reserved": 0, "lat": 38.907815, "fusion_lon": 0.0, "is_disabled": 0}, {"rental_uris": {"android": "https://dc.lft.to/lastmile_qr_scan", "ios": "https://dc.lft.to/lastmile_qr_scan"}, "type": "electric_scooter", "lon": -77.03292816666666, "name": "fdd91039a5c55a4c88dc8bfab8049dd8", "bike_id": "fdd91039a5c55a4c88dc8bfab8049dd8", "fusion_lat": 0.0, "is_reserved": 0, "lat": 38.956523833333335, "fusion_lon": 0.0, "is_disabled": 0}, {"rental_uris": {"android": "https://dc.lft.to/lastmile_qr_scan", "ios": "https://dc.lft.to/lastmile_qr_scan"}, "type": "electric_scooter", "lon": -77.01940316666666, "name": "3e57f5aa1aa5aed8d22bf6f61b80bdea", "bike_id": "3e57f5aa1aa5aed8d22bf6f61b80bdea", "fusion_lat": 0.0, "is_reserved": 0, "lat": 38.9097075, "fusion_lon": 0.0, "is_disabled": 0}, {"rental_uris": {"android": "https://dc.lft.to/lastmile_qr_scan", "ios": "https://dc.lft.to/lastmile_qr_scan"}, "type": "electric_scooter", "lon": -76.9944835, "name": "86def49369d8b2d69ff3048210fc10f0", "bike_id": "86def49369d8b2d69ff3048210fc10f0", "fusion_lat": 0.0, "is_reserved": 0, "lat": 38.9050465, "fusion_lon": 0.0, "is_disabled": 0}, {"rental_uris": {"android": "https://dc.lft.to/lastmile_qr_scan", "ios": "https://dc.lft.to/lastmile_qr_scan"}, "type": "electric_scooter", "lon": -77.04241666666667, "name": "f21b4f5c7bab0a8d015fa2030fdcd22a", "bike_id": "f21b4f5c7bab0a8d015fa2030fdcd22a", "fusion_lat": 0.0, "is_reserved": 0, "lat": 38.922780333333336, "fusion_lon": 0.0, "is_disabled": 0}, {"rental_uris": {"android": "https://dc.lft.to/lastmile_qr_scan", "ios": "https://dc.lft.to/lastmile_qr_scan"}, "type": "electric_scooter", "lon": -77.06392933333333, "name": "1a0d210b911a13a32523a86d959c895d", "bike_id": "1a0d210b911a13a32523a86d959c895d", "fusion_lat": 0.0, "is_reserved": 0, "lat": 38.92906383333333, "fusion_lon": 0.0, "is_disabled": 0}, {"rental_uris": {"android": "https://dc.lft.to/lastmile_qr_scan", "ios": "https://dc.lft.to/lastmile_qr_scan"}, "type": "electric_scooter", "lon": -76.98707916666666, "name": "545dbfbd2d3ac33322610c0b830c30bb", "bike_id": "545dbfbd2d3ac33322610c0b830c30bb", "fusion_lat": 0.0, "is_reserved": 0, "lat": 38.86535466666667, "fusion_lon": 0.0, "is_disabled": 0}, {"rental_uris": {"android": "https://dc.lft.to/lastmile_qr_scan", "ios": "https://dc.lft.to/lastmile_qr_scan"}, "type": "electric_scooter", "lon": -77.02213916666666, "name": "2cb2901520f233d7607ed9fafc9d14ea", "bike_id": "2cb2901520f233d7607ed9fafc9d14ea", "fusion_lat": 0.0, "is_reserved": 0, "lat": 38.905739833333335, "fusion_lon": 0.0, "is_disabled": 0}, {"rental_uris": {"android": "https://dc.lft.to/lastmile_qr_scan", "ios": "https://dc.lft.to/lastmile_qr_scan"}, "type": "electric_scooter", "lon": -76.9471995, "name": "271151a450d763ab2972f71ed14b50d3", "bike_id": "271151a450d763ab2972f71ed14b50d3", "fusion_lat": 0.0, "is_reserved": 0, "lat": 38.89676766666667, "fusion_lon": 0.0, "is_disabled": 0}, {"rental_uris": {"android": "https://dc.lft.to/lastmile_qr_scan", "ios": "https://dc.lft.to/lastmile_qr_scan"}, "type": "electric_scooter", "lon": -77.032536, "name": "d7f25ef96abad4d83942dfa900b87a0e", "bike_id": "d7f25ef96abad4d83942dfa900b87a0e", "fusion_lat": 0.0, "is_reserved": 0, "lat": 38.9284615, "fusion_lon": 0.0, "is_disabled": 0}, {"rental_uris": {"android": "https://dc.lft.to/lastmile_qr_scan", "ios": "https://dc.lft.to/lastmile_qr_scan"}, "type": "electric_bike", "lon": -77.12981166666667, "name": "b8f4b838daf4a0ba51906e56ee4f04d1", "bike_id": "b8f4b838daf4a0ba51906e56ee4f04d1", "fusion_lat": 0.0, "is_reserved": 0, "lat": 38.79986566666667, "fusion_lon": 0.0, "is_disabled": 0}, {"rental_uris": {"android": "https://dc.lft.to/lastmile_qr_scan", "ios": "https://dc.lft.to/lastmile_qr_scan"}, "type": "electric_bike", "lon": -77.07045566666666, "name": "d7985e6735579c4acbd7190062fa7e7d", "bike_id": "d7985e6735579c4acbd7190062fa7e7d", "fusion_lat": 0.0, "is_reserved": 0, "lat": 38.824451, "fusion_lon": 0.0, "is_disabled": 0}, {"rental_uris": {"android": "https://dc.lft.to/lastmile_qr_scan", "ios": "https://dc.lft.to/lastmile_qr_scan"}, "type": "electric_bike", "lon": -76.91600566666666, "name": "99aa64ef22e96589c99188d85efe945f", "bike_id": "99aa64ef22e96589c99188d85efe945f", "fusion_lat": 0.0, "is_reserved": 0, "lat": 38.8798385, "fusion_lon": 0.0, "is_disabled": 0}, {"rental_uris": {"android": "https://dc.lft.to/lastmile_qr_scan", "ios": "https://dc.lft.to/lastmile_qr_scan"}, "type": "electric_bike", "lon": -77.01209633333333, "name": "69c1ae4a57fd55e8f30274e8631bac5c", "bike_id": "69c1ae4a57fd55e8f30274e8631bac5c", "fusion_lat": 0.0, "is_reserved": 0, "lat": 38.871013833333336, "fusion_lon": 0.0, "is_disabled": 0}, {"rental_uris": {"android": "https://dc.lft.to/lastmile_qr_scan", "ios": "https://dc.lft.to/lastmile_qr_scan"}, "type": "electric_scooter", "lon": -77.0122215, "name": "d2ec836f6cf66ec5c51d2f0bdf54c3c6", "bike_id": "d2ec836f6cf66ec5c51d2f0bdf54c3c6", "fusion_lat": 0.0, "is_reserved": 0, "lat": 38.893101, "fusion_lon": 0.0, "is_disabled": 0}, {"rental_uris": {"android": "https://dc.lft.to/lastmile_qr_scan", "ios": "https://dc.lft.to/lastmile_qr_scan"}, "type": "electric_scooter", "lon": -76.97630216666667, "name": "5b493d78f5a6eaaad9c677679a754ab5", "bike_id": "5b493d78f5a6eaaad9c677679a754ab5", "fusion_lat": 0.0, "is_reserved": 0, "lat": 38.9057125, "fusion_lon": 0.0, "is_disabled": 0}, {"rental_uris": {"android": "https://dc.lft.to/lastmile_qr_scan", "ios": "https://dc.lft.to/lastmile_qr_scan"}, "type": "electric_scooter", "lon": -77.0225685, "name": "f94749c443a593b121e3b83eb88c1eb1", "bike_id": "f94749c443a593b121e3b83eb88c1eb1", "fusion_lat": 0.0, "is_reserved": 0, "lat": 38.92824183333333, "fusion_lon": 0.0, "is_disabled": 0}, {"rental_uris": {"android": "https://dc.lft.to/lastmile_qr_scan", "ios": "https://dc.lft.to/lastmile_qr_scan"}, "type": "electric_scooter", "lon": -77.05057216666667, "name": "34ae0de6600054fc7f043028681ae55a", "bike_id": "34ae0de6600054fc7f043028681ae55a", "fusion_lat": 0.0, "is_reserved": 0, "lat": 38.92370483333333, "fusion_lon": 0.0, "is_disabled": 0}, {"rental_uris": {"android": "https://dc.lft.to/lastmile_qr_scan", "ios": "https://dc.lft.to/lastmile_qr_scan"}, "type": "electric_scooter", "lon": -77.03508183333334, "name": "a288f9fd22585c67c7451f8a21a4ae96", "bike_id": "a288f9fd22585c67c7451f8a21a4ae96", "fusion_lat": 0.0, "is_reserved": 0, "lat": 38.921459666666664, "fusion_lon": 0.0, "is_disabled": 0}, {"rental_uris": {"android": "https://dc.lft.to/lastmile_qr_scan", "ios": "https://dc.lft.to/lastmile_qr_scan"}, "type": "electric_bike", "lon": -77.12812216666667, "name": "aaa3c1c46db611e8bb917f249746f248", "bike_id": "aaa3c1c46db611e8bb917f249746f248", "fusion_lat": 0.0, "is_reserved": 0, "lat": 38.865350666666664, "fusion_lon": 0.0, "is_disabled": 0}, {"rental_uris": {"android": "https://dc.lft.to/lastmile_qr_scan", "ios": "https://dc.lft.to/lastmile_qr_scan"}, "type": "electric_scooter", "lon": -77.0238405, "name": "7628f0edc7baea676ad465a4e5c5d231", "bike_id": "7628f0edc7baea676ad465a4e5c5d231", "fusion_lat": 0.0, "is_reserved": 0, "lat": 38.90710516666667, "fusion_lon": 0.0, "is_disabled": 0}, {"rental_uris": {"android": "https://dc.lft.to/lastmile_qr_scan", "ios": "https://dc.lft.to/lastmile_qr_scan"}, "type": "electric_scooter", "lon": -77.043242, "name": "6b31e93fbb914f2fa29869709fbcb649", "bike_id": "6b31e93fbb914f2fa29869709fbcb649", "fusion_lat": 0.0, "is_reserved": 0, "lat": 38.892209, "fusion_lon": 0.0, "is_disabled": 0}, {"rental_uris": {"android": "https://dc.lft.to/lastmile_qr_scan", "ios": "https://dc.lft.to/lastmile_qr_scan"}, "type": "electric_scooter", "lon": -77.037812, "name": "ff4befb6c4ea793430569cebd25e416f", "bike_id": "ff4befb6c4ea793430569cebd25e416f", "fusion_lat": 0.0, "is_reserved": 0, "lat": 38.90688633333333, "fusion_lon": 0.0, "is_disabled": 0}, {"rental_uris": {"android": "https://dc.lft.to/lastmile_qr_scan", "ios": "https://dc.lft.to/lastmile_qr_scan"}, "type": "electric_scooter", "lon": -77.06887, "name": "6369fdeb7d119c7bef550ee39e64f49d", "bike_id": "6369fdeb7d119c7bef550ee39e64f49d", "fusion_lat": 0.0, "is_reserved": 0, "lat": 38.90511683333333, "fusion_lon": 0.0, "is_disabled": 0}, {"rental_uris": {"android": "https://dc.lft.to/lastmile_qr_scan", "ios": "https://dc.lft.to/lastmile_qr_scan"}, "type": "electric_scooter", "lon": -77.01840366666667, "name": "4d59a7e46d38f408b0356ad56917aa38", "bike_id": "4d59a7e46d38f408b0356ad56917aa38", "fusion_lat": 0.0, "is_reserved": 0, "lat": 38.9095945, "fusion_lon": 0.0, "is_disabled": 0}, {"rental_uris": {"android": "https://dc.lft.to/lastmile_qr_scan", "ios": "https://dc.lft.to/lastmile_qr_scan"}, "type": "electric_scooter", "lon": -76.99607466666667, "name": "bcc753efa358c7d7bc0fa0ff6c627638", "bike_id": "bcc753efa358c7d7bc0fa0ff6c627638", "fusion_lat": 0.0, "is_reserved": 0, "lat": 38.8975935, "fusion_lon": 0.0, "is_disabled": 0}, {"rental_uris": {"android": "https://dc.lft.to/lastmile_qr_scan", "ios": "https://dc.lft.to/lastmile_qr_scan"}, "type": "electric_scooter", "lon": -77.0216615, "name": "257a332d6bb1d0a892744d0a821809a5", "bike_id": "257a332d6bb1d0a892744d0a821809a5", "fusion_lat": 0.0, "is_reserved": 0, "lat": 38.887423, "fusion_lon": 0.0, "is_disabled": 0}, {"rental_uris": {"android": "https://dc.lft.to/lastmile_qr_scan", "ios": "https://dc.lft.to/lastmile_qr_scan"}, "type": "electric_scooter", "lon": -77.03859516666667, "name": "c92424e883a11c04b0f6dea1237d0bcf", "bike_id": "c92424e883a11c04b0f6dea1237d0bcf", "fusion_lat": 0.0, "is_reserved": 0, "lat": 38.915429333333336, "fusion_lon": 0.0, "is_disabled": 0}, {"rental_uris": {"android": "https://dc.lft.to/lastmile_qr_scan", "ios": "https://dc.lft.to/lastmile_qr_scan"}, "type": "electric_scooter", "lon": -77.021985, "name": "1e59ff614950494773d14cedcf89603f", "bike_id": "1e59ff614950494773d14cedcf89603f", "fusion_lat": 0.0, "is_reserved": 0, "lat": 38.8963175, "fusion_lon": 0.0, "is_disabled": 0}, {"rental_uris": {"android": "https://dc.lft.to/lastmile_qr_scan", "ios": "https://dc.lft.to/lastmile_qr_scan"}, "type": "electric_scooter", "lon": -77.03076733333333, "name": "f8b47bd0a1bdfbcbf5a593a2dadf2bfc", "bike_id": "f8b47bd0a1bdfbcbf5a593a2dadf2bfc", "fusion_lat": 0.0, "is_reserved": 0, "lat": 38.92722116666667, "fusion_lon": 0.0, "is_disabled": 0}, {"rental_uris": {"android": "https://dc.lft.to/lastmile_qr_scan", "ios": "https://dc.lft.to/lastmile_qr_scan"}, "type": "electric_bike", "lon": -77.00507016666667, "name": "e64b54109327d05ced05acd159412d3e", "bike_id": "e64b54109327d05ced05acd159412d3e", "fusion_lat": 0.0, "is_reserved": 0, "lat": 38.87532083333333, "fusion_lon": 0.0, "is_disabled": 0}, {"rental_uris": {"android": "https://dc.lft.to/lastmile_qr_scan", "ios": "https://dc.lft.to/lastmile_qr_scan"}, "type": "electric_scooter", "lon": -76.99680466666666, "name": "a47a4307e21ff6a945c775a19c1ed878", "bike_id": "a47a4307e21ff6a945c775a19c1ed878", "fusion_lat": 0.0, "is_reserved": 0, "lat": 38.887014, "fusion_lon": 0.0, "is_disabled": 0}, {"rental_uris": {"android": "https://dc.lft.to/lastmile_qr_scan", "ios": "https://dc.lft.to/lastmile_qr_scan"}, "type": "electric_scooter", "lon": -77.0137525, "name": "a9d96d37e30c1b36becd243af2e91c8a", "bike_id": "a9d96d37e30c1b36becd243af2e91c8a", "fusion_lat": 0.0, "is_reserved": 0, "lat": 38.914988666666666, "fusion_lon": 0.0, "is_disabled": 0}, {"rental_uris": {"android": "https://dc.lft.to/lastmile_qr_scan", "ios": "https://dc.lft.to/lastmile_qr_scan"}, "type": "electric_scooter", "lon": -77.00340433333334, "name": "e85db61762a9866a1cf3cbbe1c15fd59", "bike_id": "e85db61762a9866a1cf3cbbe1c15fd59", "fusion_lat": 0.0, "is_reserved": 0, "lat": 38.9226795, "fusion_lon": 0.0, "is_disabled": 0}, {"rental_uris": {"android": "https://dc.lft.to/lastmile_qr_scan", "ios": "https://dc.lft.to/lastmile_qr_scan"}, "type": "electric_bike", "lon": -77.02374783333333, "name": "43f581a0557af1489a06e164379e226e", "bike_id": "43f581a0557af1489a06e164379e226e", "fusion_lat": 0.0, "is_reserved": 0, "lat": 38.952987666666665, "fusion_lon": 0.0, "is_disabled": 0}, {"rental_uris": {"android": "https://dc.lft.to/lastmile_qr_scan", "ios": "https://dc.lft.to/lastmile_qr_scan"}, "type": "electric_scooter", "lon": -77.04124466666667, "name": "577ddaaa9abe0eeff4e9ee3c17b979c1", "bike_id": "577ddaaa9abe0eeff4e9ee3c17b979c1", "fusion_lat": 0.0, "is_reserved": 0, "lat": 38.9213805, "fusion_lon": 0.0, "is_disabled": 0}, {"rental_uris": {"android": "https://dc.lft.to/lastmile_qr_scan", "ios": "https://dc.lft.to/lastmile_qr_scan"}, "type": "electric_scooter", "lon": -77.065711, "name": "88a4a15cd4cecaddd5f8a2e1343987d8", "bike_id": "88a4a15cd4cecaddd5f8a2e1343987d8", "fusion_lat": 0.0, "is_reserved": 0, "lat": 38.9052525, "fusion_lon": 0.0, "is_disabled": 0}, {"rental_uris": {"android": "https://dc.lft.to/lastmile_qr_scan", "ios": "https://dc.lft.to/lastmile_qr_scan"}, "type": "electric_scooter", "lon": -77.03332, "name": "842db5ab86ca9e87f6ca110a6ac48416", "bike_id": "842db5ab86ca9e87f6ca110a6ac48416", "fusion_lat": 0.0, "is_reserved": 0, "lat": 38.928789333333334, "fusion_lon": 0.0, "is_disabled": 0}, {"rental_uris": {"android": "https://dc.lft.to/lastmile_qr_scan", "ios": "https://dc.lft.to/lastmile_qr_scan"}, "type": "electric_scooter", "lon": -77.03194983333333, "name": "b17446b44d332c7a1ba87b49364fdc12", "bike_id": "b17446b44d332c7a1ba87b49364fdc12", "fusion_lat": 0.0, "is_reserved": 0, "lat": 38.9163525, "fusion_lon": 0.0, "is_disabled": 0}, {"rental_uris": {"android": "https://dc.lft.to/lastmile_qr_scan", "ios": "https://dc.lft.to/lastmile_qr_scan"}, "type": "electric_scooter", "lon": -77.06782316666667, "name": "dd17d2170f2fc3385816e5d5865aa967", "bike_id": "dd17d2170f2fc3385816e5d5865aa967", "fusion_lat": 0.0, "is_reserved": 0, "lat": 38.90521116666667, "fusion_lon": 0.0, "is_disabled": 0}, {"rental_uris": {"android": "https://dc.lft.to/lastmile_qr_scan", "ios": "https://dc.lft.to/lastmile_qr_scan"}, "type": "electric_scooter", "lon": -77.0418365, "name": "d17556cb0cc043325c3ca0c1b243fc67", "bike_id": "d17556cb0cc043325c3ca0c1b243fc67", "fusion_lat": 0.0, "is_reserved": 0, "lat": 38.91264816666666, "fusion_lon": 0.0, "is_disabled": 0}, {"rental_uris": {"android": "https://dc.lft.to/lastmile_qr_scan", "ios": "https://dc.lft.to/lastmile_qr_scan"}, "type": "electric_bike", "lon": -76.9095965, "name": "a52ce3701648eb262a421e19ee05fe69", "bike_id": "a52ce3701648eb262a421e19ee05fe69", "fusion_lat": 0.0, "is_reserved": 0, "lat": 38.85420833333333, "fusion_lon": 0.0, "is_disabled": 0}, {"rental_uris": {"android": "https://dc.lft.to/lastmile_qr_scan", "ios": "https://dc.lft.to/lastmile_qr_scan"}, "type": "electric_scooter", "lon": -76.93753566666666, "name": "a6f7bdf63cab67228f0d76a2a4bd1522", "bike_id": "a6f7bdf63cab67228f0d76a2a4bd1522", "fusion_lat": 0.0, "is_reserved": 0, "lat": 38.8903775, "fusion_lon": 0.0, "is_disabled": 0}, {"rental_uris": {"android": "https://dc.lft.to/lastmile_qr_scan", "ios": "https://dc.lft.to/lastmile_qr_scan"}, "type": "electric_scooter", "lon": -77.02586883333333, "name": "82d3be7aa93cdf9356365e6438600257", "bike_id": "82d3be7aa93cdf9356365e6438600257", "fusion_lat": 0.0, "is_reserved": 0, "lat": 38.904922166666665, "fusion_lon": 0.0, "is_disabled": 0}, {"rental_uris": {"android": "https://dc.lft.to/lastmile_qr_scan", "ios": "https://dc.lft.to/lastmile_qr_scan"}, "type": "electric_scooter", "lon": -77.02212566666667, "name": "a0ac8d5b4e751a0478240646b3772213", "bike_id": "a0ac8d5b4e751a0478240646b3772213", "fusion_lat": 0.0, "is_reserved": 0, "lat": 38.91271366666667, "fusion_lon": 0.0, "is_disabled": 0}, {"rental_uris": {"android": "https://dc.lft.to/lastmile_qr_scan", "ios": "https://dc.lft.to/lastmile_qr_scan"}, "type": "electric_scooter", "lon": -77.04160916666666, "name": "ea21c745e2db1293e799fef7431d0833", "bike_id": "ea21c745e2db1293e799fef7431d0833", "fusion_lat": 0.0, "is_reserved": 0, "lat": 38.89266216666667, "fusion_lon": 0.0, "is_disabled": 0}, {"rental_uris": {"android": "https://dc.lft.to/lastmile_qr_scan", "ios": "https://dc.lft.to/lastmile_qr_scan"}, "type": "electric_scooter", "lon": -77.022001, "name": "dd8d860db1f1fbf1f6286f3d5a836279", "bike_id": "dd8d860db1f1fbf1f6286f3d5a836279", "fusion_lat": 0.0, "is_reserved": 0, "lat": 38.895013666666664, "fusion_lon": 0.0, "is_disabled": 0}, {"rental_uris": {"android": "https://dc.lft.to/lastmile_qr_scan", "ios": "https://dc.lft.to/lastmile_qr_scan"}, "type": "electric_scooter", "lon": -76.98598916666667, "name": "c30a987c84bc1d289bce5c2b29cfb5f4", "bike_id": "c30a987c84bc1d289bce5c2b29cfb5f4", "fusion_lat": 0.0, "is_reserved": 0, "lat": 38.90010083333333, "fusion_lon": 0.0, "is_disabled": 0}, {"rental_uris": {"android": "https://dc.lft.to/lastmile_qr_scan", "ios": "https://dc.lft.to/lastmile_qr_scan"}, "type": "electric_scooter", "lon": -77.03187783333334, "name": "be305837879afb609034dcfaeb2726a1", "bike_id": "be305837879afb609034dcfaeb2726a1", "fusion_lat": 0.0, "is_reserved": 0, "lat": 38.921065666666664, "fusion_lon": 0.0, "is_disabled": 0}, {"rental_uris": {"android": "https://dc.lft.to/lastmile_qr_scan", "ios": "https://dc.lft.to/lastmile_qr_scan"}, "type": "electric_scooter", "lon": -77.02681866666667, "name": "9c122cacac333e0f4d3d112f7a89688c", "bike_id": "9c122cacac333e0f4d3d112f7a89688c", "fusion_lat": 0.0, "is_reserved": 0, "lat": 38.909625166666665, "fusion_lon": 0.0, "is_disabled": 0}, {"rental_uris": {"android": "https://dc.lft.to/lastmile_qr_scan", "ios": "https://dc.lft.to/lastmile_qr_scan"}, "type": "electric_scooter", "lon": -77.04596666666667, "name": "2ed5024339854413a1dba60187dec6fc", "bike_id": "2ed5024339854413a1dba60187dec6fc", "fusion_lat": 0.0, "is_reserved": 0, "lat": 38.906657833333334, "fusion_lon": 0.0, "is_disabled": 0}, {"rental_uris": {"android": "https://dc.lft.to/lastmile_qr_scan", "ios": "https://dc.lft.to/lastmile_qr_scan"}, "type": "electric_bike", "lon": -77.028751, "name": "4f01756d827aeddb1441769ab81289a7", "bike_id": "4f01756d827aeddb1441769ab81289a7", "fusion_lat": 0.0, "is_reserved": 0, "lat": 38.97942416666667, "fusion_lon": 0.0, "is_disabled": 0}, {"rental_uris": {"android": "https://dc.lft.to/lastmile_qr_scan", "ios": "https://dc.lft.to/lastmile_qr_scan"}, "type": "electric_scooter", "lon": -76.94823766666667, "name": "d04d3648870bb26bce1c9a81a51f93f0", "bike_id": "d04d3648870bb26bce1c9a81a51f93f0", "fusion_lat": 0.0, "is_reserved": 0, "lat": 38.88516216666667, "fusion_lon": 0.0, "is_disabled": 0}, {"rental_uris": {"android": "https://dc.lft.to/lastmile_qr_scan", "ios": "https://dc.lft.to/lastmile_qr_scan"}, "type": "electric_scooter", "lon": -77.02414883333333, "name": "b46ffe2ad658fc48b1c58668fb3e3c55", "bike_id": "b46ffe2ad658fc48b1c58668fb3e3c55", "fusion_lat": 0.0, "is_reserved": 0, "lat": 38.957339166666664, "fusion_lon": 0.0, "is_disabled": 0}, {"rental_uris": {"android": "https://dc.lft.to/lastmile_qr_scan", "ios": "https://dc.lft.to/lastmile_qr_scan"}, "type": "electric_scooter", "lon": -77.01950383333333, "name": "d129f1b0e0c20a2cfc46eb71c336008c", "bike_id": "d129f1b0e0c20a2cfc46eb71c336008c", "fusion_lat": 0.0, "is_reserved": 0, "lat": 38.92264516666667, "fusion_lon": 0.0, "is_disabled": 0}, {"rental_uris": {"android": "https://dc.lft.to/lastmile_qr_scan", "ios": "https://dc.lft.to/lastmile_qr_scan"}, "type": "electric_scooter", "lon": -77.03842466666667, "name": "b2657226569f11fb566e1dde492b9cae", "bike_id": "b2657226569f11fb566e1dde492b9cae", "fusion_lat": 0.0, "is_reserved": 0, "lat": 38.91212083333333, "fusion_lon": 0.0, "is_disabled": 0}, {"rental_uris": {"android": "https://dc.lft.to/lastmile_qr_scan", "ios": "https://dc.lft.to/lastmile_qr_scan"}, "type": "electric_scooter", "lon": -77.0246965, "name": "6e8ffcad34fb13112769efb42d55dacb", "bike_id": "6e8ffcad34fb13112769efb42d55dacb", "fusion_lat": 0.0, "is_reserved": 0, "lat": 38.93853166666667, "fusion_lon": 0.0, "is_disabled": 0}, {"rental_uris": {"android": "https://dc.lft.to/lastmile_qr_scan", "ios": "https://dc.lft.to/lastmile_qr_scan"}, "type": "electric_scooter", "lon": -77.06279916666666, "name": "b8bb469db5d3fb741ff68e9660306b68", "bike_id": "b8bb469db5d3fb741ff68e9660306b68", "fusion_lat": 0.0, "is_reserved": 0, "lat": 38.90622166666667, "fusion_lon": 0.0, "is_disabled": 0}, {"rental_uris": {"android": "https://dc.lft.to/lastmile_qr_scan", "ios": "https://dc.lft.to/lastmile_qr_scan"}, "type": "electric_scooter", "lon": -77.01604833333333, "name": "78e6f5c81202b0420b91f627018bb216", "bike_id": "78e6f5c81202b0420b91f627018bb216", "fusion_lat": 0.0, "is_reserved": 0, "lat": 38.91758216666667, "fusion_lon": 0.0, "is_disabled": 0}, {"rental_uris": {"android": "https://dc.lft.to/lastmile_qr_scan", "ios": "https://dc.lft.to/lastmile_qr_scan"}, "type": "electric_scooter", "lon": -77.031353, "name": "9c0f18a82071391a76d0c710063f05ba", "bike_id": "9c0f18a82071391a76d0c710063f05ba", "fusion_lat": 0.0, "is_reserved": 0, "lat": 38.92379733333333, "fusion_lon": 0.0, "is_disabled": 0}, {"rental_uris": {"android": "https://dc.lft.to/lastmile_qr_scan", "ios": "https://dc.lft.to/lastmile_qr_scan"}, "type": "electric_scooter", "lon": -76.9994465, "name": "07ea27384a0a6d1736d51b4218bcb0b7", "bike_id": "07ea27384a0a6d1736d51b4218bcb0b7", "fusion_lat": 0.0, "is_reserved": 0, "lat": 38.842896833333334, "fusion_lon": 0.0, "is_disabled": 0}, {"rental_uris": {"android": "https://dc.lft.to/lastmile_qr_scan", "ios": "https://dc.lft.to/lastmile_qr_scan"}, "type": "electric_scooter", "lon": -76.98854383333334, "name": "faee5ba09c9cfacae0c524baa2b0dc1d", "bike_id": "faee5ba09c9cfacae0c524baa2b0dc1d", "fusion_lat": 0.0, "is_reserved": 0, "lat": 38.900294333333335, "fusion_lon": 0.0, "is_disabled": 0}, {"rental_uris": {"android": "https://dc.lft.to/lastmile_qr_scan", "ios": "https://dc.lft.to/lastmile_qr_scan"}, "type": "electric_scooter", "lon": -76.98757116666667, "name": "605b7cebcdde7feea6883ac399d61bb2", "bike_id": "605b7cebcdde7feea6883ac399d61bb2", "fusion_lat": 0.0, "is_reserved": 0, "lat": 38.907949, "fusion_lon": 0.0, "is_disabled": 0}, {"rental_uris": {"android": "https://dc.lft.to/lastmile_qr_scan", "ios": "https://dc.lft.to/lastmile_qr_scan"}, "type": "electric_scooter", "lon": -76.98334833333334, "name": "2d324cdd4c161d2533cb0609f684674d", "bike_id": "2d324cdd4c161d2533cb0609f684674d", "fusion_lat": 0.0, "is_reserved": 0, "lat": 38.862538, "fusion_lon": 0.0, "is_disabled": 0}, {"rental_uris": {"android": "https://dc.lft.to/lastmile_qr_scan", "ios": "https://dc.lft.to/lastmile_qr_scan"}, "type": "electric_bike", "lon": -77.07795566666667, "name": "55c9f02b74171816b9403836f791b8ad", "bike_id": "55c9f02b74171816b9403836f791b8ad", "fusion_lat": 0.0, "is_reserved": 0, "lat": 38.845126666666665, "fusion_lon": 0.0, "is_disabled": 0}, {"rental_uris": {"android": "https://dc.lft.to/lastmile_qr_scan", "ios": "https://dc.lft.to/lastmile_qr_scan"}, "type": "electric_scooter", "lon": -77.03286, "name": "078ef8f921453a7a360c090d4ed84a96", "bike_id": "078ef8f921453a7a360c090d4ed84a96", "fusion_lat": 0.0, "is_reserved": 0, "lat": 38.9368645, "fusion_lon": 0.0, "is_disabled": 0}, {"rental_uris": {"android": "https://dc.lft.to/lastmile_qr_scan", "ios": "https://dc.lft.to/lastmile_qr_scan"}, "type": "electric_scooter", "lon": -77.0240245, "name": "abbbd96fee341e1449ffafe0c655c9c0", "bike_id": "abbbd96fee341e1449ffafe0c655c9c0", "fusion_lat": 0.0, "is_reserved": 0, "lat": 38.957331, "fusion_lon": 0.0, "is_disabled": 0}, {"rental_uris": {"android": "https://dc.lft.to/lastmile_qr_scan", "ios": "https://dc.lft.to/lastmile_qr_scan"}, "type": "electric_scooter", "lon": -76.99387033333333, "name": "8e076f2c7f6c968a7fda898b4973b1b1", "bike_id": "8e076f2c7f6c968a7fda898b4973b1b1", "fusion_lat": 0.0, "is_reserved": 0, "lat": 38.88708833333333, "fusion_lon": 0.0, "is_disabled": 0}, {"rental_uris": {"android": "https://dc.lft.to/lastmile_qr_scan", "ios": "https://dc.lft.to/lastmile_qr_scan"}, "type": "electric_scooter", "lon": -77.00597566666667, "name": "8392d936d6c438eac371047008c84ce8", "bike_id": "8392d936d6c438eac371047008c84ce8", "fusion_lat": 0.0, "is_reserved": 0, "lat": 38.90821183333333, "fusion_lon": 0.0, "is_disabled": 0}, {"rental_uris": {"android": "https://dc.lft.to/lastmile_qr_scan", "ios": "https://dc.lft.to/lastmile_qr_scan"}, "type": "electric_scooter", "lon": -77.048802, "name": "e22b9a7958a3cd945820f9d855d8d0ef", "bike_id": "e22b9a7958a3cd945820f9d855d8d0ef", "fusion_lat": 0.0, "is_reserved": 0, "lat": 38.90095616666667, "fusion_lon": 0.0, "is_disabled": 0}, {"rental_uris": {"android": "https://dc.lft.to/lastmile_qr_scan", "ios": "https://dc.lft.to/lastmile_qr_scan"}, "type": "electric_scooter", "lon": -77.06107033333333, "name": "0c06903ff29003a6243129166510c9ae", "bike_id": "0c06903ff29003a6243129166510c9ae", "fusion_lat": 0.0, "is_reserved": 0, "lat": 38.94368033333333, "fusion_lon": 0.0, "is_disabled": 0}, {"rental_uris": {"android": "https://dc.lft.to/lastmile_qr_scan", "ios": "https://dc.lft.to/lastmile_qr_scan"}, "type": "electric_scooter", "lon": -77.036657, "name": "6ae323e7c9f35eb3129f4fa1163c96a6", "bike_id": "6ae323e7c9f35eb3129f4fa1163c96a6", "fusion_lat": 0.0, "is_reserved": 0, "lat": 38.902705833333336, "fusion_lon": 0.0, "is_disabled": 0}, {"rental_uris": {"android": "https://dc.lft.to/lastmile_qr_scan", "ios": "https://dc.lft.to/lastmile_qr_scan"}, "type": "electric_scooter", "lon": -77.02024183333333, "name": "0730c939659a221147cba5082e0a3cb5", "bike_id": "0730c939659a221147cba5082e0a3cb5", "fusion_lat": 0.0, "is_reserved": 0, "lat": 38.92430016666667, "fusion_lon": 0.0, "is_disabled": 0}, {"rental_uris": {"android": "https://dc.lft.to/lastmile_qr_scan", "ios": "https://dc.lft.to/lastmile_qr_scan"}, "type": "electric_scooter", "lon": -76.99024616666667, "name": "4292c319abe74a7e60e988390380c6d7", "bike_id": "4292c319abe74a7e60e988390380c6d7", "fusion_lat": 0.0, "is_reserved": 0, "lat": 38.864046333333334, "fusion_lon": 0.0, "is_disabled": 0}, {"rental_uris": {"android": "https://dc.lft.to/lastmile_qr_scan", "ios": "https://dc.lft.to/lastmile_qr_scan"}, "type": "electric_scooter", "lon": -77.040237, "name": "e801c60b6e6c3df71bc847e120784f09", "bike_id": "e801c60b6e6c3df71bc847e120784f09", "fusion_lat": 0.0, "is_reserved": 0, "lat": 38.9245425, "fusion_lon": 0.0, "is_disabled": 0}, {"rental_uris": {"android": "https://dc.lft.to/lastmile_qr_scan", "ios": "https://dc.lft.to/lastmile_qr_scan"}, "type": "electric_scooter", "lon": -77.04770383333333, "name": "0fce5146387c507486769340ede060d8", "bike_id": "0fce5146387c507486769340ede060d8", "fusion_lat": 0.0, "is_reserved": 0, "lat": 38.917533166666665, "fusion_lon": 0.0, "is_disabled": 0}, {"rental_uris": {"android": "https://dc.lft.to/lastmile_qr_scan", "ios": "https://dc.lft.to/lastmile_qr_scan"}, "type": "electric_scooter", "lon": -76.99722533333333, "name": "a48c22defce7c68aa931d951f74c01cb", "bike_id": "a48c22defce7c68aa931d951f74c01cb", "fusion_lat": 0.0, "is_reserved": 0, "lat": 38.89899233333333, "fusion_lon": 0.0, "is_disabled": 0}, {"rental_uris": {"android": "https://dc.lft.to/lastmile_qr_scan", "ios": "https://dc.lft.to/lastmile_qr_scan"}, "type": "electric_scooter", "lon": -77.03906466666666, "name": "a19852650aec58aa6fe66a912cb0ddbf", "bike_id": "a19852650aec58aa6fe66a912cb0ddbf", "fusion_lat": 0.0, "is_reserved": 0, "lat": 38.91416916666667, "fusion_lon": 0.0, "is_disabled": 0}, {"rental_uris": {"android": "https://dc.lft.to/lastmile_qr_scan", "ios": "https://dc.lft.to/lastmile_qr_scan"}, "type": "electric_scooter", "lon": -77.04146883333334, "name": "6b0fec972325c8e0115055fc6efc5560", "bike_id": "6b0fec972325c8e0115055fc6efc5560", "fusion_lat": 0.0, "is_reserved": 0, "lat": 38.91969516666666, "fusion_lon": 0.0, "is_disabled": 0}, {"rental_uris": {"android": "https://dc.lft.to/lastmile_qr_scan", "ios": "https://dc.lft.to/lastmile_qr_scan"}, "type": "electric_scooter", "lon": -77.06756216666666, "name": "c13bdd4505c44e50d10dc87680d38f58", "bike_id": "c13bdd4505c44e50d10dc87680d38f58", "fusion_lat": 0.0, "is_reserved": 0, "lat": 38.90377133333333, "fusion_lon": 0.0, "is_disabled": 0}, {"rental_uris": {"android": "https://dc.lft.to/lastmile_qr_scan", "ios": "https://dc.lft.to/lastmile_qr_scan"}, "type": "electric_scooter", "lon": -77.030561, "name": "51ebfc14f67a2a5ca98e129e1407c93b", "bike_id": "51ebfc14f67a2a5ca98e129e1407c93b", "fusion_lat": 0.0, "is_reserved": 0, "lat": 38.88408966666667, "fusion_lon": 0.0, "is_disabled": 0}, {"rental_uris": {"android": "https://dc.lft.to/lastmile_qr_scan", "ios": "https://dc.lft.to/lastmile_qr_scan"}, "type": "electric_scooter", "lon": -77.03262783333334, "name": "19a85ec0ab07f6d82012889349bea2d6", "bike_id": "19a85ec0ab07f6d82012889349bea2d6", "fusion_lat": 0.0, "is_reserved": 0, "lat": 38.942564, "fusion_lon": 0.0, "is_disabled": 0}, {"rental_uris": {"android": "https://dc.lft.to/lastmile_qr_scan", "ios": "https://dc.lft.to/lastmile_qr_scan"}, "type": "electric_bike", "lon": -77.0916285, "name": "66dca36eb0c8100485620bf669cd3d51", "bike_id": "66dca36eb0c8100485620bf669cd3d51", "fusion_lat": 0.0, "is_reserved": 0, "lat": 38.967582166666666, "fusion_lon": 0.0, "is_disabled": 0}, {"rental_uris": {"android": "https://dc.lft.to/lastmile_qr_scan", "ios": "https://dc.lft.to/lastmile_qr_scan"}, "type": "electric_scooter", "lon": -77.0228345, "name": "7ec755c4da87c943a2437893d681198c", "bike_id": "7ec755c4da87c943a2437893d681198c", "fusion_lat": 0.0, "is_reserved": 0, "lat": 38.91751416666666, "fusion_lon": 0.0, "is_disabled": 0}, {"rental_uris": {"android": "https://dc.lft.to/lastmile_qr_scan", "ios": "https://dc.lft.to/lastmile_qr_scan"}, "type": "electric_scooter", "lon": -77.03260083333333, "name": "c50c5cfad91c52955f40734613eb474c", "bike_id": "c50c5cfad91c52955f40734613eb474c", "fusion_lat": 0.0, "is_reserved": 0, "lat": 38.93256366666667, "fusion_lon": 0.0, "is_disabled": 0}, {"rental_uris": {"android": "https://dc.lft.to/lastmile_qr_scan", "ios": "https://dc.lft.to/lastmile_qr_scan"}, "type": "electric_scooter", "lon": -77.03218716666667, "name": "be0f95848f27b552af225e7dd8a09ce6", "bike_id": "be0f95848f27b552af225e7dd8a09ce6", "fusion_lat": 0.0, "is_reserved": 0, "lat": 38.918617833333336, "fusion_lon": 0.0, "is_disabled": 0}, {"rental_uris": {"android": "https://dc.lft.to/lastmile_qr_scan", "ios": "https://dc.lft.to/lastmile_qr_scan"}, "type": "electric_scooter", "lon": -77.0312215, "name": "ca87623c1014346638de889efca1156b", "bike_id": "ca87623c1014346638de889efca1156b", "fusion_lat": 0.0, "is_reserved": 0, "lat": 38.973758, "fusion_lon": 0.0, "is_disabled": 0}, {"rental_uris": {"android": "https://dc.lft.to/lastmile_qr_scan", "ios": "https://dc.lft.to/lastmile_qr_scan"}, "type": "electric_bike", "lon": -77.01438366666666, "name": "cc8cd5701a9eee288521b50da4769651", "bike_id": "cc8cd5701a9eee288521b50da4769651", "fusion_lat": 0.0, "is_reserved": 0, "lat": 38.8767725, "fusion_lon": 0.0, "is_disabled": 0}, {"rental_uris": {"android": "https://dc.lft.to/lastmile_qr_scan", "ios": "https://dc.lft.to/lastmile_qr_scan"}, "type": "electric_scooter", "lon": -77.04657983333334, "name": "a2afd9895b77ce6cd0ad8ba9fe48a4a4", "bike_id": "a2afd9895b77ce6cd0ad8ba9fe48a4a4", "fusion_lat": 0.0, "is_reserved": 0, "lat": 38.89296016666667, "fusion_lon": 0.0, "is_disabled": 0}, {"rental_uris": {"android": "https://dc.lft.to/lastmile_qr_scan", "ios": "https://dc.lft.to/lastmile_qr_scan"}, "type": "electric_scooter", "lon": -77.02358633333333, "name": "c4d1adff7c90c549f4afee70970b8720", "bike_id": "c4d1adff7c90c549f4afee70970b8720", "fusion_lat": 0.0, "is_reserved": 0, "lat": 38.917871166666664, "fusion_lon": 0.0, "is_disabled": 0}, {"rental_uris": {"android": "https://dc.lft.to/lastmile_qr_scan", "ios": "https://dc.lft.to/lastmile_qr_scan"}, "type": "electric_bike", "lon": -77.05031683333333, "name": "d4e168ff7e666de74b41e083c3f1ea94", "bike_id": "d4e168ff7e666de74b41e083c3f1ea94", "fusion_lat": 0.0, "is_reserved": 0, "lat": 38.9110965, "fusion_lon": 0.0, "is_disabled": 0}, {"rental_uris": {"android": "https://dc.lft.to/lastmile_qr_scan", "ios": "https://dc.lft.to/lastmile_qr_scan"}, "type": "electric_scooter", "lon": -76.969158, "name": "d503b6f3134f6c5ef1896bcb09568f1d", "bike_id": "d503b6f3134f6c5ef1896bcb09568f1d", "fusion_lat": 0.0, "is_reserved": 0, "lat": 38.85524516666667, "fusion_lon": 0.0, "is_disabled": 0}, {"rental_uris": {"android": "https://dc.lft.to/lastmile_qr_scan", "ios": "https://dc.lft.to/lastmile_qr_scan"}, "type": "electric_scooter", "lon": -77.0440525, "name": "94080287e94d5aa2a8de40baf0b003f8", "bike_id": "94080287e94d5aa2a8de40baf0b003f8", "fusion_lat": 0.0, "is_reserved": 0, "lat": 38.874218666666664, "fusion_lon": 0.0, "is_disabled": 0}, {"rental_uris": {"android": "https://dc.lft.to/lastmile_qr_scan", "ios": "https://dc.lft.to/lastmile_qr_scan"}, "type": "electric_scooter", "lon": -77.04047033333333, "name": "dbd3482c29b3cb294081645595d1a834", "bike_id": "dbd3482c29b3cb294081645595d1a834", "fusion_lat": 0.0, "is_reserved": 0, "lat": 38.92877283333333, "fusion_lon": 0.0, "is_disabled": 0}, {"rental_uris": {"android": "https://dc.lft.to/lastmile_qr_scan", "ios": "https://dc.lft.to/lastmile_qr_scan"}, "type": "electric_scooter", "lon": -77.02209733333333, "name": "e3797d69762cb55f08134ee2d2111728", "bike_id": "e3797d69762cb55f08134ee2d2111728", "fusion_lat": 0.0, "is_reserved": 0, "lat": 38.912723666666665, "fusion_lon": 0.0, "is_disabled": 0}, {"rental_uris": {"android": "https://dc.lft.to/lastmile_qr_scan", "ios": "https://dc.lft.to/lastmile_qr_scan"}, "type": "electric_scooter", "lon": -76.96489933333334, "name": "3788134f08f03c85fa77ae0410e6c706", "bike_id": "3788134f08f03c85fa77ae0410e6c706", "fusion_lat": 0.0, "is_reserved": 0, "lat": 38.875486333333335, "fusion_lon": 0.0, "is_disabled": 0}, {"rental_uris": {"android": "https://dc.lft.to/lastmile_qr_scan", "ios": "https://dc.lft.to/lastmile_qr_scan"}, "type": "electric_scooter", "lon": -77.017166, "name": "cda5070ce28abe6139d04733d6b29e5c", "bike_id": "cda5070ce28abe6139d04733d6b29e5c", "fusion_lat": 0.0, "is_reserved": 0, "lat": 38.87935366666667, "fusion_lon": 0.0, "is_disabled": 0}, {"rental_uris": {"android": "https://dc.lft.to/lastmile_qr_scan", "ios": "https://dc.lft.to/lastmile_qr_scan"}, "type": "electric_scooter", "lon": -76.9861585, "name": "bd8160c55513f137fe2c82d700a73495", "bike_id": "bd8160c55513f137fe2c82d700a73495", "fusion_lat": 0.0, "is_reserved": 0, "lat": 38.90586, "fusion_lon": 0.0, "is_disabled": 0}, {"rental_uris": {"android": "https://dc.lft.to/lastmile_qr_scan", "ios": "https://dc.lft.to/lastmile_qr_scan"}, "type": "electric_scooter", "lon": -77.03838633333334, "name": "23d6dbfaee694c91d6a4e4234fe75378", "bike_id": "23d6dbfaee694c91d6a4e4234fe75378", "fusion_lat": 0.0, "is_reserved": 0, "lat": 38.93100716666667, "fusion_lon": 0.0, "is_disabled": 0}, {"rental_uris": {"android": "https://dc.lft.to/lastmile_qr_scan", "ios": "https://dc.lft.to/lastmile_qr_scan"}, "type": "electric_scooter", "lon": -77.07271133333333, "name": "79e78b6b0353a2e0f5a74b2c54bb1e20", "bike_id": "79e78b6b0353a2e0f5a74b2c54bb1e20", "fusion_lat": 0.0, "is_reserved": 0, "lat": 38.9348125, "fusion_lon": 0.0, "is_disabled": 0}, {"rental_uris": {"android": "https://dc.lft.to/lastmile_qr_scan", "ios": "https://dc.lft.to/lastmile_qr_scan"}, "type": "electric_scooter", "lon": -77.02008133333334, "name": "d1d2643555abbd33048b50fbc38b4ab4", "bike_id": "d1d2643555abbd33048b50fbc38b4ab4", "fusion_lat": 0.0, "is_reserved": 0, "lat": 38.879375, "fusion_lon": 0.0, "is_disabled": 0}, {"rental_uris": {"android": "https://dc.lft.to/lastmile_qr_scan", "ios": "https://dc.lft.to/lastmile_qr_scan"}, "type": "electric_scooter", "lon": -77.02477166666667, "name": "975a2a8caa6494db0d0b349df1fa7470", "bike_id": "975a2a8caa6494db0d0b349df1fa7470", "fusion_lat": 0.0, "is_reserved": 0, "lat": 38.9388105, "fusion_lon": 0.0, "is_disabled": 0}, {"rental_uris": {"android": "https://dc.lft.to/lastmile_qr_scan", "ios": "https://dc.lft.to/lastmile_qr_scan"}, "type": "electric_scooter", "lon": -77.07361616666667, "name": "c4485d4abba2e395081690a3db258e60", "bike_id": "c4485d4abba2e395081690a3db258e60", "fusion_lat": 0.0, "is_reserved": 0, "lat": 38.94322666666667, "fusion_lon": 0.0, "is_disabled": 0}, {"rental_uris": {"android": "https://dc.lft.to/lastmile_qr_scan", "ios": "https://dc.lft.to/lastmile_qr_scan"}, "type": "electric_scooter", "lon": -76.985563, "name": "49c083846936a6a54c84954be6d6e02d", "bike_id": "49c083846936a6a54c84954be6d6e02d", "fusion_lat": 0.0, "is_reserved": 0, "lat": 38.855829666666665, "fusion_lon": 0.0, "is_disabled": 0}, {"rental_uris": {"android": "https://dc.lft.to/lastmile_qr_scan", "ios": "https://dc.lft.to/lastmile_qr_scan"}, "type": "electric_scooter", "lon": -77.03842766666666, "name": "6be424a3d59e12eb9260a443e9a10d36", "bike_id": "6be424a3d59e12eb9260a443e9a10d36", "fusion_lat": 0.0, "is_reserved": 0, "lat": 38.91177716666667, "fusion_lon": 0.0, "is_disabled": 0}, {"rental_uris": {"android": "https://dc.lft.to/lastmile_qr_scan", "ios": "https://dc.lft.to/lastmile_qr_scan"}, "type": "electric_scooter", "lon": -77.01745616666666, "name": "dc16a7538ef6b424a4876e7e4f6d0356", "bike_id": "dc16a7538ef6b424a4876e7e4f6d0356", "fusion_lat": 0.0, "is_reserved": 0, "lat": 38.90194133333333, "fusion_lon": 0.0, "is_disabled": 0}, {"rental_uris": {"android": "https://dc.lft.to/lastmile_qr_scan", "ios": "https://dc.lft.to/lastmile_qr_scan"}, "type": "electric_scooter", "lon": -76.99375366666666, "name": "c59dcead86f108b43e2dcffbd8ca3188", "bike_id": "c59dcead86f108b43e2dcffbd8ca3188", "fusion_lat": 0.0, "is_reserved": 0, "lat": 38.9239705, "fusion_lon": 0.0, "is_disabled": 0}, {"rental_uris": {"android": "https://dc.lft.to/lastmile_qr_scan", "ios": "https://dc.lft.to/lastmile_qr_scan"}, "type": "electric_scooter", "lon": -77.00573516666667, "name": "7b985941c8ca038eaf40608be9d07d62", "bike_id": "7b985941c8ca038eaf40608be9d07d62", "fusion_lat": 0.0, "is_reserved": 0, "lat": 38.90577033333334, "fusion_lon": 0.0, "is_disabled": 0}, {"rental_uris": {"android": "https://dc.lft.to/lastmile_qr_scan", "ios": "https://dc.lft.to/lastmile_qr_scan"}, "type": "electric_bike", "lon": -77.00862916666667, "name": "c25b6ba31bc788ea84133c7cb6645a78", "bike_id": "c25b6ba31bc788ea84133c7cb6645a78", "fusion_lat": 0.0, "is_reserved": 0, "lat": 38.827283333333334, "fusion_lon": 0.0, "is_disabled": 0}, {"rental_uris": {"android": "https://dc.lft.to/lastmile_qr_scan", "ios": "https://dc.lft.to/lastmile_qr_scan"}, "type": "electric_scooter", "lon": -77.00754533333334, "name": "f2e17b1a12522a6ae82ed3e0897998d3", "bike_id": "f2e17b1a12522a6ae82ed3e0897998d3", "fusion_lat": 0.0, "is_reserved": 0, "lat": 38.9102685, "fusion_lon": 0.0, "is_disabled": 0}, {"rental_uris": {"android": "https://dc.lft.to/lastmile_qr_scan", "ios": "https://dc.lft.to/lastmile_qr_scan"}, "type": "electric_scooter", "lon": -77.03447483333333, "name": "8dff2aa97a0a6978a40bd35bdc2d06a9", "bike_id": "8dff2aa97a0a6978a40bd35bdc2d06a9", "fusion_lat": 0.0, "is_reserved": 0, "lat": 38.908754, "fusion_lon": 0.0, "is_disabled": 0}, {"rental_uris": {"android": "https://dc.lft.to/lastmile_qr_scan", "ios": "https://dc.lft.to/lastmile_qr_scan"}, "type": "electric_scooter", "lon": -77.037117, "name": "cf96b8af7c11770b269c93ce0f994964", "bike_id": "cf96b8af7c11770b269c93ce0f994964", "fusion_lat": 0.0, "is_reserved": 0, "lat": 38.92624433333334, "fusion_lon": 0.0, "is_disabled": 0}, {"rental_uris": {"android": "https://dc.lft.to/lastmile_qr_scan", "ios": "https://dc.lft.to/lastmile_qr_scan"}, "type": "electric_scooter", "lon": -76.99142216666667, "name": "a06c145a14d0d2f51de00970ccca2cac", "bike_id": "a06c145a14d0d2f51de00970ccca2cac", "fusion_lat": 0.0, "is_reserved": 0, "lat": 38.882253, "fusion_lon": 0.0, "is_disabled": 0}, {"rental_uris": {"android": "https://dc.lft.to/lastmile_qr_scan", "ios": "https://dc.lft.to/lastmile_qr_scan"}, "type": "electric_scooter", "lon": -77.04320133333333, "name": "aeead0020af9469ff7acc34acb621ba0", "bike_id": "aeead0020af9469ff7acc34acb621ba0", "fusion_lat": 0.0, "is_reserved": 0, "lat": 38.892238666666664, "fusion_lon": 0.0, "is_disabled": 0}, {"rental_uris": {"android": "https://dc.lft.to/lastmile_qr_scan", "ios": "https://dc.lft.to/lastmile_qr_scan"}, "type": "electric_scooter", "lon": -77.03839466666666, "name": "5be525e9dab84b98a5d3166cad9185d4", "bike_id": "5be525e9dab84b98a5d3166cad9185d4", "fusion_lat": 0.0, "is_reserved": 0, "lat": 38.915655666666666, "fusion_lon": 0.0, "is_disabled": 0}, {"rental_uris": {"android": "https://dc.lft.to/lastmile_qr_scan", "ios": "https://dc.lft.to/lastmile_qr_scan"}, "type": "electric_scooter", "lon": -77.04676616666667, "name": "1fd72286ee6987a440a90a9460aa1cc8", "bike_id": "1fd72286ee6987a440a90a9460aa1cc8", "fusion_lat": 0.0, "is_reserved": 0, "lat": 38.90839716666667, "fusion_lon": 0.0, "is_disabled": 0}, {"rental_uris": {"android": "https://dc.lft.to/lastmile_qr_scan", "ios": "https://dc.lft.to/lastmile_qr_scan"}, "type": "electric_scooter", "lon": -77.04226666666666, "name": "961104904fbad9fad2d837643973a5b4", "bike_id": "961104904fbad9fad2d837643973a5b4", "fusion_lat": 0.0, "is_reserved": 0, "lat": 38.911104, "fusion_lon": 0.0, "is_disabled": 0}, {"rental_uris": {"android": "https://dc.lft.to/lastmile_qr_scan", "ios": "https://dc.lft.to/lastmile_qr_scan"}, "type": "electric_scooter", "lon": -77.0333745, "name": "19dbec10047ade16d6eac8593909cf75", "bike_id": "19dbec10047ade16d6eac8593909cf75", "fusion_lat": 0.0, "is_reserved": 0, "lat": 38.903682, "fusion_lon": 0.0, "is_disabled": 0}, {"rental_uris": {"android": "https://dc.lft.to/lastmile_qr_scan", "ios": "https://dc.lft.to/lastmile_qr_scan"}, "type": "electric_bike", "lon": -77.064738, "name": "538f1b89de563c07fafde2b66f5dc2c2", "bike_id": "538f1b89de563c07fafde2b66f5dc2c2", "fusion_lat": 0.0, "is_reserved": 0, "lat": 38.973808, "fusion_lon": 0.0, "is_disabled": 0}, {"rental_uris": {"android": "https://dc.lft.to/lastmile_qr_scan", "ios": "https://dc.lft.to/lastmile_qr_scan"}, "type": "electric_scooter", "lon": -76.9916865, "name": "b3f4030b903d893ea949245b15cedfc2", "bike_id": "b3f4030b903d893ea949245b15cedfc2", "fusion_lat": 0.0, "is_reserved": 0, "lat": 38.879245166666664, "fusion_lon": 0.0, "is_disabled": 0}, {"rental_uris": {"android": "https://dc.lft.to/lastmile_qr_scan", "ios": "https://dc.lft.to/lastmile_qr_scan"}, "type": "electric_scooter", "lon": -76.99505016666667, "name": "93df2b37e898adba80b0550cf97eff8a", "bike_id": "93df2b37e898adba80b0550cf97eff8a", "fusion_lat": 0.0, "is_reserved": 0, "lat": 38.9267095, "fusion_lon": 0.0, "is_disabled": 0}, {"rental_uris": {"android": "https://dc.lft.to/lastmile_qr_scan", "ios": "https://dc.lft.to/lastmile_qr_scan"}, "type": "electric_scooter", "lon": -77.01218933333334, "name": "5484bba759586cb90ba597763f25ab9f", "bike_id": "5484bba759586cb90ba597763f25ab9f", "fusion_lat": 0.0, "is_reserved": 0, "lat": 38.9066825, "fusion_lon": 0.0, "is_disabled": 0}, {"rental_uris": {"android": "https://dc.lft.to/lastmile_qr_scan", "ios": "https://dc.lft.to/lastmile_qr_scan"}, "type": "electric_scooter", "lon": -77.01054816666667, "name": "7963c74c3234b05687eb78b49c8cb2b1", "bike_id": "7963c74c3234b05687eb78b49c8cb2b1", "fusion_lat": 0.0, "is_reserved": 0, "lat": 38.9298665, "fusion_lon": 0.0, "is_disabled": 0}, {"rental_uris": {"android": "https://dc.lft.to/lastmile_qr_scan", "ios": "https://dc.lft.to/lastmile_qr_scan"}, "type": "electric_scooter", "lon": -76.997529, "name": "264bb1e6427e906c208ef3a5476898d2", "bike_id": "264bb1e6427e906c208ef3a5476898d2", "fusion_lat": 0.0, "is_reserved": 0, "lat": 38.92193316666667, "fusion_lon": 0.0, "is_disabled": 0}, {"rental_uris": {"android": "https://dc.lft.to/lastmile_qr_scan", "ios": "https://dc.lft.to/lastmile_qr_scan"}, "type": "electric_scooter", "lon": -77.032164, "name": "b5f685851874e433f02e22cfe4733659", "bike_id": "b5f685851874e433f02e22cfe4733659", "fusion_lat": 0.0, "is_reserved": 0, "lat": 38.90753333333333, "fusion_lon": 0.0, "is_disabled": 0}, {"rental_uris": {"android": "https://dc.lft.to/lastmile_qr_scan", "ios": "https://dc.lft.to/lastmile_qr_scan"}, "type": "electric_scooter", "lon": -77.03212566666667, "name": "a2ad2af2b6c6fc872a91933560da1d02", "bike_id": "a2ad2af2b6c6fc872a91933560da1d02", "fusion_lat": 0.0, "is_reserved": 0, "lat": 38.90764183333334, "fusion_lon": 0.0, "is_disabled": 0}, {"rental_uris": {"android": "https://dc.lft.to/lastmile_qr_scan", "ios": "https://dc.lft.to/lastmile_qr_scan"}, "type": "electric_scooter", "lon": -77.0248845, "name": "dd00c2762656b77335c148e315ad479a", "bike_id": "dd00c2762656b77335c148e315ad479a", "fusion_lat": 0.0, "is_reserved": 0, "lat": 38.93910733333333, "fusion_lon": 0.0, "is_disabled": 0}, {"rental_uris": {"android": "https://dc.lft.to/lastmile_qr_scan", "ios": "https://dc.lft.to/lastmile_qr_scan"}, "type": "electric_scooter", "lon": -77.03998216666666, "name": "b9dde94c2bcf22cde52caabe7f51e2a0", "bike_id": "b9dde94c2bcf22cde52caabe7f51e2a0", "fusion_lat": 0.0, "is_reserved": 0, "lat": 38.918056, "fusion_lon": 0.0, "is_disabled": 0}, {"rental_uris": {"android": "https://dc.lft.to/lastmile_qr_scan", "ios": "https://dc.lft.to/lastmile_qr_scan"}, "type": "electric_scooter", "lon": -77.0232085, "name": "3cf43067d8b4c1b9b45e160be07e1290", "bike_id": "3cf43067d8b4c1b9b45e160be07e1290", "fusion_lat": 0.0, "is_reserved": 0, "lat": 38.9181845, "fusion_lon": 0.0, "is_disabled": 0}, {"rental_uris": {"android": "https://dc.lft.to/lastmile_qr_scan", "ios": "https://dc.lft.to/lastmile_qr_scan"}, "type": "electric_scooter", "lon": -77.00279316666666, "name": "b804dc66733b27e07718612087a28d23", "bike_id": "b804dc66733b27e07718612087a28d23", "fusion_lat": 0.0, "is_reserved": 0, "lat": 38.914736166666664, "fusion_lon": 0.0, "is_disabled": 0}, {"rental_uris": {"android": "https://dc.lft.to/lastmile_qr_scan", "ios": "https://dc.lft.to/lastmile_qr_scan"}, "type": "electric_scooter", "lon": -77.06156633333333, "name": "40cfd77d7954ab71e4c090f0f5872c00", "bike_id": "40cfd77d7954ab71e4c090f0f5872c00", "fusion_lat": 0.0, "is_reserved": 0, "lat": 38.90526233333333, "fusion_lon": 0.0, "is_disabled": 0}, {"rental_uris": {"android": "https://dc.lft.to/lastmile_qr_scan", "ios": "https://dc.lft.to/lastmile_qr_scan"}, "type": "electric_scooter", "lon": -77.02547266666667, "name": "a43ab0ee23d401e0582f0ec1c1fd285d", "bike_id": "a43ab0ee23d401e0582f0ec1c1fd285d", "fusion_lat": 0.0, "is_reserved": 0, "lat": 38.89217433333334, "fusion_lon": 0.0, "is_disabled": 0}, {"rental_uris": {"android": "https://dc.lft.to/lastmile_qr_scan", "ios": "https://dc.lft.to/lastmile_qr_scan"}, "type": "electric_bike", "lon": -77.182901, "name": "34245eafaa5fce9376698457329e32f1", "bike_id": "34245eafaa5fce9376698457329e32f1", "fusion_lat": 0.0, "is_reserved": 0, "lat": 38.88341283333333, "fusion_lon": 0.0, "is_disabled": 0}, {"rental_uris": {"android": "https://dc.lft.to/lastmile_qr_scan", "ios": "https://dc.lft.to/lastmile_qr_scan"}, "type": "electric_scooter", "lon": -76.98498483333333, "name": "20630590bdc4717ea23a86a09ea0e1f8", "bike_id": "20630590bdc4717ea23a86a09ea0e1f8", "fusion_lat": 0.0, "is_reserved": 0, "lat": 38.860463333333335, "fusion_lon": 0.0, "is_disabled": 0}, {"rental_uris": {"android": "https://dc.lft.to/lastmile_qr_scan", "ios": "https://dc.lft.to/lastmile_qr_scan"}, "type": "electric_scooter", "lon": -77.029346, "name": "5a8f319030b9aad6d00c15d2f88a0eed", "bike_id": "5a8f319030b9aad6d00c15d2f88a0eed", "fusion_lat": 0.0, "is_reserved": 0, "lat": 38.90503966666667, "fusion_lon": 0.0, "is_disabled": 0}, {"rental_uris": {"android": "https://dc.lft.to/lastmile_qr_scan", "ios": "https://dc.lft.to/lastmile_qr_scan"}, "type": "electric_scooter", "lon": -76.99020683333333, "name": "1d33dae6ce29c436a36a458b688f8cdc", "bike_id": "1d33dae6ce29c436a36a458b688f8cdc", "fusion_lat": 0.0, "is_reserved": 0, "lat": 38.858676333333335, "fusion_lon": 0.0, "is_disabled": 0}, {"rental_uris": {"android": "https://dc.lft.to/lastmile_qr_scan", "ios": "https://dc.lft.to/lastmile_qr_scan"}, "type": "electric_scooter", "lon": -77.0610305, "name": "d2c2c7aa69609179476749bba3e6a49c", "bike_id": "d2c2c7aa69609179476749bba3e6a49c", "fusion_lat": 0.0, "is_reserved": 0, "lat": 38.94321733333334, "fusion_lon": 0.0, "is_disabled": 0}, {"rental_uris": {"android": "https://dc.lft.to/lastmile_qr_scan", "ios": "https://dc.lft.to/lastmile_qr_scan"}, "type": "electric_scooter", "lon": -77.03905316666666, "name": "2643c41568a64897ea45b88dac0c4130", "bike_id": "2643c41568a64897ea45b88dac0c4130", "fusion_lat": 0.0, "is_reserved": 0, "lat": 38.91419616666667, "fusion_lon": 0.0, "is_disabled": 0}, {"rental_uris": {"android": "https://dc.lft.to/lastmile_qr_scan", "ios": "https://dc.lft.to/lastmile_qr_scan"}, "type": "electric_scooter", "lon": -76.93754683333333, "name": "b3aabba3dd25dcd8c7065da4ba77721e", "bike_id": "b3aabba3dd25dcd8c7065da4ba77721e", "fusion_lat": 0.0, "is_reserved": 0, "lat": 38.89049816666667, "fusion_lon": 0.0, "is_disabled": 0}, {"rental_uris": {"android": "https://dc.lft.to/lastmile_qr_scan", "ios": "https://dc.lft.to/lastmile_qr_scan"}, "type": "electric_scooter", "lon": -76.99781116666666, "name": "82602c6eed9052b4b57f59269d8da857", "bike_id": "82602c6eed9052b4b57f59269d8da857", "fusion_lat": 0.0, "is_reserved": 0, "lat": 38.84426783333333, "fusion_lon": 0.0, "is_disabled": 0}, {"rental_uris": {"android": "https://dc.lft.to/lastmile_qr_scan", "ios": "https://dc.lft.to/lastmile_qr_scan"}, "type": "electric_bike", "lon": -77.00370033333333, "name": "8e9581493737e292af5131fc59ea7a21", "bike_id": "8e9581493737e292af5131fc59ea7a21", "fusion_lat": 0.0, "is_reserved": 0, "lat": 38.83607766666667, "fusion_lon": 0.0, "is_disabled": 0}, {"rental_uris": {"android": "https://dc.lft.to/lastmile_qr_scan", "ios": "https://dc.lft.to/lastmile_qr_scan"}, "type": "electric_scooter", "lon": -77.03287483333334, "name": "7c3264a202bb099c8d15c7f9815944cf", "bike_id": "7c3264a202bb099c8d15c7f9815944cf", "fusion_lat": 0.0, "is_reserved": 0, "lat": 38.95651016666667, "fusion_lon": 0.0, "is_disabled": 0}, {"rental_uris": {"android": "https://dc.lft.to/lastmile_qr_scan", "ios": "https://dc.lft.to/lastmile_qr_scan"}, "type": "electric_scooter", "lon": -77.03213883333333, "name": "70d9efc5051ad711304d5188c313e9ca", "bike_id": "70d9efc5051ad711304d5188c313e9ca", "fusion_lat": 0.0, "is_reserved": 0, "lat": 38.918964833333334, "fusion_lon": 0.0, "is_disabled": 0}, {"rental_uris": {"android": "https://dc.lft.to/lastmile_qr_scan", "ios": "https://dc.lft.to/lastmile_qr_scan"}, "type": "electric_scooter", "lon": -77.0114475, "name": "882b9857f6e4a144753a4ce7c92b2cc5", "bike_id": "882b9857f6e4a144753a4ce7c92b2cc5", "fusion_lat": 0.0, "is_reserved": 0, "lat": 38.918063333333336, "fusion_lon": 0.0, "is_disabled": 0}, {"rental_uris": {"android": "https://dc.lft.to/lastmile_qr_scan", "ios": "https://dc.lft.to/lastmile_qr_scan"}, "type": "electric_bike", "lon": -77.08944183333334, "name": "35b69320e7601c4e8a2746f456f93eb2", "bike_id": "35b69320e7601c4e8a2746f456f93eb2", "fusion_lat": 0.0, "is_reserved": 0, "lat": 38.84108166666667, "fusion_lon": 0.0, "is_disabled": 0}, {"rental_uris": {"android": "https://dc.lft.to/lastmile_qr_scan", "ios": "https://dc.lft.to/lastmile_qr_scan"}, "type": "electric_bike", "lon": -77.03624633333334, "name": "2911872a0d94fbd07e01d0d6caf3ddc8", "bike_id": "2911872a0d94fbd07e01d0d6caf3ddc8", "fusion_lat": 0.0, "is_reserved": 0, "lat": 38.9729625, "fusion_lon": 0.0, "is_disabled": 0}, {"rental_uris": {"android": "https://dc.lft.to/lastmile_qr_scan", "ios": "https://dc.lft.to/lastmile_qr_scan"}, "type": "electric_bike", "lon": -76.98329666666666, "name": "0a9d6e411ffe36e56d66f36f98374a7b", "bike_id": "0a9d6e411ffe36e56d66f36f98374a7b", "fusion_lat": 0.0, "is_reserved": 0, "lat": 38.966009, "fusion_lon": 0.0, "is_disabled": 0}, {"rental_uris": {"android": "https://dc.lft.to/lastmile_qr_scan", "ios": "https://dc.lft.to/lastmile_qr_scan"}, "type": "electric_scooter", "lon": -76.949419, "name": "f0477693835aac8a5a8901f10ad45e38", "bike_id": "f0477693835aac8a5a8901f10ad45e38", "fusion_lat": 0.0, "is_reserved": 0, "lat": 38.88322983333333, "fusion_lon": 0.0, "is_disabled": 0}, {"rental_uris": {"android": "https://dc.lft.to/lastmile_qr_scan", "ios": "https://dc.lft.to/lastmile_qr_scan"}, "type": "electric_scooter", "lon": -76.947628, "name": "a9ad71754fbed717aa0e128b3a4c27e0", "bike_id": "a9ad71754fbed717aa0e128b3a4c27e0", "fusion_lat": 0.0, "is_reserved": 0, "lat": 38.89619533333333, "fusion_lon": 0.0, "is_disabled": 0}, {"rental_uris": {"android": "https://dc.lft.to/lastmile_qr_scan", "ios": "https://dc.lft.to/lastmile_qr_scan"}, "type": "electric_scooter", "lon": -77.04175, "name": "a47feb2702388588524a47d867dc53ca", "bike_id": "a47feb2702388588524a47d867dc53ca", "fusion_lat": 0.0, "is_reserved": 0, "lat": 38.915850666666664, "fusion_lon": 0.0, "is_disabled": 0}, {"rental_uris": {"android": "https://dc.lft.to/lastmile_qr_scan", "ios": "https://dc.lft.to/lastmile_qr_scan"}, "type": "electric_scooter", "lon": -77.01996433333333, "name": "296c49fd28898f83d81e17466645a1d0", "bike_id": "296c49fd28898f83d81e17466645a1d0", "fusion_lat": 0.0, "is_reserved": 0, "lat": 38.9663975, "fusion_lon": 0.0, "is_disabled": 0}, {"rental_uris": {"android": "https://dc.lft.to/lastmile_qr_scan", "ios": "https://dc.lft.to/lastmile_qr_scan"}, "type": "electric_scooter", "lon": -77.04672, "name": "174002e140e4bd1d3656136f5ebeb851", "bike_id": "174002e140e4bd1d3656136f5ebeb851", "fusion_lat": 0.0, "is_reserved": 0, "lat": 38.900158, "fusion_lon": 0.0, "is_disabled": 0}, {"rental_uris": {"android": "https://dc.lft.to/lastmile_qr_scan", "ios": "https://dc.lft.to/lastmile_qr_scan"}, "type": "electric_scooter", "lon": -77.044958, "name": "0916e2d10bf945a600f01e478c53cd59", "bike_id": "0916e2d10bf945a600f01e478c53cd59", "fusion_lat": 0.0, "is_reserved": 0, "lat": 38.918495166666666, "fusion_lon": 0.0, "is_disabled": 0}, {"rental_uris": {"android": "https://dc.lft.to/lastmile_qr_scan", "ios": "https://dc.lft.to/lastmile_qr_scan"}, "type": "electric_bike", "lon": -76.9580615, "name": "4f2d78eec13ac82cfbd347ce224e03fb", "bike_id": "4f2d78eec13ac82cfbd347ce224e03fb", "fusion_lat": 0.0, "is_reserved": 0, "lat": 38.980502333333334, "fusion_lon": 0.0, "is_disabled": 0}, {"rental_uris": {"android": "https://dc.lft.to/lastmile_qr_scan", "ios": "https://dc.lft.to/lastmile_qr_scan"}, "type": "electric_scooter", "lon": -77.0344535, "name": "bda77a52b4dff64193670120d70d30dd", "bike_id": "bda77a52b4dff64193670120d70d30dd", "fusion_lat": 0.0, "is_reserved": 0, "lat": 38.90733516666667, "fusion_lon": 0.0, "is_disabled": 0}, {"rental_uris": {"android": "https://dc.lft.to/lastmile_qr_scan", "ios": "https://dc.lft.to/lastmile_qr_scan"}, "type": "electric_scooter", "lon": -76.99363333333334, "name": "cf35797f0fc284ba449c7927c855552b", "bike_id": "cf35797f0fc284ba449c7927c855552b", "fusion_lat": 0.0, "is_reserved": 0, "lat": 38.9284, "fusion_lon": 0.0, "is_disabled": 0}, {"rental_uris": {"android": "https://dc.lft.to/lastmile_qr_scan", "ios": "https://dc.lft.to/lastmile_qr_scan"}, "type": "electric_scooter", "lon": -77.058837, "name": "de41ab5beef0121e01699ba2eaeee8f7", "bike_id": "de41ab5beef0121e01699ba2eaeee8f7", "fusion_lat": 0.0, "is_reserved": 0, "lat": 38.93634983333333, "fusion_lon": 0.0, "is_disabled": 0}, {"rental_uris": {"android": "https://dc.lft.to/lastmile_qr_scan", "ios": "https://dc.lft.to/lastmile_qr_scan"}, "type": "electric_scooter", "lon": -76.994042, "name": "3ceae71abf90c1c2f53ccf830b140564", "bike_id": "3ceae71abf90c1c2f53ccf830b140564", "fusion_lat": 0.0, "is_reserved": 0, "lat": 38.92266333333333, "fusion_lon": 0.0, "is_disabled": 0}, {"rental_uris": {"android": "https://dc.lft.to/lastmile_qr_scan", "ios": "https://dc.lft.to/lastmile_qr_scan"}, "type": "electric_scooter", "lon": -76.99004366666666, "name": "98ee1e13f679a56b3d69c75f6611ac4c", "bike_id": "98ee1e13f679a56b3d69c75f6611ac4c", "fusion_lat": 0.0, "is_reserved": 0, "lat": 38.86504983333333, "fusion_lon": 0.0, "is_disabled": 0}, {"rental_uris": {"android": "https://dc.lft.to/lastmile_qr_scan", "ios": "https://dc.lft.to/lastmile_qr_scan"}, "type": "electric_scooter", "lon": -76.99078683333333, "name": "1bbb42eaedf530fceffb0b78fccd52e0", "bike_id": "1bbb42eaedf530fceffb0b78fccd52e0", "fusion_lat": 0.0, "is_reserved": 0, "lat": 38.86052133333333, "fusion_lon": 0.0, "is_disabled": 0}, {"rental_uris": {"android": "https://dc.lft.to/lastmile_qr_scan", "ios": "https://dc.lft.to/lastmile_qr_scan"}, "type": "electric_scooter", "lon": -77.02280533333334, "name": "95d3a308332900fee2572a629f61e54a", "bike_id": "95d3a308332900fee2572a629f61e54a", "fusion_lat": 0.0, "is_reserved": 0, "lat": 38.909578333333336, "fusion_lon": 0.0, "is_disabled": 0}, {"rental_uris": {"android": "https://dc.lft.to/lastmile_qr_scan", "ios": "https://dc.lft.to/lastmile_qr_scan"}, "type": "electric_scooter", "lon": -76.99938383333334, "name": "8adb1334813c3c497389d57dd5681012", "bike_id": "8adb1334813c3c497389d57dd5681012", "fusion_lat": 0.0, "is_reserved": 0, "lat": 38.8431795, "fusion_lon": 0.0, "is_disabled": 0}, {"rental_uris": {"android": "https://dc.lft.to/lastmile_qr_scan", "ios": "https://dc.lft.to/lastmile_qr_scan"}, "type": "electric_scooter", "lon": -77.04325733333333, "name": "9907f346896650f00efb763def0c48a7", "bike_id": "9907f346896650f00efb763def0c48a7", "fusion_lat": 0.0, "is_reserved": 0, "lat": 38.90859833333333, "fusion_lon": 0.0, "is_disabled": 0}, {"rental_uris": {"android": "https://dc.lft.to/lastmile_qr_scan", "ios": "https://dc.lft.to/lastmile_qr_scan"}, "type": "electric_scooter", "lon": -77.0034435, "name": "c5bd273aababb554822de3a39b39fce7", "bike_id": "c5bd273aababb554822de3a39b39fce7", "fusion_lat": 0.0, "is_reserved": 0, "lat": 38.913451, "fusion_lon": 0.0, "is_disabled": 0}, {"rental_uris": {"android": "https://dc.lft.to/lastmile_qr_scan", "ios": "https://dc.lft.to/lastmile_qr_scan"}, "type": "electric_scooter", "lon": -76.94843233333333, "name": "1defe964e4b4dea1414eebfd2d017d7c", "bike_id": "1defe964e4b4dea1414eebfd2d017d7c", "fusion_lat": 0.0, "is_reserved": 0, "lat": 38.894891666666666, "fusion_lon": 0.0, "is_disabled": 0}, {"rental_uris": {"android": "https://dc.lft.to/lastmile_qr_scan", "ios": "https://dc.lft.to/lastmile_qr_scan"}, "type": "electric_scooter", "lon": -76.99214666666667, "name": "705ed3fe4e43c4f149c8751cbe8e7325", "bike_id": "705ed3fe4e43c4f149c8751cbe8e7325", "fusion_lat": 0.0, "is_reserved": 0, "lat": 38.9047205, "fusion_lon": 0.0, "is_disabled": 0}, {"rental_uris": {"android": "https://dc.lft.to/lastmile_qr_scan", "ios": "https://dc.lft.to/lastmile_qr_scan"}, "type": "electric_scooter", "lon": -76.99475716666667, "name": "e318060f42d7d732a6f2896fbf71b3e4", "bike_id": "e318060f42d7d732a6f2896fbf71b3e4", "fusion_lat": 0.0, "is_reserved": 0, "lat": 38.896143, "fusion_lon": 0.0, "is_disabled": 0}, {"rental_uris": {"android": "https://dc.lft.to/lastmile_qr_scan", "ios": "https://dc.lft.to/lastmile_qr_scan"}, "type": "electric_scooter", "lon": -77.06150383333333, "name": "2739d1220cd4482f293f36d2ea349881", "bike_id": "2739d1220cd4482f293f36d2ea349881", "fusion_lat": 0.0, "is_reserved": 0, "lat": 38.91056016666667, "fusion_lon": 0.0, "is_disabled": 0}, {"rental_uris": {"android": "https://dc.lft.to/lastmile_qr_scan", "ios": "https://dc.lft.to/lastmile_qr_scan"}, "type": "electric_scooter", "lon": -76.98411666666667, "name": "56e1b2ff2b16926cc2f3ccb09101cd7d", "bike_id": "56e1b2ff2b16926cc2f3ccb09101cd7d", "fusion_lat": 0.0, "is_reserved": 0, "lat": 38.913881333333336, "fusion_lon": 0.0, "is_disabled": 0}, {"rental_uris": {"android": "https://dc.lft.to/lastmile_qr_scan", "ios": "https://dc.lft.to/lastmile_qr_scan"}, "type": "electric_scooter", "lon": -77.04097933333334, "name": "3367ae57dd3fbddd2fcf8e7ed52da95b", "bike_id": "3367ae57dd3fbddd2fcf8e7ed52da95b", "fusion_lat": 0.0, "is_reserved": 0, "lat": 38.91772566666667, "fusion_lon": 0.0, "is_disabled": 0}, {"rental_uris": {"android": "https://dc.lft.to/lastmile_qr_scan", "ios": "https://dc.lft.to/lastmile_qr_scan"}, "type": "electric_scooter", "lon": -76.93836316666666, "name": "98d057fed76c1ef7ec2aa955aef6502c", "bike_id": "98d057fed76c1ef7ec2aa955aef6502c", "fusion_lat": 0.0, "is_reserved": 0, "lat": 38.89759183333334, "fusion_lon": 0.0, "is_disabled": 0}, {"rental_uris": {"android": "https://dc.lft.to/lastmile_qr_scan", "ios": "https://dc.lft.to/lastmile_qr_scan"}, "type": "electric_scooter", "lon": -77.00921616666666, "name": "9dc03503dba3a67d18d3f34917099e07", "bike_id": "9dc03503dba3a67d18d3f34917099e07", "fusion_lat": 0.0, "is_reserved": 0, "lat": 38.9105155, "fusion_lon": 0.0, "is_disabled": 0}, {"rental_uris": {"android": "https://dc.lft.to/lastmile_qr_scan", "ios": "https://dc.lft.to/lastmile_qr_scan"}, "type": "electric_scooter", "lon": -77.08214333333333, "name": "492b770161a78d74e699a1685879b2f0", "bike_id": "492b770161a78d74e699a1685879b2f0", "fusion_lat": 0.0, "is_reserved": 0, "lat": 38.935514166666664, "fusion_lon": 0.0, "is_disabled": 0}, {"rental_uris": {"android": "https://dc.lft.to/lastmile_qr_scan", "ios": "https://dc.lft.to/lastmile_qr_scan"}, "type": "electric_scooter", "lon": -77.03055266666667, "name": "8863de958862e7b27e7dd49fcffcf5a9", "bike_id": "8863de958862e7b27e7dd49fcffcf5a9", "fusion_lat": 0.0, "is_reserved": 0, "lat": 38.91916583333333, "fusion_lon": 0.0, "is_disabled": 0}, {"rental_uris": {"android": "https://dc.lft.to/lastmile_qr_scan", "ios": "https://dc.lft.to/lastmile_qr_scan"}, "type": "electric_scooter", "lon": -77.025108, "name": "4d15b3ef4d9bd6bbba893de2a25ee462", "bike_id": "4d15b3ef4d9bd6bbba893de2a25ee462", "fusion_lat": 0.0, "is_reserved": 0, "lat": 38.94176683333333, "fusion_lon": 0.0, "is_disabled": 0}, {"rental_uris": {"android": "https://dc.lft.to/lastmile_qr_scan", "ios": "https://dc.lft.to/lastmile_qr_scan"}, "type": "electric_scooter", "lon": -76.94244933333333, "name": "7d0952b74018ebcb456df292dfee53bd", "bike_id": "7d0952b74018ebcb456df292dfee53bd", "fusion_lat": 0.0, "is_reserved": 0, "lat": 38.89685516666667, "fusion_lon": 0.0, "is_disabled": 0}, {"rental_uris": {"android": "https://dc.lft.to/lastmile_qr_scan", "ios": "https://dc.lft.to/lastmile_qr_scan"}, "type": "electric_bike", "lon": -77.122678, "name": "38e635ebcb7c1a9ae1d335355bc7cd28", "bike_id": "38e635ebcb7c1a9ae1d335355bc7cd28", "fusion_lat": 0.0, "is_reserved": 0, "lat": 38.897338, "fusion_lon": 0.0, "is_disabled": 0}, {"rental_uris": {"android": "https://dc.lft.to/lastmile_qr_scan", "ios": "https://dc.lft.to/lastmile_qr_scan"}, "type": "electric_scooter", "lon": -77.0257635, "name": "84fdf16fa62acea95ea0e1b632edd4fc", "bike_id": "84fdf16fa62acea95ea0e1b632edd4fc", "fusion_lat": 0.0, "is_reserved": 0, "lat": 38.925061166666666, "fusion_lon": 0.0, "is_disabled": 0}, {"rental_uris": {"android": "https://dc.lft.to/lastmile_qr_scan", "ios": "https://dc.lft.to/lastmile_qr_scan"}, "type": "electric_scooter", "lon": -77.0607165, "name": "ce47c52c8bd861be4081e5dee2199b4b", "bike_id": "ce47c52c8bd861be4081e5dee2199b4b", "fusion_lat": 0.0, "is_reserved": 0, "lat": 38.90526933333334, "fusion_lon": 0.0, "is_disabled": 0}, {"rental_uris": {"android": "https://dc.lft.to/lastmile_qr_scan", "ios": "https://dc.lft.to/lastmile_qr_scan"}, "type": "electric_scooter", "lon": -76.95410183333334, "name": "3a95adba453754cc5d446ab93cb6c538", "bike_id": "3a95adba453754cc5d446ab93cb6c538", "fusion_lat": 0.0, "is_reserved": 0, "lat": 38.891595833333334, "fusion_lon": 0.0, "is_disabled": 0}, {"rental_uris": {"android": "https://dc.lft.to/lastmile_qr_scan", "ios": "https://dc.lft.to/lastmile_qr_scan"}, "type": "electric_bike", "lon": -77.23299033333333, "name": "c7bf9fd7aba198a9c5412e10cdef05da", "bike_id": "c7bf9fd7aba198a9c5412e10cdef05da", "fusion_lat": 0.0, "is_reserved": 0, "lat": 38.925134, "fusion_lon": 0.0, "is_disabled": 0}, {"rental_uris": {"android": "https://dc.lft.to/lastmile_qr_scan", "ios": "https://dc.lft.to/lastmile_qr_scan"}, "type": "electric_scooter", "lon": -77.04381483333333, "name": "f4168c40596eb592c618c1b3bde8f615", "bike_id": "f4168c40596eb592c618c1b3bde8f615", "fusion_lat": 0.0, "is_reserved": 0, "lat": 38.90652883333333, "fusion_lon": 0.0, "is_disabled": 0}, {"rental_uris": {"android": "https://dc.lft.to/lastmile_qr_scan", "ios": "https://dc.lft.to/lastmile_qr_scan"}, "type": "electric_scooter", "lon": -77.04009116666667, "name": "7988811cd6c7c614f60ac13b8208c5b6", "bike_id": "7988811cd6c7c614f60ac13b8208c5b6", "fusion_lat": 0.0, "is_reserved": 0, "lat": 38.91305533333333, "fusion_lon": 0.0, "is_disabled": 0}, {"rental_uris": {"android": "https://dc.lft.to/lastmile_qr_scan", "ios": "https://dc.lft.to/lastmile_qr_scan"}, "type": "electric_scooter", "lon": -77.073506, "name": "973785dd1f26c43bfb302c1e5e38b05d", "bike_id": "973785dd1f26c43bfb302c1e5e38b05d", "fusion_lat": 0.0, "is_reserved": 0, "lat": 38.911024833333336, "fusion_lon": 0.0, "is_disabled": 0}, {"rental_uris": {"android": "https://dc.lft.to/lastmile_qr_scan", "ios": "https://dc.lft.to/lastmile_qr_scan"}, "type": "electric_bike", "lon": -76.91655866666666, "name": "97461f963b56b870aca75089d3ae8c63", "bike_id": "97461f963b56b870aca75089d3ae8c63", "fusion_lat": 0.0, "is_reserved": 0, "lat": 38.868569, "fusion_lon": 0.0, "is_disabled": 0}, {"rental_uris": {"android": "https://dc.lft.to/lastmile_qr_scan", "ios": "https://dc.lft.to/lastmile_qr_scan"}, "type": "electric_scooter", "lon": -77.04806533333333, "name": "ecf48a9063fce153431078fa939fd5aa", "bike_id": "ecf48a9063fce153431078fa939fd5aa", "fusion_lat": 0.0, "is_reserved": 0, "lat": 38.911085166666666, "fusion_lon": 0.0, "is_disabled": 0}, {"rental_uris": {"android": "https://dc.lft.to/lastmile_qr_scan", "ios": "https://dc.lft.to/lastmile_qr_scan"}, "type": "electric_scooter", "lon": -77.03899066666666, "name": "7fc0e74b2b8d830d65c8a8b2fa4b88b7", "bike_id": "7fc0e74b2b8d830d65c8a8b2fa4b88b7", "fusion_lat": 0.0, "is_reserved": 0, "lat": 38.92240733333333, "fusion_lon": 0.0, "is_disabled": 0}, {"rental_uris": {"android": "https://dc.lft.to/lastmile_qr_scan", "ios": "https://dc.lft.to/lastmile_qr_scan"}, "type": "electric_scooter", "lon": -76.9960865, "name": "993f06fc4ba3ab86925a55e3e47363a6", "bike_id": "993f06fc4ba3ab86925a55e3e47363a6", "fusion_lat": 0.0, "is_reserved": 0, "lat": 38.903316, "fusion_lon": 0.0, "is_disabled": 0}, {"rental_uris": {"android": "https://dc.lft.to/lastmile_qr_scan", "ios": "https://dc.lft.to/lastmile_qr_scan"}, "type": "electric_scooter", "lon": -77.00198533333334, "name": "e35c7fe424b25ffaa0df0b1c39d76adc", "bike_id": "e35c7fe424b25ffaa0df0b1c39d76adc", "fusion_lat": 0.0, "is_reserved": 0, "lat": 38.9023955, "fusion_lon": 0.0, "is_disabled": 0}, {"rental_uris": {"android": "https://dc.lft.to/lastmile_qr_scan", "ios": "https://dc.lft.to/lastmile_qr_scan"}, "type": "electric_scooter", "lon": -76.98724966666667, "name": "9518893784913b473c3852246c3854b6", "bike_id": "9518893784913b473c3852246c3854b6", "fusion_lat": 0.0, "is_reserved": 0, "lat": 38.8671185, "fusion_lon": 0.0, "is_disabled": 0}, {"rental_uris": {"android": "https://dc.lft.to/lastmile_qr_scan", "ios": "https://dc.lft.to/lastmile_qr_scan"}, "type": "electric_scooter", "lon": -76.99090516666666, "name": "a0ac538ca1ecb6ddca7d2eed16d42399", "bike_id": "a0ac538ca1ecb6ddca7d2eed16d42399", "fusion_lat": 0.0, "is_reserved": 0, "lat": 38.86237116666667, "fusion_lon": 0.0, "is_disabled": 0}, {"rental_uris": {"android": "https://dc.lft.to/lastmile_qr_scan", "ios": "https://dc.lft.to/lastmile_qr_scan"}, "type": "electric_scooter", "lon": -77.02484466666667, "name": "b9fffc0eab17ebfa17e90ddf9b32eadb", "bike_id": "b9fffc0eab17ebfa17e90ddf9b32eadb", "fusion_lat": 0.0, "is_reserved": 0, "lat": 38.932894, "fusion_lon": 0.0, "is_disabled": 0}, {"rental_uris": {"android": "https://dc.lft.to/lastmile_qr_scan", "ios": "https://dc.lft.to/lastmile_qr_scan"},