{"data": {"bikes": [{"is_reserved": 0, "type": "electric_scooter", "bike_id": "04b3bec72a5dd1af4cc7f9ed7281567a", "lat": 38.897327833333335, "lon": -77.00312833333334, "rental_uris": {"android": "https://dc.lft.to/lastmile_qr_scan", "ios": "https://dc.lft.to/lastmile_qr_scan"}, "is_disabled": 0, "fusion_lat": 0.0, "name": "04b3bec72a5dd1af4cc7f9ed7281567a", "fusion_lon": 0.0}, {"is_reserved": 0, "type": "electric_scooter", "bike_id": "01792f534430fdd73f3e90ab2f9819ba", "lat": 38.892245833333334, "lon": -77.04334966666667, "rental_uris": {"android": "https://dc.lft.to/lastmile_qr_scan", "ios": "https://dc.lft.to/lastmile_qr_scan"}, "is_disabled": 0, "fusion_lat": 0.0, "name": "01792f534430fdd73f3e90ab2f9819ba", "fusion_lon": 0.0}, {"is_reserved": 0, "type": "electric_bike", "bike_id": "99118b04d8ade28af9d344d32491b56a", "lat": 39.000316833333336, "lon": -77.04742516666667, "rental_uris": {"android": "https://dc.lft.to/lastmile_qr_scan", "ios": "https://dc.lft.to/lastmile_qr_scan"}, "is_disabled": 0, "fusion_lat": 0.0, "name": "99118b04d8ade28af9d344d32491b56a", "fusion_lon": 0.0}, {"is_reserved": 0, "type": "electric_scooter", "bike_id": "21233e40d6d1fd8c0d831753f1e14618", "lat": 38.8972225, "lon": -77.00648033333333, "rental_uris": {"android": "https://dc.lft.to/lastmile_qr_scan", "ios": "https://dc.lft.to/lastmile_qr_scan"}, "is_disabled": 0, "fusion_lat": 0.0, "name": "21233e40d6d1fd8c0d831753f1e14618", "fusion_lon": 0.0}, {"is_reserved": 0, "type": "electric_scooter", "bike_id": "53b29dcebe428b1899b1eaa38cb04536", "lat": 38.932589666666665, "lon": -77.03231016666666, "rental_uris": {"android": "https://dc.lft.to/lastmile_qr_scan", "ios": "https://dc.lft.to/lastmile_qr_scan"}, "is_disabled": 0, "fusion_lat": 0.0, "name": "53b29dcebe428b1899b1eaa38cb04536", "fusion_lon": 0.0}, {"is_reserved": 0, "type": "electric_scooter", "bike_id": "1ed28171239a8502d59ace2c35b64cf9", "lat": 38.88255183333333, "lon": -77.00621866666667, "rental_uris": {"android": "https://dc.lft.to/lastmile_qr_scan", "ios": "https://dc.lft.to/lastmile_qr_scan"}, "is_disabled": 0, "fusion_lat": 0.0, "name": "1ed28171239a8502d59ace2c35b64cf9", "fusion_lon": 0.0}, {"is_reserved": 0, "type": "electric_scooter", "bike_id": "0b5ca829eb046bfb1f6e0d08180d406c", "lat": 38.9215075, "lon": -77.03506583333333, "rental_uris": {"android": "https://dc.lft.to/lastmile_qr_scan", "ios": "https://dc.lft.to/lastmile_qr_scan"}, "is_disabled": 0, "fusion_lat": 0.0, "name": "0b5ca829eb046bfb1f6e0d08180d406c", "fusion_lon": 0.0}, {"is_reserved": 0, "type": "electric_scooter", "bike_id": "b4bdf14a903a07bfc5fcb4ade262c372", "lat": 38.907295166666664, "lon": -77.01130416666666, "rental_uris": {"android": "https://dc.lft.to/lastmile_qr_scan", "ios": "https://dc.lft.to/lastmile_qr_scan"}, "is_disabled": 0, "fusion_lat": 0.0, "name": "b4bdf14a903a07bfc5fcb4ade262c372", "fusion_lon": 0.0}, {"is_reserved": 0, "type": "electric_scooter", "bike_id": "29157b9c5889d247c7a92e2be30fa83c", "lat": 38.908468666666664, "lon": -77.01021416666667, "rental_uris": {"android": "https://dc.lft.to/lastmile_qr_scan", "ios": "https://dc.lft.to/lastmile_qr_scan"}, "is_disabled": 0, "fusion_lat": 0.0, "name": "29157b9c5889d247c7a92e2be30fa83c", "fusion_lon": 0.0}, {"is_reserved": 0, "type": "electric_scooter", "bike_id": "8d28fc960d6a756713386238f366ac85", "lat": 38.92154816666667, "lon": -77.0340135, "rental_uris": {"android": "https://dc.lft.to/lastmile_qr_scan", "ios": "https://dc.lft.to/lastmile_qr_scan"}, "is_disabled": 0, "fusion_lat": 0.0, "name": "8d28fc960d6a756713386238f366ac85", "fusion_lon": 0.0}, {"is_reserved": 0, "type": "electric_scooter", "bike_id": "9f519b1c28dd917c497efbe58c2a2420", "lat": 38.91262783333333, "lon": -77.0386615, "rental_uris": {"android": "https://dc.lft.to/lastmile_qr_scan", "ios": "https://dc.lft.to/lastmile_qr_scan"}, "is_disabled": 0, "fusion_lat": 0.0, "name": "9f519b1c28dd917c497efbe58c2a2420", "fusion_lon": 0.0}, {"is_reserved": 0, "type": "electric_bike", "bike_id": "ebbab3bbb803a4a733c9e58d92b8e93a", "lat": 38.89288916666667, "lon": -76.97614416666667, "rental_uris": {"android": "https://dc.lft.to/lastmile_qr_scan", "ios": "https://dc.lft.to/lastmile_qr_scan"}, "is_disabled": 0, "fusion_lat": 0.0, "name": "ebbab3bbb803a4a733c9e58d92b8e93a", "fusion_lon": 0.0}, {"is_reserved": 0, "type": "electric_scooter", "bike_id": "bd2f032658faa189a5c8aa56be1fa4db", "lat": 38.934104166666664, "lon": -77.04213766666666, "rental_uris": {"android": "https://dc.lft.to/lastmile_qr_scan", "ios": "https://dc.lft.to/lastmile_qr_scan"}, "is_disabled": 0, "fusion_lat": 0.0, "name": "bd2f032658faa189a5c8aa56be1fa4db", "fusion_lon": 0.0}, {"is_reserved": 0, "type": "electric_scooter", "bike_id": "afd6b56532e7860812a9ec0c64f7a3bb", "lat": 38.925860666666665, "lon": -77.0122025, "rental_uris": {"android": "https://dc.lft.to/lastmile_qr_scan", "ios": "https://dc.lft.to/lastmile_qr_scan"}, "is_disabled": 0, "fusion_lat": 0.0, "name": "afd6b56532e7860812a9ec0c64f7a3bb", "fusion_lon": 0.0}, {"is_reserved": 0, "type": "electric_scooter", "bike_id": "27621a04a60489faec14767dec0ed1d9", "lat": 38.89930616666667, "lon": -77.03195133333334, "rental_uris": {"android": "https://dc.lft.to/lastmile_qr_scan", "ios": "https://dc.lft.to/lastmile_qr_scan"}, "is_disabled": 0, "fusion_lat": 0.0, "name": "27621a04a60489faec14767dec0ed1d9", "fusion_lon": 0.0}, {"is_reserved": 0, "type": "electric_bike", "bike_id": "34c2cf7e51f3b2c4d963c20fbb958b20", "lat": 38.840554166666664, "lon": -77.05599316666667, "rental_uris": {"android": "https://dc.lft.to/lastmile_qr_scan", "ios": "https://dc.lft.to/lastmile_qr_scan"}, "is_disabled": 0, "fusion_lat": 0.0, "name": "34c2cf7e51f3b2c4d963c20fbb958b20", "fusion_lon": 0.0}, {"is_reserved": 0, "type": "electric_scooter", "bike_id": "505970b7fcfd63283d95cae0b7b73641", "lat": 38.923662, "lon": -77.03659766666667, "rental_uris": {"android": "https://dc.lft.to/lastmile_qr_scan", "ios": "https://dc.lft.to/lastmile_qr_scan"}, "is_disabled": 0, "fusion_lat": 0.0, "name": "505970b7fcfd63283d95cae0b7b73641", "fusion_lon": 0.0}, {"is_reserved": 0, "type": "electric_scooter", "bike_id": "7018f247dbbffaa28b852448acd8e7d2", "lat": 38.9215005, "lon": -77.03507633333334, "rental_uris": {"android": "https://dc.lft.to/lastmile_qr_scan", "ios": "https://dc.lft.to/lastmile_qr_scan"}, "is_disabled": 0, "fusion_lat": 0.0, "name": "7018f247dbbffaa28b852448acd8e7d2", "fusion_lon": 0.0}, {"is_reserved": 0, "type": "electric_scooter", "bike_id": "5d15078d92dcb4a5a178f319be9255f4", "lat": 38.90555066666667, "lon": -77.00590533333333, "rental_uris": {"android": "https://dc.lft.to/lastmile_qr_scan", "ios": "https://dc.lft.to/lastmile_qr_scan"}, "is_disabled": 0, "fusion_lat": 0.0, "name": "5d15078d92dcb4a5a178f319be9255f4", "fusion_lon": 0.0}, {"is_reserved": 0, "type": "electric_scooter", "bike_id": "2b5995e419c8ae94e6d8933fa5d045b6", "lat": 38.935712333333335, "lon": -77.03263783333334, "rental_uris": {"android": "https://dc.lft.to/lastmile_qr_scan", "ios": "https://dc.lft.to/lastmile_qr_scan"}, "is_disabled": 0, "fusion_lat": 0.0, "name": "2b5995e419c8ae94e6d8933fa5d045b6", "fusion_lon": 0.0}, {"is_reserved": 0, "type": "electric_scooter", "bike_id": "c7bfd48dd1c4997a7045d76cceebdc3b", "lat": 38.90527183333333, "lon": -77.0637245, "rental_uris": {"android": "https://dc.lft.to/lastmile_qr_scan", "ios": "https://dc.lft.to/lastmile_qr_scan"}, "is_disabled": 0, "fusion_lat": 0.0, "name": "c7bfd48dd1c4997a7045d76cceebdc3b", "fusion_lon": 0.0}, {"is_reserved": 0, "type": "electric_scooter", "bike_id": "ee55c98018e4a521657d0da2532871ab", "lat": 38.90095066666667, "lon": -77.01603, "rental_uris": {"android": "https://dc.lft.to/lastmile_qr_scan", "ios": "https://dc.lft.to/lastmile_qr_scan"}, "is_disabled": 0, "fusion_lat": 0.0, "name": "ee55c98018e4a521657d0da2532871ab", "fusion_lon": 0.0}, {"is_reserved": 0, "type": "electric_scooter", "bike_id": "f124541cbd5d00e6a1b27fbc27383108", "lat": 38.93518983333333, "lon": -77.019521, "rental_uris": {"android": "https://dc.lft.to/lastmile_qr_scan", "ios": "https://dc.lft.to/lastmile_qr_scan"}, "is_disabled": 0, "fusion_lat": 0.0, "name": "f124541cbd5d00e6a1b27fbc27383108", "fusion_lon": 0.0}, {"is_reserved": 0, "type": "electric_scooter", "bike_id": "891843f2cd67f1dc9be4bb5e06dd33cd", "lat": 38.906830666666664, "lon": -77.06253983333333, "rental_uris": {"android": "https://dc.lft.to/lastmile_qr_scan", "ios": "https://dc.lft.to/lastmile_qr_scan"}, "is_disabled": 0, "fusion_lat": 0.0, "name": "891843f2cd67f1dc9be4bb5e06dd33cd", "fusion_lon": 0.0}, {"is_reserved": 0, "type": "electric_bike", "bike_id": "05b334ce0e2dda54db1f867308665140", "lat": 38.94966733333333, "lon": -76.96094166666667, "rental_uris": {"android": "https://dc.lft.to/lastmile_qr_scan", "ios": "https://dc.lft.to/lastmile_qr_scan"}, "is_disabled": 0, "fusion_lat": 0.0, "name": "05b334ce0e2dda54db1f867308665140", "fusion_lon": 0.0}, {"is_reserved": 0, "type": "electric_scooter", "bike_id": "4b085c30c63387407c90ee886b1ce88c", "lat": 38.89358983333333, "lon": -77.0280925, "rental_uris": {"android": "https://dc.lft.to/lastmile_qr_scan", "ios": "https://dc.lft.to/lastmile_qr_scan"}, "is_disabled": 0, "fusion_lat": 0.0, "name": "4b085c30c63387407c90ee886b1ce88c", "fusion_lon": 0.0}, {"is_reserved": 0, "type": "electric_bike", "bike_id": "b87a77ee0d3b2d2952b2acc616b8a527", "lat": 38.80866733333333, "lon": -77.1125655, "rental_uris": {"android": "https://dc.lft.to/lastmile_qr_scan", "ios": "https://dc.lft.to/lastmile_qr_scan"}, "is_disabled": 0, "fusion_lat": 0.0, "name": "b87a77ee0d3b2d2952b2acc616b8a527", "fusion_lon": 0.0}, {"is_reserved": 0, "type": "electric_scooter", "bike_id": "28b82abd2881c8b90bf6f373541739f2", "lat": 38.905885833333336, "lon": -77.04122733333334, "rental_uris": {"android": "https://dc.lft.to/lastmile_qr_scan", "ios": "https://dc.lft.to/lastmile_qr_scan"}, "is_disabled": 0, "fusion_lat": 0.0, "name": "28b82abd2881c8b90bf6f373541739f2", "fusion_lon": 0.0}, {"is_reserved": 0, "type": "electric_scooter", "bike_id": "31e56ad572dd8e877cb76aa61a18a3f0", "lat": 38.87269033333333, "lon": -77.01710266666667, "rental_uris": {"android": "https://dc.lft.to/lastmile_qr_scan", "ios": "https://dc.lft.to/lastmile_qr_scan"}, "is_disabled": 0, "fusion_lat": 0.0, "name": "31e56ad572dd8e877cb76aa61a18a3f0", "fusion_lon": 0.0}, {"is_reserved": 0, "type": "electric_scooter", "bike_id": "4c5c5804681ab31883ff6e8d1e69695a", "lat": 38.905155666666666, "lon": -77.05663883333334, "rental_uris": {"android": "https://dc.lft.to/lastmile_qr_scan", "ios": "https://dc.lft.to/lastmile_qr_scan"}, "is_disabled": 0, "fusion_lat": 0.0, "name": "4c5c5804681ab31883ff6e8d1e69695a", "fusion_lon": 0.0}, {"is_reserved": 0, "type": "electric_scooter", "bike_id": "7469913ea8bd6f6f1906c141dcf228fa", "lat": 38.903959666666665, "lon": -77.01832566666667, "rental_uris": {"android": "https://dc.lft.to/lastmile_qr_scan", "ios": "https://dc.lft.to/lastmile_qr_scan"}, "is_disabled": 0, "fusion_lat": 0.0, "name": "7469913ea8bd6f6f1906c141dcf228fa", "fusion_lon": 0.0}, {"is_reserved": 0, "type": "electric_scooter", "bike_id": "7df08ba972e3a44993971659fe5d8b66", "lat": 38.871540833333334, "lon": -77.01315616666666, "rental_uris": {"android": "https://dc.lft.to/lastmile_qr_scan", "ios": "https://dc.lft.to/lastmile_qr_scan"}, "is_disabled": 0, "fusion_lat": 0.0, "name": "7df08ba972e3a44993971659fe5d8b66", "fusion_lon": 0.0}, {"is_reserved": 0, "type": "electric_scooter", "bike_id": "e40ca3d5f27ab67ccec8ab50a9e9afab", "lat": 38.900901166666664, "lon": -77.05739066666666, "rental_uris": {"android": "https://dc.lft.to/lastmile_qr_scan", "ios": "https://dc.lft.to/lastmile_qr_scan"}, "is_disabled": 0, "fusion_lat": 0.0, "name": "e40ca3d5f27ab67ccec8ab50a9e9afab", "fusion_lon": 0.0}, {"is_reserved": 0, "type": "electric_scooter", "bike_id": "8361cdbe179db8184038434400414d57", "lat": 38.91116016666667, "lon": -77.04375183333333, "rental_uris": {"android": "https://dc.lft.to/lastmile_qr_scan", "ios": "https://dc.lft.to/lastmile_qr_scan"}, "is_disabled": 0, "fusion_lat": 0.0, "name": "8361cdbe179db8184038434400414d57", "fusion_lon": 0.0}, {"is_reserved": 0, "type": "electric_scooter", "bike_id": "734452a243fcb5c5bd81d47872049348", "lat": 38.900833166666665, "lon": -77.04926366666666, "rental_uris": {"android": "https://dc.lft.to/lastmile_qr_scan", "ios": "https://dc.lft.to/lastmile_qr_scan"}, "is_disabled": 0, "fusion_lat": 0.0, "name": "734452a243fcb5c5bd81d47872049348", "fusion_lon": 0.0}, {"is_reserved": 0, "type": "electric_scooter", "bike_id": "2a1349f06b21ba0c8468a49bc9e99981", "lat": 38.93588283333333, "lon": -77.0336845, "rental_uris": {"android": "https://dc.lft.to/lastmile_qr_scan", "ios": "https://dc.lft.to/lastmile_qr_scan"}, "is_disabled": 0, "fusion_lat": 0.0, "name": "2a1349f06b21ba0c8468a49bc9e99981", "fusion_lon": 0.0}, {"is_reserved": 0, "type": "electric_scooter", "bike_id": "4f67fa24e46dc5fca79cafdb51f7b37e", "lat": 38.917126833333334, "lon": -77.04025116666666, "rental_uris": {"android": "https://dc.lft.to/lastmile_qr_scan", "ios": "https://dc.lft.to/lastmile_qr_scan"}, "is_disabled": 0, "fusion_lat": 0.0, "name": "4f67fa24e46dc5fca79cafdb51f7b37e", "fusion_lon": 0.0}, {"is_reserved": 0, "type": "electric_scooter", "bike_id": "78d24434764f7c42fb13f334fc163804", "lat": 38.917277, "lon": -77.02384883333333, "rental_uris": {"android": "https://dc.lft.to/lastmile_qr_scan", "ios": "https://dc.lft.to/lastmile_qr_scan"}, "is_disabled": 0, "fusion_lat": 0.0, "name": "78d24434764f7c42fb13f334fc163804", "fusion_lon": 0.0}, {"is_reserved": 0, "type": "electric_scooter", "bike_id": "832975ad791b13db84f560095d50fa5f", "lat": 38.874735666666666, "lon": -77.00335266666667, "rental_uris": {"android": "https://dc.lft.to/lastmile_qr_scan", "ios": "https://dc.lft.to/lastmile_qr_scan"}, "is_disabled": 0, "fusion_lat": 0.0, "name": "832975ad791b13db84f560095d50fa5f", "fusion_lon": 0.0}, {"is_reserved": 0, "type": "electric_bike", "bike_id": "331ada19e9e0cec7e93ad39d92c48d59", "lat": 38.9731905, "lon": -76.99481516666667, "rental_uris": {"android": "https://dc.lft.to/lastmile_qr_scan", "ios": "https://dc.lft.to/lastmile_qr_scan"}, "is_disabled": 0, "fusion_lat": 0.0, "name": "331ada19e9e0cec7e93ad39d92c48d59", "fusion_lon": 0.0}, {"is_reserved": 0, "type": "electric_scooter", "bike_id": "e8513e04efb138490c51bcd3e18803f6", "lat": 38.912631833333336, "lon": -77.03865433333333, "rental_uris": {"android": "https://dc.lft.to/lastmile_qr_scan", "ios": "https://dc.lft.to/lastmile_qr_scan"}, "is_disabled": 0, "fusion_lat": 0.0, "name": "e8513e04efb138490c51bcd3e18803f6", "fusion_lon": 0.0}, {"is_reserved": 0, "type": "electric_scooter", "bike_id": "f2e560a8f4b890dfb934cf591e9fe496", "lat": 38.899023666666665, "lon": -76.97991483333334, "rental_uris": {"android": "https://dc.lft.to/lastmile_qr_scan", "ios": "https://dc.lft.to/lastmile_qr_scan"}, "is_disabled": 0, "fusion_lat": 0.0, "name": "f2e560a8f4b890dfb934cf591e9fe496", "fusion_lon": 0.0}, {"is_reserved": 0, "type": "electric_scooter", "bike_id": "661ea839cfa5f95242c727e171b7d8fc", "lat": 38.911368833333334, "lon": -77.0440515, "rental_uris": {"android": "https://dc.lft.to/lastmile_qr_scan", "ios": "https://dc.lft.to/lastmile_qr_scan"}, "is_disabled": 0, "fusion_lat": 0.0, "name": "661ea839cfa5f95242c727e171b7d8fc", "fusion_lon": 0.0}, {"is_reserved": 0, "type": "electric_scooter", "bike_id": "b12ed77eabbf118d015cccb274e5e02c", "lat": 38.900312166666666, "lon": -76.98766666666667, "rental_uris": {"android": "https://dc.lft.to/lastmile_qr_scan", "ios": "https://dc.lft.to/lastmile_qr_scan"}, "is_disabled": 0, "fusion_lat": 0.0, "name": "b12ed77eabbf118d015cccb274e5e02c", "fusion_lon": 0.0}, {"is_reserved": 0, "type": "electric_scooter", "bike_id": "7d2fbcf251d6623d395a5d2cbc6fcea5", "lat": 38.875579333333334, "lon": -77.00596666666667, "rental_uris": {"android": "https://dc.lft.to/lastmile_qr_scan", "ios": "https://dc.lft.to/lastmile_qr_scan"}, "is_disabled": 0, "fusion_lat": 0.0, "name": "7d2fbcf251d6623d395a5d2cbc6fcea5", "fusion_lon": 0.0}, {"is_reserved": 0, "type": "electric_scooter", "bike_id": "241d96a3147d0ae997809e7a44c8008d", "lat": 38.90305866666667, "lon": -76.97650633333333, "rental_uris": {"android": "https://dc.lft.to/lastmile_qr_scan", "ios": "https://dc.lft.to/lastmile_qr_scan"}, "is_disabled": 0, "fusion_lat": 0.0, "name": "241d96a3147d0ae997809e7a44c8008d", "fusion_lon": 0.0}, {"is_reserved": 0, "type": "electric_scooter", "bike_id": "ef1010f07054612886540427b85f9aec", "lat": 38.896048666666665, "lon": -77.04702616666667, "rental_uris": {"android": "https://dc.lft.to/lastmile_qr_scan", "ios": "https://dc.lft.to/lastmile_qr_scan"}, "is_disabled": 0, "fusion_lat": 0.0, "name": "ef1010f07054612886540427b85f9aec", "fusion_lon": 0.0}, {"is_reserved": 0, "type": "electric_scooter", "bike_id": "c9ddc5460c4bb2153de15c0a6b034e79", "lat": 38.91987733333333, "lon": -77.03312916666667, "rental_uris": {"android": "https://dc.lft.to/lastmile_qr_scan", "ios": "https://dc.lft.to/lastmile_qr_scan"}, "is_disabled": 0, "fusion_lat": 0.0, "name": "c9ddc5460c4bb2153de15c0a6b034e79", "fusion_lon": 0.0}, {"is_reserved": 0, "type": "electric_scooter", "bike_id": "3c7c695880d9bb0d9af7d5031d9611ff", "lat": 38.8960965, "lon": -77.0258755, "rental_uris": {"android": "https://dc.lft.to/lastmile_qr_scan", "ios": "https://dc.lft.to/lastmile_qr_scan"}, "is_disabled": 0, "fusion_lat": 0.0, "name": "3c7c695880d9bb0d9af7d5031d9611ff", "fusion_lon": 0.0}, {"is_reserved": 0, "type": "electric_scooter", "bike_id": "5a5bb74ae36b27ba405a6f427df77833", "lat": 38.9207255, "lon": -77.02392516666667, "rental_uris": {"android": "https://dc.lft.to/lastmile_qr_scan", "ios": "https://dc.lft.to/lastmile_qr_scan"}, "is_disabled": 0, "fusion_lat": 0.0, "name": "5a5bb74ae36b27ba405a6f427df77833", "fusion_lon": 0.0}, {"is_reserved": 0, "type": "electric_scooter", "bike_id": "c3eea92f1d2f71c0b6f42ba77c5e89a8", "lat": 38.89273283333333, "lon": -76.95256016666667, "rental_uris": {"android": "https://dc.lft.to/lastmile_qr_scan", "ios": "https://dc.lft.to/lastmile_qr_scan"}, "is_disabled": 0, "fusion_lat": 0.0, "name": "c3eea92f1d2f71c0b6f42ba77c5e89a8", "fusion_lon": 0.0}, {"is_reserved": 0, "type": "electric_scooter", "bike_id": "789ce471265a118142967f018e1db9e6", "lat": 38.92016916666667, "lon": -77.02953, "rental_uris": {"android": "https://dc.lft.to/lastmile_qr_scan", "ios": "https://dc.lft.to/lastmile_qr_scan"}, "is_disabled": 0, "fusion_lat": 0.0, "name": "789ce471265a118142967f018e1db9e6", "fusion_lon": 0.0}, {"is_reserved": 0, "type": "electric_scooter", "bike_id": "a973c1d714139299743266d8c3423d48", "lat": 38.891952333333336, "lon": -77.0222925, "rental_uris": {"android": "https://dc.lft.to/lastmile_qr_scan", "ios": "https://dc.lft.to/lastmile_qr_scan"}, "is_disabled": 0, "fusion_lat": 0.0, "name": "a973c1d714139299743266d8c3423d48", "fusion_lon": 0.0}, {"is_reserved": 0, "type": "electric_scooter", "bike_id": "45f7d32f74cccb20fc3633c80bea169b", "lat": 38.91760933333333, "lon": -77.00452983333334, "rental_uris": {"android": "https://dc.lft.to/lastmile_qr_scan", "ios": "https://dc.lft.to/lastmile_qr_scan"}, "is_disabled": 0, "fusion_lat": 0.0, "name": "45f7d32f74cccb20fc3633c80bea169b", "fusion_lon": 0.0}, {"is_reserved": 0, "type": "electric_bike", "bike_id": "b101834835abdc5778c43aef3b8c6c21", "lat": 38.920321666666666, "lon": -76.9795645, "rental_uris": {"android": "https://dc.lft.to/lastmile_qr_scan", "ios": "https://dc.lft.to/lastmile_qr_scan"}, "is_disabled": 0, "fusion_lat": 0.0, "name": "b101834835abdc5778c43aef3b8c6c21", "fusion_lon": 0.0}, {"is_reserved": 0, "type": "electric_scooter", "bike_id": "de4b231e3a37e2b15cb2adb98210ce94", "lat": 38.882961333333334, "lon": -77.02397466666666, "rental_uris": {"android": "https://dc.lft.to/lastmile_qr_scan", "ios": "https://dc.lft.to/lastmile_qr_scan"}, "is_disabled": 0, "fusion_lat": 0.0, "name": "de4b231e3a37e2b15cb2adb98210ce94", "fusion_lon": 0.0}, {"is_reserved": 0, "type": "electric_scooter", "bike_id": "6c41f7f02b9e60c572f26baa70bae308", "lat": 38.9268685, "lon": -77.032336, "rental_uris": {"android": "https://dc.lft.to/lastmile_qr_scan", "ios": "https://dc.lft.to/lastmile_qr_scan"}, "is_disabled": 0, "fusion_lat": 0.0, "name": "6c41f7f02b9e60c572f26baa70bae308", "fusion_lon": 0.0}, {"is_reserved": 0, "type": "electric_scooter", "bike_id": "0644b4127b0238ad5c9661e52bd2eb0b", "lat": 38.892227, "lon": -77.04367666666667, "rental_uris": {"android": "https://dc.lft.to/lastmile_qr_scan", "ios": "https://dc.lft.to/lastmile_qr_scan"}, "is_disabled": 0, "fusion_lat": 0.0, "name": "0644b4127b0238ad5c9661e52bd2eb0b", "fusion_lon": 0.0}, {"is_reserved": 0, "type": "electric_bike", "bike_id": "28edaf7305de97b670be4340ba365a70", "lat": 38.92068033333334, "lon": -76.995793, "rental_uris": {"android": "https://dc.lft.to/lastmile_qr_scan", "ios": "https://dc.lft.to/lastmile_qr_scan"}, "is_disabled": 0, "fusion_lat": 0.0, "name": "28edaf7305de97b670be4340ba365a70", "fusion_lon": 0.0}, {"is_reserved": 0, "type": "electric_bike", "bike_id": "7fc80ce5b47d57f3eeeba983b0c17bcf", "lat": 38.9170495, "lon": -77.0571745, "rental_uris": {"android": "https://dc.lft.to/lastmile_qr_scan", "ios": "https://dc.lft.to/lastmile_qr_scan"}, "is_disabled": 0, "fusion_lat": 0.0, "name": "7fc80ce5b47d57f3eeeba983b0c17bcf", "fusion_lon": 0.0}, {"is_reserved": 0, "type": "electric_scooter", "bike_id": "7a7056366798cd000c3f25c48c644ab0", "lat": 38.89698416666667, "lon": -77.04346566666666, "rental_uris": {"android": "https://dc.lft.to/lastmile_qr_scan", "ios": "https://dc.lft.to/lastmile_qr_scan"}, "is_disabled": 0, "fusion_lat": 0.0, "name": "7a7056366798cd000c3f25c48c644ab0", "fusion_lon": 0.0}, {"is_reserved": 0, "type": "electric_scooter", "bike_id": "dda38d8ec3fdc8002727807a19c8e906", "lat": 38.90322116666667, "lon": -77.01081866666667, "rental_uris": {"android": "https://dc.lft.to/lastmile_qr_scan", "ios": "https://dc.lft.to/lastmile_qr_scan"}, "is_disabled": 0, "fusion_lat": 0.0, "name": "dda38d8ec3fdc8002727807a19c8e906", "fusion_lon": 0.0}, {"is_reserved": 0, "type": "electric_scooter", "bike_id": "d7adf463141722b1b6da21773e19b06a", "lat": 38.919194, "lon": -77.00983, "rental_uris": {"android": "https://dc.lft.to/lastmile_qr_scan", "ios": "https://dc.lft.to/lastmile_qr_scan"}, "is_disabled": 0, "fusion_lat": 0.0, "name": "d7adf463141722b1b6da21773e19b06a", "fusion_lon": 0.0}, {"is_reserved": 0, "type": "electric_scooter", "bike_id": "86adf268a937899bfc27fdbf243f1f9b", "lat": 38.88459066666667, "lon": -76.92619533333334, "rental_uris": {"android": "https://dc.lft.to/lastmile_qr_scan", "ios": "https://dc.lft.to/lastmile_qr_scan"}, "is_disabled": 0, "fusion_lat": 0.0, "name": "86adf268a937899bfc27fdbf243f1f9b", "fusion_lon": 0.0}, {"is_reserved": 0, "type": "electric_scooter", "bike_id": "0292c7177a7b5a064be0bf37bd692853", "lat": 38.903812333333335, "lon": -77.040071, "rental_uris": {"android": "https://dc.lft.to/lastmile_qr_scan", "ios": "https://dc.lft.to/lastmile_qr_scan"}, "is_disabled": 0, "fusion_lat": 0.0, "name": "0292c7177a7b5a064be0bf37bd692853", "fusion_lon": 0.0}, {"is_reserved": 0, "type": "electric_scooter", "bike_id": "ad57b1fef586c24fd2f6446fb8f83a90", "lat": 38.930226833333336, "lon": -77.03783233333333, "rental_uris": {"android": "https://dc.lft.to/lastmile_qr_scan", "ios": "https://dc.lft.to/lastmile_qr_scan"}, "is_disabled": 0, "fusion_lat": 0.0, "name": "ad57b1fef586c24fd2f6446fb8f83a90", "fusion_lon": 0.0}, {"is_reserved": 0, "type": "electric_scooter", "bike_id": "a2a169a8f23cc94778960b03e1d27104", "lat": 38.926458333333336, "lon": -77.02145366666667, "rental_uris": {"android": "https://dc.lft.to/lastmile_qr_scan", "ios": "https://dc.lft.to/lastmile_qr_scan"}, "is_disabled": 0, "fusion_lat": 0.0, "name": "a2a169a8f23cc94778960b03e1d27104", "fusion_lon": 0.0}, {"is_reserved": 0, "type": "electric_scooter", "bike_id": "657e85ea7eefe5ae4043a8e66ff22977", "lat": 38.93063383333333, "lon": -77.04220333333333, "rental_uris": {"android": "https://dc.lft.to/lastmile_qr_scan", "ios": "https://dc.lft.to/lastmile_qr_scan"}, "is_disabled": 0, "fusion_lat": 0.0, "name": "657e85ea7eefe5ae4043a8e66ff22977", "fusion_lon": 0.0}, {"is_reserved": 0, "type": "electric_scooter", "bike_id": "8608d36712378c168b98ce9f562261eb", "lat": 38.90567566666667, "lon": -77.03470116666666, "rental_uris": {"android": "https://dc.lft.to/lastmile_qr_scan", "ios": "https://dc.lft.to/lastmile_qr_scan"}, "is_disabled": 0, "fusion_lat": 0.0, "name": "8608d36712378c168b98ce9f562261eb", "fusion_lon": 0.0}, {"is_reserved": 0, "type": "electric_scooter", "bike_id": "73935a72e2697b939ec774017b745f78", "lat": 38.921939333333334, "lon": -77.01834416666667, "rental_uris": {"android": "https://dc.lft.to/lastmile_qr_scan", "ios": "https://dc.lft.to/lastmile_qr_scan"}, "is_disabled": 0, "fusion_lat": 0.0, "name": "73935a72e2697b939ec774017b745f78", "fusion_lon": 0.0}, {"is_reserved": 0, "type": "electric_scooter", "bike_id": "507d73454e766d3a84720074252417cf", "lat": 38.87844366666667, "lon": -76.99943116666667, "rental_uris": {"android": "https://dc.lft.to/lastmile_qr_scan", "ios": "https://dc.lft.to/lastmile_qr_scan"}, "is_disabled": 0, "fusion_lat": 0.0, "name": "507d73454e766d3a84720074252417cf", "fusion_lon": 0.0}, {"is_reserved": 0, "type": "electric_scooter", "bike_id": "2af896ce690f35e143dedfb0fdf920fb", "lat": 38.864497, "lon": -76.991134, "rental_uris": {"android": "https://dc.lft.to/lastmile_qr_scan", "ios": "https://dc.lft.to/lastmile_qr_scan"}, "is_disabled": 0, "fusion_lat": 0.0, "name": "2af896ce690f35e143dedfb0fdf920fb", "fusion_lon": 0.0}, {"is_reserved": 0, "type": "electric_scooter", "bike_id": "5fe0cc4704f7e65187208d9cddd40d2b", "lat": 38.92792633333333, "lon": -77.036117, "rental_uris": {"android": "https://dc.lft.to/lastmile_qr_scan", "ios": "https://dc.lft.to/lastmile_qr_scan"}, "is_disabled": 0, "fusion_lat": 0.0, "name": "5fe0cc4704f7e65187208d9cddd40d2b", "fusion_lon": 0.0}, {"is_reserved": 0, "type": "electric_bike", "bike_id": "03718847ab0ae59e85cbaa0e6512519c", "lat": 39.094489833333334, "lon": -77.134588, "rental_uris": {"android": "https://dc.lft.to/lastmile_qr_scan", "ios": "https://dc.lft.to/lastmile_qr_scan"}, "is_disabled": 0, "fusion_lat": 0.0, "name": "03718847ab0ae59e85cbaa0e6512519c", "fusion_lon": 0.0}, {"is_reserved": 0, "type": "electric_bike", "bike_id": "5a0312cb3cbe1a7eee25be956aed4ccc", "lat": 38.8985285, "lon": -76.93188083333334, "rental_uris": {"android": "https://dc.lft.to/lastmile_qr_scan", "ios": "https://dc.lft.to/lastmile_qr_scan"}, "is_disabled": 0, "fusion_lat": 0.0, "name": "5a0312cb3cbe1a7eee25be956aed4ccc", "fusion_lon": 0.0}, {"is_reserved": 0, "type": "electric_scooter", "bike_id": "b4e59009fed88d1c47fa5ce63c8f430b", "lat": 38.97293283333333, "lon": -77.036258, "rental_uris": {"android": "https://dc.lft.to/lastmile_qr_scan", "ios": "https://dc.lft.to/lastmile_qr_scan"}, "is_disabled": 0, "fusion_lat": 0.0, "name": "b4e59009fed88d1c47fa5ce63c8f430b", "fusion_lon": 0.0}, {"is_reserved": 0, "type": "electric_scooter", "bike_id": "642e15ff8171d05b6df857f0af2a1773", "lat": 38.918440833333335, "lon": -77.0317425, "rental_uris": {"android": "https://dc.lft.to/lastmile_qr_scan", "ios": "https://dc.lft.to/lastmile_qr_scan"}, "is_disabled": 0, "fusion_lat": 0.0, "name": "642e15ff8171d05b6df857f0af2a1773", "fusion_lon": 0.0}, {"is_reserved": 0, "type": "electric_scooter", "bike_id": "fb8b8eb52f1b853ff229fdda21206235", "lat": 38.91928133333333, "lon": -77.0197725, "rental_uris": {"android": "https://dc.lft.to/lastmile_qr_scan", "ios": "https://dc.lft.to/lastmile_qr_scan"}, "is_disabled": 0, "fusion_lat": 0.0, "name": "fb8b8eb52f1b853ff229fdda21206235", "fusion_lon": 0.0}, {"is_reserved": 0, "type": "electric_scooter", "bike_id": "85f81c9323da2b8c112b606a95f51f85", "lat": 38.911194333333334, "lon": -77.03308166666666, "rental_uris": {"android": "https://dc.lft.to/lastmile_qr_scan", "ios": "https://dc.lft.to/lastmile_qr_scan"}, "is_disabled": 0, "fusion_lat": 0.0, "name": "85f81c9323da2b8c112b606a95f51f85", "fusion_lon": 0.0}, {"is_reserved": 0, "type": "electric_scooter", "bike_id": "835633ca088a53dc64e29198660e76f7", "lat": 38.921942666666666, "lon": -77.04698983333333, "rental_uris": {"android": "https://dc.lft.to/lastmile_qr_scan", "ios": "https://dc.lft.to/lastmile_qr_scan"}, "is_disabled": 0, "fusion_lat": 0.0, "name": "835633ca088a53dc64e29198660e76f7", "fusion_lon": 0.0}, {"is_reserved": 0, "type": "electric_scooter", "bike_id": "07f393eb3e3684b50fba18856762597f", "lat": 38.892224666666664, "lon": -77.03181333333333, "rental_uris": {"android": "https://dc.lft.to/lastmile_qr_scan", "ios": "https://dc.lft.to/lastmile_qr_scan"}, "is_disabled": 0, "fusion_lat": 0.0, "name": "07f393eb3e3684b50fba18856762597f", "fusion_lon": 0.0}, {"is_reserved": 0, "type": "electric_scooter", "bike_id": "f8736723c0644c7ea5697e4c8061a2b7", "lat": 38.885310833333335, "lon": -76.99615483333334, "rental_uris": {"android": "https://dc.lft.to/lastmile_qr_scan", "ios": "https://dc.lft.to/lastmile_qr_scan"}, "is_disabled": 0, "fusion_lat": 0.0, "name": "f8736723c0644c7ea5697e4c8061a2b7", "fusion_lon": 0.0}, {"is_reserved": 0, "type": "electric_scooter", "bike_id": "7255d058a6f656133d3065e9e1682224", "lat": 38.9161765, "lon": -77.0460755, "rental_uris": {"android": "https://dc.lft.to/lastmile_qr_scan", "ios": "https://dc.lft.to/lastmile_qr_scan"}, "is_disabled": 0, "fusion_lat": 0.0, "name": "7255d058a6f656133d3065e9e1682224", "fusion_lon": 0.0}, {"is_reserved": 0, "type": "electric_scooter", "bike_id": "806f1d4b268598f4529814b7e860d311", "lat": 38.90101166666667, "lon": -77.0487955, "rental_uris": {"android": "https://dc.lft.to/lastmile_qr_scan", "ios": "https://dc.lft.to/lastmile_qr_scan"}, "is_disabled": 0, "fusion_lat": 0.0, "name": "806f1d4b268598f4529814b7e860d311", "fusion_lon": 0.0}, {"is_reserved": 0, "type": "electric_scooter", "bike_id": "1094e6f4db5453d8c385874b0c5a705f", "lat": 38.8987745, "lon": -76.93182816666666, "rental_uris": {"android": "https://dc.lft.to/lastmile_qr_scan", "ios": "https://dc.lft.to/lastmile_qr_scan"}, "is_disabled": 0, "fusion_lat": 0.0, "name": "1094e6f4db5453d8c385874b0c5a705f", "fusion_lon": 0.0}, {"is_reserved": 0, "type": "electric_scooter", "bike_id": "aa1912367e50fffbadf3b7150f1baa17", "lat": 38.94224716666667, "lon": -77.07158916666667, "rental_uris": {"android": "https://dc.lft.to/lastmile_qr_scan", "ios": "https://dc.lft.to/lastmile_qr_scan"}, "is_disabled": 0, "fusion_lat": 0.0, "name": "aa1912367e50fffbadf3b7150f1baa17", "fusion_lon": 0.0}, {"is_reserved": 0, "type": "electric_scooter", "bike_id": "76f4de2de8c5b222c8b61823c0695fc8", "lat": 38.917334833333335, "lon": -77.028057, "rental_uris": {"android": "https://dc.lft.to/lastmile_qr_scan", "ios": "https://dc.lft.to/lastmile_qr_scan"}, "is_disabled": 0, "fusion_lat": 0.0, "name": "76f4de2de8c5b222c8b61823c0695fc8", "fusion_lon": 0.0}, {"is_reserved": 0, "type": "electric_scooter", "bike_id": "fbc3ba876ba336e7c6c749c135468fb5", "lat": 38.926224166666664, "lon": -77.03627183333333, "rental_uris": {"android": "https://dc.lft.to/lastmile_qr_scan", "ios": "https://dc.lft.to/lastmile_qr_scan"}, "is_disabled": 0, "fusion_lat": 0.0, "name": "fbc3ba876ba336e7c6c749c135468fb5", "fusion_lon": 0.0}, {"is_reserved": 0, "type": "electric_scooter", "bike_id": "df5cfe4b430d2e2fee7ce1b772c5f272", "lat": 38.91944016666667, "lon": -77.01364366666667, "rental_uris": {"android": "https://dc.lft.to/lastmile_qr_scan", "ios": "https://dc.lft.to/lastmile_qr_scan"}, "is_disabled": 0, "fusion_lat": 0.0, "name": "df5cfe4b430d2e2fee7ce1b772c5f272", "fusion_lon": 0.0}, {"is_reserved": 0, "type": "electric_scooter", "bike_id": "5de941ac9576ba43adaa7c42ac5d5e24", "lat": 38.9068655, "lon": -77.06252716666667, "rental_uris": {"android": "https://dc.lft.to/lastmile_qr_scan", "ios": "https://dc.lft.to/lastmile_qr_scan"}, "is_disabled": 0, "fusion_lat": 0.0, "name": "5de941ac9576ba43adaa7c42ac5d5e24", "fusion_lon": 0.0}, {"is_reserved": 0, "type": "electric_scooter", "bike_id": "dd7a655a8d59406a9f0dd2927b7eccf3", "lat": 38.90351033333334, "lon": -77.03194733333333, "rental_uris": {"android": "https://dc.lft.to/lastmile_qr_scan", "ios": "https://dc.lft.to/lastmile_qr_scan"}, "is_disabled": 0, "fusion_lat": 0.0, "name": "dd7a655a8d59406a9f0dd2927b7eccf3", "fusion_lon": 0.0}, {"is_reserved": 0, "type": "electric_scooter", "bike_id": "0b719d26fc0bfb2fadb1e03a69c5881d", "lat": 38.906598, "lon": -77.009137, "rental_uris": {"android": "https://dc.lft.to/lastmile_qr_scan", "ios": "https://dc.lft.to/lastmile_qr_scan"}, "is_disabled": 0, "fusion_lat": 0.0, "name": "0b719d26fc0bfb2fadb1e03a69c5881d", "fusion_lon": 0.0}, {"is_reserved": 0, "type": "electric_scooter", "bike_id": "a8aacaaa352fae39f934f42d12bc9329", "lat": 38.875584833333335, "lon": -77.00599133333333, "rental_uris": {"android": "https://dc.lft.to/lastmile_qr_scan", "ios": "https://dc.lft.to/lastmile_qr_scan"}, "is_disabled": 0, "fusion_lat": 0.0, "name": "a8aacaaa352fae39f934f42d12bc9329", "fusion_lon": 0.0}, {"is_reserved": 0, "type": "electric_scooter", "bike_id": "44f91c94ec8b0661add28bd3bceca915", "lat": 38.920301, "lon": -77.04182216666666, "rental_uris": {"android": "https://dc.lft.to/lastmile_qr_scan", "ios": "https://dc.lft.to/lastmile_qr_scan"}, "is_disabled": 0, "fusion_lat": 0.0, "name": "44f91c94ec8b0661add28bd3bceca915", "fusion_lon": 0.0}, {"is_reserved": 0, "type": "electric_scooter", "bike_id": "aa69ad12208b1d3479016b3bbf92e30d", "lat": 38.9277095, "lon": -77.02778433333333, "rental_uris": {"android": "https://dc.lft.to/lastmile_qr_scan", "ios": "https://dc.lft.to/lastmile_qr_scan"}, "is_disabled": 0, "fusion_lat": 0.0, "name": "aa69ad12208b1d3479016b3bbf92e30d", "fusion_lon": 0.0}, {"is_reserved": 0, "type": "electric_scooter", "bike_id": "aee33e84da6b538b8caf6a84aa57e952", "lat": 38.900241, "lon": -77.01184133333334, "rental_uris": {"android": "https://dc.lft.to/lastmile_qr_scan", "ios": "https://dc.lft.to/lastmile_qr_scan"}, "is_disabled": 0, "fusion_lat": 0.0, "name": "aee33e84da6b538b8caf6a84aa57e952", "fusion_lon": 0.0}, {"is_reserved": 0, "type": "electric_scooter", "bike_id": "b9929d0569c9d984d13187309cc3e660", "lat": 38.92836033333333, "lon": -77.05509933333333, "rental_uris": {"android": "https://dc.lft.to/lastmile_qr_scan", "ios": "https://dc.lft.to/lastmile_qr_scan"}, "is_disabled": 0, "fusion_lat": 0.0, "name": "b9929d0569c9d984d13187309cc3e660", "fusion_lon": 0.0}, {"is_reserved": 0, "type": "electric_scooter", "bike_id": "3d55ec5cc870197514fbf65b3644efd4", "lat": 38.927525, "lon": -77.02450183333333, "rental_uris": {"android": "https://dc.lft.to/lastmile_qr_scan", "ios": "https://dc.lft.to/lastmile_qr_scan"}, "is_disabled": 0, "fusion_lat": 0.0, "name": "3d55ec5cc870197514fbf65b3644efd4", "fusion_lon": 0.0}, {"is_reserved": 0, "type": "electric_scooter", "bike_id": "60711fbc498fad3375843da3a4b4c8e8", "lat": 38.9168, "lon": -77.03685033333333, "rental_uris": {"android": "https://dc.lft.to/lastmile_qr_scan", "ios": "https://dc.lft.to/lastmile_qr_scan"}, "is_disabled": 0, "fusion_lat": 0.0, "name": "60711fbc498fad3375843da3a4b4c8e8", "fusion_lon": 0.0}, {"is_reserved": 0, "type": "electric_scooter", "bike_id": "4cd4170445d3c0fc56e28c81481dd460", "lat": 38.9408095, "lon": -77.054923, "rental_uris": {"android": "https://dc.lft.to/lastmile_qr_scan", "ios": "https://dc.lft.to/lastmile_qr_scan"}, "is_disabled": 0, "fusion_lat": 0.0, "name": "4cd4170445d3c0fc56e28c81481dd460", "fusion_lon": 0.0}, {"is_reserved": 0, "type": "electric_scooter", "bike_id": "cde93a66d1a2a26e85674ae774cb8f58", "lat": 38.9111715, "lon": -77.03150433333333, "rental_uris": {"android": "https://dc.lft.to/lastmile_qr_scan", "ios": "https://dc.lft.to/lastmile_qr_scan"}, "is_disabled": 0, "fusion_lat": 0.0, "name": "cde93a66d1a2a26e85674ae774cb8f58", "fusion_lon": 0.0}, {"is_reserved": 0, "type": "electric_bike", "bike_id": "6b14ada0448bbddc8a4cad9fd4431422", "lat": 38.863314333333335, "lon": -76.98724416666667, "rental_uris": {"android": "https://dc.lft.to/lastmile_qr_scan", "ios": "https://dc.lft.to/lastmile_qr_scan"}, "is_disabled": 0, "fusion_lat": 0.0, "name": "6b14ada0448bbddc8a4cad9fd4431422", "fusion_lon": 0.0}, {"is_reserved": 0, "type": "electric_scooter", "bike_id": "9c15530312c7e47e0f706d05fbc229fd", "lat": 38.929850333333334, "lon": -77.03791083333333, "rental_uris": {"android": "https://dc.lft.to/lastmile_qr_scan", "ios": "https://dc.lft.to/lastmile_qr_scan"}, "is_disabled": 0, "fusion_lat": 0.0, "name": "9c15530312c7e47e0f706d05fbc229fd", "fusion_lon": 0.0}, {"is_reserved": 0, "type": "electric_bike", "bike_id": "2bfbc0b925e219562e219fc152960df9", "lat": 38.9999855, "lon": -76.91803416666667, "rental_uris": {"android": "https://dc.lft.to/lastmile_qr_scan", "ios": "https://dc.lft.to/lastmile_qr_scan"}, "is_disabled": 0, "fusion_lat": 0.0, "name": "2bfbc0b925e219562e219fc152960df9", "fusion_lon": 0.0}, {"is_reserved": 0, "type": "electric_scooter", "bike_id": "75779135674fd80be8f28fed72520d00", "lat": 38.90974116666667, "lon": -77.032499, "rental_uris": {"android": "https://dc.lft.to/lastmile_qr_scan", "ios": "https://dc.lft.to/lastmile_qr_scan"}, "is_disabled": 0, "fusion_lat": 0.0, "name": "75779135674fd80be8f28fed72520d00", "fusion_lon": 0.0}, {"is_reserved": 0, "type": "electric_scooter", "bike_id": "27f8761fa89e6b423c371bc05a8aec4f", "lat": 38.903808, "lon": -77.03029966666666, "rental_uris": {"android": "https://dc.lft.to/lastmile_qr_scan", "ios": "https://dc.lft.to/lastmile_qr_scan"}, "is_disabled": 0, "fusion_lat": 0.0, "name": "27f8761fa89e6b423c371bc05a8aec4f", "fusion_lon": 0.0}, {"is_reserved": 0, "type": "electric_bike", "bike_id": "e391a45994f2d62e662e52733cef3bd8", "lat": 39.01093983333333, "lon": -77.04954866666667, "rental_uris": {"android": "https://dc.lft.to/lastmile_qr_scan", "ios": "https://dc.lft.to/lastmile_qr_scan"}, "is_disabled": 0, "fusion_lat": 0.0, "name": "e391a45994f2d62e662e52733cef3bd8", "fusion_lon": 0.0}, {"is_reserved": 0, "type": "electric_bike", "bike_id": "7fb182e62ac1eadb10413a4b5b039a9a", "lat": 38.874275, "lon": -77.08567883333333, "rental_uris": {"android": "https://dc.lft.to/lastmile_qr_scan", "ios": "https://dc.lft.to/lastmile_qr_scan"}, "is_disabled": 0, "fusion_lat": 0.0, "name": "7fb182e62ac1eadb10413a4b5b039a9a", "fusion_lon": 0.0}, {"is_reserved": 0, "type": "electric_bike", "bike_id": "a043aa314b89c5b2a616371d34f40200", "lat": 38.91191416666667, "lon": -77.00197633333333, "rental_uris": {"android": "https://dc.lft.to/lastmile_qr_scan", "ios": "https://dc.lft.to/lastmile_qr_scan"}, "is_disabled": 0, "fusion_lat": 0.0, "name": "a043aa314b89c5b2a616371d34f40200", "fusion_lon": 0.0}, {"is_reserved": 0, "type": "electric_scooter", "bike_id": "94e013ced930fe8522e868f4f74ab5e1", "lat": 38.918208666666665, "lon": -77.03210566666667, "rental_uris": {"android": "https://dc.lft.to/lastmile_qr_scan", "ios": "https://dc.lft.to/lastmile_qr_scan"}, "is_disabled": 0, "fusion_lat": 0.0, "name": "94e013ced930fe8522e868f4f74ab5e1", "fusion_lon": 0.0}, {"is_reserved": 0, "type": "electric_scooter", "bike_id": "b042b468c94586e594c56537da7bcecb", "lat": 38.87684866666667, "lon": -76.99626283333333, "rental_uris": {"android": "https://dc.lft.to/lastmile_qr_scan", "ios": "https://dc.lft.to/lastmile_qr_scan"}, "is_disabled": 0, "fusion_lat": 0.0, "name": "b042b468c94586e594c56537da7bcecb", "fusion_lon": 0.0}, {"is_reserved": 0, "type": "electric_scooter", "bike_id": "e1063397adabbf32d3aee9b8a379ee91", "lat": 38.905455333333336, "lon": -77.04552966666667, "rental_uris": {"android": "https://dc.lft.to/lastmile_qr_scan", "ios": "https://dc.lft.to/lastmile_qr_scan"}, "is_disabled": 0, "fusion_lat": 0.0, "name": "e1063397adabbf32d3aee9b8a379ee91", "fusion_lon": 0.0}, {"is_reserved": 0, "type": "electric_scooter", "bike_id": "e77c348f8a4dc655e8a4d2b3b9cbd72f", "lat": 38.90159083333333, "lon": -77.03191433333333, "rental_uris": {"android": "https://dc.lft.to/lastmile_qr_scan", "ios": "https://dc.lft.to/lastmile_qr_scan"}, "is_disabled": 0, "fusion_lat": 0.0, "name": "e77c348f8a4dc655e8a4d2b3b9cbd72f", "fusion_lon": 0.0}, {"is_reserved": 0, "type": "electric_scooter", "bike_id": "90766b10861826f41050ba62cc9df5c0", "lat": 38.921063, "lon": -77.04701533333333, "rental_uris": {"android": "https://dc.lft.to/lastmile_qr_scan", "ios": "https://dc.lft.to/lastmile_qr_scan"}, "is_disabled": 0, "fusion_lat": 0.0, "name": "90766b10861826f41050ba62cc9df5c0", "fusion_lon": 0.0}, {"is_reserved": 0, "type": "electric_bike", "bike_id": "b69f287f3483dad05852f4a43aeafd3b", "lat": 38.839346, "lon": -77.07898816666666, "rental_uris": {"android": "https://dc.lft.to/lastmile_qr_scan", "ios": "https://dc.lft.to/lastmile_qr_scan"}, "is_disabled": 0, "fusion_lat": 0.0, "name": "b69f287f3483dad05852f4a43aeafd3b", "fusion_lon": 0.0}, {"is_reserved": 0, "type": "electric_scooter", "bike_id": "69f5f23ffa2a7cc3274dcafdc40ae5c0", "lat": 38.93389966666667, "lon": -77.02391366666667, "rental_uris": {"android": "https://dc.lft.to/lastmile_qr_scan", "ios": "https://dc.lft.to/lastmile_qr_scan"}, "is_disabled": 0, "fusion_lat": 0.0, "name": "69f5f23ffa2a7cc3274dcafdc40ae5c0", "fusion_lon": 0.0}, {"is_reserved": 0, "type": "electric_scooter", "bike_id": "5be493d7bfa9444e9f6607d7ea0be22d", "lat": 38.89898016666667, "lon": -77.03956666666667, "rental_uris": {"android": "https://dc.lft.to/lastmile_qr_scan", "ios": "https://dc.lft.to/lastmile_qr_scan"}, "is_disabled": 0, "fusion_lat": 0.0, "name": "5be493d7bfa9444e9f6607d7ea0be22d", "fusion_lon": 0.0}, {"is_reserved": 0, "type": "electric_scooter", "bike_id": "6ac8a803b3ef40f2cea8b1f5f9f8367e", "lat": 38.920868, "lon": -77.022963, "rental_uris": {"android": "https://dc.lft.to/lastmile_qr_scan", "ios": "https://dc.lft.to/lastmile_qr_scan"}, "is_disabled": 0, "fusion_lat": 0.0, "name": "6ac8a803b3ef40f2cea8b1f5f9f8367e", "fusion_lon": 0.0}, {"is_reserved": 0, "type": "electric_scooter", "bike_id": "50e5ae54be3e8510e1f87af3e3f3d298", "lat": 38.924866, "lon": -77.03187466666667, "rental_uris": {"android": "https://dc.lft.to/lastmile_qr_scan", "ios": "https://dc.lft.to/lastmile_qr_scan"}, "is_disabled": 0, "fusion_lat": 0.0, "name": "50e5ae54be3e8510e1f87af3e3f3d298", "fusion_lon": 0.0}, {"is_reserved": 0, "type": "electric_scooter", "bike_id": "7e3be74cbf052540c4895689f9bde165", "lat": 38.9048145, "lon": -77.06858233333334, "rental_uris": {"android": "https://dc.lft.to/lastmile_qr_scan", "ios": "https://dc.lft.to/lastmile_qr_scan"}, "is_disabled": 0, "fusion_lat": 0.0, "name": "7e3be74cbf052540c4895689f9bde165", "fusion_lon": 0.0}, {"is_reserved": 0, "type": "electric_scooter", "bike_id": "807bd9f82a27b6c15cd63c169b9fc12b", "lat": 38.905423, "lon": -77.05695783333333, "rental_uris": {"android": "https://dc.lft.to/lastmile_qr_scan", "ios": "https://dc.lft.to/lastmile_qr_scan"}, "is_disabled": 0, "fusion_lat": 0.0, "name": "807bd9f82a27b6c15cd63c169b9fc12b", "fusion_lon": 0.0}, {"is_reserved": 0, "type": "electric_scooter", "bike_id": "4bb8e99d2d2ce10a9ed2e0cafe8cae89", "lat": 38.92602083333333, "lon": -77.02153533333333, "rental_uris": {"android": "https://dc.lft.to/lastmile_qr_scan", "ios": "https://dc.lft.to/lastmile_qr_scan"}, "is_disabled": 0, "fusion_lat": 0.0, "name": "4bb8e99d2d2ce10a9ed2e0cafe8cae89", "fusion_lon": 0.0}, {"is_reserved": 0, "type": "electric_scooter", "bike_id": "ffee38208dce0242a67ac82f8479e262", "lat": 38.937546833333336, "lon": -77.02931266666667, "rental_uris": {"android": "https://dc.lft.to/lastmile_qr_scan", "ios": "https://dc.lft.to/lastmile_qr_scan"}, "is_disabled": 0, "fusion_lat": 0.0, "name": "ffee38208dce0242a67ac82f8479e262", "fusion_lon": 0.0}, {"is_reserved": 0, "type": "electric_scooter", "bike_id": "e42093ce7dcc41fe1a8c375d5f8ea003", "lat": 38.93702833333333, "lon": -77.055978, "rental_uris": {"android": "https://dc.lft.to/lastmile_qr_scan", "ios": "https://dc.lft.to/lastmile_qr_scan"}, "is_disabled": 0, "fusion_lat": 0.0, "name": "e42093ce7dcc41fe1a8c375d5f8ea003", "fusion_lon": 0.0}, {"is_reserved": 0, "type": "electric_scooter", "bike_id": "c6d1e468fbab316b7c4aa706244cf407", "lat": 38.91074533333333, "lon": -77.016268, "rental_uris": {"android": "https://dc.lft.to/lastmile_qr_scan", "ios": "https://dc.lft.to/lastmile_qr_scan"}, "is_disabled": 0, "fusion_lat": 0.0, "name": "c6d1e468fbab316b7c4aa706244cf407", "fusion_lon": 0.0}, {"is_reserved": 0, "type": "electric_scooter", "bike_id": "cf790431890cb5f8af6c8c91c9a59d8e", "lat": 38.895126, "lon": -76.99212483333334, "rental_uris": {"android": "https://dc.lft.to/lastmile_qr_scan", "ios": "https://dc.lft.to/lastmile_qr_scan"}, "is_disabled": 0, "fusion_lat": 0.0, "name": "cf790431890cb5f8af6c8c91c9a59d8e", "fusion_lon": 0.0}, {"is_reserved": 0, "type": "electric_scooter", "bike_id": "f863e11b76c1bbe74172f3a1e7a7ee4b", "lat": 38.896725, "lon": -77.04348733333333, "rental_uris": {"android": "https://dc.lft.to/lastmile_qr_scan", "ios": "https://dc.lft.to/lastmile_qr_scan"}, "is_disabled": 0, "fusion_lat": 0.0, "name": "f863e11b76c1bbe74172f3a1e7a7ee4b", "fusion_lon": 0.0}, {"is_reserved": 0, "type": "electric_scooter", "bike_id": "a47215fdb99016538d3bf43d50f0d979", "lat": 38.907225, "lon": -77.024381, "rental_uris": {"android": "https://dc.lft.to/lastmile_qr_scan", "ios": "https://dc.lft.to/lastmile_qr_scan"}, "is_disabled": 0, "fusion_lat": 0.0, "name": "a47215fdb99016538d3bf43d50f0d979", "fusion_lon": 0.0}, {"is_reserved": 0, "type": "electric_scooter", "bike_id": "64fa56081170ac96c6c4648396972527", "lat": 38.9198795, "lon": -77.03476033333334, "rental_uris": {"android": "https://dc.lft.to/lastmile_qr_scan", "ios": "https://dc.lft.to/lastmile_qr_scan"}, "is_disabled": 0, "fusion_lat": 0.0, "name": "64fa56081170ac96c6c4648396972527", "fusion_lon": 0.0}, {"is_reserved": 0, "type": "electric_scooter", "bike_id": "4d47655c9983072758210718b28c5fab", "lat": 38.926162833333336, "lon": -77.05650066666666, "rental_uris": {"android": "https://dc.lft.to/lastmile_qr_scan", "ios": "https://dc.lft.to/lastmile_qr_scan"}, "is_disabled": 0, "fusion_lat": 0.0, "name": "4d47655c9983072758210718b28c5fab", "fusion_lon": 0.0}, {"is_reserved": 0, "type": "electric_scooter", "bike_id": "2a670a83ab8317706ec5cb07dea58af0", "lat": 38.896267, "lon": -77.03217483333333, "rental_uris": {"android": "https://dc.lft.to/lastmile_qr_scan", "ios": "https://dc.lft.to/lastmile_qr_scan"}, "is_disabled": 0, "fusion_lat": 0.0, "name": "2a670a83ab8317706ec5cb07dea58af0", "fusion_lon": 0.0}, {"is_reserved": 0, "type": "electric_scooter", "bike_id": "ea026871dab15996ba9cb76e3e8cbf3c", "lat": 38.9327895, "lon": -76.98533533333334, "rental_uris": {"android": "https://dc.lft.to/lastmile_qr_scan", "ios": "https://dc.lft.to/lastmile_qr_scan"}, "is_disabled": 0, "fusion_lat": 0.0, "name": "ea026871dab15996ba9cb76e3e8cbf3c", "fusion_lon": 0.0}, {"is_reserved": 0, "type": "electric_scooter", "bike_id": "baab7632427e8496b39f055eb79472ec", "lat": 38.916213166666665, "lon": -77.0487585, "rental_uris": {"android": "https://dc.lft.to/lastmile_qr_scan", "ios": "https://dc.lft.to/lastmile_qr_scan"}, "is_disabled": 0, "fusion_lat": 0.0, "name": "baab7632427e8496b39f055eb79472ec", "fusion_lon": 0.0}, {"is_reserved": 0, "type": "electric_bike", "bike_id": "32b4c1376ce0188a8fbd67c12041a5ab", "lat": 38.869214166666666, "lon": -76.9596165, "rental_uris": {"android": "https://dc.lft.to/lastmile_qr_scan", "ios": "https://dc.lft.to/lastmile_qr_scan"}, "is_disabled": 0, "fusion_lat": 0.0, "name": "32b4c1376ce0188a8fbd67c12041a5ab", "fusion_lon": 0.0}, {"is_reserved": 0, "type": "electric_scooter", "bike_id": "bc24be0ff52030c8bcba825f4773be01", "lat": 38.914176499999996, "lon": -77.0221065, "rental_uris": {"android": "https://dc.lft.to/lastmile_qr_scan", "ios": "https://dc.lft.to/lastmile_qr_scan"}, "is_disabled": 0, "fusion_lat": 0.0, "name": "bc24be0ff52030c8bcba825f4773be01", "fusion_lon": 0.0}, {"is_reserved": 0, "type": "electric_scooter", "bike_id": "fe11f7b88bb41999c6f3ebc006397d0b", "lat": 38.896026166666665, "lon": -77.02212833333333, "rental_uris": {"android": "https://dc.lft.to/lastmile_qr_scan", "ios": "https://dc.lft.to/lastmile_qr_scan"}, "is_disabled": 0, "fusion_lat": 0.0, "name": "fe11f7b88bb41999c6f3ebc006397d0b", "fusion_lon": 0.0}, {"is_reserved": 0, "type": "electric_scooter", "bike_id": "29ebcc8c0e80883a5221fa6c387196ae", "lat": 38.933603833333336, "lon": -77.02724383333333, "rental_uris": {"android": "https://dc.lft.to/lastmile_qr_scan", "ios": "https://dc.lft.to/lastmile_qr_scan"}, "is_disabled": 0, "fusion_lat": 0.0, "name": "29ebcc8c0e80883a5221fa6c387196ae", "fusion_lon": 0.0}, {"is_reserved": 0, "type": "electric_scooter", "bike_id": "99899e214e8e21d2eb4800f962f3f0ec", "lat": 38.9324905, "lon": -77.0384865, "rental_uris": {"android": "https://dc.lft.to/lastmile_qr_scan", "ios": "https://dc.lft.to/lastmile_qr_scan"}, "is_disabled": 0, "fusion_lat": 0.0, "name": "99899e214e8e21d2eb4800f962f3f0ec", "fusion_lon": 0.0}, {"is_reserved": 0, "type": "electric_bike", "bike_id": "3d790976c8bf6350da2f1aad77642cbc", "lat": 38.92444116666667, "lon": -77.01917216666666, "rental_uris": {"android": "https://dc.lft.to/lastmile_qr_scan", "ios": "https://dc.lft.to/lastmile_qr_scan"}, "is_disabled": 0, "fusion_lat": 0.0, "name": "3d790976c8bf6350da2f1aad77642cbc", "fusion_lon": 0.0}, {"is_reserved": 0, "type": "electric_scooter", "bike_id": "97ffa3817613896657ad076459459620", "lat": 38.90018116666667, "lon": -77.00211633333333, "rental_uris": {"android": "https://dc.lft.to/lastmile_qr_scan", "ios": "https://dc.lft.to/lastmile_qr_scan"}, "is_disabled": 0, "fusion_lat": 0.0, "name": "97ffa3817613896657ad076459459620", "fusion_lon": 0.0}, {"is_reserved": 0, "type": "electric_bike", "bike_id": "88112fac8af2cc98cbf92692f3a66ae0", "lat": 38.82038466666667, "lon": -77.0536, "rental_uris": {"android": "https://dc.lft.to/lastmile_qr_scan", "ios": "https://dc.lft.to/lastmile_qr_scan"}, "is_disabled": 0, "fusion_lat": 0.0, "name": "88112fac8af2cc98cbf92692f3a66ae0", "fusion_lon": 0.0}, {"is_reserved": 0, "type": "electric_scooter", "bike_id": "cf196e92a8bdfbeeee53975b2db39b37", "lat": 38.923922833333336, "lon": -77.0296135, "rental_uris": {"android": "https://dc.lft.to/lastmile_qr_scan", "ios": "https://dc.lft.to/lastmile_qr_scan"}, "is_disabled": 0, "fusion_lat": 0.0, "name": "cf196e92a8bdfbeeee53975b2db39b37", "fusion_lon": 0.0}, {"is_reserved": 0, "type": "electric_scooter", "bike_id": "fc66c8f3859c4f828c6f0ef819f6fa17", "lat": 38.905631, "lon": -77.00584666666667, "rental_uris": {"android": "https://dc.lft.to/lastmile_qr_scan", "ios": "https://dc.lft.to/lastmile_qr_scan"}, "is_disabled": 0, "fusion_lat": 0.0, "name": "fc66c8f3859c4f828c6f0ef819f6fa17", "fusion_lon": 0.0}, {"is_reserved": 0, "type": "electric_scooter", "bike_id": "da0468d4929eb1665cae752fb5c71da1", "lat": 38.89758766666667, "lon": -77.029753, "rental_uris": {"android": "https://dc.lft.to/lastmile_qr_scan", "ios": "https://dc.lft.to/lastmile_qr_scan"}, "is_disabled": 0, "fusion_lat": 0.0, "name": "da0468d4929eb1665cae752fb5c71da1", "fusion_lon": 0.0}, {"is_reserved": 0, "type": "electric_scooter", "bike_id": "6e4e57ba1f9cf98ab3eae85ce7a84f79", "lat": 38.918106, "lon": -77.0403125, "rental_uris": {"android": "https://dc.lft.to/lastmile_qr_scan", "ios": "https://dc.lft.to/lastmile_qr_scan"}, "is_disabled": 0, "fusion_lat": 0.0, "name": "6e4e57ba1f9cf98ab3eae85ce7a84f79", "fusion_lon": 0.0}, {"is_reserved": 0, "type": "electric_scooter", "bike_id": "71b2bdca467bb46a5f992b242bd19d88", "lat": 38.8924575, "lon": -77.03955216666667, "rental_uris": {"android": "https://dc.lft.to/lastmile_qr_scan", "ios": "https://dc.lft.to/lastmile_qr_scan"}, "is_disabled": 0, "fusion_lat": 0.0, "name": "71b2bdca467bb46a5f992b242bd19d88", "fusion_lon": 0.0}, {"is_reserved": 0, "type": "electric_scooter", "bike_id": "e290cc291d12b5028ec71c4bfc51561c", "lat": 38.922653, "lon": -77.03642366666666, "rental_uris": {"android": "https://dc.lft.to/lastmile_qr_scan", "ios": "https://dc.lft.to/lastmile_qr_scan"}, "is_disabled": 0, "fusion_lat": 0.0, "name": "e290cc291d12b5028ec71c4bfc51561c", "fusion_lon": 0.0}, {"is_reserved": 0, "type": "electric_bike", "bike_id": "1e67a7495523a02539b7c3b55b8e6292", "lat": 38.88790016666667, "lon": -76.92346533333334, "rental_uris": {"android": "https://dc.lft.to/lastmile_qr_scan", "ios": "https://dc.lft.to/lastmile_qr_scan"}, "is_disabled": 0, "fusion_lat": 0.0, "name": "1e67a7495523a02539b7c3b55b8e6292", "fusion_lon": 0.0}, {"is_reserved": 0, "type": "electric_scooter", "bike_id": "4bd647cf6ab315ff4688868ee3631149", "lat": 38.924368333333334, "lon": -77.02114183333333, "rental_uris": {"android": "https://dc.lft.to/lastmile_qr_scan", "ios": "https://dc.lft.to/lastmile_qr_scan"}, "is_disabled": 0, "fusion_lat": 0.0, "name": "4bd647cf6ab315ff4688868ee3631149", "fusion_lon": 0.0}, {"is_reserved": 0, "type": "electric_scooter", "bike_id": "1ddc78c33b8c9e59029868829d85ea7d", "lat": 38.91619266666667, "lon": -77.00205816666667, "rental_uris": {"android": "https://dc.lft.to/lastmile_qr_scan", "ios": "https://dc.lft.to/lastmile_qr_scan"}, "is_disabled": 0, "fusion_lat": 0.0, "name": "1ddc78c33b8c9e59029868829d85ea7d", "fusion_lon": 0.0}, {"is_reserved": 0, "type": "electric_scooter", "bike_id": "86c65674d3b99094e96864069aae9afc", "lat": 38.8989735, "lon": -77.00374816666667, "rental_uris": {"android": "https://dc.lft.to/lastmile_qr_scan", "ios": "https://dc.lft.to/lastmile_qr_scan"}, "is_disabled": 0, "fusion_lat": 0.0, "name": "86c65674d3b99094e96864069aae9afc", "fusion_lon": 0.0}, {"is_reserved": 0, "type": "electric_scooter", "bike_id": "3aa989dbdb52767dac5105e0d43c086e", "lat": 38.91498716666667, "lon": -77.01220516666666, "rental_uris": {"android": "https://dc.lft.to/lastmile_qr_scan", "ios": "https://dc.lft.to/lastmile_qr_scan"}, "is_disabled": 0, "fusion_lat": 0.0, "name": "3aa989dbdb52767dac5105e0d43c086e", "fusion_lon": 0.0}, {"is_reserved": 0, "type": "electric_scooter", "bike_id": "472df028d62d599ed2f268ca084349a6", "lat": 38.926222, "lon": -77.07712466666666, "rental_uris": {"android": "https://dc.lft.to/lastmile_qr_scan", "ios": "https://dc.lft.to/lastmile_qr_scan"}, "is_disabled": 0, "fusion_lat": 0.0, "name": "472df028d62d599ed2f268ca084349a6", "fusion_lon": 0.0}, {"is_reserved": 0, "type": "electric_scooter", "bike_id": "4c495ee585862836923edb337709b426", "lat": 38.913277, "lon": -77.04795833333333, "rental_uris": {"android": "https://dc.lft.to/lastmile_qr_scan", "ios": "https://dc.lft.to/lastmile_qr_scan"}, "is_disabled": 0, "fusion_lat": 0.0, "name": "4c495ee585862836923edb337709b426", "fusion_lon": 0.0}, {"is_reserved": 0, "type": "electric_scooter", "bike_id": "97aad47cccbd13c1327a23cac56d19de", "lat": 38.92353683333333, "lon": -76.99080616666667, "rental_uris": {"android": "https://dc.lft.to/lastmile_qr_scan", "ios": "https://dc.lft.to/lastmile_qr_scan"}, "is_disabled": 0, "fusion_lat": 0.0, "name": "97aad47cccbd13c1327a23cac56d19de", "fusion_lon": 0.0}, {"is_reserved": 0, "type": "electric_scooter", "bike_id": "9b5a8a072ac1d9eebc51e6594bdaaf39", "lat": 38.891039166666665, "lon": -76.99309733333334, "rental_uris": {"android": "https://dc.lft.to/lastmile_qr_scan", "ios": "https://dc.lft.to/lastmile_qr_scan"}, "is_disabled": 0, "fusion_lat": 0.0, "name": "9b5a8a072ac1d9eebc51e6594bdaaf39", "fusion_lon": 0.0}, {"is_reserved": 0, "type": "electric_scooter", "bike_id": "39d05309e470295d80d79f035dff6351", "lat": 38.92074, "lon": -77.02386233333333, "rental_uris": {"android": "https://dc.lft.to/lastmile_qr_scan", "ios": "https://dc.lft.to/lastmile_qr_scan"}, "is_disabled": 0, "fusion_lat": 0.0, "name": "39d05309e470295d80d79f035dff6351", "fusion_lon": 0.0}, {"is_reserved": 0, "type": "electric_scooter", "bike_id": "7fbd3d49f862e20b55ecbc6136c1d17f", "lat": 38.90235766666667, "lon": -77.05328583333333, "rental_uris": {"android": "https://dc.lft.to/lastmile_qr_scan", "ios": "https://dc.lft.to/lastmile_qr_scan"}, "is_disabled": 0, "fusion_lat": 0.0, "name": "7fbd3d49f862e20b55ecbc6136c1d17f", "fusion_lon": 0.0}, {"is_reserved": 0, "type": "electric_scooter", "bike_id": "a92bfb2c0cd79060f59537abe705af3c", "lat": 38.90214616666667, "lon": -77.05115783333333, "rental_uris": {"android": "https://dc.lft.to/lastmile_qr_scan", "ios": "https://dc.lft.to/lastmile_qr_scan"}, "is_disabled": 0, "fusion_lat": 0.0, "name": "a92bfb2c0cd79060f59537abe705af3c", "fusion_lon": 0.0}, {"is_reserved": 0, "type": "electric_scooter", "bike_id": "5cdb2e83644988565b90273c19bbc91b", "lat": 38.907871, "lon": -77.0281575, "rental_uris": {"android": "https://dc.lft.to/lastmile_qr_scan", "ios": "https://dc.lft.to/lastmile_qr_scan"}, "is_disabled": 0, "fusion_lat": 0.0, "name": "5cdb2e83644988565b90273c19bbc91b", "fusion_lon": 0.0}, {"is_reserved": 0, "type": "electric_scooter", "bike_id": "6501be0b5bf469516cef7f687ca5ad66", "lat": 38.90253333333333, "lon": -77.041286, "rental_uris": {"android": "https://dc.lft.to/lastmile_qr_scan", "ios": "https://dc.lft.to/lastmile_qr_scan"}, "is_disabled": 0, "fusion_lat": 0.0, "name": "6501be0b5bf469516cef7f687ca5ad66", "fusion_lon": 0.0}, {"is_reserved": 0, "type": "electric_scooter", "bike_id": "8c081f4c455aa32356c4b0f73d6a4120", "lat": 38.88301116666667, "lon": -76.9485155, "rental_uris": {"android": "https://dc.lft.to/lastmile_qr_scan", "ios": "https://dc.lft.to/lastmile_qr_scan"}, "is_disabled": 0, "fusion_lat": 0.0, "name": "8c081f4c455aa32356c4b0f73d6a4120", "fusion_lon": 0.0}, {"is_reserved": 0, "type": "electric_scooter", "bike_id": "d1da971e475c4cb3ff85b3af26125c61", "lat": 38.91006183333333, "lon": -76.99410516666667, "rental_uris": {"android": "https://dc.lft.to/lastmile_qr_scan", "ios": "https://dc.lft.to/lastmile_qr_scan"}, "is_disabled": 0, "fusion_lat": 0.0, "name": "d1da971e475c4cb3ff85b3af26125c61", "fusion_lon": 0.0}, {"is_reserved": 0, "type": "electric_scooter", "bike_id": "e706ebaf021ad53a963059580efe3a01", "lat": 38.87470066666667, "lon": -77.0054635, "rental_uris": {"android": "https://dc.lft.to/lastmile_qr_scan", "ios": "https://dc.lft.to/lastmile_qr_scan"}, "is_disabled": 0, "fusion_lat": 0.0, "name": "e706ebaf021ad53a963059580efe3a01", "fusion_lon": 0.0}, {"is_reserved": 0, "type": "electric_scooter", "bike_id": "ce22831c0ac2032bf19631e604359039", "lat": 38.87947783333333, "lon": -77.01667816666667, "rental_uris": {"android": "https://dc.lft.to/lastmile_qr_scan", "ios": "https://dc.lft.to/lastmile_qr_scan"}, "is_disabled": 0, "fusion_lat": 0.0, "name": "ce22831c0ac2032bf19631e604359039", "fusion_lon": 0.0}, {"is_reserved": 0, "type": "electric_scooter", "bike_id": "86f485c1a3b7696644d6996d06e4a76c", "lat": 38.89729583333333, "lon": -77.0216585, "rental_uris": {"android": "https://dc.lft.to/lastmile_qr_scan", "ios": "https://dc.lft.to/lastmile_qr_scan"}, "is_disabled": 0, "fusion_lat": 0.0, "name": "86f485c1a3b7696644d6996d06e4a76c", "fusion_lon": 0.0}, {"is_reserved": 0, "type": "electric_scooter", "bike_id": "1c8804ab46802f17261817ce34907287", "lat": 38.919321, "lon": -77.0463345, "rental_uris": {"android": "https://dc.lft.to/lastmile_qr_scan", "ios": "https://dc.lft.to/lastmile_qr_scan"}, "is_disabled": 0, "fusion_lat": 0.0, "name": "1c8804ab46802f17261817ce34907287", "fusion_lon": 0.0}, {"is_reserved": 0, "type": "electric_scooter", "bike_id": "6a737f6ef37af0552284d734b59ab077", "lat": 38.899499, "lon": -77.05395383333334, "rental_uris": {"android": "https://dc.lft.to/lastmile_qr_scan", "ios": "https://dc.lft.to/lastmile_qr_scan"}, "is_disabled": 0, "fusion_lat": 0.0, "name": "6a737f6ef37af0552284d734b59ab077", "fusion_lon": 0.0}, {"is_reserved": 0, "type": "electric_bike", "bike_id": "df6aba1292a9e0e4ff24801b03be586f", "lat": 38.958692, "lon": -76.97051933333333, "rental_uris": {"android": "https://dc.lft.to/lastmile_qr_scan", "ios": "https://dc.lft.to/lastmile_qr_scan"}, "is_disabled": 0, "fusion_lat": 0.0, "name": "df6aba1292a9e0e4ff24801b03be586f", "fusion_lon": 0.0}, {"is_reserved": 0, "type": "electric_scooter", "bike_id": "00b1597e2327adba5a9412de75fad8a6", "lat": 38.9238085, "lon": -77.02886533333333, "rental_uris": {"android": "https://dc.lft.to/lastmile_qr_scan", "ios": "https://dc.lft.to/lastmile_qr_scan"}, "is_disabled": 0, "fusion_lat": 0.0, "name": "00b1597e2327adba5a9412de75fad8a6", "fusion_lon": 0.0}, {"is_reserved": 0, "type": "electric_scooter", "bike_id": "3e7cc364a971fba46817b8c7be1e194c", "lat": 38.90092833333333, "lon": -77.0187875, "rental_uris": {"android": "https://dc.lft.to/lastmile_qr_scan", "ios": "https://dc.lft.to/lastmile_qr_scan"}, "is_disabled": 0, "fusion_lat": 0.0, "name": "3e7cc364a971fba46817b8c7be1e194c", "fusion_lon": 0.0}, {"is_reserved": 0, "type": "electric_bike", "bike_id": "217893c609c6afd59640185c18d74339", "lat": 38.84108583333333, "lon": -77.0894985, "rental_uris": {"android": "https://dc.lft.to/lastmile_qr_scan", "ios": "https://dc.lft.to/lastmile_qr_scan"}, "is_disabled": 0, "fusion_lat": 0.0, "name": "217893c609c6afd59640185c18d74339", "fusion_lon": 0.0}, {"is_reserved": 0, "type": "electric_scooter", "bike_id": "2d6f61732eba1ebd49f5d4ccda1f2fed", "lat": 38.900994833333336, "lon": -76.9810395, "rental_uris": {"android": "https://dc.lft.to/lastmile_qr_scan", "ios": "https://dc.lft.to/lastmile_qr_scan"}, "is_disabled": 0, "fusion_lat": 0.0, "name": "2d6f61732eba1ebd49f5d4ccda1f2fed", "fusion_lon": 0.0}, {"is_reserved": 0, "type": "electric_scooter", "bike_id": "368218f33e30ef2698031e22da29e66f", "lat": 38.89623616666667, "lon": -76.99729666666667, "rental_uris": {"android": "https://dc.lft.to/lastmile_qr_scan", "ios": "https://dc.lft.to/lastmile_qr_scan"}, "is_disabled": 0, "fusion_lat": 0.0, "name": "368218f33e30ef2698031e22da29e66f", "fusion_lon": 0.0}, {"is_reserved": 0, "type": "electric_scooter", "bike_id": "3c444dd6a211571e934879275231d4e7", "lat": 38.88771466666667, "lon": -76.9916, "rental_uris": {"android": "https://dc.lft.to/lastmile_qr_scan", "ios": "https://dc.lft.to/lastmile_qr_scan"}, "is_disabled": 0, "fusion_lat": 0.0, "name": "3c444dd6a211571e934879275231d4e7", "fusion_lon": 0.0}, {"is_reserved": 0, "type": "electric_scooter", "bike_id": "0e28602d597e708d4aec158e9b2849ab", "lat": 38.93118666666667, "lon": -77.02312016666667, "rental_uris": {"android": "https://dc.lft.to/lastmile_qr_scan", "ios": "https://dc.lft.to/lastmile_qr_scan"}, "is_disabled": 0, "fusion_lat": 0.0, "name": "0e28602d597e708d4aec158e9b2849ab", "fusion_lon": 0.0}, {"is_reserved": 0, "type": "electric_scooter", "bike_id": "b7c8857e9b8920c91f27fa256e66e566", "lat": 38.93628316666667, "lon": -77.05895516666666, "rental_uris": {"android": "https://dc.lft.to/lastmile_qr_scan", "ios": "https://dc.lft.to/lastmile_qr_scan"}, "is_disabled": 0, "fusion_lat": 0.0, "name": "b7c8857e9b8920c91f27fa256e66e566", "fusion_lon": 0.0}, {"is_reserved": 0, "type": "electric_scooter", "bike_id": "48b76a9b938c5715f14f200b628b290d", "lat": 38.9013615, "lon": -77.03452883333334, "rental_uris": {"android": "https://dc.lft.to/lastmile_qr_scan", "ios": "https://dc.lft.to/lastmile_qr_scan"}, "is_disabled": 0, "fusion_lat": 0.0, "name": "48b76a9b938c5715f14f200b628b290d", "fusion_lon": 0.0}, {"is_reserved": 0, "type": "electric_scooter", "bike_id": "03ffd583e301a5097ad776f830e218df", "lat": 38.900161833333335, "lon": -76.991693, "rental_uris": {"android": "https://dc.lft.to/lastmile_qr_scan", "ios": "https://dc.lft.to/lastmile_qr_scan"}, "is_disabled": 0, "fusion_lat": 0.0, "name": "03ffd583e301a5097ad776f830e218df", "fusion_lon": 0.0}, {"is_reserved": 0, "type": "electric_scooter", "bike_id": "7077e6dd95b43d940e2404a336514383", "lat": 38.92396316666667, "lon": -77.05054866666667, "rental_uris": {"android": "https://dc.lft.to/lastmile_qr_scan", "ios": "https://dc.lft.to/lastmile_qr_scan"}, "is_disabled": 0, "fusion_lat": 0.0, "name": "7077e6dd95b43d940e2404a336514383", "fusion_lon": 0.0}, {"is_reserved": 0, "type": "electric_bike", "bike_id": "7d725fe7b7601edff71124c7db507aab", "lat": 38.807328166666665, "lon": -76.99258466666667, "rental_uris": {"android": "https://dc.lft.to/lastmile_qr_scan", "ios": "https://dc.lft.to/lastmile_qr_scan"}, "is_disabled": 0, "fusion_lat": 0.0, "name": "7d725fe7b7601edff71124c7db507aab", "fusion_lon": 0.0}, {"is_reserved": 0, "type": "electric_scooter", "bike_id": "0442eaa39bd86a487979c4058ea0ea07", "lat": 38.901438166666665, "lon": -77.02841566666666, "rental_uris": {"android": "https://dc.lft.to/lastmile_qr_scan", "ios": "https://dc.lft.to/lastmile_qr_scan"}, "is_disabled": 0, "fusion_lat": 0.0, "name": "0442eaa39bd86a487979c4058ea0ea07", "fusion_lon": 0.0}, {"is_reserved": 0, "type": "electric_scooter", "bike_id": "b22ed52030767db6000f51e6592e73f2", "lat": 38.924314, "lon": -77.02240016666667, "rental_uris": {"android": "https://dc.lft.to/lastmile_qr_scan", "ios": "https://dc.lft.to/lastmile_qr_scan"}, "is_disabled": 0, "fusion_lat": 0.0, "name": "b22ed52030767db6000f51e6592e73f2", "fusion_lon": 0.0}, {"is_reserved": 0, "type": "electric_scooter", "bike_id": "fdc3480ea96414684f2e5a3ae7147af2", "lat": 38.90546633333334, "lon": -77.05698616666666, "rental_uris": {"android": "https://dc.lft.to/lastmile_qr_scan", "ios": "https://dc.lft.to/lastmile_qr_scan"}, "is_disabled": 0, "fusion_lat": 0.0, "name": "fdc3480ea96414684f2e5a3ae7147af2", "fusion_lon": 0.0}, {"is_reserved": 0, "type": "electric_scooter", "bike_id": "cc2c13dbcc6050fbd386f86e3bab96fd", "lat": 38.872112333333334, "lon": -77.01543966666667, "rental_uris": {"android": "https://dc.lft.to/lastmile_qr_scan", "ios": "https://dc.lft.to/lastmile_qr_scan"}, "is_disabled": 0, "fusion_lat": 0.0, "name": "cc2c13dbcc6050fbd386f86e3bab96fd", "fusion_lon": 0.0}, {"is_reserved": 0, "type": "electric_scooter", "bike_id": "bccd0b6b23edee1c52f8404a5dffc1d5", "lat": 38.897167333333336, "lon": -77.0535985, "rental_uris": {"android": "https://dc.lft.to/lastmile_qr_scan", "ios": "https://dc.lft.to/lastmile_qr_scan"}, "is_disabled": 0, "fusion_lat": 0.0, "name": "bccd0b6b23edee1c52f8404a5dffc1d5", "fusion_lon": 0.0}, {"is_reserved": 0, "type": "electric_scooter", "bike_id": "57c343749f81febbaf95592127c71db2", "lat": 38.91630716666667, "lon": -77.04816033333333, "rental_uris": {"android": "https://dc.lft.to/lastmile_qr_scan", "ios": "https://dc.lft.to/lastmile_qr_scan"}, "is_disabled": 0, "fusion_lat": 0.0, "name": "57c343749f81febbaf95592127c71db2", "fusion_lon": 0.0}, {"is_reserved": 0, "type": "electric_scooter", "bike_id": "be7a0c9e231121e5026d1077b69b2528", "lat": 38.9017705, "lon": -76.92894633333333, "rental_uris": {"android": "https://dc.lft.to/lastmile_qr_scan", "ios": "https://dc.lft.to/lastmile_qr_scan"}, "is_disabled": 0, "fusion_lat": 0.0, "name": "be7a0c9e231121e5026d1077b69b2528", "fusion_lon": 0.0}, {"is_reserved": 0, "type": "electric_scooter", "bike_id": "bdf202d1b6aad14312ca8c46aa24a08c", "lat": 38.899004, "lon": -77.00362516666667, "rental_uris": {"android": "https://dc.lft.to/lastmile_qr_scan", "ios": "https://dc.lft.to/lastmile_qr_scan"}, "is_disabled": 0, "fusion_lat": 0.0, "name": "bdf202d1b6aad14312ca8c46aa24a08c", "fusion_lon": 0.0}, {"is_reserved": 0, "type": "electric_scooter", "bike_id": "6cb4ec19d655de74c30b8bc91ef77194", "lat": 38.922492166666665, "lon": -77.02883183333333, "rental_uris": {"android": "https://dc.lft.to/lastmile_qr_scan", "ios": "https://dc.lft.to/lastmile_qr_scan"}, "is_disabled": 0, "fusion_lat": 0.0, "name": "6cb4ec19d655de74c30b8bc91ef77194", "fusion_lon": 0.0}, {"is_reserved": 0, "type": "electric_scooter", "bike_id": "c05d06f37ba63a4b2c36526daddce8d0", "lat": 38.906248833333336, "lon": -77.051653, "rental_uris": {"android": "https://dc.lft.to/lastmile_qr_scan", "ios": "https://dc.lft.to/lastmile_qr_scan"}, "is_disabled": 0, "fusion_lat": 0.0, "name": "c05d06f37ba63a4b2c36526daddce8d0", "fusion_lon": 0.0}, {"is_reserved": 0, "type": "electric_bike", "bike_id": "8f0a35914167fddb7957c61130a78880", "lat": 38.905939333333336, "lon": -77.01370583333333, "rental_uris": {"android": "https://dc.lft.to/lastmile_qr_scan", "ios": "https://dc.lft.to/lastmile_qr_scan"}, "is_disabled": 0, "fusion_lat": 0.0, "name": "8f0a35914167fddb7957c61130a78880", "fusion_lon": 0.0}, {"is_reserved": 0, "type": "electric_scooter", "bike_id": "1cd4a68936350ad207762227da7a5b29", "lat": 38.94027416666667, "lon": -77.026431, "rental_uris": {"android": "https://dc.lft.to/lastmile_qr_scan", "ios": "https://dc.lft.to/lastmile_qr_scan"}, "is_disabled": 0, "fusion_lat": 0.0, "name": "1cd4a68936350ad207762227da7a5b29", "fusion_lon": 0.0}, {"is_reserved": 0, "type": "electric_scooter", "bike_id": "f8d0b09c0ec258cbdd49d3555c6c0072", "lat": 38.89225316666667, "lon": -77.04487616666667, "rental_uris": {"android": "https://dc.lft.to/lastmile_qr_scan", "ios": "https://dc.lft.to/lastmile_qr_scan"}, "is_disabled": 0, "fusion_lat": 0.0, "name": "f8d0b09c0ec258cbdd49d3555c6c0072", "fusion_lon": 0.0}, {"is_reserved": 0, "type": "electric_scooter", "bike_id": "340764d272de123cb9689557cca656d4", "lat": 38.9375805, "lon": -77.0315265, "rental_uris": {"android": "https://dc.lft.to/lastmile_qr_scan", "ios": "https://dc.lft.to/lastmile_qr_scan"}, "is_disabled": 0, "fusion_lat": 0.0, "name": "340764d272de123cb9689557cca656d4", "fusion_lon": 0.0}, {"is_reserved": 0, "type": "electric_bike", "bike_id": "eba4f2615920c161d4f6e1f56aab689c", "lat": 38.895664833333335, "lon": -77.12737033333333, "rental_uris": {"android": "https://dc.lft.to/lastmile_qr_scan", "ios": "https://dc.lft.to/lastmile_qr_scan"}, "is_disabled": 0, "fusion_lat": 0.0, "name": "eba4f2615920c161d4f6e1f56aab689c", "fusion_lon": 0.0}, {"is_reserved": 0, "type": "electric_scooter", "bike_id": "008b53ea17cec5865a744e507ea1fd33", "lat": 38.90357133333333, "lon": -77.011041, "rental_uris": {"android": "https://dc.lft.to/lastmile_qr_scan", "ios": "https://dc.lft.to/lastmile_qr_scan"}, "is_disabled": 0, "fusion_lat": 0.0, "name": "008b53ea17cec5865a744e507ea1fd33", "fusion_lon": 0.0}, {"is_reserved": 0, "type": "electric_bike", "bike_id": "ac44ad1da3881fae651b4c5131ecc327", "lat": 38.92644966666667, "lon": -76.9842095, "rental_uris": {"android": "https://dc.lft.to/lastmile_qr_scan", "ios": "https://dc.lft.to/lastmile_qr_scan"}, "is_disabled": 0, "fusion_lat": 0.0, "name": "ac44ad1da3881fae651b4c5131ecc327", "fusion_lon": 0.0}, {"is_reserved": 0, "type": "electric_scooter", "bike_id": "d0b49905f7462aa0300f11d1a99fbeaa", "lat": 38.9208875, "lon": -77.018027, "rental_uris": {"android": "https://dc.lft.to/lastmile_qr_scan", "ios": "https://dc.lft.to/lastmile_qr_scan"}, "is_disabled": 0, "fusion_lat": 0.0, "name": "d0b49905f7462aa0300f11d1a99fbeaa", "fusion_lon": 0.0}, {"is_reserved": 0, "type": "electric_scooter", "bike_id": "bfb41775ce57da480e845baac9fe02b2", "lat": 38.896359, "lon": -77.02602133333333, "rental_uris": {"android": "https://dc.lft.to/lastmile_qr_scan", "ios": "https://dc.lft.to/lastmile_qr_scan"}, "is_disabled": 0, "fusion_lat": 0.0, "name": "bfb41775ce57da480e845baac9fe02b2", "fusion_lon": 0.0}, {"is_reserved": 0, "type": "electric_bike", "bike_id": "76192d7d8fde0b8b5230eea47297277e", "lat": 38.92507066666667, "lon": -76.98223483333334, "rental_uris": {"android": "https://dc.lft.to/lastmile_qr_scan", "ios": "https://dc.lft.to/lastmile_qr_scan"}, "is_disabled": 0, "fusion_lat": 0.0, "name": "76192d7d8fde0b8b5230eea47297277e", "fusion_lon": 0.0}, {"is_reserved": 0, "type": "electric_scooter", "bike_id": "98df6c352c1b99a0b86d920acb7f4d81", "lat": 38.88773833333333, "lon": -76.93261366666667, "rental_uris": {"android": "https://dc.lft.to/lastmile_qr_scan", "ios": "https://dc.lft.to/lastmile_qr_scan"}, "is_disabled": 0, "fusion_lat": 0.0, "name": "98df6c352c1b99a0b86d920acb7f4d81", "fusion_lon": 0.0}, {"is_reserved": 0, "type": "electric_scooter", "bike_id": "a764396d2aa9c366670e7057969c6b93", "lat": 38.91915083333333, "lon": -77.00991716666667, "rental_uris": {"android": "https://dc.lft.to/lastmile_qr_scan", "ios": "https://dc.lft.to/lastmile_qr_scan"}, "is_disabled": 0, "fusion_lat": 0.0, "name": "a764396d2aa9c366670e7057969c6b93", "fusion_lon": 0.0}, {"is_reserved": 0, "type": "electric_scooter", "bike_id": "582ad2ce8a7bd9d5959832ced41a3d95", "lat": 38.905748833333334, "lon": -77.01850866666666, "rental_uris": {"android": "https://dc.lft.to/lastmile_qr_scan", "ios": "https://dc.lft.to/lastmile_qr_scan"}, "is_disabled": 0, "fusion_lat": 0.0, "name": "582ad2ce8a7bd9d5959832ced41a3d95", "fusion_lon": 0.0}, {"is_reserved": 0, "type": "electric_scooter", "bike_id": "b10d505fa1a4233c302e32503bc3da45", "lat": 38.91270183333334, "lon": -77.01839883333334, "rental_uris": {"android": "https://dc.lft.to/lastmile_qr_scan", "ios": "https://dc.lft.to/lastmile_qr_scan"}, "is_disabled": 0, "fusion_lat": 0.0, "name": "b10d505fa1a4233c302e32503bc3da45", "fusion_lon": 0.0}, {"is_reserved": 0, "type": "electric_bike", "bike_id": "828788bdf8e81bbfdb19590dea70ab19", "lat": 38.8675535, "lon": -76.94532366666667, "rental_uris": {"android": "https://dc.lft.to/lastmile_qr_scan", "ios": "https://dc.lft.to/lastmile_qr_scan"}, "is_disabled": 0, "fusion_lat": 0.0, "name": "828788bdf8e81bbfdb19590dea70ab19", "fusion_lon": 0.0}, {"is_reserved": 0, "type": "electric_scooter", "bike_id": "8f102089d000a58e9c4936e2d944e0bc", "lat": 38.90029333333333, "lon": -77.002032, "rental_uris": {"android": "https://dc.lft.to/lastmile_qr_scan", "ios": "https://dc.lft.to/lastmile_qr_scan"}, "is_disabled": 0, "fusion_lat": 0.0, "name": "8f102089d000a58e9c4936e2d944e0bc", "fusion_lon": 0.0}, {"is_reserved": 0, "type": "electric_scooter", "bike_id": "94acf7809d822177e2b51c42924eab55", "lat": 38.8921915, "lon": -77.02424566666667, "rental_uris": {"android": "https://dc.lft.to/lastmile_qr_scan", "ios": "https://dc.lft.to/lastmile_qr_scan"}, "is_disabled": 0, "fusion_lat": 0.0, "name": "94acf7809d822177e2b51c42924eab55", "fusion_lon": 0.0}, {"is_reserved": 0, "type": "electric_scooter", "bike_id": "775e0f5ef0a216ad145761ef3b6496f5", "lat": 38.8812185, "lon": -77.01975816666666, "rental_uris": {"android": "https://dc.lft.to/lastmile_qr_scan", "ios": "https://dc.lft.to/lastmile_qr_scan"}, "is_disabled": 0, "fusion_lat": 0.0, "name": "775e0f5ef0a216ad145761ef3b6496f5", "fusion_lon": 0.0}, {"is_reserved": 0, "type": "electric_scooter", "bike_id": "0ce69970957e7ed0abce491f79c63bdb", "lat": 38.917632166666664, "lon": -77.00453033333334, "rental_uris": {"android": "https://dc.lft.to/lastmile_qr_scan", "ios": "https://dc.lft.to/lastmile_qr_scan"}, "is_disabled": 0, "fusion_lat": 0.0, "name": "0ce69970957e7ed0abce491f79c63bdb", "fusion_lon": 0.0}, {"is_reserved": 0, "type": "electric_scooter", "bike_id": "04903539f8e41cbca92356f2d30c0bd1", "lat": 38.933339833333335, "lon": -77.02909416666667, "rental_uris": {"android": "https://dc.lft.to/lastmile_qr_scan", "ios": "https://dc.lft.to/lastmile_qr_scan"}, "is_disabled": 0, "fusion_lat": 0.0, "name": "04903539f8e41cbca92356f2d30c0bd1", "fusion_lon": 0.0}, {"is_reserved": 0, "type": "electric_scooter", "bike_id": "65bffeb347f799b7bc0c1a55caeb0b3a", "lat": 38.9163575, "lon": -77.042716, "rental_uris": {"android": "https://dc.lft.to/lastmile_qr_scan", "ios": "https://dc.lft.to/lastmile_qr_scan"}, "is_disabled": 0, "fusion_lat": 0.0, "name": "65bffeb347f799b7bc0c1a55caeb0b3a", "fusion_lon": 0.0}, {"is_reserved": 0, "type": "electric_scooter", "bike_id": "ccf13fb59297ba7ca6759e939736ec79", "lat": 38.907843666666665, "lon": -77.00954883333333, "rental_uris": {"android": "https://dc.lft.to/lastmile_qr_scan", "ios": "https://dc.lft.to/lastmile_qr_scan"}, "is_disabled": 0, "fusion_lat": 0.0, "name": "ccf13fb59297ba7ca6759e939736ec79", "fusion_lon": 0.0}, {"is_reserved": 0, "type": "electric_scooter", "bike_id": "264d32f5aadedcaf5999ea71975b527d", "lat": 38.94976, "lon": -77.02447216666667, "rental_uris": {"android": "https://dc.lft.to/lastmile_qr_scan", "ios": "https://dc.lft.to/lastmile_qr_scan"}, "is_disabled": 0, "fusion_lat": 0.0, "name": "264d32f5aadedcaf5999ea71975b527d", "fusion_lon": 0.0}, {"is_reserved": 0, "type": "electric_scooter", "bike_id": "e0083d16ee0aac133b0e055a5a05cf5d", "lat": 38.8797475, "lon": -77.0084935, "rental_uris": {"android": "https://dc.lft.to/lastmile_qr_scan", "ios": "https://dc.lft.to/lastmile_qr_scan"}, "is_disabled": 0, "fusion_lat": 0.0, "name": "e0083d16ee0aac133b0e055a5a05cf5d", "fusion_lon": 0.0}, {"is_reserved": 0, "type": "electric_scooter", "bike_id": "f1fad9379414fab3ca5c2c2a3bab9786", "lat": 38.90244166666667, "lon": -77.016216, "rental_uris": {"android": "https://dc.lft.to/lastmile_qr_scan", "ios": "https://dc.lft.to/lastmile_qr_scan"}, "is_disabled": 0, "fusion_lat": 0.0, "name": "f1fad9379414fab3ca5c2c2a3bab9786", "fusion_lon": 0.0}, {"is_reserved": 0, "type": "electric_scooter", "bike_id": "d3df9d7e95e6c0d0df8978a629116e1f", "lat": 38.908049, "lon": -77.048808, "rental_uris": {"android": "https://dc.lft.to/lastmile_qr_scan", "ios": "https://dc.lft.to/lastmile_qr_scan"}, "is_disabled": 0, "fusion_lat": 0.0, "name": "d3df9d7e95e6c0d0df8978a629116e1f", "fusion_lon": 0.0}, {"is_reserved": 0, "type": "electric_bike", "bike_id": "2aafcfeb38c91af31f6040f64e6762cc", "lat": 38.9056455, "lon": -77.00535633333334, "rental_uris": {"android": "https://dc.lft.to/lastmile_qr_scan", "ios": "https://dc.lft.to/lastmile_qr_scan"}, "is_disabled": 0, "fusion_lat": 0.0, "name": "2aafcfeb38c91af31f6040f64e6762cc", "fusion_lon": 0.0}, {"is_reserved": 0, "type": "electric_scooter", "bike_id": "383f4468d97c996744e8ba6635c8355e", "lat": 38.90553933333333, "lon": -77.00603933333333, "rental_uris": {"android": "https://dc.lft.to/lastmile_qr_scan", "ios": "https://dc.lft.to/lastmile_qr_scan"}, "is_disabled": 0, "fusion_lat": 0.0, "name": "383f4468d97c996744e8ba6635c8355e", "fusion_lon": 0.0}, {"is_reserved": 0, "type": "electric_scooter", "bike_id": "d112d0dba59609e8f882b8db40aff6c5", "lat": 38.875592833333336, "lon": -77.00601783333333, "rental_uris": {"android": "https://dc.lft.to/lastmile_qr_scan", "ios": "https://dc.lft.to/lastmile_qr_scan"}, "is_disabled": 0, "fusion_lat": 0.0, "name": "d112d0dba59609e8f882b8db40aff6c5", "fusion_lon": 0.0}, {"is_reserved": 0, "type": "electric_scooter", "bike_id": "748e04bbcfcb0d957d202ac6c15d1c18", "lat": 38.910130833333334, "lon": -77.02206083333333, "rental_uris": {"android": "https://dc.lft.to/lastmile_qr_scan", "ios": "https://dc.lft.to/lastmile_qr_scan"}, "is_disabled": 0, "fusion_lat": 0.0, "name": "748e04bbcfcb0d957d202ac6c15d1c18", "fusion_lon": 0.0}, {"is_reserved": 0, "type": "electric_scooter", "bike_id": "bb72fc31afbd169883e3df36d59c47d0", "lat": 38.89999783333333, "lon": -77.02732866666666, "rental_uris": {"android": "https://dc.lft.to/lastmile_qr_scan", "ios": "https://dc.lft.to/lastmile_qr_scan"}, "is_disabled": 0, "fusion_lat": 0.0, "name": "bb72fc31afbd169883e3df36d59c47d0", "fusion_lon": 0.0}, {"is_reserved": 0, "type": "electric_scooter", "bike_id": "2494e587755b81915d0d5ae994f2cce9", "lat": 38.9161485, "lon": -77.037166, "rental_uris": {"android": "https://dc.lft.to/lastmile_qr_scan", "ios": "https://dc.lft.to/lastmile_qr_scan"}, "is_disabled": 0, "fusion_lat": 0.0, "name": "2494e587755b81915d0d5ae994f2cce9", "fusion_lon": 0.0}, {"is_reserved": 0, "type": "electric_scooter", "bike_id": "e41bd09a1a3fd455464bf49dfc930851", "lat": 38.9165255, "lon": -77.03710333333333, "rental_uris": {"android": "https://dc.lft.to/lastmile_qr_scan", "ios": "https://dc.lft.to/lastmile_qr_scan"}, "is_disabled": 0, "fusion_lat": 0.0, "name": "e41bd09a1a3fd455464bf49dfc930851", "fusion_lon": 0.0}, {"is_reserved": 0, "type": "electric_scooter", "bike_id": "94c01f35a3ad64bfb66005675265bd4a", "lat": 38.92446483333333, "lon": -77.02136833333333, "rental_uris": {"android": "https://dc.lft.to/lastmile_qr_scan", "ios": "https://dc.lft.to/lastmile_qr_scan"}, "is_disabled": 0, "fusion_lat": 0.0, "name": "94c01f35a3ad64bfb66005675265bd4a", "fusion_lon": 0.0}, {"is_reserved": 0, "type": "electric_scooter", "bike_id": "024c6d202a39c7299755641b14354498", "lat": 38.92435116666667, "lon": -77.020331, "rental_uris": {"android": "https://dc.lft.to/lastmile_qr_scan", "ios": "https://dc.lft.to/lastmile_qr_scan"}, "is_disabled": 0, "fusion_lat": 0.0, "name": "024c6d202a39c7299755641b14354498", "fusion_lon": 0.0}, {"is_reserved": 0, "type": "electric_scooter", "bike_id": "6bb67639010a35f2c8b96000447407a4", "lat": 38.93385633333333, "lon": -77.02382666666666, "rental_uris": {"android": "https://dc.lft.to/lastmile_qr_scan", "ios": "https://dc.lft.to/lastmile_qr_scan"}, "is_disabled": 0, "fusion_lat": 0.0, "name": "6bb67639010a35f2c8b96000447407a4", "fusion_lon": 0.0}, {"is_reserved": 0, "type": "electric_scooter", "bike_id": "b414a534572803841dda02bf219ab71c", "lat": 38.95625316666667, "lon": -77.03560233333333, "rental_uris": {"android": "https://dc.lft.to/lastmile_qr_scan", "ios": "https://dc.lft.to/lastmile_qr_scan"}, "is_disabled": 0, "fusion_lat": 0.0, "name": "b414a534572803841dda02bf219ab71c", "fusion_lon": 0.0}, {"is_reserved": 0, "type": "electric_scooter", "bike_id": "9fb310eecdb1d2f4d4efd3bebd854e95", "lat": 38.912652333333334, "lon": -77.04429766666667, "rental_uris": {"android": "https://dc.lft.to/lastmile_qr_scan", "ios": "https://dc.lft.to/lastmile_qr_scan"}, "is_disabled": 0, "fusion_lat": 0.0, "name": "9fb310eecdb1d2f4d4efd3bebd854e95", "fusion_lon": 0.0}, {"is_reserved": 0, "type": "electric_scooter", "bike_id": "281b0c9d0bf5728b4c225d91791986b6", "lat": 38.912065166666665, "lon": -77.02001733333333, "rental_uris": {"android": "https://dc.lft.to/lastmile_qr_scan", "ios": "https://dc.lft.to/lastmile_qr_scan"}, "is_disabled": 0, "fusion_lat": 0.0, "name": "281b0c9d0bf5728b4c225d91791986b6", "fusion_lon": 0.0}, {"is_reserved": 0, "type": "electric_scooter", "bike_id": "5813bb06bb36100ace850e2d22123dcb", "lat": 38.937062, "lon": -77.02397483333333, "rental_uris": {"android": "https://dc.lft.to/lastmile_qr_scan", "ios": "https://dc.lft.to/lastmile_qr_scan"}, "is_disabled": 0, "fusion_lat": 0.0, "name": "5813bb06bb36100ace850e2d22123dcb", "fusion_lon": 0.0}, {"is_reserved": 0, "type": "electric_bike", "bike_id": "4a956f475c2029ee2c4f01bcb09a0bd9", "lat": 38.802463833333334, "lon": -77.11439716666666, "rental_uris": {"android": "https://dc.lft.to/lastmile_qr_scan", "ios": "https://dc.lft.to/lastmile_qr_scan"}, "is_disabled": 0, "fusion_lat": 0.0, "name": "4a956f475c2029ee2c4f01bcb09a0bd9", "fusion_lon": 0.0}, {"is_reserved": 0, "type": "electric_scooter", "bike_id": "0afaba61c33e710429d6ae557611587f", "lat": 38.90025083333333, "lon": -77.00211066666667, "rental_uris": {"android": "https://dc.lft.to/lastmile_qr_scan", "ios": "https://dc.lft.to/lastmile_qr_scan"}, "is_disabled": 0, "fusion_lat": 0.0, "name": "0afaba61c33e710429d6ae557611587f", "fusion_lon": 0.0}, {"is_reserved": 0, "type": "electric_scooter", "bike_id": "a1e913a6968bbff89671f5742a54e028", "lat": 38.92857633333333, "lon": -77.0273445, "rental_uris": {"android": "https://dc.lft.to/lastmile_qr_scan", "ios": "https://dc.lft.to/lastmile_qr_scan"}, "is_disabled": 0, "fusion_lat": 0.0, "name": "a1e913a6968bbff89671f5742a54e028", "fusion_lon": 0.0}, {"is_reserved": 0, "type": "electric_scooter", "bike_id": "7b1f1ef13f84e3f3ac2b4dc6723c7955", "lat": 38.909590333333334, "lon": -77.04570233333334, "rental_uris": {"android": "https://dc.lft.to/lastmile_qr_scan", "ios": "https://dc.lft.to/lastmile_qr_scan"}, "is_disabled": 0, "fusion_lat": 0.0, "name": "7b1f1ef13f84e3f3ac2b4dc6723c7955", "fusion_lon": 0.0}, {"is_reserved": 0, "type": "electric_scooter", "bike_id": "af33f02f30aade993358660533a441b0", "lat": 38.927262166666665, "lon": -77.035516, "rental_uris": {"android": "https://dc.lft.to/lastmile_qr_scan", "ios": "https://dc.lft.to/lastmile_qr_scan"}, "is_disabled": 0, "fusion_lat": 0.0, "name": "af33f02f30aade993358660533a441b0", "fusion_lon": 0.0}, {"is_reserved": 0, "type": "electric_scooter", "bike_id": "f6c1b4d226480611fad3d28b056b00b5", "lat": 38.90057016666667, "lon": -76.99832133333334, "rental_uris": {"android": "https://dc.lft.to/lastmile_qr_scan", "ios": "https://dc.lft.to/lastmile_qr_scan"}, "is_disabled": 0, "fusion_lat": 0.0, "name": "f6c1b4d226480611fad3d28b056b00b5", "fusion_lon": 0.0}, {"is_reserved": 0, "type": "electric_scooter", "bike_id": "1b0e221cb23775725c90eb53df1fc6a7", "lat": 38.92150316666667, "lon": -77.0348735, "rental_uris": {"android": "https://dc.lft.to/lastmile_qr_scan", "ios": "https://dc.lft.to/lastmile_qr_scan"}, "is_disabled": 0, "fusion_lat": 0.0, "name": "1b0e221cb23775725c90eb53df1fc6a7", "fusion_lon": 0.0}, {"is_reserved": 0, "type": "electric_scooter", "bike_id": "d1aacbd6eba63eddf3b2664c992017a3", "lat": 38.92911566666667, "lon": -77.0209035, "rental_uris": {"android": "https://dc.lft.to/lastmile_qr_scan", "ios": "https://dc.lft.to/lastmile_qr_scan"}, "is_disabled": 0, "fusion_lat": 0.0, "name": "d1aacbd6eba63eddf3b2664c992017a3", "fusion_lon": 0.0}, {"is_reserved": 0, "type": "electric_scooter", "bike_id": "c0ca539bb2851f06ae428d6039a8b409", "lat": 38.902683, "lon": -77.017322, "rental_uris": {"android": "https://dc.lft.to/lastmile_qr_scan", "ios": "https://dc.lft.to/lastmile_qr_scan"}, "is_disabled": 0, "fusion_lat": 0.0, "name": "c0ca539bb2851f06ae428d6039a8b409", "fusion_lon": 0.0}, {"is_reserved": 0, "type": "electric_scooter", "bike_id": "025117107463532016ba10faba19c48c", "lat": 38.92588416666667, "lon": -77.04102983333334, "rental_uris": {"android": "https://dc.lft.to/lastmile_qr_scan", "ios": "https://dc.lft.to/lastmile_qr_scan"}, "is_disabled": 0, "fusion_lat": 0.0, "name": "025117107463532016ba10faba19c48c", "fusion_lon": 0.0}, {"is_reserved": 0, "type": "electric_scooter", "bike_id": "8dbf46d33d3c209881b73ff3c76a345f", "lat": 38.91885516666667, "lon": -77.03486666666667, "rental_uris": {"android": "https://dc.lft.to/lastmile_qr_scan", "ios": "https://dc.lft.to/lastmile_qr_scan"}, "is_disabled": 0, "fusion_lat": 0.0, "name": "8dbf46d33d3c209881b73ff3c76a345f", "fusion_lon": 0.0}, {"is_reserved": 0, "type": "electric_scooter", "bike_id": "018ec6968c2b471b8cc9ae914d437cdd", "lat": 38.934769, "lon": -77.05647383333333, "rental_uris": {"android": "https://dc.lft.to/lastmile_qr_scan", "ios": "https://dc.lft.to/lastmile_qr_scan"}, "is_disabled": 0, "fusion_lat": 0.0, "name": "018ec6968c2b471b8cc9ae914d437cdd", "fusion_lon": 0.0}, {"is_reserved": 0, "type": "electric_scooter", "bike_id": "0e6dcb8b1c55e4c7092d4860daf58225", "lat": 38.915480333333335, "lon": -77.04174116666667, "rental_uris": {"android": "https://dc.lft.to/lastmile_qr_scan", "ios": "https://dc.lft.to/lastmile_qr_scan"}, "is_disabled": 0, "fusion_lat": 0.0, "name": "0e6dcb8b1c55e4c7092d4860daf58225", "fusion_lon": 0.0}, {"is_reserved": 0, "type": "electric_scooter", "bike_id": "ac843c8bf5528413725a2a41681fe467", "lat": 38.899002833333334, "lon": -77.00364116666667, "rental_uris": {"android": "https://dc.lft.to/lastmile_qr_scan", "ios": "https://dc.lft.to/lastmile_qr_scan"}, "is_disabled": 0, "fusion_lat": 0.0, "name": "ac843c8bf5528413725a2a41681fe467", "fusion_lon": 0.0}, {"is_reserved": 0, "type": "electric_scooter", "bike_id": "3d01cafd615248d25f911e965ce8d960", "lat": 38.915547333333336, "lon": -77.03099866666666, "rental_uris": {"android": "https://dc.lft.to/lastmile_qr_scan", "ios": "https://dc.lft.to/lastmile_qr_scan"}, "is_disabled": 0, "fusion_lat": 0.0, "name": "3d01cafd615248d25f911e965ce8d960", "fusion_lon": 0.0}, {"is_reserved": 0, "type": "electric_scooter", "bike_id": "4810f1d030e88f5ec90812b94c9c52ca", "lat": 38.93410166666666, "lon": -77.02040716666667, "rental_uris": {"android": "https://dc.lft.to/lastmile_qr_scan", "ios": "https://dc.lft.to/lastmile_qr_scan"}, "is_disabled": 0, "fusion_lat": 0.0, "name": "4810f1d030e88f5ec90812b94c9c52ca", "fusion_lon": 0.0}, {"is_reserved": 0, "type": "electric_scooter", "bike_id": "c93e8a1e39b3f6d1896357098e5c93cc", "lat": 38.89891266666667, "lon": -77.01629383333334, "rental_uris": {"android": "https://dc.lft.to/lastmile_qr_scan", "ios": "https://dc.lft.to/lastmile_qr_scan"}, "is_disabled": 0, "fusion_lat": 0.0, "name": "c93e8a1e39b3f6d1896357098e5c93cc", "fusion_lon": 0.0}, {"is_reserved": 0, "type": "electric_scooter", "bike_id": "4d6be665d4b734ff3e254b60a8fbac7a", "lat": 38.909632333333334, "lon": -77.00769783333334, "rental_uris": {"android": "https://dc.lft.to/lastmile_qr_scan", "ios": "https://dc.lft.to/lastmile_qr_scan"}, "is_disabled": 0, "fusion_lat": 0.0, "name": "4d6be665d4b734ff3e254b60a8fbac7a", "fusion_lon": 0.0}, {"is_reserved": 0, "type": "electric_scooter", "bike_id": "322a8aa2ca10db1685cb2090a0b3f70e", "lat": 38.91937133333333, "lon": -77.04797033333334, "rental_uris": {"android": "https://dc.lft.to/lastmile_qr_scan", "ios": "https://dc.lft.to/lastmile_qr_scan"}, "is_disabled": 0, "fusion_lat": 0.0, "name": "322a8aa2ca10db1685cb2090a0b3f70e", "fusion_lon": 0.0}, {"is_reserved": 0, "type": "electric_scooter", "bike_id": "57e79c277f355a44c17b7806e44f2179", "lat": 38.93084433333333, "lon": -77.028055, "rental_uris": {"android": "https://dc.lft.to/lastmile_qr_scan", "ios": "https://dc.lft.to/lastmile_qr_scan"}, "is_disabled": 0, "fusion_lat": 0.0, "name": "57e79c277f355a44c17b7806e44f2179", "fusion_lon": 0.0}, {"is_reserved": 0, "type": "electric_scooter", "bike_id": "f76706fbb73773433a17eb41f9674ba8", "lat": 38.920646166666664, "lon": -77.0322185, "rental_uris": {"android": "https://dc.lft.to/lastmile_qr_scan", "ios": "https://dc.lft.to/lastmile_qr_scan"}, "is_disabled": 0, "fusion_lat": 0.0, "name": "f76706fbb73773433a17eb41f9674ba8", "fusion_lon": 0.0}, {"is_reserved": 0, "type": "electric_scooter", "bike_id": "c745f9e3562bac7cdd622306ff7ba373", "lat": 38.89822216666666, "lon": -77.024808, "rental_uris": {"android": "https://dc.lft.to/lastmile_qr_scan", "ios": "https://dc.lft.to/lastmile_qr_scan"}, "is_disabled": 0, "fusion_lat": 0.0, "name": "c745f9e3562bac7cdd622306ff7ba373", "fusion_lon": 0.0}, {"is_reserved": 0, "type": "electric_scooter", "bike_id": "184c1cbbcc3a8546b7ef6c1ac9c1500a", "lat": 38.915555833333336, "lon": -77.03100033333334, "rental_uris": {"android": "https://dc.lft.to/lastmile_qr_scan", "ios": "https://dc.lft.to/lastmile_qr_scan"}, "is_disabled": 0, "fusion_lat": 0.0, "name": "184c1cbbcc3a8546b7ef6c1ac9c1500a", "fusion_lon": 0.0}, {"is_reserved": 0, "type": "electric_scooter", "bike_id": "5135e68b1f938de235e94d19f5d55760", "lat": 38.88728066666667, "lon": -76.98378833333334, "rental_uris": {"android": "https://dc.lft.to/lastmile_qr_scan", "ios": "https://dc.lft.to/lastmile_qr_scan"}, "is_disabled": 0, "fusion_lat": 0.0, "name": "5135e68b1f938de235e94d19f5d55760", "fusion_lon": 0.0}, {"is_reserved": 0, "type": "electric_scooter", "bike_id": "af39d6761bea11f74f55bf7be7e2e23d", "lat": 38.93403416666666, "lon": -77.03986816666666, "rental_uris": {"android": "https://dc.lft.to/lastmile_qr_scan", "ios": "https://dc.lft.to/lastmile_qr_scan"}, "is_disabled": 0, "fusion_lat": 0.0, "name": "af39d6761bea11f74f55bf7be7e2e23d", "fusion_lon": 0.0}, {"is_reserved": 0, "type": "electric_scooter", "bike_id": "0cf5b90ff309297eba6be86b45615cb3", "lat": 38.911096666666666, "lon": -77.020781, "rental_uris": {"android": "https://dc.lft.to/lastmile_qr_scan", "ios": "https://dc.lft.to/lastmile_qr_scan"}, "is_disabled": 0, "fusion_lat": 0.0, "name": "0cf5b90ff309297eba6be86b45615cb3", "fusion_lon": 0.0}, {"is_reserved": 0, "type": "electric_scooter", "bike_id": "27c267d92d62ccf3610f70282306cf44", "lat": 38.91941533333333, "lon": -77.01878633333334, "rental_uris": {"android": "https://dc.lft.to/lastmile_qr_scan", "ios": "https://dc.lft.to/lastmile_qr_scan"}, "is_disabled": 0, "fusion_lat": 0.0, "name": "27c267d92d62ccf3610f70282306cf44", "fusion_lon": 0.0}, {"is_reserved": 0, "type": "electric_scooter", "bike_id": "d4e9c0ffd2593d3d8161327127f6c460", "lat": 38.908599833333334, "lon": -77.00362566666666, "rental_uris": {"android": "https://dc.lft.to/lastmile_qr_scan", "ios": "https://dc.lft.to/lastmile_qr_scan"}, "is_disabled": 0, "fusion_lat": 0.0, "name": "d4e9c0ffd2593d3d8161327127f6c460", "fusion_lon": 0.0}, {"is_reserved": 0, "type": "electric_scooter", "bike_id": "55452b4615a96aa6053dae5a98da4cfb", "lat": 38.919654333333334, "lon": -77.04356683333333, "rental_uris": {"android": "https://dc.lft.to/lastmile_qr_scan", "ios": "https://dc.lft.to/lastmile_qr_scan"}, "is_disabled": 0, "fusion_lat": 0.0, "name": "55452b4615a96aa6053dae5a98da4cfb", "fusion_lon": 0.0}, {"is_reserved": 0, "type": "electric_scooter", "bike_id": "5bab73d20ba30fb1e8aead2b05f0dd0b", "lat": 38.91469416666666, "lon": -77.0320995, "rental_uris": {"android": "https://dc.lft.to/lastmile_qr_scan", "ios": "https://dc.lft.to/lastmile_qr_scan"}, "is_disabled": 0, "fusion_lat": 0.0, "name": "5bab73d20ba30fb1e8aead2b05f0dd0b", "fusion_lon": 0.0}, {"is_reserved": 0, "type": "electric_scooter", "bike_id": "4f0b19dfaa9b90c9d3edfda3006f6757", "lat": 38.865857166666665, "lon": -76.97451016666666, "rental_uris": {"android": "https://dc.lft.to/lastmile_qr_scan", "ios": "https://dc.lft.to/lastmile_qr_scan"}, "is_disabled": 0, "fusion_lat": 0.0, "name": "4f0b19dfaa9b90c9d3edfda3006f6757", "fusion_lon": 0.0}, {"is_reserved": 0, "type": "electric_scooter", "bike_id": "296fb64a8c8b381cdea9b6c81c66420f", "lat": 38.88766233333333, "lon": -76.98326016666667, "rental_uris": {"android": "https://dc.lft.to/lastmile_qr_scan", "ios": "https://dc.lft.to/lastmile_qr_scan"}, "is_disabled": 0, "fusion_lat": 0.0, "name": "296fb64a8c8b381cdea9b6c81c66420f", "fusion_lon": 0.0}, {"is_reserved": 0, "type": "electric_scooter", "bike_id": "1e81b569a19b9a319af50f02bdd67713", "lat": 38.9157045, "lon": -77.02288816666666, "rental_uris": {"android": "https://dc.lft.to/lastmile_qr_scan", "ios": "https://dc.lft.to/lastmile_qr_scan"}, "is_disabled": 0, "fusion_lat": 0.0, "name": "1e81b569a19b9a319af50f02bdd67713", "fusion_lon": 0.0}, {"is_reserved": 0, "type": "electric_scooter", "bike_id": "1518db24ac7d2d8b89e83947177a0f01", "lat": 38.88772, "lon": -76.98318433333333, "rental_uris": {"android": "https://dc.lft.to/lastmile_qr_scan", "ios": "https://dc.lft.to/lastmile_qr_scan"}, "is_disabled": 0, "fusion_lat": 0.0, "name": "1518db24ac7d2d8b89e83947177a0f01", "fusion_lon": 0.0}, {"is_reserved": 0, "type": "electric_scooter", "bike_id": "b2a94e151d8ed90abc5ef7fa6370b534", "lat": 38.897729, "lon": -77.02676966666667, "rental_uris": {"android": "https://dc.lft.to/lastmile_qr_scan", "ios": "https://dc.lft.to/lastmile_qr_scan"}, "is_disabled": 0, "fusion_lat": 0.0, "name": "b2a94e151d8ed90abc5ef7fa6370b534", "fusion_lon": 0.0}, {"is_reserved": 0, "type": "electric_bike", "bike_id": "54d6ca42e66f199bab6de7b8be35ecd0", "lat": 38.8959335, "lon": -76.90689583333334, "rental_uris": {"android": "https://dc.lft.to/lastmile_qr_scan", "ios": "https://dc.lft.to/lastmile_qr_scan"}, "is_disabled": 0, "fusion_lat": 0.0, "name": "54d6ca42e66f199bab6de7b8be35ecd0", "fusion_lon": 0.0}, {"is_reserved": 0, "type": "electric_scooter", "bike_id": "11de86958c963adf0f9c50576fd03978", "lat": 38.8980865, "lon": -76.996882, "rental_uris": {"android": "https://dc.lft.to/lastmile_qr_scan", "ios": "https://dc.lft.to/lastmile_qr_scan"}, "is_disabled": 0, "fusion_lat": 0.0, "name": "11de86958c963adf0f9c50576fd03978", "fusion_lon": 0.0}, {"is_reserved": 0, "type": "electric_scooter", "bike_id": "76b29b17fae0fb056c50b9b2d77dd632", "lat": 38.867157, "lon": -76.9807275, "rental_uris": {"android": "https://dc.lft.to/lastmile_qr_scan", "ios": "https://dc.lft.to/lastmile_qr_scan"}, "is_disabled": 0, "fusion_lat": 0.0, "name": "76b29b17fae0fb056c50b9b2d77dd632", "fusion_lon": 0.0}, {"is_reserved": 0, "type": "electric_scooter", "bike_id": "169eac6bd52571af77cb693d295e37a7", "lat": 38.892266666666664, "lon": -77.03184483333334, "rental_uris": {"android": "https://dc.lft.to/lastmile_qr_scan", "ios": "https://dc.lft.to/lastmile_qr_scan"}, "is_disabled": 0, "fusion_lat": 0.0, "name": "169eac6bd52571af77cb693d295e37a7", "fusion_lon": 0.0}, {"is_reserved": 0, "type": "electric_scooter", "bike_id": "f83e9df1916639a3344e79f3e9b96b87", "lat": 38.91612833333333, "lon": -77.02304533333333, "rental_uris": {"android": "https://dc.lft.to/lastmile_qr_scan", "ios": "https://dc.lft.to/lastmile_qr_scan"}, "is_disabled": 0, "fusion_lat": 0.0, "name": "f83e9df1916639a3344e79f3e9b96b87", "fusion_lon": 0.0}, {"is_reserved": 0, "type": "electric_scooter", "bike_id": "c22584db88c5716cb23e8049535114b9", "lat": 38.940781333333334, "lon": -77.03329433333333, "rental_uris": {"android": "https://dc.lft.to/lastmile_qr_scan", "ios": "https://dc.lft.to/lastmile_qr_scan"}, "is_disabled": 0, "fusion_lat": 0.0, "name": "c22584db88c5716cb23e8049535114b9", "fusion_lon": 0.0}, {"is_reserved": 0, "type": "electric_scooter", "bike_id": "fd9d26d6ea992d5564e5420565653a5d", "lat": 38.88393116666667, "lon": -76.989846, "rental_uris": {"android": "https://dc.lft.to/lastmile_qr_scan", "ios": "https://dc.lft.to/lastmile_qr_scan"}, "is_disabled": 0, "fusion_lat": 0.0, "name": "fd9d26d6ea992d5564e5420565653a5d", "fusion_lon": 0.0}, {"is_reserved": 0, "type": "electric_scooter", "bike_id": "011c0c0e9f3afd65ebc7987cd76b295a", "lat": 38.914639333333334, "lon": -77.04585316666666, "rental_uris": {"android": "https://dc.lft.to/lastmile_qr_scan", "ios": "https://dc.lft.to/lastmile_qr_scan"}, "is_disabled": 0, "fusion_lat": 0.0, "name": "011c0c0e9f3afd65ebc7987cd76b295a", "fusion_lon": 0.0}, {"is_reserved": 0, "type": "electric_scooter", "bike_id": "9bc7e6492ad2d68206e44182069d3c28", "lat": 38.921145, "lon": -77.017611, "rental_uris": {"android": "https://dc.lft.to/lastmile_qr_scan", "ios": "https://dc.lft.to/lastmile_qr_scan"}, "is_disabled": 0, "fusion_lat": 0.0, "name": "9bc7e6492ad2d68206e44182069d3c28", "fusion_lon": 0.0}, {"is_reserved": 0, "type": "electric_scooter", "bike_id": "9e7b08f4cdc48a56cc63e2a4b1015b54", "lat": 38.94241866666667, "lon": -77.03587233333333, "rental_uris": {"android": "https://dc.lft.to/lastmile_qr_scan", "ios": "https://dc.lft.to/lastmile_qr_scan"}, "is_disabled": 0, "fusion_lat": 0.0, "name": "9e7b08f4cdc48a56cc63e2a4b1015b54", "fusion_lon": 0.0}, {"is_reserved": 0, "type": "electric_scooter", "bike_id": "52a0a213655bbdef8b10b1384d5d1e53", "lat": 38.877623, "lon": -76.99425166666667, "rental_uris": {"android": "https://dc.lft.to/lastmile_qr_scan", "ios": "https://dc.lft.to/lastmile_qr_scan"}, "is_disabled": 0, "fusion_lat": 0.0, "name": "52a0a213655bbdef8b10b1384d5d1e53", "fusion_lon": 0.0}, {"is_reserved": 0, "type": "electric_scooter", "bike_id": "b5ee294e58da54bd984b32007a1374d3", "lat": 38.8988475, "lon": -76.9317675, "rental_uris": {"android": "https://dc.lft.to/lastmile_qr_scan", "ios": "https://dc.lft.to/lastmile_qr_scan"}, "is_disabled": 0, "fusion_lat": 0.0, "name": "b5ee294e58da54bd984b32007a1374d3", "fusion_lon": 0.0}, {"is_reserved": 0, "type": "electric_bike", "bike_id": "5789a7853f3aeb13758fb63e7fb31fc5", "lat": 38.94372633333333, "lon": -77.07743216666667, "rental_uris": {"android": "https://dc.lft.to/lastmile_qr_scan", "ios": "https://dc.lft.to/lastmile_qr_scan"}, "is_disabled": 0, "fusion_lat": 0.0, "name": "5789a7853f3aeb13758fb63e7fb31fc5", "fusion_lon": 0.0}, {"is_reserved": 0, "type": "electric_scooter", "bike_id": "7607de5e0514ed68a183cb96d6929c73", "lat": 38.915673166666664, "lon": -77.04696133333333, "rental_uris": {"android": "https://dc.lft.to/lastmile_qr_scan", "ios": "https://dc.lft.to/lastmile_qr_scan"}, "is_disabled": 0, "fusion_lat": 0.0, "name": "7607de5e0514ed68a183cb96d6929c73", "fusion_lon": 0.0}, {"is_reserved": 0, "type": "electric_scooter", "bike_id": "daeecfdc4d365b24934b93a4acb32d50", "lat": 38.9157905, "lon": -77.012334, "rental_uris": {"android": "https://dc.lft.to/lastmile_qr_scan", "ios": "https://dc.lft.to/lastmile_qr_scan"}, "is_disabled": 0, "fusion_lat": 0.0, "name": "daeecfdc4d365b24934b93a4acb32d50", "fusion_lon": 0.0}, {"is_reserved": 0, "type": "electric_scooter", "bike_id": "39a9bde21cce5535f8d797cb0c1c745d", "lat": 38.919937166666664, "lon": -77.028843, "rental_uris": {"android": "https://dc.lft.to/lastmile_qr_scan", "ios": "https://dc.lft.to/lastmile_qr_scan"}, "is_disabled": 0, "fusion_lat": 0.0, "name": "39a9bde21cce5535f8d797cb0c1c745d", "fusion_lon": 0.0},