{"data": {"bikes": [{"bike_id": "6bccc702219c2374668daa79a28ab5af", "lat": 38.91797666666667, "is_disabled": 0, "lon": -77.02705116666667, "fusion_lon": 0.0, "is_reserved": 0, "fusion_lat": 0.0, "rental_uris": {"android": "https://dc.lft.to/lastmile_qr_scan", "ios": "https://dc.lft.to/lastmile_qr_scan"}, "type": "electric_scooter", "name": "6bccc702219c2374668daa79a28ab5af"}, {"bike_id": "00c038b9ebab654ec6d785aeaa22aac7", "lat": 38.916290333333336, "is_disabled": 0, "lon": -77.036349, "fusion_lon": 0.0, "is_reserved": 0, "fusion_lat": 0.0, "rental_uris": {"android": "https://dc.lft.to/lastmile_qr_scan", "ios": "https://dc.lft.to/lastmile_qr_scan"}, "type": "electric_scooter", "name": "00c038b9ebab654ec6d785aeaa22aac7"}, {"bike_id": "5b2ba923a40d600881f87fcf29e13482", "lat": 38.896226, "is_disabled": 0, "lon": -77.03188616666667, "fusion_lon": 0.0, "is_reserved": 0, "fusion_lat": 0.0, "rental_uris": {"android": "https://dc.lft.to/lastmile_qr_scan", "ios": "https://dc.lft.to/lastmile_qr_scan"}, "type": "electric_scooter", "name": "5b2ba923a40d600881f87fcf29e13482"}, {"bike_id": "1a1a637ee29acd3f4b4f1b8aa56948cc", "lat": 38.915955833333335, "is_disabled": 0, "lon": -77.023, "fusion_lon": 0.0, "is_reserved": 0, "fusion_lat": 0.0, "rental_uris": {"android": "https://dc.lft.to/lastmile_qr_scan", "ios": "https://dc.lft.to/lastmile_qr_scan"}, "type": "electric_scooter", "name": "1a1a637ee29acd3f4b4f1b8aa56948cc"}, {"bike_id": "0243254e536f98a0c5e1fd3525af757a", "lat": 38.9073825, "is_disabled": 0, "lon": -77.0438505, "fusion_lon": 0.0, "is_reserved": 0, "fusion_lat": 0.0, "rental_uris": {"android": "https://dc.lft.to/lastmile_qr_scan", "ios": "https://dc.lft.to/lastmile_qr_scan"}, "type": "electric_scooter", "name": "0243254e536f98a0c5e1fd3525af757a"}, {"bike_id": "1d68c8ab922f7300734e6ffa9e5eec71", "lat": 38.90629933333334, "is_disabled": 0, "lon": -77.0417485, "fusion_lon": 0.0, "is_reserved": 0, "fusion_lat": 0.0, "rental_uris": {"android": "https://dc.lft.to/lastmile_qr_scan", "ios": "https://dc.lft.to/lastmile_qr_scan"}, "type": "electric_scooter", "name": "1d68c8ab922f7300734e6ffa9e5eec71"}, {"bike_id": "a1d4ffd95510e436a05cc969d3c16863", "lat": 38.8943695, "is_disabled": 0, "lon": -76.980869, "fusion_lon": 0.0, "is_reserved": 0, "fusion_lat": 0.0, "rental_uris": {"android": "https://dc.lft.to/lastmile_qr_scan", "ios": "https://dc.lft.to/lastmile_qr_scan"}, "type": "electric_scooter", "name": "a1d4ffd95510e436a05cc969d3c16863"}, {"bike_id": "94ca1c5982e3f3901a8aea7af345d91b", "lat": 38.909642833333336, "is_disabled": 0, "lon": -77.04633583333333, "fusion_lon": 0.0, "is_reserved": 0, "fusion_lat": 0.0, "rental_uris": {"android": "https://dc.lft.to/lastmile_qr_scan", "ios": "https://dc.lft.to/lastmile_qr_scan"}, "type": "electric_scooter", "name": "94ca1c5982e3f3901a8aea7af345d91b"}, {"bike_id": "dec438e3e7889a08c3383be5d1513295", "lat": 38.86658666666666, "is_disabled": 0, "lon": -76.98886683333333, "fusion_lon": 0.0, "is_reserved": 0, "fusion_lat": 0.0, "rental_uris": {"android": "https://dc.lft.to/lastmile_qr_scan", "ios": "https://dc.lft.to/lastmile_qr_scan"}, "type": "electric_scooter", "name": "dec438e3e7889a08c3383be5d1513295"}, {"bike_id": "8647694ea48b6713b21ae6ac980beb23", "lat": 38.91822883333333, "is_disabled": 0, "lon": -77.0344535, "fusion_lon": 0.0, "is_reserved": 0, "fusion_lat": 0.0, "rental_uris": {"android": "https://dc.lft.to/lastmile_qr_scan", "ios": "https://dc.lft.to/lastmile_qr_scan"}, "type": "electric_scooter", "name": "8647694ea48b6713b21ae6ac980beb23"}, {"bike_id": "24fb362069a03937faa387b96c787d4f", "lat": 38.895014333333336, "is_disabled": 0, "lon": -77.00204066666667, "fusion_lon": 0.0, "is_reserved": 0, "fusion_lat": 0.0, "rental_uris": {"android": "https://dc.lft.to/lastmile_qr_scan", "ios": "https://dc.lft.to/lastmile_qr_scan"}, "type": "electric_scooter", "name": "24fb362069a03937faa387b96c787d4f"}, {"bike_id": "bd9cb4df930b26e770b9dc8142fe7ce1", "lat": 38.92012183333333, "is_disabled": 0, "lon": -77.02463216666666, "fusion_lon": 0.0, "is_reserved": 0, "fusion_lat": 0.0, "rental_uris": {"android": "https://dc.lft.to/lastmile_qr_scan", "ios": "https://dc.lft.to/lastmile_qr_scan"}, "type": "electric_scooter", "name": "bd9cb4df930b26e770b9dc8142fe7ce1"}, {"bike_id": "189aa35343a8bf3881b59970de0cac26", "lat": 38.91930933333333, "is_disabled": 0, "lon": -77.0707315, "fusion_lon": 0.0, "is_reserved": 0, "fusion_lat": 0.0, "rental_uris": {"android": "https://dc.lft.to/lastmile_qr_scan", "ios": "https://dc.lft.to/lastmile_qr_scan"}, "type": "electric_scooter", "name": "189aa35343a8bf3881b59970de0cac26"}, {"bike_id": "d53f3f6bed0da29e9e1c36a9a53025eb", "lat": 38.921085, "is_disabled": 0, "lon": -77.0174635, "fusion_lon": 0.0, "is_reserved": 0, "fusion_lat": 0.0, "rental_uris": {"android": "https://dc.lft.to/lastmile_qr_scan", "ios": "https://dc.lft.to/lastmile_qr_scan"}, "type": "electric_scooter", "name": "d53f3f6bed0da29e9e1c36a9a53025eb"}, {"bike_id": "57897c72052cdc7d489d43e07126d273", "lat": 38.892181666666666, "is_disabled": 0, "lon": -77.02369533333334, "fusion_lon": 0.0, "is_reserved": 0, "fusion_lat": 0.0, "rental_uris": {"android": "https://dc.lft.to/lastmile_qr_scan", "ios": "https://dc.lft.to/lastmile_qr_scan"}, "type": "electric_scooter", "name": "57897c72052cdc7d489d43e07126d273"}, {"bike_id": "45c8dba8a391c7fbdf69eda96edda37b", "lat": 38.879154, "is_disabled": 0, "lon": -76.94325316666666, "fusion_lon": 0.0, "is_reserved": 0, "fusion_lat": 0.0, "rental_uris": {"android": "https://dc.lft.to/lastmile_qr_scan", "ios": "https://dc.lft.to/lastmile_qr_scan"}, "type": "electric_scooter", "name": "45c8dba8a391c7fbdf69eda96edda37b"}, {"bike_id": "cd8f6d80e6ee8a71d79a671ed277adf7", "lat": 38.929846833333336, "is_disabled": 0, "lon": -77.02530483333334, "fusion_lon": 0.0, "is_reserved": 0, "fusion_lat": 0.0, "rental_uris": {"android": "https://dc.lft.to/lastmile_qr_scan", "ios": "https://dc.lft.to/lastmile_qr_scan"}, "type": "electric_scooter", "name": "cd8f6d80e6ee8a71d79a671ed277adf7"}, {"bike_id": "643a685071d82cfc204a8c19c59bd42b", "lat": 38.911108666666664, "is_disabled": 0, "lon": -77.02219416666667, "fusion_lon": 0.0, "is_reserved": 0, "fusion_lat": 0.0, "rental_uris": {"android": "https://dc.lft.to/lastmile_qr_scan", "ios": "https://dc.lft.to/lastmile_qr_scan"}, "type": "electric_scooter", "name": "643a685071d82cfc204a8c19c59bd42b"}, {"bike_id": "3860a5165194724e8f6ee07c6d62b82b", "lat": 38.896577, "is_disabled": 0, "lon": -77.03375833333334, "fusion_lon": 0.0, "is_reserved": 0, "fusion_lat": 0.0, "rental_uris": {"android": "https://dc.lft.to/lastmile_qr_scan", "ios": "https://dc.lft.to/lastmile_qr_scan"}, "type": "electric_scooter", "name": "3860a5165194724e8f6ee07c6d62b82b"}, {"bike_id": "a196ce0d6a5f33fe9b3b79752d5dd6a7", "lat": 38.916944666666666, "is_disabled": 0, "lon": -77.025972, "fusion_lon": 0.0, "is_reserved": 0, "fusion_lat": 0.0, "rental_uris": {"android": "https://dc.lft.to/lastmile_qr_scan", "ios": "https://dc.lft.to/lastmile_qr_scan"}, "type": "electric_scooter", "name": "a196ce0d6a5f33fe9b3b79752d5dd6a7"}, {"bike_id": "c0239ceab83c698b55c243980c25606a", "lat": 38.900469333333334, "is_disabled": 0, "lon": -76.99839116666666, "fusion_lon": 0.0, "is_reserved": 0, "fusion_lat": 0.0, "rental_uris": {"android": "https://dc.lft.to/lastmile_qr_scan", "ios": "https://dc.lft.to/lastmile_qr_scan"}, "type": "electric_scooter", "name": "c0239ceab83c698b55c243980c25606a"}, {"bike_id": "575c0ca0d60a1f28faa045b13d9ea917", "lat": 38.90357516666667, "is_disabled": 0, "lon": -77.03213983333333, "fusion_lon": 0.0, "is_reserved": 0, "fusion_lat": 0.0, "rental_uris": {"android": "https://dc.lft.to/lastmile_qr_scan", "ios": "https://dc.lft.to/lastmile_qr_scan"}, "type": "electric_scooter", "name": "575c0ca0d60a1f28faa045b13d9ea917"}, {"bike_id": "b53989740f9982db5d994413fe661676", "lat": 38.892467, "is_disabled": 0, "lon": -77.03958016666667, "fusion_lon": 0.0, "is_reserved": 0, "fusion_lat": 0.0, "rental_uris": {"android": "https://dc.lft.to/lastmile_qr_scan", "ios": "https://dc.lft.to/lastmile_qr_scan"}, "type": "electric_scooter", "name": "b53989740f9982db5d994413fe661676"}, {"bike_id": "542dcda477820ae1c12e10b530ea42fd", "lat": 38.924647666666665, "is_disabled": 0, "lon": -77.04040333333333, "fusion_lon": 0.0, "is_reserved": 0, "fusion_lat": 0.0, "rental_uris": {"android": "https://dc.lft.to/lastmile_qr_scan", "ios": "https://dc.lft.to/lastmile_qr_scan"}, "type": "electric_scooter", "name": "542dcda477820ae1c12e10b530ea42fd"}, {"bike_id": "1b2b48b47de8cd667d4d95a6c2c1766d", "lat": 38.917282, "is_disabled": 0, "lon": -77.0271405, "fusion_lon": 0.0, "is_reserved": 0, "fusion_lat": 0.0, "rental_uris": {"android": "https://dc.lft.to/lastmile_qr_scan", "ios": "https://dc.lft.to/lastmile_qr_scan"}, "type": "electric_scooter", "name": "1b2b48b47de8cd667d4d95a6c2c1766d"}, {"bike_id": "9725b5de3d2ce55144dd505598cb0b39", "lat": 38.806419, "is_disabled": 0, "lon": -77.06249233333334, "fusion_lon": 0.0, "is_reserved": 0, "fusion_lat": 0.0, "rental_uris": {"android": "https://dc.lft.to/lastmile_qr_scan", "ios": "https://dc.lft.to/lastmile_qr_scan"}, "type": "electric_bike", "name": "9725b5de3d2ce55144dd505598cb0b39"}, {"bike_id": "f813a3cf4f2e207c8321712f30074c37", "lat": 38.90021516666667, "is_disabled": 0, "lon": -77.01192383333333, "fusion_lon": 0.0, "is_reserved": 0, "fusion_lat": 0.0, "rental_uris": {"android": "https://dc.lft.to/lastmile_qr_scan", "ios": "https://dc.lft.to/lastmile_qr_scan"}, "type": "electric_scooter", "name": "f813a3cf4f2e207c8321712f30074c37"}, {"bike_id": "c0d6c1c4d7a32a561f7fc5317738a99a", "lat": 38.896231, "is_disabled": 0, "lon": -77.03217583333333, "fusion_lon": 0.0, "is_reserved": 0, "fusion_lat": 0.0, "rental_uris": {"android": "https://dc.lft.to/lastmile_qr_scan", "ios": "https://dc.lft.to/lastmile_qr_scan"}, "type": "electric_scooter", "name": "c0d6c1c4d7a32a561f7fc5317738a99a"}, {"bike_id": "5e013ddca69c6d49a0ac17f7db91d4bb", "lat": 38.90730533333333, "is_disabled": 0, "lon": -77.047783, "fusion_lon": 0.0, "is_reserved": 0, "fusion_lat": 0.0, "rental_uris": {"android": "https://dc.lft.to/lastmile_qr_scan", "ios": "https://dc.lft.to/lastmile_qr_scan"}, "type": "electric_scooter", "name": "5e013ddca69c6d49a0ac17f7db91d4bb"}, {"bike_id": "6e41ad9f908c8b29ced5e465225df885", "lat": 38.92066066666667, "is_disabled": 0, "lon": -77.01697766666666, "fusion_lon": 0.0, "is_reserved": 0, "fusion_lat": 0.0, "rental_uris": {"android": "https://dc.lft.to/lastmile_qr_scan", "ios": "https://dc.lft.to/lastmile_qr_scan"}, "type": "electric_scooter", "name": "6e41ad9f908c8b29ced5e465225df885"}, {"bike_id": "a3a854fdf4f915249b3bf43c75f27c3d", "lat": 38.90779533333333, "is_disabled": 0, "lon": -77.0022145, "fusion_lon": 0.0, "is_reserved": 0, "fusion_lat": 0.0, "rental_uris": {"android": "https://dc.lft.to/lastmile_qr_scan", "ios": "https://dc.lft.to/lastmile_qr_scan"}, "type": "electric_scooter", "name": "a3a854fdf4f915249b3bf43c75f27c3d"}, {"bike_id": "b53471531827384efac7464f31e3a9c3", "lat": 38.936025666666666, "is_disabled": 0, "lon": -77.057131, "fusion_lon": 0.0, "is_reserved": 0, "fusion_lat": 0.0, "rental_uris": {"android": "https://dc.lft.to/lastmile_qr_scan", "ios": "https://dc.lft.to/lastmile_qr_scan"}, "type": "electric_scooter", "name": "b53471531827384efac7464f31e3a9c3"}, {"bike_id": "ce2e29fd12a1d4b5296ed17924b6abde", "lat": 38.89893283333333, "is_disabled": 0, "lon": -77.03183766666666, "fusion_lon": 0.0, "is_reserved": 0, "fusion_lat": 0.0, "rental_uris": {"android": "https://dc.lft.to/lastmile_qr_scan", "ios": "https://dc.lft.to/lastmile_qr_scan"}, "type": "electric_scooter", "name": "ce2e29fd12a1d4b5296ed17924b6abde"}, {"bike_id": "557552a89d065e4d803b216a72eb6e3a", "lat": 38.901020333333335, "is_disabled": 0, "lon": -77.0578865, "fusion_lon": 0.0, "is_reserved": 0, "fusion_lat": 0.0, "rental_uris": {"android": "https://dc.lft.to/lastmile_qr_scan", "ios": "https://dc.lft.to/lastmile_qr_scan"}, "type": "electric_scooter", "name": "557552a89d065e4d803b216a72eb6e3a"}, {"bike_id": "52d7815a9298b6cb8e1ed661d1cd1819", "lat": 38.9198165, "is_disabled": 0, "lon": -77.04163183333333, "fusion_lon": 0.0, "is_reserved": 0, "fusion_lat": 0.0, "rental_uris": {"android": "https://dc.lft.to/lastmile_qr_scan", "ios": "https://dc.lft.to/lastmile_qr_scan"}, "type": "electric_scooter", "name": "52d7815a9298b6cb8e1ed661d1cd1819"}, {"bike_id": "aa448334ed5c4dd6dd27b4675fce79f6", "lat": 38.887237, "is_disabled": 0, "lon": -77.01982033333333, "fusion_lon": 0.0, "is_reserved": 0, "fusion_lat": 0.0, "rental_uris": {"android": "https://dc.lft.to/lastmile_qr_scan", "ios": "https://dc.lft.to/lastmile_qr_scan"}, "type": "electric_scooter", "name": "aa448334ed5c4dd6dd27b4675fce79f6"}, {"bike_id": "140c52c384ff2408a3e7a6639bea4932", "lat": 38.9159935, "is_disabled": 0, "lon": -77.0122295, "fusion_lon": 0.0, "is_reserved": 0, "fusion_lat": 0.0, "rental_uris": {"android": "https://dc.lft.to/lastmile_qr_scan", "ios": "https://dc.lft.to/lastmile_qr_scan"}, "type": "electric_scooter", "name": "140c52c384ff2408a3e7a6639bea4932"}, {"bike_id": "22956fa9cdb549fe7644514fc5c4874f", "lat": 38.878822666666665, "is_disabled": 0, "lon": -77.0231625, "fusion_lon": 0.0, "is_reserved": 0, "fusion_lat": 0.0, "rental_uris": {"android": "https://dc.lft.to/lastmile_qr_scan", "ios": "https://dc.lft.to/lastmile_qr_scan"}, "type": "electric_scooter", "name": "22956fa9cdb549fe7644514fc5c4874f"}, {"bike_id": "3ae6d3c0dcabbed8cd9c13d144b80ca5", "lat": 38.90066483333333, "is_disabled": 0, "lon": -77.02711383333333, "fusion_lon": 0.0, "is_reserved": 0, "fusion_lat": 0.0, "rental_uris": {"android": "https://dc.lft.to/lastmile_qr_scan", "ios": "https://dc.lft.to/lastmile_qr_scan"}, "type": "electric_scooter", "name": "3ae6d3c0dcabbed8cd9c13d144b80ca5"}, {"bike_id": "5fe9f4f13da5cb6ab47b196810dedf96", "lat": 38.9207635, "is_disabled": 0, "lon": -77.03816, "fusion_lon": 0.0, "is_reserved": 0, "fusion_lat": 0.0, "rental_uris": {"android": "https://dc.lft.to/lastmile_qr_scan", "ios": "https://dc.lft.to/lastmile_qr_scan"}, "type": "electric_scooter", "name": "5fe9f4f13da5cb6ab47b196810dedf96"}, {"bike_id": "9bf9f934ab1bab1f626d896ea550f1e1", "lat": 38.86267083333333, "is_disabled": 0, "lon": -76.99572116666667, "fusion_lon": 0.0, "is_reserved": 0, "fusion_lat": 0.0, "rental_uris": {"android": "https://dc.lft.to/lastmile_qr_scan", "ios": "https://dc.lft.to/lastmile_qr_scan"}, "type": "electric_scooter", "name": "9bf9f934ab1bab1f626d896ea550f1e1"}, {"bike_id": "1bc9859e1a465221f717ec0f290a8187", "lat": 38.91974333333334, "is_disabled": 0, "lon": -77.02171616666666, "fusion_lon": 0.0, "is_reserved": 0, "fusion_lat": 0.0, "rental_uris": {"android": "https://dc.lft.to/lastmile_qr_scan", "ios": "https://dc.lft.to/lastmile_qr_scan"}, "type": "electric_scooter", "name": "1bc9859e1a465221f717ec0f290a8187"}, {"bike_id": "77d3d26290885a4241a90b2038fb6da4", "lat": 38.899953333333336, "is_disabled": 0, "lon": -76.99496383333333, "fusion_lon": 0.0, "is_reserved": 0, "fusion_lat": 0.0, "rental_uris": {"android": "https://dc.lft.to/lastmile_qr_scan", "ios": "https://dc.lft.to/lastmile_qr_scan"}, "type": "electric_scooter", "name": "77d3d26290885a4241a90b2038fb6da4"}, {"bike_id": "3ffe887fbb9bfa12e22e6e318e4c8409", "lat": 38.9249165, "is_disabled": 0, "lon": -77.03066833333334, "fusion_lon": 0.0, "is_reserved": 0, "fusion_lat": 0.0, "rental_uris": {"android": "https://dc.lft.to/lastmile_qr_scan", "ios": "https://dc.lft.to/lastmile_qr_scan"}, "type": "electric_scooter", "name": "3ffe887fbb9bfa12e22e6e318e4c8409"}, {"bike_id": "f025a07b50781f20819300032eb6d73d", "lat": 38.8952365, "is_disabled": 0, "lon": -77.02811, "fusion_lon": 0.0, "is_reserved": 0, "fusion_lat": 0.0, "rental_uris": {"android": "https://dc.lft.to/lastmile_qr_scan", "ios": "https://dc.lft.to/lastmile_qr_scan"}, "type": "electric_scooter", "name": "f025a07b50781f20819300032eb6d73d"}, {"bike_id": "1b4498d9b781f0fa49bf3bbf7b3f7872", "lat": 38.8973645, "is_disabled": 0, "lon": -77.04624933333334, "fusion_lon": 0.0, "is_reserved": 0, "fusion_lat": 0.0, "rental_uris": {"android": "https://dc.lft.to/lastmile_qr_scan", "ios": "https://dc.lft.to/lastmile_qr_scan"}, "type": "electric_scooter", "name": "1b4498d9b781f0fa49bf3bbf7b3f7872"}, {"bike_id": "840b930121c5a650cdb15469a83e2791", "lat": 38.903678166666666, "is_disabled": 0, "lon": -77.0669415, "fusion_lon": 0.0, "is_reserved": 0, "fusion_lat": 0.0, "rental_uris": {"android": "https://dc.lft.to/lastmile_qr_scan", "ios": "https://dc.lft.to/lastmile_qr_scan"}, "type": "electric_scooter", "name": "840b930121c5a650cdb15469a83e2791"}, {"bike_id": "27905c66829fad0d1026aa2faadb6917", "lat": 38.8622395, "is_disabled": 0, "lon": -76.99497966666667, "fusion_lon": 0.0, "is_reserved": 0, "fusion_lat": 0.0, "rental_uris": {"android": "https://dc.lft.to/lastmile_qr_scan", "ios": "https://dc.lft.to/lastmile_qr_scan"}, "type": "electric_scooter", "name": "27905c66829fad0d1026aa2faadb6917"}, {"bike_id": "4410be5ea734ae11c689316458c55c57", "lat": 38.876483666666665, "is_disabled": 0, "lon": -77.0032785, "fusion_lon": 0.0, "is_reserved": 0, "fusion_lat": 0.0, "rental_uris": {"android": "https://dc.lft.to/lastmile_qr_scan", "ios": "https://dc.lft.to/lastmile_qr_scan"}, "type": "electric_scooter", "name": "4410be5ea734ae11c689316458c55c57"}, {"bike_id": "d2a3e048fe5c10d94d7dc5193f048718", "lat": 38.887385333333334, "is_disabled": 0, "lon": -77.0153135, "fusion_lon": 0.0, "is_reserved": 0, "fusion_lat": 0.0, "rental_uris": {"android": "https://dc.lft.to/lastmile_qr_scan", "ios": "https://dc.lft.to/lastmile_qr_scan"}, "type": "electric_scooter", "name": "d2a3e048fe5c10d94d7dc5193f048718"}, {"bike_id": "f328696a287c9c74a6c7df73c52025fe", "lat": 38.89907483333333, "is_disabled": 0, "lon": -76.933864, "fusion_lon": 0.0, "is_reserved": 0, "fusion_lat": 0.0, "rental_uris": {"android": "https://dc.lft.to/lastmile_qr_scan", "ios": "https://dc.lft.to/lastmile_qr_scan"}, "type": "electric_scooter", "name": "f328696a287c9c74a6c7df73c52025fe"}, {"bike_id": "5813a28ed98e501b47c03c435a67da6d", "lat": 38.9226615, "is_disabled": 0, "lon": -77.01968033333333, "fusion_lon": 0.0, "is_reserved": 0, "fusion_lat": 0.0, "rental_uris": {"android": "https://dc.lft.to/lastmile_qr_scan", "ios": "https://dc.lft.to/lastmile_qr_scan"}, "type": "electric_scooter", "name": "5813a28ed98e501b47c03c435a67da6d"}, {"bike_id": "5a02a068134a1d3d2af475ce01bdc5fa", "lat": 38.94331583333334, "is_disabled": 0, "lon": -77.0147295, "fusion_lon": 0.0, "is_reserved": 0, "fusion_lat": 0.0, "rental_uris": {"android": "https://dc.lft.to/lastmile_qr_scan", "ios": "https://dc.lft.to/lastmile_qr_scan"}, "type": "electric_scooter", "name": "5a02a068134a1d3d2af475ce01bdc5fa"}, {"bike_id": "2d1799432ecf6feabd6839507de593e2", "lat": 38.900823833333334, "is_disabled": 0, "lon": -77.01223633333333, "fusion_lon": 0.0, "is_reserved": 0, "fusion_lat": 0.0, "rental_uris": {"android": "https://dc.lft.to/lastmile_qr_scan", "ios": "https://dc.lft.to/lastmile_qr_scan"}, "type": "electric_scooter", "name": "2d1799432ecf6feabd6839507de593e2"}, {"bike_id": "52d67b55117af0664c5e80d4f7e34843", "lat": 38.8922375, "is_disabled": 0, "lon": -77.03989216666666, "fusion_lon": 0.0, "is_reserved": 0, "fusion_lat": 0.0, "rental_uris": {"android": "https://dc.lft.to/lastmile_qr_scan", "ios": "https://dc.lft.to/lastmile_qr_scan"}, "type": "electric_scooter", "name": "52d67b55117af0664c5e80d4f7e34843"}, {"bike_id": "dc4ac92908a542da57e858f3cc168696", "lat": 38.90038, "is_disabled": 0, "lon": -77.01766416666666, "fusion_lon": 0.0, "is_reserved": 0, "fusion_lat": 0.0, "rental_uris": {"android": "https://dc.lft.to/lastmile_qr_scan", "ios": "https://dc.lft.to/lastmile_qr_scan"}, "type": "electric_scooter", "name": "dc4ac92908a542da57e858f3cc168696"}, {"bike_id": "46eeaf7318ac80a00861c995e714dfba", "lat": 38.900957, "is_disabled": 0, "lon": -77.02487766666667, "fusion_lon": 0.0, "is_reserved": 0, "fusion_lat": 0.0, "rental_uris": {"android": "https://dc.lft.to/lastmile_qr_scan", "ios": "https://dc.lft.to/lastmile_qr_scan"}, "type": "electric_scooter", "name": "46eeaf7318ac80a00861c995e714dfba"}, {"bike_id": "ce43a8b9369be7cb66a3d8de54edd6d6", "lat": 38.92027516666667, "is_disabled": 0, "lon": -77.04077266666667, "fusion_lon": 0.0, "is_reserved": 0, "fusion_lat": 0.0, "rental_uris": {"android": "https://dc.lft.to/lastmile_qr_scan", "ios": "https://dc.lft.to/lastmile_qr_scan"}, "type": "electric_scooter", "name": "ce43a8b9369be7cb66a3d8de54edd6d6"}, {"bike_id": "d148b03addad3f8ba8ab15f11f7b44c3", "lat": 38.91916416666667, "is_disabled": 0, "lon": -77.03624433333333, "fusion_lon": 0.0, "is_reserved": 0, "fusion_lat": 0.0, "rental_uris": {"android": "https://dc.lft.to/lastmile_qr_scan", "ios": "https://dc.lft.to/lastmile_qr_scan"}, "type": "electric_scooter", "name": "d148b03addad3f8ba8ab15f11f7b44c3"}, {"bike_id": "ca4800c1be686c2bdf3c394c8d59c8ca", "lat": 38.87996016666666, "is_disabled": 0, "lon": -76.98543333333333, "fusion_lon": 0.0, "is_reserved": 0, "fusion_lat": 0.0, "rental_uris": {"android": "https://dc.lft.to/lastmile_qr_scan", "ios": "https://dc.lft.to/lastmile_qr_scan"}, "type": "electric_scooter", "name": "ca4800c1be686c2bdf3c394c8d59c8ca"}, {"bike_id": "98a23ab6ead2faeb940e89dcf0afa6eb", "lat": 38.92324466666667, "is_disabled": 0, "lon": -77.01951416666667, "fusion_lon": 0.0, "is_reserved": 0, "fusion_lat": 0.0, "rental_uris": {"android": "https://dc.lft.to/lastmile_qr_scan", "ios": "https://dc.lft.to/lastmile_qr_scan"}, "type": "electric_scooter", "name": "98a23ab6ead2faeb940e89dcf0afa6eb"}, {"bike_id": "8791c49957ee0225d776973547205c89", "lat": 39.03900516666667, "is_disabled": 0, "lon": -77.0503405, "fusion_lon": 0.0, "is_reserved": 0, "fusion_lat": 0.0, "rental_uris": {"android": "https://dc.lft.to/lastmile_qr_scan", "ios": "https://dc.lft.to/lastmile_qr_scan"}, "type": "electric_bike", "name": "8791c49957ee0225d776973547205c89"}, {"bike_id": "8bbcafbf49ed5b8a248690eb1b5a5aef", "lat": 38.932802833333334, "is_disabled": 0, "lon": -77.04127483333333, "fusion_lon": 0.0, "is_reserved": 0, "fusion_lat": 0.0, "rental_uris": {"android": "https://dc.lft.to/lastmile_qr_scan", "ios": "https://dc.lft.to/lastmile_qr_scan"}, "type": "electric_scooter", "name": "8bbcafbf49ed5b8a248690eb1b5a5aef"}, {"bike_id": "ecebccd504e440cc8be9ea9956a336b8", "lat": 38.80141316666667, "is_disabled": 0, "lon": -77.0699655, "fusion_lon": 0.0, "is_reserved": 0, "fusion_lat": 0.0, "rental_uris": {"android": "https://dc.lft.to/lastmile_qr_scan", "ios": "https://dc.lft.to/lastmile_qr_scan"}, "type": "electric_scooter", "name": "ecebccd504e440cc8be9ea9956a336b8"}, {"bike_id": "cecd2981e122b052b85ef4728ec62315", "lat": 38.852683999999996, "is_disabled": 0, "lon": -76.96994366666667, "fusion_lon": 0.0, "is_reserved": 0, "fusion_lat": 0.0, "rental_uris": {"android": "https://dc.lft.to/lastmile_qr_scan", "ios": "https://dc.lft.to/lastmile_qr_scan"}, "type": "electric_scooter", "name": "cecd2981e122b052b85ef4728ec62315"}, {"bike_id": "ba9bda82077281ff6e6d21125e510372", "lat": 38.9161575, "is_disabled": 0, "lon": -77.04884083333333, "fusion_lon": 0.0, "is_reserved": 0, "fusion_lat": 0.0, "rental_uris": {"android": "https://dc.lft.to/lastmile_qr_scan", "ios": "https://dc.lft.to/lastmile_qr_scan"}, "type": "electric_scooter", "name": "ba9bda82077281ff6e6d21125e510372"}, {"bike_id": "e3c2d6f1684ff2a10be4bc6393f7c4e2", "lat": 38.91111816666667, "is_disabled": 0, "lon": -77.04503833333334, "fusion_lon": 0.0, "is_reserved": 0, "fusion_lat": 0.0, "rental_uris": {"android": "https://dc.lft.to/lastmile_qr_scan", "ios": "https://dc.lft.to/lastmile_qr_scan"}, "type": "electric_scooter", "name": "e3c2d6f1684ff2a10be4bc6393f7c4e2"}, {"bike_id": "9c693552e3fa3c52c276f96636e06bda", "lat": 38.914892, "is_disabled": 0, "lon": -77.04159766666666, "fusion_lon": 0.0, "is_reserved": 0, "fusion_lat": 0.0, "rental_uris": {"android": "https://dc.lft.to/lastmile_qr_scan", "ios": "https://dc.lft.to/lastmile_qr_scan"}, "type": "electric_scooter", "name": "9c693552e3fa3c52c276f96636e06bda"}, {"bike_id": "6d8d245651e22117b14b46b7502d3914", "lat": 38.916312833333336, "is_disabled": 0, "lon": -77.0321085, "fusion_lon": 0.0, "is_reserved": 0, "fusion_lat": 0.0, "rental_uris": {"android": "https://dc.lft.to/lastmile_qr_scan", "ios": "https://dc.lft.to/lastmile_qr_scan"}, "type": "electric_scooter", "name": "6d8d245651e22117b14b46b7502d3914"}, {"bike_id": "37c51fe1fdc7c8e6b674ff0147adb6cb", "lat": 38.84194316666667, "is_disabled": 0, "lon": -77.11355466666667, "fusion_lon": 0.0, "is_reserved": 0, "fusion_lat": 0.0, "rental_uris": {"android": "https://dc.lft.to/lastmile_qr_scan", "ios": "https://dc.lft.to/lastmile_qr_scan"}, "type": "electric_bike", "name": "37c51fe1fdc7c8e6b674ff0147adb6cb"}, {"bike_id": "f1899d9051f620cc993142dc7e41078e", "lat": 38.93960216666667, "is_disabled": 0, "lon": -77.03744616666667, "fusion_lon": 0.0, "is_reserved": 0, "fusion_lat": 0.0, "rental_uris": {"android": "https://dc.lft.to/lastmile_qr_scan", "ios": "https://dc.lft.to/lastmile_qr_scan"}, "type": "electric_scooter", "name": "f1899d9051f620cc993142dc7e41078e"}, {"bike_id": "f78986e0535a7872a14f3e3539959fa6", "lat": 38.89726916666667, "is_disabled": 0, "lon": -77.030405, "fusion_lon": 0.0, "is_reserved": 0, "fusion_lat": 0.0, "rental_uris": {"android": "https://dc.lft.to/lastmile_qr_scan", "ios": "https://dc.lft.to/lastmile_qr_scan"}, "type": "electric_scooter", "name": "f78986e0535a7872a14f3e3539959fa6"}, {"bike_id": "f954b43d90024c16ddd899378572274d", "lat": 38.885505, "is_disabled": 0, "lon": -77.1564835, "fusion_lon": 0.0, "is_reserved": 0, "fusion_lat": 0.0, "rental_uris": {"android": "https://dc.lft.to/lastmile_qr_scan", "ios": "https://dc.lft.to/lastmile_qr_scan"}, "type": "electric_bike", "name": "f954b43d90024c16ddd899378572274d"}, {"bike_id": "ed4026aff70f1e9c5e41e41d290fa3c4", "lat": 38.90028133333333, "is_disabled": 0, "lon": -76.98959066666667, "fusion_lon": 0.0, "is_reserved": 0, "fusion_lat": 0.0, "rental_uris": {"android": "https://dc.lft.to/lastmile_qr_scan", "ios": "https://dc.lft.to/lastmile_qr_scan"}, "type": "electric_scooter", "name": "ed4026aff70f1e9c5e41e41d290fa3c4"}, {"bike_id": "4042e134ce8473c3a8f5299c16128caa", "lat": 38.90357516666667, "is_disabled": 0, "lon": -77.03432983333333, "fusion_lon": 0.0, "is_reserved": 0, "fusion_lat": 0.0, "rental_uris": {"android": "https://dc.lft.to/lastmile_qr_scan", "ios": "https://dc.lft.to/lastmile_qr_scan"}, "type": "electric_scooter", "name": "4042e134ce8473c3a8f5299c16128caa"}, {"bike_id": "1375dc51e4bad41a19cc27b7c552bd51", "lat": 38.897817833333335, "is_disabled": 0, "lon": -77.01355833333334, "fusion_lon": 0.0, "is_reserved": 0, "fusion_lat": 0.0, "rental_uris": {"android": "https://dc.lft.to/lastmile_qr_scan", "ios": "https://dc.lft.to/lastmile_qr_scan"}, "type": "electric_bike", "name": "1375dc51e4bad41a19cc27b7c552bd51"}, {"bike_id": "e178478389a8e0c4d1d118688c44e266", "lat": 38.91357466666667, "is_disabled": 0, "lon": -77.0455555, "fusion_lon": 0.0, "is_reserved": 0, "fusion_lat": 0.0, "rental_uris": {"android": "https://dc.lft.to/lastmile_qr_scan", "ios": "https://dc.lft.to/lastmile_qr_scan"}, "type": "electric_scooter", "name": "e178478389a8e0c4d1d118688c44e266"}, {"bike_id": "4696587f4c5c6c04bf257b8379e75c1c", "lat": 38.896316, "is_disabled": 0, "lon": -77.0075815, "fusion_lon": 0.0, "is_reserved": 0, "fusion_lat": 0.0, "rental_uris": {"android": "https://dc.lft.to/lastmile_qr_scan", "ios": "https://dc.lft.to/lastmile_qr_scan"}, "type": "electric_scooter", "name": "4696587f4c5c6c04bf257b8379e75c1c"}, {"bike_id": "445ec5e019ce81e71daec24558c6199d", "lat": 38.90573066666666, "is_disabled": 0, "lon": -77.00786383333333, "fusion_lon": 0.0, "is_reserved": 0, "fusion_lat": 0.0, "rental_uris": {"android": "https://dc.lft.to/lastmile_qr_scan", "ios": "https://dc.lft.to/lastmile_qr_scan"}, "type": "electric_scooter", "name": "445ec5e019ce81e71daec24558c6199d"}, {"bike_id": "2ade233d6bdb0b1bd37565da562d9e3d", "lat": 38.895044666666664, "is_disabled": 0, "lon": -76.93478416666666, "fusion_lon": 0.0, "is_reserved": 0, "fusion_lat": 0.0, "rental_uris": {"android": "https://dc.lft.to/lastmile_qr_scan", "ios": "https://dc.lft.to/lastmile_qr_scan"}, "type": "electric_scooter", "name": "2ade233d6bdb0b1bd37565da562d9e3d"}, {"bike_id": "7e73cc75f18151fad5e20196c01e9b15", "lat": 38.933269333333335, "is_disabled": 0, "lon": -77.03810766666666, "fusion_lon": 0.0, "is_reserved": 0, "fusion_lat": 0.0, "rental_uris": {"android": "https://dc.lft.to/lastmile_qr_scan", "ios": "https://dc.lft.to/lastmile_qr_scan"}, "type": "electric_scooter", "name": "7e73cc75f18151fad5e20196c01e9b15"}, {"bike_id": "013d3f407ef2e6e9068f6cb9d314bdd1", "lat": 38.92337833333333, "is_disabled": 0, "lon": -77.0365085, "fusion_lon": 0.0, "is_reserved": 0, "fusion_lat": 0.0, "rental_uris": {"android": "https://dc.lft.to/lastmile_qr_scan", "ios": "https://dc.lft.to/lastmile_qr_scan"}, "type": "electric_scooter", "name": "013d3f407ef2e6e9068f6cb9d314bdd1"}, {"bike_id": "ed372a9dcf0762967f2df51277f8f48a", "lat": 38.92791183333333, "is_disabled": 0, "lon": -77.05404783333333, "fusion_lon": 0.0, "is_reserved": 0, "fusion_lat": 0.0, "rental_uris": {"android": "https://dc.lft.to/lastmile_qr_scan", "ios": "https://dc.lft.to/lastmile_qr_scan"}, "type": "electric_scooter", "name": "ed372a9dcf0762967f2df51277f8f48a"}, {"bike_id": "a190490186d73776b30ac2124a634fff", "lat": 38.85995916666667, "is_disabled": 0, "lon": -76.98548483333333, "fusion_lon": 0.0, "is_reserved": 0, "fusion_lat": 0.0, "rental_uris": {"android": "https://dc.lft.to/lastmile_qr_scan", "ios": "https://dc.lft.to/lastmile_qr_scan"}, "type": "electric_scooter", "name": "a190490186d73776b30ac2124a634fff"}, {"bike_id": "13533de4d0969c55824dd4efdb11196e", "lat": 38.9137125, "is_disabled": 0, "lon": -77.04656783333333, "fusion_lon": 0.0, "is_reserved": 0, "fusion_lat": 0.0, "rental_uris": {"android": "https://dc.lft.to/lastmile_qr_scan", "ios": "https://dc.lft.to/lastmile_qr_scan"}, "type": "electric_scooter", "name": "13533de4d0969c55824dd4efdb11196e"}, {"bike_id": "0307d2b9a311b2b4884432f4638239f7", "lat": 38.899216, "is_disabled": 0, "lon": -77.04200833333333, "fusion_lon": 0.0, "is_reserved": 0, "fusion_lat": 0.0, "rental_uris": {"android": "https://dc.lft.to/lastmile_qr_scan", "ios": "https://dc.lft.to/lastmile_qr_scan"}, "type": "electric_scooter", "name": "0307d2b9a311b2b4884432f4638239f7"}, {"bike_id": "78926efd60d5feb3cbd1eb6e99f7d4f9", "lat": 38.9102, "is_disabled": 0, "lon": -77.04458716666667, "fusion_lon": 0.0, "is_reserved": 0, "fusion_lat": 0.0, "rental_uris": {"android": "https://dc.lft.to/lastmile_qr_scan", "ios": "https://dc.lft.to/lastmile_qr_scan"}, "type": "electric_scooter", "name": "78926efd60d5feb3cbd1eb6e99f7d4f9"}, {"bike_id": "d0a50908e00e35e9b0b884cfb94ccfb4", "lat": 38.887118, "is_disabled": 0, "lon": -77.0320545, "fusion_lon": 0.0, "is_reserved": 0, "fusion_lat": 0.0, "rental_uris": {"android": "https://dc.lft.to/lastmile_qr_scan", "ios": "https://dc.lft.to/lastmile_qr_scan"}, "type": "electric_scooter", "name": "d0a50908e00e35e9b0b884cfb94ccfb4"}, {"bike_id": "ce6b3fee76272347b6a0184f18d0f1d4", "lat": 38.903963833333336, "is_disabled": 0, "lon": -77.01737016666667, "fusion_lon": 0.0, "is_reserved": 0, "fusion_lat": 0.0, "rental_uris": {"android": "https://dc.lft.to/lastmile_qr_scan", "ios": "https://dc.lft.to/lastmile_qr_scan"}, "type": "electric_scooter", "name": "ce6b3fee76272347b6a0184f18d0f1d4"}, {"bike_id": "e2987334aab68ac7fe92a681102e91e4", "lat": 38.91627483333333, "is_disabled": 0, "lon": -77.03208683333334, "fusion_lon": 0.0, "is_reserved": 0, "fusion_lat": 0.0, "rental_uris": {"android": "https://dc.lft.to/lastmile_qr_scan", "ios": "https://dc.lft.to/lastmile_qr_scan"}, "type": "electric_scooter", "name": "e2987334aab68ac7fe92a681102e91e4"}, {"bike_id": "dfb818fb92aab208ea89a4351f84754f", "lat": 38.9233395, "is_disabled": 0, "lon": -77.01907066666666, "fusion_lon": 0.0, "is_reserved": 0, "fusion_lat": 0.0, "rental_uris": {"android": "https://dc.lft.to/lastmile_qr_scan", "ios": "https://dc.lft.to/lastmile_qr_scan"}, "type": "electric_scooter", "name": "dfb818fb92aab208ea89a4351f84754f"}, {"bike_id": "d0b6420c36dd6f871f422a5933b15dc3", "lat": 38.89203716666667, "is_disabled": 0, "lon": -76.95698216666666, "fusion_lon": 0.0, "is_reserved": 0, "fusion_lat": 0.0, "rental_uris": {"android": "https://dc.lft.to/lastmile_qr_scan", "ios": "https://dc.lft.to/lastmile_qr_scan"}, "type": "electric_scooter", "name": "d0b6420c36dd6f871f422a5933b15dc3"}, {"bike_id": "1e9ac3ade838be1933d835cd54d6f733", "lat": 38.89854783333333, "is_disabled": 0, "lon": -77.02177433333334, "fusion_lon": 0.0, "is_reserved": 0, "fusion_lat": 0.0, "rental_uris": {"android": "https://dc.lft.to/lastmile_qr_scan", "ios": "https://dc.lft.to/lastmile_qr_scan"}, "type": "electric_scooter", "name": "1e9ac3ade838be1933d835cd54d6f733"}, {"bike_id": "78434115a886a6dc1f5ce7b4f3f0e8c9", "lat": 38.874585, "is_disabled": 0, "lon": -77.00575233333333, "fusion_lon": 0.0, "is_reserved": 0, "fusion_lat": 0.0, "rental_uris": {"android": "https://dc.lft.to/lastmile_qr_scan", "ios": "https://dc.lft.to/lastmile_qr_scan"}, "type": "electric_scooter", "name": "78434115a886a6dc1f5ce7b4f3f0e8c9"}, {"bike_id": "57db8b97a13b90a81017845355103305", "lat": 38.874699666666665, "is_disabled": 0, "lon": -77.00414433333333, "fusion_lon": 0.0, "is_reserved": 0, "fusion_lat": 0.0, "rental_uris": {"android": "https://dc.lft.to/lastmile_qr_scan", "ios": "https://dc.lft.to/lastmile_qr_scan"}, "type": "electric_scooter", "name": "57db8b97a13b90a81017845355103305"}, {"bike_id": "d80e492de7f3daec39eba0aa2cc848df", "lat": 38.9180115, "is_disabled": 0, "lon": -77.03178583333333, "fusion_lon": 0.0, "is_reserved": 0, "fusion_lat": 0.0, "rental_uris": {"android": "https://dc.lft.to/lastmile_qr_scan", "ios": "https://dc.lft.to/lastmile_qr_scan"}, "type": "electric_scooter", "name": "d80e492de7f3daec39eba0aa2cc848df"}, {"bike_id": "28706090c41ca1c0200f72ee7771488a", "lat": 38.900515666666664, "is_disabled": 0, "lon": -76.99763583333333, "fusion_lon": 0.0, "is_reserved": 0, "fusion_lat": 0.0, "rental_uris": {"android": "https://dc.lft.to/lastmile_qr_scan", "ios": "https://dc.lft.to/lastmile_qr_scan"}, "type": "electric_scooter", "name": "28706090c41ca1c0200f72ee7771488a"}, {"bike_id": "704b25b08c93badb8b4b2a25eee8e80a", "lat": 38.90466583333333, "is_disabled": 0, "lon": -77.006083, "fusion_lon": 0.0, "is_reserved": 0, "fusion_lat": 0.0, "rental_uris": {"android": "https://dc.lft.to/lastmile_qr_scan", "ios": "https://dc.lft.to/lastmile_qr_scan"}, "type": "electric_scooter", "name": "704b25b08c93badb8b4b2a25eee8e80a"}, {"bike_id": "7ca6e75d8e1b2e72f48cf16e633ea927", "lat": 38.932741, "is_disabled": 0, "lon": -77.03268583333333, "fusion_lon": 0.0, "is_reserved": 0, "fusion_lat": 0.0, "rental_uris": {"android": "https://dc.lft.to/lastmile_qr_scan", "ios": "https://dc.lft.to/lastmile_qr_scan"}, "type": "electric_scooter", "name": "7ca6e75d8e1b2e72f48cf16e633ea927"}, {"bike_id": "69e90c5022874854a8fefc315c6a4715", "lat": 38.901044666666664, "is_disabled": 0, "lon": -77.04347316666667, "fusion_lon": 0.0, "is_reserved": 0, "fusion_lat": 0.0, "rental_uris": {"android": "https://dc.lft.to/lastmile_qr_scan", "ios": "https://dc.lft.to/lastmile_qr_scan"}, "type": "electric_scooter", "name": "69e90c5022874854a8fefc315c6a4715"}, {"bike_id": "6d2d61fe78b8606e22ef000bc807f8cb", "lat": 38.875652, "is_disabled": 0, "lon": -77.005922, "fusion_lon": 0.0, "is_reserved": 0, "fusion_lat": 0.0, "rental_uris": {"android": "https://dc.lft.to/lastmile_qr_scan", "ios": "https://dc.lft.to/lastmile_qr_scan"}, "type": "electric_scooter", "name": "6d2d61fe78b8606e22ef000bc807f8cb"}, {"bike_id": "7c7b1e888a970925e446a87df40ff72b", "lat": 38.89965316666667, "is_disabled": 0, "lon": -76.9866915, "fusion_lon": 0.0, "is_reserved": 0, "fusion_lat": 0.0, "rental_uris": {"android": "https://dc.lft.to/lastmile_qr_scan", "ios": "https://dc.lft.to/lastmile_qr_scan"}, "type": "electric_bike", "name": "7c7b1e888a970925e446a87df40ff72b"}, {"bike_id": "4b1d8e79c02d766c4452a61791ef7df8", "lat": 38.91854583333333, "is_disabled": 0, "lon": -77.06885183333333, "fusion_lon": 0.0, "is_reserved": 0, "fusion_lat": 0.0, "rental_uris": {"android": "https://dc.lft.to/lastmile_qr_scan", "ios": "https://dc.lft.to/lastmile_qr_scan"}, "type": "electric_scooter", "name": "4b1d8e79c02d766c4452a61791ef7df8"}, {"bike_id": "436b069a03a095a0f88a661fc1725c4a", "lat": 38.89539516666667, "is_disabled": 0, "lon": -77.01600633333334, "fusion_lon": 0.0, "is_reserved": 0, "fusion_lat": 0.0, "rental_uris": {"android": "https://dc.lft.to/lastmile_qr_scan", "ios": "https://dc.lft.to/lastmile_qr_scan"}, "type": "electric_scooter", "name": "436b069a03a095a0f88a661fc1725c4a"}, {"bike_id": "6ce20cab0aece418fa403dff205c3251", "lat": 38.90387966666667, "is_disabled": 0, "lon": -77.01638683333333, "fusion_lon": 0.0, "is_reserved": 0, "fusion_lat": 0.0, "rental_uris": {"android": "https://dc.lft.to/lastmile_qr_scan", "ios": "https://dc.lft.to/lastmile_qr_scan"}, "type": "electric_scooter", "name": "6ce20cab0aece418fa403dff205c3251"}, {"bike_id": "cd932e1dcee021e706fa86db532d62b4", "lat": 38.9245555, "is_disabled": 0, "lon": -77.04038016666667, "fusion_lon": 0.0, "is_reserved": 0, "fusion_lat": 0.0, "rental_uris": {"android": "https://dc.lft.to/lastmile_qr_scan", "ios": "https://dc.lft.to/lastmile_qr_scan"}, "type": "electric_scooter", "name": "cd932e1dcee021e706fa86db532d62b4"}, {"bike_id": "74dcb03d3822f382c63356ed6dad07cf", "lat": 38.906663, "is_disabled": 0, "lon": -77.0268795, "fusion_lon": 0.0, "is_reserved": 0, "fusion_lat": 0.0, "rental_uris": {"android": "https://dc.lft.to/lastmile_qr_scan", "ios": "https://dc.lft.to/lastmile_qr_scan"}, "type": "electric_scooter", "name": "74dcb03d3822f382c63356ed6dad07cf"}, {"bike_id": "828781b514858c2add9653ff43bc18df", "lat": 38.91138016666667, "is_disabled": 0, "lon": -77.046665, "fusion_lon": 0.0, "is_reserved": 0, "fusion_lat": 0.0, "rental_uris": {"android": "https://dc.lft.to/lastmile_qr_scan", "ios": "https://dc.lft.to/lastmile_qr_scan"}, "type": "electric_scooter", "name": "828781b514858c2add9653ff43bc18df"}, {"bike_id": "3ec0ddef215209f0ae5ad082143bff72", "lat": 38.905783666666665, "is_disabled": 0, "lon": -77.03351883333333, "fusion_lon": 0.0, "is_reserved": 0, "fusion_lat": 0.0, "rental_uris": {"android": "https://dc.lft.to/lastmile_qr_scan", "ios": "https://dc.lft.to/lastmile_qr_scan"}, "type": "electric_scooter", "name": "3ec0ddef215209f0ae5ad082143bff72"}, {"bike_id": "dfbe8f6bed4296c12a1d61f090baff24", "lat": 38.91005333333333, "is_disabled": 0, "lon": -77.04006233333334, "fusion_lon": 0.0, "is_reserved": 0, "fusion_lat": 0.0, "rental_uris": {"android": "https://dc.lft.to/lastmile_qr_scan", "ios": "https://dc.lft.to/lastmile_qr_scan"}, "type": "electric_scooter", "name": "dfbe8f6bed4296c12a1d61f090baff24"}, {"bike_id": "91a8b08b937f54750992452817c941e4", "lat": 38.9432075, "is_disabled": 0, "lon": -77.059293, "fusion_lon": 0.0, "is_reserved": 0, "fusion_lat": 0.0, "rental_uris": {"android": "https://dc.lft.to/lastmile_qr_scan", "ios": "https://dc.lft.to/lastmile_qr_scan"}, "type": "electric_scooter", "name": "91a8b08b937f54750992452817c941e4"}, {"bike_id": "ae23c5c83dc6e71cb8e567d8704ba98c", "lat": 38.89250583333333, "is_disabled": 0, "lon": -77.0450075, "fusion_lon": 0.0, "is_reserved": 0, "fusion_lat": 0.0, "rental_uris": {"android": "https://dc.lft.to/lastmile_qr_scan", "ios": "https://dc.lft.to/lastmile_qr_scan"}, "type": "electric_scooter", "name": "ae23c5c83dc6e71cb8e567d8704ba98c"}, {"bike_id": "3a7c5fd9a091cb1b2853aa94e2ad62ff", "lat": 38.9105215, "is_disabled": 0, "lon": -77.02196683333334, "fusion_lon": 0.0, "is_reserved": 0, "fusion_lat": 0.0, "rental_uris": {"android": "https://dc.lft.to/lastmile_qr_scan", "ios": "https://dc.lft.to/lastmile_qr_scan"}, "type": "electric_scooter", "name": "3a7c5fd9a091cb1b2853aa94e2ad62ff"}, {"bike_id": "d88863ea1fb87ed2e6e73dc1ec988577", "lat": 38.889895833333334, "is_disabled": 0, "lon": -77.003292, "fusion_lon": 0.0, "is_reserved": 0, "fusion_lat": 0.0, "rental_uris": {"android": "https://dc.lft.to/lastmile_qr_scan", "ios": "https://dc.lft.to/lastmile_qr_scan"}, "type": "electric_scooter", "name": "d88863ea1fb87ed2e6e73dc1ec988577"}, {"bike_id": "b7f8ef4704ecdf9cad1e1083ea7fcbd6", "lat": 38.90778, "is_disabled": 0, "lon": -77.045074, "fusion_lon": 0.0, "is_reserved": 0, "fusion_lat": 0.0, "rental_uris": {"android": "https://dc.lft.to/lastmile_qr_scan", "ios": "https://dc.lft.to/lastmile_qr_scan"}, "type": "electric_scooter", "name": "b7f8ef4704ecdf9cad1e1083ea7fcbd6"}, {"bike_id": "c98f9a5c6960bcfd3a415f83b90c6150", "lat": 38.93696883333333, "is_disabled": 0, "lon": -77.056011, "fusion_lon": 0.0, "is_reserved": 0, "fusion_lat": 0.0, "rental_uris": {"android": "https://dc.lft.to/lastmile_qr_scan", "ios": "https://dc.lft.to/lastmile_qr_scan"}, "type": "electric_scooter", "name": "c98f9a5c6960bcfd3a415f83b90c6150"}, {"bike_id": "317ec1c8fd6f8dde1ed7a0e9e2f16c98", "lat": 38.8878165, "is_disabled": 0, "lon": -77.0332525, "fusion_lon": 0.0, "is_reserved": 0, "fusion_lat": 0.0, "rental_uris": {"android": "https://dc.lft.to/lastmile_qr_scan", "ios": "https://dc.lft.to/lastmile_qr_scan"}, "type": "electric_scooter", "name": "317ec1c8fd6f8dde1ed7a0e9e2f16c98"}, {"bike_id": "7e7f30817669b50dc47ad091e6a529eb", "lat": 38.926641333333336, "is_disabled": 0, "lon": -76.9950015, "fusion_lon": 0.0, "is_reserved": 0, "fusion_lat": 0.0, "rental_uris": {"android": "https://dc.lft.to/lastmile_qr_scan", "ios": "https://dc.lft.to/lastmile_qr_scan"}, "type": "electric_scooter", "name": "7e7f30817669b50dc47ad091e6a529eb"}, {"bike_id": "db2114bb50b4de2f62f6eba5de2b3ccb", "lat": 38.92412783333333, "is_disabled": 0, "lon": -76.99801083333334, "fusion_lon": 0.0, "is_reserved": 0, "fusion_lat": 0.0, "rental_uris": {"android": "https://dc.lft.to/lastmile_qr_scan", "ios": "https://dc.lft.to/lastmile_qr_scan"}, "type": "electric_scooter", "name": "db2114bb50b4de2f62f6eba5de2b3ccb"}, {"bike_id": "188f725780f14d86a812a6ac9080fa80", "lat": 38.892197833333334, "is_disabled": 0, "lon": -77.0278085, "fusion_lon": 0.0, "is_reserved": 0, "fusion_lat": 0.0, "rental_uris": {"android": "https://dc.lft.to/lastmile_qr_scan", "ios": "https://dc.lft.to/lastmile_qr_scan"}, "type": "electric_scooter", "name": "188f725780f14d86a812a6ac9080fa80"}, {"bike_id": "eb3ce692501e9a56c56143bc8d58909a", "lat": 38.90645333333333, "is_disabled": 0, "lon": -77.01766866666667, "fusion_lon": 0.0, "is_reserved": 0, "fusion_lat": 0.0, "rental_uris": {"android": "https://dc.lft.to/lastmile_qr_scan", "ios": "https://dc.lft.to/lastmile_qr_scan"}, "type": "electric_scooter", "name": "eb3ce692501e9a56c56143bc8d58909a"}, {"bike_id": "eb7e39bc7e0f2cb5e93d3f7fa6514c9e", "lat": 38.92368966666667, "is_disabled": 0, "lon": -77.01912216666666, "fusion_lon": 0.0, "is_reserved": 0, "fusion_lat": 0.0, "rental_uris": {"android": "https://dc.lft.to/lastmile_qr_scan", "ios": "https://dc.lft.to/lastmile_qr_scan"}, "type": "electric_scooter", "name": "eb7e39bc7e0f2cb5e93d3f7fa6514c9e"}, {"bike_id": "c47fc8ee0e2b3e2c17a95975f71306e2", "lat": 38.91419333333333, "is_disabled": 0, "lon": -77.04571933333334, "fusion_lon": 0.0, "is_reserved": 0, "fusion_lat": 0.0, "rental_uris": {"android": "https://dc.lft.to/lastmile_qr_scan", "ios": "https://dc.lft.to/lastmile_qr_scan"}, "type": "electric_scooter", "name": "c47fc8ee0e2b3e2c17a95975f71306e2"}, {"bike_id": "98da4c2bbe683d38715d422ced46f0e3", "lat": 38.91407733333333, "is_disabled": 0, "lon": -77.03223083333333, "fusion_lon": 0.0, "is_reserved": 0, "fusion_lat": 0.0, "rental_uris": {"android": "https://dc.lft.to/lastmile_qr_scan", "ios": "https://dc.lft.to/lastmile_qr_scan"}, "type": "electric_scooter", "name": "98da4c2bbe683d38715d422ced46f0e3"}, {"bike_id": "3e0d35806537732370801aecc03e789b", "lat": 38.92751633333334, "is_disabled": 0, "lon": -77.02143733333334, "fusion_lon": 0.0, "is_reserved": 0, "fusion_lat": 0.0, "rental_uris": {"android": "https://dc.lft.to/lastmile_qr_scan", "ios": "https://dc.lft.to/lastmile_qr_scan"}, "type": "electric_scooter", "name": "3e0d35806537732370801aecc03e789b"}, {"bike_id": "e311df97ac0c4d5cf527637884a030f0", "lat": 38.905833333333334, "is_disabled": 0, "lon": -77.03824033333333, "fusion_lon": 0.0, "is_reserved": 0, "fusion_lat": 0.0, "rental_uris": {"android": "https://dc.lft.to/lastmile_qr_scan", "ios": "https://dc.lft.to/lastmile_qr_scan"}, "type": "electric_scooter", "name": "e311df97ac0c4d5cf527637884a030f0"}, {"bike_id": "81e54e1a865e0893c50e83ab0709a0e3", "lat": 38.908699, "is_disabled": 0, "lon": -76.99834616666666, "fusion_lon": 0.0, "is_reserved": 0, "fusion_lat": 0.0, "rental_uris": {"android": "https://dc.lft.to/lastmile_qr_scan", "ios": "https://dc.lft.to/lastmile_qr_scan"}, "type": "electric_scooter", "name": "81e54e1a865e0893c50e83ab0709a0e3"}, {"bike_id": "6f3a6ed729e657dfca32338be47edc9a", "lat": 38.924455, "is_disabled": 0, "lon": -77.022502, "fusion_lon": 0.0, "is_reserved": 0, "fusion_lat": 0.0, "rental_uris": {"android": "https://dc.lft.to/lastmile_qr_scan", "ios": "https://dc.lft.to/lastmile_qr_scan"}, "type": "electric_scooter", "name": "6f3a6ed729e657dfca32338be47edc9a"}, {"bike_id": "4995a873e5532382538d6b918d5ffa98", "lat": 38.87727916666667, "is_disabled": 0, "lon": -77.017509, "fusion_lon": 0.0, "is_reserved": 0, "fusion_lat": 0.0, "rental_uris": {"android": "https://dc.lft.to/lastmile_qr_scan", "ios": "https://dc.lft.to/lastmile_qr_scan"}, "type": "electric_scooter", "name": "4995a873e5532382538d6b918d5ffa98"}, {"bike_id": "e38876eceea48ae7828adde021d1f6a7", "lat": 38.87661666666666, "is_disabled": 0, "lon": -77.00065383333333, "fusion_lon": 0.0, "is_reserved": 0, "fusion_lat": 0.0, "rental_uris": {"android": "https://dc.lft.to/lastmile_qr_scan", "ios": "https://dc.lft.to/lastmile_qr_scan"}, "type": "electric_scooter", "name": "e38876eceea48ae7828adde021d1f6a7"}, {"bike_id": "c2b135fb003bf764bce5159725391f2a", "lat": 38.916283, "is_disabled": 0, "lon": -77.03211916666666, "fusion_lon": 0.0, "is_reserved": 0, "fusion_lat": 0.0, "rental_uris": {"android": "https://dc.lft.to/lastmile_qr_scan", "ios": "https://dc.lft.to/lastmile_qr_scan"}, "type": "electric_scooter", "name": "c2b135fb003bf764bce5159725391f2a"}, {"bike_id": "5979ca73c4c5ae33a81b976165c6daf4", "lat": 38.900177, "is_disabled": 0, "lon": -77.01185716666667, "fusion_lon": 0.0, "is_reserved": 0, "fusion_lat": 0.0, "rental_uris": {"android": "https://dc.lft.to/lastmile_qr_scan", "ios": "https://dc.lft.to/lastmile_qr_scan"}, "type": "electric_scooter", "name": "5979ca73c4c5ae33a81b976165c6daf4"}, {"bike_id": "b490278ed71299514b7a34400840f91e", "lat": 38.91323666666667, "is_disabled": 0, "lon": -77.04238016666666, "fusion_lon": 0.0, "is_reserved": 0, "fusion_lat": 0.0, "rental_uris": {"android": "https://dc.lft.to/lastmile_qr_scan", "ios": "https://dc.lft.to/lastmile_qr_scan"}, "type": "electric_scooter", "name": "b490278ed71299514b7a34400840f91e"}, {"bike_id": "1a92d06253450144b75d5b3bf104dc29", "lat": 38.93702183333333, "is_disabled": 0, "lon": -77.02400566666667, "fusion_lon": 0.0, "is_reserved": 0, "fusion_lat": 0.0, "rental_uris": {"android": "https://dc.lft.to/lastmile_qr_scan", "ios": "https://dc.lft.to/lastmile_qr_scan"}, "type": "electric_scooter", "name": "1a92d06253450144b75d5b3bf104dc29"}, {"bike_id": "205bb8f787dd0341abd9a5ce6960c385", "lat": 38.8953755, "is_disabled": 0, "lon": -76.94933066666667, "fusion_lon": 0.0, "is_reserved": 0, "fusion_lat": 0.0, "rental_uris": {"android": "https://dc.lft.to/lastmile_qr_scan", "ios": "https://dc.lft.to/lastmile_qr_scan"}, "type": "electric_scooter", "name": "205bb8f787dd0341abd9a5ce6960c385"}, {"bike_id": "46ba4a852b64550aa745225c8592ed0e", "lat": 38.906010333333334, "is_disabled": 0, "lon": -77.07056816666666, "fusion_lon": 0.0, "is_reserved": 0, "fusion_lat": 0.0, "rental_uris": {"android": "https://dc.lft.to/lastmile_qr_scan", "ios": "https://dc.lft.to/lastmile_qr_scan"}, "type": "electric_bike", "name": "46ba4a852b64550aa745225c8592ed0e"}, {"bike_id": "2e0a6f974edd9db4a0f07d42b81c3cd0", "lat": 38.932466833333336, "is_disabled": 0, "lon": -77.03848916666666, "fusion_lon": 0.0, "is_reserved": 0, "fusion_lat": 0.0, "rental_uris": {"android": "https://dc.lft.to/lastmile_qr_scan", "ios": "https://dc.lft.to/lastmile_qr_scan"}, "type": "electric_scooter", "name": "2e0a6f974edd9db4a0f07d42b81c3cd0"}, {"bike_id": "1c55b2af6bec81da47ac91da51dfb438", "lat": 38.91417333333333, "is_disabled": 0, "lon": -77.04074266666667, "fusion_lon": 0.0, "is_reserved": 0, "fusion_lat": 0.0, "rental_uris": {"android": "https://dc.lft.to/lastmile_qr_scan", "ios": "https://dc.lft.to/lastmile_qr_scan"}, "type": "electric_scooter", "name": "1c55b2af6bec81da47ac91da51dfb438"}, {"bike_id": "0d7cf18259f3aaeb60a0f56bba9ebdf7", "lat": 38.88640866666667, "is_disabled": 0, "lon": -76.982125, "fusion_lon": 0.0, "is_reserved": 0, "fusion_lat": 0.0, "rental_uris": {"android": "https://dc.lft.to/lastmile_qr_scan", "ios": "https://dc.lft.to/lastmile_qr_scan"}, "type": "electric_scooter", "name": "0d7cf18259f3aaeb60a0f56bba9ebdf7"}, {"bike_id": "b4cab75cbffa174467f6de3368b4d0cb", "lat": 38.899961, "is_disabled": 0, "lon": -77.03178466666667, "fusion_lon": 0.0, "is_reserved": 0, "fusion_lat": 0.0, "rental_uris": {"android": "https://dc.lft.to/lastmile_qr_scan", "ios": "https://dc.lft.to/lastmile_qr_scan"}, "type": "electric_scooter", "name": "b4cab75cbffa174467f6de3368b4d0cb"}, {"bike_id": "26db12d6cced22dd26e7fb3ef3552b49", "lat": 38.8650035, "is_disabled": 0, "lon": -76.98987766666667, "fusion_lon": 0.0, "is_reserved": 0, "fusion_lat": 0.0, "rental_uris": {"android": "https://dc.lft.to/lastmile_qr_scan", "ios": "https://dc.lft.to/lastmile_qr_scan"}, "type": "electric_scooter", "name": "26db12d6cced22dd26e7fb3ef3552b49"}, {"bike_id": "f6f63d56e8ee2f76db42f2d8a6ca9210", "lat": 38.918083833333334, "is_disabled": 0, "lon": -77.0343945, "fusion_lon": 0.0, "is_reserved": 0, "fusion_lat": 0.0, "rental_uris": {"android": "https://dc.lft.to/lastmile_qr_scan", "ios": "https://dc.lft.to/lastmile_qr_scan"}, "type": "electric_scooter", "name": "f6f63d56e8ee2f76db42f2d8a6ca9210"}, {"bike_id": "58aa6e184c16a2d3c598a51605ac3ddf", "lat": 38.887187833333336, "is_disabled": 0, "lon": -77.02200933333333, "fusion_lon": 0.0, "is_reserved": 0, "fusion_lat": 0.0, "rental_uris": {"android": "https://dc.lft.to/lastmile_qr_scan", "ios": "https://dc.lft.to/lastmile_qr_scan"}, "type": "electric_scooter", "name": "58aa6e184c16a2d3c598a51605ac3ddf"}, {"bike_id": "beccc2292ac618417f3065ac15f170ac", "lat": 38.923287333333334, "is_disabled": 0, "lon": -77.03520916666666, "fusion_lon": 0.0, "is_reserved": 0, "fusion_lat": 0.0, "rental_uris": {"android": "https://dc.lft.to/lastmile_qr_scan", "ios": "https://dc.lft.to/lastmile_qr_scan"}, "type": "electric_scooter", "name": "beccc2292ac618417f3065ac15f170ac"}, {"bike_id": "a3e834dbaafff65b688ad6e0cf80ed40", "lat": 38.923672, "is_disabled": 0, "lon": -77.021034, "fusion_lon": 0.0, "is_reserved": 0, "fusion_lat": 0.0, "rental_uris": {"android": "https://dc.lft.to/lastmile_qr_scan", "ios": "https://dc.lft.to/lastmile_qr_scan"}, "type": "electric_scooter", "name": "a3e834dbaafff65b688ad6e0cf80ed40"}, {"bike_id": "e8762f155e1f04b1ad274c9636b9b42d", "lat": 38.92182916666667, "is_disabled": 0, "lon": -77.02102816666667, "fusion_lon": 0.0, "is_reserved": 0, "fusion_lat": 0.0, "rental_uris": {"android": "https://dc.lft.to/lastmile_qr_scan", "ios": "https://dc.lft.to/lastmile_qr_scan"}, "type": "electric_scooter", "name": "e8762f155e1f04b1ad274c9636b9b42d"}, {"bike_id": "00f6482fc37f4f710b872d94eaac3e97", "lat": 38.8948755, "is_disabled": 0, "lon": -77.0191315, "fusion_lon": 0.0, "is_reserved": 0, "fusion_lat": 0.0, "rental_uris": {"android": "https://dc.lft.to/lastmile_qr_scan", "ios": "https://dc.lft.to/lastmile_qr_scan"}, "type": "electric_scooter", "name": "00f6482fc37f4f710b872d94eaac3e97"}, {"bike_id": "277e385a5f9768caeb7e309d632df927", "lat": 38.886943333333335, "is_disabled": 0, "lon": -76.94032983333334, "fusion_lon": 0.0, "is_reserved": 0, "fusion_lat": 0.0, "rental_uris": {"android": "https://dc.lft.to/lastmile_qr_scan", "ios": "https://dc.lft.to/lastmile_qr_scan"}, "type": "electric_scooter", "name": "277e385a5f9768caeb7e309d632df927"}, {"bike_id": "95ecd901ea196fe5f3ce8aef49faf20f", "lat": 38.924867666666664, "is_disabled": 0, "lon": -77.03946316666666, "fusion_lon": 0.0, "is_reserved": 0, "fusion_lat": 0.0, "rental_uris": {"android": "https://dc.lft.to/lastmile_qr_scan", "ios": "https://dc.lft.to/lastmile_qr_scan"}, "type": "electric_scooter", "name": "95ecd901ea196fe5f3ce8aef49faf20f"}, {"bike_id": "edb5d44d64f1cc81bdfa201e9c9389bb", "lat": 38.921425666666664, "is_disabled": 0, "lon": -77.01859716666667, "fusion_lon": 0.0, "is_reserved": 0, "fusion_lat": 0.0, "rental_uris": {"android": "https://dc.lft.to/lastmile_qr_scan", "ios": "https://dc.lft.to/lastmile_qr_scan"}, "type": "electric_scooter", "name": "edb5d44d64f1cc81bdfa201e9c9389bb"}, {"bike_id": "06f15ec8958000933be78791a72fcb1b", "lat": 38.9199575, "is_disabled": 0, "lon": -76.9582045, "fusion_lon": 0.0, "is_reserved": 0, "fusion_lat": 0.0, "rental_uris": {"android": "https://dc.lft.to/lastmile_qr_scan", "ios": "https://dc.lft.to/lastmile_qr_scan"}, "type": "electric_bike", "name": "06f15ec8958000933be78791a72fcb1b"}, {"bike_id": "3edacfb384358e2bc61b4237930abb21", "lat": 38.892703166666664, "is_disabled": 0, "lon": -77.0036055, "fusion_lon": 0.0, "is_reserved": 0, "fusion_lat": 0.0, "rental_uris": {"android": "https://dc.lft.to/lastmile_qr_scan", "ios": "https://dc.lft.to/lastmile_qr_scan"}, "type": "electric_scooter", "name": "3edacfb384358e2bc61b4237930abb21"}, {"bike_id": "f2da9923c458687728da09325a41bd39", "lat": 38.907335, "is_disabled": 0, "lon": -76.97984483333333, "fusion_lon": 0.0, "is_reserved": 0, "fusion_lat": 0.0, "rental_uris": {"android": "https://dc.lft.to/lastmile_qr_scan", "ios": "https://dc.lft.to/lastmile_qr_scan"}, "type": "electric_scooter", "name": "f2da9923c458687728da09325a41bd39"}, {"bike_id": "2b16f5211622dad444b15d3c3856989e", "lat": 38.927082, "is_disabled": 0, "lon": -77.021003, "fusion_lon": 0.0, "is_reserved": 0, "fusion_lat": 0.0, "rental_uris": {"android": "https://dc.lft.to/lastmile_qr_scan", "ios": "https://dc.lft.to/lastmile_qr_scan"}, "type": "electric_scooter", "name": "2b16f5211622dad444b15d3c3856989e"}, {"bike_id": "5201ed8658b96747671effd3a47ba887", "lat": 38.914074166666666, "is_disabled": 0, "lon": -77.03906583333334, "fusion_lon": 0.0, "is_reserved": 0, "fusion_lat": 0.0, "rental_uris": {"android": "https://dc.lft.to/lastmile_qr_scan", "ios": "https://dc.lft.to/lastmile_qr_scan"}, "type": "electric_scooter", "name": "5201ed8658b96747671effd3a47ba887"}, {"bike_id": "5b601253e20ceff3b8c4fa557511b8ef", "lat": 38.90227133333333, "is_disabled": 0, "lon": -76.9420025, "fusion_lon": 0.0, "is_reserved": 0, "fusion_lat": 0.0, "rental_uris": {"android": "https://dc.lft.to/lastmile_qr_scan", "ios": "https://dc.lft.to/lastmile_qr_scan"}, "type": "electric_scooter", "name": "5b601253e20ceff3b8c4fa557511b8ef"}, {"bike_id": "3b5b0eb92b08b57f832efdc3d6b79d54", "lat": 38.9055775, "is_disabled": 0, "lon": -76.9947035, "fusion_lon": 0.0, "is_reserved": 0, "fusion_lat": 0.0, "rental_uris": {"android": "https://dc.lft.to/lastmile_qr_scan", "ios": "https://dc.lft.to/lastmile_qr_scan"}, "type": "electric_scooter", "name": "3b5b0eb92b08b57f832efdc3d6b79d54"}, {"bike_id": "2ad5c424c23ee7e19fe7c53ece532cf3", "lat": 38.918686, "is_disabled": 0, "lon": -76.96558083333333, "fusion_lon": 0.0, "is_reserved": 0, "fusion_lat": 0.0, "rental_uris": {"android": "https://dc.lft.to/lastmile_qr_scan", "ios": "https://dc.lft.to/lastmile_qr_scan"}, "type": "electric_scooter", "name": "2ad5c424c23ee7e19fe7c53ece532cf3"}, {"bike_id": "24a9a6851927ea453db519beefc327d1", "lat": 38.9143815, "is_disabled": 0, "lon": -77.04177783333333, "fusion_lon": 0.0, "is_reserved": 0, "fusion_lat": 0.0, "rental_uris": {"android": "https://dc.lft.to/lastmile_qr_scan", "ios": "https://dc.lft.to/lastmile_qr_scan"}, "type": "electric_scooter", "name": "24a9a6851927ea453db519beefc327d1"}, {"bike_id": "1e9a5d88fe2b0d0706b67ca23bb0911d", "lat": 38.92090183333333, "is_disabled": 0, "lon": -77.07557333333334, "fusion_lon": 0.0, "is_reserved": 0, "fusion_lat": 0.0, "rental_uris": {"android": "https://dc.lft.to/lastmile_qr_scan", "ios": "https://dc.lft.to/lastmile_qr_scan"}, "type": "electric_scooter", "name": "1e9a5d88fe2b0d0706b67ca23bb0911d"}, {"bike_id": "73e37b1a73bc2ce9a3511095f42da53b", "lat": 38.9019575, "is_disabled": 0, "lon": -77.02525433333334, "fusion_lon": 0.0, "is_reserved": 0, "fusion_lat": 0.0, "rental_uris": {"android": "https://dc.lft.to/lastmile_qr_scan", "ios": "https://dc.lft.to/lastmile_qr_scan"}, "type": "electric_scooter", "name": "73e37b1a73bc2ce9a3511095f42da53b"}, {"bike_id": "38df7508d14bae8a69cc374462464aed", "lat": 38.91950466666667, "is_disabled": 0, "lon": -77.0249025, "fusion_lon": 0.0, "is_reserved": 0, "fusion_lat": 0.0, "rental_uris": {"android": "https://dc.lft.to/lastmile_qr_scan", "ios": "https://dc.lft.to/lastmile_qr_scan"}, "type": "electric_scooter", "name": "38df7508d14bae8a69cc374462464aed"}, {"bike_id": "cdfedbc649aa6f2abda6f4c386a2e7a9", "lat": 38.902454166666665, "is_disabled": 0, "lon": -77.03883083333334, "fusion_lon": 0.0, "is_reserved": 0, "fusion_lat": 0.0, "rental_uris": {"android": "https://dc.lft.to/lastmile_qr_scan", "ios": "https://dc.lft.to/lastmile_qr_scan"}, "type": "electric_scooter", "name": "cdfedbc649aa6f2abda6f4c386a2e7a9"}, {"bike_id": "01f2807573e28d400f45c0a0bd61799b", "lat": 38.90254516666667, "is_disabled": 0, "lon": -77.03973933333333, "fusion_lon": 0.0, "is_reserved": 0, "fusion_lat": 0.0, "rental_uris": {"android": "https://dc.lft.to/lastmile_qr_scan", "ios": "https://dc.lft.to/lastmile_qr_scan"}, "type": "electric_scooter", "name": "01f2807573e28d400f45c0a0bd61799b"}, {"bike_id": "aac927271ea787f0b6e2c599b6f38820", "lat": 38.90998316666666, "is_disabled": 0, "lon": -76.9945055, "fusion_lon": 0.0, "is_reserved": 0, "fusion_lat": 0.0, "rental_uris": {"android": "https://dc.lft.to/lastmile_qr_scan", "ios": "https://dc.lft.to/lastmile_qr_scan"}, "type": "electric_scooter", "name": "aac927271ea787f0b6e2c599b6f38820"}, {"bike_id": "830ffba16d044aed7b937a57f7abeb87", "lat": 38.901518, "is_disabled": 0, "lon": -76.98543866666667, "fusion_lon": 0.0, "is_reserved": 0, "fusion_lat": 0.0, "rental_uris": {"android": "https://dc.lft.to/lastmile_qr_scan", "ios": "https://dc.lft.to/lastmile_qr_scan"}, "type": "electric_scooter", "name": "830ffba16d044aed7b937a57f7abeb87"}, {"bike_id": "a659d6aaa68e780377df1133bad295f8", "lat": 38.91184883333333, "is_disabled": 0, "lon": -77.01074866666667, "fusion_lon": 0.0, "is_reserved": 0, "fusion_lat": 0.0, "rental_uris": {"android": "https://dc.lft.to/lastmile_qr_scan", "ios": "https://dc.lft.to/lastmile_qr_scan"}, "type": "electric_scooter", "name": "a659d6aaa68e780377df1133bad295f8"}, {"bike_id": "56042f4ae22cbeaa9ed52e8dc48dd677", "lat": 38.9184935, "is_disabled": 0, "lon": -77.02424216666667, "fusion_lon": 0.0, "is_reserved": 0, "fusion_lat": 0.0, "rental_uris": {"android": "https://dc.lft.to/lastmile_qr_scan", "ios": "https://dc.lft.to/lastmile_qr_scan"}, "type": "electric_scooter", "name": "56042f4ae22cbeaa9ed52e8dc48dd677"}, {"bike_id": "b955f1266f9d7eabb64d35c79b19d9a7", "lat": 38.9031495, "is_disabled": 0, "lon": -77.0321365, "fusion_lon": 0.0, "is_reserved": 0, "fusion_lat": 0.0, "rental_uris": {"android": "https://dc.lft.to/lastmile_qr_scan", "ios": "https://dc.lft.to/lastmile_qr_scan"}, "type": "electric_scooter", "name": "b955f1266f9d7eabb64d35c79b19d9a7"}, {"bike_id": "3d2ba32f3147a3c1ff91444186c0d75c", "lat": 38.9111505, "is_disabled": 0, "lon": -77.03470366666667, "fusion_lon": 0.0, "is_reserved": 0, "fusion_lat": 0.0, "rental_uris": {"android": "https://dc.lft.to/lastmile_qr_scan", "ios": "https://dc.lft.to/lastmile_qr_scan"}, "type": "electric_scooter", "name": "3d2ba32f3147a3c1ff91444186c0d75c"}, {"bike_id": "2b8ce29e5d78ec42e19a18698be5a89a", "lat": 38.94201183333333, "is_disabled": 0, "lon": -77.02436166666666, "fusion_lon": 0.0, "is_reserved": 0, "fusion_lat": 0.0, "rental_uris": {"android": "https://dc.lft.to/lastmile_qr_scan", "ios": "https://dc.lft.to/lastmile_qr_scan"}, "type": "electric_scooter", "name": "2b8ce29e5d78ec42e19a18698be5a89a"}, {"bike_id": "07e60f763272ff2a378eaad71fca1f55", "lat": 38.90761633333334, "is_disabled": 0, "lon": -77.02301566666667, "fusion_lon": 0.0, "is_reserved": 0, "fusion_lat": 0.0, "rental_uris": {"android": "https://dc.lft.to/lastmile_qr_scan", "ios": "https://dc.lft.to/lastmile_qr_scan"}, "type": "electric_scooter", "name": "07e60f763272ff2a378eaad71fca1f55"}, {"bike_id": "fb6681b98e9d1d6268862773c387bac1", "lat": 38.845070166666666, "is_disabled": 0, "lon": -76.9935255, "fusion_lon": 0.0, "is_reserved": 0, "fusion_lat": 0.0, "rental_uris": {"android": "https://dc.lft.to/lastmile_qr_scan", "ios": "https://dc.lft.to/lastmile_qr_scan"}, "type": "electric_bike", "name": "fb6681b98e9d1d6268862773c387bac1"}, {"bike_id": "17302921f2593b5a85c8826d23e1cd38", "lat": 38.89617233333333, "is_disabled": 0, "lon": -77.04676266666667, "fusion_lon": 0.0, "is_reserved": 0, "fusion_lat": 0.0, "rental_uris": {"android": "https://dc.lft.to/lastmile_qr_scan", "ios": "https://dc.lft.to/lastmile_qr_scan"}, "type": "electric_scooter", "name": "17302921f2593b5a85c8826d23e1cd38"}, {"bike_id": "9303c73842f01cec99fa014b2ede3e74", "lat": 38.91047666666667, "is_disabled": 0, "lon": -77.019868, "fusion_lon": 0.0, "is_reserved": 0, "fusion_lat": 0.0, "rental_uris": {"android": "https://dc.lft.to/lastmile_qr_scan", "ios": "https://dc.lft.to/lastmile_qr_scan"}, "type": "electric_scooter", "name": "9303c73842f01cec99fa014b2ede3e74"}, {"bike_id": "07330970de872164ab50828fc81c33f1", "lat": 38.912675666666665, "is_disabled": 0, "lon": -77.01768716666666, "fusion_lon": 0.0, "is_reserved": 0, "fusion_lat": 0.0, "rental_uris": {"android": "https://dc.lft.to/lastmile_qr_scan", "ios": "https://dc.lft.to/lastmile_qr_scan"}, "type": "electric_scooter", "name": "07330970de872164ab50828fc81c33f1"}, {"bike_id": "6846101c620e2cc39aa400f749ec30e9", "lat": 38.91822483333333, "is_disabled": 0, "lon": -77.03202766666666, "fusion_lon": 0.0, "is_reserved": 0, "fusion_lat": 0.0, "rental_uris": {"android": "https://dc.lft.to/lastmile_qr_scan", "ios": "https://dc.lft.to/lastmile_qr_scan"}, "type": "electric_scooter", "name": "6846101c620e2cc39aa400f749ec30e9"}, {"bike_id": "4f9709bd28694322982f30720e6ba018", "lat": 38.89984716666667, "is_disabled": 0, "lon": -77.03341933333333, "fusion_lon": 0.0, "is_reserved": 0, "fusion_lat": 0.0, "rental_uris": {"android": "https://dc.lft.to/lastmile_qr_scan", "ios": "https://dc.lft.to/lastmile_qr_scan"}, "type": "electric_scooter", "name": "4f9709bd28694322982f30720e6ba018"}, {"bike_id": "b47da4e78551b7490619b5002eb87814", "lat": 38.90160633333333, "is_disabled": 0, "lon": -77.039336, "fusion_lon": 0.0, "is_reserved": 0, "fusion_lat": 0.0, "rental_uris": {"android": "https://dc.lft.to/lastmile_qr_scan", "ios": "https://dc.lft.to/lastmile_qr_scan"}, "type": "electric_scooter", "name": "b47da4e78551b7490619b5002eb87814"}, {"bike_id": "667a840d08830ebb14670cced3eb180e", "lat": 38.916208833333336, "is_disabled": 0, "lon": -77.03212216666667, "fusion_lon": 0.0, "is_reserved": 0, "fusion_lat": 0.0, "rental_uris": {"android": "https://dc.lft.to/lastmile_qr_scan", "ios": "https://dc.lft.to/lastmile_qr_scan"}, "type": "electric_scooter", "name": "667a840d08830ebb14670cced3eb180e"}, {"bike_id": "e532c67d46641c30a63c9847d01df8ca", "lat": 38.917597, "is_disabled": 0, "lon": -77.02399766666667, "fusion_lon": 0.0, "is_reserved": 0, "fusion_lat": 0.0, "rental_uris": {"android": "https://dc.lft.to/lastmile_qr_scan", "ios": "https://dc.lft.to/lastmile_qr_scan"}, "type": "electric_scooter", "name": "e532c67d46641c30a63c9847d01df8ca"}, {"bike_id": "db428e3c33e76b5cee951976f4afe4b6", "lat": 38.908666333333336, "is_disabled": 0, "lon": -77.0319885, "fusion_lon": 0.0, "is_reserved": 0, "fusion_lat": 0.0, "rental_uris": {"android": "https://dc.lft.to/lastmile_qr_scan", "ios": "https://dc.lft.to/lastmile_qr_scan"}, "type": "electric_scooter", "name": "db428e3c33e76b5cee951976f4afe4b6"}, {"bike_id": "a7eea337eb90e8077dc9b01986d6d28f", "lat": 38.935348833333336, "is_disabled": 0, "lon": -77.02343866666666, "fusion_lon": 0.0, "is_reserved": 0, "fusion_lat": 0.0, "rental_uris": {"android": "https://dc.lft.to/lastmile_qr_scan", "ios": "https://dc.lft.to/lastmile_qr_scan"}, "type": "electric_scooter", "name": "a7eea337eb90e8077dc9b01986d6d28f"}, {"bike_id": "ea866fc5c98a35cb02a1aebceb196047", "lat": 38.8917125, "is_disabled": 0, "lon": -77.015522, "fusion_lon": 0.0, "is_reserved": 0, "fusion_lat": 0.0, "rental_uris": {"android": "https://dc.lft.to/lastmile_qr_scan", "ios": "https://dc.lft.to/lastmile_qr_scan"}, "type": "electric_scooter", "name": "ea866fc5c98a35cb02a1aebceb196047"}, {"bike_id": "fc80e17fa8afeac1ab92457a985805e8", "lat": 38.892674166666666, "is_disabled": 0, "lon": -77.042058, "fusion_lon": 0.0, "is_reserved": 0, "fusion_lat": 0.0, "rental_uris": {"android": "https://dc.lft.to/lastmile_qr_scan", "ios": "https://dc.lft.to/lastmile_qr_scan"}, "type": "electric_scooter", "name": "fc80e17fa8afeac1ab92457a985805e8"}, {"bike_id": "4dcee9915007528770d7df060ee85f8e", "lat": 38.938526833333334, "is_disabled": 0, "lon": -77.03387983333333, "fusion_lon": 0.0, "is_reserved": 0, "fusion_lat": 0.0, "rental_uris": {"android": "https://dc.lft.to/lastmile_qr_scan", "ios": "https://dc.lft.to/lastmile_qr_scan"}, "type": "electric_scooter", "name": "4dcee9915007528770d7df060ee85f8e"}, {"bike_id": "013934824b1d3c346faa3e3372ab5216", "lat": 38.9195055, "is_disabled": 0, "lon": -77.04852283333334, "fusion_lon": 0.0, "is_reserved": 0, "fusion_lat": 0.0, "rental_uris": {"android": "https://dc.lft.to/lastmile_qr_scan", "ios": "https://dc.lft.to/lastmile_qr_scan"}, "type": "electric_scooter", "name": "013934824b1d3c346faa3e3372ab5216"}, {"bike_id": "8be1019a730d13519736311640d6bca9", "lat": 38.89761383333333, "is_disabled": 0, "lon": -76.92593533333333, "fusion_lon": 0.0, "is_reserved": 0, "fusion_lat": 0.0, "rental_uris": {"android": "https://dc.lft.to/lastmile_qr_scan", "ios": "https://dc.lft.to/lastmile_qr_scan"}, "type": "electric_scooter", "name": "8be1019a730d13519736311640d6bca9"}, {"bike_id": "c5fdd6ebdf572f9bfeaf4b3b286ad735", "lat": 38.900363166666665, "is_disabled": 0, "lon": -76.99646566666667, "fusion_lon": 0.0, "is_reserved": 0, "fusion_lat": 0.0, "rental_uris": {"android": "https://dc.lft.to/lastmile_qr_scan", "ios": "https://dc.lft.to/lastmile_qr_scan"}, "type": "electric_scooter", "name": "c5fdd6ebdf572f9bfeaf4b3b286ad735"}, {"bike_id": "e17020da2390da39ce110e336c2a6e25", "lat": 38.8921985, "is_disabled": 0, "lon": -77.03120816666667, "fusion_lon": 0.0, "is_reserved": 0, "fusion_lat": 0.0, "rental_uris": {"android": "https://dc.lft.to/lastmile_qr_scan", "ios": "https://dc.lft.to/lastmile_qr_scan"}, "type": "electric_scooter", "name": "e17020da2390da39ce110e336c2a6e25"}, {"bike_id": "85a6dff62535a818e872d3b8b826371c", "lat": 38.92157733333333, "is_disabled": 0, "lon": -77.03516983333333, "fusion_lon": 0.0, "is_reserved": 0, "fusion_lat": 0.0, "rental_uris": {"android": "https://dc.lft.to/lastmile_qr_scan", "ios": "https://dc.lft.to/lastmile_qr_scan"}, "type": "electric_scooter", "name": "85a6dff62535a818e872d3b8b826371c"}, {"bike_id": "dfddddfa2d39974eb624c6ca1c459bd2", "lat": 38.917946666666666, "is_disabled": 0, "lon": -77.042766, "fusion_lon": 0.0, "is_reserved": 0, "fusion_lat": 0.0, "rental_uris": {"android": "https://dc.lft.to/lastmile_qr_scan", "ios": "https://dc.lft.to/lastmile_qr_scan"}, "type": "electric_scooter", "name": "dfddddfa2d39974eb624c6ca1c459bd2"}, {"bike_id": "bff2344df800e3d457119b3739fa8cde", "lat": 38.931722, "is_disabled": 0, "lon": -76.99618416666667, "fusion_lon": 0.0, "is_reserved": 0, "fusion_lat": 0.0, "rental_uris": {"android": "https://dc.lft.to/lastmile_qr_scan", "ios": "https://dc.lft.to/lastmile_qr_scan"}, "type": "electric_scooter", "name": "bff2344df800e3d457119b3739fa8cde"}, {"bike_id": "55e5a4869c9e69f7558109fcd3fcd71c", "lat": 38.921751666666665, "is_disabled": 0, "lon": -77.04122133333334, "fusion_lon": 0.0, "is_reserved": 0, "fusion_lat": 0.0, "rental_uris": {"android": "https://dc.lft.to/lastmile_qr_scan", "ios": "https://dc.lft.to/lastmile_qr_scan"}, "type": "electric_scooter", "name": "55e5a4869c9e69f7558109fcd3fcd71c"}, {"bike_id": "20102a25bf1b1edce3d9937b65188d96", "lat": 38.904677, "is_disabled": 0, "lon": -76.99503733333333, "fusion_lon": 0.0, "is_reserved": 0, "fusion_lat": 0.0, "rental_uris": {"android": "https://dc.lft.to/lastmile_qr_scan", "ios": "https://dc.lft.to/lastmile_qr_scan"}, "type": "electric_scooter", "name": "20102a25bf1b1edce3d9937b65188d96"}, {"bike_id": "915d7a0ff811d489696c52e9923f1a4c", "lat": 38.9225885, "is_disabled": 0, "lon": -77.0200955, "fusion_lon": 0.0, "is_reserved": 0, "fusion_lat": 0.0, "rental_uris": {"android": "https://dc.lft.to/lastmile_qr_scan", "ios": "https://dc.lft.to/lastmile_qr_scan"}, "type": "electric_scooter", "name": "915d7a0ff811d489696c52e9923f1a4c"}, {"bike_id": "b74740201bad0940db100aebbe94e812", "lat": 38.92336533333334, "is_disabled": 0, "lon": -77.01894466666667, "fusion_lon": 0.0, "is_reserved": 0, "fusion_lat": 0.0, "rental_uris": {"android": "https://dc.lft.to/lastmile_qr_scan", "ios": "https://dc.lft.to/lastmile_qr_scan"}, "type": "electric_scooter", "name": "b74740201bad0940db100aebbe94e812"}, {"bike_id": "cab5088e6ef74cd84ab6a0a1934ae9a6", "lat": 38.91923166666667, "is_disabled": 0, "lon": -77.07936933333333, "fusion_lon": 0.0, "is_reserved": 0, "fusion_lat": 0.0, "rental_uris": {"android": "https://dc.lft.to/lastmile_qr_scan", "ios": "https://dc.lft.to/lastmile_qr_scan"}, "type": "electric_scooter", "name": "cab5088e6ef74cd84ab6a0a1934ae9a6"}, {"bike_id": "ba8766427023965099a347d0432d11f0", "lat": 38.875667, "is_disabled": 0, "lon": -77.020549, "fusion_lon": 0.0, "is_reserved": 0, "fusion_lat": 0.0, "rental_uris": {"android": "https://dc.lft.to/lastmile_qr_scan", "ios": "https://dc.lft.to/lastmile_qr_scan"}, "type": "electric_scooter", "name": "ba8766427023965099a347d0432d11f0"}, {"bike_id": "2281f051129e6a212312f06ee54c16a9", "lat": 38.92295683333333, "is_disabled": 0, "lon": -77.0232045, "fusion_lon": 0.0, "is_reserved": 0, "fusion_lat": 0.0, "rental_uris": {"android": "https://dc.lft.to/lastmile_qr_scan", "ios": "https://dc.lft.to/lastmile_qr_scan"}, "type": "electric_scooter", "name": "2281f051129e6a212312f06ee54c16a9"}, {"bike_id": "39a46fa055236858041417bb17f8f3e4", "lat": 38.914211333333334, "is_disabled": 0, "lon": -77.04596533333333, "fusion_lon": 0.0, "is_reserved": 0, "fusion_lat": 0.0, "rental_uris": {"android": "https://dc.lft.to/lastmile_qr_scan", "ios": "https://dc.lft.to/lastmile_qr_scan"}, "type": "electric_scooter", "name": "39a46fa055236858041417bb17f8f3e4"}, {"bike_id": "30351ad35ac00874f13cbeef54654179", "lat": 38.933150166666664, "is_disabled": 0, "lon": -77.02932783333334, "fusion_lon": 0.0, "is_reserved": 0, "fusion_lat": 0.0, "rental_uris": {"android": "https://dc.lft.to/lastmile_qr_scan", "ios": "https://dc.lft.to/lastmile_qr_scan"}, "type": "electric_scooter", "name": "30351ad35ac00874f13cbeef54654179"}, {"bike_id": "ed50573c64c054140cba25171c9d31e0", "lat": 38.9132, "is_disabled": 0, "lon": -77.0470445, "fusion_lon": 0.0, "is_reserved": 0, "fusion_lat": 0.0, "rental_uris": {"android": "https://dc.lft.to/lastmile_qr_scan", "ios": "https://dc.lft.to/lastmile_qr_scan"}, "type": "electric_scooter", "name": "ed50573c64c054140cba25171c9d31e0"}, {"bike_id": "052d5b4c7d869332852384c3e39c54e1", "lat": 38.9186675, "is_disabled": 0, "lon": -77.04485566666666, "fusion_lon": 0.0, "is_reserved": 0, "fusion_lat": 0.0, "rental_uris": {"android": "https://dc.lft.to/lastmile_qr_scan", "ios": "https://dc.lft.to/lastmile_qr_scan"}, "type": "electric_scooter", "name": "052d5b4c7d869332852384c3e39c54e1"}, {"bike_id": "b5d885ad8d409593ff91c5a4b243a09e", "lat": 38.857284666666665, "is_disabled": 0, "lon": -76.99102183333333, "fusion_lon": 0.0, "is_reserved": 0, "fusion_lat": 0.0, "rental_uris": {"android": "https://dc.lft.to/lastmile_qr_scan", "ios": "https://dc.lft.to/lastmile_qr_scan"}, "type": "electric_scooter", "name": "b5d885ad8d409593ff91c5a4b243a09e"}, {"bike_id": "018b2a39998399a641f5d444d65e630e", "lat": 38.9070755, "is_disabled": 0, "lon": -77.04505216666666, "fusion_lon": 0.0, "is_reserved": 0, "fusion_lat": 0.0, "rental_uris": {"android": "https://dc.lft.to/lastmile_qr_scan", "ios": "https://dc.lft.to/lastmile_qr_scan"}, "type": "electric_scooter", "name": "018b2a39998399a641f5d444d65e630e"}, {"bike_id": "c8595b12858191d343be6b517fd635d9", "lat": 38.905541, "is_disabled": 0, "lon": -77.03251483333334, "fusion_lon": 0.0, "is_reserved": 0, "fusion_lat": 0.0, "rental_uris": {"android": "https://dc.lft.to/lastmile_qr_scan", "ios": "https://dc.lft.to/lastmile_qr_scan"}, "type": "electric_scooter", "name": "c8595b12858191d343be6b517fd635d9"}, {"bike_id": "8510f3f7eb721965dff437f5f8ff9c73", "lat": 38.898547, "is_disabled": 0, "lon": -77.02192883333333, "fusion_lon": 0.0, "is_reserved": 0, "fusion_lat": 0.0, "rental_uris": {"android": "https://dc.lft.to/lastmile_qr_scan", "ios": "https://dc.lft.to/lastmile_qr_scan"}, "type": "electric_scooter", "name": "8510f3f7eb721965dff437f5f8ff9c73"}, {"bike_id": "885476fc5baeeda883763f3824d1846c", "lat": 38.8921915, "is_disabled": 0, "lon": -77.02367366666667, "fusion_lon": 0.0, "is_reserved": 0, "fusion_lat": 0.0, "rental_uris": {"android": "https://dc.lft.to/lastmile_qr_scan", "ios": "https://dc.lft.to/lastmile_qr_scan"}, "type": "electric_scooter", "name": "885476fc5baeeda883763f3824d1846c"}, {"bike_id": "4cda38737c7f42cd39536182566e138e", "lat": 38.91984633333333, "is_disabled": 0, "lon": -77.0216825, "fusion_lon": 0.0, "is_reserved": 0, "fusion_lat": 0.0, "rental_uris": {"android": "https://dc.lft.to/lastmile_qr_scan", "ios": "https://dc.lft.to/lastmile_qr_scan"}, "type": "electric_scooter", "name": "4cda38737c7f42cd39536182566e138e"}, {"bike_id": "ed01a5c94adc54950c4a4ec83384d2e9", "lat": 38.884234, "is_disabled": 0, "lon": -77.0261165, "fusion_lon": 0.0, "is_reserved": 0, "fusion_lat": 0.0, "rental_uris": {"android": "https://dc.lft.to/lastmile_qr_scan", "ios": "https://dc.lft.to/lastmile_qr_scan"}, "type": "electric_scooter", "name": "ed01a5c94adc54950c4a4ec83384d2e9"}, {"bike_id": "f4ba974b251b8ff32d27d90be29e7a0f", "lat": 38.94788766666667, "is_disabled": 0, "lon": -77.04083866666667, "fusion_lon": 0.0, "is_reserved": 0, "fusion_lat": 0.0, "rental_uris": {"android": "https://dc.lft.to/lastmile_qr_scan", "ios": "https://dc.lft.to/lastmile_qr_scan"}, "type": "electric_scooter", "name": "f4ba974b251b8ff32d27d90be29e7a0f"}, {"bike_id": "4d579377ac3a0b42c34971da596b1844", "lat": 38.92420216666667, "is_disabled": 0, "lon": -77.01949983333333, "fusion_lon": 0.0, "is_reserved": 0, "fusion_lat": 0.0, "rental_uris": {"android": "https://dc.lft.to/lastmile_qr_scan", "ios": "https://dc.lft.to/lastmile_qr_scan"}, "type": "electric_scooter", "name": "4d579377ac3a0b42c34971da596b1844"}, {"bike_id": "fdddc230ace289af713f93999692137f", "lat": 38.87723916666667, "is_disabled": 0, "lon": -77.00933216666667, "fusion_lon": 0.0, "is_reserved": 0, "fusion_lat": 0.0, "rental_uris": {"android": "https://dc.lft.to/lastmile_qr_scan", "ios": "https://dc.lft.to/lastmile_qr_scan"}, "type": "electric_scooter", "name": "fdddc230ace289af713f93999692137f"}, {"bike_id": "420af34a1d39d685d5fd265403ffe3c6", "lat": 38.9277835, "is_disabled": 0, "lon": -77.02854883333333, "fusion_lon": 0.0, "is_reserved": 0, "fusion_lat": 0.0, "rental_uris": {"android": "https://dc.lft.to/lastmile_qr_scan", "ios": "https://dc.lft.to/lastmile_qr_scan"}, "type": "electric_scooter", "name": "420af34a1d39d685d5fd265403ffe3c6"}, {"bike_id": "93ecd1413233e86f1411994f9bd82de5", "lat": 38.926822, "is_disabled": 0, "lon": -77.02781433333334, "fusion_lon": 0.0, "is_reserved": 0, "fusion_lat": 0.0, "rental_uris": {"android": "https://dc.lft.to/lastmile_qr_scan", "ios": "https://dc.lft.to/lastmile_qr_scan"}, "type": "electric_scooter", "name": "93ecd1413233e86f1411994f9bd82de5"}, {"bike_id": "c0447b0e24de62a9431f9976f5779539", "lat": 38.92396133333333, "is_disabled": 0, "lon": -77.03407883333334, "fusion_lon": 0.0, "is_reserved": 0, "fusion_lat": 0.0, "rental_uris": {"android": "https://dc.lft.to/lastmile_qr_scan", "ios": "https://dc.lft.to/lastmile_qr_scan"}, "type": "electric_scooter", "name": "c0447b0e24de62a9431f9976f5779539"}, {"bike_id": "172ed4fbb060e7267ce4b0021173d6ab", "lat": 38.93061766666667, "is_disabled": 0, "lon": -77.023201, "fusion_lon": 0.0, "is_reserved": 0, "fusion_lat": 0.0, "rental_uris": {"android": "https://dc.lft.to/lastmile_qr_scan", "ios": "https://dc.lft.to/lastmile_qr_scan"}, "type": "electric_scooter", "name": "172ed4fbb060e7267ce4b0021173d6ab"}, {"bike_id": "b6366aab528da605b53563ca3e2ae03f", "lat": 38.890618333333336, "is_disabled": 0, "lon": -77.02304816666667, "fusion_lon": 0.0, "is_reserved": 0, "fusion_lat": 0.0, "rental_uris": {"android": "https://dc.lft.to/lastmile_qr_scan", "ios": "https://dc.lft.to/lastmile_qr_scan"}, "type": "electric_scooter", "name": "b6366aab528da605b53563ca3e2ae03f"}, {"bike_id": "498fd199ac399f2819b433885e05f9f3", "lat": 38.916627, "is_disabled": 0, "lon": -77.04380966666666, "fusion_lon": 0.0, "is_reserved": 0, "fusion_lat": 0.0, "rental_uris": {"android": "https://dc.lft.to/lastmile_qr_scan", "ios": "https://dc.lft.to/lastmile_qr_scan"}, "type": "electric_scooter", "name": "498fd199ac399f2819b433885e05f9f3"}, {"bike_id": "d35dd0e5f9a27e6a15eeeac3128d4b2e", "lat": 38.92586466666667, "is_disabled": 0, "lon": -77.02156133333334, "fusion_lon": 0.0, "is_reserved": 0, "fusion_lat": 0.0, "rental_uris": {"android": "https://dc.lft.to/lastmile_qr_scan", "ios": "https://dc.lft.to/lastmile_qr_scan"}, "type": "electric_scooter", "name": "d35dd0e5f9a27e6a15eeeac3128d4b2e"}, {"bike_id": "f068ef320e874a72d952f10aa714fc5b", "lat": 38.85316183333333, "is_disabled": 0, "lon": -76.9802025, "fusion_lon": 0.0, "is_reserved": 0, "fusion_lat": 0.0, "rental_uris": {"android": "https://dc.lft.to/lastmile_qr_scan", "ios": "https://dc.lft.to/lastmile_qr_scan"}, "type": "electric_bike", "name": "f068ef320e874a72d952f10aa714fc5b"}, {"bike_id": "caacf272bedc2277f5915ba14f7702b1", "lat": 38.92169766666667, "is_disabled": 0, "lon": -77.04026116666667, "fusion_lon": 0.0, "is_reserved": 0, "fusion_lat": 0.0, "rental_uris": {"android": "https://dc.lft.to/lastmile_qr_scan", "ios": "https://dc.lft.to/lastmile_qr_scan"}, "type": "electric_scooter", "name": "caacf272bedc2277f5915ba14f7702b1"}, {"bike_id": "2fd5280feb46d6e1854e89e3fb780b32", "lat": 38.908936, "is_disabled": 0, "lon": -77.04323033333333, "fusion_lon": 0.0, "is_reserved": 0, "fusion_lat": 0.0, "rental_uris": {"android": "https://dc.lft.to/lastmile_qr_scan", "ios": "https://dc.lft.to/lastmile_qr_scan"}, "type": "electric_scooter", "name": "2fd5280feb46d6e1854e89e3fb780b32"}, {"bike_id": "8a56eaa2e67b8af211a0f56b8b79041c", "lat": 38.9067935, "is_disabled": 0, "lon": -77.0238505, "fusion_lon": 0.0, "is_reserved": 0, "fusion_lat": 0.0, "rental_uris": {"android": "https://dc.lft.to/lastmile_qr_scan", "ios": "https://dc.lft.to/lastmile_qr_scan"}, "type": "electric_scooter", "name": "8a56eaa2e67b8af211a0f56b8b79041c"}, {"bike_id": "d2156778bcc0c5fe79cc6459dba9ba33", "lat": 38.8359565, "is_disabled": 0, "lon": -77.00130583333333, "fusion_lon": 0.0, "is_reserved": 0, "fusion_lat": 0.0, "rental_uris": {"android": "https://dc.lft.to/lastmile_qr_scan", "ios": "https://dc.lft.to/lastmile_qr_scan"}, "type": "electric_bike", "name": "d2156778bcc0c5fe79cc6459dba9ba33"}, {"bike_id": "dc19ac53a635d0cfcd97bbcc060129ba", "lat": 38.922485, "is_disabled": 0, "lon": -77.02122033333333, "fusion_lon": 0.0, "is_reserved": 0, "fusion_lat": 0.0, "rental_uris": {"android": "https://dc.lft.to/lastmile_qr_scan", "ios": "https://dc.lft.to/lastmile_qr_scan"}, "type": "electric_scooter", "name": "dc19ac53a635d0cfcd97bbcc060129ba"}, {"bike_id": "379b49df4012756d68fa66be3bca6053", "lat": 38.908918166666666, "is_disabled": 0, "lon": -77.0448355, "fusion_lon": 0.0, "is_reserved": 0, "fusion_lat": 0.0, "rental_uris": {"android": "https://dc.lft.to/lastmile_qr_scan", "ios": "https://dc.lft.to/lastmile_qr_scan"}, "type": "electric_scooter", "name": "379b49df4012756d68fa66be3bca6053"}, {"bike_id": "00b2aff26c3d04b6e0473212875906b9", "lat": 38.91957333333333, "is_disabled": 0, "lon": -77.02593316666666, "fusion_lon": 0.0, "is_reserved": 0, "fusion_lat": 0.0, "rental_uris": {"android": "https://dc.lft.to/lastmile_qr_scan", "ios": "https://dc.lft.to/lastmile_qr_scan"}, "type": "electric_scooter", "name": "00b2aff26c3d04b6e0473212875906b9"}, {"bike_id": "145a936d5601b5ebd15f8106573b8da7", "lat": 38.88653983333333, "is_disabled": 0, "lon": -77.02813883333333, "fusion_lon": 0.0, "is_reserved": 0, "fusion_lat": 0.0, "rental_uris": {"android": "https://dc.lft.to/lastmile_qr_scan", "ios": "https://dc.lft.to/lastmile_qr_scan"}, "type": "electric_scooter", "name": "145a936d5601b5ebd15f8106573b8da7"}, {"bike_id": "e4d95824ef3c3ce0cd544536594b891b", "lat": 38.881904666666664, "is_disabled": 0, "lon": -77.02087916666666, "fusion_lon": 0.0, "is_reserved": 0, "fusion_lat": 0.0, "rental_uris": {"android": "https://dc.lft.to/lastmile_qr_scan", "ios": "https://dc.lft.to/lastmile_qr_scan"}, "type": "electric_scooter", "name": "e4d95824ef3c3ce0cd544536594b891b"}, {"bike_id": "d144945efd5c0a51f8c6d49ef8d0ffef", "lat": 38.903167, "is_disabled": 0, "lon": -77.05037216666666, "fusion_lon": 0.0, "is_reserved": 0, "fusion_lat": 0.0, "rental_uris": {"android": "https://dc.lft.to/lastmile_qr_scan", "ios": "https://dc.lft.to/lastmile_qr_scan"}, "type": "electric_scooter", "name": "d144945efd5c0a51f8c6d49ef8d0ffef"}, {"bike_id": "e9ff3c51e0e9009d431c4e0ab0768230", "lat": 38.89914433333333, "is_disabled": 0, "lon": -76.93382383333334, "fusion_lon": 0.0, "is_reserved": 0, "fusion_lat": 0.0, "rental_uris": {"android": "https://dc.lft.to/lastmile_qr_scan", "ios": "https://dc.lft.to/lastmile_qr_scan"}, "type": "electric_scooter", "name": "e9ff3c51e0e9009d431c4e0ab0768230"}, {"bike_id": "104385fa8f817c776489673d3577760f", "lat": 38.905855, "is_disabled": 0, "lon": -77.0422815, "fusion_lon": 0.0, "is_reserved": 0, "fusion_lat": 0.0, "rental_uris": {"android": "https://dc.lft.to/lastmile_qr_scan", "ios": "https://dc.lft.to/lastmile_qr_scan"}, "type": "electric_scooter", "name": "104385fa8f817c776489673d3577760f"}, {"bike_id": "ffd15c518da0eb5e46b3b57f9d1fb58d", "lat": 38.937714166666666, "is_disabled": 0, "lon": -77.02298, "fusion_lon": 0.0, "is_reserved": 0, "fusion_lat": 0.0, "rental_uris": {"android": "https://dc.lft.to/lastmile_qr_scan", "ios": "https://dc.lft.to/lastmile_qr_scan"}, "type": "electric_scooter", "name": "ffd15c518da0eb5e46b3b57f9d1fb58d"}, {"bike_id": "70176c8b054316af3c8fb736f5860bc8", "lat": 38.880601166666665, "is_disabled": 0, "lon": -77.02555466666666, "fusion_lon": 0.0, "is_reserved": 0, "fusion_lat": 0.0, "rental_uris": {"android": "https://dc.lft.to/lastmile_qr_scan", "ios": "https://dc.lft.to/lastmile_qr_scan"}, "type": "electric_bike", "name": "70176c8b054316af3c8fb736f5860bc8"}, {"bike_id": "42a21e537ff5a0f12e488e97ba46aa35", "lat": 38.89467466666667, "is_disabled": 0, "lon": -77.01862333333334, "fusion_lon": 0.0, "is_reserved": 0, "fusion_lat": 0.0, "rental_uris": {"android": "https://dc.lft.to/lastmile_qr_scan", "ios": "https://dc.lft.to/lastmile_qr_scan"}, "type": "electric_scooter", "name": "42a21e537ff5a0f12e488e97ba46aa35"}, {"bike_id": "e199e02cd7bba87ffa8653974fb910c4", "lat": 38.87880283333333, "is_disabled": 0, "lon": -77.0074955, "fusion_lon": 0.0, "is_reserved": 0, "fusion_lat": 0.0, "rental_uris": {"android": "https://dc.lft.to/lastmile_qr_scan", "ios": "https://dc.lft.to/lastmile_qr_scan"}, "type": "electric_scooter", "name": "e199e02cd7bba87ffa8653974fb910c4"}, {"bike_id": "64d496366aed4563f727039bf4e77b8b", "lat": 38.997846, "is_disabled": 0, "lon": -77.00755933333333, "fusion_lon": 0.0, "is_reserved": 0, "fusion_lat": 0.0, "rental_uris": {"android": "https://dc.lft.to/lastmile_qr_scan", "ios": "https://dc.lft.to/lastmile_qr_scan"}, "type": "electric_bike", "name": "64d496366aed4563f727039bf4e77b8b"}, {"bike_id": "c1bb0bbdab28e9eb00a1eb71213bd20c", "lat": 38.892913666666665, "is_disabled": 0, "lon": -77.00197866666667, "fusion_lon": 0.0, "is_reserved": 0, "fusion_lat": 0.0, "rental_uris": {"android": "https://dc.lft.to/lastmile_qr_scan", "ios": "https://dc.lft.to/lastmile_qr_scan"}, "type": "electric_scooter", "name": "c1bb0bbdab28e9eb00a1eb71213bd20c"}, {"bike_id": "53cc2306916cd1115f21fc574806c8d0", "lat": 38.900269, "is_disabled": 0, "lon": -77.00210616666666, "fusion_lon": 0.0, "is_reserved": 0, "fusion_lat": 0.0, "rental_uris": {"android": "https://dc.lft.to/lastmile_qr_scan", "ios": "https://dc.lft.to/lastmile_qr_scan"}, "type": "electric_scooter", "name": "53cc2306916cd1115f21fc574806c8d0"}, {"bike_id": "f983e76daf028f2eb9598ad8d65b9ccb", "lat": 38.920103166666664, "is_disabled": 0, "lon": -76.99566533333333, "fusion_lon": 0.0, "is_reserved": 0, "fusion_lat": 0.0, "rental_uris": {"android": "https://dc.lft.to/lastmile_qr_scan", "ios": "https://dc.lft.to/lastmile_qr_scan"}, "type": "electric_scooter", "name": "f983e76daf028f2eb9598ad8d65b9ccb"}, {"bike_id": "77da6844ff9b95976c948bcf14ab2001", "lat": 38.839922333333334, "is_disabled": 0, "lon": -76.97700383333333, "fusion_lon": 0.0, "is_reserved": 0, "fusion_lat": 0.0, "rental_uris": {"android": "https://dc.lft.to/lastmile_qr_scan", "ios": "https://dc.lft.to/lastmile_qr_scan"}, "type": "electric_bike", "name": "77da6844ff9b95976c948bcf14ab2001"}, {"bike_id": "7002e36eb2f6b804274ca7618772056f", "lat": 38.90380783333333, "is_disabled": 0, "lon": -77.04802016666666, "fusion_lon": 0.0, "is_reserved": 0, "fusion_lat": 0.0, "rental_uris": {"android": "https://dc.lft.to/lastmile_qr_scan", "ios": "https://dc.lft.to/lastmile_qr_scan"}, "type": "electric_scooter", "name": "7002e36eb2f6b804274ca7618772056f"}, {"bike_id": "0ed9d56d6e07a2afc92de01ab5b553a8", "lat": 38.898713, "is_disabled": 0, "lon": -77.00904466666667, "fusion_lon": 0.0, "is_reserved": 0, "fusion_lat": 0.0, "rental_uris": {"android": "https://dc.lft.to/lastmile_qr_scan", "ios": "https://dc.lft.to/lastmile_qr_scan"}, "type": "electric_scooter", "name": "0ed9d56d6e07a2afc92de01ab5b553a8"}, {"bike_id": "82d2d199c7de6091daf7c9dd8dc11303", "lat": 38.890577666666665, "is_disabled": 0, "lon": -77.02544766666666, "fusion_lon": 0.0, "is_reserved": 0, "fusion_lat": 0.0, "rental_uris": {"android": "https://dc.lft.to/lastmile_qr_scan", "ios": "https://dc.lft.to/lastmile_qr_scan"}, "type": "electric_scooter", "name": "82d2d199c7de6091daf7c9dd8dc11303"}, {"bike_id": "dad5d7f4a079e07eb01e21d2f4dd64e8", "lat": 38.906614166666664, "is_disabled": 0, "lon": -76.9793725, "fusion_lon": 0.0, "is_reserved": 0, "fusion_lat": 0.0, "rental_uris": {"android": "https://dc.lft.to/lastmile_qr_scan", "ios": "https://dc.lft.to/lastmile_qr_scan"}, "type": "electric_scooter", "name": "dad5d7f4a079e07eb01e21d2f4dd64e8"}, {"bike_id": "c7686e944e2e223b229f652f607a1b23", "lat": 38.88206233333333, "is_disabled": 0, "lon": -77.01770866666666, "fusion_lon": 0.0, "is_reserved": 0, "fusion_lat": 0.0, "rental_uris": {"android": "https://dc.lft.to/lastmile_qr_scan", "ios": "https://dc.lft.to/lastmile_qr_scan"}, "type": "electric_scooter", "name": "c7686e944e2e223b229f652f607a1b23"}, {"bike_id": "c841a9b9ef24301602c32b377f7ecdb4", "lat": 38.913317, "is_disabled": 0, "lon": -77.03318616666667, "fusion_lon": 0.0, "is_reserved": 0, "fusion_lat": 0.0, "rental_uris": {"android": "https://dc.lft.to/lastmile_qr_scan", "ios": "https://dc.lft.to/lastmile_qr_scan"}, "type": "electric_scooter", "name": "c841a9b9ef24301602c32b377f7ecdb4"}, {"bike_id": "4964a99600364f8686e6d0747a2d88e1", "lat": 38.87573, "is_disabled": 0, "lon": -77.00599183333334, "fusion_lon": 0.0, "is_reserved": 0, "fusion_lat": 0.0, "rental_uris": {"android": "https://dc.lft.to/lastmile_qr_scan", "ios": "https://dc.lft.to/lastmile_qr_scan"}, "type": "electric_scooter", "name": "4964a99600364f8686e6d0747a2d88e1"}, {"bike_id": "731fbbcd790e369d483b56f830ba162d", "lat": 38.898044, "is_disabled": 0, "lon": -77.04183766666667, "fusion_lon": 0.0, "is_reserved": 0, "fusion_lat": 0.0, "rental_uris": {"android": "https://dc.lft.to/lastmile_qr_scan", "ios": "https://dc.lft.to/lastmile_qr_scan"}, "type": "electric_scooter", "name": "731fbbcd790e369d483b56f830ba162d"}, {"bike_id": "8de91dc467df3b010d541858ffb42478", "lat": 38.952142, "is_disabled": 0, "lon": -77.01977316666667, "fusion_lon": 0.0, "is_reserved": 0, "fusion_lat": 0.0, "rental_uris": {"android": "https://dc.lft.to/lastmile_qr_scan", "ios": "https://dc.lft.to/lastmile_qr_scan"}, "type": "electric_scooter", "name": "8de91dc467df3b010d541858ffb42478"}, {"bike_id": "a83c170be32eee34b48010c7ab50f1d3", "lat": 38.91578883333333, "is_disabled": 0, "lon": -76.993378, "fusion_lon": 0.0, "is_reserved": 0, "fusion_lat": 0.0, "rental_uris": {"android": "https://dc.lft.to/lastmile_qr_scan", "ios": "https://dc.lft.to/lastmile_qr_scan"}, "type": "electric_scooter", "name": "a83c170be32eee34b48010c7ab50f1d3"}, {"bike_id": "d3ca72ce4e5c58bceaebcc348a199c0f", "lat": 38.89013583333333, "is_disabled": 0, "lon": -76.937459, "fusion_lon": 0.0, "is_reserved": 0, "fusion_lat": 0.0, "rental_uris": {"android": "https://dc.lft.to/lastmile_qr_scan", "ios": "https://dc.lft.to/lastmile_qr_scan"}, "type": "electric_scooter", "name": "d3ca72ce4e5c58bceaebcc348a199c0f"}, {"bike_id": "5f92a5a929429cbbfa329c2741380243", "lat": 38.904922666666664, "is_disabled": 0, "lon": -77.04947216666666, "fusion_lon": 0.0, "is_reserved": 0, "fusion_lat": 0.0, "rental_uris": {"android": "https://dc.lft.to/lastmile_qr_scan", "ios": "https://dc.lft.to/lastmile_qr_scan"}, "type": "electric_scooter", "name": "5f92a5a929429cbbfa329c2741380243"}, {"bike_id": "41a594620a73c17636f44afdb50b6296", "lat": 38.910515333333336, "is_disabled": 0, "lon": -77.05022116666666, "fusion_lon": 0.0, "is_reserved": 0, "fusion_lat": 0.0, "rental_uris": {"android": "https://dc.lft.to/lastmile_qr_scan", "ios": "https://dc.lft.to/lastmile_qr_scan"}, "type": "electric_scooter", "name": "41a594620a73c17636f44afdb50b6296"}, {"bike_id": "dc21e939f3128b37fdd224e255eef476", "lat": 38.90143716666667, "is_disabled": 0, "lon": -77.02311033333334, "fusion_lon": 0.0, "is_reserved": 0, "fusion_lat": 0.0, "rental_uris": {"android": "https://dc.lft.to/lastmile_qr_scan", "ios": "https://dc.lft.to/lastmile_qr_scan"}, "type": "electric_scooter", "name": "dc21e939f3128b37fdd224e255eef476"}, {"bike_id": "867b06a4002f0e094602b9a9c2c28325", "lat": 38.93160016666667, "is_disabled": 0, "lon": -77.02362666666667, "fusion_lon": 0.0, "is_reserved": 0, "fusion_lat": 0.0, "rental_uris": {"android": "https://dc.lft.to/lastmile_qr_scan", "ios": "https://dc.lft.to/lastmile_qr_scan"}, "type": "electric_scooter", "name": "867b06a4002f0e094602b9a9c2c28325"}, {"bike_id": "10a62322557e17d095380b009faa58d9", "lat": 38.8923715, "is_disabled": 0, "lon": -77.04673716666667, "fusion_lon": 0.0, "is_reserved": 0, "fusion_lat": 0.0, "rental_uris": {"android": "https://dc.lft.to/lastmile_qr_scan", "ios": "https://dc.lft.to/lastmile_qr_scan"}, "type": "electric_scooter", "name": "10a62322557e17d095380b009faa58d9"}, {"bike_id": "15aae330005c0ef8e43fb712e25ecb86", "lat": 38.922406, "is_disabled": 0, "lon": -77.03134866666667, "fusion_lon": 0.0, "is_reserved": 0, "fusion_lat": 0.0, "rental_uris": {"android": "https://dc.lft.to/lastmile_qr_scan", "ios": "https://dc.lft.to/lastmile_qr_scan"}, "type": "electric_scooter", "name": "15aae330005c0ef8e43fb712e25ecb86"}, {"bike_id": "23bf77176fc175c97fce31824f94530f", "lat": 38.895116, "is_disabled": 0, "lon": -77.0107975, "fusion_lon": 0.0, "is_reserved": 0, "fusion_lat": 0.0, "rental_uris": {"android": "https://dc.lft.to/lastmile_qr_scan", "ios": "https://dc.lft.to/lastmile_qr_scan"}, "type": "electric_scooter", "name": "23bf77176fc175c97fce31824f94530f"}, {"bike_id": "605f0b9f9af48ee8039365a06c213745", "lat": 38.871727166666666, "is_disabled": 0, "lon": -77.00579033333334, "fusion_lon": 0.0, "is_reserved": 0, "fusion_lat": 0.0, "rental_uris": {"android": "https://dc.lft.to/lastmile_qr_scan", "ios": "https://dc.lft.to/lastmile_qr_scan"}, "type": "electric_scooter", "name": "605f0b9f9af48ee8039365a06c213745"}, {"bike_id": "6cd37ee2ed9d2a2ec80804ba6d8be887", "lat": 38.886268, "is_disabled": 0, "lon": -77.02223866666667, "fusion_lon": 0.0, "is_reserved": 0, "fusion_lat": 0.0, "rental_uris": {"android": "https://dc.lft.to/lastmile_qr_scan", "ios": "https://dc.lft.to/lastmile_qr_scan"}, "type": "electric_scooter", "name": "6cd37ee2ed9d2a2ec80804ba6d8be887"}, {"bike_id": "23c018d457012a1807c157c22873558d", "lat": 38.91857866666667, "is_disabled": 0, "lon": -77.08996233333333, "fusion_lon": 0.0, "is_reserved": 0, "fusion_lat": 0.0, "rental_uris": {"android": "https://dc.lft.to/lastmile_qr_scan", "ios": "https://dc.lft.to/lastmile_qr_scan"}, "type": "electric_scooter", "name": "23c018d457012a1807c157c22873558d"}, {"bike_id": "2ac64993f14aa109cb39da54de126231", "lat": 38.887193833333335, "is_disabled": 0, "lon": -77.02193216666667, "fusion_lon": 0.0, "is_reserved": 0, "fusion_lat": 0.0, "rental_uris": {"android": "https://dc.lft.to/lastmile_qr_scan", "ios": "https://dc.lft.to/lastmile_qr_scan"}, "type": "electric_scooter", "name": "2ac64993f14aa109cb39da54de126231"}, {"bike_id": "b6e53e6593febf7798262a86b64db36d", "lat": 38.8922035, "is_disabled": 0, "lon": -77.04512783333334, "fusion_lon": 0.0, "is_reserved": 0, "fusion_lat": 0.0, "rental_uris": {"android": "https://dc.lft.to/lastmile_qr_scan", "ios": "https://dc.lft.to/lastmile_qr_scan"}, "type": "electric_scooter", "name": "b6e53e6593febf7798262a86b64db36d"}, {"bike_id": "dfb6a517cdb869fa3b8981136fad1443", "lat": 38.89231383333333, "is_disabled": 0, "lon": -77.048723, "fusion_lon": 0.0, "is_reserved": 0, "fusion_lat": 0.0, "rental_uris": {"android": "https://dc.lft.to/lastmile_qr_scan", "ios": "https://dc.lft.to/lastmile_qr_scan"}, "type": "electric_scooter", "name": "dfb6a517cdb869fa3b8981136fad1443"}, {"bike_id": "1197daaefa6ee6e53c6a3bae00665099", "lat": 38.917763, "is_disabled": 0, "lon": -77.023107, "fusion_lon": 0.0, "is_reserved": 0, "fusion_lat": 0.0, "rental_uris": {"android": "https://dc.lft.to/lastmile_qr_scan", "ios": "https://dc.lft.to/lastmile_qr_scan"}, "type": "electric_scooter", "name": "1197daaefa6ee6e53c6a3bae00665099"}, {"bike_id": "45f2c76e5c59e1cfbff41707fc6bb23c", "lat": 38.91981616666666, "is_disabled": 0, "lon": -77.04086766666667, "fusion_lon": 0.0, "is_reserved": 0, "fusion_lat": 0.0, "rental_uris": {"android": "https://dc.lft.to/lastmile_qr_scan", "ios": "https://dc.lft.to/lastmile_qr_scan"}, "type": "electric_scooter", "name": "45f2c76e5c59e1cfbff41707fc6bb23c"}, {"bike_id": "bb6bd40e917d26250bd74b3abd56f60f", "lat": 38.900246, "is_disabled": 0, "lon": -76.991936, "fusion_lon": 0.0, "is_reserved": 0, "fusion_lat": 0.0, "rental_uris": {"android": "https://dc.lft.to/lastmile_qr_scan", "ios": "https://dc.lft.to/lastmile_qr_scan"}, "type": "electric_scooter", "name": "bb6bd40e917d26250bd74b3abd56f60f"}, {"bike_id": "e2193d8a574e32fb46d3290e3530d363", "lat": 38.819978166666665, "is_disabled": 0, "lon": -76.99806783333334, "fusion_lon": 0.0, "is_reserved": 0, "fusion_lat": 0.0, "rental_uris": {"android": "https://dc.lft.to/lastmile_qr_scan", "ios": "https://dc.lft.to/lastmile_qr_scan"}, "type": "electric_bike", "name": "e2193d8a574e32fb46d3290e3530d363"}, {"bike_id": "0bf170087f83ea3d8bf5156892434ca0", "lat": 38.895911, "is_disabled": 0, "lon": -77.04749633333333, "fusion_lon": 0.0, "is_reserved": 0, "fusion_lat": 0.0, "rental_uris": {"android": "https://dc.lft.to/lastmile_qr_scan", "ios": "https://dc.lft.to/lastmile_qr_scan"}, "type": "electric_scooter", "name": "0bf170087f83ea3d8bf5156892434ca0"}, {"bike_id": "d7dbc1d9378f7dad989dc96c55be778c", "lat": 38.912040166666664, "is_disabled": 0, "lon": -76.98766783333333, "fusion_lon": 0.0, "is_reserved": 0, "fusion_lat": 0.0, "rental_uris": {"android": "https://dc.lft.to/lastmile_qr_scan", "ios": "https://dc.lft.to/lastmile_qr_scan"}, "type": "electric_scooter", "name": "d7dbc1d9378f7dad989dc96c55be778c"}, {"bike_id": "cee593921dd542e905b4a40d2fdc17ee", "lat": 38.9077965, "is_disabled": 0, "lon": -77.07250216666667, "fusion_lon": 0.0, "is_reserved": 0, "fusion_lat": 0.0, "rental_uris": {"android": "https://dc.lft.to/lastmile_qr_scan", "ios": "https://dc.lft.to/lastmile_qr_scan"}, "type": "electric_scooter", "name": "cee593921dd542e905b4a40d2fdc17ee"}, {"bike_id": "89e47ed3c0f37f3aea6b47c7115c3cc9", "lat": 38.903993166666666, "is_disabled": 0, "lon": -77.00764883333333, "fusion_lon": 0.0, "is_reserved": 0, "fusion_lat": 0.0, "rental_uris": {"android": "https://dc.lft.to/lastmile_qr_scan", "ios": "https://dc.lft.to/lastmile_qr_scan"}, "type": "electric_scooter", "name": "89e47ed3c0f37f3aea6b47c7115c3cc9"}, {"bike_id": "70b3287c0e1ec9e0c7c7ee95a2135ae0", "lat": 38.90515366666666, "is_disabled": 0, "lon": -77.06381283333333, "fusion_lon": 0.0, "is_reserved": 0, "fusion_lat": 0.0, "rental_uris": {"android": "https://dc.lft.to/lastmile_qr_scan", "ios": "https://dc.lft.to/lastmile_qr_scan"}, "type": "electric_scooter", "name": "70b3287c0e1ec9e0c7c7ee95a2135ae0"}, {"bike_id": "1ddcfee4c40f394ba58ed538d06eb4b0", "lat": 38.92451283333333, "is_disabled": 0, "lon": -77.02036333333334, "fusion_lon": 0.0, "is_reserved": 0, "fusion_lat": 0.0, "rental_uris": {"android": "https://dc.lft.to/lastmile_qr_scan", "ios": "https://dc.lft.to/lastmile_qr_scan"}, "type": "electric_scooter", "name": "1ddcfee4c40f394ba58ed538d06eb4b0"}, {"bike_id": "aa2265aa0f16e2b021a0321873896ded", "lat": 38.892228, "is_disabled": 0, "lon": -77.04688033333333, "fusion_lon": 0.0, "is_reserved": 0, "fusion_lat": 0.0, "rental_uris": {"android": "https://dc.lft.to/lastmile_qr_scan", "ios": "https://dc.lft.to/lastmile_qr_scan"}, "type": "electric_scooter", "name": "aa2265aa0f16e2b021a0321873896ded"}, {"bike_id": "6c7ba287bfaf3380af6a22ad4b4d0148", "lat": 38.895051333333335, "is_disabled": 0, "lon": -77.00332316666666, "fusion_lon": 0.0, "is_reserved": 0, "fusion_lat": 0.0, "rental_uris": {"android": "https://dc.lft.to/lastmile_qr_scan", "ios": "https://dc.lft.to/lastmile_qr_scan"}, "type": "electric_scooter", "name": "6c7ba287bfaf3380af6a22ad4b4d0148"}, {"bike_id": "b9ca7046a3dfa98823dcbcb90675584b", "lat": 38.91548933333333, "is_disabled": 0, "lon": -77.03138766666666, "fusion_lon": 0.0, "is_reserved": 0, "fusion_lat": 0.0, "rental_uris": {"android": "https://dc.lft.to/lastmile_qr_scan", "ios": "https://dc.lft.to/lastmile_qr_scan"}, "type": "electric_scooter", "name": "b9ca7046a3dfa98823dcbcb90675584b"}, {"bike_id": "c22e048c141b2b9c2f9352e0c0fbc42a", "lat": 38.957752166666666, "is_disabled": 0, "lon": -77.024631, "fusion_lon": 0.0, "is_reserved": 0, "fusion_lat": 0.0, "rental_uris": {"android": "https://dc.lft.to/lastmile_qr_scan", "ios": "https://dc.lft.to/lastmile_qr_scan"}, "type": "electric_scooter", "name": "c22e048c141b2b9c2f9352e0c0fbc42a"}, {"bike_id": "f2a1aad1e9a3f9417bc86939af28295a", "lat": 38.89000333333333, "is_disabled": 0, "lon": -77.00348516666666, "fusion_lon": 0.0, "is_reserved": 0, "fusion_lat": 0.0, "rental_uris": {"android": "https://dc.lft.to/lastmile_qr_scan", "ios": "https://dc.lft.to/lastmile_qr_scan"}, "type": "electric_scooter", "name": "f2a1aad1e9a3f9417bc86939af28295a"},