{"data": {"bikes": [{"fusion_lon": 0.0, "fusion_lat": 0.0, "rental_uris": {"ios": "https://dc.lft.to/lastmile_qr_scan", "android": "https://dc.lft.to/lastmile_qr_scan"}, "is_disabled": 0, "bike_id": "da20c2e7cfa960504c0d291a2c5b634e", "lat": 38.89192166666667, "is_reserved": 0, "lon": -76.998422, "name": "da20c2e7cfa960504c0d291a2c5b634e", "type": "electric_scooter"}, {"fusion_lon": 0.0, "fusion_lat": 0.0, "rental_uris": {"ios": "https://dc.lft.to/lastmile_qr_scan", "android": "https://dc.lft.to/lastmile_qr_scan"}, "is_disabled": 0, "bike_id": "8f465e4e34de5eb99c2b76dafb773ae7", "lat": 38.88739116666667, "is_reserved": 0, "lon": -77.02834533333333, "name": "8f465e4e34de5eb99c2b76dafb773ae7", "type": "electric_scooter"}, {"fusion_lon": 0.0, "fusion_lat": 0.0, "rental_uris": {"ios": "https://dc.lft.to/lastmile_qr_scan", "android": "https://dc.lft.to/lastmile_qr_scan"}, "is_disabled": 0, "bike_id": "e8aca7d440f2b4cdd39965b79c2a58a4", "lat": 38.94091866666667, "is_reserved": 0, "lon": -77.05271266666666, "name": "e8aca7d440f2b4cdd39965b79c2a58a4", "type": "electric_bike"}, {"fusion_lon": 0.0, "fusion_lat": 0.0, "rental_uris": {"ios": "https://dc.lft.to/lastmile_qr_scan", "android": "https://dc.lft.to/lastmile_qr_scan"}, "is_disabled": 0, "bike_id": "d692a1b65ea0c4c90b4108b31852ecc2", "lat": 38.8966145, "is_reserved": 0, "lon": -77.05130266666667, "name": "d692a1b65ea0c4c90b4108b31852ecc2", "type": "electric_scooter"}, {"fusion_lon": 0.0, "fusion_lat": 0.0, "rental_uris": {"ios": "https://dc.lft.to/lastmile_qr_scan", "android": "https://dc.lft.to/lastmile_qr_scan"}, "is_disabled": 0, "bike_id": "98f6d3afe220b2483bfa3d6f92fd2425", "lat": 38.995087, "is_reserved": 0, "lon": -77.00721066666667, "name": "98f6d3afe220b2483bfa3d6f92fd2425", "type": "electric_bike"}, {"fusion_lon": 0.0, "fusion_lat": 0.0, "rental_uris": {"ios": "https://dc.lft.to/lastmile_qr_scan", "android": "https://dc.lft.to/lastmile_qr_scan"}, "is_disabled": 0, "bike_id": "f59433262904ce0d330716f4595b69b2", "lat": 38.91667366666667, "is_reserved": 0, "lon": -77.029646, "name": "f59433262904ce0d330716f4595b69b2", "type": "electric_scooter"}, {"fusion_lon": 0.0, "fusion_lat": 0.0, "rental_uris": {"ios": "https://dc.lft.to/lastmile_qr_scan", "android": "https://dc.lft.to/lastmile_qr_scan"}, "is_disabled": 0, "bike_id": "a3e7e00f5ebeb995448a0eb7ece8deec", "lat": 38.905006, "is_reserved": 0, "lon": -77.06141616666666, "name": "a3e7e00f5ebeb995448a0eb7ece8deec", "type": "electric_scooter"}, {"fusion_lon": 0.0, "fusion_lat": 0.0, "rental_uris": {"ios": "https://dc.lft.to/lastmile_qr_scan", "android": "https://dc.lft.to/lastmile_qr_scan"}, "is_disabled": 0, "bike_id": "48a0654d12867f9e8303d1cd36739a05", "lat": 38.87739033333333, "is_reserved": 0, "lon": -76.99629066666667, "name": "48a0654d12867f9e8303d1cd36739a05", "type": "electric_scooter"}, {"fusion_lon": 0.0, "fusion_lat": 0.0, "rental_uris": {"ios": "https://dc.lft.to/lastmile_qr_scan", "android": "https://dc.lft.to/lastmile_qr_scan"}, "is_disabled": 0, "bike_id": "504f0687749cda04786d515b1bad0d25", "lat": 38.898921666666666, "is_reserved": 0, "lon": -77.03992216666667, "name": "504f0687749cda04786d515b1bad0d25", "type": "electric_scooter"}, {"fusion_lon": 0.0, "fusion_lat": 0.0, "rental_uris": {"ios": "https://dc.lft.to/lastmile_qr_scan", "android": "https://dc.lft.to/lastmile_qr_scan"}, "is_disabled": 0, "bike_id": "8a04f38ce1c08a9ea3b6a1e9c178b5cc", "lat": 38.89728483333333, "is_reserved": 0, "lon": -77.02323116666666, "name": "8a04f38ce1c08a9ea3b6a1e9c178b5cc", "type": "electric_scooter"}, {"fusion_lon": 0.0, "fusion_lat": 0.0, "rental_uris": {"ios": "https://dc.lft.to/lastmile_qr_scan", "android": "https://dc.lft.to/lastmile_qr_scan"}, "is_disabled": 0, "bike_id": "ed1dfa0fc3a201a32c3052c053cbf075", "lat": 38.9552785, "is_reserved": 0, "lon": -77.0698535, "name": "ed1dfa0fc3a201a32c3052c053cbf075", "type": "electric_scooter"}, {"fusion_lon": 0.0, "fusion_lat": 0.0, "rental_uris": {"ios": "https://dc.lft.to/lastmile_qr_scan", "android": "https://dc.lft.to/lastmile_qr_scan"}, "is_disabled": 0, "bike_id": "140e996820717f6ddf7e5766f92462fa", "lat": 38.905304666666666, "is_reserved": 0, "lon": -77.05011533333334, "name": "140e996820717f6ddf7e5766f92462fa", "type": "electric_scooter"}, {"fusion_lon": 0.0, "fusion_lat": 0.0, "rental_uris": {"ios": "https://dc.lft.to/lastmile_qr_scan", "android": "https://dc.lft.to/lastmile_qr_scan"}, "is_disabled": 0, "bike_id": "75549f79bddddf36eb71aa8279cad838", "lat": 38.895529, "is_reserved": 0, "lon": -77.047318, "name": "75549f79bddddf36eb71aa8279cad838", "type": "electric_scooter"}, {"fusion_lon": 0.0, "fusion_lat": 0.0, "rental_uris": {"ios": "https://dc.lft.to/lastmile_qr_scan", "android": "https://dc.lft.to/lastmile_qr_scan"}, "is_disabled": 0, "bike_id": "1c7b405aaac6c2070aac0ffc1486b493", "lat": 38.902505, "is_reserved": 0, "lon": -77.04613716666667, "name": "1c7b405aaac6c2070aac0ffc1486b493", "type": "electric_scooter"}, {"fusion_lon": 0.0, "fusion_lat": 0.0, "rental_uris": {"ios": "https://dc.lft.to/lastmile_qr_scan", "android": "https://dc.lft.to/lastmile_qr_scan"}, "is_disabled": 0, "bike_id": "19b3a4d2e3f7e8be251a178f89309434", "lat": 38.9245145, "is_reserved": 0, "lon": -77.05753633333333, "name": "19b3a4d2e3f7e8be251a178f89309434", "type": "electric_scooter"}, {"fusion_lon": 0.0, "fusion_lat": 0.0, "rental_uris": {"ios": "https://dc.lft.to/lastmile_qr_scan", "android": "https://dc.lft.to/lastmile_qr_scan"}, "is_disabled": 0, "bike_id": "641d8933054dec8a95b21986b752261d", "lat": 38.90526533333333, "is_reserved": 0, "lon": -77.01780116666667, "name": "641d8933054dec8a95b21986b752261d", "type": "electric_scooter"}, {"fusion_lon": 0.0, "fusion_lat": 0.0, "rental_uris": {"ios": "https://dc.lft.to/lastmile_qr_scan", "android": "https://dc.lft.to/lastmile_qr_scan"}, "is_disabled": 0, "bike_id": "d9f8ce83ae44adf772cd4cc0c2f39922", "lat": 38.898577333333336, "is_reserved": 0, "lon": -76.9318955, "name": "d9f8ce83ae44adf772cd4cc0c2f39922", "type": "electric_scooter"}, {"fusion_lon": 0.0, "fusion_lat": 0.0, "rental_uris": {"ios": "https://dc.lft.to/lastmile_qr_scan", "android": "https://dc.lft.to/lastmile_qr_scan"}, "is_disabled": 0, "bike_id": "5ab3453e666af324f2fa9c111ceb93e2", "lat": 38.9184265, "is_reserved": 0, "lon": -77.03214833333334, "name": "5ab3453e666af324f2fa9c111ceb93e2", "type": "electric_scooter"}, {"fusion_lon": 0.0, "fusion_lat": 0.0, "rental_uris": {"ios": "https://dc.lft.to/lastmile_qr_scan", "android": "https://dc.lft.to/lastmile_qr_scan"}, "is_disabled": 0, "bike_id": "321963dc8e0b8804b663f03a298a8763", "lat": 38.922742666666664, "is_reserved": 0, "lon": -77.03664783333333, "name": "321963dc8e0b8804b663f03a298a8763", "type": "electric_scooter"}, {"fusion_lon": 0.0, "fusion_lat": 0.0, "rental_uris": {"ios": "https://dc.lft.to/lastmile_qr_scan", "android": "https://dc.lft.to/lastmile_qr_scan"}, "is_disabled": 0, "bike_id": "fec102aa3e30809a6ab40e76d05b1331", "lat": 38.912606333333336, "is_reserved": 0, "lon": -77.01020316666667, "name": "fec102aa3e30809a6ab40e76d05b1331", "type": "electric_scooter"}, {"fusion_lon": 0.0, "fusion_lat": 0.0, "rental_uris": {"ios": "https://dc.lft.to/lastmile_qr_scan", "android": "https://dc.lft.to/lastmile_qr_scan"}, "is_disabled": 0, "bike_id": "fa8b631e8c9074dd1f130ec05c36a129", "lat": 38.88598016666667, "is_reserved": 0, "lon": -77.01555233333333, "name": "fa8b631e8c9074dd1f130ec05c36a129", "type": "electric_scooter"}, {"fusion_lon": 0.0, "fusion_lat": 0.0, "rental_uris": {"ios": "https://dc.lft.to/lastmile_qr_scan", "android": "https://dc.lft.to/lastmile_qr_scan"}, "is_disabled": 0, "bike_id": "463d31548a5ae9a8d77e59185218f673", "lat": 38.932488166666666, "is_reserved": 0, "lon": -76.99666416666666, "name": "463d31548a5ae9a8d77e59185218f673", "type": "electric_scooter"}, {"fusion_lon": 0.0, "fusion_lat": 0.0, "rental_uris": {"ios": "https://dc.lft.to/lastmile_qr_scan", "android": "https://dc.lft.to/lastmile_qr_scan"}, "is_disabled": 0, "bike_id": "8a05b3dfa34c68ddc1628e0d8d920f1a", "lat": 38.903077833333334, "is_reserved": 0, "lon": -77.05190866666666, "name": "8a05b3dfa34c68ddc1628e0d8d920f1a", "type": "electric_scooter"}, {"fusion_lon": 0.0, "fusion_lat": 0.0, "rental_uris": {"ios": "https://dc.lft.to/lastmile_qr_scan", "android": "https://dc.lft.to/lastmile_qr_scan"}, "is_disabled": 0, "bike_id": "d84195fff5c08d19e9f8ee770bdf8bd3", "lat": 38.936886, "is_reserved": 0, "lon": -76.9863685, "name": "d84195fff5c08d19e9f8ee770bdf8bd3", "type": "electric_bike"}, {"fusion_lon": 0.0, "fusion_lat": 0.0, "rental_uris": {"ios": "https://dc.lft.to/lastmile_qr_scan", "android": "https://dc.lft.to/lastmile_qr_scan"}, "is_disabled": 0, "bike_id": "578da6fcde79502688dc509d2b528d2f", "lat": 38.9090875, "is_reserved": 0, "lon": -76.99184116666666, "name": "578da6fcde79502688dc509d2b528d2f", "type": "electric_scooter"}, {"fusion_lon": 0.0, "fusion_lat": 0.0, "rental_uris": {"ios": "https://dc.lft.to/lastmile_qr_scan", "android": "https://dc.lft.to/lastmile_qr_scan"}, "is_disabled": 0, "bike_id": "2f94f45c5999f53d360bac4af6aa72ed", "lat": 38.900888, "is_reserved": 0, "lon": -76.98333766666667, "name": "2f94f45c5999f53d360bac4af6aa72ed", "type": "electric_scooter"}, {"fusion_lon": 0.0, "fusion_lat": 0.0, "rental_uris": {"ios": "https://dc.lft.to/lastmile_qr_scan", "android": "https://dc.lft.to/lastmile_qr_scan"}, "is_disabled": 0, "bike_id": "0748f31087fe589d0e9eb851608bd0c4", "lat": 38.9382365, "is_reserved": 0, "lon": -77.08632466666667, "name": "0748f31087fe589d0e9eb851608bd0c4", "type": "electric_scooter"}, {"fusion_lon": 0.0, "fusion_lat": 0.0, "rental_uris": {"ios": "https://dc.lft.to/lastmile_qr_scan", "android": "https://dc.lft.to/lastmile_qr_scan"}, "is_disabled": 0, "bike_id": "64876f2384d88f0baf9a0614c0e47fb4", "lat": 38.91932333333333, "is_reserved": 0, "lon": -77.0318695, "name": "64876f2384d88f0baf9a0614c0e47fb4", "type": "electric_scooter"}, {"fusion_lon": 0.0, "fusion_lat": 0.0, "rental_uris": {"ios": "https://dc.lft.to/lastmile_qr_scan", "android": "https://dc.lft.to/lastmile_qr_scan"}, "is_disabled": 0, "bike_id": "2b56ddad3bf44f050a5e969aa329cae8", "lat": 38.901336666666666, "is_reserved": 0, "lon": -77.041481, "name": "2b56ddad3bf44f050a5e969aa329cae8", "type": "electric_scooter"}, {"fusion_lon": 0.0, "fusion_lat": 0.0, "rental_uris": {"ios": "https://dc.lft.to/lastmile_qr_scan", "android": "https://dc.lft.to/lastmile_qr_scan"}, "is_disabled": 0, "bike_id": "8d2fa3622bb5d2a4a29855f958632e96", "lat": 38.90535933333334, "is_reserved": 0, "lon": -77.04342016666666, "name": "8d2fa3622bb5d2a4a29855f958632e96", "type": "electric_scooter"}, {"fusion_lon": 0.0, "fusion_lat": 0.0, "rental_uris": {"ios": "https://dc.lft.to/lastmile_qr_scan", "android": "https://dc.lft.to/lastmile_qr_scan"}, "is_disabled": 0, "bike_id": "f5667795d8147b9be9868ffd82a1a5ca", "lat": 38.908593, "is_reserved": 0, "lon": -77.01062466666667, "name": "f5667795d8147b9be9868ffd82a1a5ca", "type": "electric_scooter"}, {"fusion_lon": 0.0, "fusion_lat": 0.0, "rental_uris": {"ios": "https://dc.lft.to/lastmile_qr_scan", "android": "https://dc.lft.to/lastmile_qr_scan"}, "is_disabled": 0, "bike_id": "a18ad45fcdf2c1ea1654a45841eb2ed3", "lat": 38.95932666666667, "is_reserved": 0, "lon": -77.03161916666667, "name": "a18ad45fcdf2c1ea1654a45841eb2ed3", "type": "electric_scooter"}, {"fusion_lon": 0.0, "fusion_lat": 0.0, "rental_uris": {"ios": "https://dc.lft.to/lastmile_qr_scan", "android": "https://dc.lft.to/lastmile_qr_scan"}, "is_disabled": 0, "bike_id": "a8ef63fe65c6b01c392c62114e588c77", "lat": 38.89813766666666, "is_reserved": 0, "lon": -77.01361283333334, "name": "a8ef63fe65c6b01c392c62114e588c77", "type": "electric_scooter"}, {"fusion_lon": 0.0, "fusion_lat": 0.0, "rental_uris": {"ios": "https://dc.lft.to/lastmile_qr_scan", "android": "https://dc.lft.to/lastmile_qr_scan"}, "is_disabled": 0, "bike_id": "ed9e80edf19cbeab8b44e6f17cda4627", "lat": 38.91754366666667, "is_reserved": 0, "lon": -77.02296966666667, "name": "ed9e80edf19cbeab8b44e6f17cda4627", "type": "electric_scooter"}, {"fusion_lon": 0.0, "fusion_lat": 0.0, "rental_uris": {"ios": "https://dc.lft.to/lastmile_qr_scan", "android": "https://dc.lft.to/lastmile_qr_scan"}, "is_disabled": 0, "bike_id": "ca44f4dbd97eb24352dd46b2053e6fff", "lat": 38.92529283333333, "is_reserved": 0, "lon": -77.03856166666667, "name": "ca44f4dbd97eb24352dd46b2053e6fff", "type": "electric_scooter"}, {"fusion_lon": 0.0, "fusion_lat": 0.0, "rental_uris": {"ios": "https://dc.lft.to/lastmile_qr_scan", "android": "https://dc.lft.to/lastmile_qr_scan"}, "is_disabled": 0, "bike_id": "062dd59155d4dec8e136a0b42f6f2896", "lat": 38.91076833333333, "is_reserved": 0, "lon": -77.02200583333334, "name": "062dd59155d4dec8e136a0b42f6f2896", "type": "electric_scooter"}, {"fusion_lon": 0.0, "fusion_lat": 0.0, "rental_uris": {"ios": "https://dc.lft.to/lastmile_qr_scan", "android": "https://dc.lft.to/lastmile_qr_scan"}, "is_disabled": 0, "bike_id": "ac0dadb574752ca6a852d5a11ea092a7", "lat": 38.89970866666667, "is_reserved": 0, "lon": -77.03379383333333, "name": "ac0dadb574752ca6a852d5a11ea092a7", "type": "electric_scooter"}, {"fusion_lon": 0.0, "fusion_lat": 0.0, "rental_uris": {"ios": "https://dc.lft.to/lastmile_qr_scan", "android": "https://dc.lft.to/lastmile_qr_scan"}, "is_disabled": 0, "bike_id": "9af28f9af30daf83a2b0985c2e928a72", "lat": 38.904694666666664, "is_reserved": 0, "lon": -77.02822116666667, "name": "9af28f9af30daf83a2b0985c2e928a72", "type": "electric_scooter"}, {"fusion_lon": 0.0, "fusion_lat": 0.0, "rental_uris": {"ios": "https://dc.lft.to/lastmile_qr_scan", "android": "https://dc.lft.to/lastmile_qr_scan"}, "is_disabled": 0, "bike_id": "257e8d2edd50e41e47e634f5071790c9", "lat": 38.90349666666667, "is_reserved": 0, "lon": -77.052876, "name": "257e8d2edd50e41e47e634f5071790c9", "type": "electric_scooter"}, {"fusion_lon": 0.0, "fusion_lat": 0.0, "rental_uris": {"ios": "https://dc.lft.to/lastmile_qr_scan", "android": "https://dc.lft.to/lastmile_qr_scan"}, "is_disabled": 0, "bike_id": "36947983cff69421bac56f7e57614dde", "lat": 38.9096995, "is_reserved": 0, "lon": -77.01106483333334, "name": "36947983cff69421bac56f7e57614dde", "type": "electric_scooter"}, {"fusion_lon": 0.0, "fusion_lat": 0.0, "rental_uris": {"ios": "https://dc.lft.to/lastmile_qr_scan", "android": "https://dc.lft.to/lastmile_qr_scan"}, "is_disabled": 0, "bike_id": "e6b0069fd49136ae9698e0aff59991f2", "lat": 38.906697666666666, "is_reserved": 0, "lon": -77.0269165, "name": "e6b0069fd49136ae9698e0aff59991f2", "type": "electric_scooter"}, {"fusion_lon": 0.0, "fusion_lat": 0.0, "rental_uris": {"ios": "https://dc.lft.to/lastmile_qr_scan", "android": "https://dc.lft.to/lastmile_qr_scan"}, "is_disabled": 0, "bike_id": "ca7598aea7709d35c74381b73c1e1eaf", "lat": 38.9073625, "is_reserved": 0, "lon": -77.0452695, "name": "ca7598aea7709d35c74381b73c1e1eaf", "type": "electric_scooter"}, {"fusion_lon": 0.0, "fusion_lat": 0.0, "rental_uris": {"ios": "https://dc.lft.to/lastmile_qr_scan", "android": "https://dc.lft.to/lastmile_qr_scan"}, "is_disabled": 0, "bike_id": "edd644e1079425d98ca64aba86f270cd", "lat": 38.901523166666664, "is_reserved": 0, "lon": -77.02291816666667, "name": "edd644e1079425d98ca64aba86f270cd", "type": "electric_scooter"}, {"fusion_lon": 0.0, "fusion_lat": 0.0, "rental_uris": {"ios": "https://dc.lft.to/lastmile_qr_scan", "android": "https://dc.lft.to/lastmile_qr_scan"}, "is_disabled": 0, "bike_id": "84b0d38e7211aaefcd498c9d33f1402c", "lat": 38.92869483333333, "is_reserved": 0, "lon": -77.01926283333333, "name": "84b0d38e7211aaefcd498c9d33f1402c", "type": "electric_scooter"}, {"fusion_lon": 0.0, "fusion_lat": 0.0, "rental_uris": {"ios": "https://dc.lft.to/lastmile_qr_scan", "android": "https://dc.lft.to/lastmile_qr_scan"}, "is_disabled": 0, "bike_id": "1ae534f79fb2e687a0c42eb2a7e6d687", "lat": 38.914209, "is_reserved": 0, "lon": -77.0390635, "name": "1ae534f79fb2e687a0c42eb2a7e6d687", "type": "electric_scooter"}, {"fusion_lon": 0.0, "fusion_lat": 0.0, "rental_uris": {"ios": "https://dc.lft.to/lastmile_qr_scan", "android": "https://dc.lft.to/lastmile_qr_scan"}, "is_disabled": 0, "bike_id": "b3cf920b58ba5ecd42a9c459b22cdb9e", "lat": 38.90264666666667, "is_reserved": 0, "lon": -77.0516585, "name": "b3cf920b58ba5ecd42a9c459b22cdb9e", "type": "electric_scooter"}, {"fusion_lon": 0.0, "fusion_lat": 0.0, "rental_uris": {"ios": "https://dc.lft.to/lastmile_qr_scan", "android": "https://dc.lft.to/lastmile_qr_scan"}, "is_disabled": 0, "bike_id": "ae41079789a0df540647e3923402cbe4", "lat": 38.93064583333334, "is_reserved": 0, "lon": -77.02773416666666, "name": "ae41079789a0df540647e3923402cbe4", "type": "electric_scooter"}, {"fusion_lon": 0.0, "fusion_lat": 0.0, "rental_uris": {"ios": "https://dc.lft.to/lastmile_qr_scan", "android": "https://dc.lft.to/lastmile_qr_scan"}, "is_disabled": 0, "bike_id": "9405faec4f199108fccde237ae66d5fb", "lat": 38.894782666666664, "is_reserved": 0, "lon": -77.02115533333334, "name": "9405faec4f199108fccde237ae66d5fb", "type": "electric_scooter"}, {"fusion_lon": 0.0, "fusion_lat": 0.0, "rental_uris": {"ios": "https://dc.lft.to/lastmile_qr_scan", "android": "https://dc.lft.to/lastmile_qr_scan"}, "is_disabled": 0, "bike_id": "4297a3b41deedbb5a4bd40343d0b5da5", "lat": 38.89869866666667, "is_reserved": 0, "lon": -76.94663, "name": "4297a3b41deedbb5a4bd40343d0b5da5", "type": "electric_scooter"}, {"fusion_lon": 0.0, "fusion_lat": 0.0, "rental_uris": {"ios": "https://dc.lft.to/lastmile_qr_scan", "android": "https://dc.lft.to/lastmile_qr_scan"}, "is_disabled": 0, "bike_id": "0ff9af87c6341e6cb4c5d98a88dc78f7", "lat": 38.923821333333336, "is_reserved": 0, "lon": -77.02657, "name": "0ff9af87c6341e6cb4c5d98a88dc78f7", "type": "electric_scooter"}, {"fusion_lon": 0.0, "fusion_lat": 0.0, "rental_uris": {"ios": "https://dc.lft.to/lastmile_qr_scan", "android": "https://dc.lft.to/lastmile_qr_scan"}, "is_disabled": 0, "bike_id": "2dcd8beeaa5b4007bd9d2d2293ea5de9", "lat": 38.92021183333333, "is_reserved": 0, "lon": -77.04077216666667, "name": "2dcd8beeaa5b4007bd9d2d2293ea5de9", "type": "electric_scooter"}, {"fusion_lon": 0.0, "fusion_lat": 0.0, "rental_uris": {"ios": "https://dc.lft.to/lastmile_qr_scan", "android": "https://dc.lft.to/lastmile_qr_scan"}, "is_disabled": 0, "bike_id": "796d13c5007d51e8d8ce2f2c5f78f744", "lat": 38.93098116666667, "is_reserved": 0, "lon": -77.03097466666667, "name": "796d13c5007d51e8d8ce2f2c5f78f744", "type": "electric_scooter"}, {"fusion_lon": 0.0, "fusion_lat": 0.0, "rental_uris": {"ios": "https://dc.lft.to/lastmile_qr_scan", "android": "https://dc.lft.to/lastmile_qr_scan"}, "is_disabled": 0, "bike_id": "6b4c9d30c74d36efd70eeea59f5c184d", "lat": 38.90045083333333, "is_reserved": 0, "lon": -77.04327533333333, "name": "6b4c9d30c74d36efd70eeea59f5c184d", "type": "electric_scooter"}, {"fusion_lon": 0.0, "fusion_lat": 0.0, "rental_uris": {"ios": "https://dc.lft.to/lastmile_qr_scan", "android": "https://dc.lft.to/lastmile_qr_scan"}, "is_disabled": 0, "bike_id": "e323a5de818a9bf913d225da829d5842", "lat": 38.91560833333333, "is_reserved": 0, "lon": -77.03324533333333, "name": "e323a5de818a9bf913d225da829d5842", "type": "electric_scooter"}, {"fusion_lon": 0.0, "fusion_lat": 0.0, "rental_uris": {"ios": "https://dc.lft.to/lastmile_qr_scan", "android": "https://dc.lft.to/lastmile_qr_scan"}, "is_disabled": 0, "bike_id": "405544a1d80e87c183d65a8e93bfa66a", "lat": 38.950244166666664, "is_reserved": 0, "lon": -77.01407766666667, "name": "405544a1d80e87c183d65a8e93bfa66a", "type": "electric_bike"}, {"fusion_lon": 0.0, "fusion_lat": 0.0, "rental_uris": {"ios": "https://dc.lft.to/lastmile_qr_scan", "android": "https://dc.lft.to/lastmile_qr_scan"}, "is_disabled": 0, "bike_id": "e68f098804e6a423bdd025539e2af7b7", "lat": 38.905921666666664, "is_reserved": 0, "lon": -77.06987083333334, "name": "e68f098804e6a423bdd025539e2af7b7", "type": "electric_scooter"}, {"fusion_lon": 0.0, "fusion_lat": 0.0, "rental_uris": {"ios": "https://dc.lft.to/lastmile_qr_scan", "android": "https://dc.lft.to/lastmile_qr_scan"}, "is_disabled": 0, "bike_id": "a871d949adce17c718a9991343507b5c", "lat": 38.89716716666667, "is_reserved": 0, "lon": -77.02401133333333, "name": "a871d949adce17c718a9991343507b5c", "type": "electric_scooter"}, {"fusion_lon": 0.0, "fusion_lat": 0.0, "rental_uris": {"ios": "https://dc.lft.to/lastmile_qr_scan", "android": "https://dc.lft.to/lastmile_qr_scan"}, "is_disabled": 0, "bike_id": "6713909aadf8c1e93538a11efe556ea6", "lat": 38.91697533333333, "is_reserved": 0, "lon": -77.02998366666667, "name": "6713909aadf8c1e93538a11efe556ea6", "type": "electric_scooter"}, {"fusion_lon": 0.0, "fusion_lat": 0.0, "rental_uris": {"ios": "https://dc.lft.to/lastmile_qr_scan", "android": "https://dc.lft.to/lastmile_qr_scan"}, "is_disabled": 0, "bike_id": "0a1479a9db659d259c29b18a5748d9a7", "lat": 38.906765, "is_reserved": 0, "lon": -77.038218, "name": "0a1479a9db659d259c29b18a5748d9a7", "type": "electric_scooter"}, {"fusion_lon": 0.0, "fusion_lat": 0.0, "rental_uris": {"ios": "https://dc.lft.to/lastmile_qr_scan", "android": "https://dc.lft.to/lastmile_qr_scan"}, "is_disabled": 0, "bike_id": "03983ce19cae8dfdb4110b58d9bf1a9b", "lat": 38.9067775, "is_reserved": 0, "lon": -77.03862666666667, "name": "03983ce19cae8dfdb4110b58d9bf1a9b", "type": "electric_scooter"}, {"fusion_lon": 0.0, "fusion_lat": 0.0, "rental_uris": {"ios": "https://dc.lft.to/lastmile_qr_scan", "android": "https://dc.lft.to/lastmile_qr_scan"}, "is_disabled": 0, "bike_id": "8c487ef414f29bb0c2d2a058c131a378", "lat": 38.910402, "is_reserved": 0, "lon": -77.06185566666667, "name": "8c487ef414f29bb0c2d2a058c131a378", "type": "electric_scooter"}, {"fusion_lon": 0.0, "fusion_lat": 0.0, "rental_uris": {"ios": "https://dc.lft.to/lastmile_qr_scan", "android": "https://dc.lft.to/lastmile_qr_scan"}, "is_disabled": 0, "bike_id": "dc58f3b24390ea81ddb181ad6a6c6040", "lat": 38.9075255, "is_reserved": 0, "lon": -77.04158533333333, "name": "dc58f3b24390ea81ddb181ad6a6c6040", "type": "electric_scooter"}, {"fusion_lon": 0.0, "fusion_lat": 0.0, "rental_uris": {"ios": "https://dc.lft.to/lastmile_qr_scan", "android": "https://dc.lft.to/lastmile_qr_scan"}, "is_disabled": 0, "bike_id": "3c0140945551918c116d5a950fd1b78a", "lat": 38.904164, "is_reserved": 0, "lon": -76.973316, "name": "3c0140945551918c116d5a950fd1b78a", "type": "electric_scooter"}, {"fusion_lon": 0.0, "fusion_lat": 0.0, "rental_uris": {"ios": "https://dc.lft.to/lastmile_qr_scan", "android": "https://dc.lft.to/lastmile_qr_scan"}, "is_disabled": 0, "bike_id": "c7c2caab41d77bd904bc6bef194e6e61", "lat": 38.9142295, "is_reserved": 0, "lon": -77.04159933333334, "name": "c7c2caab41d77bd904bc6bef194e6e61", "type": "electric_scooter"}, {"fusion_lon": 0.0, "fusion_lat": 0.0, "rental_uris": {"ios": "https://dc.lft.to/lastmile_qr_scan", "android": "https://dc.lft.to/lastmile_qr_scan"}, "is_disabled": 0, "bike_id": "7fb7667e6121d3fc053daa26fad8c135", "lat": 38.836286, "is_reserved": 0, "lon": -77.06947666666667, "name": "7fb7667e6121d3fc053daa26fad8c135", "type": "electric_bike"}, {"fusion_lon": 0.0, "fusion_lat": 0.0, "rental_uris": {"ios": "https://dc.lft.to/lastmile_qr_scan", "android": "https://dc.lft.to/lastmile_qr_scan"}, "is_disabled": 0, "bike_id": "c20a3983715abedcbd5979895092d222", "lat": 38.8960185, "is_reserved": 0, "lon": -77.0443285, "name": "c20a3983715abedcbd5979895092d222", "type": "electric_scooter"}, {"fusion_lon": 0.0, "fusion_lat": 0.0, "rental_uris": {"ios": "https://dc.lft.to/lastmile_qr_scan", "android": "https://dc.lft.to/lastmile_qr_scan"}, "is_disabled": 0, "bike_id": "eea295562c48710e361e92772039391a", "lat": 38.93528666666667, "is_reserved": 0, "lon": -77.05826266666666, "name": "eea295562c48710e361e92772039391a", "type": "electric_scooter"}, {"fusion_lon": 0.0, "fusion_lat": 0.0, "rental_uris": {"ios": "https://dc.lft.to/lastmile_qr_scan", "android": "https://dc.lft.to/lastmile_qr_scan"}, "is_disabled": 0, "bike_id": "57ff38935e025fba7b8b66506af5b84c", "lat": 38.91693166666667, "is_reserved": 0, "lon": -77.02921933333333, "name": "57ff38935e025fba7b8b66506af5b84c", "type": "electric_scooter"}, {"fusion_lon": 0.0, "fusion_lat": 0.0, "rental_uris": {"ios": "https://dc.lft.to/lastmile_qr_scan", "android": "https://dc.lft.to/lastmile_qr_scan"}, "is_disabled": 0, "bike_id": "c69455e8df87f0cdd4ffaeeb398aa781", "lat": 38.91117833333333, "is_reserved": 0, "lon": -77.031725, "name": "c69455e8df87f0cdd4ffaeeb398aa781", "type": "electric_scooter"}, {"fusion_lon": 0.0, "fusion_lat": 0.0, "rental_uris": {"ios": "https://dc.lft.to/lastmile_qr_scan", "android": "https://dc.lft.to/lastmile_qr_scan"}, "is_disabled": 0, "bike_id": "54bfa94a5428072f0f89de03d3633537", "lat": 38.90562083333333, "is_reserved": 0, "lon": -76.99806233333334, "name": "54bfa94a5428072f0f89de03d3633537", "type": "electric_scooter"}, {"fusion_lon": 0.0, "fusion_lat": 0.0, "rental_uris": {"ios": "https://dc.lft.to/lastmile_qr_scan", "android": "https://dc.lft.to/lastmile_qr_scan"}, "is_disabled": 0, "bike_id": "fdbccb6ec2d28d109956bbe6489be1ec", "lat": 38.87848533333333, "is_reserved": 0, "lon": -77.03021833333334, "name": "fdbccb6ec2d28d109956bbe6489be1ec", "type": "electric_scooter"}, {"fusion_lon": 0.0, "fusion_lat": 0.0, "rental_uris": {"ios": "https://dc.lft.to/lastmile_qr_scan", "android": "https://dc.lft.to/lastmile_qr_scan"}, "is_disabled": 0, "bike_id": "d608092755b25b8a78d6a6d4219aefcc", "lat": 38.91403783333333, "is_reserved": 0, "lon": -77.03334116666667, "name": "d608092755b25b8a78d6a6d4219aefcc", "type": "electric_scooter"}, {"fusion_lon": 0.0, "fusion_lat": 0.0, "rental_uris": {"ios": "https://dc.lft.to/lastmile_qr_scan", "android": "https://dc.lft.to/lastmile_qr_scan"}, "is_disabled": 0, "bike_id": "cd68eeb848b927a223cee60b7e928618", "lat": 38.895593166666664, "is_reserved": 0, "lon": -77.0467365, "name": "cd68eeb848b927a223cee60b7e928618", "type": "electric_scooter"}, {"fusion_lon": 0.0, "fusion_lat": 0.0, "rental_uris": {"ios": "https://dc.lft.to/lastmile_qr_scan", "android": "https://dc.lft.to/lastmile_qr_scan"}, "is_disabled": 0, "bike_id": "5bf8213ae3a50d2d593b97a26f1c080a", "lat": 38.799874, "is_reserved": 0, "lon": -77.129754, "name": "5bf8213ae3a50d2d593b97a26f1c080a", "type": "electric_bike"}, {"fusion_lon": 0.0, "fusion_lat": 0.0, "rental_uris": {"ios": "https://dc.lft.to/lastmile_qr_scan", "android": "https://dc.lft.to/lastmile_qr_scan"}, "is_disabled": 0, "bike_id": "1d0ad5ffb3c01163ed73228f1c54bac1", "lat": 38.88167266666667, "is_reserved": 0, "lon": -77.02825516666667, "name": "1d0ad5ffb3c01163ed73228f1c54bac1", "type": "electric_scooter"}, {"fusion_lon": 0.0, "fusion_lat": 0.0, "rental_uris": {"ios": "https://dc.lft.to/lastmile_qr_scan", "android": "https://dc.lft.to/lastmile_qr_scan"}, "is_disabled": 0, "bike_id": "1228f8daea73b15fe3c94d07871a7beb", "lat": 38.92042433333334, "is_reserved": 0, "lon": -77.01679316666667, "name": "1228f8daea73b15fe3c94d07871a7beb", "type": "electric_scooter"}, {"fusion_lon": 0.0, "fusion_lat": 0.0, "rental_uris": {"ios": "https://dc.lft.to/lastmile_qr_scan", "android": "https://dc.lft.to/lastmile_qr_scan"}, "is_disabled": 0, "bike_id": "0c732c4938830b9c582e3adebca033c4", "lat": 38.92439983333333, "is_reserved": 0, "lon": -77.0201935, "name": "0c732c4938830b9c582e3adebca033c4", "type": "electric_scooter"}, {"fusion_lon": 0.0, "fusion_lat": 0.0, "rental_uris": {"ios": "https://dc.lft.to/lastmile_qr_scan", "android": "https://dc.lft.to/lastmile_qr_scan"}, "is_disabled": 0, "bike_id": "290678bae88cea49dc064a84e2d6a834", "lat": 38.90279783333333, "is_reserved": 0, "lon": -77.038228, "name": "290678bae88cea49dc064a84e2d6a834", "type": "electric_scooter"}, {"fusion_lon": 0.0, "fusion_lat": 0.0, "rental_uris": {"ios": "https://dc.lft.to/lastmile_qr_scan", "android": "https://dc.lft.to/lastmile_qr_scan"}, "is_disabled": 0, "bike_id": "b169b9be9089e711411353583100426c", "lat": 38.9111085, "is_reserved": 0, "lon": -77.0422995, "name": "b169b9be9089e711411353583100426c", "type": "electric_scooter"}, {"fusion_lon": 0.0, "fusion_lat": 0.0, "rental_uris": {"ios": "https://dc.lft.to/lastmile_qr_scan", "android": "https://dc.lft.to/lastmile_qr_scan"}, "is_disabled": 0, "bike_id": "d316c69b3466bb2c98bc90ca755742e8", "lat": 38.89952016666667, "is_reserved": 0, "lon": -77.028262, "name": "d316c69b3466bb2c98bc90ca755742e8", "type": "electric_scooter"}, {"fusion_lon": 0.0, "fusion_lat": 0.0, "rental_uris": {"ios": "https://dc.lft.to/lastmile_qr_scan", "android": "https://dc.lft.to/lastmile_qr_scan"}, "is_disabled": 0, "bike_id": "0aa90e92008cfa7c3994d21fdde35960", "lat": 38.92027783333333, "is_reserved": 0, "lon": -77.037286, "name": "0aa90e92008cfa7c3994d21fdde35960", "type": "electric_scooter"}, {"fusion_lon": 0.0, "fusion_lat": 0.0, "rental_uris": {"ios": "https://dc.lft.to/lastmile_qr_scan", "android": "https://dc.lft.to/lastmile_qr_scan"}, "is_disabled": 0, "bike_id": "a8b7cb24db4f4d19707710a0f45c588e", "lat": 38.9215655, "is_reserved": 0, "lon": -77.0346775, "name": "a8b7cb24db4f4d19707710a0f45c588e", "type": "electric_scooter"}, {"fusion_lon": 0.0, "fusion_lat": 0.0, "rental_uris": {"ios": "https://dc.lft.to/lastmile_qr_scan", "android": "https://dc.lft.to/lastmile_qr_scan"}, "is_disabled": 0, "bike_id": "7bdd3f4f40bda095a46282a423e29144", "lat": 38.9001625, "is_reserved": 0, "lon": -76.9870075, "name": "7bdd3f4f40bda095a46282a423e29144", "type": "electric_scooter"}, {"fusion_lon": 0.0, "fusion_lat": 0.0, "rental_uris": {"ios": "https://dc.lft.to/lastmile_qr_scan", "android": "https://dc.lft.to/lastmile_qr_scan"}, "is_disabled": 0, "bike_id": "4aa3038e47bcfa1189c910748a88ce0a", "lat": 38.83604, "is_reserved": 0, "lon": -77.00378433333333, "name": "4aa3038e47bcfa1189c910748a88ce0a", "type": "electric_bike"}, {"fusion_lon": 0.0, "fusion_lat": 0.0, "rental_uris": {"ios": "https://dc.lft.to/lastmile_qr_scan", "android": "https://dc.lft.to/lastmile_qr_scan"}, "is_disabled": 0, "bike_id": "43f52ddba79bc24a16a4fbce7fcb8498", "lat": 38.93896633333333, "is_reserved": 0, "lon": -76.96324666666666, "name": "43f52ddba79bc24a16a4fbce7fcb8498", "type": "electric_bike"}, {"fusion_lon": 0.0, "fusion_lat": 0.0, "rental_uris": {"ios": "https://dc.lft.to/lastmile_qr_scan", "android": "https://dc.lft.to/lastmile_qr_scan"}, "is_disabled": 0, "bike_id": "6d0bce0d8002e346063aacd58c242d37", "lat": 38.88871916666667, "is_reserved": 0, "lon": -76.99028733333333, "name": "6d0bce0d8002e346063aacd58c242d37", "type": "electric_scooter"}, {"fusion_lon": 0.0, "fusion_lat": 0.0, "rental_uris": {"ios": "https://dc.lft.to/lastmile_qr_scan", "android": "https://dc.lft.to/lastmile_qr_scan"}, "is_disabled": 0, "bike_id": "de70d39439d4f49ef2b267f7d951e3f2", "lat": 38.901377, "is_reserved": 0, "lon": -77.049983, "name": "de70d39439d4f49ef2b267f7d951e3f2", "type": "electric_scooter"}, {"fusion_lon": 0.0, "fusion_lat": 0.0, "rental_uris": {"ios": "https://dc.lft.to/lastmile_qr_scan", "android": "https://dc.lft.to/lastmile_qr_scan"}, "is_disabled": 0, "bike_id": "7ab5bf0abc21fb8d2f76d7710c118580", "lat": 38.930261333333334, "is_reserved": 0, "lon": -77.02072033333333, "name": "7ab5bf0abc21fb8d2f76d7710c118580", "type": "electric_scooter"}, {"fusion_lon": 0.0, "fusion_lat": 0.0, "rental_uris": {"ios": "https://dc.lft.to/lastmile_qr_scan", "android": "https://dc.lft.to/lastmile_qr_scan"}, "is_disabled": 0, "bike_id": "610e16884708036db5c4e00f08068f8d", "lat": 38.94919516666667, "is_reserved": 0, "lon": -77.01857366666667, "name": "610e16884708036db5c4e00f08068f8d", "type": "electric_scooter"}, {"fusion_lon": 0.0, "fusion_lat": 0.0, "rental_uris": {"ios": "https://dc.lft.to/lastmile_qr_scan", "android": "https://dc.lft.to/lastmile_qr_scan"}, "is_disabled": 0, "bike_id": "e9c3554fd2a9006f2a27e9c0f9a0249a", "lat": 38.8759555, "is_reserved": 0, "lon": -77.013818, "name": "e9c3554fd2a9006f2a27e9c0f9a0249a", "type": "electric_scooter"}, {"fusion_lon": 0.0, "fusion_lat": 0.0, "rental_uris": {"ios": "https://dc.lft.to/lastmile_qr_scan", "android": "https://dc.lft.to/lastmile_qr_scan"}, "is_disabled": 0, "bike_id": "275e869933af33412b9dfa8768fffd68", "lat": 38.921536833333334, "is_reserved": 0, "lon": -77.02101966666666, "name": "275e869933af33412b9dfa8768fffd68", "type": "electric_scooter"}, {"fusion_lon": 0.0, "fusion_lat": 0.0, "rental_uris": {"ios": "https://dc.lft.to/lastmile_qr_scan", "android": "https://dc.lft.to/lastmile_qr_scan"}, "is_disabled": 0, "bike_id": "b8bf1f56b1f9812f94c04468f9be9d4c", "lat": 38.902242666666666, "is_reserved": 0, "lon": -77.0439455, "name": "b8bf1f56b1f9812f94c04468f9be9d4c", "type": "electric_scooter"}, {"fusion_lon": 0.0, "fusion_lat": 0.0, "rental_uris": {"ios": "https://dc.lft.to/lastmile_qr_scan", "android": "https://dc.lft.to/lastmile_qr_scan"}, "is_disabled": 0, "bike_id": "fcc4ee4b2b068ef90a34069c691c9c2a", "lat": 38.89295883333333, "is_reserved": 0, "lon": -77.01527, "name": "fcc4ee4b2b068ef90a34069c691c9c2a", "type": "electric_scooter"}, {"fusion_lon": 0.0, "fusion_lat": 0.0, "rental_uris": {"ios": "https://dc.lft.to/lastmile_qr_scan", "android": "https://dc.lft.to/lastmile_qr_scan"}, "is_disabled": 0, "bike_id": "30415beb820f5c8eac905b907fd6b2c9", "lat": 38.88601766666667, "is_reserved": 0, "lon": -76.92497383333334, "name": "30415beb820f5c8eac905b907fd6b2c9", "type": "electric_scooter"}, {"fusion_lon": 0.0, "fusion_lat": 0.0, "rental_uris": {"ios": "https://dc.lft.to/lastmile_qr_scan", "android": "https://dc.lft.to/lastmile_qr_scan"}, "is_disabled": 0, "bike_id": "5e804a9bbc872521ed8eac2cba902cd0", "lat": 38.896109333333335, "is_reserved": 0, "lon": -77.02374116666667, "name": "5e804a9bbc872521ed8eac2cba902cd0", "type": "electric_scooter"}, {"fusion_lon": 0.0, "fusion_lat": 0.0, "rental_uris": {"ios": "https://dc.lft.to/lastmile_qr_scan", "android": "https://dc.lft.to/lastmile_qr_scan"}, "is_disabled": 0, "bike_id": "5d7aece8d91c6f664e139032c7049092", "lat": 38.9095925, "is_reserved": 0, "lon": -77.01832066666667, "name": "5d7aece8d91c6f664e139032c7049092", "type": "electric_scooter"}, {"fusion_lon": 0.0, "fusion_lat": 0.0, "rental_uris": {"ios": "https://dc.lft.to/lastmile_qr_scan", "android": "https://dc.lft.to/lastmile_qr_scan"}, "is_disabled": 0, "bike_id": "1bb62b4c82c5277d0140ca913e57281f", "lat": 38.894884166666664, "is_reserved": 0, "lon": -77.022799, "name": "1bb62b4c82c5277d0140ca913e57281f", "type": "electric_scooter"}, {"fusion_lon": 0.0, "fusion_lat": 0.0, "rental_uris": {"ios": "https://dc.lft.to/lastmile_qr_scan", "android": "https://dc.lft.to/lastmile_qr_scan"}, "is_disabled": 0, "bike_id": "052d73bde6817f17346ed95231730ca5", "lat": 38.9004085, "is_reserved": 0, "lon": -76.9915495, "name": "052d73bde6817f17346ed95231730ca5", "type": "electric_scooter"}, {"fusion_lon": 0.0, "fusion_lat": 0.0, "rental_uris": {"ios": "https://dc.lft.to/lastmile_qr_scan", "android": "https://dc.lft.to/lastmile_qr_scan"}, "is_disabled": 0, "bike_id": "15135367db1f6540aeceb9f56d424cd3", "lat": 38.948799, "is_reserved": 0, "lon": -77.06437183333334, "name": "15135367db1f6540aeceb9f56d424cd3", "type": "electric_scooter"}, {"fusion_lon": 0.0, "fusion_lat": 0.0, "rental_uris": {"ios": "https://dc.lft.to/lastmile_qr_scan", "android": "https://dc.lft.to/lastmile_qr_scan"}, "is_disabled": 0, "bike_id": "6bbba00f701fff27e9ff21e481bc400a", "lat": 38.876595333333334, "is_reserved": 0, "lon": -77.00343033333333, "name": "6bbba00f701fff27e9ff21e481bc400a", "type": "electric_scooter"}, {"fusion_lon": 0.0, "fusion_lat": 0.0, "rental_uris": {"ios": "https://dc.lft.to/lastmile_qr_scan", "android": "https://dc.lft.to/lastmile_qr_scan"}, "is_disabled": 0, "bike_id": "f9014c0f812ccaf61d17f0157ce1beac", "lat": 38.914631666666665, "is_reserved": 0, "lon": -77.06424116666666, "name": "f9014c0f812ccaf61d17f0157ce1beac", "type": "electric_scooter"}, {"fusion_lon": 0.0, "fusion_lat": 0.0, "rental_uris": {"ios": "https://dc.lft.to/lastmile_qr_scan", "android": "https://dc.lft.to/lastmile_qr_scan"}, "is_disabled": 0, "bike_id": "001057cb0f0e70112b75874919edc177", "lat": 38.88048, "is_reserved": 0, "lon": -77.00545483333333, "name": "001057cb0f0e70112b75874919edc177", "type": "electric_scooter"}, {"fusion_lon": 0.0, "fusion_lat": 0.0, "rental_uris": {"ios": "https://dc.lft.to/lastmile_qr_scan", "android": "https://dc.lft.to/lastmile_qr_scan"}, "is_disabled": 0, "bike_id": "9df5c09f8c04368be636f89e422786a5", "lat": 38.877461833333335, "is_reserved": 0, "lon": -77.004131, "name": "9df5c09f8c04368be636f89e422786a5", "type": "electric_scooter"}, {"fusion_lon": 0.0, "fusion_lat": 0.0, "rental_uris": {"ios": "https://dc.lft.to/lastmile_qr_scan", "android": "https://dc.lft.to/lastmile_qr_scan"}, "is_disabled": 0, "bike_id": "e38f4a098e5c65fd05a0f7ff735f6d3e", "lat": 38.882419166666665, "is_reserved": 0, "lon": -76.99505583333334, "name": "e38f4a098e5c65fd05a0f7ff735f6d3e", "type": "electric_scooter"}, {"fusion_lon": 0.0, "fusion_lat": 0.0, "rental_uris": {"ios": "https://dc.lft.to/lastmile_qr_scan", "android": "https://dc.lft.to/lastmile_qr_scan"}, "is_disabled": 0, "bike_id": "bac3907a9c778996ac777d95e7528015", "lat": 38.92463716666666, "is_reserved": 0, "lon": -77.03637283333333, "name": "bac3907a9c778996ac777d95e7528015", "type": "electric_scooter"}, {"fusion_lon": 0.0, "fusion_lat": 0.0, "rental_uris": {"ios": "https://dc.lft.to/lastmile_qr_scan", "android": "https://dc.lft.to/lastmile_qr_scan"}, "is_disabled": 0, "bike_id": "1f37834899aed8b144120955671ea29e", "lat": 38.857372833333336, "is_reserved": 0, "lon": -77.100736, "name": "1f37834899aed8b144120955671ea29e", "type": "electric_bike"}, {"fusion_lon": 0.0, "fusion_lat": 0.0, "rental_uris": {"ios": "https://dc.lft.to/lastmile_qr_scan", "android": "https://dc.lft.to/lastmile_qr_scan"}, "is_disabled": 0, "bike_id": "1e2ed399d0a1bc04812bbdd40437230e", "lat": 38.858484833333335, "is_reserved": 0, "lon": -76.98533683333333, "name": "1e2ed399d0a1bc04812bbdd40437230e", "type": "electric_scooter"}, {"fusion_lon": 0.0, "fusion_lat": 0.0, "rental_uris": {"ios": "https://dc.lft.to/lastmile_qr_scan", "android": "https://dc.lft.to/lastmile_qr_scan"}, "is_disabled": 0, "bike_id": "4d1d28b6fb7e533bf2907d47d69edc08", "lat": 38.90265816666667, "is_reserved": 0, "lon": -77.0385515, "name": "4d1d28b6fb7e533bf2907d47d69edc08", "type": "electric_scooter"}, {"fusion_lon": 0.0, "fusion_lat": 0.0, "rental_uris": {"ios": "https://dc.lft.to/lastmile_qr_scan", "android": "https://dc.lft.to/lastmile_qr_scan"}, "is_disabled": 0, "bike_id": "f2e855fd3a431d2d13239f4069d377b6", "lat": 38.91253066666667, "is_reserved": 0, "lon": -77.04160716666667, "name": "f2e855fd3a431d2d13239f4069d377b6", "type": "electric_scooter"}, {"fusion_lon": 0.0, "fusion_lat": 0.0, "rental_uris": {"ios": "https://dc.lft.to/lastmile_qr_scan", "android": "https://dc.lft.to/lastmile_qr_scan"}, "is_disabled": 0, "bike_id": "6f37d99df33aac1e351bf14a506af1f8", "lat": 38.929103833333336, "is_reserved": 0, "lon": -77.03182966666667, "name": "6f37d99df33aac1e351bf14a506af1f8", "type": "electric_scooter"}, {"fusion_lon": 0.0, "fusion_lat": 0.0, "rental_uris": {"ios": "https://dc.lft.to/lastmile_qr_scan", "android": "https://dc.lft.to/lastmile_qr_scan"}, "is_disabled": 0, "bike_id": "5fb71ad76b6a0bc356b80088642aa1e8", "lat": 38.910579, "is_reserved": 0, "lon": -77.0441715, "name": "5fb71ad76b6a0bc356b80088642aa1e8", "type": "electric_scooter"}, {"fusion_lon": 0.0, "fusion_lat": 0.0, "rental_uris": {"ios": "https://dc.lft.to/lastmile_qr_scan", "android": "https://dc.lft.to/lastmile_qr_scan"}, "is_disabled": 0, "bike_id": "a6faa9022a569929959bf25852f5100d", "lat": 38.9026005, "is_reserved": 0, "lon": -77.0264145, "name": "a6faa9022a569929959bf25852f5100d", "type": "electric_scooter"}, {"fusion_lon": 0.0, "fusion_lat": 0.0, "rental_uris": {"ios": "https://dc.lft.to/lastmile_qr_scan", "android": "https://dc.lft.to/lastmile_qr_scan"}, "is_disabled": 0, "bike_id": "bf93e575026d3ecb8db1f7ac1e671b4e", "lat": 38.89994016666667, "is_reserved": 0, "lon": -77.04151966666667, "name": "bf93e575026d3ecb8db1f7ac1e671b4e", "type": "electric_scooter"}, {"fusion_lon": 0.0, "fusion_lat": 0.0, "rental_uris": {"ios": "https://dc.lft.to/lastmile_qr_scan", "android": "https://dc.lft.to/lastmile_qr_scan"}, "is_disabled": 0, "bike_id": "66aac4b7f202367b05084b17c213236a", "lat": 38.877660666666664, "is_reserved": 0, "lon": -77.1485655, "name": "66aac4b7f202367b05084b17c213236a", "type": "electric_bike"}, {"fusion_lon": 0.0, "fusion_lat": 0.0, "rental_uris": {"ios": "https://dc.lft.to/lastmile_qr_scan", "android": "https://dc.lft.to/lastmile_qr_scan"}, "is_disabled": 0, "bike_id": "d4db86755e52fe6dfd6cc7bbd4ebc36f", "lat": 38.901428, "is_reserved": 0, "lon": -77.05917783333334, "name": "d4db86755e52fe6dfd6cc7bbd4ebc36f", "type": "electric_scooter"}, {"fusion_lon": 0.0, "fusion_lat": 0.0, "rental_uris": {"ios": "https://dc.lft.to/lastmile_qr_scan", "android": "https://dc.lft.to/lastmile_qr_scan"}, "is_disabled": 0, "bike_id": "5fcd9b2d2bf848510baf1a94f99728cd", "lat": 38.89832766666667, "is_reserved": 0, "lon": -77.0228095, "name": "5fcd9b2d2bf848510baf1a94f99728cd", "type": "electric_scooter"}, {"fusion_lon": 0.0, "fusion_lat": 0.0, "rental_uris": {"ios": "https://dc.lft.to/lastmile_qr_scan", "android": "https://dc.lft.to/lastmile_qr_scan"}, "is_disabled": 0, "bike_id": "0f67c0f1b354203b2c19a48044aeb2f6", "lat": 38.933325833333335, "is_reserved": 0, "lon": -77.04195133333333, "name": "0f67c0f1b354203b2c19a48044aeb2f6", "type": "electric_bike"}, {"fusion_lon": 0.0, "fusion_lat": 0.0, "rental_uris": {"ios": "https://dc.lft.to/lastmile_qr_scan", "android": "https://dc.lft.to/lastmile_qr_scan"}, "is_disabled": 0, "bike_id": "e6a8dbc863021271c9d47e62fa77b5d2", "lat": 38.895551, "is_reserved": 0, "lon": -77.009128, "name": "e6a8dbc863021271c9d47e62fa77b5d2", "type": "electric_scooter"}, {"fusion_lon": 0.0, "fusion_lat": 0.0, "rental_uris": {"ios": "https://dc.lft.to/lastmile_qr_scan", "android": "https://dc.lft.to/lastmile_qr_scan"}, "is_disabled": 0, "bike_id": "a94f79872071c1dba5dec90e41dbba0c", "lat": 38.93603916666667, "is_reserved": 0, "lon": -77.02894616666667, "name": "a94f79872071c1dba5dec90e41dbba0c", "type": "electric_scooter"}, {"fusion_lon": 0.0, "fusion_lat": 0.0, "rental_uris": {"ios": "https://dc.lft.to/lastmile_qr_scan", "android": "https://dc.lft.to/lastmile_qr_scan"}, "is_disabled": 0, "bike_id": "c88a7d451d599e693cc48b89dbf0deae", "lat": 38.9033365, "is_reserved": 0, "lon": -77.01084116666667, "name": "c88a7d451d599e693cc48b89dbf0deae", "type": "electric_scooter"}, {"fusion_lon": 0.0, "fusion_lat": 0.0, "rental_uris": {"ios": "https://dc.lft.to/lastmile_qr_scan", "android": "https://dc.lft.to/lastmile_qr_scan"}, "is_disabled": 0, "bike_id": "4bc59b153961cbed791df2420c08c503", "lat": 38.91402883333333, "is_reserved": 0, "lon": -77.01817233333334, "name": "4bc59b153961cbed791df2420c08c503", "type": "electric_scooter"}, {"fusion_lon": 0.0, "fusion_lat": 0.0, "rental_uris": {"ios": "https://dc.lft.to/lastmile_qr_scan", "android": "https://dc.lft.to/lastmile_qr_scan"}, "is_disabled": 0, "bike_id": "ed9bf93cc815bdddc036d3406e581dcf", "lat": 38.89781416666667, "is_reserved": 0, "lon": -77.029827, "name": "ed9bf93cc815bdddc036d3406e581dcf", "type": "electric_scooter"}, {"fusion_lon": 0.0, "fusion_lat": 0.0, "rental_uris": {"ios": "https://dc.lft.to/lastmile_qr_scan", "android": "https://dc.lft.to/lastmile_qr_scan"}, "is_disabled": 0, "bike_id": "1411932e0a0f36c0bc96abd1c00c04ff", "lat": 38.888108833333334, "is_reserved": 0, "lon": -77.01612866666666, "name": "1411932e0a0f36c0bc96abd1c00c04ff", "type": "electric_scooter"}, {"fusion_lon": 0.0, "fusion_lat": 0.0, "rental_uris": {"ios": "https://dc.lft.to/lastmile_qr_scan", "android": "https://dc.lft.to/lastmile_qr_scan"}, "is_disabled": 0, "bike_id": "cb0713fcc27acdec817de2d888858a94", "lat": 38.913958666666666, "is_reserved": 0, "lon": -77.03448033333333, "name": "cb0713fcc27acdec817de2d888858a94", "type": "electric_scooter"}, {"fusion_lon": 0.0, "fusion_lat": 0.0, "rental_uris": {"ios": "https://dc.lft.to/lastmile_qr_scan", "android": "https://dc.lft.to/lastmile_qr_scan"}, "is_disabled": 0, "bike_id": "39b9537d85e826291c4c5f15a91ba5e6", "lat": 38.8991995, "is_reserved": 0, "lon": -77.003328, "name": "39b9537d85e826291c4c5f15a91ba5e6", "type": "electric_scooter"}, {"fusion_lon": 0.0, "fusion_lat": 0.0, "rental_uris": {"ios": "https://dc.lft.to/lastmile_qr_scan", "android": "https://dc.lft.to/lastmile_qr_scan"}, "is_disabled": 0, "bike_id": "4188ce3074c7797f953fba4e2ec1d8ca", "lat": 38.90040883333333, "is_reserved": 0, "lon": -77.03363683333333, "name": "4188ce3074c7797f953fba4e2ec1d8ca", "type": "electric_scooter"}, {"fusion_lon": 0.0, "fusion_lat": 0.0, "rental_uris": {"ios": "https://dc.lft.to/lastmile_qr_scan", "android": "https://dc.lft.to/lastmile_qr_scan"}, "is_disabled": 0, "bike_id": "c7607c45b0568e1f20e2c84576467a5d", "lat": 38.894387, "is_reserved": 0, "lon": -76.98083833333334, "name": "c7607c45b0568e1f20e2c84576467a5d", "type": "electric_scooter"}, {"fusion_lon": 0.0, "fusion_lat": 0.0, "rental_uris": {"ios": "https://dc.lft.to/lastmile_qr_scan", "android": "https://dc.lft.to/lastmile_qr_scan"}, "is_disabled": 0, "bike_id": "a9ae5abd3903ecb3b69d5110af82c301", "lat": 38.908264333333335, "is_reserved": 0, "lon": -77.03946016666667, "name": "a9ae5abd3903ecb3b69d5110af82c301", "type": "electric_scooter"}, {"fusion_lon": 0.0, "fusion_lat": 0.0, "rental_uris": {"ios": "https://dc.lft.to/lastmile_qr_scan", "android": "https://dc.lft.to/lastmile_qr_scan"}, "is_disabled": 0, "bike_id": "3e722b0a39800e587d81fd41550a1cad", "lat": 38.9110985, "is_reserved": 0, "lon": -77.02172866666666, "name": "3e722b0a39800e587d81fd41550a1cad", "type": "electric_scooter"}, {"fusion_lon": 0.0, "fusion_lat": 0.0, "rental_uris": {"ios": "https://dc.lft.to/lastmile_qr_scan", "android": "https://dc.lft.to/lastmile_qr_scan"}, "is_disabled": 0, "bike_id": "50bdc6d515c3799a4445b59fe50a6de7", "lat": 38.91250383333333, "is_reserved": 0, "lon": -77.04154133333333, "name": "50bdc6d515c3799a4445b59fe50a6de7", "type": "electric_scooter"}, {"fusion_lon": 0.0, "fusion_lat": 0.0, "rental_uris": {"ios": "https://dc.lft.to/lastmile_qr_scan", "android": "https://dc.lft.to/lastmile_qr_scan"}, "is_disabled": 0, "bike_id": "bd60c25fda70c9716bd61eb94ddbd86b", "lat": 38.903392, "is_reserved": 0, "lon": -77.0364185, "name": "bd60c25fda70c9716bd61eb94ddbd86b", "type": "electric_scooter"}, {"fusion_lon": 0.0, "fusion_lat": 0.0, "rental_uris": {"ios": "https://dc.lft.to/lastmile_qr_scan", "android": "https://dc.lft.to/lastmile_qr_scan"}, "is_disabled": 0, "bike_id": "0c728aafcab517b97e550e4deeeb0045", "lat": 38.911225, "is_reserved": 0, "lon": -77.04237, "name": "0c728aafcab517b97e550e4deeeb0045", "type": "electric_scooter"}, {"fusion_lon": 0.0, "fusion_lat": 0.0, "rental_uris": {"ios": "https://dc.lft.to/lastmile_qr_scan", "android": "https://dc.lft.to/lastmile_qr_scan"}, "is_disabled": 0, "bike_id": "2211c2487baddb40c35dbe8b7a9b722f", "lat": 38.93192233333333, "is_reserved": 0, "lon": -77.038338, "name": "2211c2487baddb40c35dbe8b7a9b722f", "type": "electric_scooter"}, {"fusion_lon": 0.0, "fusion_lat": 0.0, "rental_uris": {"ios": "https://dc.lft.to/lastmile_qr_scan", "android": "https://dc.lft.to/lastmile_qr_scan"}, "is_disabled": 0, "bike_id": "92852637d770aad18780c97547fb09f0", "lat": 38.89551816666667, "is_reserved": 0, "lon": -76.94942, "name": "92852637d770aad18780c97547fb09f0", "type": "electric_scooter"}, {"fusion_lon": 0.0, "fusion_lat": 0.0, "rental_uris": {"ios": "https://dc.lft.to/lastmile_qr_scan", "android": "https://dc.lft.to/lastmile_qr_scan"}, "is_disabled": 0, "bike_id": "12b439b07f68116911588a2d33ec7416", "lat": 38.903804666666666, "is_reserved": 0, "lon": -77.0163835, "name": "12b439b07f68116911588a2d33ec7416", "type": "electric_bike"}, {"fusion_lon": 0.0, "fusion_lat": 0.0, "rental_uris": {"ios": "https://dc.lft.to/lastmile_qr_scan", "android": "https://dc.lft.to/lastmile_qr_scan"}, "is_disabled": 0, "bike_id": "e965e74e571bb9fdc65cdf47048e9151", "lat": 38.87894883333333, "is_reserved": 0, "lon": -77.01388766666666, "name": "e965e74e571bb9fdc65cdf47048e9151", "type": "electric_scooter"}, {"fusion_lon": 0.0, "fusion_lat": 0.0, "rental_uris": {"ios": "https://dc.lft.to/lastmile_qr_scan", "android": "https://dc.lft.to/lastmile_qr_scan"}, "is_disabled": 0, "bike_id": "75b34e7f8866d6003b1e0c5c76da4ed0", "lat": 38.9373295, "is_reserved": 0, "lon": -77.032636, "name": "75b34e7f8866d6003b1e0c5c76da4ed0", "type": "electric_scooter"}, {"fusion_lon": 0.0, "fusion_lat": 0.0, "rental_uris": {"ios": "https://dc.lft.to/lastmile_qr_scan", "android": "https://dc.lft.to/lastmile_qr_scan"}, "is_disabled": 0, "bike_id": "571fa05ab5ca1c1e27453266b2e12f3f", "lat": 38.919749833333334, "is_reserved": 0, "lon": -76.99250083333334, "name": "571fa05ab5ca1c1e27453266b2e12f3f", "type": "electric_scooter"}, {"fusion_lon": 0.0, "fusion_lat": 0.0, "rental_uris": {"ios": "https://dc.lft.to/lastmile_qr_scan", "android": "https://dc.lft.to/lastmile_qr_scan"}, "is_disabled": 0, "bike_id": "7655cc6d1682a8562f9cf745525f1569", "lat": 38.96129583333333, "is_reserved": 0, "lon": -77.03274283333333, "name": "7655cc6d1682a8562f9cf745525f1569", "type": "electric_bike"}, {"fusion_lon": 0.0, "fusion_lat": 0.0, "rental_uris": {"ios": "https://dc.lft.to/lastmile_qr_scan", "android": "https://dc.lft.to/lastmile_qr_scan"}, "is_disabled": 0, "bike_id": "bc1c5229934970d99811c4f3d831f802", "lat": 38.90031883333333, "is_reserved": 0, "lon": -77.03985116666666, "name": "bc1c5229934970d99811c4f3d831f802", "type": "electric_scooter"}, {"fusion_lon": 0.0, "fusion_lat": 0.0, "rental_uris": {"ios": "https://dc.lft.to/lastmile_qr_scan", "android": "https://dc.lft.to/lastmile_qr_scan"}, "is_disabled": 0, "bike_id": "8a47ea8830774fcd372f75b55b17ba6d", "lat": 38.89502733333333, "is_reserved": 0, "lon": -77.00333233333333, "name": "8a47ea8830774fcd372f75b55b17ba6d", "type": "electric_scooter"}, {"fusion_lon": 0.0, "fusion_lat": 0.0, "rental_uris": {"ios": "https://dc.lft.to/lastmile_qr_scan", "android": "https://dc.lft.to/lastmile_qr_scan"}, "is_disabled": 0, "bike_id": "8bfbe6a27af81456a25059dc6da4ae5c", "lat": 38.87570733333333, "is_reserved": 0, "lon": -77.005939, "name": "8bfbe6a27af81456a25059dc6da4ae5c", "type": "electric_scooter"}, {"fusion_lon": 0.0, "fusion_lat": 0.0, "rental_uris": {"ios": "https://dc.lft.to/lastmile_qr_scan", "android": "https://dc.lft.to/lastmile_qr_scan"}, "is_disabled": 0, "bike_id": "23ed8fd72f9c56646008637735812944", "lat": 38.898297166666666, "is_reserved": 0, "lon": -77.04828966666666, "name": "23ed8fd72f9c56646008637735812944", "type": "electric_scooter"}, {"fusion_lon": 0.0, "fusion_lat": 0.0, "rental_uris": {"ios": "https://dc.lft.to/lastmile_qr_scan", "android": "https://dc.lft.to/lastmile_qr_scan"}, "is_disabled": 0, "bike_id": "522786a9854b695a3e2fcbd73445c979", "lat": 38.8773895, "is_reserved": 0, "lon": -76.996371, "name": "522786a9854b695a3e2fcbd73445c979", "type": "electric_scooter"}, {"fusion_lon": 0.0, "fusion_lat": 0.0, "rental_uris": {"ios": "https://dc.lft.to/lastmile_qr_scan", "android": "https://dc.lft.to/lastmile_qr_scan"}, "is_disabled": 0, "bike_id": "8fbcdca2a762f717d9c8cb06bbfeac51", "lat": 38.9100555, "is_reserved": 0, "lon": -77.04007166666666, "name": "8fbcdca2a762f717d9c8cb06bbfeac51", "type": "electric_scooter"}, {"fusion_lon": 0.0, "fusion_lat": 0.0, "rental_uris": {"ios": "https://dc.lft.to/lastmile_qr_scan", "android": "https://dc.lft.to/lastmile_qr_scan"}, "is_disabled": 0, "bike_id": "1bd67dd46f524b51c8408ccf4583affc", "lat": 38.923191833333334, "is_reserved": 0, "lon": -77.02800333333333, "name": "1bd67dd46f524b51c8408ccf4583affc", "type": "electric_scooter"}, {"fusion_lon": 0.0, "fusion_lat": 0.0, "rental_uris": {"ios": "https://dc.lft.to/lastmile_qr_scan", "android": "https://dc.lft.to/lastmile_qr_scan"}, "is_disabled": 0, "bike_id": "3b2188e44744cf05d096537801b7ba7a", "lat": 38.922149833333336, "is_reserved": 0, "lon": -77.04237033333334, "name": "3b2188e44744cf05d096537801b7ba7a", "type": "electric_scooter"}, {"fusion_lon": 0.0, "fusion_lat": 0.0, "rental_uris": {"ios": "https://dc.lft.to/lastmile_qr_scan", "android": "https://dc.lft.to/lastmile_qr_scan"}, "is_disabled": 0, "bike_id": "3943302c6e925b0b32f018ad126b5fd6", "lat": 38.909635, "is_reserved": 0, "lon": -77.0183825, "name": "3943302c6e925b0b32f018ad126b5fd6", "type": "electric_scooter"}, {"fusion_lon": 0.0, "fusion_lat": 0.0, "rental_uris": {"ios": "https://dc.lft.to/lastmile_qr_scan", "android": "https://dc.lft.to/lastmile_qr_scan"}, "is_disabled": 0, "bike_id": "80589a6e206f2e1ebd42232b64742569", "lat": 38.920967166666664, "is_reserved": 0, "lon": -77.02521316666666, "name": "80589a6e206f2e1ebd42232b64742569", "type": "electric_scooter"}, {"fusion_lon": 0.0, "fusion_lat": 0.0, "rental_uris": {"ios": "https://dc.lft.to/lastmile_qr_scan", "android": "https://dc.lft.to/lastmile_qr_scan"}, "is_disabled": 0, "bike_id": "6875f44dbcc8fde054aad6e5d7b56f9f", "lat": 38.90530283333333, "is_reserved": 0, "lon": -77.0499685, "name": "6875f44dbcc8fde054aad6e5d7b56f9f", "type": "electric_scooter"}, {"fusion_lon": 0.0, "fusion_lat": 0.0, "rental_uris": {"ios": "https://dc.lft.to/lastmile_qr_scan", "android": "https://dc.lft.to/lastmile_qr_scan"}, "is_disabled": 0, "bike_id": "1d704bf3c1ca22eec395722738bba6db", "lat": 38.892492, "is_reserved": 0, "lon": -77.03959133333333, "name": "1d704bf3c1ca22eec395722738bba6db", "type": "electric_scooter"}, {"fusion_lon": 0.0, "fusion_lat": 0.0, "rental_uris": {"ios": "https://dc.lft.to/lastmile_qr_scan", "android": "https://dc.lft.to/lastmile_qr_scan"}, "is_disabled": 0, "bike_id": "6e41df1a6f0cdda9fea9f35816cf35ed", "lat": 38.901242, "is_reserved": 0, "lon": -77.04171316666667, "name": "6e41df1a6f0cdda9fea9f35816cf35ed", "type": "electric_scooter"}, {"fusion_lon": 0.0, "fusion_lat": 0.0, "rental_uris": {"ios": "https://dc.lft.to/lastmile_qr_scan", "android": "https://dc.lft.to/lastmile_qr_scan"}, "is_disabled": 0, "bike_id": "90e65d0f0e18c7983c77eb9af11cf745", "lat": 38.941961666666664, "is_reserved": 0, "lon": -77.02564533333333, "name": "90e65d0f0e18c7983c77eb9af11cf745", "type": "electric_scooter"}, {"fusion_lon": 0.0, "fusion_lat": 0.0, "rental_uris": {"ios": "https://dc.lft.to/lastmile_qr_scan", "android": "https://dc.lft.to/lastmile_qr_scan"}, "is_disabled": 0, "bike_id": "ea314469aa1fe947769cdd0f93406e06", "lat": 38.901318833333335, "is_reserved": 0, "lon": -77.04389616666667, "name": "ea314469aa1fe947769cdd0f93406e06", "type": "electric_scooter"}, {"fusion_lon": 0.0, "fusion_lat": 0.0, "rental_uris": {"ios": "https://dc.lft.to/lastmile_qr_scan", "android": "https://dc.lft.to/lastmile_qr_scan"}, "is_disabled": 0, "bike_id": "23ba05b8795e5e6a6ce9e1b6f8d83e8f", "lat": 38.925938, "is_reserved": 0, "lon": -77.03639366666667, "name": "23ba05b8795e5e6a6ce9e1b6f8d83e8f", "type": "electric_scooter"}, {"fusion_lon": 0.0, "fusion_lat": 0.0, "rental_uris": {"ios": "https://dc.lft.to/lastmile_qr_scan", "android": "https://dc.lft.to/lastmile_qr_scan"}, "is_disabled": 0, "bike_id": "e0c403d76eeec465bff418f126c456f1", "lat": 38.902184, "is_reserved": 0, "lon": -77.05993833333333, "name": "e0c403d76eeec465bff418f126c456f1", "type": "electric_scooter"}, {"fusion_lon": 0.0, "fusion_lat": 0.0, "rental_uris": {"ios": "https://dc.lft.to/lastmile_qr_scan", "android": "https://dc.lft.to/lastmile_qr_scan"}, "is_disabled": 0, "bike_id": "5f4ac07af9cda7c707cf49785e2ef080", "lat": 38.9005825, "is_reserved": 0, "lon": -77.00913566666667, "name": "5f4ac07af9cda7c707cf49785e2ef080", "type": "electric_scooter"}, {"fusion_lon": 0.0, "fusion_lat": 0.0, "rental_uris": {"ios": "https://dc.lft.to/lastmile_qr_scan", "android": "https://dc.lft.to/lastmile_qr_scan"}, "is_disabled": 0, "bike_id": "eab229f0b590b106d1bec61968f949d8", "lat": 38.900245166666664, "is_reserved": 0, "lon": -77.00210066666666, "name": "eab229f0b590b106d1bec61968f949d8", "type": "electric_scooter"}, {"fusion_lon": 0.0, "fusion_lat": 0.0, "rental_uris": {"ios": "https://dc.lft.to/lastmile_qr_scan", "android": "https://dc.lft.to/lastmile_qr_scan"}, "is_disabled": 0, "bike_id": "da27419d6d97a1e5d2f7c0b8e84d4ff6", "lat": 38.928332166666664, "is_reserved": 0, "lon": -77.05970066666667, "name": "da27419d6d97a1e5d2f7c0b8e84d4ff6", "type": "electric_scooter"}, {"fusion_lon": 0.0, "fusion_lat": 0.0, "rental_uris": {"ios": "https://dc.lft.to/lastmile_qr_scan", "android": "https://dc.lft.to/lastmile_qr_scan"}, "is_disabled": 0, "bike_id": "41250e54291d2ffa2772f761b8773145", "lat": 38.9286795, "is_reserved": 0, "lon": -77.0316635, "name": "41250e54291d2ffa2772f761b8773145", "type": "electric_scooter"}, {"fusion_lon": 0.0, "fusion_lat": 0.0, "rental_uris": {"ios": "https://dc.lft.to/lastmile_qr_scan", "android": "https://dc.lft.to/lastmile_qr_scan"}, "is_disabled": 0, "bike_id": "bf4dc5424c6a222bea02e0dcfe746aa8", "lat": 38.90549166666667, "is_reserved": 0, "lon": -77.0416155, "name": "bf4dc5424c6a222bea02e0dcfe746aa8", "type": "electric_scooter"}, {"fusion_lon": 0.0, "fusion_lat": 0.0, "rental_uris": {"ios": "https://dc.lft.to/lastmile_qr_scan", "android": "https://dc.lft.to/lastmile_qr_scan"}, "is_disabled": 0, "bike_id": "4df85f07061dca1c9461a48e3ef81735", "lat": 38.9001695, "is_reserved": 0, "lon": -77.0001835, "name": "4df85f07061dca1c9461a48e3ef81735", "type": "electric_scooter"}, {"fusion_lon": 0.0, "fusion_lat": 0.0, "rental_uris": {"ios": "https://dc.lft.to/lastmile_qr_scan", "android": "https://dc.lft.to/lastmile_qr_scan"}, "is_disabled": 0, "bike_id": "db7272c5b40321c181cd9fa658fce29a", "lat": 38.864466, "is_reserved": 0, "lon": -76.99912066666667, "name": "db7272c5b40321c181cd9fa658fce29a", "type": "electric_bike"}, {"fusion_lon": 0.0, "fusion_lat": 0.0, "rental_uris": {"ios": "https://dc.lft.to/lastmile_qr_scan", "android": "https://dc.lft.to/lastmile_qr_scan"}, "is_disabled": 0, "bike_id": "8720791be55a91f0771adad48affff7f", "lat": 38.911598166666664, "is_reserved": 0, "lon": -77.06228366666667, "name": "8720791be55a91f0771adad48affff7f", "type": "electric_scooter"}, {"fusion_lon": 0.0, "fusion_lat": 0.0, "rental_uris": {"ios": "https://dc.lft.to/lastmile_qr_scan", "android": "https://dc.lft.to/lastmile_qr_scan"}, "is_disabled": 0, "bike_id": "ad0180491f4e06d979126c5c490806e3", "lat": 38.91362916666667, "is_reserved": 0, "lon": -77.04561016666666, "name": "ad0180491f4e06d979126c5c490806e3", "type": "electric_scooter"}, {"fusion_lon": 0.0, "fusion_lat": 0.0, "rental_uris": {"ios": "https://dc.lft.to/lastmile_qr_scan", "android": "https://dc.lft.to/lastmile_qr_scan"}, "is_disabled": 0, "bike_id": "042871cf3ef6dd25218024da6694a4d6", "lat": 38.9026735, "is_reserved": 0, "lon": -76.936318, "name": "042871cf3ef6dd25218024da6694a4d6", "type": "electric_scooter"}, {"fusion_lon": 0.0, "fusion_lat": 0.0, "rental_uris": {"ios": "https://dc.lft.to/lastmile_qr_scan", "android": "https://dc.lft.to/lastmile_qr_scan"}, "is_disabled": 0, "bike_id": "14cd9f606a4ae5670a34e0f65f3dde62", "lat": 38.934134, "is_reserved": 0, "lon": -77.0202725, "name": "14cd9f606a4ae5670a34e0f65f3dde62", "type": "electric_scooter"}, {"fusion_lon": 0.0, "fusion_lat": 0.0, "rental_uris": {"ios": "https://dc.lft.to/lastmile_qr_scan", "android": "https://dc.lft.to/lastmile_qr_scan"}, "is_disabled": 0, "bike_id": "d2837b7d5ce23b70f21e89badabe7309", "lat": 38.985282833333336, "is_reserved": 0, "lon": -77.0041425, "name": "d2837b7d5ce23b70f21e89badabe7309", "type": "electric_bike"}, {"fusion_lon": 0.0, "fusion_lat": 0.0, "rental_uris": {"ios": "https://dc.lft.to/lastmile_qr_scan", "android": "https://dc.lft.to/lastmile_qr_scan"}, "is_disabled": 0, "bike_id": "66615d7e5086354030a0bb1aa071b693", "lat": 38.89459133333333, "is_reserved": 0, "lon": -77.02377716666666, "name": "66615d7e5086354030a0bb1aa071b693", "type": "electric_scooter"}, {"fusion_lon": 0.0, "fusion_lat": 0.0, "rental_uris": {"ios": "https://dc.lft.to/lastmile_qr_scan", "android": "https://dc.lft.to/lastmile_qr_scan"}, "is_disabled": 0, "bike_id": "b31ddb6f85d069659e108e1e03f41705", "lat": 38.92331333333333, "is_reserved": 0, "lon": -77.01957083333333, "name": "b31ddb6f85d069659e108e1e03f41705", "type": "electric_scooter"}, {"fusion_lon": 0.0, "fusion_lat": 0.0, "rental_uris": {"ios": "https://dc.lft.to/lastmile_qr_scan", "android": "https://dc.lft.to/lastmile_qr_scan"}, "is_disabled": 0, "bike_id": "50f50139fe53b83e7e8a7077acac6036", "lat": 38.9215575, "is_reserved": 0, "lon": -77.01814466666667, "name": "50f50139fe53b83e7e8a7077acac6036", "type": "electric_scooter"}, {"fusion_lon": 0.0, "fusion_lat": 0.0, "rental_uris": {"ios": "https://dc.lft.to/lastmile_qr_scan", "android": "https://dc.lft.to/lastmile_qr_scan"}, "is_disabled": 0, "bike_id": "19ffbd520f0303f82b9397ea47130dcc", "lat": 38.926803, "is_reserved": 0, "lon": -77.01510233333333, "name": "19ffbd520f0303f82b9397ea47130dcc", "type": "electric_scooter"}, {"fusion_lon": 0.0, "fusion_lat": 0.0, "rental_uris": {"ios": "https://dc.lft.to/lastmile_qr_scan", "android": "https://dc.lft.to/lastmile_qr_scan"}, "is_disabled": 0, "bike_id": "b9769906ccd9d60bee471f945ed2d907", "lat": 39.0262265, "is_reserved": 0, "lon": -77.0200685, "name": "b9769906ccd9d60bee471f945ed2d907", "type": "electric_bike"}, {"fusion_lon": 0.0, "fusion_lat": 0.0, "rental_uris": {"ios": "https://dc.lft.to/lastmile_qr_scan", "android": "https://dc.lft.to/lastmile_qr_scan"}, "is_disabled": 0, "bike_id": "b5889e91450fae79f798c8a93a3eba3c", "lat": 38.8668175, "is_reserved": 0, "lon": -76.98510283333333, "name": "b5889e91450fae79f798c8a93a3eba3c", "type": "electric_bike"}, {"fusion_lon": 0.0, "fusion_lat": 0.0, "rental_uris": {"ios": "https://dc.lft.to/lastmile_qr_scan", "android": "https://dc.lft.to/lastmile_qr_scan"}, "is_disabled": 0, "bike_id": "fbdbea4bd2ca6e253582876bc3513a92", "lat": 38.8947925, "is_reserved": 0, "lon": -77.02319833333334, "name": "fbdbea4bd2ca6e253582876bc3513a92", "type": "electric_scooter"}, {"fusion_lon": 0.0, "fusion_lat": 0.0, "rental_uris": {"ios": "https://dc.lft.to/lastmile_qr_scan", "android": "https://dc.lft.to/lastmile_qr_scan"}, "is_disabled": 0, "bike_id": "ab70de6f9bef2a4af5da1b2b2d8481a7", "lat": 38.83101383333333, "is_reserved": 0, "lon": -77.1128825, "name": "ab70de6f9bef2a4af5da1b2b2d8481a7", "type": "electric_bike"}, {"fusion_lon": 0.0, "fusion_lat": 0.0, "rental_uris": {"ios": "https://dc.lft.to/lastmile_qr_scan", "android": "https://dc.lft.to/lastmile_qr_scan"}, "is_disabled": 0, "bike_id": "1ebd094480abb389d0bc441467910ca6", "lat": 38.915642166666665, "is_reserved": 0, "lon": -77.00818716666667, "name": "1ebd094480abb389d0bc441467910ca6", "type": "electric_scooter"}, {"fusion_lon": 0.0, "fusion_lat": 0.0, "rental_uris": {"ios": "https://dc.lft.to/lastmile_qr_scan", "android": "https://dc.lft.to/lastmile_qr_scan"}, "is_disabled": 0, "bike_id": "a4e1f174de5be9a1c0e6bc5688481071", "lat": 38.93079733333333, "is_reserved": 0, "lon": -77.026906, "name": "a4e1f174de5be9a1c0e6bc5688481071", "type": "electric_scooter"}, {"fusion_lon": 0.0, "fusion_lat": 0.0, "rental_uris": {"ios": "https://dc.lft.to/lastmile_qr_scan", "android": "https://dc.lft.to/lastmile_qr_scan"}, "is_disabled": 0, "bike_id": "9c6b1d43be6d5417fb4e3dad1988adda", "lat": 38.916564, "is_reserved": 0, "lon": -77.02310816666666, "name": "9c6b1d43be6d5417fb4e3dad1988adda", "type": "electric_scooter"}, {"fusion_lon": 0.0, "fusion_lat": 0.0, "rental_uris": {"ios": "https://dc.lft.to/lastmile_qr_scan", "android": "https://dc.lft.to/lastmile_qr_scan"}, "is_disabled": 0, "bike_id": "c3b558f37bb405e024a75067c7c60a0a", "lat": 38.90568666666667, "is_reserved": 0, "lon": -77.03455183333334, "name": "c3b558f37bb405e024a75067c7c60a0a", "type": "electric_scooter"}, {"fusion_lon": 0.0, "fusion_lat": 0.0, "rental_uris": {"ios": "https://dc.lft.to/lastmile_qr_scan", "android": "https://dc.lft.to/lastmile_qr_scan"}, "is_disabled": 0, "bike_id": "aa8bfd56178bd998c3f0bdd5d5b50a33", "lat": 38.90744333333333, "is_reserved": 0, "lon": -77.03444733333333, "name": "aa8bfd56178bd998c3f0bdd5d5b50a33", "type": "electric_scooter"}, {"fusion_lon": 0.0, "fusion_lat": 0.0, "rental_uris": {"ios": "https://dc.lft.to/lastmile_qr_scan", "android": "https://dc.lft.to/lastmile_qr_scan"}, "is_disabled": 0, "bike_id": "6cb6c5d8de102c589a6f229bd552f702", "lat": 38.92095233333333, "is_reserved": 0, "lon": -77.02422516666667, "name": "6cb6c5d8de102c589a6f229bd552f702", "type": "electric_scooter"}, {"fusion_lon": 0.0, "fusion_lat": 0.0, "rental_uris": {"ios": "https://dc.lft.to/lastmile_qr_scan", "android": "https://dc.lft.to/lastmile_qr_scan"}, "is_disabled": 0, "bike_id": "7d663b7dffef3cc7758e2ccf40ff7481", "lat": 38.880656333333334, "is_reserved": 0, "lon": -77.005484, "name": "7d663b7dffef3cc7758e2ccf40ff7481", "type": "electric_scooter"}, {"fusion_lon": 0.0, "fusion_lat": 0.0, "rental_uris": {"ios": "https://dc.lft.to/lastmile_qr_scan", "android": "https://dc.lft.to/lastmile_qr_scan"}, "is_disabled": 0, "bike_id": "331cf2934204f0887e924e545cc9fb80", "lat": 38.91197866666667, "is_reserved": 0, "lon": -77.04038583333333, "name": "331cf2934204f0887e924e545cc9fb80", "type": "electric_scooter"}, {"fusion_lon": 0.0, "fusion_lat": 0.0, "rental_uris": {"ios": "https://dc.lft.to/lastmile_qr_scan", "android": "https://dc.lft.to/lastmile_qr_scan"}, "is_disabled": 0, "bike_id": "ca959200ffa1b0ec70c2dde141267da0", "lat": 38.92882933333333, "is_reserved": 0, "lon": -77.03329466666666, "name": "ca959200ffa1b0ec70c2dde141267da0", "type": "electric_scooter"}, {"fusion_lon": 0.0, "fusion_lat": 0.0, "rental_uris": {"ios": "https://dc.lft.to/lastmile_qr_scan", "android": "https://dc.lft.to/lastmile_qr_scan"}, "is_disabled": 0, "bike_id": "e557159a3f4a2a239c3e91e64ff24e45", "lat": 38.838661, "is_reserved": 0, "lon": -76.99691266666666, "name": "e557159a3f4a2a239c3e91e64ff24e45", "type": "electric_bike"}, {"fusion_lon": 0.0, "fusion_lat": 0.0, "rental_uris": {"ios": "https://dc.lft.to/lastmile_qr_scan", "android": "https://dc.lft.to/lastmile_qr_scan"}, "is_disabled": 0, "bike_id": "1599c193622362017b18b55f59bce900", "lat": 38.913508666666665, "is_reserved": 0, "lon": -77.02882366666667, "name": "1599c193622362017b18b55f59bce900", "type": "electric_scooter"}, {"fusion_lon": 0.0, "fusion_lat": 0.0, "rental_uris": {"ios": "https://dc.lft.to/lastmile_qr_scan", "android": "https://dc.lft.to/lastmile_qr_scan"}, "is_disabled": 0, "bike_id": "2c88a60934a466bd73fdf7984331564e", "lat": 38.97257283333333, "is_reserved": 0, "lon": -76.99277583333334, "name": "2c88a60934a466bd73fdf7984331564e", "type": "electric_bike"}, {"fusion_lon": 0.0, "fusion_lat": 0.0, "rental_uris": {"ios": "https://dc.lft.to/lastmile_qr_scan", "android": "https://dc.lft.to/lastmile_qr_scan"}, "is_disabled": 0, "bike_id": "3a04edee94b58a7527c0e94e9e3c0135", "lat": 38.894727, "is_reserved": 0, "lon": -77.02170933333333, "name": "3a04edee94b58a7527c0e94e9e3c0135", "type": "electric_scooter"}, {"fusion_lon": 0.0, "fusion_lat": 0.0, "rental_uris": {"ios": "https://dc.lft.to/lastmile_qr_scan", "android": "https://dc.lft.to/lastmile_qr_scan"}, "is_disabled": 0, "bike_id": "e9b98a8cb8bf284588fa041c6f02eac8", "lat": 38.877176166666665, "is_reserved": 0, "lon": -77.003405, "name": "e9b98a8cb8bf284588fa041c6f02eac8", "type": "electric_scooter"}, {"fusion_lon": 0.0, "fusion_lat": 0.0, "rental_uris": {"ios": "https://dc.lft.to/lastmile_qr_scan", "android": "https://dc.lft.to/lastmile_qr_scan"}, "is_disabled": 0, "bike_id": "425e23b1f65397cd516f259b95046b52", "lat": 38.98280966666667, "is_reserved": 0, "lon": -76.94550883333334, "name": "425e23b1f65397cd516f259b95046b52", "type": "electric_bike"}, {"fusion_lon": 0.0, "fusion_lat": 0.0, "rental_uris": {"ios": "https://dc.lft.to/lastmile_qr_scan", "android": "https://dc.lft.to/lastmile_qr_scan"}, "is_disabled": 0, "bike_id": "423bff9203b7826bd8b4abf244dace58", "lat": 38.99782966666667, "is_reserved": 0, "lon": -77.0075765, "name": "423bff9203b7826bd8b4abf244dace58", "type": "electric_bike"}, {"fusion_lon": 0.0, "fusion_lat": 0.0, "rental_uris": {"ios": "https://dc.lft.to/lastmile_qr_scan", "android": "https://dc.lft.to/lastmile_qr_scan"}, "is_disabled": 0, "bike_id": "9003c01532b0ca9b544f62edad570465", "lat": 38.908405333333334, "is_reserved": 0, "lon": -77.03468333333333, "name": "9003c01532b0ca9b544f62edad570465", "type": "electric_scooter"}, {"fusion_lon": 0.0, "fusion_lat": 0.0, "rental_uris": {"ios": "https://dc.lft.to/lastmile_qr_scan", "android": "https://dc.lft.to/lastmile_qr_scan"}, "is_disabled": 0, "bike_id": "cbf04afa6dbe34f1d9e1add6ce68be88", "lat": 38.91462416666667, "is_reserved": 0, "lon": -77.00215333333334, "name": "cbf04afa6dbe34f1d9e1add6ce68be88", "type": "electric_scooter"}, {"fusion_lon": 0.0, "fusion_lat": 0.0, "rental_uris": {"ios": "https://dc.lft.to/lastmile_qr_scan", "android": "https://dc.lft.to/lastmile_qr_scan"}, "is_disabled": 0, "bike_id": "9caa8d0265d7f0cf02ab24c8ecad5507", "lat": 38.933129666666666, "is_reserved": 0, "lon": -77.0284965, "name": "9caa8d0265d7f0cf02ab24c8ecad5507", "type": "electric_scooter"}, {"fusion_lon": 0.0, "fusion_lat": 0.0, "rental_uris": {"ios": "https://dc.lft.to/lastmile_qr_scan", "android": "https://dc.lft.to/lastmile_qr_scan"}, "is_disabled": 0, "bike_id": "83c6ac99cdf09511b6a059c6a3e0e871", "lat": 38.917683833333335, "is_reserved": 0, "lon": -77.09668783333333, "name": "83c6ac99cdf09511b6a059c6a3e0e871", "type": "electric_scooter"}, {"fusion_lon": 0.0, "fusion_lat": 0.0, "rental_uris": {"ios": "https://dc.lft.to/lastmile_qr_scan", "android": "https://dc.lft.to/lastmile_qr_scan"}, "is_disabled": 0, "bike_id": "a8e37d9fc5b2a7f610b74971e71ea1aa", "lat": 38.88465716666666, "is_reserved": 0, "lon": -76.95245783333333, "name": "a8e37d9fc5b2a7f610b74971e71ea1aa", "type": "electric_bike"}, {"fusion_lon": 0.0, "fusion_lat": 0.0, "rental_uris": {"ios": "https://dc.lft.to/lastmile_qr_scan", "android": "https://dc.lft.to/lastmile_qr_scan"}, "is_disabled": 0, "bike_id": "6fc0ff969bc9e59e9151608dc5f29c5b", "lat": 38.87861566666667, "is_reserved": 0, "lon": -76.93757, "name": "6fc0ff969bc9e59e9151608dc5f29c5b", "type": "electric_scooter"}, {"fusion_lon": 0.0, "fusion_lat": 0.0, "rental_uris": {"ios": "https://dc.lft.to/lastmile_qr_scan", "android": "https://dc.lft.to/lastmile_qr_scan"}, "is_disabled": 0, "bike_id": "103909bc94b107fb57b36586344f4d7d", "lat": 38.934292666666664, "is_reserved": 0, "lon": -77.0400225, "name": "103909bc94b107fb57b36586344f4d7d", "type": "electric_scooter"}, {"fusion_lon": 0.0, "fusion_lat": 0.0, "rental_uris": {"ios": "https://dc.lft.to/lastmile_qr_scan", "android": "https://dc.lft.to/lastmile_qr_scan"}, "is_disabled": 0, "bike_id": "813c0c26a1a0fcc53e27c3a6514003f8", "lat": 38.900344833333335, "is_reserved": 0, "lon": -77.0091585, "name": "813c0c26a1a0fcc53e27c3a6514003f8", "type": "electric_scooter"}, {"fusion_lon": 0.0, "fusion_lat": 0.0, "rental_uris": {"ios": "https://dc.lft.to/lastmile_qr_scan", "android": "https://dc.lft.to/lastmile_qr_scan"}, "is_disabled": 0, "bike_id": "90cd42639fd199be56e236039d86fe9d", "lat": 38.9001825, "is_reserved": 0, "lon": -77.03057783333334, "name": "90cd42639fd199be56e236039d86fe9d", "type": "electric_scooter"}, {"fusion_lon": 0.0, "fusion_lat": 0.0, "rental_uris": {"ios": "https://dc.lft.to/lastmile_qr_scan", "android": "https://dc.lft.to/lastmile_qr_scan"}, "is_disabled": 0, "bike_id": "a9f21ee59a74a19b3eb5eabab328face", "lat": 38.91173583333333, "is_reserved": 0, "lon": -77.03185516666667, "name": "a9f21ee59a74a19b3eb5eabab328face", "type": "electric_scooter"}, {"fusion_lon": 0.0, "fusion_lat": 0.0, "rental_uris": {"ios": "https://dc.lft.to/lastmile_qr_scan", "android": "https://dc.lft.to/lastmile_qr_scan"}, "is_disabled": 0, "bike_id": "0ae9cbdd288a1d8eb2dcade8c02e4c84", "lat": 38.8777455, "is_reserved": 0, "lon": -77.01300733333333, "name": "0ae9cbdd288a1d8eb2dcade8c02e4c84", "type": "electric_scooter"}, {"fusion_lon": 0.0, "fusion_lat": 0.0, "rental_uris": {"ios": "https://dc.lft.to/lastmile_qr_scan", "android": "https://dc.lft.to/lastmile_qr_scan"}, "is_disabled": 0, "bike_id": "e8057c047340791e1738350c11cbf7fc", "lat": 38.897492166666666, "is_reserved": 0, "lon": -77.01886833333333, "name": "e8057c047340791e1738350c11cbf7fc", "type": "electric_scooter"}, {"fusion_lon": 0.0, "fusion_lat": 0.0, "rental_uris": {"ios": "https://dc.lft.to/lastmile_qr_scan", "android": "https://dc.lft.to/lastmile_qr_scan"}, "is_disabled": 0, "bike_id": "a2b6f6186304ce9a45a6ae1bf89a35ce", "lat": 38.936120333333335, "is_reserved": 0, "lon": -77.036684, "name": "a2b6f6186304ce9a45a6ae1bf89a35ce", "type": "electric_scooter"}, {"fusion_lon": 0.0, "fusion_lat": 0.0, "rental_uris": {"ios": "https://dc.lft.to/lastmile_qr_scan", "android": "https://dc.lft.to/lastmile_qr_scan"}, "is_disabled": 0, "bike_id": "8e0cf34ad9bc4a688fe3a7368b846de4", "lat": 38.90031033333333, "is_reserved": 0, "lon": -77.017835, "name": "8e0cf34ad9bc4a688fe3a7368b846de4", "type": "electric_scooter"}, {"fusion_lon": 0.0, "fusion_lat": 0.0, "rental_uris": {"ios": "https://dc.lft.to/lastmile_qr_scan", "android": "https://dc.lft.to/lastmile_qr_scan"}, "is_disabled": 0, "bike_id": "0fc0386423444e82d6bc5ff649fd4e40", "lat": 38.92709583333333, "is_reserved": 0, "lon": -77.020935, "name": "0fc0386423444e82d6bc5ff649fd4e40", "type": "electric_scooter"}, {"fusion_lon": 0.0, "fusion_lat": 0.0, "rental_uris": {"ios": "https://dc.lft.to/lastmile_qr_scan", "android": "https://dc.lft.to/lastmile_qr_scan"}, "is_disabled": 0, "bike_id": "4d37afbff94284636824e90ca20495c6", "lat": 38.830664166666665, "is_reserved": 0, "lon": -77.04079483333334, "name": "4d37afbff94284636824e90ca20495c6", "type": "electric_bike"}, {"fusion_lon": 0.0, "fusion_lat": 0.0, "rental_uris": {"ios": "https://dc.lft.to/lastmile_qr_scan", "android": "https://dc.lft.to/lastmile_qr_scan"}, "is_disabled": 0, "bike_id": "5185e65515ceee00dd7f4a0ddf876d21", "lat": 38.90776366666667, "is_reserved": 0, "lon": -77.07167183333334, "name": "5185e65515ceee00dd7f4a0ddf876d21", "type": "electric_scooter"}, {"fusion_lon": 0.0, "fusion_lat": 0.0, "rental_uris": {"ios": "https://dc.lft.to/lastmile_qr_scan", "android": "https://dc.lft.to/lastmile_qr_scan"}, "is_disabled": 0, "bike_id": "da4f1d37fda2507b00b22b9df618d601", "lat": 38.87721716666667, "is_reserved": 0, "lon": -77.00342733333333, "name": "da4f1d37fda2507b00b22b9df618d601", "type": "electric_scooter"}, {"fusion_lon": 0.0, "fusion_lat": 0.0, "rental_uris": {"ios": "https://dc.lft.to/lastmile_qr_scan", "android": "https://dc.lft.to/lastmile_qr_scan"}, "is_disabled": 0, "bike_id": "7b52bb2d9137268eb0a97308bb13e05e", "lat": 38.92753866666666, "is_reserved": 0, "lon": -77.0329495, "name": "7b52bb2d9137268eb0a97308bb13e05e", "type": "electric_scooter"}, {"fusion_lon": 0.0, "fusion_lat": 0.0, "rental_uris": {"ios": "https://dc.lft.to/lastmile_qr_scan", "android": "https://dc.lft.to/lastmile_qr_scan"}, "is_disabled": 0, "bike_id": "cf43ba9811fbe3b707fc44386c92623a", "lat": 38.90284783333333, "is_reserved": 0, "lon": -77.034187, "name": "cf43ba9811fbe3b707fc44386c92623a", "type": "electric_scooter"}, {"fusion_lon": 0.0, "fusion_lat": 0.0, "rental_uris": {"ios": "https://dc.lft.to/lastmile_qr_scan", "android": "https://dc.lft.to/lastmile_qr_scan"}, "is_disabled": 0, "bike_id": "26c157ecaa6c5b0e6268487eeae01406", "lat": 38.845474833333334, "is_reserved": 0, "lon": -76.99722166666666, "name": "26c157ecaa6c5b0e6268487eeae01406", "type": "electric_scooter"}, {"fusion_lon": 0.0, "fusion_lat": 0.0, "rental_uris": {"ios": "https://dc.lft.to/lastmile_qr_scan", "android": "https://dc.lft.to/lastmile_qr_scan"}, "is_disabled": 0, "bike_id": "20bbad12c12e5c4e91babcbd204c58eb", "lat": 38.90981283333333, "is_reserved": 0, "lon": -77.03439533333334, "name": "20bbad12c12e5c4e91babcbd204c58eb", "type": "electric_scooter"}, {"fusion_lon": 0.0, "fusion_lat": 0.0, "rental_uris": {"ios": "https://dc.lft.to/lastmile_qr_scan", "android": "https://dc.lft.to/lastmile_qr_scan"}, "is_disabled": 0, "bike_id": "2a96889440ca43d9d3aef37f4ce3d78e", "lat": 38.9033455, "is_reserved": 0, "lon": -77.0237555, "name": "2a96889440ca43d9d3aef37f4ce3d78e", "type": "electric_scooter"}, {"fusion_lon": 0.0, "fusion_lat": 0.0, "rental_uris": {"ios": "https://dc.lft.to/lastmile_qr_scan", "android": "https://dc.lft.to/lastmile_qr_scan"}, "is_disabled": 0, "bike_id": "7434153704da29c7ae0944fb273a8420", "lat": 38.9171985, "is_reserved": 0, "lon": -77.03857816666667, "name": "7434153704da29c7ae0944fb273a8420", "type": "electric_scooter"}, {"fusion_lon": 0.0, "fusion_lat": 0.0, "rental_uris": {"ios": "https://dc.lft.to/lastmile_qr_scan", "android": "https://dc.lft.to/lastmile_qr_scan"}, "is_disabled": 0, "bike_id": "5b0261fdc51033ea35004b62ddfe7098", "lat": 38.9166425, "is_reserved": 0, "lon": -77.03849566666666, "name": "5b0261fdc51033ea35004b62ddfe7098", "type": "electric_scooter"}, {"fusion_lon": 0.0, "fusion_lat": 0.0, "rental_uris": {"ios": "https://dc.lft.to/lastmile_qr_scan", "android": "https://dc.lft.to/lastmile_qr_scan"}, "is_disabled": 0, "bike_id": "01e8c9e6b60cf1eb4efdd22476b858f0", "lat": 38.97004483333333, "is_reserved": 0, "lon": -77.02549283333333, "name": "01e8c9e6b60cf1eb4efdd22476b858f0", "type": "electric_scooter"}, {"fusion_lon": 0.0, "fusion_lat": 0.0, "rental_uris": {"ios": "https://dc.lft.to/lastmile_qr_scan", "android": "https://dc.lft.to/lastmile_qr_scan"}, "is_disabled": 0, "bike_id": "0d0c2e4b06700529b133032c192f4ac1", "lat": 38.9037395, "is_reserved": 0, "lon": -77.045498, "name": "0d0c2e4b06700529b133032c192f4ac1", "type": "electric_scooter"}, {"fusion_lon": 0.0, "fusion_lat": 0.0, "rental_uris": {"ios": "https://dc.lft.to/lastmile_qr_scan", "android": "https://dc.lft.to/lastmile_qr_scan"}, "is_disabled": 0, "bike_id": "3c3769311e5787a7a309f1427c73c28a", "lat": 38.85620433333333, "is_reserved": 0, "lon": -76.96152283333333, "name": "3c3769311e5787a7a309f1427c73c28a", "type": "electric_bike"}, {"fusion_lon": 0.0, "fusion_lat": 0.0, "rental_uris": {"ios": "https://dc.lft.to/lastmile_qr_scan", "android": "https://dc.lft.to/lastmile_qr_scan"}, "is_disabled": 0, "bike_id": "64f76b80f17109b06cc1b07b71f183f6", "lat": 38.89533866666667, "is_reserved": 0, "lon": -77.03986483333334, "name": "64f76b80f17109b06cc1b07b71f183f6", "type": "electric_scooter"}, {"fusion_lon": 0.0, "fusion_lat": 0.0, "rental_uris": {"ios": "https://dc.lft.to/lastmile_qr_scan", "android": "https://dc.lft.to/lastmile_qr_scan"}, "is_disabled": 0, "bike_id": "6a54a124d9ef78998499507b1c6cdb6b", "lat": 38.897224666666666, "is_reserved": 0, "lon": -77.0290275, "name": "6a54a124d9ef78998499507b1c6cdb6b", "type": "electric_scooter"}, {"fusion_lon": 0.0, "fusion_lat": 0.0, "rental_uris": {"ios": "https://dc.lft.to/lastmile_qr_scan", "android": "https://dc.lft.to/lastmile_qr_scan"}, "is_disabled": 0, "bike_id": "f67dabd6cdc5939560699e7c652ac338", "lat": 38.916545, "is_reserved": 0, "lon": -77.009292, "name": "f67dabd6cdc5939560699e7c652ac338", "type": "electric_scooter"}, {"fusion_lon": 0.0, "fusion_lat": 0.0, "rental_uris": {"ios": "https://dc.lft.to/lastmile_qr_scan", "android": "https://dc.lft.to/lastmile_qr_scan"}, "is_disabled": 0, "bike_id": "9dec559178ddedd110529bcbfad5e52f", "lat": 38.88505766666667, "is_reserved": 0, "lon": -76.9973865, "name": "9dec559178ddedd110529bcbfad5e52f", "type": "electric_scooter"}, {"fusion_lon": 0.0, "fusion_lat": 0.0, "rental_uris": {"ios": "https://dc.lft.to/lastmile_qr_scan", "android": "https://dc.lft.to/lastmile_qr_scan"}, "is_disabled": 0, "bike_id": "b2147c8c9afccf6ba2005a87b3591006", "lat": 38.896896166666664, "is_reserved": 0, "lon": -77.02723733333333, "name": "b2147c8c9afccf6ba2005a87b3591006", "type": "electric_scooter"}, {"fusion_lon": 0.0, "fusion_lat": 0.0, "rental_uris": {"ios": "https://dc.lft.to/lastmile_qr_scan", "android": "https://dc.lft.to/lastmile_qr_scan"}, "is_disabled": 0, "bike_id": "e1570564ab02901e6a01fccc31ca1a28", "lat": 38.90288983333333, "is_reserved": 0, "lon": -77.044654, "name": "e1570564ab02901e6a01fccc31ca1a28", "type": "electric_scooter"}, {"fusion_lon": 0.0, "fusion_lat": 0.0, "rental_uris": {"ios": "https://dc.lft.to/lastmile_qr_scan", "android": "https://dc.lft.to/lastmile_qr_scan"}, "is_disabled": 0, "bike_id": "a2372d0de921877acd7e918c6b77c5cf", "lat": 38.982652, "is_reserved": 0, "lon": -77.02610483333333, "name": "a2372d0de921877acd7e918c6b77c5cf", "type": "electric_scooter"}, {"fusion_lon": 0.0, "fusion_lat": 0.0, "rental_uris": {"ios": "https://dc.lft.to/lastmile_qr_scan", "android": "https://dc.lft.to/lastmile_qr_scan"}, "is_disabled": 0, "bike_id": "cfd1139415a6d9b7722580f857ea5a24", "lat": 38.920487, "is_reserved": 0, "lon": -77.01672433333333, "name": "cfd1139415a6d9b7722580f857ea5a24", "type": "electric_scooter"}, {"fusion_lon": 0.0, "fusion_lat": 0.0, "rental_uris": {"ios": "https://dc.lft.to/lastmile_qr_scan", "android": "https://dc.lft.to/lastmile_qr_scan"}, "is_disabled": 0, "bike_id": "d24ed185dc174c5ec7c9073e48ea4f93", "lat": 38.93565516666666, "is_reserved": 0, "lon": -77.06428716666667, "name": "d24ed185dc174c5ec7c9073e48ea4f93", "type": "electric_scooter"}, {"fusion_lon": 0.0, "fusion_lat": 0.0, "rental_uris": {"ios": "https://dc.lft.to/lastmile_qr_scan", "android": "https://dc.lft.to/lastmile_qr_scan"}, "is_disabled": 0, "bike_id": "5f5f57a4b9d3015032502fc6c17f98e0", "lat": 38.898389333333334, "is_reserved": 0, "lon": -77.03052866666667, "name": "5f5f57a4b9d3015032502fc6c17f98e0", "type": "electric_scooter"}, {"fusion_lon": 0.0, "fusion_lat": 0.0, "rental_uris": {"ios": "https://dc.lft.to/lastmile_qr_scan", "android": "https://dc.lft.to/lastmile_qr_scan"}, "is_disabled": 0, "bike_id": "295ad17206ad19db97551b8322b85248", "lat": 38.9332255, "is_reserved": 0, "lon": -77.08557933333333, "name": "295ad17206ad19db97551b8322b85248", "type": "electric_bike"}, {"fusion_lon": 0.0, "fusion_lat": 0.0, "rental_uris": {"ios": "https://dc.lft.to/lastmile_qr_scan", "android": "https://dc.lft.to/lastmile_qr_scan"}, "is_disabled": 0, "bike_id": "88d35905dbc6c2b5d7acdf702d6c9f49", "lat": 38.925510833333334, "is_reserved": 0, "lon": -77.032262, "name": "88d35905dbc6c2b5d7acdf702d6c9f49", "type": "electric_scooter"}, {"fusion_lon": 0.0, "fusion_lat": 0.0, "rental_uris": {"ios": "https://dc.lft.to/lastmile_qr_scan", "android": "https://dc.lft.to/lastmile_qr_scan"}, "is_disabled": 0, "bike_id": "2eb3573d74cfa58fe1df0f4ce71766ee", "lat": 39.08441966666667, "is_reserved": 0, "lon": -76.95156466666667, "name": "2eb3573d74cfa58fe1df0f4ce71766ee", "type": "electric_bike"}, {"fusion_lon": 0.0, "fusion_lat": 0.0, "rental_uris": {"ios": "https://dc.lft.to/lastmile_qr_scan", "android": "https://dc.lft.to/lastmile_qr_scan"}, "is_disabled": 0, "bike_id": "c343ea8c261819d91026e8af4b223762", "lat": 38.90949666666667, "is_reserved": 0, "lon": -76.9359515, "name": "c343ea8c261819d91026e8af4b223762", "type": "electric_scooter"}, {"fusion_lon": 0.0, "fusion_lat": 0.0, "rental_uris": {"ios": "https://dc.lft.to/lastmile_qr_scan", "android": "https://dc.lft.to/lastmile_qr_scan"}, "is_disabled": 0, "bike_id": "1a178244c2f1005644f6f9babe871e82", "lat": 38.890875666666666, "is_reserved": 0, "lon": -76.99945183333334, "name": "1a178244c2f1005644f6f9babe871e82", "type": "electric_scooter"}, {"fusion_lon": 0.0, "fusion_lat": 0.0, "rental_uris": {"ios": "https://dc.lft.to/lastmile_qr_scan", "android": "https://dc.lft.to/lastmile_qr_scan"}, "is_disabled": 0, "bike_id": "3ab6c5bc3759fecd541d48f5cf28aeeb", "lat": 38.82132133333333, "is_reserved": 0, "lon": -77.00155566666666, "name": "3ab6c5bc3759fecd541d48f5cf28aeeb", "type": "electric_scooter"}, {"fusion_lon": 0.0, "fusion_lat": 0.0, "rental_uris": {"ios": "https://dc.lft.to/lastmile_qr_scan", "android": "https://dc.lft.to/lastmile_qr_scan"}, "is_disabled": 0, "bike_id": "40751fc12716ac928354e61c34468f08", "lat": 38.90270916666667, "is_reserved": 0, "lon": -77.03204033333333, "name": "40751fc12716ac928354e61c34468f08", "type": "electric_scooter"}, {"fusion_lon": 0.0, "fusion_lat": 0.0, "rental_uris": {"ios": "https://dc.lft.to/lastmile_qr_scan", "android": "https://dc.lft.to/lastmile_qr_scan"}, "is_disabled": 0, "bike_id": "d78153dd11383a5bab1d7523bdf19c6f", "lat": 38.91838833333333, "is_reserved": 0, "lon": -77.03207266666666, "name": "d78153dd11383a5bab1d7523bdf19c6f", "type": "electric_scooter"}, {"fusion_lon": 0.0, "fusion_lat": 0.0, "rental_uris": {"ios": "https://dc.lft.to/lastmile_qr_scan", "android": "https://dc.lft.to/lastmile_qr_scan"}, "is_disabled": 0, "bike_id": "6bfbecc678d6af349b3f5d22d495de38", "lat": 38.8951265, "is_reserved": 0, "lon": -77.019016, "name": "6bfbecc678d6af349b3f5d22d495de38", "type": "electric_scooter"}, {"fusion_lon": 0.0, "fusion_lat": 0.0, "rental_uris": {"ios": "https://dc.lft.to/lastmile_qr_scan", "android": "https://dc.lft.to/lastmile_qr_scan"}, "is_disabled": 0, "bike_id": "f6c48f0cb2da5b16655ae22b01e1dbe4", "lat": 38.89831783333333, "is_reserved": 0, "lon": -77.02811283333334, "name": "f6c48f0cb2da5b16655ae22b01e1dbe4", "type": "electric_scooter"}, {"fusion_lon": 0.0, "fusion_lat": 0.0, "rental_uris": {"ios": "https://dc.lft.to/lastmile_qr_scan", "android": "https://dc.lft.to/lastmile_qr_scan"}, "is_disabled": 0, "bike_id": "ac6f12be0556eb7971886f44fd31c0eb", "lat": 38.921959, "is_reserved": 0, "lon": -77.0731905, "name": "ac6f12be0556eb7971886f44fd31c0eb", "type": "electric_scooter"}, {"fusion_lon": 0.0, "fusion_lat": 0.0, "rental_uris": {"ios": "https://dc.lft.to/lastmile_qr_scan", "android": "https://dc.lft.to/lastmile_qr_scan"}, "is_disabled": 0, "bike_id": "14d40631490eeca0804c819013d0df9e", "lat": 38.92474683333333, "is_reserved": 0, "lon": -77.033803, "name": "14d40631490eeca0804c819013d0df9e", "type": "electric_scooter"}, {"fusion_lon": 0.0, "fusion_lat": 0.0, "rental_uris": {"ios": "https://dc.lft.to/lastmile_qr_scan", "android": "https://dc.lft.to/lastmile_qr_scan"}, "is_disabled": 0, "bike_id": "fad6770eeed1125a89da9d56d6c670a9", "lat": 38.917756, "is_reserved": 0, "lon": -77.04334916666667, "name": "fad6770eeed1125a89da9d56d6c670a9", "type": "electric_scooter"}, {"fusion_lon": 0.0, "fusion_lat": 0.0, "rental_uris": {"ios": "https://dc.lft.to/lastmile_qr_scan", "android": "https://dc.lft.to/lastmile_qr_scan"}, "is_disabled": 0, "bike_id": "2b713756f218a95d8f3f4b5fc252a28a", "lat": 38.905099166666666, "is_reserved": 0, "lon": -77.04079883333333, "name": "2b713756f218a95d8f3f4b5fc252a28a", "type": "electric_scooter"}, {"fusion_lon": 0.0, "fusion_lat": 0.0, "rental_uris": {"ios": "https://dc.lft.to/lastmile_qr_scan", "android": "https://dc.lft.to/lastmile_qr_scan"}, "is_disabled": 0, "bike_id": "12f89c63f23d6f4ccb292247bc0f0c95", "lat": 38.893392, "is_reserved": 0, "lon": -77.01512483333333, "name": "12f89c63f23d6f4ccb292247bc0f0c95", "type": "electric_scooter"}, {"fusion_lon": 0.0, "fusion_lat": 0.0, "rental_uris": {"ios": "https://dc.lft.to/lastmile_qr_scan", "android": "https://dc.lft.to/lastmile_qr_scan"}, "is_disabled": 0, "bike_id": "3b2671d7fe1425702211ec1915d29f34", "lat": 38.90011, "is_reserved": 0, "lon": -77.01191533333333, "name": "3b2671d7fe1425702211ec1915d29f34", "type": "electric_scooter"}, {"fusion_lon": 0.0, "fusion_lat": 0.0, "rental_uris": {"ios": "https://dc.lft.to/lastmile_qr_scan", "android": "https://dc.lft.to/lastmile_qr_scan"}, "is_disabled": 0, "bike_id": "1759e89d5e16da302f9ef2a3f146e82d", "lat": 38.905142, "is_reserved": 0, "lon": -77.0488635, "name": "1759e89d5e16da302f9ef2a3f146e82d", "type": "electric_scooter"}, {"fusion_lon": 0.0, "fusion_lat": 0.0, "rental_uris": {"ios": "https://dc.lft.to/lastmile_qr_scan", "android": "https://dc.lft.to/lastmile_qr_scan"}, "is_disabled": 0, "bike_id": "dd2c75963dfec7f6e8938ed5461eaf43", "lat": 38.92288383333333, "is_reserved": 0, "lon": -77.04229366666667, "name": "dd2c75963dfec7f6e8938ed5461eaf43", "type": "electric_scooter"}, {"fusion_lon": 0.0, "fusion_lat": 0.0, "rental_uris": {"ios": "https://dc.lft.to/lastmile_qr_scan", "android": "https://dc.lft.to/lastmile_qr_scan"}, "is_disabled": 0, "bike_id": "895a91c43037dd88f8f5e05ab4fc10ec", "lat": 38.903063333333336, "is_reserved": 0, "lon": -77.03822083333333, "name": "895a91c43037dd88f8f5e05ab4fc10ec", "type": "electric_scooter"}, {"fusion_lon": 0.0, "fusion_lat": 0.0, "rental_uris": {"ios": "https://dc.lft.to/lastmile_qr_scan", "android": "https://dc.lft.to/lastmile_qr_scan"}, "is_disabled": 0, "bike_id": "c396898ec49cc3d7210fb6c80ba67302", "lat": 38.903763833333336, "is_reserved": 0, "lon": -77.042717, "name": "c396898ec49cc3d7210fb6c80ba67302", "type": "electric_scooter"}, {"fusion_lon": 0.0, "fusion_lat": 0.0, "rental_uris": {"ios": "https://dc.lft.to/lastmile_qr_scan", "android": "https://dc.lft.to/lastmile_qr_scan"}, "is_disabled": 0, "bike_id": "83dd45503ff6c7a9bf35972828d96d82", "lat": 38.89264683333333, "is_reserved": 0, "lon": -76.98370616666666, "name": "83dd45503ff6c7a9bf35972828d96d82", "type": "electric_scooter"}, {"fusion_lon": 0.0, "fusion_lat": 0.0, "rental_uris": {"ios": "https://dc.lft.to/lastmile_qr_scan", "android": "https://dc.lft.to/lastmile_qr_scan"}, "is_disabled": 0, "bike_id": "1d6815eafedaba36312e4a88171816f2", "lat": 38.92181583333333, "is_reserved": 0, "lon": -77.026623, "name": "1d6815eafedaba36312e4a88171816f2", "type": "electric_scooter"}, {"fusion_lon": 0.0, "fusion_lat": 0.0, "rental_uris": {"ios": "https://dc.lft.to/lastmile_qr_scan", "android": "https://dc.lft.to/lastmile_qr_scan"}, "is_disabled": 0, "bike_id": "a28140820dabf3cbedda848e17fc9231", "lat": 38.900295666666665, "is_reserved": 0, "lon": -76.98853966666667, "name": "a28140820dabf3cbedda848e17fc9231", "type": "electric_scooter"}, {"fusion_lon": 0.0, "fusion_lat": 0.0, "rental_uris": {"ios": "https://dc.lft.to/lastmile_qr_scan", "android": "https://dc.lft.to/lastmile_qr_scan"}, "is_disabled": 0, "bike_id": "315e662626300622e0e7a9c089efc215", "lat": 38.9240665, "is_reserved": 0, "lon": -77.02978816666666, "name": "315e662626300622e0e7a9c089efc215", "type": "electric_scooter"}, {"fusion_lon": 0.0, "fusion_lat": 0.0, "rental_uris": {"ios": "https://dc.lft.to/lastmile_qr_scan", "android": "https://dc.lft.to/lastmile_qr_scan"}, "is_disabled": 0, "bike_id": "2b88a422095c9a6f917cd2b00ee2d777", "lat": 38.84195033333334, "is_reserved": 0, "lon": -77.0775515, "name": "2b88a422095c9a6f917cd2b00ee2d777", "type": "electric_bike"}, {"fusion_lon": 0.0, "fusion_lat": 0.0, "rental_uris": {"ios": "https://dc.lft.to/lastmile_qr_scan", "android": "https://dc.lft.to/lastmile_qr_scan"}, "is_disabled": 0, "bike_id": "36b739a99db6278859b818bf1d94cef3", "lat": 38.92706716666667, "is_reserved": 0, "lon": -77.0208565, "name": "36b739a99db6278859b818bf1d94cef3", "type": "electric_scooter"}, {"fusion_lon": 0.0, "fusion_lat": 0.0, "rental_uris": {"ios": "https://dc.lft.to/lastmile_qr_scan", "android": "https://dc.lft.to/lastmile_qr_scan"}, "is_disabled": 0, "bike_id": "1b0ad465e37b8f312984803232c663a6", "lat": 38.90031283333333, "is_reserved": 0, "lon": -77.01194333333333, "name": "1b0ad465e37b8f312984803232c663a6", "type": "electric_scooter"}, {"fusion_lon": 0.0, "fusion_lat": 0.0, "rental_uris": {"ios": "https://dc.lft.to/lastmile_qr_scan", "android": "https://dc.lft.to/lastmile_qr_scan"}, "is_disabled": 0, "bike_id": "fe01d6c70add624d7d3d8a9cb420e57e", "lat": 38.90721283333333, "is_reserved": 0, "lon": -77.02938633333333, "name": "fe01d6c70add624d7d3d8a9cb420e57e", "type": "electric_scooter"}, {"fusion_lon": 0.0, "fusion_lat": 0.0, "rental_uris": {"ios": "https://dc.lft.to/lastmile_qr_scan", "android": "https://dc.lft.to/lastmile_qr_scan"}, "is_disabled": 0, "bike_id": "2e5a5165eac99c12bb8b2840c4145ae4", "lat": 38.988173833333335, "is_reserved": 0, "lon": -77.0265145, "name": "2e5a5165eac99c12bb8b2840c4145ae4", "type": "electric_bike"}, {"fusion_lon": 0.0, "fusion_lat": 0.0, "rental_uris": {"ios": "https://dc.lft.to/lastmile_qr_scan", "android": "https://dc.lft.to/lastmile_qr_scan"}, "is_disabled": 0, "bike_id": "9d408686139388e702dbafa0a8731157", "lat": 38.8920145, "is_reserved": 0, "lon": -77.0029685, "name": "9d408686139388e702dbafa0a8731157", "type": "electric_scooter"}, {"fusion_lon": 0.0, "fusion_lat": 0.0, "rental_uris": {"ios": "https://dc.lft.to/lastmile_qr_scan", "android": "https://dc.lft.to/lastmile_qr_scan"}, "is_disabled": 0, "bike_id": "6ca1209fd2a37a10a9d2dc00292daa63", "lat": 38.97972, "is_reserved": 0, "lon": -76.938033, "name": "6ca1209fd2a37a10a9d2dc00292daa63", "type": "electric_bike"}, {"fusion_lon": 0.0, "fusion_lat": 0.0, "rental_uris": {"ios": "https://dc.lft.to/lastmile_qr_scan", "android": "https://dc.lft.to/lastmile_qr_scan"}, "is_disabled": 0, "bike_id": "d2a6cfb6e8308c1d2dbf0c11e40d456e", "lat": 38.92030416666667, "is_reserved": 0, "lon": -77.03726683333333, "name": "d2a6cfb6e8308c1d2dbf0c11e40d456e", "type": "electric_scooter"}, {"fusion_lon": 0.0, "fusion_lat": 0.0, "rental_uris": {"ios": "https://dc.lft.to/lastmile_qr_scan", "android": "https://dc.lft.to/lastmile_qr_scan"}, "is_disabled": 0, "bike_id": "a1f81143df8885df86d83bde349658ec", "lat": 38.9055375, "is_reserved": 0, "lon": -77.030707, "name": "a1f81143df8885df86d83bde349658ec", "type": "electric_scooter"}, {"fusion_lon": 0.0, "fusion_lat": 0.0, "rental_uris": {"ios": "https://dc.lft.to/lastmile_qr_scan", "android": "https://dc.lft.to/lastmile_qr_scan"}, "is_disabled": 0, "bike_id": "daf61a9896df8737683de8709ec44782", "lat": 38.90833683333334, "is_reserved": 0, "lon": -77.03990433333334, "name": "daf61a9896df8737683de8709ec44782", "type": "electric_scooter"}, {"fusion_lon": 0.0, "fusion_lat": 0.0, "rental_uris": {"ios": "https://dc.lft.to/lastmile_qr_scan", "android": "https://dc.lft.to/lastmile_qr_scan"}, "is_disabled": 0, "bike_id": "bf44441c42a2ace986be40e0560cf7d8", "lat": 38.874593833333336, "is_reserved": 0, "lon": -77.0048405, "name": "bf44441c42a2ace986be40e0560cf7d8", "type": "electric_scooter"}, {"fusion_lon": 0.0, "fusion_lat": 0.0, "rental_uris": {"ios": "https://dc.lft.to/lastmile_qr_scan", "android": "https://dc.lft.to/lastmile_qr_scan"}, "is_disabled": 0, "bike_id": "738b7e863767cc13ffa0fa06403036db", "lat": 38.924432333333336, "is_reserved": 0, "lon": -77.03353633333333, "name": "738b7e863767cc13ffa0fa06403036db", "type": "electric_scooter"}, {"fusion_lon": 0.0, "fusion_lat": 0.0, "rental_uris": {"ios": "https://dc.lft.to/lastmile_qr_scan", "android": "https://dc.lft.to/lastmile_qr_scan"}, "is_disabled": 0, "bike_id": "f50025b0d92cf6d63d29d87536956aa1", "lat": 38.928868, "is_reserved": 0, "lon": -77.03484766666666, "name": "f50025b0d92cf6d63d29d87536956aa1", "type": "electric_scooter"}, {"fusion_lon": 0.0, "fusion_lat": 0.0, "rental_uris": {"ios": "https://dc.lft.to/lastmile_qr_scan", "android": "https://dc.lft.to/lastmile_qr_scan"}, "is_disabled": 0, "bike_id": "f7768b08c0c58b36928848362e7ea949", "lat": 38.91930966666666, "is_reserved": 0, "lon": -77.0190665, "name": "f7768b08c0c58b36928848362e7ea949", "type": "electric_scooter"}, {"fusion_lon": 0.0, "fusion_lat": 0.0, "rental_uris": {"ios": "https://dc.lft.to/lastmile_qr_scan", "android": "https://dc.lft.to/lastmile_qr_scan"}, "is_disabled": 0, "bike_id": "28978d80ca8c08f0947f90973408e4d8", "lat": 38.8962015, "is_reserved": 0, "lon": -77.0441595, "name": "28978d80ca8c08f0947f90973408e4d8", "type": "electric_scooter"}, {"fusion_lon": 0.0, "fusion_lat": 0.0, "rental_uris": {"ios": "https://dc.lft.to/lastmile_qr_scan", "android": "https://dc.lft.to/lastmile_qr_scan"}, "is_disabled": 0, "bike_id": "f175131e4f7096205512bdc9d19666aa", "lat": 38.91276033333333, "is_reserved": 0, "lon": -77.03644966666667, "name": "f175131e4f7096205512bdc9d19666aa", "type": "electric_scooter"}, {"fusion_lon": 0.0, "fusion_lat": 0.0, "rental_uris": {"ios": "https://dc.lft.to/lastmile_qr_scan", "android": "https://dc.lft.to/lastmile_qr_scan"}, "is_disabled": 0, "bike_id": "25b911caa9c65c3b692bcc22a00c74cf", "lat": 38.9172605, "is_reserved": 0, "lon": -77.01912983333334, "name": "25b911caa9c65c3b692bcc22a00c74cf", "type": "electric_scooter"}, {"fusion_lon": 0.0, "fusion_lat": 0.0, "rental_uris": {"ios": "https://dc.lft.to/lastmile_qr_scan", "android": "https://dc.lft.to/lastmile_qr_scan"}, "is_disabled": 0, "bike_id": "a163d2910a4b9697c8dc39d87e86a49b", "lat": 38.92147716666667, "is_reserved": 0, "lon": -77.01844883333334, "name": "a163d2910a4b9697c8dc39d87e86a49b", "type": "electric_scooter"}, {"fusion_lon": 0.0, "fusion_lat": 0.0, "rental_uris": {"ios": "https://dc.lft.to/lastmile_qr_scan", "android": "https://dc.lft.to/lastmile_qr_scan"}, "is_disabled": 0, "bike_id": "b35b89cf2a3aaf5b446daa5630633462", "lat": 38.88325616666667, "is_reserved": 0, "lon": -77.01563616666667, "name": "b35b89cf2a3aaf5b446daa5630633462", "type": "electric_scooter"}, {"fusion_lon": 0.0, "fusion_lat": 0.0, "rental_uris": {"ios": "https://dc.lft.to/lastmile_qr_scan", "android": "https://dc.lft.to/lastmile_qr_scan"}, "is_disabled": 0, "bike_id": "270abd8773d2d483b94563fc0322e0fc", "lat": 38.89740366666667, "is_reserved": 0, "lon": -77.013058, "name": "270abd8773d2d483b94563fc0322e0fc", "type": "electric_scooter"}, {"fusion_lon": 0.0, "fusion_lat": 0.0, "rental_uris": {"ios": "https://dc.lft.to/lastmile_qr_scan", "android": "https://dc.lft.to/lastmile_qr_scan"}, "is_disabled": 0, "bike_id": "6b836c1719ed9d093a58139208d8953b", "lat": 38.9072685, "is_reserved": 0, "lon": -76.9861565, "name": "6b836c1719ed9d093a58139208d8953b", "type": "electric_scooter"}, {"fusion_lon": 0.0, "fusion_lat": 0.0, "rental_uris": {"ios": "https://dc.lft.to/lastmile_qr_scan", "android": "https://dc.lft.to/lastmile_qr_scan"}, "is_disabled": 0, "bike_id": "58b86d45cceeb9dde2c1475101969418", "lat": 38.895097, "is_reserved": 0, "lon": -77.00332433333334, "name": "58b86d45cceeb9dde2c1475101969418", "type": "electric_scooter"}, {"fusion_lon": 0.0, "fusion_lat": 0.0, "rental_uris": {"ios": "https://dc.lft.to/lastmile_qr_scan", "android": "https://dc.lft.to/lastmile_qr_scan"}, "is_disabled": 0, "bike_id": "1c905a4f8998d7dbfbcc41c9d3efe255", "lat": 38.89472466666667, "is_reserved": 0, "lon": -77.01077783333334, "name": "1c905a4f8998d7dbfbcc41c9d3efe255", "type": "electric_scooter"}, {"fusion_lon": 0.0, "fusion_lat": 0.0, "rental_uris": {"ios": "https://dc.lft.to/lastmile_qr_scan", "android": "https://dc.lft.to/lastmile_qr_scan"}, "is_disabled": 0, "bike_id": "6ff60638d01b5869f46946e49b057565", "lat": 38.926061, "is_reserved": 0, "lon": -77.07326116666667, "name": "6ff60638d01b5869f46946e49b057565", "type": "electric_scooter"}, {"fusion_lon": 0.0, "fusion_lat": 0.0, "rental_uris": {"ios": "https://dc.lft.to/lastmile_qr_scan", "android": "https://dc.lft.to/lastmile_qr_scan"}, "is_disabled": 0, "bike_id": "abdc917ad67f074cb1517adc1cfba63e", "lat": 38.935157, "is_reserved": 0, "lon": -77.03344133333333, "name": "abdc917ad67f074cb1517adc1cfba63e", "type": "electric_scooter"}, {"fusion_lon": 0.0, "fusion_lat": 0.0, "rental_uris": {"ios": "https://dc.lft.to/lastmile_qr_scan", "android": "https://dc.lft.to/lastmile_qr_scan"}, "is_disabled": 0, "bike_id": "6242b71176a431c01abb14f7ac62e855", "lat": 38.921039666666665, "is_reserved": 0, "lon": -77.01778733333333, "name": "6242b71176a431c01abb14f7ac62e855", "type": "electric_scooter"}, {"fusion_lon": 0.0, "fusion_lat": 0.0, "rental_uris": {"ios": "https://dc.lft.to/lastmile_qr_scan", "android": "https://dc.lft.to/lastmile_qr_scan"}, "is_disabled": 0, "bike_id": "59b3e3330660711f57ddab5a5281f262", "lat": 39.08513766666667, "is_reserved": 0, "lon": -76.95066183333333, "name": "59b3e3330660711f57ddab5a5281f262", "type": "electric_bike"}, {"fusion_lon": 0.0, "fusion_lat": 0.0, "rental_uris": {"ios": "https://dc.lft.to/lastmile_qr_scan", "android": "https://dc.lft.to/lastmile_qr_scan"}, "is_disabled": 0, "bike_id": "e5686fa2ee95be6b7ee95b9d226e200a", "lat": 38.93074716666667, "is_reserved": 0, "lon": -77.04134983333333, "name": "e5686fa2ee95be6b7ee95b9d226e200a", "type": "electric_scooter"}, {"fusion_lon": 0.0, "fusion_lat": 0.0, "rental_uris": {"ios": "https://dc.lft.to/lastmile_qr_scan", "android": "https://dc.lft.to/lastmile_qr_scan"},