{"data": {"bikes": [{"is_reserved": 0, "fusion_lon": 0.0, "fusion_lat": 0.0, "name": "ffa0ef380db093989978a03fcdaa60c1", "type": "electric_scooter", "is_disabled": 0, "lat": 38.93268666666667, "rental_uris": {"android": "https://dc.lft.to/lastmile_qr_scan", "ios": "https://dc.lft.to/lastmile_qr_scan"}, "bike_id": "ffa0ef380db093989978a03fcdaa60c1", "lon": -77.01916783333333}, {"is_reserved": 0, "fusion_lon": 0.0, "fusion_lat": 0.0, "name": "51f04376abe9252a39d8e2d4fb2b7c24", "type": "electric_scooter", "is_disabled": 0, "lat": 38.926203, "rental_uris": {"android": "https://dc.lft.to/lastmile_qr_scan", "ios": "https://dc.lft.to/lastmile_qr_scan"}, "bike_id": "51f04376abe9252a39d8e2d4fb2b7c24", "lon": -77.04324983333333}, {"is_reserved": 0, "fusion_lon": 0.0, "fusion_lat": 0.0, "name": "be05bbb5bad6461912a8059fe7b91623", "type": "electric_scooter", "is_disabled": 0, "lat": 38.83492433333333, "rental_uris": {"android": "https://dc.lft.to/lastmile_qr_scan", "ios": "https://dc.lft.to/lastmile_qr_scan"}, "bike_id": "be05bbb5bad6461912a8059fe7b91623", "lon": -77.00674783333334}, {"is_reserved": 0, "fusion_lon": 0.0, "fusion_lat": 0.0, "name": "614999ab3eaad3c3e82721f02759c132", "type": "electric_bike", "is_disabled": 0, "lat": 38.882207666666666, "rental_uris": {"android": "https://dc.lft.to/lastmile_qr_scan", "ios": "https://dc.lft.to/lastmile_qr_scan"}, "bike_id": "614999ab3eaad3c3e82721f02759c132", "lon": -77.117294}, {"is_reserved": 0, "fusion_lon": 0.0, "fusion_lat": 0.0, "name": "fafafc27901398480a4b83736c00c8d9", "type": "electric_scooter", "is_disabled": 0, "lat": 38.89506266666667, "rental_uris": {"android": "https://dc.lft.to/lastmile_qr_scan", "ios": "https://dc.lft.to/lastmile_qr_scan"}, "bike_id": "fafafc27901398480a4b83736c00c8d9", "lon": -76.93470766666667}, {"is_reserved": 0, "fusion_lon": 0.0, "fusion_lat": 0.0, "name": "beb99c34570cdb1be3c04f2f7565f75b", "type": "electric_scooter", "is_disabled": 0, "lat": 38.909739, "rental_uris": {"android": "https://dc.lft.to/lastmile_qr_scan", "ios": "https://dc.lft.to/lastmile_qr_scan"}, "bike_id": "beb99c34570cdb1be3c04f2f7565f75b", "lon": -77.03859016666667}, {"is_reserved": 0, "fusion_lon": 0.0, "fusion_lat": 0.0, "name": "9459b846d1e8e848e3087ad6f43c7147", "type": "electric_bike", "is_disabled": 0, "lat": 38.949541833333335, "rental_uris": {"android": "https://dc.lft.to/lastmile_qr_scan", "ios": "https://dc.lft.to/lastmile_qr_scan"}, "bike_id": "9459b846d1e8e848e3087ad6f43c7147", "lon": -77.066528}, {"is_reserved": 0, "fusion_lon": 0.0, "fusion_lat": 0.0, "name": "1d625cc2637e77c199981d72b30c08a5", "type": "electric_scooter", "is_disabled": 0, "lat": 38.90047, "rental_uris": {"android": "https://dc.lft.to/lastmile_qr_scan", "ios": "https://dc.lft.to/lastmile_qr_scan"}, "bike_id": "1d625cc2637e77c199981d72b30c08a5", "lon": -77.043087}, {"is_reserved": 0, "fusion_lon": 0.0, "fusion_lat": 0.0, "name": "14b1eb029bb63451b05a51b219ef77a1", "type": "electric_bike", "is_disabled": 0, "lat": 38.837806666666665, "rental_uris": {"android": "https://dc.lft.to/lastmile_qr_scan", "ios": "https://dc.lft.to/lastmile_qr_scan"}, "bike_id": "14b1eb029bb63451b05a51b219ef77a1", "lon": -76.99759233333333}, {"is_reserved": 0, "fusion_lon": 0.0, "fusion_lat": 0.0, "name": "bb98bfbbe8443247f26578a82e917a41", "type": "electric_scooter", "is_disabled": 0, "lat": 38.900521833333336, "rental_uris": {"android": "https://dc.lft.to/lastmile_qr_scan", "ios": "https://dc.lft.to/lastmile_qr_scan"}, "bike_id": "bb98bfbbe8443247f26578a82e917a41", "lon": -77.0499515}, {"is_reserved": 0, "fusion_lon": 0.0, "fusion_lat": 0.0, "name": "cb29fe9ca564ffbd92c69956c535d92c", "type": "electric_scooter", "is_disabled": 0, "lat": 38.89494416666667, "rental_uris": {"android": "https://dc.lft.to/lastmile_qr_scan", "ios": "https://dc.lft.to/lastmile_qr_scan"}, "bike_id": "cb29fe9ca564ffbd92c69956c535d92c", "lon": -77.0110905}, {"is_reserved": 0, "fusion_lon": 0.0, "fusion_lat": 0.0, "name": "0de3010439359f80a2c53ff93a194527", "type": "electric_scooter", "is_disabled": 0, "lat": 38.898775, "rental_uris": {"android": "https://dc.lft.to/lastmile_qr_scan", "ios": "https://dc.lft.to/lastmile_qr_scan"}, "bike_id": "0de3010439359f80a2c53ff93a194527", "lon": -76.9318595}, {"is_reserved": 0, "fusion_lon": 0.0, "fusion_lat": 0.0, "name": "38a5143e231d24f1306b52701a8666c9", "type": "electric_bike", "is_disabled": 0, "lat": 38.866214666666664, "rental_uris": {"android": "https://dc.lft.to/lastmile_qr_scan", "ios": "https://dc.lft.to/lastmile_qr_scan"}, "bike_id": "38a5143e231d24f1306b52701a8666c9", "lon": -76.94567033333334}, {"is_reserved": 0, "fusion_lon": 0.0, "fusion_lat": 0.0, "name": "2d6ce20274c362876a4129ed38cb256b", "type": "electric_scooter", "is_disabled": 0, "lat": 38.90415333333333, "rental_uris": {"android": "https://dc.lft.to/lastmile_qr_scan", "ios": "https://dc.lft.to/lastmile_qr_scan"}, "bike_id": "2d6ce20274c362876a4129ed38cb256b", "lon": -76.99835183333333}, {"is_reserved": 0, "fusion_lon": 0.0, "fusion_lat": 0.0, "name": "146bcdf55c69671bad22854f8b29c928", "type": "electric_scooter", "is_disabled": 0, "lat": 38.926158666666666, "rental_uris": {"android": "https://dc.lft.to/lastmile_qr_scan", "ios": "https://dc.lft.to/lastmile_qr_scan"}, "bike_id": "146bcdf55c69671bad22854f8b29c928", "lon": -77.03958666666666}, {"is_reserved": 0, "fusion_lon": 0.0, "fusion_lat": 0.0, "name": "cc55b3b3030fc4e5fb6f86aaa5dcd67a", "type": "electric_scooter", "is_disabled": 0, "lat": 38.874709, "rental_uris": {"android": "https://dc.lft.to/lastmile_qr_scan", "ios": "https://dc.lft.to/lastmile_qr_scan"}, "bike_id": "cc55b3b3030fc4e5fb6f86aaa5dcd67a", "lon": -77.00555966666667}, {"is_reserved": 0, "fusion_lon": 0.0, "fusion_lat": 0.0, "name": "0b6a43d800675250497a3548327a0e57", "type": "electric_scooter", "is_disabled": 0, "lat": 38.880852, "rental_uris": {"android": "https://dc.lft.to/lastmile_qr_scan", "ios": "https://dc.lft.to/lastmile_qr_scan"}, "bike_id": "0b6a43d800675250497a3548327a0e57", "lon": -76.99836216666667}, {"is_reserved": 0, "fusion_lon": 0.0, "fusion_lat": 0.0, "name": "912cdd31c0a8cbc10d0e78714001d260", "type": "electric_scooter", "is_disabled": 0, "lat": 38.90262216666667, "rental_uris": {"android": "https://dc.lft.to/lastmile_qr_scan", "ios": "https://dc.lft.to/lastmile_qr_scan"}, "bike_id": "912cdd31c0a8cbc10d0e78714001d260", "lon": -77.01759166666666}, {"is_reserved": 0, "fusion_lon": 0.0, "fusion_lat": 0.0, "name": "835a01a73f5dde5fad7fb6ad41938984", "type": "electric_scooter", "is_disabled": 0, "lat": 38.9141725, "rental_uris": {"android": "https://dc.lft.to/lastmile_qr_scan", "ios": "https://dc.lft.to/lastmile_qr_scan"}, "bike_id": "835a01a73f5dde5fad7fb6ad41938984", "lon": -77.04913116666667}, {"is_reserved": 0, "fusion_lon": 0.0, "fusion_lat": 0.0, "name": "8c29237098f3a298abb671a20f6ee10b", "type": "electric_scooter", "is_disabled": 0, "lat": 38.90618116666667, "rental_uris": {"android": "https://dc.lft.to/lastmile_qr_scan", "ios": "https://dc.lft.to/lastmile_qr_scan"}, "bike_id": "8c29237098f3a298abb671a20f6ee10b", "lon": -76.9868585}, {"is_reserved": 0, "fusion_lon": 0.0, "fusion_lat": 0.0, "name": "d842449e4fde02d7a81c8e212b04e3b3", "type": "electric_scooter", "is_disabled": 0, "lat": 38.883882166666666, "rental_uris": {"android": "https://dc.lft.to/lastmile_qr_scan", "ios": "https://dc.lft.to/lastmile_qr_scan"}, "bike_id": "d842449e4fde02d7a81c8e212b04e3b3", "lon": -77.03032083333333}, {"is_reserved": 0, "fusion_lon": 0.0, "fusion_lat": 0.0, "name": "f4ea10f5a1726808f323a699a3b3702a", "type": "electric_scooter", "is_disabled": 0, "lat": 38.91766616666666, "rental_uris": {"android": "https://dc.lft.to/lastmile_qr_scan", "ios": "https://dc.lft.to/lastmile_qr_scan"}, "bike_id": "f4ea10f5a1726808f323a699a3b3702a", "lon": -77.01215966666666}, {"is_reserved": 0, "fusion_lon": 0.0, "fusion_lat": 0.0, "name": "9c7ea02e0bf51604c997a485b5fc0f4b", "type": "electric_scooter", "is_disabled": 0, "lat": 38.876335833333336, "rental_uris": {"android": "https://dc.lft.to/lastmile_qr_scan", "ios": "https://dc.lft.to/lastmile_qr_scan"}, "bike_id": "9c7ea02e0bf51604c997a485b5fc0f4b", "lon": -77.012562}, {"is_reserved": 0, "fusion_lon": 0.0, "fusion_lat": 0.0, "name": "71456ce9f2ac7f099dc26a8735796a01", "type": "electric_scooter", "is_disabled": 0, "lat": 38.860066833333335, "rental_uris": {"android": "https://dc.lft.to/lastmile_qr_scan", "ios": "https://dc.lft.to/lastmile_qr_scan"}, "bike_id": "71456ce9f2ac7f099dc26a8735796a01", "lon": -76.98518316666667}, {"is_reserved": 0, "fusion_lon": 0.0, "fusion_lat": 0.0, "name": "a0e914f5a5f37ce50218759b50dcf556", "type": "electric_scooter", "is_disabled": 0, "lat": 38.900707833333335, "rental_uris": {"android": "https://dc.lft.to/lastmile_qr_scan", "ios": "https://dc.lft.to/lastmile_qr_scan"}, "bike_id": "a0e914f5a5f37ce50218759b50dcf556", "lon": -77.00205666666666}, {"is_reserved": 0, "fusion_lon": 0.0, "fusion_lat": 0.0, "name": "1559ad29d6d7592ba3009d775aa8e105", "type": "electric_bike", "is_disabled": 0, "lat": 38.8183965, "rental_uris": {"android": "https://dc.lft.to/lastmile_qr_scan", "ios": "https://dc.lft.to/lastmile_qr_scan"}, "bike_id": "1559ad29d6d7592ba3009d775aa8e105", "lon": -77.10571716666666}, {"is_reserved": 0, "fusion_lon": 0.0, "fusion_lat": 0.0, "name": "f32a6a5a2ce911e29aac40f9cd918908", "type": "electric_scooter", "is_disabled": 0, "lat": 38.87185016666667, "rental_uris": {"android": "https://dc.lft.to/lastmile_qr_scan", "ios": "https://dc.lft.to/lastmile_qr_scan"}, "bike_id": "f32a6a5a2ce911e29aac40f9cd918908", "lon": -77.005965}, {"is_reserved": 0, "fusion_lon": 0.0, "fusion_lat": 0.0, "name": "c8a2618b6aa0b76bee787211ee76d341", "type": "electric_scooter", "is_disabled": 0, "lat": 38.923262333333334, "rental_uris": {"android": "https://dc.lft.to/lastmile_qr_scan", "ios": "https://dc.lft.to/lastmile_qr_scan"}, "bike_id": "c8a2618b6aa0b76bee787211ee76d341", "lon": -77.0353915}, {"is_reserved": 0, "fusion_lon": 0.0, "fusion_lat": 0.0, "name": "673a6e879367ded8e12345a6a46b8ebb", "type": "electric_scooter", "is_disabled": 0, "lat": 38.9959805, "rental_uris": {"android": "https://dc.lft.to/lastmile_qr_scan", "ios": "https://dc.lft.to/lastmile_qr_scan"}, "bike_id": "673a6e879367ded8e12345a6a46b8ebb", "lon": -77.03216933333333}, {"is_reserved": 0, "fusion_lon": 0.0, "fusion_lat": 0.0, "name": "6dbaae7a45a43b8b3ae002d52bab1e86", "type": "electric_scooter", "is_disabled": 0, "lat": 38.90666366666667, "rental_uris": {"android": "https://dc.lft.to/lastmile_qr_scan", "ios": "https://dc.lft.to/lastmile_qr_scan"}, "bike_id": "6dbaae7a45a43b8b3ae002d52bab1e86", "lon": -77.02713483333333}, {"is_reserved": 0, "fusion_lon": 0.0, "fusion_lat": 0.0, "name": "1db19a29a8f53ceb5b1fcd78285fc278", "type": "electric_scooter", "is_disabled": 0, "lat": 38.86473133333333, "rental_uris": {"android": "https://dc.lft.to/lastmile_qr_scan", "ios": "https://dc.lft.to/lastmile_qr_scan"}, "bike_id": "1db19a29a8f53ceb5b1fcd78285fc278", "lon": -76.9822635}, {"is_reserved": 0, "fusion_lon": 0.0, "fusion_lat": 0.0, "name": "d6323d74bf513f828ea324593a3fc7d7", "type": "electric_scooter", "is_disabled": 0, "lat": 38.906144166666664, "rental_uris": {"android": "https://dc.lft.to/lastmile_qr_scan", "ios": "https://dc.lft.to/lastmile_qr_scan"}, "bike_id": "d6323d74bf513f828ea324593a3fc7d7", "lon": -77.00334633333334}, {"is_reserved": 0, "fusion_lon": 0.0, "fusion_lat": 0.0, "name": "efd440fd68a12b3a264b225dfa3d3eb5", "type": "electric_scooter", "is_disabled": 0, "lat": 38.914939333333336, "rental_uris": {"android": "https://dc.lft.to/lastmile_qr_scan", "ios": "https://dc.lft.to/lastmile_qr_scan"}, "bike_id": "efd440fd68a12b3a264b225dfa3d3eb5", "lon": -77.01993266666666}, {"is_reserved": 0, "fusion_lon": 0.0, "fusion_lat": 0.0, "name": "1498c728447caaf0ac39bc2c447a8d55", "type": "electric_scooter", "is_disabled": 0, "lat": 38.93954516666667, "rental_uris": {"android": "https://dc.lft.to/lastmile_qr_scan", "ios": "https://dc.lft.to/lastmile_qr_scan"}, "bike_id": "1498c728447caaf0ac39bc2c447a8d55", "lon": -77.02481066666667}, {"is_reserved": 0, "fusion_lon": 0.0, "fusion_lat": 0.0, "name": "720ab8c2beb0b42c4b416e7bee526834", "type": "electric_scooter", "is_disabled": 0, "lat": 38.90273633333334, "rental_uris": {"android": "https://dc.lft.to/lastmile_qr_scan", "ios": "https://dc.lft.to/lastmile_qr_scan"}, "bike_id": "720ab8c2beb0b42c4b416e7bee526834", "lon": -77.03637783333333}, {"is_reserved": 0, "fusion_lon": 0.0, "fusion_lat": 0.0, "name": "1aeb7d52c61a799403b11ce8ab4e1ea2", "type": "electric_scooter", "is_disabled": 0, "lat": 38.9220835, "rental_uris": {"android": "https://dc.lft.to/lastmile_qr_scan", "ios": "https://dc.lft.to/lastmile_qr_scan"}, "bike_id": "1aeb7d52c61a799403b11ce8ab4e1ea2", "lon": -77.0402185}, {"is_reserved": 0, "fusion_lon": 0.0, "fusion_lat": 0.0, "name": "17fa2f17c27b34e17ce83018ef9f8ac9", "type": "electric_scooter", "is_disabled": 0, "lat": 38.906298, "rental_uris": {"android": "https://dc.lft.to/lastmile_qr_scan", "ios": "https://dc.lft.to/lastmile_qr_scan"}, "bike_id": "17fa2f17c27b34e17ce83018ef9f8ac9", "lon": -77.03981883333333}, {"is_reserved": 0, "fusion_lon": 0.0, "fusion_lat": 0.0, "name": "aa20a5ca232289e7804d67970aeb5504", "type": "electric_scooter", "is_disabled": 0, "lat": 38.862561, "rental_uris": {"android": "https://dc.lft.to/lastmile_qr_scan", "ios": "https://dc.lft.to/lastmile_qr_scan"}, "bike_id": "aa20a5ca232289e7804d67970aeb5504", "lon": -76.99515416666667}, {"is_reserved": 0, "fusion_lon": 0.0, "fusion_lat": 0.0, "name": "5345b4a7496b4d10ac2b92c99f190539", "type": "electric_scooter", "is_disabled": 0, "lat": 38.8873915, "rental_uris": {"android": "https://dc.lft.to/lastmile_qr_scan", "ios": "https://dc.lft.to/lastmile_qr_scan"}, "bike_id": "5345b4a7496b4d10ac2b92c99f190539", "lon": -77.02212733333333}, {"is_reserved": 0, "fusion_lon": 0.0, "fusion_lat": 0.0, "name": "9b04ab0cd92a2de15b1a4f4a173829fc", "type": "electric_scooter", "is_disabled": 0, "lat": 38.885948, "rental_uris": {"android": "https://dc.lft.to/lastmile_qr_scan", "ios": "https://dc.lft.to/lastmile_qr_scan"}, "bike_id": "9b04ab0cd92a2de15b1a4f4a173829fc", "lon": -76.9909895}, {"is_reserved": 0, "fusion_lon": 0.0, "fusion_lat": 0.0, "name": "2f6a8a3e571ca8cf4907b4459de5c23c", "type": "electric_scooter", "is_disabled": 0, "lat": 38.9155115, "rental_uris": {"android": "https://dc.lft.to/lastmile_qr_scan", "ios": "https://dc.lft.to/lastmile_qr_scan"}, "bike_id": "2f6a8a3e571ca8cf4907b4459de5c23c", "lon": -77.02208866666666}, {"is_reserved": 0, "fusion_lon": 0.0, "fusion_lat": 0.0, "name": "d9e8da1e44e41224a7c27579301f60bd", "type": "electric_scooter", "is_disabled": 0, "lat": 38.922497666666665, "rental_uris": {"android": "https://dc.lft.to/lastmile_qr_scan", "ios": "https://dc.lft.to/lastmile_qr_scan"}, "bike_id": "d9e8da1e44e41224a7c27579301f60bd", "lon": -77.0308295}, {"is_reserved": 0, "fusion_lon": 0.0, "fusion_lat": 0.0, "name": "0ff6ec5a3695026971a6d50b1d573d7c", "type": "electric_scooter", "is_disabled": 0, "lat": 38.923437166666666, "rental_uris": {"android": "https://dc.lft.to/lastmile_qr_scan", "ios": "https://dc.lft.to/lastmile_qr_scan"}, "bike_id": "0ff6ec5a3695026971a6d50b1d573d7c", "lon": -77.05119933333333}, {"is_reserved": 0, "fusion_lon": 0.0, "fusion_lat": 0.0, "name": "31f05a36b037b9c5c0df0d55728545b7", "type": "electric_scooter", "is_disabled": 0, "lat": 38.904234833333334, "rental_uris": {"android": "https://dc.lft.to/lastmile_qr_scan", "ios": "https://dc.lft.to/lastmile_qr_scan"}, "bike_id": "31f05a36b037b9c5c0df0d55728545b7", "lon": -77.05322916666667}, {"is_reserved": 0, "fusion_lon": 0.0, "fusion_lat": 0.0, "name": "6b87d3c681c2dc8580b4d3334de3e714", "type": "electric_scooter", "is_disabled": 0, "lat": 38.917980166666666, "rental_uris": {"android": "https://dc.lft.to/lastmile_qr_scan", "ios": "https://dc.lft.to/lastmile_qr_scan"}, "bike_id": "6b87d3c681c2dc8580b4d3334de3e714", "lon": -77.02312216666667}, {"is_reserved": 0, "fusion_lon": 0.0, "fusion_lat": 0.0, "name": "553ff4c7d86bfb5101e375a5535c1313", "type": "electric_scooter", "is_disabled": 0, "lat": 38.904530666666666, "rental_uris": {"android": "https://dc.lft.to/lastmile_qr_scan", "ios": "https://dc.lft.to/lastmile_qr_scan"}, "bike_id": "553ff4c7d86bfb5101e375a5535c1313", "lon": -77.04478716666667}, {"is_reserved": 0, "fusion_lon": 0.0, "fusion_lat": 0.0, "name": "f9c41ad6a492da015ecb832c348160c8", "type": "electric_scooter", "is_disabled": 0, "lat": 38.88102116666666, "rental_uris": {"android": "https://dc.lft.to/lastmile_qr_scan", "ios": "https://dc.lft.to/lastmile_qr_scan"}, "bike_id": "f9c41ad6a492da015ecb832c348160c8", "lon": -77.01674116666666}, {"is_reserved": 0, "fusion_lon": 0.0, "fusion_lat": 0.0, "name": "030043f6c6ee4424a84212a26755fa93", "type": "electric_scooter", "is_disabled": 0, "lat": 38.909620333333336, "rental_uris": {"android": "https://dc.lft.to/lastmile_qr_scan", "ios": "https://dc.lft.to/lastmile_qr_scan"}, "bike_id": "030043f6c6ee4424a84212a26755fa93", "lon": -77.03861283333333}, {"is_reserved": 0, "fusion_lon": 0.0, "fusion_lat": 0.0, "name": "8e717cb007f21dd84b0c9793e4b7e4e7", "type": "electric_scooter", "is_disabled": 0, "lat": 38.91543466666667, "rental_uris": {"android": "https://dc.lft.to/lastmile_qr_scan", "ios": "https://dc.lft.to/lastmile_qr_scan"}, "bike_id": "8e717cb007f21dd84b0c9793e4b7e4e7", "lon": -77.03848833333333}, {"is_reserved": 0, "fusion_lon": 0.0, "fusion_lat": 0.0, "name": "79039bbd366554d1ab45ebb17b0fadb7", "type": "electric_scooter", "is_disabled": 0, "lat": 38.90769566666667, "rental_uris": {"android": "https://dc.lft.to/lastmile_qr_scan", "ios": "https://dc.lft.to/lastmile_qr_scan"}, "bike_id": "79039bbd366554d1ab45ebb17b0fadb7", "lon": -77.00103116666666}, {"is_reserved": 0, "fusion_lon": 0.0, "fusion_lat": 0.0, "name": "32d7b9f3a823db41f099fe8528cc1209", "type": "electric_scooter", "is_disabled": 0, "lat": 38.88814716666667, "rental_uris": {"android": "https://dc.lft.to/lastmile_qr_scan", "ios": "https://dc.lft.to/lastmile_qr_scan"}, "bike_id": "32d7b9f3a823db41f099fe8528cc1209", "lon": -76.93345433333333}, {"is_reserved": 0, "fusion_lon": 0.0, "fusion_lat": 0.0, "name": "39bdb3489753a744528ed4c618017134", "type": "electric_scooter", "is_disabled": 0, "lat": 38.92090483333333, "rental_uris": {"android": "https://dc.lft.to/lastmile_qr_scan", "ios": "https://dc.lft.to/lastmile_qr_scan"}, "bike_id": "39bdb3489753a744528ed4c618017134", "lon": -77.00433466666667}, {"is_reserved": 0, "fusion_lon": 0.0, "fusion_lat": 0.0, "name": "d78fa8dbf7fca7b3f7fe1515f809d8fe", "type": "electric_scooter", "is_disabled": 0, "lat": 38.911812, "rental_uris": {"android": "https://dc.lft.to/lastmile_qr_scan", "ios": "https://dc.lft.to/lastmile_qr_scan"}, "bike_id": "d78fa8dbf7fca7b3f7fe1515f809d8fe", "lon": -77.009634}, {"is_reserved": 0, "fusion_lon": 0.0, "fusion_lat": 0.0, "name": "e8dde0bb74390e8738f794ff05f17a18", "type": "electric_scooter", "is_disabled": 0, "lat": 38.887339833333336, "rental_uris": {"android": "https://dc.lft.to/lastmile_qr_scan", "ios": "https://dc.lft.to/lastmile_qr_scan"}, "bike_id": "e8dde0bb74390e8738f794ff05f17a18", "lon": -77.0283065}, {"is_reserved": 0, "fusion_lon": 0.0, "fusion_lat": 0.0, "name": "eba541fcc4bcbbb4b1fc941ad6bdb430", "type": "electric_scooter", "is_disabled": 0, "lat": 38.959351, "rental_uris": {"android": "https://dc.lft.to/lastmile_qr_scan", "ios": "https://dc.lft.to/lastmile_qr_scan"}, "bike_id": "eba541fcc4bcbbb4b1fc941ad6bdb430", "lon": -77.0312475}, {"is_reserved": 0, "fusion_lon": 0.0, "fusion_lat": 0.0, "name": "d2f210a18dcca9762f3507eccd73f006", "type": "electric_scooter", "is_disabled": 0, "lat": 38.873662333333336, "rental_uris": {"android": "https://dc.lft.to/lastmile_qr_scan", "ios": "https://dc.lft.to/lastmile_qr_scan"}, "bike_id": "d2f210a18dcca9762f3507eccd73f006", "lon": -76.97016816666667}, {"is_reserved": 0, "fusion_lon": 0.0, "fusion_lat": 0.0, "name": "7c495b8a4eab0144113d179f02526e61", "type": "electric_scooter", "is_disabled": 0, "lat": 38.907779833333336, "rental_uris": {"android": "https://dc.lft.to/lastmile_qr_scan", "ios": "https://dc.lft.to/lastmile_qr_scan"}, "bike_id": "7c495b8a4eab0144113d179f02526e61", "lon": -77.03815733333333}, {"is_reserved": 0, "fusion_lon": 0.0, "fusion_lat": 0.0, "name": "e456123ca87e90f69763eccefd2f57ae", "type": "electric_scooter", "is_disabled": 0, "lat": 38.8955165, "rental_uris": {"android": "https://dc.lft.to/lastmile_qr_scan", "ios": "https://dc.lft.to/lastmile_qr_scan"}, "bike_id": "e456123ca87e90f69763eccefd2f57ae", "lon": -76.99837883333333}, {"is_reserved": 0, "fusion_lon": 0.0, "fusion_lat": 0.0, "name": "1500dc17a2fef56336271c2bfe1da2ca", "type": "electric_scooter", "is_disabled": 0, "lat": 38.91114283333334, "rental_uris": {"android": "https://dc.lft.to/lastmile_qr_scan", "ios": "https://dc.lft.to/lastmile_qr_scan"}, "bike_id": "1500dc17a2fef56336271c2bfe1da2ca", "lon": -77.0102295}, {"is_reserved": 0, "fusion_lon": 0.0, "fusion_lat": 0.0, "name": "c919ddc579ad733b0f179b9b86849f59", "type": "electric_scooter", "is_disabled": 0, "lat": 38.942894833333334, "rental_uris": {"android": "https://dc.lft.to/lastmile_qr_scan", "ios": "https://dc.lft.to/lastmile_qr_scan"}, "bike_id": "c919ddc579ad733b0f179b9b86849f59", "lon": -77.02170933333333}, {"is_reserved": 0, "fusion_lon": 0.0, "fusion_lat": 0.0, "name": "4062c1c1244a2415db5ae137f7cd92bb", "type": "electric_scooter", "is_disabled": 0, "lat": 38.934534, "rental_uris": {"android": "https://dc.lft.to/lastmile_qr_scan", "ios": "https://dc.lft.to/lastmile_qr_scan"}, "bike_id": "4062c1c1244a2415db5ae137f7cd92bb", "lon": -77.0308065}, {"is_reserved": 0, "fusion_lon": 0.0, "fusion_lat": 0.0, "name": "fa0b9777763f8f0fe9b6669ffc411c9c", "type": "electric_scooter", "is_disabled": 0, "lat": 38.89499516666667, "rental_uris": {"android": "https://dc.lft.to/lastmile_qr_scan", "ios": "https://dc.lft.to/lastmile_qr_scan"}, "bike_id": "fa0b9777763f8f0fe9b6669ffc411c9c", "lon": -77.00213716666667}, {"is_reserved": 0, "fusion_lon": 0.0, "fusion_lat": 0.0, "name": "387235acff4b9afa324d41ea26e801de", "type": "electric_bike", "is_disabled": 0, "lat": 38.912725, "rental_uris": {"android": "https://dc.lft.to/lastmile_qr_scan", "ios": "https://dc.lft.to/lastmile_qr_scan"}, "bike_id": "387235acff4b9afa324d41ea26e801de", "lon": -77.01224616666667}, {"is_reserved": 0, "fusion_lon": 0.0, "fusion_lat": 0.0, "name": "2e7ac707131dca8c3a6dac22968ef0c7", "type": "electric_scooter", "is_disabled": 0, "lat": 38.899034666666665, "rental_uris": {"android": "https://dc.lft.to/lastmile_qr_scan", "ios": "https://dc.lft.to/lastmile_qr_scan"}, "bike_id": "2e7ac707131dca8c3a6dac22968ef0c7", "lon": -77.031486}, {"is_reserved": 0, "fusion_lon": 0.0, "fusion_lat": 0.0, "name": "ff53b5c72c53ed558f401212a2d72bf5", "type": "electric_scooter", "is_disabled": 0, "lat": 38.89220566666667, "rental_uris": {"android": "https://dc.lft.to/lastmile_qr_scan", "ios": "https://dc.lft.to/lastmile_qr_scan"}, "bike_id": "ff53b5c72c53ed558f401212a2d72bf5", "lon": -77.04261533333333}, {"is_reserved": 0, "fusion_lon": 0.0, "fusion_lat": 0.0, "name": "1afd1e5f606637ea4a37a43f67922b33", "type": "electric_scooter", "is_disabled": 0, "lat": 38.87786, "rental_uris": {"android": "https://dc.lft.to/lastmile_qr_scan", "ios": "https://dc.lft.to/lastmile_qr_scan"}, "bike_id": "1afd1e5f606637ea4a37a43f67922b33", "lon": -76.93095183333334}, {"is_reserved": 0, "fusion_lon": 0.0, "fusion_lat": 0.0, "name": "d050475a8b6be9c982b5248d61dfd160", "type": "electric_scooter", "is_disabled": 0, "lat": 38.915428166666665, "rental_uris": {"android": "https://dc.lft.to/lastmile_qr_scan", "ios": "https://dc.lft.to/lastmile_qr_scan"}, "bike_id": "d050475a8b6be9c982b5248d61dfd160", "lon": -77.0127035}, {"is_reserved": 0, "fusion_lon": 0.0, "fusion_lat": 0.0, "name": "70459191a6914c3656a2543065563ae1", "type": "electric_scooter", "is_disabled": 0, "lat": 38.936741166666664, "rental_uris": {"android": "https://dc.lft.to/lastmile_qr_scan", "ios": "https://dc.lft.to/lastmile_qr_scan"}, "bike_id": "70459191a6914c3656a2543065563ae1", "lon": -77.03636316666666}, {"is_reserved": 0, "fusion_lon": 0.0, "fusion_lat": 0.0, "name": "e1997973709913e0533b22263410cf4c", "type": "electric_scooter", "is_disabled": 0, "lat": 38.8650665, "rental_uris": {"android": "https://dc.lft.to/lastmile_qr_scan", "ios": "https://dc.lft.to/lastmile_qr_scan"}, "bike_id": "e1997973709913e0533b22263410cf4c", "lon": -76.989995}, {"is_reserved": 0, "fusion_lon": 0.0, "fusion_lat": 0.0, "name": "b5d886a80a3dc5048ec75d22b37d8cb9", "type": "electric_scooter", "is_disabled": 0, "lat": 38.88598783333333, "rental_uris": {"android": "https://dc.lft.to/lastmile_qr_scan", "ios": "https://dc.lft.to/lastmile_qr_scan"}, "bike_id": "b5d886a80a3dc5048ec75d22b37d8cb9", "lon": -76.99623666666666}, {"is_reserved": 0, "fusion_lon": 0.0, "fusion_lat": 0.0, "name": "c64518e73219f7190fd254d5912dff51", "type": "electric_scooter", "is_disabled": 0, "lat": 38.93963766666667, "rental_uris": {"android": "https://dc.lft.to/lastmile_qr_scan", "ios": "https://dc.lft.to/lastmile_qr_scan"}, "bike_id": "c64518e73219f7190fd254d5912dff51", "lon": -77.027506}, {"is_reserved": 0, "fusion_lon": 0.0, "fusion_lat": 0.0, "name": "664baa286c0384028dc3e8c11f19c136", "type": "electric_scooter", "is_disabled": 0, "lat": 38.9073495, "rental_uris": {"android": "https://dc.lft.to/lastmile_qr_scan", "ios": "https://dc.lft.to/lastmile_qr_scan"}, "bike_id": "664baa286c0384028dc3e8c11f19c136", "lon": -77.02691966666667}, {"is_reserved": 0, "fusion_lon": 0.0, "fusion_lat": 0.0, "name": "11bf9aa18748da92f76eb3d01c835de2", "type": "electric_scooter", "is_disabled": 0, "lat": 38.9169145, "rental_uris": {"android": "https://dc.lft.to/lastmile_qr_scan", "ios": "https://dc.lft.to/lastmile_qr_scan"}, "bike_id": "11bf9aa18748da92f76eb3d01c835de2", "lon": -77.0259315}, {"is_reserved": 0, "fusion_lon": 0.0, "fusion_lat": 0.0, "name": "b9078b93f2661c88f07e1d7366da3d7c", "type": "electric_scooter", "is_disabled": 0, "lat": 38.910328, "rental_uris": {"android": "https://dc.lft.to/lastmile_qr_scan", "ios": "https://dc.lft.to/lastmile_qr_scan"}, "bike_id": "b9078b93f2661c88f07e1d7366da3d7c", "lon": -76.99333233333333}, {"is_reserved": 0, "fusion_lon": 0.0, "fusion_lat": 0.0, "name": "3869ec855a3581955ff0ed80a832c2c6", "type": "electric_scooter", "is_disabled": 0, "lat": 38.9353855, "rental_uris": {"android": "https://dc.lft.to/lastmile_qr_scan", "ios": "https://dc.lft.to/lastmile_qr_scan"}, "bike_id": "3869ec855a3581955ff0ed80a832c2c6", "lon": -77.05750216666667}, {"is_reserved": 0, "fusion_lon": 0.0, "fusion_lat": 0.0, "name": "b6bfb176ca4d56b74d4932f4c3d78866", "type": "electric_scooter", "is_disabled": 0, "lat": 38.891011166666665, "rental_uris": {"android": "https://dc.lft.to/lastmile_qr_scan", "ios": "https://dc.lft.to/lastmile_qr_scan"}, "bike_id": "b6bfb176ca4d56b74d4932f4c3d78866", "lon": -77.0028085}, {"is_reserved": 0, "fusion_lon": 0.0, "fusion_lat": 0.0, "name": "9f53bb80f9aa097121b71d25bc75e9b9", "type": "electric_scooter", "is_disabled": 0, "lat": 38.92262983333333, "rental_uris": {"android": "https://dc.lft.to/lastmile_qr_scan", "ios": "https://dc.lft.to/lastmile_qr_scan"}, "bike_id": "9f53bb80f9aa097121b71d25bc75e9b9", "lon": -77.02961216666667}, {"is_reserved": 0, "fusion_lon": 0.0, "fusion_lat": 0.0, "name": "52c93414e9d63d19136ae324fe30a9dc", "type": "electric_scooter", "is_disabled": 0, "lat": 38.9233655, "rental_uris": {"android": "https://dc.lft.to/lastmile_qr_scan", "ios": "https://dc.lft.to/lastmile_qr_scan"}, "bike_id": "52c93414e9d63d19136ae324fe30a9dc", "lon": -77.04791866666666}, {"is_reserved": 0, "fusion_lon": 0.0, "fusion_lat": 0.0, "name": "88594e2b7c05524fdde0689ae81f392d", "type": "electric_scooter", "is_disabled": 0, "lat": 38.909734, "rental_uris": {"android": "https://dc.lft.to/lastmile_qr_scan", "ios": "https://dc.lft.to/lastmile_qr_scan"}, "bike_id": "88594e2b7c05524fdde0689ae81f392d", "lon": -77.0321005}, {"is_reserved": 0, "fusion_lon": 0.0, "fusion_lat": 0.0, "name": "4abd44a089cb2181683a7cbef99b2e24", "type": "electric_scooter", "is_disabled": 0, "lat": 38.914061333333336, "rental_uris": {"android": "https://dc.lft.to/lastmile_qr_scan", "ios": "https://dc.lft.to/lastmile_qr_scan"}, "bike_id": "4abd44a089cb2181683a7cbef99b2e24", "lon": -77.04188466666666}, {"is_reserved": 0, "fusion_lon": 0.0, "fusion_lat": 0.0, "name": "e68a3f4498056715364a7bbacb0dc240", "type": "electric_scooter", "is_disabled": 0, "lat": 38.918186166666665, "rental_uris": {"android": "https://dc.lft.to/lastmile_qr_scan", "ios": "https://dc.lft.to/lastmile_qr_scan"}, "bike_id": "e68a3f4498056715364a7bbacb0dc240", "lon": -77.0298015}, {"is_reserved": 0, "fusion_lon": 0.0, "fusion_lat": 0.0, "name": "f04537743e28535e791ac536e9cbb51b", "type": "electric_scooter", "is_disabled": 0, "lat": 38.909578333333336, "rental_uris": {"android": "https://dc.lft.to/lastmile_qr_scan", "ios": "https://dc.lft.to/lastmile_qr_scan"}, "bike_id": "f04537743e28535e791ac536e9cbb51b", "lon": -77.038637}, {"is_reserved": 0, "fusion_lon": 0.0, "fusion_lat": 0.0, "name": "bda8136a454392a60e520581e3879422", "type": "electric_scooter", "is_disabled": 0, "lat": 38.9081845, "rental_uris": {"android": "https://dc.lft.to/lastmile_qr_scan", "ios": "https://dc.lft.to/lastmile_qr_scan"}, "bike_id": "bda8136a454392a60e520581e3879422", "lon": -77.03305433333334}, {"is_reserved": 0, "fusion_lon": 0.0, "fusion_lat": 0.0, "name": "00e7e3498dd8abef00d9c208999124f2", "type": "electric_scooter", "is_disabled": 0, "lat": 38.88082633333333, "rental_uris": {"android": "https://dc.lft.to/lastmile_qr_scan", "ios": "https://dc.lft.to/lastmile_qr_scan"}, "bike_id": "00e7e3498dd8abef00d9c208999124f2", "lon": -76.985055}, {"is_reserved": 0, "fusion_lon": 0.0, "fusion_lat": 0.0, "name": "2f1f6275771ac6910b806d7c2dbe600c", "type": "electric_scooter", "is_disabled": 0, "lat": 38.92647216666667, "rental_uris": {"android": "https://dc.lft.to/lastmile_qr_scan", "ios": "https://dc.lft.to/lastmile_qr_scan"}, "bike_id": "2f1f6275771ac6910b806d7c2dbe600c", "lon": -77.04130166666667}, {"is_reserved": 0, "fusion_lon": 0.0, "fusion_lat": 0.0, "name": "f0a9c2125e2b034b383066f07b9bac7a", "type": "electric_scooter", "is_disabled": 0, "lat": 38.907281, "rental_uris": {"android": "https://dc.lft.to/lastmile_qr_scan", "ios": "https://dc.lft.to/lastmile_qr_scan"}, "bike_id": "f0a9c2125e2b034b383066f07b9bac7a", "lon": -77.04333533333333}, {"is_reserved": 0, "fusion_lon": 0.0, "fusion_lat": 0.0, "name": "631e54da6529247d569061029cc76d79", "type": "electric_scooter", "is_disabled": 0, "lat": 38.92864683333333, "rental_uris": {"android": "https://dc.lft.to/lastmile_qr_scan", "ios": "https://dc.lft.to/lastmile_qr_scan"}, "bike_id": "631e54da6529247d569061029cc76d79", "lon": -77.03410133333334}, {"is_reserved": 0, "fusion_lon": 0.0, "fusion_lat": 0.0, "name": "0d470fcd60dbb5f5a2f6513c7f359f87", "type": "electric_scooter", "is_disabled": 0, "lat": 38.90260766666667, "rental_uris": {"android": "https://dc.lft.to/lastmile_qr_scan", "ios": "https://dc.lft.to/lastmile_qr_scan"}, "bike_id": "0d470fcd60dbb5f5a2f6513c7f359f87", "lon": -77.04584433333333}, {"is_reserved": 0, "fusion_lon": 0.0, "fusion_lat": 0.0, "name": "fb8876d0c3c3fa2876b086f925e5ecdb", "type": "electric_scooter", "is_disabled": 0, "lat": 38.9033595, "rental_uris": {"android": "https://dc.lft.to/lastmile_qr_scan", "ios": "https://dc.lft.to/lastmile_qr_scan"}, "bike_id": "fb8876d0c3c3fa2876b086f925e5ecdb", "lon": -77.043365}, {"is_reserved": 0, "fusion_lon": 0.0, "fusion_lat": 0.0, "name": "610b103b7423f8e206efd020f7249ae4", "type": "electric_scooter", "is_disabled": 0, "lat": 38.934786333333335, "rental_uris": {"android": "https://dc.lft.to/lastmile_qr_scan", "ios": "https://dc.lft.to/lastmile_qr_scan"}, "bike_id": "610b103b7423f8e206efd020f7249ae4", "lon": -77.057924}, {"is_reserved": 0, "fusion_lon": 0.0, "fusion_lat": 0.0, "name": "b9a22468e906eadb4e83f148d5fe1003", "type": "electric_scooter", "is_disabled": 0, "lat": 38.91820633333333, "rental_uris": {"android": "https://dc.lft.to/lastmile_qr_scan", "ios": "https://dc.lft.to/lastmile_qr_scan"}, "bike_id": "b9a22468e906eadb4e83f148d5fe1003", "lon": -77.02422316666667}, {"is_reserved": 0, "fusion_lon": 0.0, "fusion_lat": 0.0, "name": "91536b9a378ef3ac29c6b4ecc01ae067", "type": "electric_scooter", "is_disabled": 0, "lat": 38.89226383333333, "rental_uris": {"android": "https://dc.lft.to/lastmile_qr_scan", "ios": "https://dc.lft.to/lastmile_qr_scan"}, "bike_id": "91536b9a378ef3ac29c6b4ecc01ae067", "lon": -77.04133216666666}, {"is_reserved": 0, "fusion_lon": 0.0, "fusion_lat": 0.0, "name": "3f5e3c1a45fd0558c7eb1a08da28646e", "type": "electric_scooter", "is_disabled": 0, "lat": 38.907378666666666, "rental_uris": {"android": "https://dc.lft.to/lastmile_qr_scan", "ios": "https://dc.lft.to/lastmile_qr_scan"}, "bike_id": "3f5e3c1a45fd0558c7eb1a08da28646e", "lon": -77.0329405}, {"is_reserved": 0, "fusion_lon": 0.0, "fusion_lat": 0.0, "name": "367124d38985f41a21a81d281b93c3de", "type": "electric_bike", "is_disabled": 0, "lat": 38.87729816666667, "rental_uris": {"android": "https://dc.lft.to/lastmile_qr_scan", "ios": "https://dc.lft.to/lastmile_qr_scan"}, "bike_id": "367124d38985f41a21a81d281b93c3de", "lon": -76.98105666666666}, {"is_reserved": 0, "fusion_lon": 0.0, "fusion_lat": 0.0, "name": "63a629945668d06588e9e47a116b1a6c", "type": "electric_scooter", "is_disabled": 0, "lat": 38.86058583333333, "rental_uris": {"android": "https://dc.lft.to/lastmile_qr_scan", "ios": "https://dc.lft.to/lastmile_qr_scan"}, "bike_id": "63a629945668d06588e9e47a116b1a6c", "lon": -76.98425083333333}, {"is_reserved": 0, "fusion_lon": 0.0, "fusion_lat": 0.0, "name": "a64a1b6cb972eff938895b46a8920bcd", "type": "electric_scooter", "is_disabled": 0, "lat": 38.929047, "rental_uris": {"android": "https://dc.lft.to/lastmile_qr_scan", "ios": "https://dc.lft.to/lastmile_qr_scan"}, "bike_id": "a64a1b6cb972eff938895b46a8920bcd", "lon": -77.0327475}, {"is_reserved": 0, "fusion_lon": 0.0, "fusion_lat": 0.0, "name": "b6c18c76213f4ba027609ca75215d901", "type": "electric_scooter", "is_disabled": 0, "lat": 38.90029966666667, "rental_uris": {"android": "https://dc.lft.to/lastmile_qr_scan", "ios": "https://dc.lft.to/lastmile_qr_scan"}, "bike_id": "b6c18c76213f4ba027609ca75215d901", "lon": -76.98864716666667}, {"is_reserved": 0, "fusion_lon": 0.0, "fusion_lat": 0.0, "name": "1ae38dd7bff67f6600f8f8b172ca095e", "type": "electric_scooter", "is_disabled": 0, "lat": 38.8985665, "rental_uris": {"android": "https://dc.lft.to/lastmile_qr_scan", "ios": "https://dc.lft.to/lastmile_qr_scan"}, "bike_id": "1ae38dd7bff67f6600f8f8b172ca095e", "lon": -76.93207683333333}, {"is_reserved": 0, "fusion_lon": 0.0, "fusion_lat": 0.0, "name": "bc5c13ec9e3ff379272f3bb4f712f0ef", "type": "electric_scooter", "is_disabled": 0, "lat": 38.90559583333334, "rental_uris": {"android": "https://dc.lft.to/lastmile_qr_scan", "ios": "https://dc.lft.to/lastmile_qr_scan"}, "bike_id": "bc5c13ec9e3ff379272f3bb4f712f0ef", "lon": -77.00583633333333}, {"is_reserved": 0, "fusion_lon": 0.0, "fusion_lat": 0.0, "name": "90a20505388d5dd0300e266cfa4dca04", "type": "electric_scooter", "is_disabled": 0, "lat": 38.91914533333333, "rental_uris": {"android": "https://dc.lft.to/lastmile_qr_scan", "ios": "https://dc.lft.to/lastmile_qr_scan"}, "bike_id": "90a20505388d5dd0300e266cfa4dca04", "lon": -77.02516916666667}, {"is_reserved": 0, "fusion_lon": 0.0, "fusion_lat": 0.0, "name": "5ac6931f8df35be45fefdbc8a7cae9e0", "type": "electric_scooter", "is_disabled": 0, "lat": 38.922463666666665, "rental_uris": {"android": "https://dc.lft.to/lastmile_qr_scan", "ios": "https://dc.lft.to/lastmile_qr_scan"}, "bike_id": "5ac6931f8df35be45fefdbc8a7cae9e0", "lon": -77.03021733333334}, {"is_reserved": 0, "fusion_lon": 0.0, "fusion_lat": 0.0, "name": "b58ebb3998e00589769c6434dcbe45a7", "type": "electric_scooter", "is_disabled": 0, "lat": 38.8805075, "rental_uris": {"android": "https://dc.lft.to/lastmile_qr_scan", "ios": "https://dc.lft.to/lastmile_qr_scan"}, "bike_id": "b58ebb3998e00589769c6434dcbe45a7", "lon": -77.0199255}, {"is_reserved": 0, "fusion_lon": 0.0, "fusion_lat": 0.0, "name": "986244976357cf4c12d15ebc95d7cf11", "type": "electric_scooter", "is_disabled": 0, "lat": 38.93064733333333, "rental_uris": {"android": "https://dc.lft.to/lastmile_qr_scan", "ios": "https://dc.lft.to/lastmile_qr_scan"}, "bike_id": "986244976357cf4c12d15ebc95d7cf11", "lon": -77.039445}, {"is_reserved": 0, "fusion_lon": 0.0, "fusion_lat": 0.0, "name": "b3117be242bdbea7a73dffc597a7d83f", "type": "electric_scooter", "is_disabled": 0, "lat": 38.91702133333333, "rental_uris": {"android": "https://dc.lft.to/lastmile_qr_scan", "ios": "https://dc.lft.to/lastmile_qr_scan"}, "bike_id": "b3117be242bdbea7a73dffc597a7d83f", "lon": -77.03108933333333}, {"is_reserved": 0, "fusion_lon": 0.0, "fusion_lat": 0.0, "name": "63f37f46f511426e280f048ef7f34f4a", "type": "electric_scooter", "is_disabled": 0, "lat": 38.88746483333333, "rental_uris": {"android": "https://dc.lft.to/lastmile_qr_scan", "ios": "https://dc.lft.to/lastmile_qr_scan"}, "bike_id": "63f37f46f511426e280f048ef7f34f4a", "lon": -77.02386116666666}, {"is_reserved": 0, "fusion_lon": 0.0, "fusion_lat": 0.0, "name": "094b63f5cf4aa120f2ffc136c61bed8c", "type": "electric_scooter", "is_disabled": 0, "lat": 38.907353, "rental_uris": {"android": "https://dc.lft.to/lastmile_qr_scan", "ios": "https://dc.lft.to/lastmile_qr_scan"}, "bike_id": "094b63f5cf4aa120f2ffc136c61bed8c", "lon": -77.02962966666666}, {"is_reserved": 0, "fusion_lon": 0.0, "fusion_lat": 0.0, "name": "f71d120976e1df2cd69940d9b047c3e4", "type": "electric_scooter", "is_disabled": 0, "lat": 38.910310833333334, "rental_uris": {"android": "https://dc.lft.to/lastmile_qr_scan", "ios": "https://dc.lft.to/lastmile_qr_scan"}, "bike_id": "f71d120976e1df2cd69940d9b047c3e4", "lon": -77.0344775}, {"is_reserved": 0, "fusion_lon": 0.0, "fusion_lat": 0.0, "name": "32e9ad31c9045db2cce32b505b6e8132", "type": "electric_scooter", "is_disabled": 0, "lat": 38.9183465, "rental_uris": {"android": "https://dc.lft.to/lastmile_qr_scan", "ios": "https://dc.lft.to/lastmile_qr_scan"}, "bike_id": "32e9ad31c9045db2cce32b505b6e8132", "lon": -77.02466266666667}, {"is_reserved": 0, "fusion_lon": 0.0, "fusion_lat": 0.0, "name": "e037adee0088dda3c0d7534c5e9fc6ea", "type": "electric_bike", "is_disabled": 0, "lat": 38.854418833333334, "rental_uris": {"android": "https://dc.lft.to/lastmile_qr_scan", "ios": "https://dc.lft.to/lastmile_qr_scan"}, "bike_id": "e037adee0088dda3c0d7534c5e9fc6ea", "lon": -77.08325916666666}, {"is_reserved": 0, "fusion_lon": 0.0, "fusion_lat": 0.0, "name": "f5417f19c21e2f0ab218d0ebd39b699a", "type": "electric_scooter", "is_disabled": 0, "lat": 38.9376865, "rental_uris": {"android": "https://dc.lft.to/lastmile_qr_scan", "ios": "https://dc.lft.to/lastmile_qr_scan"}, "bike_id": "f5417f19c21e2f0ab218d0ebd39b699a", "lon": -77.01969916666667}, {"is_reserved": 0, "fusion_lon": 0.0, "fusion_lat": 0.0, "name": "d7439ea6e3bf231ca8c582c9bb2fc181", "type": "electric_scooter", "is_disabled": 0, "lat": 38.8754415, "rental_uris": {"android": "https://dc.lft.to/lastmile_qr_scan", "ios": "https://dc.lft.to/lastmile_qr_scan"}, "bike_id": "d7439ea6e3bf231ca8c582c9bb2fc181", "lon": -77.00622833333334}, {"is_reserved": 0, "fusion_lon": 0.0, "fusion_lat": 0.0, "name": "6d8e7d9a29db5cfbbc3b39649ad8910b", "type": "electric_scooter", "is_disabled": 0, "lat": 38.892277, "rental_uris": {"android": "https://dc.lft.to/lastmile_qr_scan", "ios": "https://dc.lft.to/lastmile_qr_scan"}, "bike_id": "6d8e7d9a29db5cfbbc3b39649ad8910b", "lon": -77.043734}, {"is_reserved": 0, "fusion_lon": 0.0, "fusion_lat": 0.0, "name": "a08b5402739a914cfa8524e0e3c70b0b", "type": "electric_scooter", "is_disabled": 0, "lat": 38.906555, "rental_uris": {"android": "https://dc.lft.to/lastmile_qr_scan", "ios": "https://dc.lft.to/lastmile_qr_scan"}, "bike_id": "a08b5402739a914cfa8524e0e3c70b0b", "lon": -77.05004683333334}, {"is_reserved": 0, "fusion_lon": 0.0, "fusion_lat": 0.0, "name": "e5aa102da8afcde1086253a2b5cdc76e", "type": "electric_scooter", "is_disabled": 0, "lat": 38.90514, "rental_uris": {"android": "https://dc.lft.to/lastmile_qr_scan", "ios": "https://dc.lft.to/lastmile_qr_scan"}, "bike_id": "e5aa102da8afcde1086253a2b5cdc76e", "lon": -77.00136566666667}, {"is_reserved": 0, "fusion_lon": 0.0, "fusion_lat": 0.0, "name": "2c4f9f10919fdb7691adadbb118f72c1", "type": "electric_bike", "is_disabled": 0, "lat": 39.042345833333336, "rental_uris": {"android": "https://dc.lft.to/lastmile_qr_scan", "ios": "https://dc.lft.to/lastmile_qr_scan"}, "bike_id": "2c4f9f10919fdb7691adadbb118f72c1", "lon": -76.99735933333334}, {"is_reserved": 0, "fusion_lon": 0.0, "fusion_lat": 0.0, "name": "527872d1f4e9259666b8b7b946c7cf79", "type": "electric_bike", "is_disabled": 0, "lat": 38.9155095, "rental_uris": {"android": "https://dc.lft.to/lastmile_qr_scan", "ios": "https://dc.lft.to/lastmile_qr_scan"}, "bike_id": "527872d1f4e9259666b8b7b946c7cf79", "lon": -77.04633066666666}, {"is_reserved": 0, "fusion_lon": 0.0, "fusion_lat": 0.0, "name": "4d847bc260fa1b9f593c15007c35a3fa", "type": "electric_scooter", "is_disabled": 0, "lat": 38.90739, "rental_uris": {"android": "https://dc.lft.to/lastmile_qr_scan", "ios": "https://dc.lft.to/lastmile_qr_scan"}, "bike_id": "4d847bc260fa1b9f593c15007c35a3fa", "lon": -77.02693866666667}, {"is_reserved": 0, "fusion_lon": 0.0, "fusion_lat": 0.0, "name": "64693870593b3335973b53d1073e24f8", "type": "electric_scooter", "is_disabled": 0, "lat": 38.91099616666666, "rental_uris": {"android": "https://dc.lft.to/lastmile_qr_scan", "ios": "https://dc.lft.to/lastmile_qr_scan"}, "bike_id": "64693870593b3335973b53d1073e24f8", "lon": -77.0296095}, {"is_reserved": 0, "fusion_lon": 0.0, "fusion_lat": 0.0, "name": "26876345ee0bb98379de1f24ac3a7175", "type": "electric_scooter", "is_disabled": 0, "lat": 38.951782, "rental_uris": {"android": "https://dc.lft.to/lastmile_qr_scan", "ios": "https://dc.lft.to/lastmile_qr_scan"}, "bike_id": "26876345ee0bb98379de1f24ac3a7175", "lon": -77.02731566666667}, {"is_reserved": 0, "fusion_lon": 0.0, "fusion_lat": 0.0, "name": "63b92e2f9bc557b8d34f41dc527d20b0", "type": "electric_scooter", "is_disabled": 0, "lat": 38.896017, "rental_uris": {"android": "https://dc.lft.to/lastmile_qr_scan", "ios": "https://dc.lft.to/lastmile_qr_scan"}, "bike_id": "63b92e2f9bc557b8d34f41dc527d20b0", "lon": -77.007639}, {"is_reserved": 0, "fusion_lon": 0.0, "fusion_lat": 0.0, "name": "8d6f7e5a9d1e6dccb5078d40b689f7bd", "type": "electric_scooter", "is_disabled": 0, "lat": 38.922867, "rental_uris": {"android": "https://dc.lft.to/lastmile_qr_scan", "ios": "https://dc.lft.to/lastmile_qr_scan"}, "bike_id": "8d6f7e5a9d1e6dccb5078d40b689f7bd", "lon": -77.03658783333333}, {"is_reserved": 0, "fusion_lon": 0.0, "fusion_lat": 0.0, "name": "979fb9e88fe947c67d4b5ae1e4051153", "type": "electric_scooter", "is_disabled": 0, "lat": 38.8942495, "rental_uris": {"android": "https://dc.lft.to/lastmile_qr_scan", "ios": "https://dc.lft.to/lastmile_qr_scan"}, "bike_id": "979fb9e88fe947c67d4b5ae1e4051153", "lon": -76.91117083333333}, {"is_reserved": 0, "fusion_lon": 0.0, "fusion_lat": 0.0, "name": "44d6be63fe5c89d77d76c522532f4278", "type": "electric_bike", "is_disabled": 0, "lat": 38.902726, "rental_uris": {"android": "https://dc.lft.to/lastmile_qr_scan", "ios": "https://dc.lft.to/lastmile_qr_scan"}, "bike_id": "44d6be63fe5c89d77d76c522532f4278", "lon": -76.929252}, {"is_reserved": 0, "fusion_lon": 0.0, "fusion_lat": 0.0, "name": "26ba240cd3c914cb8e161a47e047e5c6", "type": "electric_scooter", "is_disabled": 0, "lat": 38.90741466666667, "rental_uris": {"android": "https://dc.lft.to/lastmile_qr_scan", "ios": "https://dc.lft.to/lastmile_qr_scan"}, "bike_id": "26ba240cd3c914cb8e161a47e047e5c6", "lon": -77.00244033333334}, {"is_reserved": 0, "fusion_lon": 0.0, "fusion_lat": 0.0, "name": "2d5283e650d2ca643ee06bc7852c7520", "type": "electric_scooter", "is_disabled": 0, "lat": 38.9224995, "rental_uris": {"android": "https://dc.lft.to/lastmile_qr_scan", "ios": "https://dc.lft.to/lastmile_qr_scan"}, "bike_id": "2d5283e650d2ca643ee06bc7852c7520", "lon": -77.030801}, {"is_reserved": 0, "fusion_lon": 0.0, "fusion_lat": 0.0, "name": "d1394e713ce6c63e7c4b327fbb48d78c", "type": "electric_scooter", "is_disabled": 0, "lat": 38.97246333333333, "rental_uris": {"android": "https://dc.lft.to/lastmile_qr_scan", "ios": "https://dc.lft.to/lastmile_qr_scan"}, "bike_id": "d1394e713ce6c63e7c4b327fbb48d78c", "lon": -77.02652466666666}, {"is_reserved": 0, "fusion_lon": 0.0, "fusion_lat": 0.0, "name": "80fb55589beb5462561d80f3e7aae51e", "type": "electric_scooter", "is_disabled": 0, "lat": 38.87675083333333, "rental_uris": {"android": "https://dc.lft.to/lastmile_qr_scan", "ios": "https://dc.lft.to/lastmile_qr_scan"}, "bike_id": "80fb55589beb5462561d80f3e7aae51e", "lon": -76.99824166666667}, {"is_reserved": 0, "fusion_lon": 0.0, "fusion_lat": 0.0, "name": "293840759d5d1db91754e0c6152ecd13", "type": "electric_scooter", "is_disabled": 0, "lat": 38.922466666666665, "rental_uris": {"android": "https://dc.lft.to/lastmile_qr_scan", "ios": "https://dc.lft.to/lastmile_qr_scan"}, "bike_id": "293840759d5d1db91754e0c6152ecd13", "lon": -77.02954583333333}, {"is_reserved": 0, "fusion_lon": 0.0, "fusion_lat": 0.0, "name": "28f62042e056c0ca996a783d7ed946cb", "type": "electric_scooter", "is_disabled": 0, "lat": 38.909885833333334, "rental_uris": {"android": "https://dc.lft.to/lastmile_qr_scan", "ios": "https://dc.lft.to/lastmile_qr_scan"}, "bike_id": "28f62042e056c0ca996a783d7ed946cb", "lon": -77.04873566666667}, {"is_reserved": 0, "fusion_lon": 0.0, "fusion_lat": 0.0, "name": "e0ea6564e6ebfe1262b53a1dddd08335", "type": "electric_scooter", "is_disabled": 0, "lat": 38.928213166666666, "rental_uris": {"android": "https://dc.lft.to/lastmile_qr_scan", "ios": "https://dc.lft.to/lastmile_qr_scan"}, "bike_id": "e0ea6564e6ebfe1262b53a1dddd08335", "lon": -77.0225755}, {"is_reserved": 0, "fusion_lon": 0.0, "fusion_lat": 0.0, "name": "4e74b3f6ae4a32aecb43ef474c0c6683", "type": "electric_scooter", "is_disabled": 0, "lat": 38.9043515, "rental_uris": {"android": "https://dc.lft.to/lastmile_qr_scan", "ios": "https://dc.lft.to/lastmile_qr_scan"}, "bike_id": "4e74b3f6ae4a32aecb43ef474c0c6683", "lon": -77.02586583333333}, {"is_reserved": 0, "fusion_lon": 0.0, "fusion_lat": 0.0, "name": "5c514ac08440293db4e6cf546e02b443", "type": "electric_scooter", "is_disabled": 0, "lat": 38.8963115, "rental_uris": {"android": "https://dc.lft.to/lastmile_qr_scan", "ios": "https://dc.lft.to/lastmile_qr_scan"}, "bike_id": "5c514ac08440293db4e6cf546e02b443", "lon": -77.031918}, {"is_reserved": 0, "fusion_lon": 0.0, "fusion_lat": 0.0, "name": "56a62b8cc12fc2f2870129224e0cab9b", "type": "electric_scooter", "is_disabled": 0, "lat": 38.917848, "rental_uris": {"android": "https://dc.lft.to/lastmile_qr_scan", "ios": "https://dc.lft.to/lastmile_qr_scan"}, "bike_id": "56a62b8cc12fc2f2870129224e0cab9b", "lon": -77.0259075}, {"is_reserved": 0, "fusion_lon": 0.0, "fusion_lat": 0.0, "name": "926ba6ea18950dd35fb8d9a8673cc85e", "type": "electric_scooter", "is_disabled": 0, "lat": 38.902463, "rental_uris": {"android": "https://dc.lft.to/lastmile_qr_scan", "ios": "https://dc.lft.to/lastmile_qr_scan"}, "bike_id": "926ba6ea18950dd35fb8d9a8673cc85e", "lon": -77.03142866666667}, {"is_reserved": 0, "fusion_lon": 0.0, "fusion_lat": 0.0, "name": "8be39213bfa3cecdba0bb5aa33305625", "type": "electric_scooter", "is_disabled": 0, "lat": 38.9081495, "rental_uris": {"android": "https://dc.lft.to/lastmile_qr_scan", "ios": "https://dc.lft.to/lastmile_qr_scan"}, "bike_id": "8be39213bfa3cecdba0bb5aa33305625", "lon": -77.0344775}, {"is_reserved": 0, "fusion_lon": 0.0, "fusion_lat": 0.0, "name": "9d815eb5738a398d704cdfa686cfa733", "type": "electric_scooter", "is_disabled": 0, "lat": 38.89015633333333, "rental_uris": {"android": "https://dc.lft.to/lastmile_qr_scan", "ios": "https://dc.lft.to/lastmile_qr_scan"}, "bike_id": "9d815eb5738a398d704cdfa686cfa733", "lon": -76.93733583333334}, {"is_reserved": 0, "fusion_lon": 0.0, "fusion_lat": 0.0, "name": "c628f7463b24548d4a475ee9042cd429", "type": "electric_scooter", "is_disabled": 0, "lat": 38.93455766666666, "rental_uris": {"android": "https://dc.lft.to/lastmile_qr_scan", "ios": "https://dc.lft.to/lastmile_qr_scan"}, "bike_id": "c628f7463b24548d4a475ee9042cd429", "lon": -77.037543}, {"is_reserved": 0, "fusion_lon": 0.0, "fusion_lat": 0.0, "name": "c1804139beed4cfb8331b627fb0156eb", "type": "electric_scooter", "is_disabled": 0, "lat": 38.907387, "rental_uris": {"android": "https://dc.lft.to/lastmile_qr_scan", "ios": "https://dc.lft.to/lastmile_qr_scan"}, "bike_id": "c1804139beed4cfb8331b627fb0156eb", "lon": -77.04136966666667}, {"is_reserved": 0, "fusion_lon": 0.0, "fusion_lat": 0.0, "name": "e2c260ff91bdc9b961141c22054a1d7a", "type": "electric_scooter", "is_disabled": 0, "lat": 38.9002915, "rental_uris": {"android": "https://dc.lft.to/lastmile_qr_scan", "ios": "https://dc.lft.to/lastmile_qr_scan"}, "bike_id": "e2c260ff91bdc9b961141c22054a1d7a", "lon": -76.98862733333333}, {"is_reserved": 0, "fusion_lon": 0.0, "fusion_lat": 0.0, "name": "c663dff3fa280666823cff31fde8d38e", "type": "electric_bike", "is_disabled": 0, "lat": 38.881154333333335, "rental_uris": {"android": "https://dc.lft.to/lastmile_qr_scan", "ios": "https://dc.lft.to/lastmile_qr_scan"}, "bike_id": "c663dff3fa280666823cff31fde8d38e", "lon": -77.01650533333333}, {"is_reserved": 0, "fusion_lon": 0.0, "fusion_lat": 0.0, "name": "1c1a51cfc7a9e68634d22d9707892d60", "type": "electric_scooter", "is_disabled": 0, "lat": 38.89947433333333, "rental_uris": {"android": "https://dc.lft.to/lastmile_qr_scan", "ios": "https://dc.lft.to/lastmile_qr_scan"}, "bike_id": "1c1a51cfc7a9e68634d22d9707892d60", "lon": -77.003636}, {"is_reserved": 0, "fusion_lon": 0.0, "fusion_lat": 0.0, "name": "169daedc4cf05829762f68dd45b87b04", "type": "electric_scooter", "is_disabled": 0, "lat": 38.936258, "rental_uris": {"android": "https://dc.lft.to/lastmile_qr_scan", "ios": "https://dc.lft.to/lastmile_qr_scan"}, "bike_id": "169daedc4cf05829762f68dd45b87b04", "lon": -77.05895183333334}, {"is_reserved": 0, "fusion_lon": 0.0, "fusion_lat": 0.0, "name": "c35475be32cd0f8e2f78d494efdde4e4", "type": "electric_scooter", "is_disabled": 0, "lat": 38.906553333333335, "rental_uris": {"android": "https://dc.lft.to/lastmile_qr_scan", "ios": "https://dc.lft.to/lastmile_qr_scan"}, "bike_id": "c35475be32cd0f8e2f78d494efdde4e4", "lon": -77.04873233333333}, {"is_reserved": 0, "fusion_lon": 0.0, "fusion_lat": 0.0, "name": "1e6bdb9d505f1c04b5d03f09b9345426", "type": "electric_bike", "is_disabled": 0, "lat": 38.879895833333336, "rental_uris": {"android": "https://dc.lft.to/lastmile_qr_scan", "ios": "https://dc.lft.to/lastmile_qr_scan"}, "bike_id": "1e6bdb9d505f1c04b5d03f09b9345426", "lon": -76.91607316666666}, {"is_reserved": 0, "fusion_lon": 0.0, "fusion_lat": 0.0, "name": "891d825863f1968c133171885e24516b", "type": "electric_scooter", "is_disabled": 0, "lat": 38.90360416666667, "rental_uris": {"android": "https://dc.lft.to/lastmile_qr_scan", "ios": "https://dc.lft.to/lastmile_qr_scan"}, "bike_id": "891d825863f1968c133171885e24516b", "lon": -77.04204683333333}, {"is_reserved": 0, "fusion_lon": 0.0, "fusion_lat": 0.0, "name": "60d6fcaf9e52e690101917f7c11cbab6", "type": "electric_scooter", "is_disabled": 0, "lat": 38.905120833333335, "rental_uris": {"android": "https://dc.lft.to/lastmile_qr_scan", "ios": "https://dc.lft.to/lastmile_qr_scan"}, "bike_id": "60d6fcaf9e52e690101917f7c11cbab6", "lon": -77.0638395}, {"is_reserved": 0, "fusion_lon": 0.0, "fusion_lat": 0.0, "name": "697b36bcb3b57d89d7cf1b9d67862697", "type": "electric_scooter", "is_disabled": 0, "lat": 38.90414033333333, "rental_uris": {"android": "https://dc.lft.to/lastmile_qr_scan", "ios": "https://dc.lft.to/lastmile_qr_scan"}, "bike_id": "697b36bcb3b57d89d7cf1b9d67862697", "lon": -77.02934983333333}, {"is_reserved": 0, "fusion_lon": 0.0, "fusion_lat": 0.0, "name": "1e66ddff2bba37c8964d24774a399de5", "type": "electric_scooter", "is_disabled": 0, "lat": 38.96110733333333, "rental_uris": {"android": "https://dc.lft.to/lastmile_qr_scan", "ios": "https://dc.lft.to/lastmile_qr_scan"}, "bike_id": "1e66ddff2bba37c8964d24774a399de5", "lon": -77.00948783333334}, {"is_reserved": 0, "fusion_lon": 0.0, "fusion_lat": 0.0, "name": "d70fb679a699ef419d9caa0e5fb671ad", "type": "electric_scooter", "is_disabled": 0, "lat": 38.916961666666666, "rental_uris": {"android": "https://dc.lft.to/lastmile_qr_scan", "ios": "https://dc.lft.to/lastmile_qr_scan"}, "bike_id": "d70fb679a699ef419d9caa0e5fb671ad", "lon": -77.04193}, {"is_reserved": 0, "fusion_lon": 0.0, "fusion_lat": 0.0, "name": "23b19c46ef044fca8dfdd7e07d5c8bac", "type": "electric_scooter", "is_disabled": 0, "lat": 38.90075133333333, "rental_uris": {"android": "https://dc.lft.to/lastmile_qr_scan", "ios": "https://dc.lft.to/lastmile_qr_scan"}, "bike_id": "23b19c46ef044fca8dfdd7e07d5c8bac", "lon": -77.04824333333333}, {"is_reserved": 0, "fusion_lon": 0.0, "fusion_lat": 0.0, "name": "d70c5291ece3e644d08b868fc86e0c62", "type": "electric_scooter", "is_disabled": 0, "lat": 38.9367255, "rental_uris": {"android": "https://dc.lft.to/lastmile_qr_scan", "ios": "https://dc.lft.to/lastmile_qr_scan"}, "bike_id": "d70c5291ece3e644d08b868fc86e0c62", "lon": -77.03635633333333}, {"is_reserved": 0, "fusion_lon": 0.0, "fusion_lat": 0.0, "name": "32dea2626d1d622ee28fe6dd5a60922d", "type": "electric_scooter", "is_disabled": 0, "lat": 38.91692283333333, "rental_uris": {"android": "https://dc.lft.to/lastmile_qr_scan", "ios": "https://dc.lft.to/lastmile_qr_scan"}, "bike_id": "32dea2626d1d622ee28fe6dd5a60922d", "lon": -77.025946}, {"is_reserved": 0, "fusion_lon": 0.0, "fusion_lat": 0.0, "name": "722096269dcc124fc26c9de44f273e66", "type": "electric_scooter", "is_disabled": 0, "lat": 38.9191605, "rental_uris": {"android": "https://dc.lft.to/lastmile_qr_scan", "ios": "https://dc.lft.to/lastmile_qr_scan"}, "bike_id": "722096269dcc124fc26c9de44f273e66", "lon": -77.04811683333334}, {"is_reserved": 0, "fusion_lon": 0.0, "fusion_lat": 0.0, "name": "4a1396df3bdb8bba29ef0395dbd8c69c", "type": "electric_scooter", "is_disabled": 0, "lat": 38.88316483333333, "rental_uris": {"android": "https://dc.lft.to/lastmile_qr_scan", "ios": "https://dc.lft.to/lastmile_qr_scan"}, "bike_id": "4a1396df3bdb8bba29ef0395dbd8c69c", "lon": -77.01755266666666}, {"is_reserved": 0, "fusion_lon": 0.0, "fusion_lat": 0.0, "name": "0f67c4b2a6a04badcf756ac48aec6243", "type": "electric_scooter", "is_disabled": 0, "lat": 38.91708166666667, "rental_uris": {"android": "https://dc.lft.to/lastmile_qr_scan", "ios": "https://dc.lft.to/lastmile_qr_scan"}, "bike_id": "0f67c4b2a6a04badcf756ac48aec6243", "lon": -77.03474083333333}, {"is_reserved": 0, "fusion_lon": 0.0, "fusion_lat": 0.0, "name": "a3c8c62954526deff696d3236d9317dc", "type": "electric_scooter", "is_disabled": 0, "lat": 38.92315216666667, "rental_uris": {"android": "https://dc.lft.to/lastmile_qr_scan", "ios": "https://dc.lft.to/lastmile_qr_scan"}, "bike_id": "a3c8c62954526deff696d3236d9317dc", "lon": -76.99916583333334}, {"is_reserved": 0, "fusion_lon": 0.0, "fusion_lat": 0.0, "name": "fa47a7eca0adab895f14b6285ffdade3", "type": "electric_scooter", "is_disabled": 0, "lat": 38.8802915, "rental_uris": {"android": "https://dc.lft.to/lastmile_qr_scan", "ios": "https://dc.lft.to/lastmile_qr_scan"}, "bike_id": "fa47a7eca0adab895f14b6285ffdade3", "lon": -76.98477016666666}, {"is_reserved": 0, "fusion_lon": 0.0, "fusion_lat": 0.0, "name": "40fa0ca7f94be082dc6fb1634d3112da", "type": "electric_scooter", "is_disabled": 0, "lat": 38.9058725, "rental_uris": {"android": "https://dc.lft.to/lastmile_qr_scan", "ios": "https://dc.lft.to/lastmile_qr_scan"}, "bike_id": "40fa0ca7f94be082dc6fb1634d3112da", "lon": -77.00877433333333}, {"is_reserved": 0, "fusion_lon": 0.0, "fusion_lat": 0.0, "name": "a194d721995978b3ab38497755308fbe", "type": "electric_scooter", "is_disabled": 0, "lat": 38.918840833333334, "rental_uris": {"android": "https://dc.lft.to/lastmile_qr_scan", "ios": "https://dc.lft.to/lastmile_qr_scan"}, "bike_id": "a194d721995978b3ab38497755308fbe", "lon": -77.03483516666667}, {"is_reserved": 0, "fusion_lon": 0.0, "fusion_lat": 0.0, "name": "915911cdc13e5f8fd3b707f18dcb48cc", "type": "electric_scooter", "is_disabled": 0, "lat": 38.909822, "rental_uris": {"android": "https://dc.lft.to/lastmile_qr_scan", "ios": "https://dc.lft.to/lastmile_qr_scan"}, "bike_id": "915911cdc13e5f8fd3b707f18dcb48cc", "lon": -77.03178533333333}, {"is_reserved": 0, "fusion_lon": 0.0, "fusion_lat": 0.0, "name": "0199dfb244508abd49107ed20bba966a", "type": "electric_scooter", "is_disabled": 0, "lat": 38.90256016666667, "rental_uris": {"android": "https://dc.lft.to/lastmile_qr_scan", "ios": "https://dc.lft.to/lastmile_qr_scan"}, "bike_id": "0199dfb244508abd49107ed20bba966a", "lon": -77.03882133333333}, {"is_reserved": 0, "fusion_lon": 0.0, "fusion_lat": 0.0, "name": "9b766c4b81360bfcc437b7f98c26cb95", "type": "electric_scooter", "is_disabled": 0, "lat": 38.903768, "rental_uris": {"android": "https://dc.lft.to/lastmile_qr_scan", "ios": "https://dc.lft.to/lastmile_qr_scan"}, "bike_id": "9b766c4b81360bfcc437b7f98c26cb95", "lon": -77.04863533333334}, {"is_reserved": 0, "fusion_lon": 0.0, "fusion_lat": 0.0, "name": "a75e989a9c7710f41ba4e3659db62ea6", "type": "electric_scooter", "is_disabled": 0, "lat": 38.8772475, "rental_uris": {"android": "https://dc.lft.to/lastmile_qr_scan", "ios": "https://dc.lft.to/lastmile_qr_scan"}, "bike_id": "a75e989a9c7710f41ba4e3659db62ea6", "lon": -77.01764166666666}, {"is_reserved": 0, "fusion_lon": 0.0, "fusion_lat": 0.0, "name": "665a1b5affc3eebbe6c2a5222380433d", "type": "electric_scooter", "is_disabled": 0, "lat": 38.9552165, "rental_uris": {"android": "https://dc.lft.to/lastmile_qr_scan", "ios": "https://dc.lft.to/lastmile_qr_scan"}, "bike_id": "665a1b5affc3eebbe6c2a5222380433d", "lon": -77.02210533333333}, {"is_reserved": 0, "fusion_lon": 0.0, "fusion_lat": 0.0, "name": "2bc965f150d9b2d48dbeec80f01cf8ec", "type": "electric_scooter", "is_disabled": 0, "lat": 38.898567666666665, "rental_uris": {"android": "https://dc.lft.to/lastmile_qr_scan", "ios": "https://dc.lft.to/lastmile_qr_scan"}, "bike_id": "2bc965f150d9b2d48dbeec80f01cf8ec", "lon": -76.99011183333333}, {"is_reserved": 0, "fusion_lon": 0.0, "fusion_lat": 0.0, "name": "edfdc693daed5ac1e0fa8dd16a41b509", "type": "electric_scooter", "is_disabled": 0, "lat": 38.910514666666664, "rental_uris": {"android": "https://dc.lft.to/lastmile_qr_scan", "ios": "https://dc.lft.to/lastmile_qr_scan"}, "bike_id": "edfdc693daed5ac1e0fa8dd16a41b509", "lon": -77.02193733333333}, {"is_reserved": 0, "fusion_lon": 0.0, "fusion_lat": 0.0, "name": "01ef19ac88ea040a477eba5ac43cbf58", "type": "electric_scooter", "is_disabled": 0, "lat": 38.89220516666666, "rental_uris": {"android": "https://dc.lft.to/lastmile_qr_scan", "ios": "https://dc.lft.to/lastmile_qr_scan"}, "bike_id": "01ef19ac88ea040a477eba5ac43cbf58", "lon": -77.0431355}, {"is_reserved": 0, "fusion_lon": 0.0, "fusion_lat": 0.0, "name": "d5ba22ba86d7703270f4258ad42897f9", "type": "electric_scooter", "is_disabled": 0, "lat": 38.91891733333333, "rental_uris": {"android": "https://dc.lft.to/lastmile_qr_scan", "ios": "https://dc.lft.to/lastmile_qr_scan"}, "bike_id": "d5ba22ba86d7703270f4258ad42897f9", "lon": -77.01202983333333}, {"is_reserved": 0, "fusion_lon": 0.0, "fusion_lat": 0.0, "name": "5e57bd99486bde2b7235bea0c0b45a9a", "type": "electric_scooter", "is_disabled": 0, "lat": 38.912598833333334, "rental_uris": {"android": "https://dc.lft.to/lastmile_qr_scan", "ios": "https://dc.lft.to/lastmile_qr_scan"}, "bike_id": "5e57bd99486bde2b7235bea0c0b45a9a", "lon": -77.03073833333333}, {"is_reserved": 0, "fusion_lon": 0.0, "fusion_lat": 0.0, "name": "86182d240965b3715489779aef4e4a4a", "type": "electric_scooter", "is_disabled": 0, "lat": 38.892306166666664, "rental_uris": {"android": "https://dc.lft.to/lastmile_qr_scan", "ios": "https://dc.lft.to/lastmile_qr_scan"}, "bike_id": "86182d240965b3715489779aef4e4a4a", "lon": -77.04509}, {"is_reserved": 0, "fusion_lon": 0.0, "fusion_lat": 0.0, "name": "11d7ebca763774f089f6fb40627eb716", "type": "electric_scooter", "is_disabled": 0, "lat": 38.90034683333333, "rental_uris": {"android": "https://dc.lft.to/lastmile_qr_scan", "ios": "https://dc.lft.to/lastmile_qr_scan"}, "bike_id": "11d7ebca763774f089f6fb40627eb716", "lon": -77.00306033333334}, {"is_reserved": 0, "fusion_lon": 0.0, "fusion_lat": 0.0, "name": "116bf6ec1d0cdfaf0d42fd3dcc368df6", "type": "electric_scooter", "is_disabled": 0, "lat": 38.9025085, "rental_uris": {"android": "https://dc.lft.to/lastmile_qr_scan", "ios": "https://dc.lft.to/lastmile_qr_scan"}, "bike_id": "116bf6ec1d0cdfaf0d42fd3dcc368df6", "lon": -76.9894055}, {"is_reserved": 0, "fusion_lon": 0.0, "fusion_lat": 0.0, "name": "c12818c687cee755129590f1f585e1cc", "type": "electric_scooter", "is_disabled": 0, "lat": 38.91711766666667, "rental_uris": {"android": "https://dc.lft.to/lastmile_qr_scan", "ios": "https://dc.lft.to/lastmile_qr_scan"}, "bike_id": "c12818c687cee755129590f1f585e1cc", "lon": -77.03499983333333}, {"is_reserved": 0, "fusion_lon": 0.0, "fusion_lat": 0.0, "name": "cb7aef417636daca4598feefe3c23f82", "type": "electric_scooter", "is_disabled": 0, "lat": 38.91402, "rental_uris": {"android": "https://dc.lft.to/lastmile_qr_scan", "ios": "https://dc.lft.to/lastmile_qr_scan"}, "bike_id": "cb7aef417636daca4598feefe3c23f82", "lon": -77.03951816666667}, {"is_reserved": 0, "fusion_lon": 0.0, "fusion_lat": 0.0, "name": "53d38406a6767b13f466be0f1b359b66", "type": "electric_scooter", "is_disabled": 0, "lat": 38.9074725, "rental_uris": {"android": "https://dc.lft.to/lastmile_qr_scan", "ios": "https://dc.lft.to/lastmile_qr_scan"}, "bike_id": "53d38406a6767b13f466be0f1b359b66", "lon": -77.04556566666666}, {"is_reserved": 0, "fusion_lon": 0.0, "fusion_lat": 0.0, "name": "8d6f87d0b44d0a9f8808628416a06360", "type": "electric_scooter", "is_disabled": 0, "lat": 38.91678183333333, "rental_uris": {"android": "https://dc.lft.to/lastmile_qr_scan", "ios": "https://dc.lft.to/lastmile_qr_scan"}, "bike_id": "8d6f87d0b44d0a9f8808628416a06360", "lon": -77.02966533333333}, {"is_reserved": 0, "fusion_lon": 0.0, "fusion_lat": 0.0, "name": "88c0f804c753e8eec1880f1a0982daaf", "type": "electric_scooter", "is_disabled": 0, "lat": 38.874564166666666, "rental_uris": {"android": "https://dc.lft.to/lastmile_qr_scan", "ios": "https://dc.lft.to/lastmile_qr_scan"}, "bike_id": "88c0f804c753e8eec1880f1a0982daaf", "lon": -77.00541483333333}, {"is_reserved": 0, "fusion_lon": 0.0, "fusion_lat": 0.0, "name": "49ce7b24d7f777e156b0dd4056abd94d", "type": "electric_scooter", "is_disabled": 0, "lat": 38.86656266666667, "rental_uris": {"android": "https://dc.lft.to/lastmile_qr_scan", "ios": "https://dc.lft.to/lastmile_qr_scan"}, "bike_id": "49ce7b24d7f777e156b0dd4056abd94d", "lon": -76.98887266666667}, {"is_reserved": 0, "fusion_lon": 0.0, "fusion_lat": 0.0, "name": "ff67f08f3cbe6091c33327346a69edd8", "type": "electric_scooter", "is_disabled": 0, "lat": 38.9238, "rental_uris": {"android": "https://dc.lft.to/lastmile_qr_scan", "ios": "https://dc.lft.to/lastmile_qr_scan"}, "bike_id": "ff67f08f3cbe6091c33327346a69edd8", "lon": -77.027437}, {"is_reserved": 0, "fusion_lon": 0.0, "fusion_lat": 0.0, "name": "2f36cd1a42dc44fa30ca290fe246e543", "type": "electric_scooter", "is_disabled": 0, "lat": 38.892226666666666, "rental_uris": {"android": "https://dc.lft.to/lastmile_qr_scan", "ios": "https://dc.lft.to/lastmile_qr_scan"}, "bike_id": "2f36cd1a42dc44fa30ca290fe246e543", "lon": -77.04376166666667}, {"is_reserved": 0, "fusion_lon": 0.0, "fusion_lat": 0.0, "name": "fbb37dd7f34e8642600398d8289cf544", "type": "electric_scooter", "is_disabled": 0, "lat": 38.907715333333336, "rental_uris": {"android": "https://dc.lft.to/lastmile_qr_scan", "ios": "https://dc.lft.to/lastmile_qr_scan"}, "bike_id": "fbb37dd7f34e8642600398d8289cf544", "lon": -77.038204}, {"is_reserved": 0, "fusion_lon": 0.0, "fusion_lat": 0.0, "name": "96813edf00357a05a51d132a13b424dd", "type": "electric_scooter", "is_disabled": 0, "lat": 38.911934, "rental_uris": {"android": "https://dc.lft.to/lastmile_qr_scan", "ios": "https://dc.lft.to/lastmile_qr_scan"}, "bike_id": "96813edf00357a05a51d132a13b424dd", "lon": -77.038326}, {"is_reserved": 0, "fusion_lon": 0.0, "fusion_lat": 0.0, "name": "7e2b4e6667e5f4c14e0b7e4d6378428f", "type": "electric_scooter", "is_disabled": 0, "lat": 38.9261455, "rental_uris": {"android": "https://dc.lft.to/lastmile_qr_scan", "ios": "https://dc.lft.to/lastmile_qr_scan"}, "bike_id": "7e2b4e6667e5f4c14e0b7e4d6378428f", "lon": -77.021585}, {"is_reserved": 0, "fusion_lon": 0.0, "fusion_lat": 0.0, "name": "01e566acc0d402c8624940d7690b5a10", "type": "electric_scooter", "is_disabled": 0, "lat": 38.91907533333333, "rental_uris": {"android": "https://dc.lft.to/lastmile_qr_scan", "ios": "https://dc.lft.to/lastmile_qr_scan"}, "bike_id": "01e566acc0d402c8624940d7690b5a10", "lon": -77.04460483333334}, {"is_reserved": 0, "fusion_lon": 0.0, "fusion_lat": 0.0, "name": "1a6b38b24baf0a7d000df92284bff98a", "type": "electric_scooter", "is_disabled": 0, "lat": 38.9179545, "rental_uris": {"android": "https://dc.lft.to/lastmile_qr_scan", "ios": "https://dc.lft.to/lastmile_qr_scan"}, "bike_id": "1a6b38b24baf0a7d000df92284bff98a", "lon": -77.03207183333333}, {"is_reserved": 0, "fusion_lon": 0.0, "fusion_lat": 0.0, "name": "ee1b6b3b63b965a1ac0df705d73b078c", "type": "electric_scooter", "is_disabled": 0, "lat": 38.93002166666667, "rental_uris": {"android": "https://dc.lft.to/lastmile_qr_scan", "ios": "https://dc.lft.to/lastmile_qr_scan"}, "bike_id": "ee1b6b3b63b965a1ac0df705d73b078c", "lon": -77.01300566666667}, {"is_reserved": 0, "fusion_lon": 0.0, "fusion_lat": 0.0, "name": "45b86bda7c1e8462b0f4a8cc03cebe9d", "type": "electric_scooter", "is_disabled": 0, "lat": 38.916691, "rental_uris": {"android": "https://dc.lft.to/lastmile_qr_scan", "ios": "https://dc.lft.to/lastmile_qr_scan"}, "bike_id": "45b86bda7c1e8462b0f4a8cc03cebe9d", "lon": -77.01917583333334}, {"is_reserved": 0, "fusion_lon": 0.0, "fusion_lat": 0.0, "name": "0b000dbd03f5fcf193c6f8ebaf1f2ec9", "type": "electric_scooter", "is_disabled": 0, "lat": 38.909714666666666, "rental_uris": {"android": "https://dc.lft.to/lastmile_qr_scan", "ios": "https://dc.lft.to/lastmile_qr_scan"}, "bike_id": "0b000dbd03f5fcf193c6f8ebaf1f2ec9", "lon": -77.038435}, {"is_reserved": 0, "fusion_lon": 0.0, "fusion_lat": 0.0, "name": "26a38e70adada37b7ec88e0d64ef2790", "type": "electric_scooter", "is_disabled": 0, "lat": 38.90381, "rental_uris": {"android": "https://dc.lft.to/lastmile_qr_scan", "ios": "https://dc.lft.to/lastmile_qr_scan"}, "bike_id": "26a38e70adada37b7ec88e0d64ef2790", "lon": -77.04030166666666}, {"is_reserved": 0, "fusion_lon": 0.0, "fusion_lat": 0.0, "name": "ca863dbc72b854a374c90b526cea1d35", "type": "electric_scooter", "is_disabled": 0, "lat": 38.866567333333336, "rental_uris": {"android": "https://dc.lft.to/lastmile_qr_scan", "ios": "https://dc.lft.to/lastmile_qr_scan"}, "bike_id": "ca863dbc72b854a374c90b526cea1d35", "lon": -76.98505983333334}, {"is_reserved": 0, "fusion_lon": 0.0, "fusion_lat": 0.0, "name": "7fdcdae2f0a6b34ce43042ccb06eed93", "type": "electric_scooter", "is_disabled": 0, "lat": 38.92102916666666, "rental_uris": {"android": "https://dc.lft.to/lastmile_qr_scan", "ios": "https://dc.lft.to/lastmile_qr_scan"}, "bike_id": "7fdcdae2f0a6b34ce43042ccb06eed93", "lon": -77.03328866666666}, {"is_reserved": 0, "fusion_lon": 0.0, "fusion_lat": 0.0, "name": "1002e4bb7b44ebe38f18d424a95ae29d", "type": "electric_scooter", "is_disabled": 0, "lat": 38.91474783333334, "rental_uris": {"android": "https://dc.lft.to/lastmile_qr_scan", "ios": "https://dc.lft.to/lastmile_qr_scan"}, "bike_id": "1002e4bb7b44ebe38f18d424a95ae29d", "lon": -77.03837383333334}, {"is_reserved": 0, "fusion_lon": 0.0, "fusion_lat": 0.0, "name": "642fff46d51f6e1fd25d941bf5d4f623", "type": "electric_scooter", "is_disabled": 0, "lat": 38.908341, "rental_uris": {"android": "https://dc.lft.to/lastmile_qr_scan", "ios": "https://dc.lft.to/lastmile_qr_scan"}, "bike_id": "642fff46d51f6e1fd25d941bf5d4f623", "lon": -77.07411383333333}, {"is_reserved": 0, "fusion_lon": 0.0, "fusion_lat": 0.0, "name": "0936a38c51975f07a6091758335fec60", "type": "electric_scooter", "is_disabled": 0, "lat": 38.908314833333336, "rental_uris": {"android": "https://dc.lft.to/lastmile_qr_scan", "ios": "https://dc.lft.to/lastmile_qr_scan"}, "bike_id": "0936a38c51975f07a6091758335fec60", "lon": -77.03314116666667}, {"is_reserved": 0, "fusion_lon": 0.0, "fusion_lat": 0.0, "name": "0070e438ec3d45939c7a09de0b58dc70", "type": "electric_scooter", "is_disabled": 0, "lat": 38.950715333333335, "rental_uris": {"android": "https://dc.lft.to/lastmile_qr_scan", "ios": "https://dc.lft.to/lastmile_qr_scan"}, "bike_id": "0070e438ec3d45939c7a09de0b58dc70", "lon": -76.99564766666667}, {"is_reserved": 0, "fusion_lon": 0.0, "fusion_lat": 0.0, "name": "6c179c8a81bf951262b1f903c9be3a50", "type": "electric_scooter", "is_disabled": 0, "lat": 38.915446333333335, "rental_uris": {"android": "https://dc.lft.to/lastmile_qr_scan", "ios": "https://dc.lft.to/lastmile_qr_scan"}, "bike_id": "6c179c8a81bf951262b1f903c9be3a50", "lon": -77.038552}, {"is_reserved": 0, "fusion_lon": 0.0, "fusion_lat": 0.0, "name": "27a9b5bdd27142692cd988a146fc5f24", "type": "electric_scooter", "is_disabled": 0, "lat": 38.89546583333333, "rental_uris": {"android": "https://dc.lft.to/lastmile_qr_scan", "ios": "https://dc.lft.to/lastmile_qr_scan"}, "bike_id": "27a9b5bdd27142692cd988a146fc5f24", "lon": -77.05660433333334}, {"is_reserved": 0, "fusion_lon": 0.0, "fusion_lat": 0.0, "name": "200383875f5b11b303340dc4912e36ba", "type": "electric_bike", "is_disabled": 0, "lat": 38.956856, "rental_uris": {"android": "https://dc.lft.to/lastmile_qr_scan", "ios": "https://dc.lft.to/lastmile_qr_scan"}, "bike_id": "200383875f5b11b303340dc4912e36ba", "lon": -77.02228083333334}, {"is_reserved": 0, "fusion_lon": 0.0, "fusion_lat": 0.0, "name": "16ad455e21de61eafb2a468bfba6badc", "type": "electric_scooter", "is_disabled": 0, "lat": 38.903703666666665, "rental_uris": {"android": "https://dc.lft.to/lastmile_qr_scan", "ios": "https://dc.lft.to/lastmile_qr_scan"}, "bike_id": "16ad455e21de61eafb2a468bfba6badc", "lon": -77.03934166666667}, {"is_reserved": 0, "fusion_lon": 0.0, "fusion_lat": 0.0, "name": "e1fc3211d9123ac684f580421535c864", "type": "electric_scooter", "is_disabled": 0, "lat": 38.921648166666664, "rental_uris": {"android": "https://dc.lft.to/lastmile_qr_scan", "ios": "https://dc.lft.to/lastmile_qr_scan"}, "bike_id": "e1fc3211d9123ac684f580421535c864", "lon": -77.04018716666667}, {"is_reserved": 0, "fusion_lon": 0.0, "fusion_lat": 0.0, "name": "95b8deaab7263ee1ed8f2f69c7344141", "type": "electric_scooter", "is_disabled": 0, "lat": 38.900655, "rental_uris": {"android": "https://dc.lft.to/lastmile_qr_scan", "ios": "https://dc.lft.to/lastmile_qr_scan"}, "bike_id": "95b8deaab7263ee1ed8f2f69c7344141", "lon": -76.94693116666667}, {"is_reserved": 0, "fusion_lon": 0.0, "fusion_lat": 0.0, "name": "7c29a6c92056e9f9cfe87592869f3111", "type": "electric_scooter", "is_disabled": 0, "lat": 38.8921955, "rental_uris": {"android": "https://dc.lft.to/lastmile_qr_scan", "ios": "https://dc.lft.to/lastmile_qr_scan"}, "bike_id": "7c29a6c92056e9f9cfe87592869f3111", "lon": -77.026312}, {"is_reserved": 0, "fusion_lon": 0.0, "fusion_lat": 0.0, "name": "d4c6d947b987584e9faaa62acc3199ec", "type": "electric_bike", "is_disabled": 0, "lat": 38.96276533333333, "rental_uris": {"android": "https://dc.lft.to/lastmile_qr_scan", "ios": "https://dc.lft.to/lastmile_qr_scan"}, "bike_id": "d4c6d947b987584e9faaa62acc3199ec", "lon": -77.01453366666667}, {"is_reserved": 0, "fusion_lon": 0.0, "fusion_lat": 0.0, "name": "0e889bf3747f870bed36e3506e37c603", "type": "electric_bike", "is_disabled": 0, "lat": 38.93090466666666, "rental_uris": {"android": "https://dc.lft.to/lastmile_qr_scan", "ios": "https://dc.lft.to/lastmile_qr_scan"}, "bike_id": "0e889bf3747f870bed36e3506e37c603", "lon": -77.025995}, {"is_reserved": 0, "fusion_lon": 0.0, "fusion_lat": 0.0, "name": "da079cf1e67d36e431ecfbbfbd30f6e4", "type": "electric_scooter", "is_disabled": 0, "lat": 38.93445633333333, "rental_uris": {"android": "https://dc.lft.to/lastmile_qr_scan", "ios": "https://dc.lft.to/lastmile_qr_scan"}, "bike_id": "da079cf1e67d36e431ecfbbfbd30f6e4", "lon": -76.9988265}, {"is_reserved": 0, "fusion_lon": 0.0, "fusion_lat": 0.0, "name": "0004435069931e901c3734fcd1eba8c7", "type": "electric_scooter", "is_disabled": 0, "lat": 38.92679783333333, "rental_uris": {"android": "https://dc.lft.to/lastmile_qr_scan", "ios": "https://dc.lft.to/lastmile_qr_scan"}, "bike_id": "0004435069931e901c3734fcd1eba8c7", "lon": -77.02777783333333}, {"is_reserved": 0, "fusion_lon": 0.0, "fusion_lat": 0.0, "name": "0a1c2963c327634836d6ee5bf9f5f96b", "type": "electric_scooter", "is_disabled": 0, "lat": 38.91718383333333, "rental_uris": {"android": "https://dc.lft.to/lastmile_qr_scan", "ios": "https://dc.lft.to/lastmile_qr_scan"}, "bike_id": "0a1c2963c327634836d6ee5bf9f5f96b", "lon": -77.03663483333334}, {"is_reserved": 0, "fusion_lon": 0.0, "fusion_lat": 0.0, "name": "51e75837e77b522f12941f9b80708082", "type": "electric_scooter", "is_disabled": 0, "lat": 38.900761333333335, "rental_uris": {"android": "https://dc.lft.to/lastmile_qr_scan", "ios": "https://dc.lft.to/lastmile_qr_scan"}, "bike_id": "51e75837e77b522f12941f9b80708082", "lon": -77.04888183333334}, {"is_reserved": 0, "fusion_lon": 0.0, "fusion_lat": 0.0, "name": "8e315d18d25f130c614dc03303ebefb5", "type": "electric_scooter", "is_disabled": 0, "lat": 38.912816166666666, "rental_uris": {"android": "https://dc.lft.to/lastmile_qr_scan", "ios": "https://dc.lft.to/lastmile_qr_scan"}, "bike_id": "8e315d18d25f130c614dc03303ebefb5", "lon": -77.045076}, {"is_reserved": 0, "fusion_lon": 0.0, "fusion_lat": 0.0, "name": "2bcedd5de49f6b453479fef765310840", "type": "electric_scooter", "is_disabled": 0, "lat": 38.924507166666665, "rental_uris": {"android": "https://dc.lft.to/lastmile_qr_scan", "ios": "https://dc.lft.to/lastmile_qr_scan"}, "bike_id": "2bcedd5de49f6b453479fef765310840", "lon": -77.03291183333333}, {"is_reserved": 0, "fusion_lon": 0.0, "fusion_lat": 0.0, "name": "f7a29ff00f9b7c6db72c1d8ce5d4ef77", "type": "electric_scooter", "is_disabled": 0, "lat": 38.88998266666667, "rental_uris": {"android": "https://dc.lft.to/lastmile_qr_scan", "ios": "https://dc.lft.to/lastmile_qr_scan"}, "bike_id": "f7a29ff00f9b7c6db72c1d8ce5d4ef77", "lon": -77.04895283333333}, {"is_reserved": 0, "fusion_lon": 0.0, "fusion_lat": 0.0, "name": "c6b0eb89e9f11eb8ab88423ae07e0e72", "type": "electric_scooter", "is_disabled": 0, "lat": 38.89179683333333, "rental_uris": {"android": "https://dc.lft.to/lastmile_qr_scan", "ios": "https://dc.lft.to/lastmile_qr_scan"}, "bike_id": "c6b0eb89e9f11eb8ab88423ae07e0e72", "lon": -76.91195166666667}, {"is_reserved": 0, "fusion_lon": 0.0, "fusion_lat": 0.0, "name": "b09f8d277e8093df3d646606e368e929", "type": "electric_scooter", "is_disabled": 0, "lat": 38.91127616666667, "rental_uris": {"android": "https://dc.lft.to/lastmile_qr_scan", "ios": "https://dc.lft.to/lastmile_qr_scan"}, "bike_id": "b09f8d277e8093df3d646606e368e929", "lon": -77.04352683333333}, {"is_reserved": 0, "fusion_lon": 0.0, "fusion_lat": 0.0, "name": "61246f5418c0a2b569c72b6565004c19", "type": "electric_scooter", "is_disabled": 0, "lat": 38.909503, "rental_uris": {"android": "https://dc.lft.to/lastmile_qr_scan", "ios": "https://dc.lft.to/lastmile_qr_scan"}, "bike_id": "61246f5418c0a2b569c72b6565004c19", "lon": -77.03428783333334}, {"is_reserved": 0, "fusion_lon": 0.0, "fusion_lat": 0.0, "name": "957cc392366f7d8e0422fc9003abed80", "type": "electric_scooter", "is_disabled": 0, "lat": 38.92150983333333, "rental_uris": {"android": "https://dc.lft.to/lastmile_qr_scan", "ios": "https://dc.lft.to/lastmile_qr_scan"}, "bike_id": "957cc392366f7d8e0422fc9003abed80", "lon": -77.02096466666667}, {"is_reserved": 0, "fusion_lon": 0.0, "fusion_lat": 0.0, "name": "6c2e2cfeb63deb882256fe25832c0eaf", "type": "electric_scooter", "is_disabled": 0, "lat": 38.914730666666664, "rental_uris": {"android": "https://dc.lft.to/lastmile_qr_scan", "ios": "https://dc.lft.to/lastmile_qr_scan"}, "bike_id": "6c2e2cfeb63deb882256fe25832c0eaf", "lon": -77.020849}, {"is_reserved": 0, "fusion_lon": 0.0, "fusion_lat": 0.0, "name": "6375b539d8357971431b0b52aab0e8a4", "type": "electric_scooter", "is_disabled": 0, "lat": 38.891423833333334, "rental_uris": {"android": "https://dc.lft.to/lastmile_qr_scan", "ios": "https://dc.lft.to/lastmile_qr_scan"}, "bike_id": "6375b539d8357971431b0b52aab0e8a4", "lon": -76.98384116666666}, {"is_reserved": 0, "fusion_lon": 0.0, "fusion_lat": 0.0, "name": "ea893f378c5b3f59981feedfcf75c685", "type": "electric_scooter", "is_disabled": 0, "lat": 38.87167316666667, "rental_uris": {"android": "https://dc.lft.to/lastmile_qr_scan", "ios": "https://dc.lft.to/lastmile_qr_scan"}, "bike_id": "ea893f378c5b3f59981feedfcf75c685", "lon": -76.97741183333333}, {"is_reserved": 0, "fusion_lon": 0.0, "fusion_lat": 0.0, "name": "e9ed77da950039243d2a5d3e2b6fca12", "type": "electric_scooter", "is_disabled": 0, "lat": 38.91805316666667, "rental_uris": {"android": "https://dc.lft.to/lastmile_qr_scan", "ios": "https://dc.lft.to/lastmile_qr_scan"}, "bike_id": "e9ed77da950039243d2a5d3e2b6fca12", "lon": -77.02496}, {"is_reserved": 0, "fusion_lon": 0.0, "fusion_lat": 0.0, "name": "90c4cfb41a5b7cdb5170eb4c9250153d", "type": "electric_scooter", "is_disabled": 0, "lat": 38.920213833333335, "rental_uris": {"android": "https://dc.lft.to/lastmile_qr_scan", "ios": "https://dc.lft.to/lastmile_qr_scan"}, "bike_id": "90c4cfb41a5b7cdb5170eb4c9250153d", "lon": -77.03466116666667}, {"is_reserved": 0, "fusion_lon": 0.0, "fusion_lat": 0.0, "name": "5ace0180a9917d5a78abe62ec870fa27", "type": "electric_scooter", "is_disabled": 0, "lat": 38.9038075, "rental_uris": {"android": "https://dc.lft.to/lastmile_qr_scan", "ios": "https://dc.lft.to/lastmile_qr_scan"}, "bike_id": "5ace0180a9917d5a78abe62ec870fa27", "lon": -77.0433265}, {"is_reserved": 0, "fusion_lon": 0.0, "fusion_lat": 0.0, "name": "135d080a4721aff6f28b2d6c945fc11e", "type": "electric_scooter", "is_disabled": 0, "lat": 38.896330666666664, "rental_uris": {"android": "https://dc.lft.to/lastmile_qr_scan", "ios": "https://dc.lft.to/lastmile_qr_scan"}, "bike_id": "135d080a4721aff6f28b2d6c945fc11e", "lon": -77.0241025}, {"is_reserved": 0, "fusion_lon": 0.0, "fusion_lat": 0.0, "name": "25cae83ca78251936d7c924e50514b79", "type": "electric_scooter", "is_disabled": 0, "lat": 38.931144, "rental_uris": {"android": "https://dc.lft.to/lastmile_qr_scan", "ios": "https://dc.lft.to/lastmile_qr_scan"}, "bike_id": "25cae83ca78251936d7c924e50514b79", "lon": -77.02359116666666}, {"is_reserved": 0, "fusion_lon": 0.0, "fusion_lat": 0.0, "name": "f355e29f2dcaf82c5cd249f133d32ef5", "type": "electric_scooter", "is_disabled": 0, "lat": 38.922252, "rental_uris": {"android": "https://dc.lft.to/lastmile_qr_scan", "ios": "https://dc.lft.to/lastmile_qr_scan"}, "bike_id": "f355e29f2dcaf82c5cd249f133d32ef5", "lon": -77.04494866666667}, {"is_reserved": 0, "fusion_lon": 0.0, "fusion_lat": 0.0, "name": "b828e04debac3b022bc00a8dfbe5f7a3", "type": "electric_scooter", "is_disabled": 0, "lat": 38.892251, "rental_uris": {"android": "https://dc.lft.to/lastmile_qr_scan", "ios": "https://dc.lft.to/lastmile_qr_scan"}, "bike_id": "b828e04debac3b022bc00a8dfbe5f7a3", "lon": -77.04864516666666}, {"is_reserved": 0, "fusion_lon": 0.0, "fusion_lat": 0.0, "name": "7cec68068786d73bb507181b9d3813f0", "type": "electric_scooter", "is_disabled": 0, "lat": 38.92032783333333, "rental_uris": {"android": "https://dc.lft.to/lastmile_qr_scan", "ios": "https://dc.lft.to/lastmile_qr_scan"}, "bike_id": "7cec68068786d73bb507181b9d3813f0", "lon": -76.98489166666667}, {"is_reserved": 0, "fusion_lon": 0.0, "fusion_lat": 0.0, "name": "c55d4d6d8959210f2bff147872eb8171", "type": "electric_scooter", "is_disabled": 0, "lat": 38.883029666666665, "rental_uris": {"android": "https://dc.lft.to/lastmile_qr_scan", "ios": "https://dc.lft.to/lastmile_qr_scan"}, "bike_id": "c55d4d6d8959210f2bff147872eb8171", "lon": -77.03141716666667}, {"is_reserved": 0, "fusion_lon": 0.0, "fusion_lat": 0.0, "name": "45d989c1f9b0750551993a39d44775fc", "type": "electric_scooter", "is_disabled": 0, "lat": 38.938208333333336, "rental_uris": {"android": "https://dc.lft.to/lastmile_qr_scan", "ios": "https://dc.lft.to/lastmile_qr_scan"}, "bike_id": "45d989c1f9b0750551993a39d44775fc", "lon": -77.03387583333334}, {"is_reserved": 0, "fusion_lon": 0.0, "fusion_lat": 0.0, "name": "71f793284fe08031ddb4ca4b24af4a8a", "type": "electric_scooter", "is_disabled": 0, "lat": 38.91115766666667, "rental_uris": {"android": "https://dc.lft.to/lastmile_qr_scan", "ios": "https://dc.lft.to/lastmile_qr_scan"}, "bike_id": "71f793284fe08031ddb4ca4b24af4a8a", "lon": -77.022846}, {"is_reserved": 0, "fusion_lon": 0.0, "fusion_lat": 0.0, "name": "6cd1f15b03b6c40277eb793abaac1db6", "type": "electric_scooter", "is_disabled": 0, "lat": 38.89368533333333, "rental_uris": {"android": "https://dc.lft.to/lastmile_qr_scan", "ios": "https://dc.lft.to/lastmile_qr_scan"}, "bike_id": "6cd1f15b03b6c40277eb793abaac1db6", "lon": -77.04786733333333}, {"is_reserved": 0, "fusion_lon": 0.0, "fusion_lat": 0.0, "name": "51010bd92f8451bf8b149fa8ab26cafe", "type": "electric_scooter", "is_disabled": 0, "lat": 38.92602316666667, "rental_uris": {"android": "https://dc.lft.to/lastmile_qr_scan", "ios": "https://dc.lft.to/lastmile_qr_scan"}, "bike_id": "51010bd92f8451bf8b149fa8ab26cafe", "lon": -77.02156516666666}, {"is_reserved": 0, "fusion_lon": 0.0, "fusion_lat": 0.0, "name": "126388062be0160afc0d03e5607405ad", "type": "electric_scooter", "is_disabled": 0, "lat": 38.8921635, "rental_uris": {"android": "https://dc.lft.to/lastmile_qr_scan", "ios": "https://dc.lft.to/lastmile_qr_scan"}, "bike_id": "126388062be0160afc0d03e5607405ad", "lon": -77.02347566666667}, {"is_reserved": 0, "fusion_lon": 0.0, "fusion_lat": 0.0, "name": "6dfac25fc9ece9d6aaa8dc21777de2e5", "type": "electric_scooter", "is_disabled": 0, "lat": 38.903713, "rental_uris": {"android": "https://dc.lft.to/lastmile_qr_scan", "ios": "https://dc.lft.to/lastmile_qr_scan"}, "bike_id": "6dfac25fc9ece9d6aaa8dc21777de2e5", "lon": -77.04023}, {"is_reserved": 0, "fusion_lon": 0.0, "fusion_lat": 0.0, "name": "f3421c69a4df557e773f25df40fd1204", "type": "electric_scooter", "is_disabled": 0, "lat": 38.89297083333334, "rental_uris": {"android": "https://dc.lft.to/lastmile_qr_scan", "ios": "https://dc.lft.to/lastmile_qr_scan"}, "bike_id": "f3421c69a4df557e773f25df40fd1204", "lon": -76.99825266666667}, {"is_reserved": 0, "fusion_lon": 0.0, "fusion_lat": 0.0, "name": "18287ad876a6cebba53008dcf9629fe6", "type": "electric_scooter", "is_disabled": 0, "lat": 38.89787416666667, "rental_uris": {"android": "https://dc.lft.to/lastmile_qr_scan", "ios": "https://dc.lft.to/lastmile_qr_scan"}, "bike_id": "18287ad876a6cebba53008dcf9629fe6", "lon": -77.02465716666667}, {"is_reserved": 0, "fusion_lon": 0.0, "fusion_lat": 0.0, "name": "d484c249a5144ae50851c64234e87feb", "type": "electric_scooter", "is_disabled": 0, "lat": 38.90779166666667, "rental_uris": {"android": "https://dc.lft.to/lastmile_qr_scan", "ios": "https://dc.lft.to/lastmile_qr_scan"}, "bike_id": "d484c249a5144ae50851c64234e87feb", "lon": -77.03826283333333}, {"is_reserved": 0, "fusion_lon": 0.0, "fusion_lat": 0.0, "name": "721300093f19a0bb9dff67e6fd82208e", "type": "electric_bike", "is_disabled": 0, "lat": 38.9619005, "rental_uris": {"android": "https://dc.lft.to/lastmile_qr_scan", "ios": "https://dc.lft.to/lastmile_qr_scan"}, "bike_id": "721300093f19a0bb9dff67e6fd82208e", "lon": -77.0737925}, {"is_reserved": 0, "fusion_lon": 0.0, "fusion_lat": 0.0, "name": "02421dc4e353a59a6b005caa58b851b9", "type": "electric_scooter", "is_disabled": 0, "lat": 38.8961375, "rental_uris": {"android": "https://dc.lft.to/lastmile_qr_scan", "ios": "https://dc.lft.to/lastmile_qr_scan"}, "bike_id": "02421dc4e353a59a6b005caa58b851b9", "lon": -76.981657}, {"is_reserved": 0, "fusion_lon": 0.0, "fusion_lat": 0.0, "name": "6e9dc31a1829b44e014b206452a450e2", "type": "electric_scooter", "is_disabled": 0, "lat": 38.9180785, "rental_uris": {"android": "https://dc.lft.to/lastmile_qr_scan", "ios": "https://dc.lft.to/lastmile_qr_scan"}, "bike_id": "6e9dc31a1829b44e014b206452a450e2", "lon": -77.03271883333333}, {"is_reserved": 0, "fusion_lon": 0.0, "fusion_lat": 0.0, "name": "0266221b852c3f3119584c2527e423f6", "type": "electric_scooter", "is_disabled": 0, "lat": 38.8839135, "rental_uris": {"android": "https://dc.lft.to/lastmile_qr_scan", "ios": "https://dc.lft.to/lastmile_qr_scan"}, "bike_id": "0266221b852c3f3119584c2527e423f6", "lon": -76.95446216666667}, {"is_reserved": 0, "fusion_lon": 0.0, "fusion_lat": 0.0, "name": "8363df9c97a663f9c5e7d3e33d2c17e9", "type": "electric_scooter", "is_disabled": 0, "lat": 38.927746666666664, "rental_uris": {"android": "https://dc.lft.to/lastmile_qr_scan", "ios": "https://dc.lft.to/lastmile_qr_scan"}, "bike_id": "8363df9c97a663f9c5e7d3e33d2c17e9", "lon": -77.05263583333333}, {"is_reserved": 0, "fusion_lon": 0.0, "fusion_lat": 0.0, "name": "078ed271e02d96e01395f4c2b7a0f73b", "type": "electric_scooter", "is_disabled": 0, "lat": 38.951884166666666, "rental_uris": {"android": "https://dc.lft.to/lastmile_qr_scan", "ios": "https://dc.lft.to/lastmile_qr_scan"}, "bike_id": "078ed271e02d96e01395f4c2b7a0f73b", "lon": -77.02614616666666}, {"is_reserved": 0, "fusion_lon": 0.0, "fusion_lat": 0.0, "name": "b1e7ff0306894ee1b19a0844b3f75511", "type": "electric_scooter", "is_disabled": 0, "lat": 38.89364233333333, "rental_uris": {"android": "https://dc.lft.to/lastmile_qr_scan", "ios": "https://dc.lft.to/lastmile_qr_scan"}, "bike_id": "b1e7ff0306894ee1b19a0844b3f75511", "lon": -77.05489383333334}, {"is_reserved": 0, "fusion_lon": 0.0, "fusion_lat": 0.0, "name": "5dea6d7ed9afc308ffc85746174da496", "type": "electric_scooter", "is_disabled": 0, "lat": 38.922955333333334, "rental_uris": {"android": "https://dc.lft.to/lastmile_qr_scan", "ios": "https://dc.lft.to/lastmile_qr_scan"}, "bike_id": "5dea6d7ed9afc308ffc85746174da496", "lon": -77.04265233333334}, {"is_reserved": 0, "fusion_lon": 0.0, "fusion_lat": 0.0, "name": "85af08e1cbc94fcc67e71a07c803c54b", "type": "electric_scooter", "is_disabled": 0, "lat": 38.908031, "rental_uris": {"android": "https://dc.lft.to/lastmile_qr_scan", "ios": "https://dc.lft.to/lastmile_qr_scan"}, "bike_id": "85af08e1cbc94fcc67e71a07c803c54b", "lon": -77.03183933333334}, {"is_reserved": 0, "fusion_lon": 0.0, "fusion_lat": 0.0, "name": "17af20acc000e5d5ea293509d7f91a07", "type": "electric_scooter", "is_disabled": 0, "lat": 38.88473533333333, "rental_uris": {"android": "https://dc.lft.to/lastmile_qr_scan", "ios": "https://dc.lft.to/lastmile_qr_scan"}, "bike_id": "17af20acc000e5d5ea293509d7f91a07", "lon": -77.02655716666666}, {"is_reserved": 0, "fusion_lon": 0.0, "fusion_lat": 0.0, "name": "1af2a79e6301efe6e0d408c739d84bb6", "type": "electric_scooter", "is_disabled": 0, "lat": 38.944543833333334, "rental_uris": {"android": "https://dc.lft.to/lastmile_qr_scan", "ios": "https://dc.lft.to/lastmile_qr_scan"}, "bike_id": "1af2a79e6301efe6e0d408c739d84bb6", "lon": -77.06027683333333}, {"is_reserved": 0, "fusion_lon": 0.0, "fusion_lat": 0.0, "name": "9fc1763476aec5984acf2cea1d95a8b5", "type": "electric_scooter", "is_disabled": 0, "lat": 38.8882815, "rental_uris": {"android": "https://dc.lft.to/lastmile_qr_scan", "ios": "https://dc.lft.to/lastmile_qr_scan"}, "bike_id": "9fc1763476aec5984acf2cea1d95a8b5", "lon": -76.99364016666667}, {"is_reserved": 0, "fusion_lon": 0.0, "fusion_lat": 0.0, "name": "0ebb304961cbebd9243cc563f691024f", "type": "electric_scooter", "is_disabled": 0, "lat": 38.863759, "rental_uris": {"android": "https://dc.lft.to/lastmile_qr_scan", "ios": "https://dc.lft.to/lastmile_qr_scan"}, "bike_id": "0ebb304961cbebd9243cc563f691024f", "lon": -76.98919083333334}, {"is_reserved": 0, "fusion_lon": 0.0, "fusion_lat": 0.0, "name": "69c3b45aa705773d33fd35d3b0e63577", "type": "electric_scooter", "is_disabled": 0, "lat": 38.918718166666665, "rental_uris": {"android": "https://dc.lft.to/lastmile_qr_scan", "ios": "https://dc.lft.to/lastmile_qr_scan"}, "bike_id": "69c3b45aa705773d33fd35d3b0e63577", "lon": -77.04443233333333}, {"is_reserved": 0, "fusion_lon": 0.0, "fusion_lat": 0.0, "name": "5864f62021c32930d4cb026082f50934", "type": "electric_bike", "is_disabled": 0, "lat": 38.96237283333333, "rental_uris": {"android": "https://dc.lft.to/lastmile_qr_scan", "ios": "https://dc.lft.to/lastmile_qr_scan"}, "bike_id": "5864f62021c32930d4cb026082f50934", "lon": -77.0263155}, {"is_reserved": 0, "fusion_lon": 0.0, "fusion_lat": 0.0, "name": "9c201b7f856643b91380becc19c66776", "type": "electric_scooter", "is_disabled": 0, "lat": 38.927473166666665, "rental_uris": {"android": "https://dc.lft.to/lastmile_qr_scan", "ios": "https://dc.lft.to/lastmile_qr_scan"}, "bike_id": "9c201b7f856643b91380becc19c66776", "lon": -77.02538566666666}, {"is_reserved": 0, "fusion_lon": 0.0, "fusion_lat": 0.0, "name": "67f0958d74b9464a5a71f633c045b4ad", "type": "electric_scooter", "is_disabled": 0, "lat": 38.909623333333336, "rental_uris": {"android": "https://dc.lft.to/lastmile_qr_scan", "ios": "https://dc.lft.to/lastmile_qr_scan"}, "bike_id": "67f0958d74b9464a5a71f633c045b4ad", "lon": -77.032168}, {"is_reserved": 0, "fusion_lon": 0.0, "fusion_lat": 0.0, "name": "07e1cfcebf87ccf4530fa41f11cdce42", "type": "electric_bike", "is_disabled": 0, "lat": 38.8456655, "rental_uris": {"android": "https://dc.lft.to/lastmile_qr_scan", "ios": "https://dc.lft.to/lastmile_qr_scan"}, "bike_id": "07e1cfcebf87ccf4530fa41f11cdce42", "lon": -77.06696166666667}, {"is_reserved": 0, "fusion_lon": 0.0, "fusion_lat": 0.0, "name": "9bd94b100822cebc1a61d60ad2055c11", "type": "electric_scooter", "is_disabled": 0, "lat": 38.9301765, "rental_uris": {"android": "https://dc.lft.to/lastmile_qr_scan", "ios": "https://dc.lft.to/lastmile_qr_scan"}, "bike_id": "9bd94b100822cebc1a61d60ad2055c11", "lon": -77.055299}, {"is_reserved": 0, "fusion_lon": 0.0, "fusion_lat": 0.0, "name": "135ab6bd8f88250250f0126f9193c1c3", "type": "electric_scooter", "is_disabled": 0, "lat": 38.8665735, "rental_uris": {"android": "https://dc.lft.to/lastmile_qr_scan", "ios": "https://dc.lft.to/lastmile_qr_scan"}, "bike_id": "135ab6bd8f88250250f0126f9193c1c3", "lon": -76.98880833333334}, {"is_reserved": 0, "fusion_lon": 0.0, "fusion_lat": 0.0, "name": "f703330a698d30b4af51f746c6b5b8ce", "type": "electric_scooter", "is_disabled": 0, "lat": 38.90275416666667, "rental_uris": {"android": "https://dc.lft.to/lastmile_qr_scan", "ios": "https://dc.lft.to/lastmile_qr_scan"}, "bike_id": "f703330a698d30b4af51f746c6b5b8ce", "lon": -77.03351166666667}, {"is_reserved": 0, "fusion_lon": 0.0, "fusion_lat": 0.0, "name": "c99c1f4010c379ce51bf104adcb5bdfe", "type": "electric_scooter", "is_disabled": 0, "lat": 38.941835166666664, "rental_uris": {"android": "https://dc.lft.to/lastmile_qr_scan", "ios": "https://dc.lft.to/lastmile_qr_scan"}, "bike_id": "c99c1f4010c379ce51bf104adcb5bdfe", "lon": -77.02490883333333}, {"is_reserved": 0, "fusion_lon": 0.0, "fusion_lat": 0.0, "name": "723a364ba53470f41cb2847651e9c1e1", "type": "electric_scooter", "is_disabled": 0, "lat": 38.904672, "rental_uris": {"android": "https://dc.lft.to/lastmile_qr_scan", "ios": "https://dc.lft.to/lastmile_qr_scan"}, "bike_id": "723a364ba53470f41cb2847651e9c1e1", "lon": -77.04811516666666}, {"is_reserved": 0, "fusion_lon": 0.0, "fusion_lat": 0.0, "name": "db751ea726d8084d9f34747365d1cf77", "type": "electric_bike", "is_disabled": 0, "lat": 38.993427, "rental_uris": {"android": "https://dc.lft.to/lastmile_qr_scan", "ios": "https://dc.lft.to/lastmile_qr_scan"}, "bike_id": "db751ea726d8084d9f34747365d1cf77", "lon": -77.1157355}, {"is_reserved": 0, "fusion_lon": 0.0, "fusion_lat": 0.0, "name": "1e37db6ee11645e6b99c69a364e5dd4d", "type": "electric_scooter", "is_disabled": 0, "lat": 38.9384365, "rental_uris": {"android": "https://dc.lft.to/lastmile_qr_scan", "ios": "https://dc.lft.to/lastmile_qr_scan"}, "bike_id": "1e37db6ee11645e6b99c69a364e5dd4d", "lon": -77.03374566666666}, {"is_reserved": 0, "fusion_lon": 0.0, "fusion_lat": 0.0, "name": "caf7cc519075f38cf4688c8eabb92832", "type": "electric_scooter", "is_disabled": 0, "lat": 38.917842, "rental_uris": {"android": "https://dc.lft.to/lastmile_qr_scan", "ios": "https://dc.lft.to/lastmile_qr_scan"}, "bike_id": "caf7cc519075f38cf4688c8eabb92832", "lon": -77.0231775}, {"is_reserved": 0, "fusion_lon": 0.0, "fusion_lat": 0.0, "name": "eda0fc7e2096cd2db9456fbf53b30a52", "type": "electric_scooter", "is_disabled": 0, "lat": 38.882797, "rental_uris": {"android": "https://dc.lft.to/lastmile_qr_scan", "ios": "https://dc.lft.to/lastmile_qr_scan"}, "bike_id": "eda0fc7e2096cd2db9456fbf53b30a52", "lon": -76.987807}, {"is_reserved": 0, "fusion_lon": 0.0, "fusion_lat": 0.0, "name": "d5d0fd9c1fba79967e0f6835e2f082c4", "type": "electric_bike", "is_disabled": 0, "lat": 38.94556133333333, "rental_uris": {"android": "https://dc.lft.to/lastmile_qr_scan", "ios": "https://dc.lft.to/lastmile_qr_scan"}, "bike_id": "d5d0fd9c1fba79967e0f6835e2f082c4", "lon": -76.89534166666667}, {"is_reserved": 0, "fusion_lon": 0.0, "fusion_lat": 0.0, "name": "4d63d40d2cb71e966129fb3a715f30fa", "type": "electric_bike", "is_disabled": 0, "lat": 38.9056085, "rental_uris": {"android": "https://dc.lft.to/lastmile_qr_scan", "ios": "https://dc.lft.to/lastmile_qr_scan"}, "bike_id": "4d63d40d2cb71e966129fb3a715f30fa", "lon": -77.0627485}, {"is_reserved": 0, "fusion_lon": 0.0, "fusion_lat": 0.0, "name": "5eb50baf3db7b4b3c21e7bb16f25f6fe", "type": "electric_scooter", "is_disabled": 0, "lat": 38.93539, "rental_uris": {"android": "https://dc.lft.to/lastmile_qr_scan", "ios": "https://dc.lft.to/lastmile_qr_scan"}, "bike_id": "5eb50baf3db7b4b3c21e7bb16f25f6fe", "lon": -77.0235215}, {"is_reserved": 0, "fusion_lon": 0.0, "fusion_lat": 0.0, "name": "f5fda4122153997f057b7ab7e27d2598", "type": "electric_scooter", "is_disabled": 0, "lat": 38.9515235, "rental_uris": {"android": "https://dc.lft.to/lastmile_qr_scan", "ios": "https://dc.lft.to/lastmile_qr_scan"}, "bike_id": "f5fda4122153997f057b7ab7e27d2598", "lon": -77.01870283333334}, {"is_reserved": 0, "fusion_lon": 0.0, "fusion_lat": 0.0, "name": "f2b6416205da4610b41a48cba3caac87", "type": "electric_scooter", "is_disabled": 0, "lat": 38.94260333333333, "rental_uris": {"android": "https://dc.lft.to/lastmile_qr_scan", "ios": "https://dc.lft.to/lastmile_qr_scan"}, "bike_id": "f2b6416205da4610b41a48cba3caac87", "lon": -77.02841983333333}, {"is_reserved": 0, "fusion_lon": 0.0, "fusion_lat": 0.0, "name": "6dd7717435eddff4cf7ae3c948af1369", "type": "electric_scooter", "is_disabled": 0, "lat": 38.922413166666665, "rental_uris": {"android": "https://dc.lft.to/lastmile_qr_scan", "ios": "https://dc.lft.to/lastmile_qr_scan"}, "bike_id": "6dd7717435eddff4cf7ae3c948af1369", "lon": -77.03739833333333}, {"is_reserved": 0, "fusion_lon": 0.0, "fusion_lat": 0.0, "name": "c7b86cdb660b00cb9c7628a7cda3477d", "type": "electric_scooter", "is_disabled": 0, "lat": 38.88611216666666, "rental_uris": {"android": "https://dc.lft.to/lastmile_qr_scan", "ios": "https://dc.lft.to/lastmile_qr_scan"}, "bike_id": "c7b86cdb660b00cb9c7628a7cda3477d", "lon": -76.99655516666667}, {"is_reserved": 0, "fusion_lon": 0.0, "fusion_lat": 0.0, "name": "8ca711cb53a40cc5ded9d43b49bbaf2f", "type": "electric_scooter", "is_disabled": 0, "lat": 38.91339966666666, "rental_uris": {"android": "https://dc.lft.to/lastmile_qr_scan", "ios": "https://dc.lft.to/lastmile_qr_scan"}, "bike_id": "8ca711cb53a40cc5ded9d43b49bbaf2f", "lon": -77.01032716666667}, {"is_reserved": 0, "fusion_lon": 0.0, "fusion_lat": 0.0, "name": "7f78ad070a36104857c24873063123bb", "type": "electric_scooter", "is_disabled": 0, "lat": 38.905889333333334, "rental_uris": {"android": "https://dc.lft.to/lastmile_qr_scan", "ios": "https://dc.lft.to/lastmile_qr_scan"}, "bike_id": "7f78ad070a36104857c24873063123bb", "lon": -77.02374166666667}, {"is_reserved": 0, "fusion_lon": 0.0, "fusion_lat": 0.0, "name": "0f54f6acb079115e4eb0fa9c54139d72", "type": "electric_scooter", "is_disabled": 0, "lat": 38.90682116666667, "rental_uris": {"android": "https://dc.lft.to/lastmile_qr_scan", "ios": "https://dc.lft.to/lastmile_qr_scan"}, "bike_id": "0f54f6acb079115e4eb0fa9c54139d72", "lon": -76.98668383333333}, {"is_reserved": 0, "fusion_lon": 0.0, "fusion_lat": 0.0, "name": "a2634550cde35a9f98752119274b622b", "type": "electric_scooter", "is_disabled": 0, "lat": 38.91682616666667, "rental_uris": {"android": "https://dc.lft.to/lastmile_qr_scan", "ios": "https://dc.lft.to/lastmile_qr_scan"}, "bike_id": "a2634550cde35a9f98752119274b622b", "lon": -77.0294625}, {"is_reserved": 0, "fusion_lon": 0.0, "fusion_lat": 0.0, "name": "f723007d5ccb0b321102eda018ae79bb", "type": "electric_scooter", "is_disabled": 0, "lat": 38.921372833333336, "rental_uris": {"android": "https://dc.lft.to/lastmile_qr_scan", "ios": "https://dc.lft.to/lastmile_qr_scan"}, "bike_id": "f723007d5ccb0b321102eda018ae79bb", "lon": -77.02062983333333}, {"is_reserved": 0, "fusion_lon": 0.0, "fusion_lat": 0.0, "name": "46614fd2eeb2d7ba83be272464668641", "type": "electric_scooter", "is_disabled": 0, "lat": 38.90589266666667, "rental_uris": {"android": "https://dc.lft.to/lastmile_qr_scan", "ios": "https://dc.lft.to/lastmile_qr_scan"}, "bike_id": "46614fd2eeb2d7ba83be272464668641", "lon": -77.02376233333334}, {"is_reserved": 0, "fusion_lon": 0.0, "fusion_lat": 0.0, "name": "8b661dd1f64334297d549a39a188b580", "type": "electric_scooter", "is_disabled": 0, "lat": 38.91863883333333, "rental_uris": {"android": "https://dc.lft.to/lastmile_qr_scan", "ios": "https://dc.lft.to/lastmile_qr_scan"}, "bike_id": "8b661dd1f64334297d549a39a188b580", "lon": -77.02542883333334}, {"is_reserved": 0, "fusion_lon": 0.0, "fusion_lat": 0.0, "name": "1c3eb1455fcd2ffac8318c6a673edb24", "type": "electric_scooter", "is_disabled": 0, "lat": 38.9349265, "rental_uris": {"android": "https://dc.lft.to/lastmile_qr_scan", "ios": "https://dc.lft.to/lastmile_qr_scan"}, "bike_id": "1c3eb1455fcd2ffac8318c6a673edb24", "lon": -77.03653}, {"is_reserved": 0, "fusion_lon": 0.0, "fusion_lat": 0.0, "name": "68e7c542da46c313d5ee8209e46a28bf", "type": "electric_scooter", "is_disabled": 0, "lat": 38.92319333333333, "rental_uris": {"android": "https://dc.lft.to/lastmile_qr_scan", "ios": "https://dc.lft.to/lastmile_qr_scan"}, "bike_id": "68e7c542da46c313d5ee8209e46a28bf", "lon": -77.043427}, {"is_reserved": 0, "fusion_lon": 0.0, "fusion_lat": 0.0, "name": "dade8cd237f52d5b51170b4ebf666026", "type": "electric_scooter", "is_disabled": 0, "lat": 38.9339975, "rental_uris": {"android": "https://dc.lft.to/lastmile_qr_scan", "ios": "https://dc.lft.to/lastmile_qr_scan"}, "bike_id": "dade8cd237f52d5b51170b4ebf666026", "lon": -77.039896}, {"is_reserved": 0, "fusion_lon": 0.0, "fusion_lat": 0.0, "name": "59323c2deef6d3d1aa1852a7ace31db2", "type": "electric_bike", "is_disabled": 0, "lat": 38.929650333333335, "rental_uris": {"android": "https://dc.lft.to/lastmile_qr_scan", "ios": "https://dc.lft.to/lastmile_qr_scan"}, "bike_id": "59323c2deef6d3d1aa1852a7ace31db2", "lon": -77.18562966666667}, {"is_reserved": 0, "fusion_lon": 0.0, "fusion_lat": 0.0, "name": "941d8735111c93925853e6d09a08473e", "type": "electric_bike", "is_disabled": 0, "lat": 38.954377666666666, "rental_uris": {"android": "https://dc.lft.to/lastmile_qr_scan", "ios": "https://dc.lft.to/lastmile_qr_scan"}, "bike_id": "941d8735111c93925853e6d09a08473e", "lon": -76.98913866666666},