{"data": {"bikes": [{"rental_uris": {"android": "https://dc.lft.to/lastmile_qr_scan", "ios": "https://dc.lft.to/lastmile_qr_scan"}, "fusion_lat": 0.0, "is_reserved": 0, "lat": 38.93596766666667, "name": "802187469230ad307cbfcbdb2229a4de", "bike_id": "802187469230ad307cbfcbdb2229a4de", "is_disabled": 0, "fusion_lon": 0.0, "type": "electric_scooter", "lon": -77.05863816666667}, {"rental_uris": {"android": "https://dc.lft.to/lastmile_qr_scan", "ios": "https://dc.lft.to/lastmile_qr_scan"}, "fusion_lat": 0.0, "is_reserved": 0, "lat": 38.9156255, "name": "094c5cd77d19996aa737912156937739", "bike_id": "094c5cd77d19996aa737912156937739", "is_disabled": 0, "fusion_lon": 0.0, "type": "electric_scooter", "lon": -77.03129416666667}, {"rental_uris": {"android": "https://dc.lft.to/lastmile_qr_scan", "ios": "https://dc.lft.to/lastmile_qr_scan"}, "fusion_lat": 0.0, "is_reserved": 0, "lat": 38.92358816666667, "name": "7673e70745b4cc8be2da87156613addc", "bike_id": "7673e70745b4cc8be2da87156613addc", "is_disabled": 0, "fusion_lon": 0.0, "type": "electric_scooter", "lon": -77.01924083333333}, {"rental_uris": {"android": "https://dc.lft.to/lastmile_qr_scan", "ios": "https://dc.lft.to/lastmile_qr_scan"}, "fusion_lat": 0.0, "is_reserved": 0, "lat": 38.93648066666667, "name": "37b0fce762acd092d976e88f2108a471", "bike_id": "37b0fce762acd092d976e88f2108a471", "is_disabled": 0, "fusion_lon": 0.0, "type": "electric_bike", "lon": -77.03679616666666}, {"rental_uris": {"android": "https://dc.lft.to/lastmile_qr_scan", "ios": "https://dc.lft.to/lastmile_qr_scan"}, "fusion_lat": 0.0, "is_reserved": 0, "lat": 38.892239000000004, "name": "6d55bc3d64e4919dc32dd55d57c27516", "bike_id": "6d55bc3d64e4919dc32dd55d57c27516", "is_disabled": 0, "fusion_lon": 0.0, "type": "electric_scooter", "lon": -77.03977533333334}, {"rental_uris": {"android": "https://dc.lft.to/lastmile_qr_scan", "ios": "https://dc.lft.to/lastmile_qr_scan"}, "fusion_lat": 0.0, "is_reserved": 0, "lat": 38.94168883333333, "name": "a9b19f57cb1f82b0020b7278e42192b8", "bike_id": "a9b19f57cb1f82b0020b7278e42192b8", "is_disabled": 0, "fusion_lon": 0.0, "type": "electric_scooter", "lon": -77.02559183333334}, {"rental_uris": {"android": "https://dc.lft.to/lastmile_qr_scan", "ios": "https://dc.lft.to/lastmile_qr_scan"}, "fusion_lat": 0.0, "is_reserved": 0, "lat": 38.892076333333335, "name": "492834a010433a077c18750c4bb94365", "bike_id": "492834a010433a077c18750c4bb94365", "is_disabled": 0, "fusion_lon": 0.0, "type": "electric_scooter", "lon": -76.929251}, {"rental_uris": {"android": "https://dc.lft.to/lastmile_qr_scan", "ios": "https://dc.lft.to/lastmile_qr_scan"}, "fusion_lat": 0.0, "is_reserved": 0, "lat": 38.901402, "name": "9d480fa007676be9b0b95f5ad4c2ecac", "bike_id": "9d480fa007676be9b0b95f5ad4c2ecac", "is_disabled": 0, "fusion_lon": 0.0, "type": "electric_scooter", "lon": -77.00074566666666}, {"rental_uris": {"android": "https://dc.lft.to/lastmile_qr_scan", "ios": "https://dc.lft.to/lastmile_qr_scan"}, "fusion_lat": 0.0, "is_reserved": 0, "lat": 38.92030183333333, "name": "71894aaa636b1a50acbb307f950f0650", "bike_id": "71894aaa636b1a50acbb307f950f0650", "is_disabled": 0, "fusion_lon": 0.0, "type": "electric_scooter", "lon": -77.03166316666666}, {"rental_uris": {"android": "https://dc.lft.to/lastmile_qr_scan", "ios": "https://dc.lft.to/lastmile_qr_scan"}, "fusion_lat": 0.0, "is_reserved": 0, "lat": 38.957615, "name": "a5f13ea8cb15ae3f0c60d9efa31702ba", "bike_id": "a5f13ea8cb15ae3f0c60d9efa31702ba", "is_disabled": 0, "fusion_lon": 0.0, "type": "electric_bike", "lon": -76.96756133333334}, {"rental_uris": {"android": "https://dc.lft.to/lastmile_qr_scan", "ios": "https://dc.lft.to/lastmile_qr_scan"}, "fusion_lat": 0.0, "is_reserved": 0, "lat": 38.872744, "name": "aff91cb8f217a911af524e14f6492937", "bike_id": "aff91cb8f217a911af524e14f6492937", "is_disabled": 0, "fusion_lon": 0.0, "type": "electric_scooter", "lon": -77.01708683333334}, {"rental_uris": {"android": "https://dc.lft.to/lastmile_qr_scan", "ios": "https://dc.lft.to/lastmile_qr_scan"}, "fusion_lat": 0.0, "is_reserved": 0, "lat": 38.80862233333333, "name": "697895569365a0bd496e445de57bc946", "bike_id": "697895569365a0bd496e445de57bc946", "is_disabled": 0, "fusion_lon": 0.0, "type": "electric_bike", "lon": -77.11255933333334}, {"rental_uris": {"android": "https://dc.lft.to/lastmile_qr_scan", "ios": "https://dc.lft.to/lastmile_qr_scan"}, "fusion_lat": 0.0, "is_reserved": 0, "lat": 38.91708366666667, "name": "06431d0b2b58bd55be729cbf18014df2", "bike_id": "06431d0b2b58bd55be729cbf18014df2", "is_disabled": 0, "fusion_lon": 0.0, "type": "electric_scooter", "lon": -77.022746}, {"rental_uris": {"android": "https://dc.lft.to/lastmile_qr_scan", "ios": "https://dc.lft.to/lastmile_qr_scan"}, "fusion_lat": 0.0, "is_reserved": 0, "lat": 38.9225305, "name": "802526ce518d69ecf15ec1dac2fd8e4c", "bike_id": "802526ce518d69ecf15ec1dac2fd8e4c", "is_disabled": 0, "fusion_lon": 0.0, "type": "electric_scooter", "lon": -77.03682066666667}, {"rental_uris": {"android": "https://dc.lft.to/lastmile_qr_scan", "ios": "https://dc.lft.to/lastmile_qr_scan"}, "fusion_lat": 0.0, "is_reserved": 0, "lat": 38.9320465, "name": "cc821bbf2060fb87b8465069ac549f72", "bike_id": "cc821bbf2060fb87b8465069ac549f72", "is_disabled": 0, "fusion_lon": 0.0, "type": "electric_scooter", "lon": -77.023956}, {"rental_uris": {"android": "https://dc.lft.to/lastmile_qr_scan", "ios": "https://dc.lft.to/lastmile_qr_scan"}, "fusion_lat": 0.0, "is_reserved": 0, "lat": 38.871525166666665, "name": "63963dc91f1236f92bf6ebd43e445950", "bike_id": "63963dc91f1236f92bf6ebd43e445950", "is_disabled": 0, "fusion_lon": 0.0, "type": "electric_scooter", "lon": -77.01322066666667}, {"rental_uris": {"android": "https://dc.lft.to/lastmile_qr_scan", "ios": "https://dc.lft.to/lastmile_qr_scan"}, "fusion_lat": 0.0, "is_reserved": 0, "lat": 38.9279935, "name": "4ed5fc00021a835b434e6c6633a06c4b", "bike_id": "4ed5fc00021a835b434e6c6633a06c4b", "is_disabled": 0, "fusion_lon": 0.0, "type": "electric_scooter", "lon": -77.02603366666666}, {"rental_uris": {"android": "https://dc.lft.to/lastmile_qr_scan", "ios": "https://dc.lft.to/lastmile_qr_scan"}, "fusion_lat": 0.0, "is_reserved": 0, "lat": 38.91545583333333, "name": "ce3716b7dd92c0b8bbdf75700df29486", "bike_id": "ce3716b7dd92c0b8bbdf75700df29486", "is_disabled": 0, "fusion_lon": 0.0, "type": "electric_scooter", "lon": -77.02819933333333}, {"rental_uris": {"android": "https://dc.lft.to/lastmile_qr_scan", "ios": "https://dc.lft.to/lastmile_qr_scan"}, "fusion_lat": 0.0, "is_reserved": 0, "lat": 38.92067633333333, "name": "d01e9ef0b7943f0344bb46238fb2e9e9", "bike_id": "d01e9ef0b7943f0344bb46238fb2e9e9", "is_disabled": 0, "fusion_lon": 0.0, "type": "electric_scooter", "lon": -77.02417716666666}, {"rental_uris": {"android": "https://dc.lft.to/lastmile_qr_scan", "ios": "https://dc.lft.to/lastmile_qr_scan"}, "fusion_lat": 0.0, "is_reserved": 0, "lat": 38.909581333333335, "name": "5ccaa738c60d62a54771b8d89986ca1b", "bike_id": "5ccaa738c60d62a54771b8d89986ca1b", "is_disabled": 0, "fusion_lon": 0.0, "type": "electric_scooter", "lon": -77.02281333333333}, {"rental_uris": {"android": "https://dc.lft.to/lastmile_qr_scan", "ios": "https://dc.lft.to/lastmile_qr_scan"}, "fusion_lat": 0.0, "is_reserved": 0, "lat": 38.9273015, "name": "8c8f60e580a76b3c2f0ab5d6a62adc14", "bike_id": "8c8f60e580a76b3c2f0ab5d6a62adc14", "is_disabled": 0, "fusion_lon": 0.0, "type": "electric_scooter", "lon": -77.02965366666666}, {"rental_uris": {"android": "https://dc.lft.to/lastmile_qr_scan", "ios": "https://dc.lft.to/lastmile_qr_scan"}, "fusion_lat": 0.0, "is_reserved": 0, "lat": 38.897984666666666, "name": "4a85108c1b9bdd446460084e9ae40d4b", "bike_id": "4a85108c1b9bdd446460084e9ae40d4b", "is_disabled": 0, "fusion_lon": 0.0, "type": "electric_scooter", "lon": -77.012026}, {"rental_uris": {"android": "https://dc.lft.to/lastmile_qr_scan", "ios": "https://dc.lft.to/lastmile_qr_scan"}, "fusion_lat": 0.0, "is_reserved": 0, "lat": 38.80733883333333, "name": "d68d3c91d67293192d1ea26e950d53e8", "bike_id": "d68d3c91d67293192d1ea26e950d53e8", "is_disabled": 0, "fusion_lon": 0.0, "type": "electric_bike", "lon": -76.99260883333334}, {"rental_uris": {"android": "https://dc.lft.to/lastmile_qr_scan", "ios": "https://dc.lft.to/lastmile_qr_scan"}, "fusion_lat": 0.0, "is_reserved": 0, "lat": 38.901652166666665, "name": "cdc12d9887e3e4a5571a71da990d0d21", "bike_id": "cdc12d9887e3e4a5571a71da990d0d21", "is_disabled": 0, "fusion_lon": 0.0, "type": "electric_scooter", "lon": -76.93020233333333}, {"rental_uris": {"android": "https://dc.lft.to/lastmile_qr_scan", "ios": "https://dc.lft.to/lastmile_qr_scan"}, "fusion_lat": 0.0, "is_reserved": 0, "lat": 38.87995683333333, "name": "86934c93238fca6e9a4cf1dfd1bd52fc", "bike_id": "86934c93238fca6e9a4cf1dfd1bd52fc", "is_disabled": 0, "fusion_lon": 0.0, "type": "electric_scooter", "lon": -77.037429}, {"rental_uris": {"android": "https://dc.lft.to/lastmile_qr_scan", "ios": "https://dc.lft.to/lastmile_qr_scan"}, "fusion_lat": 0.0, "is_reserved": 0, "lat": 38.93578983333333, "name": "62045ed8372324afb019a345e1e67660", "bike_id": "62045ed8372324afb019a345e1e67660", "is_disabled": 0, "fusion_lon": 0.0, "type": "electric_scooter", "lon": -77.058604}, {"rental_uris": {"android": "https://dc.lft.to/lastmile_qr_scan", "ios": "https://dc.lft.to/lastmile_qr_scan"}, "fusion_lat": 0.0, "is_reserved": 0, "lat": 38.91881333333333, "name": "e83f12c1c39ba7676403ab265c90487a", "bike_id": "e83f12c1c39ba7676403ab265c90487a", "is_disabled": 0, "fusion_lon": 0.0, "type": "electric_scooter", "lon": -77.02710833333333}, {"rental_uris": {"android": "https://dc.lft.to/lastmile_qr_scan", "ios": "https://dc.lft.to/lastmile_qr_scan"}, "fusion_lat": 0.0, "is_reserved": 0, "lat": 38.90561966666667, "name": "55c8e973e140e7bf85ffa10e23d01214", "bike_id": "55c8e973e140e7bf85ffa10e23d01214", "is_disabled": 0, "fusion_lon": 0.0, "type": "electric_scooter", "lon": -77.03566966666666}, {"rental_uris": {"android": "https://dc.lft.to/lastmile_qr_scan", "ios": "https://dc.lft.to/lastmile_qr_scan"}, "fusion_lat": 0.0, "is_reserved": 0, "lat": 38.886885166666666, "name": "6cdfc46c0fb8668a17e57e6bd548e832", "bike_id": "6cdfc46c0fb8668a17e57e6bd548e832", "is_disabled": 0, "fusion_lon": 0.0, "type": "electric_scooter", "lon": -77.013708}, {"rental_uris": {"android": "https://dc.lft.to/lastmile_qr_scan", "ios": "https://dc.lft.to/lastmile_qr_scan"}, "fusion_lat": 0.0, "is_reserved": 0, "lat": 38.927732166666665, "name": "973225a87b03514f032b63cf3bc05c55", "bike_id": "973225a87b03514f032b63cf3bc05c55", "is_disabled": 0, "fusion_lon": 0.0, "type": "electric_scooter", "lon": -77.0270785}, {"rental_uris": {"android": "https://dc.lft.to/lastmile_qr_scan", "ios": "https://dc.lft.to/lastmile_qr_scan"}, "fusion_lat": 0.0, "is_reserved": 0, "lat": 38.877757833333334, "name": "d34b900a29bc01b62908c4bb7a8f25d0", "bike_id": "d34b900a29bc01b62908c4bb7a8f25d0", "is_disabled": 0, "fusion_lon": 0.0, "type": "electric_scooter", "lon": -76.98367583333334}, {"rental_uris": {"android": "https://dc.lft.to/lastmile_qr_scan", "ios": "https://dc.lft.to/lastmile_qr_scan"}, "fusion_lat": 0.0, "is_reserved": 0, "lat": 38.89777316666667, "name": "9b8787b6b185a44ec07a6ac26eec5467", "bike_id": "9b8787b6b185a44ec07a6ac26eec5467", "is_disabled": 0, "fusion_lon": 0.0, "type": "electric_scooter", "lon": -77.01632266666667}, {"rental_uris": {"android": "https://dc.lft.to/lastmile_qr_scan", "ios": "https://dc.lft.to/lastmile_qr_scan"}, "fusion_lat": 0.0, "is_reserved": 0, "lat": 38.950187166666666, "name": "73d8c3e6c5695977c0b0d800167fb798", "bike_id": "73d8c3e6c5695977c0b0d800167fb798", "is_disabled": 0, "fusion_lon": 0.0, "type": "electric_bike", "lon": -76.971011}, {"rental_uris": {"android": "https://dc.lft.to/lastmile_qr_scan", "ios": "https://dc.lft.to/lastmile_qr_scan"}, "fusion_lat": 0.0, "is_reserved": 0, "lat": 38.933688, "name": "3e1880ea83b4eefa6768d1b1b31c218c", "bike_id": "3e1880ea83b4eefa6768d1b1b31c218c", "is_disabled": 0, "fusion_lon": 0.0, "type": "electric_scooter", "lon": -77.02422}, {"rental_uris": {"android": "https://dc.lft.to/lastmile_qr_scan", "ios": "https://dc.lft.to/lastmile_qr_scan"}, "fusion_lat": 0.0, "is_reserved": 0, "lat": 38.919016666666664, "name": "bdae5540faa16878b53c4fd5b6cbf837", "bike_id": "bdae5540faa16878b53c4fd5b6cbf837", "is_disabled": 0, "fusion_lon": 0.0, "type": "electric_scooter", "lon": -77.02053433333333}, {"rental_uris": {"android": "https://dc.lft.to/lastmile_qr_scan", "ios": "https://dc.lft.to/lastmile_qr_scan"}, "fusion_lat": 0.0, "is_reserved": 0, "lat": 38.884416333333334, "name": "7ab6c9d8b888779e2676fba4866dff67", "bike_id": "7ab6c9d8b888779e2676fba4866dff67", "is_disabled": 0, "fusion_lon": 0.0, "type": "electric_scooter", "lon": -76.95764033333333}, {"rental_uris": {"android": "https://dc.lft.to/lastmile_qr_scan", "ios": "https://dc.lft.to/lastmile_qr_scan"}, "fusion_lat": 0.0, "is_reserved": 0, "lat": 38.96619333333334, "name": "0d4caa553cb2ca0f2b20106ec24902ae", "bike_id": "0d4caa553cb2ca0f2b20106ec24902ae", "is_disabled": 0, "fusion_lon": 0.0, "type": "electric_bike", "lon": -77.03432333333333}, {"rental_uris": {"android": "https://dc.lft.to/lastmile_qr_scan", "ios": "https://dc.lft.to/lastmile_qr_scan"}, "fusion_lat": 0.0, "is_reserved": 0, "lat": 38.92528033333333, "name": "b51132e72cb4e9606a5d2df97302a2f3", "bike_id": "b51132e72cb4e9606a5d2df97302a2f3", "is_disabled": 0, "fusion_lon": 0.0, "type": "electric_scooter", "lon": -77.04113733333334}, {"rental_uris": {"android": "https://dc.lft.to/lastmile_qr_scan", "ios": "https://dc.lft.to/lastmile_qr_scan"}, "fusion_lat": 0.0, "is_reserved": 0, "lat": 38.93250966666667, "name": "bb147e26daa517e3a6a0ddc980b77792", "bike_id": "bb147e26daa517e3a6a0ddc980b77792", "is_disabled": 0, "fusion_lon": 0.0, "type": "electric_scooter", "lon": -77.03278066666667}, {"rental_uris": {"android": "https://dc.lft.to/lastmile_qr_scan", "ios": "https://dc.lft.to/lastmile_qr_scan"}, "fusion_lat": 0.0, "is_reserved": 0, "lat": 38.908719166666664, "name": "19f8de7c21c8b4036e447fa339a78f98", "bike_id": "19f8de7c21c8b4036e447fa339a78f98", "is_disabled": 0, "fusion_lon": 0.0, "type": "electric_scooter", "lon": -77.07156083333334}, {"rental_uris": {"android": "https://dc.lft.to/lastmile_qr_scan", "ios": "https://dc.lft.to/lastmile_qr_scan"}, "fusion_lat": 0.0, "is_reserved": 0, "lat": 38.88795016666667, "name": "fb29a5ad78ad05973beed6bbd985500d", "bike_id": "fb29a5ad78ad05973beed6bbd985500d", "is_disabled": 0, "fusion_lon": 0.0, "type": "electric_scooter", "lon": -76.97711133333334}, {"rental_uris": {"android": "https://dc.lft.to/lastmile_qr_scan", "ios": "https://dc.lft.to/lastmile_qr_scan"}, "fusion_lat": 0.0, "is_reserved": 0, "lat": 38.8329525, "name": "220a4d68bc2b196b239a43ae39268723", "bike_id": "220a4d68bc2b196b239a43ae39268723", "is_disabled": 0, "fusion_lon": 0.0, "type": "electric_bike", "lon": -77.08411783333334}, {"rental_uris": {"android": "https://dc.lft.to/lastmile_qr_scan", "ios": "https://dc.lft.to/lastmile_qr_scan"}, "fusion_lat": 0.0, "is_reserved": 0, "lat": 38.9023835, "name": "8d891c4879c229b8d0a43611f1416244", "bike_id": "8d891c4879c229b8d0a43611f1416244", "is_disabled": 0, "fusion_lon": 0.0, "type": "electric_scooter", "lon": -77.0020265}, {"rental_uris": {"android": "https://dc.lft.to/lastmile_qr_scan", "ios": "https://dc.lft.to/lastmile_qr_scan"}, "fusion_lat": 0.0, "is_reserved": 0, "lat": 38.906499, "name": "b023d4b9170246d9e1926086fc6f5a06", "bike_id": "b023d4b9170246d9e1926086fc6f5a06", "is_disabled": 0, "fusion_lon": 0.0, "type": "electric_scooter", "lon": -77.0379745}, {"rental_uris": {"android": "https://dc.lft.to/lastmile_qr_scan", "ios": "https://dc.lft.to/lastmile_qr_scan"}, "fusion_lat": 0.0, "is_reserved": 0, "lat": 38.90125283333333, "name": "afcc196e6edb3bbb00daf672b5d140ab", "bike_id": "afcc196e6edb3bbb00daf672b5d140ab", "is_disabled": 0, "fusion_lon": 0.0, "type": "electric_scooter", "lon": -77.03688766666667}, {"rental_uris": {"android": "https://dc.lft.to/lastmile_qr_scan", "ios": "https://dc.lft.to/lastmile_qr_scan"}, "fusion_lat": 0.0, "is_reserved": 0, "lat": 38.9183465, "name": "06a85f3de0d83e8742f603c64f9597b5", "bike_id": "06a85f3de0d83e8742f603c64f9597b5", "is_disabled": 0, "fusion_lon": 0.0, "type": "electric_scooter", "lon": -77.02301966666667}, {"rental_uris": {"android": "https://dc.lft.to/lastmile_qr_scan", "ios": "https://dc.lft.to/lastmile_qr_scan"}, "fusion_lat": 0.0, "is_reserved": 0, "lat": 38.90124466666666, "name": "c7cc45efd6863d37f254e2b7d94f8bc6", "bike_id": "c7cc45efd6863d37f254e2b7d94f8bc6", "is_disabled": 0, "fusion_lon": 0.0, "type": "electric_scooter", "lon": -77.043289}, {"rental_uris": {"android": "https://dc.lft.to/lastmile_qr_scan", "ios": "https://dc.lft.to/lastmile_qr_scan"}, "fusion_lat": 0.0, "is_reserved": 0, "lat": 38.928231333333336, "name": "9bf3e713e2163dc61e0df08a3fddddd9", "bike_id": "9bf3e713e2163dc61e0df08a3fddddd9", "is_disabled": 0, "fusion_lon": 0.0, "type": "electric_scooter", "lon": -77.0225205}, {"rental_uris": {"android": "https://dc.lft.to/lastmile_qr_scan", "ios": "https://dc.lft.to/lastmile_qr_scan"}, "fusion_lat": 0.0, "is_reserved": 0, "lat": 38.86373833333333, "name": "7011ad72fc688b98027cdbae54742351", "bike_id": "7011ad72fc688b98027cdbae54742351", "is_disabled": 0, "fusion_lon": 0.0, "type": "electric_scooter", "lon": -76.99061216666666}, {"rental_uris": {"android": "https://dc.lft.to/lastmile_qr_scan", "ios": "https://dc.lft.to/lastmile_qr_scan"}, "fusion_lat": 0.0, "is_reserved": 0, "lat": 38.883738666666666, "name": "bae29284fd12f5e355f8e2d1949a3805", "bike_id": "bae29284fd12f5e355f8e2d1949a3805", "is_disabled": 0, "fusion_lon": 0.0, "type": "electric_scooter", "lon": -77.00877466666667}, {"rental_uris": {"android": "https://dc.lft.to/lastmile_qr_scan", "ios": "https://dc.lft.to/lastmile_qr_scan"}, "fusion_lat": 0.0, "is_reserved": 0, "lat": 38.898176666666664, "name": "e42f8287852b1bbc886523e03200c5d9", "bike_id": "e42f8287852b1bbc886523e03200c5d9", "is_disabled": 0, "fusion_lon": 0.0, "type": "electric_scooter", "lon": -77.02811083333333}, {"rental_uris": {"android": "https://dc.lft.to/lastmile_qr_scan", "ios": "https://dc.lft.to/lastmile_qr_scan"}, "fusion_lat": 0.0, "is_reserved": 0, "lat": 38.89351666666666, "name": "93bc121ffb34d91bca66decdf59501af", "bike_id": "93bc121ffb34d91bca66decdf59501af", "is_disabled": 0, "fusion_lon": 0.0, "type": "electric_scooter", "lon": -77.00335833333334}, {"rental_uris": {"android": "https://dc.lft.to/lastmile_qr_scan", "ios": "https://dc.lft.to/lastmile_qr_scan"}, "fusion_lat": 0.0, "is_reserved": 0, "lat": 38.887202333333335, "name": "e7bd909f1fbba7af7b6fa952ad32d26c", "bike_id": "e7bd909f1fbba7af7b6fa952ad32d26c", "is_disabled": 0, "fusion_lon": 0.0, "type": "electric_scooter", "lon": -76.99677966666667}, {"rental_uris": {"android": "https://dc.lft.to/lastmile_qr_scan", "ios": "https://dc.lft.to/lastmile_qr_scan"}, "fusion_lat": 0.0, "is_reserved": 0, "lat": 38.8543465, "name": "30271167f97bbe8a3866e8e3362e6b5d", "bike_id": "30271167f97bbe8a3866e8e3362e6b5d", "is_disabled": 0, "fusion_lon": 0.0, "type": "electric_bike", "lon": -77.083209}, {"rental_uris": {"android": "https://dc.lft.to/lastmile_qr_scan", "ios": "https://dc.lft.to/lastmile_qr_scan"}, "fusion_lat": 0.0, "is_reserved": 0, "lat": 38.9373715, "name": "645c72667cbb57d81f2157a8d1c925b5", "bike_id": "645c72667cbb57d81f2157a8d1c925b5", "is_disabled": 0, "fusion_lon": 0.0, "type": "electric_scooter", "lon": -77.03263466666667}, {"rental_uris": {"android": "https://dc.lft.to/lastmile_qr_scan", "ios": "https://dc.lft.to/lastmile_qr_scan"}, "fusion_lat": 0.0, "is_reserved": 0, "lat": 38.877604833333336, "name": "1ef46c8a0b43ef6f49d286af24a68522", "bike_id": "1ef46c8a0b43ef6f49d286af24a68522", "is_disabled": 0, "fusion_lon": 0.0, "type": "electric_scooter", "lon": -77.00323783333333}, {"rental_uris": {"android": "https://dc.lft.to/lastmile_qr_scan", "ios": "https://dc.lft.to/lastmile_qr_scan"}, "fusion_lat": 0.0, "is_reserved": 0, "lat": 39.02123133333333, "name": "2ebd4614ea705eab19e52c04fc6ffb6d", "bike_id": "2ebd4614ea705eab19e52c04fc6ffb6d", "is_disabled": 0, "fusion_lon": 0.0, "type": "electric_bike", "lon": -77.04499833333334}, {"rental_uris": {"android": "https://dc.lft.to/lastmile_qr_scan", "ios": "https://dc.lft.to/lastmile_qr_scan"}, "fusion_lat": 0.0, "is_reserved": 0, "lat": 38.90239483333333, "name": "aed6f8735133bec0cefddd9f753812ee", "bike_id": "aed6f8735133bec0cefddd9f753812ee", "is_disabled": 0, "fusion_lon": 0.0, "type": "electric_scooter", "lon": -77.0394935}, {"rental_uris": {"android": "https://dc.lft.to/lastmile_qr_scan", "ios": "https://dc.lft.to/lastmile_qr_scan"}, "fusion_lat": 0.0, "is_reserved": 0, "lat": 38.93695733333333, "name": "e6bd424353b547b2f1b0338824a0b31b", "bike_id": "e6bd424353b547b2f1b0338824a0b31b", "is_disabled": 0, "fusion_lon": 0.0, "type": "electric_scooter", "lon": -77.02716066666666}, {"rental_uris": {"android": "https://dc.lft.to/lastmile_qr_scan", "ios": "https://dc.lft.to/lastmile_qr_scan"}, "fusion_lat": 0.0, "is_reserved": 0, "lat": 38.916466666666665, "name": "5c85fbab6a3707e2f69d3ee7a8271dc5", "bike_id": "5c85fbab6a3707e2f69d3ee7a8271dc5", "is_disabled": 0, "fusion_lon": 0.0, "type": "electric_scooter", "lon": -77.03201633333333}, {"rental_uris": {"android": "https://dc.lft.to/lastmile_qr_scan", "ios": "https://dc.lft.to/lastmile_qr_scan"}, "fusion_lat": 0.0, "is_reserved": 0, "lat": 38.92521416666666, "name": "98d1832353cf375fca2136247fc54532", "bike_id": "98d1832353cf375fca2136247fc54532", "is_disabled": 0, "fusion_lon": 0.0, "type": "electric_scooter", "lon": -77.0506005}, {"rental_uris": {"android": "https://dc.lft.to/lastmile_qr_scan", "ios": "https://dc.lft.to/lastmile_qr_scan"}, "fusion_lat": 0.0, "is_reserved": 0, "lat": 38.92040433333333, "name": "7c86abccd060b75414326184aeaac328", "bike_id": "7c86abccd060b75414326184aeaac328", "is_disabled": 0, "fusion_lon": 0.0, "type": "electric_scooter", "lon": -77.032892}, {"rental_uris": {"android": "https://dc.lft.to/lastmile_qr_scan", "ios": "https://dc.lft.to/lastmile_qr_scan"}, "fusion_lat": 0.0, "is_reserved": 0, "lat": 38.90639766666666, "name": "c454fa5da9bf0d4018fd0f8a9b7d7213", "bike_id": "c454fa5da9bf0d4018fd0f8a9b7d7213", "is_disabled": 0, "fusion_lon": 0.0, "type": "electric_scooter", "lon": -77.01425883333333}, {"rental_uris": {"android": "https://dc.lft.to/lastmile_qr_scan", "ios": "https://dc.lft.to/lastmile_qr_scan"}, "fusion_lat": 0.0, "is_reserved": 0, "lat": 38.937472, "name": "b52d05d08161acbb6415d3aff6cbc6dd", "bike_id": "b52d05d08161acbb6415d3aff6cbc6dd", "is_disabled": 0, "fusion_lon": 0.0, "type": "electric_scooter", "lon": -77.034311}, {"rental_uris": {"android": "https://dc.lft.to/lastmile_qr_scan", "ios": "https://dc.lft.to/lastmile_qr_scan"}, "fusion_lat": 0.0, "is_reserved": 0, "lat": 38.930587, "name": "66c918c4e4545cfe5ce9f67174f8a62e", "bike_id": "66c918c4e4545cfe5ce9f67174f8a62e", "is_disabled": 0, "fusion_lon": 0.0, "type": "electric_scooter", "lon": -77.023255}, {"rental_uris": {"android": "https://dc.lft.to/lastmile_qr_scan", "ios": "https://dc.lft.to/lastmile_qr_scan"}, "fusion_lat": 0.0, "is_reserved": 0, "lat": 38.8987565, "name": "dc08936bebb22300ae44c017811b454e", "bike_id": "dc08936bebb22300ae44c017811b454e", "is_disabled": 0, "fusion_lon": 0.0, "type": "electric_scooter", "lon": -77.04669}, {"rental_uris": {"android": "https://dc.lft.to/lastmile_qr_scan", "ios": "https://dc.lft.to/lastmile_qr_scan"}, "fusion_lat": 0.0, "is_reserved": 0, "lat": 38.91983183333333, "name": "57432918945ce28d4263d594f4bb4dab", "bike_id": "57432918945ce28d4263d594f4bb4dab", "is_disabled": 0, "fusion_lon": 0.0, "type": "electric_scooter", "lon": -77.0330915}, {"rental_uris": {"android": "https://dc.lft.to/lastmile_qr_scan", "ios": "https://dc.lft.to/lastmile_qr_scan"}, "fusion_lat": 0.0, "is_reserved": 0, "lat": 38.91331983333333, "name": "b5616f1b31f79c242218b8fa819a3030", "bike_id": "b5616f1b31f79c242218b8fa819a3030", "is_disabled": 0, "fusion_lon": 0.0, "type": "electric_scooter", "lon": -77.03192183333333}, {"rental_uris": {"android": "https://dc.lft.to/lastmile_qr_scan", "ios": "https://dc.lft.to/lastmile_qr_scan"}, "fusion_lat": 0.0, "is_reserved": 0, "lat": 38.93121516666667, "name": "4b497754e85c9a57f53eef16828898b3", "bike_id": "4b497754e85c9a57f53eef16828898b3", "is_disabled": 0, "fusion_lon": 0.0, "type": "electric_bike", "lon": -77.027197}, {"rental_uris": {"android": "https://dc.lft.to/lastmile_qr_scan", "ios": "https://dc.lft.to/lastmile_qr_scan"}, "fusion_lat": 0.0, "is_reserved": 0, "lat": 38.907176666666665, "name": "753e408a2aa476c359cc5dea6bbf2daf", "bike_id": "753e408a2aa476c359cc5dea6bbf2daf", "is_disabled": 0, "fusion_lon": 0.0, "type": "electric_scooter", "lon": -77.0279525}, {"rental_uris": {"android": "https://dc.lft.to/lastmile_qr_scan", "ios": "https://dc.lft.to/lastmile_qr_scan"}, "fusion_lat": 0.0, "is_reserved": 0, "lat": 38.917754333333335, "name": "693f011526cd22999a38409a6c77f08a", "bike_id": "693f011526cd22999a38409a6c77f08a", "is_disabled": 0, "fusion_lon": 0.0, "type": "electric_scooter", "lon": -77.03443666666666}, {"rental_uris": {"android": "https://dc.lft.to/lastmile_qr_scan", "ios": "https://dc.lft.to/lastmile_qr_scan"}, "fusion_lat": 0.0, "is_reserved": 0, "lat": 38.89397, "name": "9c71b3ecd8e8a402387599995c8d9695", "bike_id": "9c71b3ecd8e8a402387599995c8d9695", "is_disabled": 0, "fusion_lon": 0.0, "type": "electric_scooter", "lon": -77.02327816666667}, {"rental_uris": {"android": "https://dc.lft.to/lastmile_qr_scan", "ios": "https://dc.lft.to/lastmile_qr_scan"}, "fusion_lat": 0.0, "is_reserved": 0, "lat": 38.901463, "name": "39cc6fb6bccd9ef3d633e53c5a22f571", "bike_id": "39cc6fb6bccd9ef3d633e53c5a22f571", "is_disabled": 0, "fusion_lon": 0.0, "type": "electric_scooter", "lon": -77.025972}, {"rental_uris": {"android": "https://dc.lft.to/lastmile_qr_scan", "ios": "https://dc.lft.to/lastmile_qr_scan"}, "fusion_lat": 0.0, "is_reserved": 0, "lat": 38.885986833333334, "name": "0e60f70cbefdb3aa26bf5499f69243c6", "bike_id": "0e60f70cbefdb3aa26bf5499f69243c6", "is_disabled": 0, "fusion_lon": 0.0, "type": "electric_scooter", "lon": -77.00405183333334}, {"rental_uris": {"android": "https://dc.lft.to/lastmile_qr_scan", "ios": "https://dc.lft.to/lastmile_qr_scan"}, "fusion_lat": 0.0, "is_reserved": 0, "lat": 38.916200333333336, "name": "4cae65ffef322a2d7728b74cf8f34e99", "bike_id": "4cae65ffef322a2d7728b74cf8f34e99", "is_disabled": 0, "fusion_lon": 0.0, "type": "electric_scooter", "lon": -77.00213916666667}, {"rental_uris": {"android": "https://dc.lft.to/lastmile_qr_scan", "ios": "https://dc.lft.to/lastmile_qr_scan"}, "fusion_lat": 0.0, "is_reserved": 0, "lat": 38.92486316666667, "name": "367aaa2357e371c8f9a341da9ab8a958", "bike_id": "367aaa2357e371c8f9a341da9ab8a958", "is_disabled": 0, "fusion_lon": 0.0, "type": "electric_scooter", "lon": -77.030544}, {"rental_uris": {"android": "https://dc.lft.to/lastmile_qr_scan", "ios": "https://dc.lft.to/lastmile_qr_scan"}, "fusion_lat": 0.0, "is_reserved": 0, "lat": 38.927635, "name": "3e8d708cfea88ca340beb0c981f3ee6f", "bike_id": "3e8d708cfea88ca340beb0c981f3ee6f", "is_disabled": 0, "fusion_lon": 0.0, "type": "electric_scooter", "lon": -77.06887016666667}, {"rental_uris": {"android": "https://dc.lft.to/lastmile_qr_scan", "ios": "https://dc.lft.to/lastmile_qr_scan"}, "fusion_lat": 0.0, "is_reserved": 0, "lat": 38.95765216666667, "name": "fb49756597c457a42d7cd08991085608", "bike_id": "fb49756597c457a42d7cd08991085608", "is_disabled": 0, "fusion_lon": 0.0, "type": "electric_scooter", "lon": -77.01491433333334}, {"rental_uris": {"android": "https://dc.lft.to/lastmile_qr_scan", "ios": "https://dc.lft.to/lastmile_qr_scan"}, "fusion_lat": 0.0, "is_reserved": 0, "lat": 38.892221666666664, "name": "3fb1e4e606fd88f07234b25098b6a04b", "bike_id": "3fb1e4e606fd88f07234b25098b6a04b", "is_disabled": 0, "fusion_lon": 0.0, "type": "electric_scooter", "lon": -77.039847}, {"rental_uris": {"android": "https://dc.lft.to/lastmile_qr_scan", "ios": "https://dc.lft.to/lastmile_qr_scan"}, "fusion_lat": 0.0, "is_reserved": 0, "lat": 38.903792833333334, "name": "428f7f292d15be229c01c291f80227db", "bike_id": "428f7f292d15be229c01c291f80227db", "is_disabled": 0, "fusion_lon": 0.0, "type": "electric_scooter", "lon": -76.98092133333333}, {"rental_uris": {"android": "https://dc.lft.to/lastmile_qr_scan", "ios": "https://dc.lft.to/lastmile_qr_scan"}, "fusion_lat": 0.0, "is_reserved": 0, "lat": 38.900180166666665, "name": "4abc056b4949db90f9beb2df871d3213", "bike_id": "4abc056b4949db90f9beb2df871d3213", "is_disabled": 0, "fusion_lon": 0.0, "type": "electric_scooter", "lon": -77.02927066666666}, {"rental_uris": {"android": "https://dc.lft.to/lastmile_qr_scan", "ios": "https://dc.lft.to/lastmile_qr_scan"}, "fusion_lat": 0.0, "is_reserved": 0, "lat": 38.926565333333336, "name": "792478d53bbf620f6bcbb9dd7dfc2048", "bike_id": "792478d53bbf620f6bcbb9dd7dfc2048", "is_disabled": 0, "fusion_lon": 0.0, "type": "electric_scooter", "lon": -76.997518}, {"rental_uris": {"android": "https://dc.lft.to/lastmile_qr_scan", "ios": "https://dc.lft.to/lastmile_qr_scan"}, "fusion_lat": 0.0, "is_reserved": 0, "lat": 38.89798, "name": "1c1753fb4e505627c21dc351d509ca23", "bike_id": "1c1753fb4e505627c21dc351d509ca23", "is_disabled": 0, "fusion_lon": 0.0, "type": "electric_scooter", "lon": -77.032405}, {"rental_uris": {"android": "https://dc.lft.to/lastmile_qr_scan", "ios": "https://dc.lft.to/lastmile_qr_scan"}, "fusion_lat": 0.0, "is_reserved": 0, "lat": 38.900355166666664, "name": "c126686cde5371bbce9bc67543c95a02", "bike_id": "c126686cde5371bbce9bc67543c95a02", "is_disabled": 0, "fusion_lon": 0.0, "type": "electric_scooter", "lon": -76.98825933333333}, {"rental_uris": {"android": "https://dc.lft.to/lastmile_qr_scan", "ios": "https://dc.lft.to/lastmile_qr_scan"}, "fusion_lat": 0.0, "is_reserved": 0, "lat": 38.9039195, "name": "de17e4d1e3480b9072a55a5f6bbee44e", "bike_id": "de17e4d1e3480b9072a55a5f6bbee44e", "is_disabled": 0, "fusion_lon": 0.0, "type": "electric_scooter", "lon": -77.06847316666666}, {"rental_uris": {"android": "https://dc.lft.to/lastmile_qr_scan", "ios": "https://dc.lft.to/lastmile_qr_scan"}, "fusion_lat": 0.0, "is_reserved": 0, "lat": 38.9198635, "name": "3207cb02bdcf122a4939fcfaf0af0f03", "bike_id": "3207cb02bdcf122a4939fcfaf0af0f03", "is_disabled": 0, "fusion_lon": 0.0, "type": "electric_scooter", "lon": -77.071092}, {"rental_uris": {"android": "https://dc.lft.to/lastmile_qr_scan", "ios": "https://dc.lft.to/lastmile_qr_scan"}, "fusion_lat": 0.0, "is_reserved": 0, "lat": 38.91804583333333, "name": "6bccb653b3c5a48258798f5330c6c31f", "bike_id": "6bccb653b3c5a48258798f5330c6c31f", "is_disabled": 0, "fusion_lon": 0.0, "type": "electric_scooter", "lon": -77.02882733333334}, {"rental_uris": {"android": "https://dc.lft.to/lastmile_qr_scan", "ios": "https://dc.lft.to/lastmile_qr_scan"}, "fusion_lat": 0.0, "is_reserved": 0, "lat": 38.895622, "name": "2e31edcb613d16bd988dc0e6224e4620", "bike_id": "2e31edcb613d16bd988dc0e6224e4620", "is_disabled": 0, "fusion_lon": 0.0, "type": "electric_scooter", "lon": -77.01109666666666}, {"rental_uris": {"android": "https://dc.lft.to/lastmile_qr_scan", "ios": "https://dc.lft.to/lastmile_qr_scan"}, "fusion_lat": 0.0, "is_reserved": 0, "lat": 38.917017, "name": "54f17029f4c537eae6291f16b92f3176", "bike_id": "54f17029f4c537eae6291f16b92f3176", "is_disabled": 0, "fusion_lon": 0.0, "type": "electric_scooter", "lon": -77.01072366666666}, {"rental_uris": {"android": "https://dc.lft.to/lastmile_qr_scan", "ios": "https://dc.lft.to/lastmile_qr_scan"}, "fusion_lat": 0.0, "is_reserved": 0, "lat": 38.908985333333334, "name": "d59b3303a63d50f292fae7814ff167ec", "bike_id": "d59b3303a63d50f292fae7814ff167ec", "is_disabled": 0, "fusion_lon": 0.0, "type": "electric_scooter", "lon": -77.04409366666667}, {"rental_uris": {"android": "https://dc.lft.to/lastmile_qr_scan", "ios": "https://dc.lft.to/lastmile_qr_scan"}, "fusion_lat": 0.0, "is_reserved": 0, "lat": 38.895025833333335, "name": "c6ee1ba1bb8ed5c8dcd8b4af04b65736", "bike_id": "c6ee1ba1bb8ed5c8dcd8b4af04b65736", "is_disabled": 0, "fusion_lon": 0.0, "type": "electric_scooter", "lon": -77.04635783333333}, {"rental_uris": {"android": "https://dc.lft.to/lastmile_qr_scan", "ios": "https://dc.lft.to/lastmile_qr_scan"}, "fusion_lat": 0.0, "is_reserved": 0, "lat": 38.9061065, "name": "b049d60298a73af2f35185954672b69d", "bike_id": "b049d60298a73af2f35185954672b69d", "is_disabled": 0, "fusion_lon": 0.0, "type": "electric_scooter", "lon": -77.00681616666667}, {"rental_uris": {"android": "https://dc.lft.to/lastmile_qr_scan", "ios": "https://dc.lft.to/lastmile_qr_scan"}, "fusion_lat": 0.0, "is_reserved": 0, "lat": 38.9232945, "name": "f0547adb23de6de307e2ca48289aee6b", "bike_id": "f0547adb23de6de307e2ca48289aee6b", "is_disabled": 0, "fusion_lon": 0.0, "type": "electric_scooter", "lon": -77.056816}, {"rental_uris": {"android": "https://dc.lft.to/lastmile_qr_scan", "ios": "https://dc.lft.to/lastmile_qr_scan"}, "fusion_lat": 0.0, "is_reserved": 0, "lat": 38.9181675, "name": "825f3987f49b9cf23731a68763daf5af", "bike_id": "825f3987f49b9cf23731a68763daf5af", "is_disabled": 0, "fusion_lon": 0.0, "type": "electric_scooter", "lon": -77.03159883333333}, {"rental_uris": {"android": "https://dc.lft.to/lastmile_qr_scan", "ios": "https://dc.lft.to/lastmile_qr_scan"}, "fusion_lat": 0.0, "is_reserved": 0, "lat": 38.92324816666667, "name": "747046d82fc27752923ed8c27081036e", "bike_id": "747046d82fc27752923ed8c27081036e", "is_disabled": 0, "fusion_lon": 0.0, "type": "electric_scooter", "lon": -77.03619233333333}, {"rental_uris": {"android": "https://dc.lft.to/lastmile_qr_scan", "ios": "https://dc.lft.to/lastmile_qr_scan"}, "fusion_lat": 0.0, "is_reserved": 0, "lat": 38.90447566666667, "name": "fb61562c7fda90ba68533939f1b39343", "bike_id": "fb61562c7fda90ba68533939f1b39343", "is_disabled": 0, "fusion_lon": 0.0, "type": "electric_scooter", "lon": -77.06008433333334}, {"rental_uris": {"android": "https://dc.lft.to/lastmile_qr_scan", "ios": "https://dc.lft.to/lastmile_qr_scan"}, "fusion_lat": 0.0, "is_reserved": 0, "lat": 38.94306366666667, "name": "3ac074762b3c657dd7cf9c23ee693066", "bike_id": "3ac074762b3c657dd7cf9c23ee693066", "is_disabled": 0, "fusion_lon": 0.0, "type": "electric_scooter", "lon": -77.02176583333333}, {"rental_uris": {"android": "https://dc.lft.to/lastmile_qr_scan", "ios": "https://dc.lft.to/lastmile_qr_scan"}, "fusion_lat": 0.0, "is_reserved": 0, "lat": 38.90129783333333, "name": "8bc01d7e50299dfddecb479f306c1af3", "bike_id": "8bc01d7e50299dfddecb479f306c1af3", "is_disabled": 0, "fusion_lon": 0.0, "type": "electric_scooter", "lon": -77.0032305}, {"rental_uris": {"android": "https://dc.lft.to/lastmile_qr_scan", "ios": "https://dc.lft.to/lastmile_qr_scan"}, "fusion_lat": 0.0, "is_reserved": 0, "lat": 38.9254235, "name": "a5f5146a6e59486e8df1d42cd334d3be", "bike_id": "a5f5146a6e59486e8df1d42cd334d3be", "is_disabled": 0, "fusion_lon": 0.0, "type": "electric_scooter", "lon": -77.04053616666667}, {"rental_uris": {"android": "https://dc.lft.to/lastmile_qr_scan", "ios": "https://dc.lft.to/lastmile_qr_scan"}, "fusion_lat": 0.0, "is_reserved": 0, "lat": 38.87840883333333, "name": "2dd74f92909e2b11fb7eb4ab84c80b09", "bike_id": "2dd74f92909e2b11fb7eb4ab84c80b09", "is_disabled": 0, "fusion_lon": 0.0, "type": "electric_scooter", "lon": -76.982924}, {"rental_uris": {"android": "https://dc.lft.to/lastmile_qr_scan", "ios": "https://dc.lft.to/lastmile_qr_scan"}, "fusion_lat": 0.0, "is_reserved": 0, "lat": 38.90222283333333, "name": "04fb517b13f059b909058bac12a8aa18", "bike_id": "04fb517b13f059b909058bac12a8aa18", "is_disabled": 0, "fusion_lon": 0.0, "type": "electric_scooter", "lon": -77.01731816666667}, {"rental_uris": {"android": "https://dc.lft.to/lastmile_qr_scan", "ios": "https://dc.lft.to/lastmile_qr_scan"}, "fusion_lat": 0.0, "is_reserved": 0, "lat": 38.90702366666667, "name": "e97695983c5ae420b6722ad3edb0d4ad", "bike_id": "e97695983c5ae420b6722ad3edb0d4ad", "is_disabled": 0, "fusion_lon": 0.0, "type": "electric_scooter", "lon": -77.011182}, {"rental_uris": {"android": "https://dc.lft.to/lastmile_qr_scan", "ios": "https://dc.lft.to/lastmile_qr_scan"}, "fusion_lat": 0.0, "is_reserved": 0, "lat": 38.89366366666667, "name": "8647c17aa23a88b710c96107088fbc41", "bike_id": "8647c17aa23a88b710c96107088fbc41", "is_disabled": 0, "fusion_lon": 0.0, "type": "electric_scooter", "lon": -76.986482}, {"rental_uris": {"android": "https://dc.lft.to/lastmile_qr_scan", "ios": "https://dc.lft.to/lastmile_qr_scan"}, "fusion_lat": 0.0, "is_reserved": 0, "lat": 38.920273, "name": "30be857fd93a9d5aee872c548c5e9b6e", "bike_id": "30be857fd93a9d5aee872c548c5e9b6e", "is_disabled": 0, "fusion_lon": 0.0, "type": "electric_scooter", "lon": -77.010313}, {"rental_uris": {"android": "https://dc.lft.to/lastmile_qr_scan", "ios": "https://dc.lft.to/lastmile_qr_scan"}, "fusion_lat": 0.0, "is_reserved": 0, "lat": 38.899315333333334, "name": "ea2209b0fb219691ccc5f78785abf8f3", "bike_id": "ea2209b0fb219691ccc5f78785abf8f3", "is_disabled": 0, "fusion_lon": 0.0, "type": "electric_scooter", "lon": -77.026821}, {"rental_uris": {"android": "https://dc.lft.to/lastmile_qr_scan", "ios": "https://dc.lft.to/lastmile_qr_scan"}, "fusion_lat": 0.0, "is_reserved": 0, "lat": 38.99675883333333, "name": "a10505fbcb0642feed1d11cacf17631c", "bike_id": "a10505fbcb0642feed1d11cacf17631c", "is_disabled": 0, "fusion_lon": 0.0, "type": "electric_bike", "lon": -77.03792816666666}, {"rental_uris": {"android": "https://dc.lft.to/lastmile_qr_scan", "ios": "https://dc.lft.to/lastmile_qr_scan"}, "fusion_lat": 0.0, "is_reserved": 0, "lat": 38.900945666666665, "name": "ea16338b0113704c0d43bdafc151edf7", "bike_id": "ea16338b0113704c0d43bdafc151edf7", "is_disabled": 0, "fusion_lon": 0.0, "type": "electric_scooter", "lon": -77.019903}, {"rental_uris": {"android": "https://dc.lft.to/lastmile_qr_scan", "ios": "https://dc.lft.to/lastmile_qr_scan"}, "fusion_lat": 0.0, "is_reserved": 0, "lat": 38.921652, "name": "8f9a22efebc70869270516be02a7c44b", "bike_id": "8f9a22efebc70869270516be02a7c44b", "is_disabled": 0, "fusion_lon": 0.0, "type": "electric_scooter", "lon": -77.01870116666667}, {"rental_uris": {"android": "https://dc.lft.to/lastmile_qr_scan", "ios": "https://dc.lft.to/lastmile_qr_scan"}, "fusion_lat": 0.0, "is_reserved": 0, "lat": 38.926238166666664, "name": "504c3dc81f1f65f0a5b6cd397a3bc5f4", "bike_id": "504c3dc81f1f65f0a5b6cd397a3bc5f4", "is_disabled": 0, "fusion_lon": 0.0, "type": "electric_scooter", "lon": -77.02226066666667}, {"rental_uris": {"android": "https://dc.lft.to/lastmile_qr_scan", "ios": "https://dc.lft.to/lastmile_qr_scan"}, "fusion_lat": 0.0, "is_reserved": 0, "lat": 38.88719016666667, "name": "601767e296a33ac63289d33d411aac99", "bike_id": "601767e296a33ac63289d33d411aac99", "is_disabled": 0, "fusion_lon": 0.0, "type": "electric_scooter", "lon": -77.021781}, {"rental_uris": {"android": "https://dc.lft.to/lastmile_qr_scan", "ios": "https://dc.lft.to/lastmile_qr_scan"}, "fusion_lat": 0.0, "is_reserved": 0, "lat": 38.8974665, "name": "02c11c6d4f8bf5a5361c8a2ed378f800", "bike_id": "02c11c6d4f8bf5a5361c8a2ed378f800", "is_disabled": 0, "fusion_lon": 0.0, "type": "electric_scooter", "lon": -77.0075105}, {"rental_uris": {"android": "https://dc.lft.to/lastmile_qr_scan", "ios": "https://dc.lft.to/lastmile_qr_scan"}, "fusion_lat": 0.0, "is_reserved": 0, "lat": 38.9337895, "name": "30630d2df3e079686196d2d931792628", "bike_id": "30630d2df3e079686196d2d931792628", "is_disabled": 0, "fusion_lon": 0.0, "type": "electric_scooter", "lon": -77.0324885}, {"rental_uris": {"android": "https://dc.lft.to/lastmile_qr_scan", "ios": "https://dc.lft.to/lastmile_qr_scan"}, "fusion_lat": 0.0, "is_reserved": 0, "lat": 38.907189333333335, "name": "73f23772c7c8104a6a68061169630b77", "bike_id": "73f23772c7c8104a6a68061169630b77", "is_disabled": 0, "fusion_lon": 0.0, "type": "electric_scooter", "lon": -77.02797333333334}, {"rental_uris": {"android": "https://dc.lft.to/lastmile_qr_scan", "ios": "https://dc.lft.to/lastmile_qr_scan"}, "fusion_lat": 0.0, "is_reserved": 0, "lat": 38.935560833333334, "name": "c2348fae59288b437d29f4ebccec212f", "bike_id": "c2348fae59288b437d29f4ebccec212f", "is_disabled": 0, "fusion_lon": 0.0, "type": "electric_scooter", "lon": -77.07464866666666}, {"rental_uris": {"android": "https://dc.lft.to/lastmile_qr_scan", "ios": "https://dc.lft.to/lastmile_qr_scan"}, "fusion_lat": 0.0, "is_reserved": 0, "lat": 38.91531883333333, "name": "92a804aac55f9c8f8af8d6cfd938c3f4", "bike_id": "92a804aac55f9c8f8af8d6cfd938c3f4", "is_disabled": 0, "fusion_lon": 0.0, "type": "electric_scooter", "lon": -77.03186166666667}, {"rental_uris": {"android": "https://dc.lft.to/lastmile_qr_scan", "ios": "https://dc.lft.to/lastmile_qr_scan"}, "fusion_lat": 0.0, "is_reserved": 0, "lat": 38.924707, "name": "0be5efa541202f870f981d2415ab6979", "bike_id": "0be5efa541202f870f981d2415ab6979", "is_disabled": 0, "fusion_lon": 0.0, "type": "electric_scooter", "lon": -77.02221983333334}, {"rental_uris": {"android": "https://dc.lft.to/lastmile_qr_scan", "ios": "https://dc.lft.to/lastmile_qr_scan"}, "fusion_lat": 0.0, "is_reserved": 0, "lat": 38.835836666666665, "name": "6fad3943b3dba97ad4ebd7c5dd58fd07", "bike_id": "6fad3943b3dba97ad4ebd7c5dd58fd07", "is_disabled": 0, "fusion_lon": 0.0, "type": "electric_bike", "lon": -76.990279}, {"rental_uris": {"android": "https://dc.lft.to/lastmile_qr_scan", "ios": "https://dc.lft.to/lastmile_qr_scan"}, "fusion_lat": 0.0, "is_reserved": 0, "lat": 38.89332483333333, "name": "f9ce88f45505ef8c85ddf021f46d40c2", "bike_id": "f9ce88f45505ef8c85ddf021f46d40c2", "is_disabled": 0, "fusion_lon": 0.0, "type": "electric_scooter", "lon": -77.04869333333333}, {"rental_uris": {"android": "https://dc.lft.to/lastmile_qr_scan", "ios": "https://dc.lft.to/lastmile_qr_scan"}, "fusion_lat": 0.0, "is_reserved": 0, "lat": 38.897334, "name": "af264e7c146df94c7998abee9dd42490", "bike_id": "af264e7c146df94c7998abee9dd42490", "is_disabled": 0, "fusion_lon": 0.0, "type": "electric_scooter", "lon": -77.02607683333333}, {"rental_uris": {"android": "https://dc.lft.to/lastmile_qr_scan", "ios": "https://dc.lft.to/lastmile_qr_scan"}, "fusion_lat": 0.0, "is_reserved": 0, "lat": 38.881947, "name": "c137242e715ea050a11950bb2eab9247", "bike_id": "c137242e715ea050a11950bb2eab9247", "is_disabled": 0, "fusion_lon": 0.0, "type": "electric_scooter", "lon": -76.9891225}, {"rental_uris": {"android": "https://dc.lft.to/lastmile_qr_scan", "ios": "https://dc.lft.to/lastmile_qr_scan"}, "fusion_lat": 0.0, "is_reserved": 0, "lat": 38.9236325, "name": "6f7b6ba39e182082ab3ca5e56d486eb8", "bike_id": "6f7b6ba39e182082ab3ca5e56d486eb8", "is_disabled": 0, "fusion_lon": 0.0, "type": "electric_scooter", "lon": -77.050306}, {"rental_uris": {"android": "https://dc.lft.to/lastmile_qr_scan", "ios": "https://dc.lft.to/lastmile_qr_scan"}, "fusion_lat": 0.0, "is_reserved": 0, "lat": 38.89956883333333, "name": "00cd9e1b4bfe4f95312761700ea35e13", "bike_id": "00cd9e1b4bfe4f95312761700ea35e13", "is_disabled": 0, "fusion_lon": 0.0, "type": "electric_scooter", "lon": -77.0259345}, {"rental_uris": {"android": "https://dc.lft.to/lastmile_qr_scan", "ios": "https://dc.lft.to/lastmile_qr_scan"}, "fusion_lat": 0.0, "is_reserved": 0, "lat": 38.89530283333333, "name": "7a432f3c1d1f12b4e9a3526a37205430", "bike_id": "7a432f3c1d1f12b4e9a3526a37205430", "is_disabled": 0, "fusion_lon": 0.0, "type": "electric_scooter", "lon": -76.948865}, {"rental_uris": {"android": "https://dc.lft.to/lastmile_qr_scan", "ios": "https://dc.lft.to/lastmile_qr_scan"}, "fusion_lat": 0.0, "is_reserved": 0, "lat": 38.89821383333334, "name": "b5fd9d5d6bd7b227b5b610ba90bf01ba", "bike_id": "b5fd9d5d6bd7b227b5b610ba90bf01ba", "is_disabled": 0, "fusion_lon": 0.0, "type": "electric_scooter", "lon": -76.930066}, {"rental_uris": {"android": "https://dc.lft.to/lastmile_qr_scan", "ios": "https://dc.lft.to/lastmile_qr_scan"}, "fusion_lat": 0.0, "is_reserved": 0, "lat": 38.916000333333336, "name": "1521e81852c818d2d955dcf39e065737", "bike_id": "1521e81852c818d2d955dcf39e065737", "is_disabled": 0, "fusion_lon": 0.0, "type": "electric_scooter", "lon": -77.0257795}, {"rental_uris": {"android": "https://dc.lft.to/lastmile_qr_scan", "ios": "https://dc.lft.to/lastmile_qr_scan"}, "fusion_lat": 0.0, "is_reserved": 0, "lat": 38.89220916666667, "name": "e8a51ca7e6a4f6b85ff9fbb2c35e1f4f", "bike_id": "e8a51ca7e6a4f6b85ff9fbb2c35e1f4f", "is_disabled": 0, "fusion_lon": 0.0, "type": "electric_scooter", "lon": -77.0399515}, {"rental_uris": {"android": "https://dc.lft.to/lastmile_qr_scan", "ios": "https://dc.lft.to/lastmile_qr_scan"}, "fusion_lat": 0.0, "is_reserved": 0, "lat": 38.9194, "name": "320e9726c71ae0c1b72a3bf07c1fb8ee", "bike_id": "320e9726c71ae0c1b72a3bf07c1fb8ee", "is_disabled": 0, "fusion_lon": 0.0, "type": "electric_scooter", "lon": -77.04893466666667}, {"rental_uris": {"android": "https://dc.lft.to/lastmile_qr_scan", "ios": "https://dc.lft.to/lastmile_qr_scan"}, "fusion_lat": 0.0, "is_reserved": 0, "lat": 38.8522275, "name": "aec8ad4c2496c4a20c63c32a73f022b2", "bike_id": "aec8ad4c2496c4a20c63c32a73f022b2", "is_disabled": 0, "fusion_lon": 0.0, "type": "electric_scooter", "lon": -76.99425966666666}, {"rental_uris": {"android": "https://dc.lft.to/lastmile_qr_scan", "ios": "https://dc.lft.to/lastmile_qr_scan"}, "fusion_lat": 0.0, "is_reserved": 0, "lat": 38.923795166666665, "name": "d7e73ffe23af507ebb6dd0ec2eeae16f", "bike_id": "d7e73ffe23af507ebb6dd0ec2eeae16f", "is_disabled": 0, "fusion_lon": 0.0, "type": "electric_scooter", "lon": -77.026817}, {"rental_uris": {"android": "https://dc.lft.to/lastmile_qr_scan", "ios": "https://dc.lft.to/lastmile_qr_scan"}, "fusion_lat": 0.0, "is_reserved": 0, "lat": 38.89906633333333, "name": "5837fb0be201b8ae9e925102d6fb307c", "bike_id": "5837fb0be201b8ae9e925102d6fb307c", "is_disabled": 0, "fusion_lon": 0.0, "type": "electric_scooter", "lon": -76.9857565}, {"rental_uris": {"android": "https://dc.lft.to/lastmile_qr_scan", "ios": "https://dc.lft.to/lastmile_qr_scan"}, "fusion_lat": 0.0, "is_reserved": 0, "lat": 38.8763795, "name": "e32ef1209c3c7b3a242d00c954b46caa", "bike_id": "e32ef1209c3c7b3a242d00c954b46caa", "is_disabled": 0, "fusion_lon": 0.0, "type": "electric_scooter", "lon": -77.00046083333334}, {"rental_uris": {"android": "https://dc.lft.to/lastmile_qr_scan", "ios": "https://dc.lft.to/lastmile_qr_scan"}, "fusion_lat": 0.0, "is_reserved": 0, "lat": 38.9208005, "name": "1b368be3ac73c0e4b7f333d3a0596e4d", "bike_id": "1b368be3ac73c0e4b7f333d3a0596e4d", "is_disabled": 0, "fusion_lon": 0.0, "type": "electric_scooter", "lon": -77.02423733333333}, {"rental_uris": {"android": "https://dc.lft.to/lastmile_qr_scan", "ios": "https://dc.lft.to/lastmile_qr_scan"}, "fusion_lat": 0.0, "is_reserved": 0, "lat": 38.925192, "name": "aafe9b25ec3b315c47ebf25278216417", "bike_id": "aafe9b25ec3b315c47ebf25278216417", "is_disabled": 0, "fusion_lon": 0.0, "type": "electric_scooter", "lon": -77.0297885}, {"rental_uris": {"android": "https://dc.lft.to/lastmile_qr_scan", "ios": "https://dc.lft.to/lastmile_qr_scan"}, "fusion_lat": 0.0, "is_reserved": 0, "lat": 38.9015165, "name": "a1c618e0d33cdc0b9ca30407ea8fce27", "bike_id": "a1c618e0d33cdc0b9ca30407ea8fce27", "is_disabled": 0, "fusion_lon": 0.0, "type": "electric_scooter", "lon": -76.9213105}, {"rental_uris": {"android": "https://dc.lft.to/lastmile_qr_scan", "ios": "https://dc.lft.to/lastmile_qr_scan"}, "fusion_lat": 0.0, "is_reserved": 0, "lat": 38.93616183333334, "name": "8d33fd82a1e6547cc49313cbe7077eea", "bike_id": "8d33fd82a1e6547cc49313cbe7077eea", "is_disabled": 0, "fusion_lon": 0.0, "type": "electric_scooter", "lon": -77.03222816666667}, {"rental_uris": {"android": "https://dc.lft.to/lastmile_qr_scan", "ios": "https://dc.lft.to/lastmile_qr_scan"}, "fusion_lat": 0.0, "is_reserved": 0, "lat": 38.862499166666666, "name": "70bdf7bc57559372e1dd2aa47e54632f", "bike_id": "70bdf7bc57559372e1dd2aa47e54632f", "is_disabled": 0, "fusion_lon": 0.0, "type": "electric_scooter", "lon": -76.99503183333333}, {"rental_uris": {"android": "https://dc.lft.to/lastmile_qr_scan", "ios": "https://dc.lft.to/lastmile_qr_scan"}, "fusion_lat": 0.0, "is_reserved": 0, "lat": 38.897086, "name": "705b191a8a3d5eaab9c458550291b26f", "bike_id": "705b191a8a3d5eaab9c458550291b26f", "is_disabled": 0, "fusion_lon": 0.0, "type": "electric_scooter", "lon": -77.028125}, {"rental_uris": {"android": "https://dc.lft.to/lastmile_qr_scan", "ios": "https://dc.lft.to/lastmile_qr_scan"}, "fusion_lat": 0.0, "is_reserved": 0, "lat": 38.919834, "name": "d59387feab08206efb89f6de9aacf9da", "bike_id": "d59387feab08206efb89f6de9aacf9da", "is_disabled": 0, "fusion_lon": 0.0, "type": "electric_scooter", "lon": -77.04158116666666}, {"rental_uris": {"android": "https://dc.lft.to/lastmile_qr_scan", "ios": "https://dc.lft.to/lastmile_qr_scan"}, "fusion_lat": 0.0, "is_reserved": 0, "lat": 38.923697833333335, "name": "2c28f5dcd374b550699f849cc94d6778", "bike_id": "2c28f5dcd374b550699f849cc94d6778", "is_disabled": 0, "fusion_lon": 0.0, "type": "electric_scooter", "lon": -77.05026966666667}, {"rental_uris": {"android": "https://dc.lft.to/lastmile_qr_scan", "ios": "https://dc.lft.to/lastmile_qr_scan"}, "fusion_lat": 0.0, "is_reserved": 0, "lat": 38.90027966666667, "name": "64f0c76f5fd6406b50a8909e0263cfb2", "bike_id": "64f0c76f5fd6406b50a8909e0263cfb2", "is_disabled": 0, "fusion_lon": 0.0, "type": "electric_scooter", "lon": -77.01768083333333}, {"rental_uris": {"android": "https://dc.lft.to/lastmile_qr_scan", "ios": "https://dc.lft.to/lastmile_qr_scan"}, "fusion_lat": 0.0, "is_reserved": 0, "lat": 38.9365915, "name": "60002262c1e69efaca43f17f2f66278c", "bike_id": "60002262c1e69efaca43f17f2f66278c", "is_disabled": 0, "fusion_lon": 0.0, "type": "electric_scooter", "lon": -77.03627433333334}, {"rental_uris": {"android": "https://dc.lft.to/lastmile_qr_scan", "ios": "https://dc.lft.to/lastmile_qr_scan"}, "fusion_lat": 0.0, "is_reserved": 0, "lat": 38.90698366666667, "name": "6a5a4c82570a7b284ebae15e666569db", "bike_id": "6a5a4c82570a7b284ebae15e666569db", "is_disabled": 0, "fusion_lon": 0.0, "type": "electric_scooter", "lon": -77.03179233333333}, {"rental_uris": {"android": "https://dc.lft.to/lastmile_qr_scan", "ios": "https://dc.lft.to/lastmile_qr_scan"}, "fusion_lat": 0.0, "is_reserved": 0, "lat": 38.911843166666664, "name": "1ddbe5d18d4fda67a04531d5b6cd7429", "bike_id": "1ddbe5d18d4fda67a04531d5b6cd7429", "is_disabled": 0, "fusion_lon": 0.0, "type": "electric_scooter", "lon": -77.00782233333334}, {"rental_uris": {"android": "https://dc.lft.to/lastmile_qr_scan", "ios": "https://dc.lft.to/lastmile_qr_scan"}, "fusion_lat": 0.0, "is_reserved": 0, "lat": 38.908163333333334, "name": "71b54b01fb40b6c7545f9f2df23556bb", "bike_id": "71b54b01fb40b6c7545f9f2df23556bb", "is_disabled": 0, "fusion_lon": 0.0, "type": "electric_scooter", "lon": -77.06914866666666}, {"rental_uris": {"android": "https://dc.lft.to/lastmile_qr_scan", "ios": "https://dc.lft.to/lastmile_qr_scan"}, "fusion_lat": 0.0, "is_reserved": 0, "lat": 38.956269666666664, "name": "0ee0442f053ea582d0a5c91a60f1304d", "bike_id": "0ee0442f053ea582d0a5c91a60f1304d", "is_disabled": 0, "fusion_lon": 0.0, "type": "electric_scooter", "lon": -77.0243265}, {"rental_uris": {"android": "https://dc.lft.to/lastmile_qr_scan", "ios": "https://dc.lft.to/lastmile_qr_scan"}, "fusion_lat": 0.0, "is_reserved": 0, "lat": 38.867172333333336, "name": "0659290f07e371dac44ad981d8eb72c2", "bike_id": "0659290f07e371dac44ad981d8eb72c2", "is_disabled": 0, "fusion_lon": 0.0, "type": "electric_scooter", "lon": -76.98073733333334}, {"rental_uris": {"android": "https://dc.lft.to/lastmile_qr_scan", "ios": "https://dc.lft.to/lastmile_qr_scan"}, "fusion_lat": 0.0, "is_reserved": 0, "lat": 38.9491865, "name": "be610b501655f9764da4ff4eb7b79d8d", "bike_id": "be610b501655f9764da4ff4eb7b79d8d", "is_disabled": 0, "fusion_lon": 0.0, "type": "electric_bike", "lon": -77.06653866666667}, {"rental_uris": {"android": "https://dc.lft.to/lastmile_qr_scan", "ios": "https://dc.lft.to/lastmile_qr_scan"}, "fusion_lat": 0.0, "is_reserved": 0, "lat": 38.92757733333333, "name": "4ebc8f3721f5df1e8a65cc60c26f711c", "bike_id": "4ebc8f3721f5df1e8a65cc60c26f711c", "is_disabled": 0, "fusion_lon": 0.0, "type": "electric_scooter", "lon": -77.052699}, {"rental_uris": {"android": "https://dc.lft.to/lastmile_qr_scan", "ios": "https://dc.lft.to/lastmile_qr_scan"}, "fusion_lat": 0.0, "is_reserved": 0, "lat": 38.87566116666667, "name": "e7e08a4cfd9ca2d6a26ad77e19b58b6a", "bike_id": "e7e08a4cfd9ca2d6a26ad77e19b58b6a", "is_disabled": 0, "fusion_lon": 0.0, "type": "electric_scooter", "lon": -77.0060045}, {"rental_uris": {"android": "https://dc.lft.to/lastmile_qr_scan", "ios": "https://dc.lft.to/lastmile_qr_scan"}, "fusion_lat": 0.0, "is_reserved": 0, "lat": 38.9022005, "name": "5d4b528ef6eb0440c769edb37b5da4b7", "bike_id": "5d4b528ef6eb0440c769edb37b5da4b7", "is_disabled": 0, "fusion_lon": 0.0, "type": "electric_scooter", "lon": -77.05125283333334}, {"rental_uris": {"android": "https://dc.lft.to/lastmile_qr_scan", "ios": "https://dc.lft.to/lastmile_qr_scan"}, "fusion_lat": 0.0, "is_reserved": 0, "lat": 38.91716783333333, "name": "9d50074ee0b6d793793f583558b3f3cc", "bike_id": "9d50074ee0b6d793793f583558b3f3cc", "is_disabled": 0, "fusion_lon": 0.0, "type": "electric_scooter", "lon": -77.04150983333334}, {"rental_uris": {"android": "https://dc.lft.to/lastmile_qr_scan", "ios": "https://dc.lft.to/lastmile_qr_scan"}, "fusion_lat": 0.0, "is_reserved": 0, "lat": 38.912343166666666, "name": "593e8f73357ffd3518010727e33449e6", "bike_id": "593e8f73357ffd3518010727e33449e6", "is_disabled": 0, "fusion_lon": 0.0, "type": "electric_scooter", "lon": -77.06917916666667}, {"rental_uris": {"android": "https://dc.lft.to/lastmile_qr_scan", "ios": "https://dc.lft.to/lastmile_qr_scan"}, "fusion_lat": 0.0, "is_reserved": 0, "lat": 38.91065866666667, "name": "6fca90f680fadf266dcb4369b3102f9c", "bike_id": "6fca90f680fadf266dcb4369b3102f9c", "is_disabled": 0, "fusion_lon": 0.0, "type": "electric_scooter", "lon": -77.0410085}, {"rental_uris": {"android": "https://dc.lft.to/lastmile_qr_scan", "ios": "https://dc.lft.to/lastmile_qr_scan"}, "fusion_lat": 0.0, "is_reserved": 0, "lat": 38.9385545, "name": "a2f88ca6a2e7350144a497688a42df05", "bike_id": "a2f88ca6a2e7350144a497688a42df05", "is_disabled": 0, "fusion_lon": 0.0, "type": "electric_scooter", "lon": -77.0247635}, {"rental_uris": {"android": "https://dc.lft.to/lastmile_qr_scan", "ios": "https://dc.lft.to/lastmile_qr_scan"}, "fusion_lat": 0.0, "is_reserved": 0, "lat": 38.8853445, "name": "5b9b07f9bddaff8ddc26f5a878b1a2d7", "bike_id": "5b9b07f9bddaff8ddc26f5a878b1a2d7", "is_disabled": 0, "fusion_lon": 0.0, "type": "electric_scooter", "lon": -76.98059966666666}, {"rental_uris": {"android": "https://dc.lft.to/lastmile_qr_scan", "ios": "https://dc.lft.to/lastmile_qr_scan"}, "fusion_lat": 0.0, "is_reserved": 0, "lat": 38.898863666666664, "name": "d4acfa29e484c49603cb41d9c2c57ffc", "bike_id": "d4acfa29e484c49603cb41d9c2c57ffc", "is_disabled": 0, "fusion_lon": 0.0, "type": "electric_scooter", "lon": -77.04570383333333}, {"rental_uris": {"android": "https://dc.lft.to/lastmile_qr_scan", "ios": "https://dc.lft.to/lastmile_qr_scan"}, "fusion_lat": 0.0, "is_reserved": 0, "lat": 38.876192, "name": "f25488ec06e7961481318e405cd3f810", "bike_id": "f25488ec06e7961481318e405cd3f810", "is_disabled": 0, "fusion_lon": 0.0, "type": "electric_scooter", "lon": -77.002949}, {"rental_uris": {"android": "https://dc.lft.to/lastmile_qr_scan", "ios": "https://dc.lft.to/lastmile_qr_scan"}, "fusion_lat": 0.0, "is_reserved": 0, "lat": 38.902192666666664, "name": "3a08770ece84d5290ebfed9dfbda1e84", "bike_id": "3a08770ece84d5290ebfed9dfbda1e84", "is_disabled": 0, "fusion_lon": 0.0, "type": "electric_scooter", "lon": -77.021178}, {"rental_uris": {"android": "https://dc.lft.to/lastmile_qr_scan", "ios": "https://dc.lft.to/lastmile_qr_scan"}, "fusion_lat": 0.0, "is_reserved": 0, "lat": 38.924803833333335, "name": "eab72ccd0c853f430d5aee39e934c1e9", "bike_id": "eab72ccd0c853f430d5aee39e934c1e9", "is_disabled": 0, "fusion_lon": 0.0, "type": "electric_scooter", "lon": -77.03503983333333}, {"rental_uris": {"android": "https://dc.lft.to/lastmile_qr_scan", "ios": "https://dc.lft.to/lastmile_qr_scan"}, "fusion_lat": 0.0, "is_reserved": 0, "lat": 38.8637045, "name": "58859ca75fe5c65f6e8addfc4e1f516e", "bike_id": "58859ca75fe5c65f6e8addfc4e1f516e", "is_disabled": 0, "fusion_lon": 0.0, "type": "electric_scooter", "lon": -76.99060666666666}, {"rental_uris": {"android": "https://dc.lft.to/lastmile_qr_scan", "ios": "https://dc.lft.to/lastmile_qr_scan"}, "fusion_lat": 0.0, "is_reserved": 0, "lat": 38.919640666666666, "name": "3234bb952f0d73e51668952f12dfd594", "bike_id": "3234bb952f0d73e51668952f12dfd594", "is_disabled": 0, "fusion_lon": 0.0, "type": "electric_scooter", "lon": -77.04364416666667}, {"rental_uris": {"android": "https://dc.lft.to/lastmile_qr_scan", "ios": "https://dc.lft.to/lastmile_qr_scan"}, "fusion_lat": 0.0, "is_reserved": 0, "lat": 38.9165695, "name": "b7a8f30d458e7e3201c066edd42c57ea", "bike_id": "b7a8f30d458e7e3201c066edd42c57ea", "is_disabled": 0, "fusion_lon": 0.0, "type": "electric_scooter", "lon": -77.024665}, {"rental_uris": {"android": "https://dc.lft.to/lastmile_qr_scan", "ios": "https://dc.lft.to/lastmile_qr_scan"}, "fusion_lat": 0.0, "is_reserved": 0, "lat": 38.88504316666667, "name": "66802eec09d62f7fdd33b8a2f8507dd4", "bike_id": "66802eec09d62f7fdd33b8a2f8507dd4", "is_disabled": 0, "fusion_lon": 0.0, "type": "electric_scooter", "lon": -77.00221}, {"rental_uris": {"android": "https://dc.lft.to/lastmile_qr_scan", "ios": "https://dc.lft.to/lastmile_qr_scan"}, "fusion_lat": 0.0, "is_reserved": 0, "lat": 38.92438516666667, "name": "e75e8e4355bf94fe6ba303077311eccc", "bike_id": "e75e8e4355bf94fe6ba303077311eccc", "is_disabled": 0, "fusion_lon": 0.0, "type": "electric_scooter", "lon": -76.99661866666666}, {"rental_uris": {"android": "https://dc.lft.to/lastmile_qr_scan", "ios": "https://dc.lft.to/lastmile_qr_scan"}, "fusion_lat": 0.0, "is_reserved": 0, "lat": 38.925024666666665, "name": "e25afddf6afc4c564b994892f04ae564", "bike_id": "e25afddf6afc4c564b994892f04ae564", "is_disabled": 0, "fusion_lon": 0.0, "type": "electric_scooter", "lon": -77.0377305}, {"rental_uris": {"android": "https://dc.lft.to/lastmile_qr_scan", "ios": "https://dc.lft.to/lastmile_qr_scan"}, "fusion_lat": 0.0, "is_reserved": 0, "lat": 38.86281283333334, "name": "bb45611be1cfd67b8457e3944b4a6a0d", "bike_id": "bb45611be1cfd67b8457e3944b4a6a0d", "is_disabled": 0, "fusion_lon": 0.0, "type": "electric_bike", "lon": -76.98012466666667}, {"rental_uris": {"android": "https://dc.lft.to/lastmile_qr_scan", "ios": "https://dc.lft.to/lastmile_qr_scan"}, "fusion_lat": 0.0, "is_reserved": 0, "lat": 38.915466, "name": "5ae661e6a72ad1c860612b1b6c1abcc0", "bike_id": "5ae661e6a72ad1c860612b1b6c1abcc0", "is_disabled": 0, "fusion_lon": 0.0, "type": "electric_scooter", "lon": -77.041718}, {"rental_uris": {"android": "https://dc.lft.to/lastmile_qr_scan", "ios": "https://dc.lft.to/lastmile_qr_scan"}, "fusion_lat": 0.0, "is_reserved": 0, "lat": 38.90725666666667, "name": "e7a91e79b440123bb950287dff21a25f", "bike_id": "e7a91e79b440123bb950287dff21a25f", "is_disabled": 0, "fusion_lon": 0.0, "type": "electric_scooter", "lon": -77.03302816666667}, {"rental_uris": {"android": "https://dc.lft.to/lastmile_qr_scan", "ios": "https://dc.lft.to/lastmile_qr_scan"}, "fusion_lat": 0.0, "is_reserved": 0, "lat": 39.010944333333335, "name": "161d7d68a0ef3aa157031075402268a6", "bike_id": "161d7d68a0ef3aa157031075402268a6", "is_disabled": 0, "fusion_lon": 0.0, "type": "electric_bike", "lon": -77.04956}, {"rental_uris": {"android": "https://dc.lft.to/lastmile_qr_scan", "ios": "https://dc.lft.to/lastmile_qr_scan"}, "fusion_lat": 0.0, "is_reserved": 0, "lat": 38.857871833333334, "name": "3588c04a02ba7081bfab7dbf88e78960", "bike_id": "3588c04a02ba7081bfab7dbf88e78960", "is_disabled": 0, "fusion_lon": 0.0, "type": "electric_bike", "lon": -76.98752116666667}, {"rental_uris": {"android": "https://dc.lft.to/lastmile_qr_scan", "ios": "https://dc.lft.to/lastmile_qr_scan"}, "fusion_lat": 0.0, "is_reserved": 0, "lat": 38.92071716666667, "name": "213d86674dc96f014add4d77994e15c2", "bike_id": "213d86674dc96f014add4d77994e15c2", "is_disabled": 0, "fusion_lon": 0.0, "type": "electric_scooter", "lon": -77.02419816666666}, {"rental_uris": {"android": "https://dc.lft.to/lastmile_qr_scan", "ios": "https://dc.lft.to/lastmile_qr_scan"}, "fusion_lat": 0.0, "is_reserved": 0, "lat": 38.91914883333333, "name": "c383ce5bb000ee5af8421a13f0731479", "bike_id": "c383ce5bb000ee5af8421a13f0731479", "is_disabled": 0, "fusion_lon": 0.0, "type": "electric_scooter", "lon": -77.03177216666667}, {"rental_uris": {"android": "https://dc.lft.to/lastmile_qr_scan", "ios": "https://dc.lft.to/lastmile_qr_scan"}, "fusion_lat": 0.0, "is_reserved": 0, "lat": 38.904201666666665, "name": "02394776d11f05b6d5b13a118dd79c10", "bike_id": "02394776d11f05b6d5b13a118dd79c10", "is_disabled": 0, "fusion_lon": 0.0, "type": "electric_scooter", "lon": -76.98117383333333}, {"rental_uris": {"android": "https://dc.lft.to/lastmile_qr_scan", "ios": "https://dc.lft.to/lastmile_qr_scan"}, "fusion_lat": 0.0, "is_reserved": 0, "lat": 38.9068445, "name": "79b33dfd32e5a49ab5d1283f089139b2", "bike_id": "79b33dfd32e5a49ab5d1283f089139b2", "is_disabled": 0, "fusion_lon": 0.0, "type": "electric_scooter", "lon": -77.01626116666667}, {"rental_uris": {"android": "https://dc.lft.to/lastmile_qr_scan", "ios": "https://dc.lft.to/lastmile_qr_scan"}, "fusion_lat": 0.0, "is_reserved": 0, "lat": 38.90116733333333, "name": "664a493268ca38d296273f6cf074fa49", "bike_id": "664a493268ca38d296273f6cf074fa49", "is_disabled": 0, "fusion_lon": 0.0, "type": "electric_scooter", "lon": -77.03807}, {"rental_uris": {"android": "https://dc.lft.to/lastmile_qr_scan", "ios": "https://dc.lft.to/lastmile_qr_scan"}, "fusion_lat": 0.0, "is_reserved": 0, "lat": 38.90127833333333, "name": "bd9c3aac71cc068ec86a6c0a77b8e85f", "bike_id": "bd9c3aac71cc068ec86a6c0a77b8e85f", "is_disabled": 0, "fusion_lon": 0.0, "type": "electric_scooter", "lon": -77.031705}, {"rental_uris": {"android": "https://dc.lft.to/lastmile_qr_scan", "ios": "https://dc.lft.to/lastmile_qr_scan"}, "fusion_lat": 0.0, "is_reserved": 0, "lat": 38.90730516666667, "name": "e7f67b206730f2db0c54a0e0a89be6f5", "bike_id": "e7f67b206730f2db0c54a0e0a89be6f5", "is_disabled": 0, "fusion_lon": 0.0, "type": "electric_scooter", "lon": -77.00798666666667}, {"rental_uris": {"android": "https://dc.lft.to/lastmile_qr_scan", "ios": "https://dc.lft.to/lastmile_qr_scan"}, "fusion_lat": 0.0, "is_reserved": 0, "lat": 38.90828316666666, "name": "e6b108d3e62792862ba6ae90e5a11e84", "bike_id": "e6b108d3e62792862ba6ae90e5a11e84", "is_disabled": 0, "fusion_lon": 0.0, "type": "electric_bike", "lon": -76.94161466666667}, {"rental_uris": {"android": "https://dc.lft.to/lastmile_qr_scan", "ios": "https://dc.lft.to/lastmile_qr_scan"}, "fusion_lat": 0.0, "is_reserved": 0, "lat": 38.921484166666666, "name": "1af750f7ddfe384712be02b5d74308af", "bike_id": "1af750f7ddfe384712be02b5d74308af", "is_disabled": 0, "fusion_lon": 0.0, "type": "electric_scooter", "lon": -77.033178}, {"rental_uris": {"android": "https://dc.lft.to/lastmile_qr_scan", "ios": "https://dc.lft.to/lastmile_qr_scan"}, "fusion_lat": 0.0, "is_reserved": 0, "lat": 38.89914433333333, "name": "7d9d4cc7163ce1479a11037d1e868f26", "bike_id": "7d9d4cc7163ce1479a11037d1e868f26", "is_disabled": 0, "fusion_lon": 0.0, "type": "electric_scooter", "lon": -77.02707566666666}, {"rental_uris": {"android": "https://dc.lft.to/lastmile_qr_scan", "ios": "https://dc.lft.to/lastmile_qr_scan"}, "fusion_lat": 0.0, "is_reserved": 0, "lat": 38.923198166666666, "name": "c7160c315905bdd3fea1f0523479cab7", "bike_id": "c7160c315905bdd3fea1f0523479cab7", "is_disabled": 0, "fusion_lon": 0.0, "type": "electric_scooter", "lon": -77.04575633333333}, {"rental_uris": {"android": "https://dc.lft.to/lastmile_qr_scan", "ios": "https://dc.lft.to/lastmile_qr_scan"}, "fusion_lat": 0.0, "is_reserved": 0, "lat": 38.918110166666665, "name": "bc4b9cd504ee84046f2592af2398408f", "bike_id": "bc4b9cd504ee84046f2592af2398408f", "is_disabled": 0, "fusion_lon": 0.0, "type": "electric_scooter", "lon": -77.03638316666667}, {"rental_uris": {"android": "https://dc.lft.to/lastmile_qr_scan", "ios": "https://dc.lft.to/lastmile_qr_scan"}, "fusion_lat": 0.0, "is_reserved": 0, "lat": 38.90553666666667, "name": "6e13d1b0a3dd778432f873e3e70b4638", "bike_id": "6e13d1b0a3dd778432f873e3e70b4638", "is_disabled": 0, "fusion_lon": 0.0, "type": "electric_scooter", "lon": -77.04191233333333}, {"rental_uris": {"android": "https://dc.lft.to/lastmile_qr_scan", "ios": "https://dc.lft.to/lastmile_qr_scan"}, "fusion_lat": 0.0, "is_reserved": 0, "lat": 38.89606666666667, "name": "f08d81739257c77101915fae779d19bc", "bike_id": "f08d81739257c77101915fae779d19bc", "is_disabled": 0, "fusion_lon": 0.0, "type": "electric_scooter", "lon": -77.011664}, {"rental_uris": {"android": "https://dc.lft.to/lastmile_qr_scan", "ios": "https://dc.lft.to/lastmile_qr_scan"}, "fusion_lat": 0.0, "is_reserved": 0, "lat": 38.94729366666667, "name": "022cf3d5ccc0a6e55334d2892cd30aae", "bike_id": "022cf3d5ccc0a6e55334d2892cd30aae", "is_disabled": 0, "fusion_lon": 0.0, "type": "electric_scooter", "lon": -77.02460466666666}, {"rental_uris": {"android": "https://dc.lft.to/lastmile_qr_scan", "ios": "https://dc.lft.to/lastmile_qr_scan"}, "fusion_lat": 0.0, "is_reserved": 0, "lat": 38.900628, "name": "2a63a7727e52a610c8b6dc08cf37ce69", "bike_id": "2a63a7727e52a610c8b6dc08cf37ce69", "is_disabled": 0, "fusion_lon": 0.0, "type": "electric_scooter", "lon": -76.92741733333334}, {"rental_uris": {"android": "https://dc.lft.to/lastmile_qr_scan", "ios": "https://dc.lft.to/lastmile_qr_scan"}, "fusion_lat": 0.0, "is_reserved": 0, "lat": 38.9206205, "name": "1d0768738948aafab4196f30db7b59ec", "bike_id": "1d0768738948aafab4196f30db7b59ec", "is_disabled": 0, "fusion_lon": 0.0, "type": "electric_scooter", "lon": -77.02992733333333}, {"rental_uris": {"android": "https://dc.lft.to/lastmile_qr_scan", "ios": "https://dc.lft.to/lastmile_qr_scan"}, "fusion_lat": 0.0, "is_reserved": 0, "lat": 38.948229166666664, "name": "3cd059a7b748c85ecd9e3729e66cd8ad", "bike_id": "3cd059a7b748c85ecd9e3729e66cd8ad", "is_disabled": 0, "fusion_lon": 0.0, "type": "electric_bike", "lon": -77.0063405}, {"rental_uris": {"android": "https://dc.lft.to/lastmile_qr_scan", "ios": "https://dc.lft.to/lastmile_qr_scan"}, "fusion_lat": 0.0, "is_reserved": 0, "lat": 38.87633133333333, "name": "80d64662a6965d917954434a424db514", "bike_id": "80d64662a6965d917954434a424db514", "is_disabled": 0, "fusion_lon": 0.0, "type": "electric_scooter", "lon": -77.01661683333333}, {"rental_uris": {"android": "https://dc.lft.to/lastmile_qr_scan", "ios": "https://dc.lft.to/lastmile_qr_scan"}, "fusion_lat": 0.0, "is_reserved": 0, "lat": 38.90509866666667, "name": "805ca41f9064b7db4bee7f531876a5f0", "bike_id": "805ca41f9064b7db4bee7f531876a5f0", "is_disabled": 0, "fusion_lon": 0.0, "type": "electric_scooter", "lon": -77.05120866666667}, {"rental_uris": {"android": "https://dc.lft.to/lastmile_qr_scan", "ios": "https://dc.lft.to/lastmile_qr_scan"}, "fusion_lat": 0.0, "is_reserved": 0, "lat": 38.882592, "name": "e0dadcedb2fcf3cabae5edd5a2c8988e", "bike_id": "e0dadcedb2fcf3cabae5edd5a2c8988e", "is_disabled": 0, "fusion_lon": 0.0, "type": "electric_scooter", "lon": -76.99192183333334}, {"rental_uris": {"android": "https://dc.lft.to/lastmile_qr_scan", "ios": "https://dc.lft.to/lastmile_qr_scan"}, "fusion_lat": 0.0, "is_reserved": 0, "lat": 38.9269185, "name": "26da3f96bf72b79f2f4cec318c18eda7", "bike_id": "26da3f96bf72b79f2f4cec318c18eda7", "is_disabled": 0, "fusion_lon": 0.0, "type": "electric_scooter", "lon": -77.020555}, {"rental_uris": {"android": "https://dc.lft.to/lastmile_qr_scan", "ios": "https://dc.lft.to/lastmile_qr_scan"}, "fusion_lat": 0.0, "is_reserved": 0, "lat": 38.918417166666664, "name": "49f7f82c6cc39b48a91856f8b89fe1a1", "bike_id": "49f7f82c6cc39b48a91856f8b89fe1a1", "is_disabled": 0, "fusion_lon": 0.0, "type": "electric_scooter", "lon": -76.965371}, {"rental_uris": {"android": "https://dc.lft.to/lastmile_qr_scan", "ios": "https://dc.lft.to/lastmile_qr_scan"}, "fusion_lat": 0.0, "is_reserved": 0, "lat": 38.88245283333333, "name": "1a3fefb5876f371bf3ae2c582ec04671", "bike_id": "1a3fefb5876f371bf3ae2c582ec04671", "is_disabled": 0, "fusion_lon": 0.0, "type": "electric_bike", "lon": -76.96261}, {"rental_uris": {"android": "https://dc.lft.to/lastmile_qr_scan", "ios": "https://dc.lft.to/lastmile_qr_scan"}, "fusion_lat": 0.0, "is_reserved": 0, "lat": 38.966478, "name": "609b7efc369b096504933fbf43a57e18", "bike_id": "609b7efc369b096504933fbf43a57e18", "is_disabled": 0, "fusion_lon": 0.0, "type": "electric_scooter", "lon": -77.0089385}, {"rental_uris": {"android": "https://dc.lft.to/lastmile_qr_scan", "ios": "https://dc.lft.to/lastmile_qr_scan"}, "fusion_lat": 0.0, "is_reserved": 0, "lat": 38.93113483333333, "name": "edb417385c13c3bf9c2f80e9c39bfa8d", "bike_id": "edb417385c13c3bf9c2f80e9c39bfa8d", "is_disabled": 0, "fusion_lon": 0.0, "type": "electric_scooter", "lon": -77.03027416666667}, {"rental_uris": {"android": "https://dc.lft.to/lastmile_qr_scan", "ios": "https://dc.lft.to/lastmile_qr_scan"}, "fusion_lat": 0.0, "is_reserved": 0, "lat": 38.905747, "name": "b9fe29c449da4b66aca7766ebeb9c670", "bike_id": "b9fe29c449da4b66aca7766ebeb9c670", "is_disabled": 0, "fusion_lon": 0.0, "type": "electric_scooter", "lon": -77.0069165}, {"rental_uris": {"android": "https://dc.lft.to/lastmile_qr_scan", "ios": "https://dc.lft.to/lastmile_qr_scan"}, "fusion_lat": 0.0, "is_reserved": 0, "lat": 38.91785483333334, "name": "923e2a6a5e895bab6a5c415ace886822", "bike_id": "923e2a6a5e895bab6a5c415ace886822", "is_disabled": 0, "fusion_lon": 0.0, "type": "electric_scooter", "lon": -77.02318566666666}, {"rental_uris": {"android": "https://dc.lft.to/lastmile_qr_scan", "ios": "https://dc.lft.to/lastmile_qr_scan"}, "fusion_lat": 0.0, "is_reserved": 0, "lat": 38.91867283333333, "name": "004c5ae5d6b7f739ea17a98df6b8ba3a", "bike_id": "004c5ae5d6b7f739ea17a98df6b8ba3a", "is_disabled": 0, "fusion_lon": 0.0, "type": "electric_scooter", "lon": -77.01351416666667}, {"rental_uris": {"android": "https://dc.lft.to/lastmile_qr_scan", "ios": "https://dc.lft.to/lastmile_qr_scan"}, "fusion_lat": 0.0, "is_reserved": 0, "lat": 38.94191566666667, "name": "b0d2e657de8b5e723857b15bdcbb3f64", "bike_id": "b0d2e657de8b5e723857b15bdcbb3f64", "is_disabled": 0, "fusion_lon": 0.0, "type": "electric_scooter", "lon": -77.02480566666667}, {"rental_uris": {"android": "https://dc.lft.to/lastmile_qr_scan", "ios": "https://dc.lft.to/lastmile_qr_scan"}, "fusion_lat": 0.0, "is_reserved": 0, "lat": 38.91569583333333, "name": "3b64216d6e93b57c8e8b715c034adf3e", "bike_id": "3b64216d6e93b57c8e8b715c034adf3e", "is_disabled": 0, "fusion_lon": 0.0, "type": "electric_scooter", "lon": -77.02287083333333}, {"rental_uris": {"android": "https://dc.lft.to/lastmile_qr_scan", "ios": "https://dc.lft.to/lastmile_qr_scan"}, "fusion_lat": 0.0, "is_reserved": 0, "lat": 38.920801166666664, "name": "54076afd067b84424388f57b475245e8", "bike_id": "54076afd067b84424388f57b475245e8", "is_disabled": 0, "fusion_lon": 0.0, "type": "electric_scooter", "lon": -77.02509933333333}, {"rental_uris": {"android": "https://dc.lft.to/lastmile_qr_scan", "ios": "https://dc.lft.to/lastmile_qr_scan"}, "fusion_lat": 0.0, "is_reserved": 0, "lat": 38.94373516666667, "name": "8b37f30d4ab44f99a7631984461522f9", "bike_id": "8b37f30d4ab44f99a7631984461522f9", "is_disabled": 0, "fusion_lon": 0.0, "type": "electric_scooter", "lon": -77.06113533333334}, {"rental_uris": {"android": "https://dc.lft.to/lastmile_qr_scan", "ios": "https://dc.lft.to/lastmile_qr_scan"}, "fusion_lat": 0.0, "is_reserved": 0, "lat": 38.91680566666667, "name": "af5d10b35afa86b7e291382a8fabad7f", "bike_id": "af5d10b35afa86b7e291382a8fabad7f", "is_disabled": 0, "fusion_lon": 0.0, "type": "electric_scooter", "lon": -77.04140583333333}, {"rental_uris": {"android": "https://dc.lft.to/lastmile_qr_scan", "ios": "https://dc.lft.to/lastmile_qr_scan"}, "fusion_lat": 0.0, "is_reserved": 0, "lat": 38.897225, "name": "93fff47ff030a65e5cfd0ef7898442c1", "bike_id": "93fff47ff030a65e5cfd0ef7898442c1", "is_disabled": 0, "fusion_lon": 0.0, "type": "electric_scooter", "lon": -77.024893}, {"rental_uris": {"android": "https://dc.lft.to/lastmile_qr_scan", "ios": "https://dc.lft.to/lastmile_qr_scan"}, "fusion_lat": 0.0, "is_reserved": 0, "lat": 38.91245516666667, "name": "cd28c7e99057007ac4a8f9ab24e2452b", "bike_id": "cd28c7e99057007ac4a8f9ab24e2452b", "is_disabled": 0, "fusion_lon": 0.0, "type": "electric_scooter", "lon": -77.03863316666667}, {"rental_uris": {"android": "https://dc.lft.to/lastmile_qr_scan", "ios": "https://dc.lft.to/lastmile_qr_scan"}, "fusion_lat": 0.0, "is_reserved": 0, "lat": 38.9441555, "name": "09d5bd7030091ce5176e35d20772dad0", "bike_id": "09d5bd7030091ce5176e35d20772dad0", "is_disabled": 0, "fusion_lon": 0.0, "type": "electric_scooter", "lon": -77.06324733333334}, {"rental_uris": {"android": "https://dc.lft.to/lastmile_qr_scan", "ios": "https://dc.lft.to/lastmile_qr_scan"}, "fusion_lat": 0.0, "is_reserved": 0, "lat": 38.883486, "name": "66adbca2447e113f3624c7935c397ab5", "bike_id": "66adbca2447e113f3624c7935c397ab5", "is_disabled": 0, "fusion_lon": 0.0, "type": "electric_scooter", "lon": -76.99266583333333}, {"rental_uris": {"android": "https://dc.lft.to/lastmile_qr_scan", "ios": "https://dc.lft.to/lastmile_qr_scan"}, "fusion_lat": 0.0, "is_reserved": 0, "lat": 38.90301016666667, "name": "32a8f57d4f38227036437558ec8a9f3a", "bike_id": "32a8f57d4f38227036437558ec8a9f3a", "is_disabled": 0, "fusion_lon": 0.0, "type": "electric_scooter", "lon": -77.05804933333333}, {"rental_uris": {"android": "https://dc.lft.to/lastmile_qr_scan", "ios": "https://dc.lft.to/lastmile_qr_scan"}, "fusion_lat": 0.0, "is_reserved": 0, "lat": 38.9112635, "name": "ba5ce3615a8ef72c2a66d8a5c7536f96", "bike_id": "ba5ce3615a8ef72c2a66d8a5c7536f96", "is_disabled": 0, "fusion_lon": 0.0, "type": "electric_scooter", "lon": -77.0220215}, {"rental_uris": {"android": "https://dc.lft.to/lastmile_qr_scan", "ios": "https://dc.lft.to/lastmile_qr_scan"}, "fusion_lat": 0.0, "is_reserved": 0, "lat": 38.857087, "name": "2899fc6703e4fb8d3f01a118e545d09a", "bike_id": "2899fc6703e4fb8d3f01a118e545d09a", "is_disabled": 0, "fusion_lon": 0.0, "type": "electric_scooter", "lon": -76.98214383333334}, {"rental_uris": {"android": "https://dc.lft.to/lastmile_qr_scan", "ios": "https://dc.lft.to/lastmile_qr_scan"}, "fusion_lat": 0.0, "is_reserved": 0, "lat": 38.923314500000004, "name": "28ee415290f673d7a6a72af11fb5da32", "bike_id": "28ee415290f673d7a6a72af11fb5da32", "is_disabled": 0, "fusion_lon": 0.0, "type": "electric_scooter", "lon": -77.0354525}, {"rental_uris": {"android": "https://dc.lft.to/lastmile_qr_scan", "ios": "https://dc.lft.to/lastmile_qr_scan"}, "fusion_lat": 0.0, "is_reserved": 0, "lat": 38.92221333333333, "name": "a02430e58787188090f06ad2e9efdd26", "bike_id": "a02430e58787188090f06ad2e9efdd26", "is_disabled": 0, "fusion_lon": 0.0, "type": "electric_scooter", "lon": -77.043445}, {"rental_uris": {"android": "https://dc.lft.to/lastmile_qr_scan", "ios": "https://dc.lft.to/lastmile_qr_scan"}, "fusion_lat": 0.0, "is_reserved": 0, "lat": 38.89863666666667, "name": "cb5aa884ea0ea00c753f4baf78e9024a", "bike_id": "cb5aa884ea0ea00c753f4baf78e9024a", "is_disabled": 0, "fusion_lon": 0.0, "type": "electric_scooter", "lon": -76.94679783333333}, {"rental_uris": {"android": "https://dc.lft.to/lastmile_qr_scan", "ios": "https://dc.lft.to/lastmile_qr_scan"}, "fusion_lat": 0.0, "is_reserved": 0, "lat": 38.87071483333333, "name": "13c4f653f2aa69b6bc4a712c060c263b", "bike_id": "13c4f653f2aa69b6bc4a712c060c263b", "is_disabled": 0, "fusion_lon": 0.0, "type": "electric_scooter", "lon": -76.97910583333334}, {"rental_uris": {"android": "https://dc.lft.to/lastmile_qr_scan", "ios": "https://dc.lft.to/lastmile_qr_scan"}, "fusion_lat": 0.0, "is_reserved": 0, "lat": 38.9202905, "name": "ea39da5f577696a2ae5726391edcac6a", "bike_id": "ea39da5f577696a2ae5726391edcac6a", "is_disabled": 0, "fusion_lon": 0.0, "type": "electric_scooter", "lon": -77.048153}, {"rental_uris": {"android": "https://dc.lft.to/lastmile_qr_scan", "ios": "https://dc.lft.to/lastmile_qr_scan"}, "fusion_lat": 0.0, "is_reserved": 0, "lat": 38.919827, "name": "4cb07071d8fbb4c39d3ae1b771ac20a1", "bike_id": "4cb07071d8fbb4c39d3ae1b771ac20a1", "is_disabled": 0, "fusion_lon": 0.0, "type": "electric_scooter", "lon": -77.0330695}, {"rental_uris": {"android": "https://dc.lft.to/lastmile_qr_scan", "ios": "https://dc.lft.to/lastmile_qr_scan"}, "fusion_lat": 0.0, "is_reserved": 0, "lat": 38.88113083333333, "name": "89509dc30c00901851805728fb80dc06", "bike_id": "89509dc30c00901851805728fb80dc06", "is_disabled": 0, "fusion_lon": 0.0, "type": "electric_bike", "lon": -77.01676866666666}, {"rental_uris": {"android": "https://dc.lft.to/lastmile_qr_scan", "ios": "https://dc.lft.to/lastmile_qr_scan"}, "fusion_lat": 0.0, "is_reserved": 0, "lat": 38.883635166666664, "name": "609f02406a3eaf2d3e458c0e1005de23", "bike_id": "609f02406a3eaf2d3e458c0e1005de23", "is_disabled": 0, "fusion_lon": 0.0, "type": "electric_scooter", "lon": -76.98824833333333}, {"rental_uris": {"android": "https://dc.lft.to/lastmile_qr_scan", "ios": "https://dc.lft.to/lastmile_qr_scan"}, "fusion_lat": 0.0, "is_reserved": 0, "lat": 38.95094366666667, "name": "a06a3285d605a33715ce13badac54db5", "bike_id": "a06a3285d605a33715ce13badac54db5", "is_disabled": 0, "fusion_lon": 0.0, "type": "electric_scooter", "lon": -77.029614}, {"rental_uris": {"android": "https://dc.lft.to/lastmile_qr_scan", "ios": "https://dc.lft.to/lastmile_qr_scan"}, "fusion_lat": 0.0, "is_reserved": 0, "lat": 38.928666666666665, "name": "b9ef5e7c5f1b90758c4ed86e1755197c", "bike_id": "b9ef5e7c5f1b90758c4ed86e1755197c", "is_disabled": 0, "fusion_lon": 0.0, "type": "electric_scooter", "lon": -77.021766}, {"rental_uris": {"android": "https://dc.lft.to/lastmile_qr_scan", "ios": "https://dc.lft.to/lastmile_qr_scan"}, "fusion_lat": 0.0, "is_reserved": 0, "lat": 38.9376205, "name": "95e58d903dc970ffcbf0fe447818f67e", "bike_id": "95e58d903dc970ffcbf0fe447818f67e", "is_disabled": 0, "fusion_lon": 0.0, "type": "electric_scooter", "lon": -77.02464883333333}, {"rental_uris": {"android": "https://dc.lft.to/lastmile_qr_scan", "ios": "https://dc.lft.to/lastmile_qr_scan"}, "fusion_lat": 0.0, "is_reserved": 0, "lat": 38.90133433333333, "name": "93f8550dd59ea7ff8a1eeb740d0a0637", "bike_id": "93f8550dd59ea7ff8a1eeb740d0a0637", "is_disabled": 0, "fusion_lon": 0.0, "type": "electric_scooter", "lon": -76.989654}, {"rental_uris": {"android": "https://dc.lft.to/lastmile_qr_scan", "ios": "https://dc.lft.to/lastmile_qr_scan"}, "fusion_lat": 0.0, "is_reserved": 0, "lat": 38.905713666666664, "name": "f64e7e548789d337d228b14f8fcc55b1", "bike_id": "f64e7e548789d337d228b14f8fcc55b1", "is_disabled": 0, "fusion_lon": 0.0, "type": "electric_scooter", "lon": -77.007888}, {"rental_uris": {"android": "https://dc.lft.to/lastmile_qr_scan", "ios": "https://dc.lft.to/lastmile_qr_scan"}, "fusion_lat": 0.0, "is_reserved": 0, "lat": 38.912170333333336, "name": "d3f222399c89e14baed7fcd681c94ff9", "bike_id": "d3f222399c89e14baed7fcd681c94ff9", "is_disabled": 0, "fusion_lon": 0.0, "type": "electric_scooter", "lon": -77.06408116666667}, {"rental_uris": {"android": "https://dc.lft.to/lastmile_qr_scan", "ios": "https://dc.lft.to/lastmile_qr_scan"}, "fusion_lat": 0.0, "is_reserved": 0, "lat": 38.913027, "name": "68ab917c5586ff749bab8363b3c8b107", "bike_id": "68ab917c5586ff749bab8363b3c8b107", "is_disabled": 0, "fusion_lon": 0.0, "type": "electric_scooter", "lon": -77.0432995}, {"rental_uris": {"android": "https://dc.lft.to/lastmile_qr_scan", "ios": "https://dc.lft.to/lastmile_qr_scan"}, "fusion_lat": 0.0, "is_reserved": 0, "lat": 38.933834833333336, "name": "bbb4cc8e6b68d7e833611412f89ee49b", "bike_id": "bbb4cc8e6b68d7e833611412f89ee49b", "is_disabled": 0, "fusion_lon": 0.0, "type": "electric_scooter", "lon": -77.02406683333334}, {"rental_uris": {"android": "https://dc.lft.to/lastmile_qr_scan", "ios": "https://dc.lft.to/lastmile_qr_scan"}, "fusion_lat": 0.0, "is_reserved": 0, "lat": 38.92670733333333, "name": "68b8ad116a1bb239be1df734f3524d73", "bike_id": "68b8ad116a1bb239be1df734f3524d73", "is_disabled": 0, "fusion_lon": 0.0, "type": "electric_scooter", "lon": -77.03802583333334}, {"rental_uris": {"android": "https://dc.lft.to/lastmile_qr_scan", "ios": "https://dc.lft.to/lastmile_qr_scan"}, "fusion_lat": 0.0, "is_reserved": 0, "lat": 38.90373433333333, "name": "1008a1553a6ffffa633796c06544f8bb", "bike_id": "1008a1553a6ffffa633796c06544f8bb", "is_disabled": 0, "fusion_lon": 0.0, "type": "electric_scooter", "lon": -76.9848865}, {"rental_uris": {"android": "https://dc.lft.to/lastmile_qr_scan", "ios": "https://dc.lft.to/lastmile_qr_scan"}, "fusion_lat": 0.0, "is_reserved": 0, "lat": 38.90158066666667, "name": "133c35278fa1e1e9de456ccff8fb3b36", "bike_id": "133c35278fa1e1e9de456ccff8fb3b36", "is_disabled": 0, "fusion_lon": 0.0, "type": "electric_scooter", "lon": -77.03173383333333}, {"rental_uris": {"android": "https://dc.lft.to/lastmile_qr_scan", "ios": "https://dc.lft.to/lastmile_qr_scan"}, "fusion_lat": 0.0, "is_reserved": 0, "lat": 38.922012, "name": "d7a9ffe663926197c864325bc4b330b2", "bike_id": "d7a9ffe663926197c864325bc4b330b2", "is_disabled": 0, "fusion_lon": 0.0, "type": "electric_scooter", "lon": -77.0203395}, {"rental_uris": {"android": "https://dc.lft.to/lastmile_qr_scan", "ios": "https://dc.lft.to/lastmile_qr_scan"}, "fusion_lat": 0.0, "is_reserved": 0, "lat": 38.926699666666664, "name": "934def59895e9cb67336e274c6309af8", "bike_id": "934def59895e9cb67336e274c6309af8", "is_disabled": 0, "fusion_lon": 0.0, "type": "electric_scooter", "lon": -77.02875416666667}, {"rental_uris": {"android": "https://dc.lft.to/lastmile_qr_scan", "ios": "https://dc.lft.to/lastmile_qr_scan"}, "fusion_lat": 0.0, "is_reserved": 0, "lat": 38.9238225, "name": "f4f81458e09785c9c27e65b74d288f00", "bike_id": "f4f81458e09785c9c27e65b74d288f00", "is_disabled": 0, "fusion_lon": 0.0, "type": "electric_scooter", "lon": -77.03657183333333}, {"rental_uris": {"android": "https://dc.lft.to/lastmile_qr_scan", "ios": "https://dc.lft.to/lastmile_qr_scan"}, "fusion_lat": 0.0, "is_reserved": 0, "lat": 38.923426666666664, "name": "fe32f3971b1c6efd37c092d3e3ac7606", "bike_id": "fe32f3971b1c6efd37c092d3e3ac7606", "is_disabled": 0, "fusion_lon": 0.0, "type": "electric_scooter", "lon": -77.035538}, {"rental_uris": {"android": "https://dc.lft.to/lastmile_qr_scan", "ios": "https://dc.lft.to/lastmile_qr_scan"}, "fusion_lat": 0.0, "is_reserved": 0, "lat": 38.900272333333334, "name": "0ebd3daa08049b0d113c8bc03023a915", "bike_id": "0ebd3daa08049b0d113c8bc03023a915", "is_disabled": 0, "fusion_lon": 0.0, "type": "electric_scooter", "lon": -77.01623883333333}, {"rental_uris": {"android": "https://dc.lft.to/lastmile_qr_scan", "ios": "https://dc.lft.to/lastmile_qr_scan"}, "fusion_lat": 0.0, "is_reserved": 0, "lat": 38.92028116666667, "name": "2b9b5f1bd9c641609d1d44308975b510", "bike_id": "2b9b5f1bd9c641609d1d44308975b510", "is_disabled": 0, "fusion_lon": 0.0, "type": "electric_scooter", "lon": -77.0308545}, {"rental_uris": {"android": "https://dc.lft.to/lastmile_qr_scan", "ios": "https://dc.lft.to/lastmile_qr_scan"}, "fusion_lat": 0.0, "is_reserved": 0, "lat": 38.90843683333333, "name": "b0a72b3369ac59ffd67d7160a1f7fb9e", "bike_id": "b0a72b3369ac59ffd67d7160a1f7fb9e", "is_disabled": 0, "fusion_lon": 0.0, "type": "electric_scooter", "lon": -77.00208683333334}, {"rental_uris": {"android": "https://dc.lft.to/lastmile_qr_scan", "ios": "https://dc.lft.to/lastmile_qr_scan"}, "fusion_lat": 0.0, "is_reserved": 0, "lat": 38.921797, "name": "5c5c3b488f9df97c392a4952847cb8c1", "bike_id": "5c5c3b488f9df97c392a4952847cb8c1", "is_disabled": 0, "fusion_lon": 0.0, "type": "electric_scooter", "lon": -76.99616366666666}, {"rental_uris": {"android": "https://dc.lft.to/lastmile_qr_scan", "ios": "https://dc.lft.to/lastmile_qr_scan"}, "fusion_lat": 0.0, "is_reserved": 0, "lat": 38.89608533333333, "name": "e9db8ace16c925cd9e8774c04ce41b7f", "bike_id": "e9db8ace16c925cd9e8774c04ce41b7f", "is_disabled": 0, "fusion_lon": 0.0, "type": "electric_scooter", "lon": -76.97287666666666}, {"rental_uris": {"android": "https://dc.lft.to/lastmile_qr_scan", "ios": "https://dc.lft.to/lastmile_qr_scan"}, "fusion_lat": 0.0, "is_reserved": 0, "lat": 38.989879333333334, "name": "99e0054b236902910253442e4a16d8bb", "bike_id": "99e0054b236902910253442e4a16d8bb", "is_disabled": 0, "fusion_lon": 0.0, "type": "electric_scooter", "lon": -77.03362183333333}, {"rental_uris": {"android": "https://dc.lft.to/lastmile_qr_scan", "ios": "https://dc.lft.to/lastmile_qr_scan"}, "fusion_lat": 0.0, "is_reserved": 0, "lat": 38.92465583333333, "name": "877ca8646a24b797c44f12691ca94aa5", "bike_id": "877ca8646a24b797c44f12691ca94aa5", "is_disabled": 0, "fusion_lon": 0.0, "type": "electric_scooter", "lon": -77.02691}, {"rental_uris": {"android": "https://dc.lft.to/lastmile_qr_scan", "ios": "https://dc.lft.to/lastmile_qr_scan"}, "fusion_lat": 0.0, "is_reserved": 0, "lat": 38.89776633333334, "name": "62c6a0096a29962bc89af05e23524bb7", "bike_id": "62c6a0096a29962bc89af05e23524bb7", "is_disabled": 0, "fusion_lon": 0.0, "type": "electric_scooter", "lon": -76.9927445}, {"rental_uris": {"android": "https://dc.lft.to/lastmile_qr_scan", "ios": "https://dc.lft.to/lastmile_qr_scan"}, "fusion_lat": 0.0, "is_reserved": 0, "lat": 38.921033333333334, "name": "b8659298fcaf77092332147c50b9e75e", "bike_id": "b8659298fcaf77092332147c50b9e75e", "is_disabled": 0, "fusion_lon": 0.0, "type": "electric_scooter", "lon": -77.04193166666667}, {"rental_uris": {"android": "https://dc.lft.to/lastmile_qr_scan", "ios": "https://dc.lft.to/lastmile_qr_scan"}, "fusion_lat": 0.0, "is_reserved": 0, "lat": 38.887237666666664, "name": "a7902c92053a01e3e621a5e87f0ea58d", "bike_id": "a7902c92053a01e3e621a5e87f0ea58d", "is_disabled": 0, "fusion_lon": 0.0, "type": "electric_scooter", "lon": -76.99681333333334}, {"rental_uris": {"android": "https://dc.lft.to/lastmile_qr_scan", "ios": "https://dc.lft.to/lastmile_qr_scan"}, "fusion_lat": 0.0, "is_reserved": 0, "lat": 38.9153575, "name": "dafb1dab7cdddb62932a41d88e6dfd6d", "bike_id": "dafb1dab7cdddb62932a41d88e6dfd6d", "is_disabled": 0, "fusion_lon": 0.0, "type": "electric_scooter", "lon": -77.0199975}, {"rental_uris": {"android": "https://dc.lft.to/lastmile_qr_scan", "ios": "https://dc.lft.to/lastmile_qr_scan"}, "fusion_lat": 0.0, "is_reserved": 0, "lat": 38.94330333333333, "name": "1348bf6648d8ce8c1f771781767a172a", "bike_id": "1348bf6648d8ce8c1f771781767a172a", "is_disabled": 0, "fusion_lon": 0.0, "type": "electric_scooter", "lon": -77.015551}, {"rental_uris": {"android": "https://dc.lft.to/lastmile_qr_scan", "ios": "https://dc.lft.to/lastmile_qr_scan"}, "fusion_lat": 0.0, "is_reserved": 0, "lat": 38.928396, "name": "8bd0860c3cce46c528ecc957b173e570", "bike_id": "8bd0860c3cce46c528ecc957b173e570", "is_disabled": 0, "fusion_lon": 0.0, "type": "electric_scooter", "lon": -77.0248735}, {"rental_uris": {"android": "https://dc.lft.to/lastmile_qr_scan", "ios": "https://dc.lft.to/lastmile_qr_scan"}, "fusion_lat": 0.0, "is_reserved": 0, "lat": 38.93319566666667, "name": "3efcaebb6cc46f34218e0e6d1a4d4037", "bike_id": "3efcaebb6cc46f34218e0e6d1a4d4037", "is_disabled": 0, "fusion_lon": 0.0, "type": "electric_scooter", "lon": -77.03792}, {"rental_uris": {"android": "https://dc.lft.to/lastmile_qr_scan", "ios": "https://dc.lft.to/lastmile_qr_scan"}, "fusion_lat": 0.0, "is_reserved": 0, "lat": 38.934947, "name": "f11c7b47f0669fc82a6f37c5e65af177", "bike_id": "f11c7b47f0669fc82a6f37c5e65af177", "is_disabled": 0, "fusion_lon": 0.0, "type": "electric_scooter", "lon": -77.04454683333333}, {"rental_uris": {"android": "https://dc.lft.to/lastmile_qr_scan", "ios": "https://dc.lft.to/lastmile_qr_scan"}, "fusion_lat": 0.0, "is_reserved": 0, "lat": 38.9236455, "name": "3d66d0faac7500bb4bb0ab1d1939d65a", "bike_id": "3d66d0faac7500bb4bb0ab1d1939d65a", "is_disabled": 0, "fusion_lon": 0.0, "type": "electric_scooter", "lon": -77.01955}, {"rental_uris": {"android": "https://dc.lft.to/lastmile_qr_scan", "ios": "https://dc.lft.to/lastmile_qr_scan"}, "fusion_lat": 0.0, "is_reserved": 0, "lat": 38.9214015, "name": "10dc3a91be2d941817f9b569f012f59a", "bike_id": "10dc3a91be2d941817f9b569f012f59a", "is_disabled": 0, "fusion_lon": 0.0, "type": "electric_scooter", "lon": -77.04112233333333}, {"rental_uris": {"android": "https://dc.lft.to/lastmile_qr_scan", "ios": "https://dc.lft.to/lastmile_qr_scan"}, "fusion_lat": 0.0, "is_reserved": 0, "lat": 38.901011, "name": "64c1f42cd1ac2c7d5f673cbcd8ff890f", "bike_id": "64c1f42cd1ac2c7d5f673cbcd8ff890f", "is_disabled": 0, "fusion_lon": 0.0, "type": "electric_scooter", "lon": -77.04482866666666}, {"rental_uris": {"android": "https://dc.lft.to/lastmile_qr_scan", "ios": "https://dc.lft.to/lastmile_qr_scan"}, "fusion_lat": 0.0, "is_reserved": 0, "lat": 38.89877166666667, "name": "9fa0669e683bea022dbddc4ac2f361ca", "bike_id": "9fa0669e683bea022dbddc4ac2f361ca", "is_disabled": 0, "fusion_lon": 0.0, "type": "electric_scooter", "lon": -76.9884115}, {"rental_uris": {"android": "https://dc.lft.to/lastmile_qr_scan", "ios": "https://dc.lft.to/lastmile_qr_scan"}, "fusion_lat": 0.0, "is_reserved": 0, "lat": 38.92640566666667, "name": "6871869f9a362c210af24980473dbace", "bike_id": "6871869f9a362c210af24980473dbace", "is_disabled": 0, "fusion_lon": 0.0, "type": "electric_scooter", "lon": -77.0250385}, {"rental_uris": {"android": "https://dc.lft.to/lastmile_qr_scan", "ios": "https://dc.lft.to/lastmile_qr_scan"}, "fusion_lat": 0.0, "is_reserved": 0, "lat": 38.903712666666664, "name": "6681355444b2e386602aeda54c91f194", "bike_id": "6681355444b2e386602aeda54c91f194", "is_disabled": 0, "fusion_lon": 0.0, "type": "electric_scooter", "lon": -77.03655416666666}, {"rental_uris": {"android": "https://dc.lft.to/lastmile_qr_scan", "ios": "https://dc.lft.to/lastmile_qr_scan"}, "fusion_lat": 0.0, "is_reserved": 0, "lat": 38.91270133333333, "name": "6b19f79ad33f28836363c1fadee32440", "bike_id": "6b19f79ad33f28836363c1fadee32440", "is_disabled": 0, "fusion_lon": 0.0, "type": "electric_scooter", "lon": -77.02209583333334}, {"rental_uris": {"android": "https://dc.lft.to/lastmile_qr_scan", "ios": "https://dc.lft.to/lastmile_qr_scan"}, "fusion_lat": 0.0, "is_reserved": 0, "lat": 38.927860333333335, "name": "54780436e5a8888546518090176afe04", "bike_id": "54780436e5a8888546518090176afe04", "is_disabled": 0, "fusion_lon": 0.0, "type": "electric_scooter", "lon": -77.0532885}, {"rental_uris": {"android": "https://dc.lft.to/lastmile_qr_scan", "ios": "https://dc.lft.to/lastmile_qr_scan"}, "fusion_lat": 0.0, "is_reserved": 0, "lat": 38.90473266666667, "name": "1000904b13663fbb5c7f9ae0ab86e912", "bike_id": "1000904b13663fbb5c7f9ae0ab86e912", "is_disabled": 0, "fusion_lon": 0.0, "type": "electric_scooter", "lon": -77.04836733333333}, {"rental_uris": {"android": "https://dc.lft.to/lastmile_qr_scan", "ios": "https://dc.lft.to/lastmile_qr_scan"}, "fusion_lat": 0.0, "is_reserved": 0, "lat": 38.886913, "name": "3163138fdbe92a7154938fc6dec27bee", "bike_id": "3163138fdbe92a7154938fc6dec27bee", "is_disabled": 0, "fusion_lon": 0.0, "type": "electric_scooter", "lon": -76.97639716666667}, {"rental_uris": {"android": "https://dc.lft.to/lastmile_qr_scan", "ios": "https://dc.lft.to/lastmile_qr_scan"}, "fusion_lat": 0.0, "is_reserved": 0, "lat": 38.9127265, "name": "365ba2afc5da5619934fa13a72bb5700", "bike_id": "365ba2afc5da5619934fa13a72bb5700", "is_disabled": 0, "fusion_lon": 0.0, "type": "electric_scooter", "lon": -77.0450465}, {"rental_uris": {"android": "https://dc.lft.to/lastmile_qr_scan", "ios": "https://dc.lft.to/lastmile_qr_scan"}, "fusion_lat": 0.0, "is_reserved": 0, "lat": 38.95210483333334, "name": "02a432a3eaa050ee319e8c262d1299c9", "bike_id": "02a432a3eaa050ee319e8c262d1299c9", "is_disabled": 0, "fusion_lon": 0.0, "type": "electric_bike", "lon": -77.017486}, {"rental_uris": {"android": "https://dc.lft.to/lastmile_qr_scan", "ios": "https://dc.lft.to/lastmile_qr_scan"}, "fusion_lat": 0.0, "is_reserved": 0, "lat": 38.93191516666667, "name": "faa969c73f3c99d4ec08f2a7f2460b28", "bike_id": "faa969c73f3c99d4ec08f2a7f2460b28", "is_disabled": 0, "fusion_lon": 0.0, "type": "electric_scooter", "lon": -77.02024066666667}, {"rental_uris": {"android": "https://dc.lft.to/lastmile_qr_scan", "ios": "https://dc.lft.to/lastmile_qr_scan"}, "fusion_lat": 0.0, "is_reserved": 0, "lat": 38.908563, "name": "c5cd416a68b7a03e732eae553762232d", "bike_id": "c5cd416a68b7a03e732eae553762232d", "is_disabled": 0, "fusion_lon": 0.0, "type": "electric_scooter", "lon": -76.99113083333333}, {"rental_uris": {"android": "https://dc.lft.to/lastmile_qr_scan", "ios": "https://dc.lft.to/lastmile_qr_scan"}, "fusion_lat": 0.0, "is_reserved": 0, "lat": 38.89522866666667, "name": "a3591d63aa6fddeab9b92bb07d97fde6", "bike_id": "a3591d63aa6fddeab9b92bb07d97fde6", "is_disabled": 0, "fusion_lon": 0.0, "type": "electric_scooter", "lon": -76.992257}, {"rental_uris": {"android": "https://dc.lft.to/lastmile_qr_scan", "ios": "https://dc.lft.to/lastmile_qr_scan"}, "fusion_lat": 0.0, "is_reserved": 0, "lat": 38.9170085, "name": "1846bb2033b0cd9963cad42a944b74ce", "bike_id": "1846bb2033b0cd9963cad42a944b74ce", "is_disabled": 0, "fusion_lon": 0.0, "type": "electric_scooter", "lon": -77.02992}, {"rental_uris": {"android": "https://dc.lft.to/lastmile_qr_scan", "ios": "https://dc.lft.to/lastmile_qr_scan"}, "fusion_lat": 0.0, "is_reserved": 0, "lat": 38.91539933333333, "name": "6129f1907483b14b70cc4216c2306d9b", "bike_id": "6129f1907483b14b70cc4216c2306d9b", "is_disabled": 0, "fusion_lon": 0.0, "type": "electric_scooter", "lon": -77.0445685}, {"rental_uris": {"android": "https://dc.lft.to/lastmile_qr_scan", "ios": "https://dc.lft.to/lastmile_qr_scan"}, "fusion_lat": 0.0, "is_reserved": 0, "lat": 38.95576233333333, "name": "9e82324ed3edb6acc849e035fafe0f04", "bike_id": "9e82324ed3edb6acc849e035fafe0f04", "is_disabled": 0, "fusion_lon": 0.0, "type": "electric_scooter", "lon": -77.0700885}, {"rental_uris": {"android": "https://dc.lft.to/lastmile_qr_scan", "ios": "https://dc.lft.to/lastmile_qr_scan"}, "fusion_lat": 0.0, "is_reserved": 0, "lat": 38.892306, "name": "ed536f951ceb163170efa67343f172cb", "bike_id": "ed536f951ceb163170efa67343f172cb", "is_disabled": 0, "fusion_lon": 0.0, "type": "electric_scooter", "lon": -77.05001966666667}, {"rental_uris": {"android": "https://dc.lft.to/lastmile_qr_scan", "ios": "https://dc.lft.to/lastmile_qr_scan"}, "fusion_lat": 0.0, "is_reserved": 0, "lat": 38.90996366666667, "name": "64f0ddea3edbfafe18fb491d72c579a0", "bike_id": "64f0ddea3edbfafe18fb491d72c579a0", "is_disabled": 0, "fusion_lon": 0.0, "type": "electric_scooter", "lon": -77.02412133333333}, {"rental_uris": {"android": "https://dc.lft.to/lastmile_qr_scan", "ios": "https://dc.lft.to/lastmile_qr_scan"}, "fusion_lat": 0.0, "is_reserved": 0, "lat": 38.879313833333335, "name": "c61af0465d1cfd8db19fab899832a3cf", "bike_id": "c61af0465d1cfd8db19fab899832a3cf", "is_disabled": 0, "fusion_lon": 0.0, "type": "electric_scooter", "lon": -77.0037485}, {"rental_uris": {"android": "https://dc.lft.to/lastmile_qr_scan", "ios": "https://dc.lft.to/lastmile_qr_scan"}, "fusion_lat": 0.0, "is_reserved": 0, "lat": 38.88342216666667, "name": "ad0ae92e2f73c01bec970adabca5491c", "bike_id": "ad0ae92e2f73c01bec970adabca5491c", "is_disabled": 0, "fusion_lon": 0.0, "type": "electric_scooter", "lon": -76.9429355}, {"rental_uris": {"android": "https://dc.lft.to/lastmile_qr_scan", "ios": "https://dc.lft.to/lastmile_qr_scan"}, "fusion_lat": 0.0, "is_reserved": 0, "lat": 38.917050333333336, "name": "66f5d65482906e2f7baa4993cf51dcb8", "bike_id": "66f5d65482906e2f7baa4993cf51dcb8", "is_disabled": 0, "fusion_lon": 0.0, "type": "electric_scooter", "lon": -77.03460916666667}, {"rental_uris": {"android": "https://dc.lft.to/lastmile_qr_scan", "ios": "https://dc.lft.to/lastmile_qr_scan"}, "fusion_lat": 0.0, "is_reserved": 0, "lat": 38.91187733333334, "name": "82ee9480ca9ce51df476d0c88d5208f8", "bike_id": "82ee9480ca9ce51df476d0c88d5208f8", "is_disabled": 0, "fusion_lon": 0.0, "type": "electric_scooter", "lon": -77.0383215}, {"rental_uris": {"android": "https://dc.lft.to/lastmile_qr_scan", "ios": "https://dc.lft.to/lastmile_qr_scan"}, "fusion_lat": 0.0, "is_reserved": 0, "lat": 38.88410483333333, "name": "d14b9365dd08415b6342a5eb4a7f7c7c", "bike_id": "d14b9365dd08415b6342a5eb4a7f7c7c", "is_disabled": 0, "fusion_lon": 0.0, "type": "electric_scooter", "lon": -77.02606783333333}, {"rental_uris": {"android": "https://dc.lft.to/lastmile_qr_scan", "ios": "https://dc.lft.to/lastmile_qr_scan"}, "fusion_lat": 0.0, "is_reserved": 0, "lat": 38.9181225, "name": "2bcd0e0bc6733e2f6d1dafa01540a474", "bike_id": "2bcd0e0bc6733e2f6d1dafa01540a474", "is_disabled": 0, "fusion_lon": 0.0, "type": "electric_scooter", "lon": -77.0247935}, {"rental_uris": {"android": "https://dc.lft.to/lastmile_qr_scan", "ios": "https://dc.lft.to/lastmile_qr_scan"}, "fusion_lat": 0.0, "is_reserved": 0, "lat": 38.90564616666666, "name": "e2bf0a5a32221968700c8bebd3aff6df", "bike_id": "e2bf0a5a32221968700c8bebd3aff6df", "is_disabled": 0, "fusion_lon": 0.0, "type": "electric_scooter", "lon": -77.02410733333333}, {"rental_uris": {"android": "https://dc.lft.to/lastmile_qr_scan", "ios": "https://dc.lft.to/lastmile_qr_scan"}, "fusion_lat": 0.0, "is_reserved": 0, "lat": 38.87080983333333, "name": "c660e4175379d258abcbabbf19b3bf23", "bike_id": "c660e4175379d258abcbabbf19b3bf23", "is_disabled": 0, "fusion_lon": 0.0, "type": "electric_bike", "lon": -77.110433}, {"rental_uris": {"android": "https://dc.lft.to/lastmile_qr_scan", "ios": "https://dc.lft.to/lastmile_qr_scan"}, "fusion_lat": 0.0, "is_reserved": 0, "lat": 38.93853033333333, "name": "f3279a481e5f91a32cefb998787ce7bb", "bike_id": "f3279a481e5f91a32cefb998787ce7bb", "is_disabled": 0, "fusion_lon": 0.0, "type": "electric_scooter", "lon": -77.02475966666667}, {"rental_uris": {"android": "https://dc.lft.to/lastmile_qr_scan", "ios": "https://dc.lft.to/lastmile_qr_scan"}, "fusion_lat": 0.0, "is_reserved": 0, "lat": 38.930845166666664, "name": "36113045ba2110c7b8365d929d9d01f8", "bike_id": "36113045ba2110c7b8365d929d9d01f8", "is_disabled": 0, "fusion_lon": 0.0, "type": "electric_scooter", "lon": -77.03767983333333}, {"rental_uris": {"android": "https://dc.lft.to/lastmile_qr_scan", "ios": "https://dc.lft.to/lastmile_qr_scan"}, "fusion_lat": 0.0, "is_reserved": 0, "lat": 38.920263, "name": "08eecb1c125f0855448b468508a63caf", "bike_id": "08eecb1c125f0855448b468508a63caf", "is_disabled": 0, "fusion_lon": 0.0, "type": "electric_scooter", "lon": -77.02797083333333}, {"rental_uris": {"android": "https://dc.lft.to/lastmile_qr_scan", "ios": "https://dc.lft.to/lastmile_qr_scan"}, "fusion_lat": 0.0, "is_reserved": 0, "lat": 38.896162333333336, "name": "0ba65be173d995872fbfd6cd089911ce", "bike_id": "0ba65be173d995872fbfd6cd089911ce", "is_disabled": 0, "fusion_lon": 0.0, "type": "electric_scooter", "lon": -77.0261}, {"rental_uris": {"android": "https://dc.lft.to/lastmile_qr_scan", "ios": "https://dc.lft.to/lastmile_qr_scan"}, "fusion_lat": 0.0, "is_reserved": 0, "lat": 38.915775833333335, "name": "b34636741f33db57bc8890952993e7ec", "bike_id": "b34636741f33db57bc8890952993e7ec", "is_disabled": 0, "fusion_lon": 0.0, "type": "electric_scooter", "lon": -77.01233383333333}, {"rental_uris": {"android": "https://dc.lft.to/lastmile_qr_scan", "ios": "https://dc.lft.to/lastmile_qr_scan"},