{"data": {"bikes": [{"is_disabled": 0, "lat": 38.89541833333333, "bike_id": "8113b6b9e1f5a089e4255176443327d4", "is_reserved": 0, "rental_uris": {"ios": "https://dc.lft.to/lastmile_qr_scan", "android": "https://dc.lft.to/lastmile_qr_scan"}, "name": "8113b6b9e1f5a089e4255176443327d4", "fusion_lon": 0.0, "fusion_lat": 0.0, "lon": -77.00909483333334, "type": "electric_scooter"}, {"is_disabled": 0, "lat": 38.868858, "bike_id": "e8221a947bfa2156192387899edf277b", "is_reserved": 0, "rental_uris": {"ios": "https://dc.lft.to/lastmile_qr_scan", "android": "https://dc.lft.to/lastmile_qr_scan"}, "name": "e8221a947bfa2156192387899edf277b", "fusion_lon": 0.0, "fusion_lat": 0.0, "lon": -76.99002283333333, "type": "electric_scooter"}, {"is_disabled": 0, "lat": 38.886541666666666, "bike_id": "f5daaa3215a33ce1c1d5e3d29bc9a1cb", "is_reserved": 0, "rental_uris": {"ios": "https://dc.lft.to/lastmile_qr_scan", "android": "https://dc.lft.to/lastmile_qr_scan"}, "name": "f5daaa3215a33ce1c1d5e3d29bc9a1cb", "fusion_lon": 0.0, "fusion_lat": 0.0, "lon": -77.02834183333333, "type": "electric_scooter"}, {"is_disabled": 0, "lat": 38.89595383333333, "bike_id": "ff38369a2805f80b932cd80fd85887cc", "is_reserved": 0, "rental_uris": {"ios": "https://dc.lft.to/lastmile_qr_scan", "android": "https://dc.lft.to/lastmile_qr_scan"}, "name": "ff38369a2805f80b932cd80fd85887cc", "fusion_lon": 0.0, "fusion_lat": 0.0, "lon": -76.98326283333333, "type": "electric_scooter"}, {"is_disabled": 0, "lat": 38.91624933333333, "bike_id": "973449c98bcafd97b68f40f7306beada", "is_reserved": 0, "rental_uris": {"ios": "https://dc.lft.to/lastmile_qr_scan", "android": "https://dc.lft.to/lastmile_qr_scan"}, "name": "973449c98bcafd97b68f40f7306beada", "fusion_lon": 0.0, "fusion_lat": 0.0, "lon": -77.031413, "type": "electric_scooter"}, {"is_disabled": 0, "lat": 38.875626, "bike_id": "1f95cdbc6195f4c97733513d1b9a17f9", "is_reserved": 0, "rental_uris": {"ios": "https://dc.lft.to/lastmile_qr_scan", "android": "https://dc.lft.to/lastmile_qr_scan"}, "name": "1f95cdbc6195f4c97733513d1b9a17f9", "fusion_lon": 0.0, "fusion_lat": 0.0, "lon": -77.00604566666667, "type": "electric_scooter"}, {"is_disabled": 0, "lat": 38.91569416666667, "bike_id": "d544d678e7143bd2acf65a37e5279319", "is_reserved": 0, "rental_uris": {"ios": "https://dc.lft.to/lastmile_qr_scan", "android": "https://dc.lft.to/lastmile_qr_scan"}, "name": "d544d678e7143bd2acf65a37e5279319", "fusion_lon": 0.0, "fusion_lat": 0.0, "lon": -77.05036783333334, "type": "electric_scooter"}, {"is_disabled": 0, "lat": 38.93067033333333, "bike_id": "5fc2124c69e73c8e57bb87453de713d4", "is_reserved": 0, "rental_uris": {"ios": "https://dc.lft.to/lastmile_qr_scan", "android": "https://dc.lft.to/lastmile_qr_scan"}, "name": "5fc2124c69e73c8e57bb87453de713d4", "fusion_lon": 0.0, "fusion_lat": 0.0, "lon": -77.04051966666667, "type": "electric_scooter"}, {"is_disabled": 0, "lat": 38.867790666666664, "bike_id": "df0e319a61bb6c6a973429c7709d1544", "is_reserved": 0, "rental_uris": {"ios": "https://dc.lft.to/lastmile_qr_scan", "android": "https://dc.lft.to/lastmile_qr_scan"}, "name": "df0e319a61bb6c6a973429c7709d1544", "fusion_lon": 0.0, "fusion_lat": 0.0, "lon": -77.066264, "type": "electric_bike"}, {"is_disabled": 0, "lat": 38.92524983333333, "bike_id": "6fcaccb6034194d80ed939024d33d362", "is_reserved": 0, "rental_uris": {"ios": "https://dc.lft.to/lastmile_qr_scan", "android": "https://dc.lft.to/lastmile_qr_scan"}, "name": "6fcaccb6034194d80ed939024d33d362", "fusion_lon": 0.0, "fusion_lat": 0.0, "lon": -77.03888466666666, "type": "electric_scooter"}, {"is_disabled": 0, "lat": 38.896678, "bike_id": "8e54297826f45ec80fbc69674d095a23", "is_reserved": 0, "rental_uris": {"ios": "https://dc.lft.to/lastmile_qr_scan", "android": "https://dc.lft.to/lastmile_qr_scan"}, "name": "8e54297826f45ec80fbc69674d095a23", "fusion_lon": 0.0, "fusion_lat": 0.0, "lon": -76.9884285, "type": "electric_scooter"}, {"is_disabled": 0, "lat": 38.92143083333333, "bike_id": "cb43c4b82e6378b4fc36fa4d730f1561", "is_reserved": 0, "rental_uris": {"ios": "https://dc.lft.to/lastmile_qr_scan", "android": "https://dc.lft.to/lastmile_qr_scan"}, "name": "cb43c4b82e6378b4fc36fa4d730f1561", "fusion_lon": 0.0, "fusion_lat": 0.0, "lon": -77.03653816666667, "type": "electric_scooter"}, {"is_disabled": 0, "lat": 38.936081, "bike_id": "f9d97b4124581d322896e9940483f06c", "is_reserved": 0, "rental_uris": {"ios": "https://dc.lft.to/lastmile_qr_scan", "android": "https://dc.lft.to/lastmile_qr_scan"}, "name": "f9d97b4124581d322896e9940483f06c", "fusion_lon": 0.0, "fusion_lat": 0.0, "lon": -77.05588533333334, "type": "electric_scooter"}, {"is_disabled": 0, "lat": 38.912692, "bike_id": "3f4e028e60882ff4a6312ea4318bd85b", "is_reserved": 0, "rental_uris": {"ios": "https://dc.lft.to/lastmile_qr_scan", "android": "https://dc.lft.to/lastmile_qr_scan"}, "name": "3f4e028e60882ff4a6312ea4318bd85b", "fusion_lon": 0.0, "fusion_lat": 0.0, "lon": -77.0223155, "type": "electric_scooter"}, {"is_disabled": 0, "lat": 38.9277655, "bike_id": "bcebf76e218e9bc331e1c01475eea126", "is_reserved": 0, "rental_uris": {"ios": "https://dc.lft.to/lastmile_qr_scan", "android": "https://dc.lft.to/lastmile_qr_scan"}, "name": "bcebf76e218e9bc331e1c01475eea126", "fusion_lon": 0.0, "fusion_lat": 0.0, "lon": -77.05259716666667, "type": "electric_scooter"}, {"is_disabled": 0, "lat": 38.98202916666666, "bike_id": "c4ee06cd8fe0c2ef6c272758d3b685bf", "is_reserved": 0, "rental_uris": {"ios": "https://dc.lft.to/lastmile_qr_scan", "android": "https://dc.lft.to/lastmile_qr_scan"}, "name": "c4ee06cd8fe0c2ef6c272758d3b685bf", "fusion_lon": 0.0, "fusion_lat": 0.0, "lon": -76.9781865, "type": "electric_bike"}, {"is_disabled": 0, "lat": 38.9339395, "bike_id": "181e82341cf4bcf2267b50f48aa38544", "is_reserved": 0, "rental_uris": {"ios": "https://dc.lft.to/lastmile_qr_scan", "android": "https://dc.lft.to/lastmile_qr_scan"}, "name": "181e82341cf4bcf2267b50f48aa38544", "fusion_lon": 0.0, "fusion_lat": 0.0, "lon": -77.057421, "type": "electric_scooter"}, {"is_disabled": 0, "lat": 38.900952833333335, "bike_id": "971d0fb14aaeec74ee0fa4374f9056e3", "is_reserved": 0, "rental_uris": {"ios": "https://dc.lft.to/lastmile_qr_scan", "android": "https://dc.lft.to/lastmile_qr_scan"}, "name": "971d0fb14aaeec74ee0fa4374f9056e3", "fusion_lon": 0.0, "fusion_lat": 0.0, "lon": -77.02488016666666, "type": "electric_scooter"}, {"is_disabled": 0, "lat": 38.963535666666665, "bike_id": "5dbef71849211f7d81d9dfbc13bf4e1d", "is_reserved": 0, "rental_uris": {"ios": "https://dc.lft.to/lastmile_qr_scan", "android": "https://dc.lft.to/lastmile_qr_scan"}, "name": "5dbef71849211f7d81d9dfbc13bf4e1d", "fusion_lon": 0.0, "fusion_lat": 0.0, "lon": -77.03447566666667, "type": "electric_scooter"}, {"is_disabled": 0, "lat": 38.842559666666666, "bike_id": "abda1c404ecb887b831af68b82423cc0", "is_reserved": 0, "rental_uris": {"ios": "https://dc.lft.to/lastmile_qr_scan", "android": "https://dc.lft.to/lastmile_qr_scan"}, "name": "abda1c404ecb887b831af68b82423cc0", "fusion_lon": 0.0, "fusion_lat": 0.0, "lon": -76.98841383333334, "type": "electric_scooter"}, {"is_disabled": 0, "lat": 38.90443533333333, "bike_id": "1a554ad51a94ca53546e19fb761cf101", "is_reserved": 0, "rental_uris": {"ios": "https://dc.lft.to/lastmile_qr_scan", "android": "https://dc.lft.to/lastmile_qr_scan"}, "name": "1a554ad51a94ca53546e19fb761cf101", "fusion_lon": 0.0, "fusion_lat": 0.0, "lon": -76.9730725, "type": "electric_scooter"}, {"is_disabled": 0, "lat": 38.905079666666666, "bike_id": "215765b463b9f217977bd5105f69e110", "is_reserved": 0, "rental_uris": {"ios": "https://dc.lft.to/lastmile_qr_scan", "android": "https://dc.lft.to/lastmile_qr_scan"}, "name": "215765b463b9f217977bd5105f69e110", "fusion_lon": 0.0, "fusion_lat": 0.0, "lon": -77.06572566666667, "type": "electric_scooter"}, {"is_disabled": 0, "lat": 38.93981866666667, "bike_id": "bc7624d3aae40808df4d647e540f0e19", "is_reserved": 0, "rental_uris": {"ios": "https://dc.lft.to/lastmile_qr_scan", "android": "https://dc.lft.to/lastmile_qr_scan"}, "name": "bc7624d3aae40808df4d647e540f0e19", "fusion_lon": 0.0, "fusion_lat": 0.0, "lon": -77.03067266666666, "type": "electric_scooter"}, {"is_disabled": 0, "lat": 38.9192795, "bike_id": "70e9a082a6b4f2403966fcabfd032f5d", "is_reserved": 0, "rental_uris": {"ios": "https://dc.lft.to/lastmile_qr_scan", "android": "https://dc.lft.to/lastmile_qr_scan"}, "name": "70e9a082a6b4f2403966fcabfd032f5d", "fusion_lon": 0.0, "fusion_lat": 0.0, "lon": -77.02314333333334, "type": "electric_scooter"}, {"is_disabled": 0, "lat": 38.923437166666666, "bike_id": "a5db1090842ef3d884c2c5222dd51703", "is_reserved": 0, "rental_uris": {"ios": "https://dc.lft.to/lastmile_qr_scan", "android": "https://dc.lft.to/lastmile_qr_scan"}, "name": "a5db1090842ef3d884c2c5222dd51703", "fusion_lon": 0.0, "fusion_lat": 0.0, "lon": -77.03394316666666, "type": "electric_scooter"}, {"is_disabled": 0, "lat": 38.902162, "bike_id": "2656c405c2c0bb318cffae8ae8d920c8", "is_reserved": 0, "rental_uris": {"ios": "https://dc.lft.to/lastmile_qr_scan", "android": "https://dc.lft.to/lastmile_qr_scan"}, "name": "2656c405c2c0bb318cffae8ae8d920c8", "fusion_lon": 0.0, "fusion_lat": 0.0, "lon": -77.02370566666667, "type": "electric_scooter"}, {"is_disabled": 0, "lat": 38.916832, "bike_id": "48b0259223b75a47f8414235e4df78a9", "is_reserved": 0, "rental_uris": {"ios": "https://dc.lft.to/lastmile_qr_scan", "android": "https://dc.lft.to/lastmile_qr_scan"}, "name": "48b0259223b75a47f8414235e4df78a9", "fusion_lon": 0.0, "fusion_lat": 0.0, "lon": -77.02978033333333, "type": "electric_scooter"}, {"is_disabled": 0, "lat": 38.89220733333333, "bike_id": "9fea1af1128bbc6bbff836135015efbe", "is_reserved": 0, "rental_uris": {"ios": "https://dc.lft.to/lastmile_qr_scan", "android": "https://dc.lft.to/lastmile_qr_scan"}, "name": "9fea1af1128bbc6bbff836135015efbe", "fusion_lon": 0.0, "fusion_lat": 0.0, "lon": -77.041956, "type": "electric_scooter"}, {"is_disabled": 0, "lat": 38.90046983333333, "bike_id": "4ea2de2bdfff9f3424e53deaf5818267", "is_reserved": 0, "rental_uris": {"ios": "https://dc.lft.to/lastmile_qr_scan", "android": "https://dc.lft.to/lastmile_qr_scan"}, "name": "4ea2de2bdfff9f3424e53deaf5818267", "fusion_lon": 0.0, "fusion_lat": 0.0, "lon": -76.99156233333333, "type": "electric_scooter"}, {"is_disabled": 0, "lat": 38.862792, "bike_id": "3ce24f769cdd51fc87395886fafd89ce", "is_reserved": 0, "rental_uris": {"ios": "https://dc.lft.to/lastmile_qr_scan", "android": "https://dc.lft.to/lastmile_qr_scan"}, "name": "3ce24f769cdd51fc87395886fafd89ce", "fusion_lon": 0.0, "fusion_lat": 0.0, "lon": -76.945213, "type": "electric_bike"}, {"is_disabled": 0, "lat": 38.8963305, "bike_id": "91d2f233c6bf66608f47f9ace1c960ba", "is_reserved": 0, "rental_uris": {"ios": "https://dc.lft.to/lastmile_qr_scan", "android": "https://dc.lft.to/lastmile_qr_scan"}, "name": "91d2f233c6bf66608f47f9ace1c960ba", "fusion_lon": 0.0, "fusion_lat": 0.0, "lon": -77.0271035, "type": "electric_scooter"}, {"is_disabled": 0, "lat": 38.82921016666667, "bike_id": "15d0bd9e7abd2f88ffdc088a25bf8937", "is_reserved": 0, "rental_uris": {"ios": "https://dc.lft.to/lastmile_qr_scan", "android": "https://dc.lft.to/lastmile_qr_scan"}, "name": "15d0bd9e7abd2f88ffdc088a25bf8937", "fusion_lon": 0.0, "fusion_lat": 0.0, "lon": -77.06878883333333, "type": "electric_bike"}, {"is_disabled": 0, "lat": 38.89227316666667, "bike_id": "5dc1f8a4db53b0128ce157c7a9d52c22", "is_reserved": 0, "rental_uris": {"ios": "https://dc.lft.to/lastmile_qr_scan", "android": "https://dc.lft.to/lastmile_qr_scan"}, "name": "5dc1f8a4db53b0128ce157c7a9d52c22", "fusion_lon": 0.0, "fusion_lat": 0.0, "lon": -77.050053, "type": "electric_scooter"}, {"is_disabled": 0, "lat": 38.878721166666665, "bike_id": "51128d99cebe81ceef3412e5db912671", "is_reserved": 0, "rental_uris": {"ios": "https://dc.lft.to/lastmile_qr_scan", "android": "https://dc.lft.to/lastmile_qr_scan"}, "name": "51128d99cebe81ceef3412e5db912671", "fusion_lon": 0.0, "fusion_lat": 0.0, "lon": -76.99020016666667, "type": "electric_bike"}, {"is_disabled": 0, "lat": 38.9014745, "bike_id": "c0b0dad0be93765cd9f271c50bc5fbb2", "is_reserved": 0, "rental_uris": {"ios": "https://dc.lft.to/lastmile_qr_scan", "android": "https://dc.lft.to/lastmile_qr_scan"}, "name": "c0b0dad0be93765cd9f271c50bc5fbb2", "fusion_lon": 0.0, "fusion_lat": 0.0, "lon": -76.9742275, "type": "electric_scooter"}, {"is_disabled": 0, "lat": 38.922582, "bike_id": "63ba097810565f32884879bd8841fbc8", "is_reserved": 0, "rental_uris": {"ios": "https://dc.lft.to/lastmile_qr_scan", "android": "https://dc.lft.to/lastmile_qr_scan"}, "name": "63ba097810565f32884879bd8841fbc8", "fusion_lon": 0.0, "fusion_lat": 0.0, "lon": -77.07277433333333, "type": "electric_scooter"}, {"is_disabled": 0, "lat": 38.90140183333333, "bike_id": "8ec6fb305455eda0a781788aa5671366", "is_reserved": 0, "rental_uris": {"ios": "https://dc.lft.to/lastmile_qr_scan", "android": "https://dc.lft.to/lastmile_qr_scan"}, "name": "8ec6fb305455eda0a781788aa5671366", "fusion_lon": 0.0, "fusion_lat": 0.0, "lon": -77.02928566666667, "type": "electric_scooter"}, {"is_disabled": 0, "lat": 38.928693333333335, "bike_id": "80ed55e77109a1f561b1e58ff1afdf2e", "is_reserved": 0, "rental_uris": {"ios": "https://dc.lft.to/lastmile_qr_scan", "android": "https://dc.lft.to/lastmile_qr_scan"}, "name": "80ed55e77109a1f561b1e58ff1afdf2e", "fusion_lon": 0.0, "fusion_lat": 0.0, "lon": -77.05655433333334, "type": "electric_scooter"}, {"is_disabled": 0, "lat": 38.880374, "bike_id": "07db8baf4a3a4d528a1f399d6484ebe3", "is_reserved": 0, "rental_uris": {"ios": "https://dc.lft.to/lastmile_qr_scan", "android": "https://dc.lft.to/lastmile_qr_scan"}, "name": "07db8baf4a3a4d528a1f399d6484ebe3", "fusion_lon": 0.0, "fusion_lat": 0.0, "lon": -76.927198, "type": "electric_scooter"}, {"is_disabled": 0, "lat": 38.91577233333334, "bike_id": "c74268c4d591425218221504b02dd426", "is_reserved": 0, "rental_uris": {"ios": "https://dc.lft.to/lastmile_qr_scan", "android": "https://dc.lft.to/lastmile_qr_scan"}, "name": "c74268c4d591425218221504b02dd426", "fusion_lon": 0.0, "fusion_lat": 0.0, "lon": -77.02004233333334, "type": "electric_scooter"}, {"is_disabled": 0, "lat": 38.89219633333333, "bike_id": "f6a71292b59140826479d776ad807365", "is_reserved": 0, "rental_uris": {"ios": "https://dc.lft.to/lastmile_qr_scan", "android": "https://dc.lft.to/lastmile_qr_scan"}, "name": "f6a71292b59140826479d776ad807365", "fusion_lon": 0.0, "fusion_lat": 0.0, "lon": -77.0136955, "type": "electric_scooter"}, {"is_disabled": 0, "lat": 38.89219833333333, "bike_id": "46ea34110d0f12e4f60e8bd91811a5ae", "is_reserved": 0, "rental_uris": {"ios": "https://dc.lft.to/lastmile_qr_scan", "android": "https://dc.lft.to/lastmile_qr_scan"}, "name": "46ea34110d0f12e4f60e8bd91811a5ae", "fusion_lon": 0.0, "fusion_lat": 0.0, "lon": -77.03165666666666, "type": "electric_scooter"}, {"is_disabled": 0, "lat": 38.910827, "bike_id": "86b25b6bcb38ce4f4a7c1a4645e597b1", "is_reserved": 0, "rental_uris": {"ios": "https://dc.lft.to/lastmile_qr_scan", "android": "https://dc.lft.to/lastmile_qr_scan"}, "name": "86b25b6bcb38ce4f4a7c1a4645e597b1", "fusion_lon": 0.0, "fusion_lat": 0.0, "lon": -77.04127516666667, "type": "electric_scooter"}, {"is_disabled": 0, "lat": 38.923556166666664, "bike_id": "efa3afa7a62f0ad321e9b2799f44fb17", "is_reserved": 0, "rental_uris": {"ios": "https://dc.lft.to/lastmile_qr_scan", "android": "https://dc.lft.to/lastmile_qr_scan"}, "name": "efa3afa7a62f0ad321e9b2799f44fb17", "fusion_lon": 0.0, "fusion_lat": 0.0, "lon": -77.04313566666667, "type": "electric_scooter"}, {"is_disabled": 0, "lat": 38.8990415, "bike_id": "5dc7b68bdd8e78fa08433aa38a4d6ca2", "is_reserved": 0, "rental_uris": {"ios": "https://dc.lft.to/lastmile_qr_scan", "android": "https://dc.lft.to/lastmile_qr_scan"}, "name": "5dc7b68bdd8e78fa08433aa38a4d6ca2", "fusion_lon": 0.0, "fusion_lat": 0.0, "lon": -76.93381716666667, "type": "electric_scooter"}, {"is_disabled": 0, "lat": 38.949746166666664, "bike_id": "1cea9973c8685562d6304fb89cb55ad7", "is_reserved": 0, "rental_uris": {"ios": "https://dc.lft.to/lastmile_qr_scan", "android": "https://dc.lft.to/lastmile_qr_scan"}, "name": "1cea9973c8685562d6304fb89cb55ad7", "fusion_lon": 0.0, "fusion_lat": 0.0, "lon": -77.02434683333334, "type": "electric_scooter"}, {"is_disabled": 0, "lat": 38.923270333333335, "bike_id": "036dce865d7d991b10037fcb5df45b2e", "is_reserved": 0, "rental_uris": {"ios": "https://dc.lft.to/lastmile_qr_scan", "android": "https://dc.lft.to/lastmile_qr_scan"}, "name": "036dce865d7d991b10037fcb5df45b2e", "fusion_lon": 0.0, "fusion_lat": 0.0, "lon": -77.03662833333334, "type": "electric_scooter"}, {"is_disabled": 0, "lat": 38.91749466666667, "bike_id": "326889c4cc483884c5ced788987419c9", "is_reserved": 0, "rental_uris": {"ios": "https://dc.lft.to/lastmile_qr_scan", "android": "https://dc.lft.to/lastmile_qr_scan"}, "name": "326889c4cc483884c5ced788987419c9", "fusion_lon": 0.0, "fusion_lat": 0.0, "lon": -77.0211885, "type": "electric_scooter"}, {"is_disabled": 0, "lat": 38.90126816666667, "bike_id": "b859c077948a6a03c18d144a283ebe7b", "is_reserved": 0, "rental_uris": {"ios": "https://dc.lft.to/lastmile_qr_scan", "android": "https://dc.lft.to/lastmile_qr_scan"}, "name": "b859c077948a6a03c18d144a283ebe7b", "fusion_lon": 0.0, "fusion_lat": 0.0, "lon": -77.05001366666667, "type": "electric_scooter"}, {"is_disabled": 0, "lat": 38.911556166666664, "bike_id": "d5b0d9e41ecc3a2c7624334f1b32d838", "is_reserved": 0, "rental_uris": {"ios": "https://dc.lft.to/lastmile_qr_scan", "android": "https://dc.lft.to/lastmile_qr_scan"}, "name": "d5b0d9e41ecc3a2c7624334f1b32d838", "fusion_lon": 0.0, "fusion_lat": 0.0, "lon": -77.01080483333334, "type": "electric_scooter"}, {"is_disabled": 0, "lat": 38.884323, "bike_id": "5c4c0057450a697de3c4b72530660d88", "is_reserved": 0, "rental_uris": {"ios": "https://dc.lft.to/lastmile_qr_scan", "android": "https://dc.lft.to/lastmile_qr_scan"}, "name": "5c4c0057450a697de3c4b72530660d88", "fusion_lon": 0.0, "fusion_lat": 0.0, "lon": -77.0299125, "type": "electric_bike"}, {"is_disabled": 0, "lat": 38.9178155, "bike_id": "f6ef79d2ec71f01c97fe8ea6bd8965b1", "is_reserved": 0, "rental_uris": {"ios": "https://dc.lft.to/lastmile_qr_scan", "android": "https://dc.lft.to/lastmile_qr_scan"}, "name": "f6ef79d2ec71f01c97fe8ea6bd8965b1", "fusion_lon": 0.0, "fusion_lat": 0.0, "lon": -77.02305816666667, "type": "electric_scooter"}, {"is_disabled": 0, "lat": 38.880367166666666, "bike_id": "cfb8462471b57aaa4a0504157b28e0d3", "is_reserved": 0, "rental_uris": {"ios": "https://dc.lft.to/lastmile_qr_scan", "android": "https://dc.lft.to/lastmile_qr_scan"}, "name": "cfb8462471b57aaa4a0504157b28e0d3", "fusion_lon": 0.0, "fusion_lat": 0.0, "lon": -76.9272355, "type": "electric_scooter"}, {"is_disabled": 0, "lat": 38.90186466666667, "bike_id": "58434c5b50c7b2b26b50bfedb1d794d4", "is_reserved": 0, "rental_uris": {"ios": "https://dc.lft.to/lastmile_qr_scan", "android": "https://dc.lft.to/lastmile_qr_scan"}, "name": "58434c5b50c7b2b26b50bfedb1d794d4", "fusion_lon": 0.0, "fusion_lat": 0.0, "lon": -77.02173866666666, "type": "electric_scooter"}, {"is_disabled": 0, "lat": 38.97152333333333, "bike_id": "470b0cc91aed10953bd1910b89ab4fca", "is_reserved": 0, "rental_uris": {"ios": "https://dc.lft.to/lastmile_qr_scan", "android": "https://dc.lft.to/lastmile_qr_scan"}, "name": "470b0cc91aed10953bd1910b89ab4fca", "fusion_lon": 0.0, "fusion_lat": 0.0, "lon": -76.98362883333333, "type": "electric_bike"}, {"is_disabled": 0, "lat": 38.907941666666666, "bike_id": "264a34eac6c9e702cf44410b5f2bced4", "is_reserved": 0, "rental_uris": {"ios": "https://dc.lft.to/lastmile_qr_scan", "android": "https://dc.lft.to/lastmile_qr_scan"}, "name": "264a34eac6c9e702cf44410b5f2bced4", "fusion_lon": 0.0, "fusion_lat": 0.0, "lon": -77.04247016666666, "type": "electric_scooter"}, {"is_disabled": 0, "lat": 38.926500833333336, "bike_id": "00aadc7c4d04c73c436d157d6c65f885", "is_reserved": 0, "rental_uris": {"ios": "https://dc.lft.to/lastmile_qr_scan", "android": "https://dc.lft.to/lastmile_qr_scan"}, "name": "00aadc7c4d04c73c436d157d6c65f885", "fusion_lon": 0.0, "fusion_lat": 0.0, "lon": -77.03844416666666, "type": "electric_scooter"}, {"is_disabled": 0, "lat": 38.886546833333334, "bike_id": "b1df2b1fc2314ab8066b2f5c12975995", "is_reserved": 0, "rental_uris": {"ios": "https://dc.lft.to/lastmile_qr_scan", "android": "https://dc.lft.to/lastmile_qr_scan"}, "name": "b1df2b1fc2314ab8066b2f5c12975995", "fusion_lon": 0.0, "fusion_lat": 0.0, "lon": -77.16233366666667, "type": "electric_bike"}, {"is_disabled": 0, "lat": 38.897055333333334, "bike_id": "c9297ed4143e860f70098a0bce486845", "is_reserved": 0, "rental_uris": {"ios": "https://dc.lft.to/lastmile_qr_scan", "android": "https://dc.lft.to/lastmile_qr_scan"}, "name": "c9297ed4143e860f70098a0bce486845", "fusion_lon": 0.0, "fusion_lat": 0.0, "lon": -76.93910816666667, "type": "electric_scooter"}, {"is_disabled": 0, "lat": 38.921375166666664, "bike_id": "93b5d757f42e8cb88263be0c7ad84322", "is_reserved": 0, "rental_uris": {"ios": "https://dc.lft.to/lastmile_qr_scan", "android": "https://dc.lft.to/lastmile_qr_scan"}, "name": "93b5d757f42e8cb88263be0c7ad84322", "fusion_lon": 0.0, "fusion_lat": 0.0, "lon": -77.00086833333333, "type": "electric_scooter"}, {"is_disabled": 0, "lat": 38.890883, "bike_id": "aafab31c2a814f57a8d866d4fa16ae51", "is_reserved": 0, "rental_uris": {"ios": "https://dc.lft.to/lastmile_qr_scan", "android": "https://dc.lft.to/lastmile_qr_scan"}, "name": "aafab31c2a814f57a8d866d4fa16ae51", "fusion_lon": 0.0, "fusion_lat": 0.0, "lon": -76.95463216666667, "type": "electric_bike"}, {"is_disabled": 0, "lat": 38.93186933333333, "bike_id": "a51208cb5feca7d71d439d06a2e73143", "is_reserved": 0, "rental_uris": {"ios": "https://dc.lft.to/lastmile_qr_scan", "android": "https://dc.lft.to/lastmile_qr_scan"}, "name": "a51208cb5feca7d71d439d06a2e73143", "fusion_lon": 0.0, "fusion_lat": 0.0, "lon": -77.0186805, "type": "electric_scooter"}, {"is_disabled": 0, "lat": 38.912565666666666, "bike_id": "6e405cd7c353cbc458fea17c885b5bb1", "is_reserved": 0, "rental_uris": {"ios": "https://dc.lft.to/lastmile_qr_scan", "android": "https://dc.lft.to/lastmile_qr_scan"}, "name": "6e405cd7c353cbc458fea17c885b5bb1", "fusion_lon": 0.0, "fusion_lat": 0.0, "lon": -77.038819, "type": "electric_scooter"}, {"is_disabled": 0, "lat": 38.9563545, "bike_id": "e8af3c7a0276e0a9ef90bbba708b688a", "is_reserved": 0, "rental_uris": {"ios": "https://dc.lft.to/lastmile_qr_scan", "android": "https://dc.lft.to/lastmile_qr_scan"}, "name": "e8af3c7a0276e0a9ef90bbba708b688a", "fusion_lon": 0.0, "fusion_lat": 0.0, "lon": -77.036298, "type": "electric_scooter"}, {"is_disabled": 0, "lat": 38.892151166666665, "bike_id": "ed180e782b8209a74e4182b0fc2806e3", "is_reserved": 0, "rental_uris": {"ios": "https://dc.lft.to/lastmile_qr_scan", "android": "https://dc.lft.to/lastmile_qr_scan"}, "name": "ed180e782b8209a74e4182b0fc2806e3", "fusion_lon": 0.0, "fusion_lat": 0.0, "lon": -77.03161483333334, "type": "electric_scooter"}, {"is_disabled": 0, "lat": 38.898486, "bike_id": "4733814f064e5efbccbe6af5dfc8695e", "is_reserved": 0, "rental_uris": {"ios": "https://dc.lft.to/lastmile_qr_scan", "android": "https://dc.lft.to/lastmile_qr_scan"}, "name": "4733814f064e5efbccbe6af5dfc8695e", "fusion_lon": 0.0, "fusion_lat": 0.0, "lon": -77.04495516666667, "type": "electric_scooter"}, {"is_disabled": 0, "lat": 38.91754933333333, "bike_id": "9d6ac6651662e74858fe3d7d017bfe86", "is_reserved": 0, "rental_uris": {"ios": "https://dc.lft.to/lastmile_qr_scan", "android": "https://dc.lft.to/lastmile_qr_scan"}, "name": "9d6ac6651662e74858fe3d7d017bfe86", "fusion_lon": 0.0, "fusion_lat": 0.0, "lon": -77.03643033333333, "type": "electric_scooter"}, {"is_disabled": 0, "lat": 38.905165, "bike_id": "8f3b3a651e93aa8425e8d3e5fa9515de", "is_reserved": 0, "rental_uris": {"ios": "https://dc.lft.to/lastmile_qr_scan", "android": "https://dc.lft.to/lastmile_qr_scan"}, "name": "8f3b3a651e93aa8425e8d3e5fa9515de", "fusion_lon": 0.0, "fusion_lat": 0.0, "lon": -77.06735716666667, "type": "electric_scooter"}, {"is_disabled": 0, "lat": 38.89193916666667, "bike_id": "0cd1249ec62be0881f5338e3fb98b05e", "is_reserved": 0, "rental_uris": {"ios": "https://dc.lft.to/lastmile_qr_scan", "android": "https://dc.lft.to/lastmile_qr_scan"}, "name": "0cd1249ec62be0881f5338e3fb98b05e", "fusion_lon": 0.0, "fusion_lat": 0.0, "lon": -76.99856566666666, "type": "electric_scooter"}, {"is_disabled": 0, "lat": 38.86420866666667, "bike_id": "4ab6fed5bb38cad66e21f5bc1f286b42", "is_reserved": 0, "rental_uris": {"ios": "https://dc.lft.to/lastmile_qr_scan", "android": "https://dc.lft.to/lastmile_qr_scan"}, "name": "4ab6fed5bb38cad66e21f5bc1f286b42", "fusion_lon": 0.0, "fusion_lat": 0.0, "lon": -76.990068, "type": "electric_scooter"}, {"is_disabled": 0, "lat": 38.920039, "bike_id": "9fa47fb9f53d69935164a8a6b98cf9c9", "is_reserved": 0, "rental_uris": {"ios": "https://dc.lft.to/lastmile_qr_scan", "android": "https://dc.lft.to/lastmile_qr_scan"}, "name": "9fa47fb9f53d69935164a8a6b98cf9c9", "fusion_lon": 0.0, "fusion_lat": 0.0, "lon": -76.98500516666667, "type": "electric_scooter"}, {"is_disabled": 0, "lat": 38.950914, "bike_id": "020ec9c28574bf240a11604e29ff9753", "is_reserved": 0, "rental_uris": {"ios": "https://dc.lft.to/lastmile_qr_scan", "android": "https://dc.lft.to/lastmile_qr_scan"}, "name": "020ec9c28574bf240a11604e29ff9753", "fusion_lon": 0.0, "fusion_lat": 0.0, "lon": -76.9979055, "type": "electric_bike"}, {"is_disabled": 0, "lat": 38.89366916666667, "bike_id": "7fd064d933e0e9459db0ccb1c85b182d", "is_reserved": 0, "rental_uris": {"ios": "https://dc.lft.to/lastmile_qr_scan", "android": "https://dc.lft.to/lastmile_qr_scan"}, "name": "7fd064d933e0e9459db0ccb1c85b182d", "fusion_lon": 0.0, "fusion_lat": 0.0, "lon": -77.01550433333334, "type": "electric_scooter"}, {"is_disabled": 0, "lat": 39.042253, "bike_id": "d5b34f1e41fdf0abebef11050faba16e", "is_reserved": 0, "rental_uris": {"ios": "https://dc.lft.to/lastmile_qr_scan", "android": "https://dc.lft.to/lastmile_qr_scan"}, "name": "d5b34f1e41fdf0abebef11050faba16e", "fusion_lon": 0.0, "fusion_lat": 0.0, "lon": -76.99728283333333, "type": "electric_bike"}, {"is_disabled": 0, "lat": 38.9247845, "bike_id": "8d0dc1700b48d182999ef392bd3a6f38", "is_reserved": 0, "rental_uris": {"ios": "https://dc.lft.to/lastmile_qr_scan", "android": "https://dc.lft.to/lastmile_qr_scan"}, "name": "8d0dc1700b48d182999ef392bd3a6f38", "fusion_lon": 0.0, "fusion_lat": 0.0, "lon": -77.02218266666667, "type": "electric_scooter"}, {"is_disabled": 0, "lat": 38.919699333333334, "bike_id": "1ecb3750ebcd72ec5ffdb64b54adf7e4", "is_reserved": 0, "rental_uris": {"ios": "https://dc.lft.to/lastmile_qr_scan", "android": "https://dc.lft.to/lastmile_qr_scan"}, "name": "1ecb3750ebcd72ec5ffdb64b54adf7e4", "fusion_lon": 0.0, "fusion_lat": 0.0, "lon": -76.99255283333333, "type": "electric_scooter"}, {"is_disabled": 0, "lat": 38.93460733333333, "bike_id": "065e0d053297719401d9fc3a879838c5", "is_reserved": 0, "rental_uris": {"ios": "https://dc.lft.to/lastmile_qr_scan", "android": "https://dc.lft.to/lastmile_qr_scan"}, "name": "065e0d053297719401d9fc3a879838c5", "fusion_lon": 0.0, "fusion_lat": 0.0, "lon": -77.02739283333334, "type": "electric_scooter"}, {"is_disabled": 0, "lat": 38.99848866666667, "bike_id": "9b3904e125cc68f1858fb3c0f2273791", "is_reserved": 0, "rental_uris": {"ios": "https://dc.lft.to/lastmile_qr_scan", "android": "https://dc.lft.to/lastmile_qr_scan"}, "name": "9b3904e125cc68f1858fb3c0f2273791", "fusion_lon": 0.0, "fusion_lat": 0.0, "lon": -77.00248566666667, "type": "electric_bike"}, {"is_disabled": 0, "lat": 38.8982415, "bike_id": "ad26e3fc05531d1be45aff5d88df36ed", "is_reserved": 0, "rental_uris": {"ios": "https://dc.lft.to/lastmile_qr_scan", "android": "https://dc.lft.to/lastmile_qr_scan"}, "name": "ad26e3fc05531d1be45aff5d88df36ed", "fusion_lon": 0.0, "fusion_lat": 0.0, "lon": -77.0074345, "type": "electric_scooter"}, {"is_disabled": 0, "lat": 38.900346166666665, "bike_id": "0109e4cb87bf64f5f90ff81b11442eb8", "is_reserved": 0, "rental_uris": {"ios": "https://dc.lft.to/lastmile_qr_scan", "android": "https://dc.lft.to/lastmile_qr_scan"}, "name": "0109e4cb87bf64f5f90ff81b11442eb8", "fusion_lon": 0.0, "fusion_lat": 0.0, "lon": -77.04341483333333, "type": "electric_scooter"}, {"is_disabled": 0, "lat": 38.87720133333333, "bike_id": "5c46b54fbd806f2b4bafa24ff5cc23f1", "is_reserved": 0, "rental_uris": {"ios": "https://dc.lft.to/lastmile_qr_scan", "android": "https://dc.lft.to/lastmile_qr_scan"}, "name": "5c46b54fbd806f2b4bafa24ff5cc23f1", "fusion_lon": 0.0, "fusion_lat": 0.0, "lon": -77.006721, "type": "electric_scooter"}, {"is_disabled": 0, "lat": 38.9314655, "bike_id": "3f86284a5b0336e09701b7d5707e9c23", "is_reserved": 0, "rental_uris": {"ios": "https://dc.lft.to/lastmile_qr_scan", "android": "https://dc.lft.to/lastmile_qr_scan"}, "name": "3f86284a5b0336e09701b7d5707e9c23", "fusion_lon": 0.0, "fusion_lat": 0.0, "lon": -77.02373933333334, "type": "electric_scooter"}, {"is_disabled": 0, "lat": 38.92792383333333, "bike_id": "80a6b5f7d63cd07e0cc522ba0c7576a2", "is_reserved": 0, "rental_uris": {"ios": "https://dc.lft.to/lastmile_qr_scan", "android": "https://dc.lft.to/lastmile_qr_scan"}, "name": "80a6b5f7d63cd07e0cc522ba0c7576a2", "fusion_lon": 0.0, "fusion_lat": 0.0, "lon": -77.05591666666666, "type": "electric_scooter"}, {"is_disabled": 0, "lat": 38.898188, "bike_id": "5bb242dc338c14acb70aedb2a27fdb57", "is_reserved": 0, "rental_uris": {"ios": "https://dc.lft.to/lastmile_qr_scan", "android": "https://dc.lft.to/lastmile_qr_scan"}, "name": "5bb242dc338c14acb70aedb2a27fdb57", "fusion_lon": 0.0, "fusion_lat": 0.0, "lon": -77.0293235, "type": "electric_scooter"}, {"is_disabled": 0, "lat": 38.920616, "bike_id": "6206e1d1e069c8b116067cad0c0bb2ad", "is_reserved": 0, "rental_uris": {"ios": "https://dc.lft.to/lastmile_qr_scan", "android": "https://dc.lft.to/lastmile_qr_scan"}, "name": "6206e1d1e069c8b116067cad0c0bb2ad", "fusion_lon": 0.0, "fusion_lat": 0.0, "lon": -77.0436115, "type": "electric_scooter"}, {"is_disabled": 0, "lat": 38.89667933333333, "bike_id": "e8e937f1ef3ffdb6c897d9dfbd2e5374", "is_reserved": 0, "rental_uris": {"ios": "https://dc.lft.to/lastmile_qr_scan", "android": "https://dc.lft.to/lastmile_qr_scan"}, "name": "e8e937f1ef3ffdb6c897d9dfbd2e5374", "fusion_lon": 0.0, "fusion_lat": 0.0, "lon": -76.93207683333333, "type": "electric_bike"}, {"is_disabled": 0, "lat": 38.93413683333333, "bike_id": "ac70aef3ec244d1d89b2d826af457d67", "is_reserved": 0, "rental_uris": {"ios": "https://dc.lft.to/lastmile_qr_scan", "android": "https://dc.lft.to/lastmile_qr_scan"}, "name": "ac70aef3ec244d1d89b2d826af457d67", "fusion_lon": 0.0, "fusion_lat": 0.0, "lon": -77.0724135, "type": "electric_scooter"}, {"is_disabled": 0, "lat": 38.917653, "bike_id": "75e5e997d8b1d52356a1e24f72697643", "is_reserved": 0, "rental_uris": {"ios": "https://dc.lft.to/lastmile_qr_scan", "android": "https://dc.lft.to/lastmile_qr_scan"}, "name": "75e5e997d8b1d52356a1e24f72697643", "fusion_lon": 0.0, "fusion_lat": 0.0, "lon": -77.0295155, "type": "electric_scooter"}, {"is_disabled": 0, "lat": 38.92300683333333, "bike_id": "6cdcd834b7e42116a27d1ab03cbb133f", "is_reserved": 0, "rental_uris": {"ios": "https://dc.lft.to/lastmile_qr_scan", "android": "https://dc.lft.to/lastmile_qr_scan"}, "name": "6cdcd834b7e42116a27d1ab03cbb133f", "fusion_lon": 0.0, "fusion_lat": 0.0, "lon": -77.03413183333333, "type": "electric_scooter"}, {"is_disabled": 0, "lat": 38.876589333333335, "bike_id": "0be08076c0bffd2f6b755f0215c11a88", "is_reserved": 0, "rental_uris": {"ios": "https://dc.lft.to/lastmile_qr_scan", "android": "https://dc.lft.to/lastmile_qr_scan"}, "name": "0be08076c0bffd2f6b755f0215c11a88", "fusion_lon": 0.0, "fusion_lat": 0.0, "lon": -77.00884316666667, "type": "electric_scooter"}, {"is_disabled": 0, "lat": 38.974395, "bike_id": "2e235e1b62f87d85d9203c4a8bc8bec5", "is_reserved": 0, "rental_uris": {"ios": "https://dc.lft.to/lastmile_qr_scan", "android": "https://dc.lft.to/lastmile_qr_scan"}, "name": "2e235e1b62f87d85d9203c4a8bc8bec5", "fusion_lon": 0.0, "fusion_lat": 0.0, "lon": -77.09591216666666, "type": "electric_bike"}, {"is_disabled": 0, "lat": 38.92220583333334, "bike_id": "4707b53fd4ce01d0f1bcb85518525b20", "is_reserved": 0, "rental_uris": {"ios": "https://dc.lft.to/lastmile_qr_scan", "android": "https://dc.lft.to/lastmile_qr_scan"}, "name": "4707b53fd4ce01d0f1bcb85518525b20", "fusion_lon": 0.0, "fusion_lat": 0.0, "lon": -77.0424105, "type": "electric_scooter"}, {"is_disabled": 0, "lat": 38.909577166666665, "bike_id": "5874d487c4d23a58390b1d5cf42ee20b", "is_reserved": 0, "rental_uris": {"ios": "https://dc.lft.to/lastmile_qr_scan", "android": "https://dc.lft.to/lastmile_qr_scan"}, "name": "5874d487c4d23a58390b1d5cf42ee20b", "fusion_lon": 0.0, "fusion_lat": 0.0, "lon": -77.03337833333333, "type": "electric_scooter"}, {"is_disabled": 0, "lat": 38.917718666666666, "bike_id": "35cf714170095641ae159357f3bbea2a", "is_reserved": 0, "rental_uris": {"ios": "https://dc.lft.to/lastmile_qr_scan", "android": "https://dc.lft.to/lastmile_qr_scan"}, "name": "35cf714170095641ae159357f3bbea2a", "fusion_lon": 0.0, "fusion_lat": 0.0, "lon": -77.0454475, "type": "electric_scooter"}, {"is_disabled": 0, "lat": 38.92291866666667, "bike_id": "74ed3d1e7e3963988e05eced0330fb43", "is_reserved": 0, "rental_uris": {"ios": "https://dc.lft.to/lastmile_qr_scan", "android": "https://dc.lft.to/lastmile_qr_scan"}, "name": "74ed3d1e7e3963988e05eced0330fb43", "fusion_lon": 0.0, "fusion_lat": 0.0, "lon": -77.0427065, "type": "electric_scooter"}, {"is_disabled": 0, "lat": 38.91756483333333, "bike_id": "65d08542167141bf3b0272b2b95b698b", "is_reserved": 0, "rental_uris": {"ios": "https://dc.lft.to/lastmile_qr_scan", "android": "https://dc.lft.to/lastmile_qr_scan"}, "name": "65d08542167141bf3b0272b2b95b698b", "fusion_lon": 0.0, "fusion_lat": 0.0, "lon": -77.03640366666667, "type": "electric_scooter"}, {"is_disabled": 0, "lat": 38.94915566666667, "bike_id": "9addab348bf2037bce942960f7b729fe", "is_reserved": 0, "rental_uris": {"ios": "https://dc.lft.to/lastmile_qr_scan", "android": "https://dc.lft.to/lastmile_qr_scan"}, "name": "9addab348bf2037bce942960f7b729fe", "fusion_lon": 0.0, "fusion_lat": 0.0, "lon": -77.01856233333334, "type": "electric_scooter"}, {"is_disabled": 0, "lat": 38.88656066666667, "bike_id": "6c3b72c39790df217001f9d748709ffa", "is_reserved": 0, "rental_uris": {"ios": "https://dc.lft.to/lastmile_qr_scan", "android": "https://dc.lft.to/lastmile_qr_scan"}, "name": "6c3b72c39790df217001f9d748709ffa", "fusion_lon": 0.0, "fusion_lat": 0.0, "lon": -77.03392516666666, "type": "electric_scooter"}, {"is_disabled": 0, "lat": 38.8923395, "bike_id": "f2c1e5e543063dbdebb92cf7dbbe3f37", "is_reserved": 0, "rental_uris": {"ios": "https://dc.lft.to/lastmile_qr_scan", "android": "https://dc.lft.to/lastmile_qr_scan"}, "name": "f2c1e5e543063dbdebb92cf7dbbe3f37", "fusion_lon": 0.0, "fusion_lat": 0.0, "lon": -77.0436465, "type": "electric_scooter"}, {"is_disabled": 0, "lat": 38.9015025, "bike_id": "092f0cd5e05549445ca48ce5e9c0a9d5", "is_reserved": 0, "rental_uris": {"ios": "https://dc.lft.to/lastmile_qr_scan", "android": "https://dc.lft.to/lastmile_qr_scan"}, "name": "092f0cd5e05549445ca48ce5e9c0a9d5", "fusion_lon": 0.0, "fusion_lat": 0.0, "lon": -77.02486766666667, "type": "electric_scooter"}, {"is_disabled": 0, "lat": 38.91268916666667, "bike_id": "f13aeac86d15ccb115f9300fb9eb06ad", "is_reserved": 0, "rental_uris": {"ios": "https://dc.lft.to/lastmile_qr_scan", "android": "https://dc.lft.to/lastmile_qr_scan"}, "name": "f13aeac86d15ccb115f9300fb9eb06ad", "fusion_lon": 0.0, "fusion_lat": 0.0, "lon": -77.04867416666667, "type": "electric_scooter"}, {"is_disabled": 0, "lat": 38.905924166666665, "bike_id": "415eb88a912aadea4fb93c1673f980ea", "is_reserved": 0, "rental_uris": {"ios": "https://dc.lft.to/lastmile_qr_scan", "android": "https://dc.lft.to/lastmile_qr_scan"}, "name": "415eb88a912aadea4fb93c1673f980ea", "fusion_lon": 0.0, "fusion_lat": 0.0, "lon": -77.00710166666667, "type": "electric_scooter"}, {"is_disabled": 0, "lat": 38.90272083333333, "bike_id": "262080ce7d3426eeb034bf7e5dd540c6", "is_reserved": 0, "rental_uris": {"ios": "https://dc.lft.to/lastmile_qr_scan", "android": "https://dc.lft.to/lastmile_qr_scan"}, "name": "262080ce7d3426eeb034bf7e5dd540c6", "fusion_lon": 0.0, "fusion_lat": 0.0, "lon": -77.01734283333333, "type": "electric_scooter"}, {"is_disabled": 0, "lat": 38.90242966666667, "bike_id": "1b4d90fe7b44d58ee6d84a9bd7e3fed4", "is_reserved": 0, "rental_uris": {"ios": "https://dc.lft.to/lastmile_qr_scan", "android": "https://dc.lft.to/lastmile_qr_scan"}, "name": "1b4d90fe7b44d58ee6d84a9bd7e3fed4", "fusion_lon": 0.0, "fusion_lat": 0.0, "lon": -77.05205383333333, "type": "electric_scooter"}, {"is_disabled": 0, "lat": 38.92030416666667, "bike_id": "0917f1e69a70dfa0459304747bfe194c", "is_reserved": 0, "rental_uris": {"ios": "https://dc.lft.to/lastmile_qr_scan", "android": "https://dc.lft.to/lastmile_qr_scan"}, "name": "0917f1e69a70dfa0459304747bfe194c", "fusion_lon": 0.0, "fusion_lat": 0.0, "lon": -77.02593683333333, "type": "electric_scooter"}, {"is_disabled": 0, "lat": 38.899824, "bike_id": "fd1a56fe836028d7e93939b90a4e3d1d", "is_reserved": 0, "rental_uris": {"ios": "https://dc.lft.to/lastmile_qr_scan", "android": "https://dc.lft.to/lastmile_qr_scan"}, "name": "fd1a56fe836028d7e93939b90a4e3d1d", "fusion_lon": 0.0, "fusion_lat": 0.0, "lon": -77.0092445, "type": "electric_scooter"}, {"is_disabled": 0, "lat": 38.956376666666664, "bike_id": "7c0feac322d5e00fd14476c4c745ec79", "is_reserved": 0, "rental_uris": {"ios": "https://dc.lft.to/lastmile_qr_scan", "android": "https://dc.lft.to/lastmile_qr_scan"}, "name": "7c0feac322d5e00fd14476c4c745ec79", "fusion_lon": 0.0, "fusion_lat": 0.0, "lon": -77.01957466666667, "type": "electric_scooter"}, {"is_disabled": 0, "lat": 38.89223066666667, "bike_id": "67a7afcf365483063428141ace514acb", "is_reserved": 0, "rental_uris": {"ios": "https://dc.lft.to/lastmile_qr_scan", "android": "https://dc.lft.to/lastmile_qr_scan"}, "name": "67a7afcf365483063428141ace514acb", "fusion_lon": 0.0, "fusion_lat": 0.0, "lon": -77.0449825, "type": "electric_scooter"}, {"is_disabled": 0, "lat": 38.8921945, "bike_id": "c54fbe79cf9166c3e9d88c247a9c80ac", "is_reserved": 0, "rental_uris": {"ios": "https://dc.lft.to/lastmile_qr_scan", "android": "https://dc.lft.to/lastmile_qr_scan"}, "name": "c54fbe79cf9166c3e9d88c247a9c80ac", "fusion_lon": 0.0, "fusion_lat": 0.0, "lon": -77.0464215, "type": "electric_scooter"}, {"is_disabled": 0, "lat": 38.883906, "bike_id": "1f0bd942d5c4a969d078993a4187e71f", "is_reserved": 0, "rental_uris": {"ios": "https://dc.lft.to/lastmile_qr_scan", "android": "https://dc.lft.to/lastmile_qr_scan"}, "name": "1f0bd942d5c4a969d078993a4187e71f", "fusion_lon": 0.0, "fusion_lat": 0.0, "lon": -77.01767533333333, "type": "electric_scooter"}, {"is_disabled": 0, "lat": 38.8358125, "bike_id": "f07814d8732b450c2dd1de201ba3de61", "is_reserved": 0, "rental_uris": {"ios": "https://dc.lft.to/lastmile_qr_scan", "android": "https://dc.lft.to/lastmile_qr_scan"}, "name": "f07814d8732b450c2dd1de201ba3de61", "fusion_lon": 0.0, "fusion_lat": 0.0, "lon": -76.99025183333333, "type": "electric_bike"}, {"is_disabled": 0, "lat": 38.907770166666666, "bike_id": "84f34bd1116caacab1065ad2edac7b7d", "is_reserved": 0, "rental_uris": {"ios": "https://dc.lft.to/lastmile_qr_scan", "android": "https://dc.lft.to/lastmile_qr_scan"}, "name": "84f34bd1116caacab1065ad2edac7b7d", "fusion_lon": 0.0, "fusion_lat": 0.0, "lon": -77.04666166666667, "type": "electric_scooter"}, {"is_disabled": 0, "lat": 38.891753, "bike_id": "fe97cd2c90ff58afe06caeccaaf94016", "is_reserved": 0, "rental_uris": {"ios": "https://dc.lft.to/lastmile_qr_scan", "android": "https://dc.lft.to/lastmile_qr_scan"}, "name": "fe97cd2c90ff58afe06caeccaaf94016", "fusion_lon": 0.0, "fusion_lat": 0.0, "lon": -77.015754, "type": "electric_scooter"}, {"is_disabled": 0, "lat": 38.93251133333333, "bike_id": "4f62b2bc907d7593f5b3a316a11f25a4", "is_reserved": 0, "rental_uris": {"ios": "https://dc.lft.to/lastmile_qr_scan", "android": "https://dc.lft.to/lastmile_qr_scan"}, "name": "4f62b2bc907d7593f5b3a316a11f25a4", "fusion_lon": 0.0, "fusion_lat": 0.0, "lon": -77.03283566666667, "type": "electric_scooter"}, {"is_disabled": 0, "lat": 38.89834333333334, "bike_id": "da76bdb6ab1bf0f088daad79f7a0c716", "is_reserved": 0, "rental_uris": {"ios": "https://dc.lft.to/lastmile_qr_scan", "android": "https://dc.lft.to/lastmile_qr_scan"}, "name": "da76bdb6ab1bf0f088daad79f7a0c716", "fusion_lon": 0.0, "fusion_lat": 0.0, "lon": -77.0281945, "type": "electric_scooter"}, {"is_disabled": 0, "lat": 38.91904816666667, "bike_id": "7ba469edadddc109849e4c21b935ba9e", "is_reserved": 0, "rental_uris": {"ios": "https://dc.lft.to/lastmile_qr_scan", "android": "https://dc.lft.to/lastmile_qr_scan"}, "name": "7ba469edadddc109849e4c21b935ba9e", "fusion_lon": 0.0, "fusion_lat": 0.0, "lon": -77.101842, "type": "electric_bike"}, {"is_disabled": 0, "lat": 38.90507866666667, "bike_id": "4795556d742eaacd0a6ff727519f1c00", "is_reserved": 0, "rental_uris": {"ios": "https://dc.lft.to/lastmile_qr_scan", "android": "https://dc.lft.to/lastmile_qr_scan"}, "name": "4795556d742eaacd0a6ff727519f1c00", "fusion_lon": 0.0, "fusion_lat": 0.0, "lon": -77.07016133333333, "type": "electric_scooter"}, {"is_disabled": 0, "lat": 38.90522566666667, "bike_id": "47da67ac2140a12547c5c90b512f6292", "is_reserved": 0, "rental_uris": {"ios": "https://dc.lft.to/lastmile_qr_scan", "android": "https://dc.lft.to/lastmile_qr_scan"}, "name": "47da67ac2140a12547c5c90b512f6292", "fusion_lon": 0.0, "fusion_lat": 0.0, "lon": -77.04182933333334, "type": "electric_scooter"}, {"is_disabled": 0, "lat": 38.9002925, "bike_id": "e6c15d25d517410cd04d3ebe1035a472", "is_reserved": 0, "rental_uris": {"ios": "https://dc.lft.to/lastmile_qr_scan", "android": "https://dc.lft.to/lastmile_qr_scan"}, "name": "e6c15d25d517410cd04d3ebe1035a472", "fusion_lon": 0.0, "fusion_lat": 0.0, "lon": -76.99843316666667, "type": "electric_scooter"}, {"is_disabled": 0, "lat": 38.928570666666666, "bike_id": "196f0862a64e3e4f6fa0dc9f69e79e7c", "is_reserved": 0, "rental_uris": {"ios": "https://dc.lft.to/lastmile_qr_scan", "android": "https://dc.lft.to/lastmile_qr_scan"}, "name": "196f0862a64e3e4f6fa0dc9f69e79e7c", "fusion_lon": 0.0, "fusion_lat": 0.0, "lon": -77.03444833333333, "type": "electric_scooter"}, {"is_disabled": 0, "lat": 38.936000166666666, "bike_id": "2c872a82ebaaa8c1d0a7644fecbbd242", "is_reserved": 0, "rental_uris": {"ios": "https://dc.lft.to/lastmile_qr_scan", "android": "https://dc.lft.to/lastmile_qr_scan"}, "name": "2c872a82ebaaa8c1d0a7644fecbbd242", "fusion_lon": 0.0, "fusion_lat": 0.0, "lon": -77.0388405, "type": "electric_scooter"}, {"is_disabled": 0, "lat": 38.90643766666667, "bike_id": "10402649ebaf32d6eaa9816077ef1c28", "is_reserved": 0, "rental_uris": {"ios": "https://dc.lft.to/lastmile_qr_scan", "android": "https://dc.lft.to/lastmile_qr_scan"}, "name": "10402649ebaf32d6eaa9816077ef1c28", "fusion_lon": 0.0, "fusion_lat": 0.0, "lon": -77.02463066666667, "type": "electric_scooter"}, {"is_disabled": 0, "lat": 38.895094666666665, "bike_id": "dc03677225ef69c00d9245ed9c3faf7f", "is_reserved": 0, "rental_uris": {"ios": "https://dc.lft.to/lastmile_qr_scan", "android": "https://dc.lft.to/lastmile_qr_scan"}, "name": "dc03677225ef69c00d9245ed9c3faf7f", "fusion_lon": 0.0, "fusion_lat": 0.0, "lon": -76.99504616666667, "type": "electric_scooter"}, {"is_disabled": 0, "lat": 38.924767, "bike_id": "c574426d18c7a9704c86f3113e1f7996", "is_reserved": 0, "rental_uris": {"ios": "https://dc.lft.to/lastmile_qr_scan", "android": "https://dc.lft.to/lastmile_qr_scan"}, "name": "c574426d18c7a9704c86f3113e1f7996", "fusion_lon": 0.0, "fusion_lat": 0.0, "lon": -77.02755033333334, "type": "electric_scooter"}, {"is_disabled": 0, "lat": 38.93292833333334, "bike_id": "7be068d5daf493b698c7b156a8d57c67", "is_reserved": 0, "rental_uris": {"ios": "https://dc.lft.to/lastmile_qr_scan", "android": "https://dc.lft.to/lastmile_qr_scan"}, "name": "7be068d5daf493b698c7b156a8d57c67", "fusion_lon": 0.0, "fusion_lat": 0.0, "lon": -77.02823433333333, "type": "electric_scooter"}, {"is_disabled": 0, "lat": 38.9083335, "bike_id": "3cf50d413353fcff194c6bffbbd18a53", "is_reserved": 0, "rental_uris": {"ios": "https://dc.lft.to/lastmile_qr_scan", "android": "https://dc.lft.to/lastmile_qr_scan"}, "name": "3cf50d413353fcff194c6bffbbd18a53", "fusion_lon": 0.0, "fusion_lat": 0.0, "lon": -77.07305216666667, "type": "electric_scooter"}, {"is_disabled": 0, "lat": 38.93452516666667, "bike_id": "3c3671cba192f3d197f9510c8b581555", "is_reserved": 0, "rental_uris": {"ios": "https://dc.lft.to/lastmile_qr_scan", "android": "https://dc.lft.to/lastmile_qr_scan"}, "name": "3c3671cba192f3d197f9510c8b581555", "fusion_lon": 0.0, "fusion_lat": 0.0, "lon": -77.02835116666667, "type": "electric_scooter"}, {"is_disabled": 0, "lat": 38.896889, "bike_id": "b12ff009ac65cb9f161a9476c075bcd3", "is_reserved": 0, "rental_uris": {"ios": "https://dc.lft.to/lastmile_qr_scan", "android": "https://dc.lft.to/lastmile_qr_scan"}, "name": "b12ff009ac65cb9f161a9476c075bcd3", "fusion_lon": 0.0, "fusion_lat": 0.0, "lon": -77.02416533333333, "type": "electric_scooter"}, {"is_disabled": 0, "lat": 38.913445833333334, "bike_id": "c6f9ac029869e0d10e8a6d8666a4d738", "is_reserved": 0, "rental_uris": {"ios": "https://dc.lft.to/lastmile_qr_scan", "android": "https://dc.lft.to/lastmile_qr_scan"}, "name": "c6f9ac029869e0d10e8a6d8666a4d738", "fusion_lon": 0.0, "fusion_lat": 0.0, "lon": -77.06414933333333, "type": "electric_scooter"}, {"is_disabled": 0, "lat": 38.8922085, "bike_id": "cd53433b66731d90ffe5c34d916ae039", "is_reserved": 0, "rental_uris": {"ios": "https://dc.lft.to/lastmile_qr_scan", "android": "https://dc.lft.to/lastmile_qr_scan"}, "name": "cd53433b66731d90ffe5c34d916ae039", "fusion_lon": 0.0, "fusion_lat": 0.0, "lon": -77.02617833333333, "type": "electric_scooter"}, {"is_disabled": 0, "lat": 38.922569333333335, "bike_id": "70a6eddb516a7f903f2789bf889284c9", "is_reserved": 0, "rental_uris": {"ios": "https://dc.lft.to/lastmile_qr_scan", "android": "https://dc.lft.to/lastmile_qr_scan"}, "name": "70a6eddb516a7f903f2789bf889284c9", "fusion_lon": 0.0, "fusion_lat": 0.0, "lon": -77.01936183333333, "type": "electric_scooter"}, {"is_disabled": 0, "lat": 38.90008133333333, "bike_id": "fedee09bd5fa689982efe5491f080497", "is_reserved": 0, "rental_uris": {"ios": "https://dc.lft.to/lastmile_qr_scan", "android": "https://dc.lft.to/lastmile_qr_scan"}, "name": "fedee09bd5fa689982efe5491f080497", "fusion_lon": 0.0, "fusion_lat": 0.0, "lon": -76.99354666666666, "type": "electric_scooter"}, {"is_disabled": 0, "lat": 38.896201166666664, "bike_id": "98e49207df9e8c00847e3b5b355fe183", "is_reserved": 0, "rental_uris": {"ios": "https://dc.lft.to/lastmile_qr_scan", "android": "https://dc.lft.to/lastmile_qr_scan"}, "name": "98e49207df9e8c00847e3b5b355fe183", "fusion_lon": 0.0, "fusion_lat": 0.0, "lon": -77.02603066666667, "type": "electric_scooter"}, {"is_disabled": 0, "lat": 38.920735666666666, "bike_id": "6a5ed5c10f0eb0514c4d5b4d7f03b674", "is_reserved": 0, "rental_uris": {"ios": "https://dc.lft.to/lastmile_qr_scan", "android": "https://dc.lft.to/lastmile_qr_scan"}, "name": "6a5ed5c10f0eb0514c4d5b4d7f03b674", "fusion_lon": 0.0, "fusion_lat": 0.0, "lon": -77.042033, "type": "electric_scooter"}, {"is_disabled": 0, "lat": 38.92445016666667, "bike_id": "d2148c747b569c6b360df718b3cde9db", "is_reserved": 0, "rental_uris": {"ios": "https://dc.lft.to/lastmile_qr_scan", "android": "https://dc.lft.to/lastmile_qr_scan"}, "name": "d2148c747b569c6b360df718b3cde9db", "fusion_lon": 0.0, "fusion_lat": 0.0, "lon": -77.021493, "type": "electric_scooter"}, {"is_disabled": 0, "lat": 38.89235016666667, "bike_id": "a1f3876d027cfd153d100d5793b4cc1b", "is_reserved": 0, "rental_uris": {"ios": "https://dc.lft.to/lastmile_qr_scan", "android": "https://dc.lft.to/lastmile_qr_scan"}, "name": "a1f3876d027cfd153d100d5793b4cc1b", "fusion_lon": 0.0, "fusion_lat": 0.0, "lon": -77.03178266666667, "type": "electric_scooter"}, {"is_disabled": 0, "lat": 38.90141633333333, "bike_id": "baff22886f535364af0ff9c47d7b5355", "is_reserved": 0, "rental_uris": {"ios": "https://dc.lft.to/lastmile_qr_scan", "android": "https://dc.lft.to/lastmile_qr_scan"}, "name": "baff22886f535364af0ff9c47d7b5355", "fusion_lon": 0.0, "fusion_lat": 0.0, "lon": -77.035365, "type": "electric_scooter"}, {"is_disabled": 0, "lat": 38.899597666666665, "bike_id": "2d080c6b2fdecd7ce18167024cdf9d65", "is_reserved": 0, "rental_uris": {"ios": "https://dc.lft.to/lastmile_qr_scan", "android": "https://dc.lft.to/lastmile_qr_scan"}, "name": "2d080c6b2fdecd7ce18167024cdf9d65", "fusion_lon": 0.0, "fusion_lat": 0.0, "lon": -77.0477715, "type": "electric_scooter"}, {"is_disabled": 0, "lat": 38.8922115, "bike_id": "d8a3c84d2504d2cb70447f0d45fa5e27", "is_reserved": 0, "rental_uris": {"ios": "https://dc.lft.to/lastmile_qr_scan", "android": "https://dc.lft.to/lastmile_qr_scan"}, "name": "d8a3c84d2504d2cb70447f0d45fa5e27", "fusion_lon": 0.0, "fusion_lat": 0.0, "lon": -77.0242265, "type": "electric_scooter"}, {"is_disabled": 0, "lat": 38.90535533333333, "bike_id": "1c12149812f8caf28a73c0d7527236eb", "is_reserved": 0, "rental_uris": {"ios": "https://dc.lft.to/lastmile_qr_scan", "android": "https://dc.lft.to/lastmile_qr_scan"}, "name": "1c12149812f8caf28a73c0d7527236eb", "fusion_lon": 0.0, "fusion_lat": 0.0, "lon": -77.04098916666666, "type": "electric_scooter"}, {"is_disabled": 0, "lat": 38.90045666666666, "bike_id": "b052265ae26a906864a0ce1c96329647", "is_reserved": 0, "rental_uris": {"ios": "https://dc.lft.to/lastmile_qr_scan", "android": "https://dc.lft.to/lastmile_qr_scan"}, "name": "b052265ae26a906864a0ce1c96329647", "fusion_lon": 0.0, "fusion_lat": 0.0, "lon": -76.9915225, "type": "electric_scooter"}, {"is_disabled": 0, "lat": 38.918414, "bike_id": "58d2b9423fa407a044ef4bf425ff5751", "is_reserved": 0, "rental_uris": {"ios": "https://dc.lft.to/lastmile_qr_scan", "android": "https://dc.lft.to/lastmile_qr_scan"}, "name": "58d2b9423fa407a044ef4bf425ff5751", "fusion_lon": 0.0, "fusion_lat": 0.0, "lon": -77.02304916666667, "type": "electric_scooter"}, {"is_disabled": 0, "lat": 38.924683, "bike_id": "da63781616a1d7e59cf396e9c53c284b", "is_reserved": 0, "rental_uris": {"ios": "https://dc.lft.to/lastmile_qr_scan", "android": "https://dc.lft.to/lastmile_qr_scan"}, "name": "da63781616a1d7e59cf396e9c53c284b", "fusion_lon": 0.0, "fusion_lat": 0.0, "lon": -77.02213966666666, "type": "electric_scooter"}, {"is_disabled": 0, "lat": 38.859004, "bike_id": "5505edafe5c520723cfb01103ed4a1c8", "is_reserved": 0, "rental_uris": {"ios": "https://dc.lft.to/lastmile_qr_scan", "android": "https://dc.lft.to/lastmile_qr_scan"}, "name": "5505edafe5c520723cfb01103ed4a1c8", "fusion_lon": 0.0, "fusion_lat": 0.0, "lon": -77.09556533333334, "type": "electric_bike"}, {"is_disabled": 0, "lat": 38.90579533333333, "bike_id": "d9e42a9af292f8780760baec8f6d9a0f", "is_reserved": 0, "rental_uris": {"ios": "https://dc.lft.to/lastmile_qr_scan", "android": "https://dc.lft.to/lastmile_qr_scan"}, "name": "d9e42a9af292f8780760baec8f6d9a0f", "fusion_lon": 0.0, "fusion_lat": 0.0, "lon": -77.00269783333333, "type": "electric_scooter"}, {"is_disabled": 0, "lat": 38.956989666666665, "bike_id": "c73be2be74368088dec02699b81a94f1", "is_reserved": 0, "rental_uris": {"ios": "https://dc.lft.to/lastmile_qr_scan", "android": "https://dc.lft.to/lastmile_qr_scan"}, "name": "c73be2be74368088dec02699b81a94f1", "fusion_lon": 0.0, "fusion_lat": 0.0, "lon": -77.35973983333334, "type": "electric_bike"}, {"is_disabled": 0, "lat": 38.90582783333333, "bike_id": "86f29ad550ffcc6b81adec887c1085a9", "is_reserved": 0, "rental_uris": {"ios": "https://dc.lft.to/lastmile_qr_scan", "android": "https://dc.lft.to/lastmile_qr_scan"}, "name": "86f29ad550ffcc6b81adec887c1085a9", "fusion_lon": 0.0, "fusion_lat": 0.0, "lon": -77.02187816666667, "type": "electric_scooter"}, {"is_disabled": 0, "lat": 38.90381166666667, "bike_id": "d9d5f241f05cd20fee026761162c2cff", "is_reserved": 0, "rental_uris": {"ios": "https://dc.lft.to/lastmile_qr_scan", "android": "https://dc.lft.to/lastmile_qr_scan"}, "name": "d9d5f241f05cd20fee026761162c2cff", "fusion_lon": 0.0, "fusion_lat": 0.0, "lon": -77.03633416666666, "type": "electric_scooter"}, {"is_disabled": 0, "lat": 38.903598833333334, "bike_id": "c1a48837b478b0485ab9bbddeda3e58f", "is_reserved": 0, "rental_uris": {"ios": "https://dc.lft.to/lastmile_qr_scan", "android": "https://dc.lft.to/lastmile_qr_scan"}, "name": "c1a48837b478b0485ab9bbddeda3e58f", "fusion_lon": 0.0, "fusion_lat": 0.0, "lon": -77.03766766666666, "type": "electric_scooter"}, {"is_disabled": 0, "lat": 38.923300833333336, "bike_id": "2687232126cfa791c191de6107b35f9e", "is_reserved": 0, "rental_uris": {"ios": "https://dc.lft.to/lastmile_qr_scan", "android": "https://dc.lft.to/lastmile_qr_scan"}, "name": "2687232126cfa791c191de6107b35f9e", "fusion_lon": 0.0, "fusion_lat": 0.0, "lon": -77.0366895, "type": "electric_scooter"}, {"is_disabled": 0, "lat": 38.91255116666667, "bike_id": "d3d0c53c3fd192c7b51e5a183610f24b", "is_reserved": 0, "rental_uris": {"ios": "https://dc.lft.to/lastmile_qr_scan", "android": "https://dc.lft.to/lastmile_qr_scan"}, "name": "d3d0c53c3fd192c7b51e5a183610f24b", "fusion_lon": 0.0, "fusion_lat": 0.0, "lon": -77.038793, "type": "electric_scooter"}, {"is_disabled": 0, "lat": 39.08428033333333, "bike_id": "b79422e60b316aec422e5f14427912d1", "is_reserved": 0, "rental_uris": {"ios": "https://dc.lft.to/lastmile_qr_scan", "android": "https://dc.lft.to/lastmile_qr_scan"}, "name": "b79422e60b316aec422e5f14427912d1", "fusion_lon": 0.0, "fusion_lat": 0.0, "lon": -76.95144783333333, "type": "electric_bike"}, {"is_disabled": 0, "lat": 38.887725833333334, "bike_id": "a4ecb8599f21ae4e7b4b051188f8a0f4", "is_reserved": 0, "rental_uris": {"ios": "https://dc.lft.to/lastmile_qr_scan", "android": "https://dc.lft.to/lastmile_qr_scan"}, "name": "a4ecb8599f21ae4e7b4b051188f8a0f4", "fusion_lon": 0.0, "fusion_lat": 0.0, "lon": -76.93262366666667, "type": "electric_scooter"}, {"is_disabled": 0, "lat": 38.906076166666665, "bike_id": "7e458f9b620f56b0ac93e9d65714a9c9", "is_reserved": 0, "rental_uris": {"ios": "https://dc.lft.to/lastmile_qr_scan", "android": "https://dc.lft.to/lastmile_qr_scan"}, "name": "7e458f9b620f56b0ac93e9d65714a9c9", "fusion_lon": 0.0, "fusion_lat": 0.0, "lon": -76.97802533333333, "type": "electric_scooter"}, {"is_disabled": 0, "lat": 38.883778166666666, "bike_id": "abb2f5d7097c8969a92571258563e858", "is_reserved": 0, "rental_uris": {"ios": "https://dc.lft.to/lastmile_qr_scan", "android": "https://dc.lft.to/lastmile_qr_scan"}, "name": "abb2f5d7097c8969a92571258563e858", "fusion_lon": 0.0, "fusion_lat": 0.0, "lon": -76.923732, "type": "electric_bike"}, {"is_disabled": 0, "lat": 38.88396016666667, "bike_id": "29d40a58fe7e11ec4762d64e6fb728d3", "is_reserved": 0, "rental_uris": {"ios": "https://dc.lft.to/lastmile_qr_scan", "android": "https://dc.lft.to/lastmile_qr_scan"}, "name": "29d40a58fe7e11ec4762d64e6fb728d3", "fusion_lon": 0.0, "fusion_lat": 0.0, "lon": -76.930422, "type": "electric_scooter"}, {"is_disabled": 0, "lat": 38.909724833333335, "bike_id": "231bb907a44cc87009f6482f910d97b6", "is_reserved": 0, "rental_uris": {"ios": "https://dc.lft.to/lastmile_qr_scan", "android": "https://dc.lft.to/lastmile_qr_scan"}, "name": "231bb907a44cc87009f6482f910d97b6", "fusion_lon": 0.0, "fusion_lat": 0.0, "lon": -77.02415866666666, "type": "electric_scooter"}, {"is_disabled": 0, "lat": 38.923227, "bike_id": "6ff988b15b8808218dcd320a7d926284", "is_reserved": 0, "rental_uris": {"ios": "https://dc.lft.to/lastmile_qr_scan", "android": "https://dc.lft.to/lastmile_qr_scan"}, "name": "6ff988b15b8808218dcd320a7d926284", "fusion_lon": 0.0, "fusion_lat": 0.0, "lon": -77.0196315, "type": "electric_scooter"}, {"is_disabled": 0, "lat": 38.881860833333334, "bike_id": "c4f0a293921c216d0d81c0bd3117d111", "is_reserved": 0, "rental_uris": {"ios": "https://dc.lft.to/lastmile_qr_scan", "android": "https://dc.lft.to/lastmile_qr_scan"}, "name": "c4f0a293921c216d0d81c0bd3117d111", "fusion_lon": 0.0, "fusion_lat": 0.0, "lon": -77.00599933333334, "type": "electric_scooter"}, {"is_disabled": 0, "lat": 38.928362166666666, "bike_id": "b4b40d43fade457bf098fc2228c79eeb", "is_reserved": 0, "rental_uris": {"ios": "https://dc.lft.to/lastmile_qr_scan", "android": "https://dc.lft.to/lastmile_qr_scan"}, "name": "b4b40d43fade457bf098fc2228c79eeb", "fusion_lon": 0.0, "fusion_lat": 0.0, "lon": -77.05426, "type": "electric_scooter"}, {"is_disabled": 0, "lat": 38.903662833333335, "bike_id": "6507ff2482c28f71ff6eadf4cf8a4b19", "is_reserved": 0, "rental_uris": {"ios": "https://dc.lft.to/lastmile_qr_scan", "android": "https://dc.lft.to/lastmile_qr_scan"}, "name": "6507ff2482c28f71ff6eadf4cf8a4b19", "fusion_lon": 0.0, "fusion_lat": 0.0, "lon": -77.05024, "type": "electric_scooter"}, {"is_disabled": 0, "lat": 38.940389833333334, "bike_id": "845f7c0ef1c6e34460d35de36046b642", "is_reserved": 0, "rental_uris": {"ios": "https://dc.lft.to/lastmile_qr_scan", "android": "https://dc.lft.to/lastmile_qr_scan"}, "name": "845f7c0ef1c6e34460d35de36046b642", "fusion_lon": 0.0, "fusion_lat": 0.0, "lon": -77.01768533333333, "type": "electric_scooter"}, {"is_disabled": 0, "lat": 38.92321866666666, "bike_id": "04de0d68556bb90c5156aff2230c4dd3", "is_reserved": 0, "rental_uris": {"ios": "https://dc.lft.to/lastmile_qr_scan", "android": "https://dc.lft.to/lastmile_qr_scan"}, "name": "04de0d68556bb90c5156aff2230c4dd3", "fusion_lon": 0.0, "fusion_lat": 0.0, "lon": -77.0360575, "type": "electric_scooter"}, {"is_disabled": 0, "lat": 38.8973215, "bike_id": "655a1324f274479129dce9f7f4020711", "is_reserved": 0, "rental_uris": {"ios": "https://dc.lft.to/lastmile_qr_scan", "android": "https://dc.lft.to/lastmile_qr_scan"}, "name": "655a1324f274479129dce9f7f4020711", "fusion_lon": 0.0, "fusion_lat": 0.0, "lon": -77.04776766666667, "type": "electric_bike"}, {"is_disabled": 0, "lat": 38.92957116666667, "bike_id": "cfd0267a02211b37e91bcb3857d5d2b4", "is_reserved": 0, "rental_uris": {"ios": "https://dc.lft.to/lastmile_qr_scan", "android": "https://dc.lft.to/lastmile_qr_scan"}, "name": "cfd0267a02211b37e91bcb3857d5d2b4", "fusion_lon": 0.0, "fusion_lat": 0.0, "lon": -77.01149966666667, "type": "electric_scooter"}, {"is_disabled": 0, "lat": 38.93753516666666, "bike_id": "855ee9bde76e26d6bf3dc6470b2dea76", "is_reserved": 0, "rental_uris": {"ios": "https://dc.lft.to/lastmile_qr_scan", "android": "https://dc.lft.to/lastmile_qr_scan"}, "name": "855ee9bde76e26d6bf3dc6470b2dea76", "fusion_lon": 0.0, "fusion_lat": 0.0, "lon": -77.03264016666667, "type": "electric_scooter"}, {"is_disabled": 0, "lat": 38.899707666666664, "bike_id": "af481147ccbf9328fe9f975434e2fc9d", "is_reserved": 0, "rental_uris": {"ios": "https://dc.lft.to/lastmile_qr_scan", "android": "https://dc.lft.to/lastmile_qr_scan"}, "name": "af481147ccbf9328fe9f975434e2fc9d", "fusion_lon": 0.0, "fusion_lat": 0.0, "lon": -77.04520016666666, "type": "electric_scooter"}, {"is_disabled": 0, "lat": 38.902771333333334, "bike_id": "ef3be40853763e03c2a526c5112b59a1", "is_reserved": 0, "rental_uris": {"ios": "https://dc.lft.to/lastmile_qr_scan", "android": "https://dc.lft.to/lastmile_qr_scan"}, "name": "ef3be40853763e03c2a526c5112b59a1", "fusion_lon": 0.0, "fusion_lat": 0.0, "lon": -77.02828333333333, "type": "electric_scooter"}, {"is_disabled": 0, "lat": 38.888726, "bike_id": "0bca01ea4970a66c43baac3c07319094", "is_reserved": 0, "rental_uris": {"ios": "https://dc.lft.to/lastmile_qr_scan", "android": "https://dc.lft.to/lastmile_qr_scan"}, "name": "0bca01ea4970a66c43baac3c07319094", "fusion_lon": 0.0, "fusion_lat": 0.0, "lon": -76.95702983333334, "type": "electric_bike"}, {"is_disabled": 0, "lat": 38.926566, "bike_id": "83332146eefd6d8e569165e313ef0f1e", "is_reserved": 0, "rental_uris": {"ios": "https://dc.lft.to/lastmile_qr_scan", "android": "https://dc.lft.to/lastmile_qr_scan"}, "name": "83332146eefd6d8e569165e313ef0f1e", "fusion_lon": 0.0, "fusion_lat": 0.0, "lon": -77.0270685, "type": "electric_scooter"}, {"is_disabled": 0, "lat": 38.9368495, "bike_id": "22243fc28cb0c13e08aa08e055eeba31", "is_reserved": 0, "rental_uris": {"ios": "https://dc.lft.to/lastmile_qr_scan", "android": "https://dc.lft.to/lastmile_qr_scan"}, "name": "22243fc28cb0c13e08aa08e055eeba31", "fusion_lon": 0.0, "fusion_lat": 0.0, "lon": -77.03285216666667, "type": "electric_scooter"}, {"is_disabled": 0, "lat": 38.916220333333335, "bike_id": "2c82e19bad9e8512fe52f7a4c868430f", "is_reserved": 0, "rental_uris": {"ios": "https://dc.lft.to/lastmile_qr_scan", "android": "https://dc.lft.to/lastmile_qr_scan"}, "name": "2c82e19bad9e8512fe52f7a4c868430f", "fusion_lon": 0.0, "fusion_lat": 0.0, "lon": -77.05070383333333, "type": "electric_scooter"}, {"is_disabled": 0, "lat": 38.94290816666667, "bike_id": "7900bb582651d7eec6551f04d3902d6a", "is_reserved": 0, "rental_uris": {"ios": "https://dc.lft.to/lastmile_qr_scan", "android": "https://dc.lft.to/lastmile_qr_scan"}, "name": "7900bb582651d7eec6551f04d3902d6a", "fusion_lon": 0.0, "fusion_lat": 0.0, "lon": -77.07703983333333, "type": "electric_scooter"}, {"is_disabled": 0, "lat": 38.9250915, "bike_id": "14a0c232c9b132eabcbbd1da577b277c", "is_reserved": 0, "rental_uris": {"ios": "https://dc.lft.to/lastmile_qr_scan", "android": "https://dc.lft.to/lastmile_qr_scan"}, "name": "14a0c232c9b132eabcbbd1da577b277c", "fusion_lon": 0.0, "fusion_lat": 0.0, "lon": -77.021321, "type": "electric_scooter"}, {"is_disabled": 0, "lat": 38.90677683333333, "bike_id": "100f40e391b16cd51329228f6a1b5123", "is_reserved": 0, "rental_uris": {"ios": "https://dc.lft.to/lastmile_qr_scan", "android": "https://dc.lft.to/lastmile_qr_scan"}, "name": "100f40e391b16cd51329228f6a1b5123", "fusion_lon": 0.0, "fusion_lat": 0.0, "lon": -77.02717416666667, "type": "electric_scooter"}, {"is_disabled": 0, "lat": 38.9676615, "bike_id": "3edb6523ed538f7601eb45f799b142b4", "is_reserved": 0, "rental_uris": {"ios": "https://dc.lft.to/lastmile_qr_scan", "android": "https://dc.lft.to/lastmile_qr_scan"}, "name": "3edb6523ed538f7601eb45f799b142b4", "fusion_lon": 0.0, "fusion_lat": 0.0, "lon": -77.0333705, "type": "electric_scooter"}, {"is_disabled": 0, "lat": 38.89201383333333, "bike_id": "d30f488bceaf720396ecce97ab5a609d", "is_reserved": 0, "rental_uris": {"ios": "https://dc.lft.to/lastmile_qr_scan", "android": "https://dc.lft.to/lastmile_qr_scan"}, "name": "d30f488bceaf720396ecce97ab5a609d", "fusion_lon": 0.0, "fusion_lat": 0.0, "lon": -77.04393866666666, "type": "electric_scooter"}, {"is_disabled": 0, "lat": 38.907793166666664, "bike_id": "42c0a076e445dacc1d23240d6d0051c2", "is_reserved": 0, "rental_uris": {"ios": "https://dc.lft.to/lastmile_qr_scan", "android": "https://dc.lft.to/lastmile_qr_scan"}, "name": "42c0a076e445dacc1d23240d6d0051c2", "fusion_lon": 0.0, "fusion_lat": 0.0, "lon": -77.04511733333334, "type": "electric_scooter"}, {"is_disabled": 0, "lat": 38.902867666666666, "bike_id": "be1dcf3be5fd6b7a02be7984a42daeb9", "is_reserved": 0, "rental_uris": {"ios": "https://dc.lft.to/lastmile_qr_scan", "android": "https://dc.lft.to/lastmile_qr_scan"}, "name": "be1dcf3be5fd6b7a02be7984a42daeb9", "fusion_lon": 0.0, "fusion_lat": 0.0, "lon": -77.03787666666666, "type": "electric_scooter"}, {"is_disabled": 0, "lat": 38.900787666666666, "bike_id": "ff883cb740951aa508b1fa0445aee7e9", "is_reserved": 0, "rental_uris": {"ios": "https://dc.lft.to/lastmile_qr_scan", "android": "https://dc.lft.to/lastmile_qr_scan"}, "name": "ff883cb740951aa508b1fa0445aee7e9", "fusion_lon": 0.0, "fusion_lat": 0.0, "lon": -77.0474035, "type": "electric_scooter"}, {"is_disabled": 0, "lat": 38.921453, "bike_id": "dde8a36ebc8cd01a222d4fef3b666a0e", "is_reserved": 0, "rental_uris": {"ios": "https://dc.lft.to/lastmile_qr_scan", "android": "https://dc.lft.to/lastmile_qr_scan"}, "name": "dde8a36ebc8cd01a222d4fef3b666a0e", "fusion_lon": 0.0, "fusion_lat": 0.0, "lon": -77.03389983333334, "type": "electric_scooter"}, {"is_disabled": 0, "lat": 38.927798, "bike_id": "3d887254db19b4a310e07da6ebe2f594", "is_reserved": 0, "rental_uris": {"ios": "https://dc.lft.to/lastmile_qr_scan", "android": "https://dc.lft.to/lastmile_qr_scan"}, "name": "3d887254db19b4a310e07da6ebe2f594", "fusion_lon": 0.0, "fusion_lat": 0.0, "lon": -77.05259883333333, "type": "electric_scooter"}, {"is_disabled": 0, "lat": 38.896190833333335, "bike_id": "17d11ebbb2d7eb6dfcd906c239adcde2", "is_reserved": 0, "rental_uris": {"ios": "https://dc.lft.to/lastmile_qr_scan", "android": "https://dc.lft.to/lastmile_qr_scan"}, "name": "17d11ebbb2d7eb6dfcd906c239adcde2", "fusion_lon": 0.0, "fusion_lat": 0.0, "lon": -77.0220985, "type": "electric_scooter"}, {"is_disabled": 0, "lat": 38.895091666666666, "bike_id": "2f935092181fb9063a166b07244445f8", "is_reserved": 0, "rental_uris": {"ios": "https://dc.lft.to/lastmile_qr_scan", "android": "https://dc.lft.to/lastmile_qr_scan"}, "name": "2f935092181fb9063a166b07244445f8", "fusion_lon": 0.0, "fusion_lat": 0.0, "lon": -76.99507516666667, "type": "electric_scooter"}, {"is_disabled": 0, "lat": 38.915850166666665, "bike_id": "12fc20f0a049e8c11fe3ce85d767b4c9", "is_reserved": 0, "rental_uris": {"ios": "https://dc.lft.to/lastmile_qr_scan", "android": "https://dc.lft.to/lastmile_qr_scan"}, "name": "12fc20f0a049e8c11fe3ce85d767b4c9", "fusion_lon": 0.0, "fusion_lat": 0.0, "lon": -77.0200455, "type": "electric_scooter"}, {"is_disabled": 0, "lat": 39.01073133333333, "bike_id": "f75289319bf95423c644774d0567c15c", "is_reserved": 0, "rental_uris": {"ios": "https://dc.lft.to/lastmile_qr_scan", "android": "https://dc.lft.to/lastmile_qr_scan"}, "name": "f75289319bf95423c644774d0567c15c", "fusion_lon": 0.0, "fusion_lat": 0.0, "lon": -76.91065516666667, "type": "electric_bike"}, {"is_disabled": 0, "lat": 38.870365666666665, "bike_id": "d11d06441d436ac77f6a0df52f5275a3", "is_reserved": 0, "rental_uris": {"ios": "https://dc.lft.to/lastmile_qr_scan", "android": "https://dc.lft.to/lastmile_qr_scan"}, "name": "d11d06441d436ac77f6a0df52f5275a3", "fusion_lon": 0.0, "fusion_lat": 0.0, "lon": -77.22914, "type": "electric_bike"}, {"is_disabled": 0, "lat": 38.922475166666665, "bike_id": "381ced8ebd7df61b647341022d7b8726", "is_reserved": 0, "rental_uris": {"ios": "https://dc.lft.to/lastmile_qr_scan", "android": "https://dc.lft.to/lastmile_qr_scan"}, "name": "381ced8ebd7df61b647341022d7b8726", "fusion_lon": 0.0, "fusion_lat": 0.0, "lon": -77.03067466666667, "type": "electric_scooter"}, {"is_disabled": 0, "lat": 38.914357833333334, "bike_id": "54635ae94d8df8363664b7510501eebd", "is_reserved": 0, "rental_uris": {"ios": "https://dc.lft.to/lastmile_qr_scan", "android": "https://dc.lft.to/lastmile_qr_scan"}, "name": "54635ae94d8df8363664b7510501eebd", "fusion_lon": 0.0, "fusion_lat": 0.0, "lon": -77.01715816666666, "type": "electric_bike"}, {"is_disabled": 0, "lat": 38.89936683333333, "bike_id": "d9d98e401ba5d068226a3ac715ad1836", "is_reserved": 0, "rental_uris": {"ios": "https://dc.lft.to/lastmile_qr_scan", "android": "https://dc.lft.to/lastmile_qr_scan"}, "name": "d9d98e401ba5d068226a3ac715ad1836", "fusion_lon": 0.0, "fusion_lat": 0.0, "lon": -77.02397333333333, "type": "electric_scooter"}, {"is_disabled": 0, "lat": 38.92471483333333, "bike_id": "6667ee2b43bca3924c0b635181882241", "is_reserved": 0, "rental_uris": {"ios": "https://dc.lft.to/lastmile_qr_scan", "android": "https://dc.lft.to/lastmile_qr_scan"}, "name": "6667ee2b43bca3924c0b635181882241", "fusion_lon": 0.0, "fusion_lat": 0.0, "lon": -77.022061, "type": "electric_scooter"}, {"is_disabled": 0, "lat": 38.90243233333333, "bike_id": "7d98e57f12dedeced1c9425c00b822da", "is_reserved": 0, "rental_uris": {"ios": "https://dc.lft.to/lastmile_qr_scan", "android": "https://dc.lft.to/lastmile_qr_scan"}, "name": "7d98e57f12dedeced1c9425c00b822da", "fusion_lon": 0.0, "fusion_lat": 0.0, "lon": -77.02647283333333, "type": "electric_scooter"}, {"is_disabled": 0, "lat": 38.9168775, "bike_id": "ec73e1f1e0af22dc24e0ab661d2a8489", "is_reserved": 0, "rental_uris": {"ios": "https://dc.lft.to/lastmile_qr_scan", "android": "https://dc.lft.to/lastmile_qr_scan"}, "name": "ec73e1f1e0af22dc24e0ab661d2a8489", "fusion_lon": 0.0, "fusion_lat": 0.0, "lon": -77.02523216666667, "type": "electric_scooter"}, {"is_disabled": 0, "lat": 38.91128666666667, "bike_id": "bc45344ef25d4d4a225002d3dce78d97", "is_reserved": 0, "rental_uris": {"ios": "https://dc.lft.to/lastmile_qr_scan", "android": "https://dc.lft.to/lastmile_qr_scan"}, "name": "bc45344ef25d4d4a225002d3dce78d97", "fusion_lon": 0.0, "fusion_lat": 0.0, "lon": -77.0220255, "type": "electric_scooter"}, {"is_disabled": 0, "lat": 38.89637333333334, "bike_id": "965ce5e67203c7f194ff28ee3152e6b0", "is_reserved": 0, "rental_uris": {"ios": "https://dc.lft.to/lastmile_qr_scan", "android": "https://dc.lft.to/lastmile_qr_scan"}, "name": "965ce5e67203c7f194ff28ee3152e6b0", "fusion_lon": 0.0, "fusion_lat": 0.0, "lon": -76.9280505, "type": "electric_scooter"}, {"is_disabled": 0, "lat": 38.910048, "bike_id": "72ad169e6a336f9e196af5db56206c1b", "is_reserved": 0, "rental_uris": {"ios": "https://dc.lft.to/lastmile_qr_scan", "android": "https://dc.lft.to/lastmile_qr_scan"}, "name": "72ad169e6a336f9e196af5db56206c1b", "fusion_lon": 0.0, "fusion_lat": 0.0, "lon": -76.99411233333333, "type": "electric_scooter"}, {"is_disabled": 0, "lat": 38.911771333333334, "bike_id": "e472c80c8f9db911781ca575dd75dddb", "is_reserved": 0, "rental_uris": {"ios": "https://dc.lft.to/lastmile_qr_scan", "android": "https://dc.lft.to/lastmile_qr_scan"}, "name": "e472c80c8f9db911781ca575dd75dddb", "fusion_lon": 0.0, "fusion_lat": 0.0, "lon": -77.012164, "type": "electric_scooter"}, {"is_disabled": 0, "lat": 38.902661333333334, "bike_id": "f81fd3cd64641793103f98d9120fdfa2", "is_reserved": 0, "rental_uris": {"ios": "https://dc.lft.to/lastmile_qr_scan", "android": "https://dc.lft.to/lastmile_qr_scan"}, "name": "f81fd3cd64641793103f98d9120fdfa2", "fusion_lon": 0.0, "fusion_lat": 0.0, "lon": -77.03740366666666, "type": "electric_scooter"}, {"is_disabled": 0, "lat": 38.90268666666667, "bike_id": "706de008850ea0976eb6fd9e5246d0bb", "is_reserved": 0, "rental_uris": {"ios": "https://dc.lft.to/lastmile_qr_scan", "android": "https://dc.lft.to/lastmile_qr_scan"}, "name": "706de008850ea0976eb6fd9e5246d0bb", "fusion_lon": 0.0, "fusion_lat": 0.0, "lon": -77.03039866666667, "type": "electric_scooter"}, {"is_disabled": 0, "lat": 38.93453216666666, "bike_id": "92aab5b4acdfe07dcd0477b5863173f4", "is_reserved": 0, "rental_uris": {"ios": "https://dc.lft.to/lastmile_qr_scan", "android": "https://dc.lft.to/lastmile_qr_scan"}, "name": "92aab5b4acdfe07dcd0477b5863173f4", "fusion_lon": 0.0, "fusion_lat": 0.0, "lon": -77.029163, "type": "electric_scooter"}, {"is_disabled": 0, "lat": 38.889708666666664, "bike_id": "ba35179998413e7385ef86a037029be3", "is_reserved": 0, "rental_uris": {"ios": "https://dc.lft.to/lastmile_qr_scan", "android": "https://dc.lft.to/lastmile_qr_scan"}, "name": "ba35179998413e7385ef86a037029be3", "fusion_lon": 0.0, "fusion_lat": 0.0, "lon": -76.98180783333333, "type": "electric_scooter"}, {"is_disabled": 0, "lat": 38.916507333333335, "bike_id": "08d98b218c34c13cac1d0019ce8f019e", "is_reserved": 0, "rental_uris": {"ios": "https://dc.lft.to/lastmile_qr_scan", "android": "https://dc.lft.to/lastmile_qr_scan"}, "name": "08d98b218c34c13cac1d0019ce8f019e", "fusion_lon": 0.0, "fusion_lat": 0.0, "lon": -77.0466675, "type": "electric_scooter"}, {"is_disabled": 0, "lat": 38.89632066666667, "bike_id": "5c337b791fe19b1aa00bb7e20f3abd49", "is_reserved": 0, "rental_uris": {"ios": "https://dc.lft.to/lastmile_qr_scan", "android": "https://dc.lft.to/lastmile_qr_scan"}, "name": "5c337b791fe19b1aa00bb7e20f3abd49", "fusion_lon": 0.0, "fusion_lat": 0.0, "lon": -77.02851683333333, "type": "electric_scooter"}, {"is_disabled": 0, "lat": 38.928255666666665, "bike_id": "6baeda5c3dbbc39d6d58faa0aac1db9d", "is_reserved": 0, "rental_uris": {"ios": "https://dc.lft.to/lastmile_qr_scan", "android": "https://dc.lft.to/lastmile_qr_scan"}, "name": "6baeda5c3dbbc39d6d58faa0aac1db9d", "fusion_lon": 0.0, "fusion_lat": 0.0, "lon": -77.059742, "type": "electric_bike"}, {"is_disabled": 0, "lat": 38.92875816666667, "bike_id": "65e6a900c1719e0a1bd0ddba98882249", "is_reserved": 0, "rental_uris": {"ios": "https://dc.lft.to/lastmile_qr_scan", "android": "https://dc.lft.to/lastmile_qr_scan"}, "name": "65e6a900c1719e0a1bd0ddba98882249", "fusion_lon": 0.0, "fusion_lat": 0.0, "lon": -77.03440966666666, "type": "electric_scooter"}, {"is_disabled": 0, "lat": 38.9252325, "bike_id": "1f9e03a5250d1da8b2544024490d9c33", "is_reserved": 0, "rental_uris": {"ios": "https://dc.lft.to/lastmile_qr_scan", "android": "https://dc.lft.to/lastmile_qr_scan"}, "name": "1f9e03a5250d1da8b2544024490d9c33", "fusion_lon": 0.0, "fusion_lat": 0.0, "lon": -77.03883816666666, "type": "electric_scooter"}, {"is_disabled": 0, "lat": 38.8988185, "bike_id": "f5ec48301ad15971abf933d0611c1211", "is_reserved": 0, "rental_uris": {"ios": "https://dc.lft.to/lastmile_qr_scan", "android": "https://dc.lft.to/lastmile_qr_scan"}, "name": "f5ec48301ad15971abf933d0611c1211", "fusion_lon": 0.0, "fusion_lat": 0.0, "lon": -76.98682283333333, "type": "electric_scooter"}, {"is_disabled": 0, "lat": 38.907418, "bike_id": "4839697a4daf673c7aa55bc15db58f58", "is_reserved": 0, "rental_uris": {"ios": "https://dc.lft.to/lastmile_qr_scan", "android": "https://dc.lft.to/lastmile_qr_scan"}, "name": "4839697a4daf673c7aa55bc15db58f58", "fusion_lon": 0.0, "fusion_lat": 0.0, "lon": -77.04148066666667, "type": "electric_scooter"}, {"is_disabled": 0, "lat": 38.87921333333333, "bike_id": "b49d1237833f79c4fadec750fc6d55ae", "is_reserved": 0, "rental_uris": {"ios": "https://dc.lft.to/lastmile_qr_scan", "android": "https://dc.lft.to/lastmile_qr_scan"}, "name": "b49d1237833f79c4fadec750fc6d55ae", "fusion_lon": 0.0, "fusion_lat": 0.0, "lon": -77.0236795, "type": "electric_scooter"}, {"is_disabled": 0, "lat": 38.926822333333334, "bike_id": "92cc1af097766b594d45ed31174bacae", "is_reserved": 0, "rental_uris": {"ios": "https://dc.lft.to/lastmile_qr_scan", "android": "https://dc.lft.to/lastmile_qr_scan"}, "name": "92cc1af097766b594d45ed31174bacae", "fusion_lon": 0.0, "fusion_lat": 0.0, "lon": -77.01572916666667, "type": "electric_bike"}, {"is_disabled": 0, "lat": 38.92363133333333, "bike_id": "0522c7fc4319f81651e4373fbeff78bf", "is_reserved": 0, "rental_uris": {"ios": "https://dc.lft.to/lastmile_qr_scan", "android": "https://dc.lft.to/lastmile_qr_scan"}, "name": "0522c7fc4319f81651e4373fbeff78bf", "fusion_lon": 0.0, "fusion_lat": 0.0, "lon": -77.05033616666667, "type": "electric_scooter"}, {"is_disabled": 0, "lat": 38.91030416666667, "bike_id": "551daa080fde40fd783a0fe159ca6e94", "is_reserved": 0, "rental_uris": {"ios": "https://dc.lft.to/lastmile_qr_scan", "android": "https://dc.lft.to/lastmile_qr_scan"}, "name": "551daa080fde40fd783a0fe159ca6e94", "fusion_lon": 0.0, "fusion_lat": 0.0, "lon": -76.92336866666666, "type": "electric_bike"}, {"is_disabled": 0, "lat": 38.91861983333333, "bike_id": "2d4fd9a8ff2d26f4981e419d317a488d", "is_reserved": 0, "rental_uris": {"ios": "https://dc.lft.to/lastmile_qr_scan", "android": "https://dc.lft.to/lastmile_qr_scan"}, "name": "2d4fd9a8ff2d26f4981e419d317a488d", "fusion_lon": 0.0, "fusion_lat": 0.0, "lon": -77.03209416666667, "type": "electric_scooter"}, {"is_disabled": 0, "lat": 38.93343983333333, "bike_id": "c94ba62ba9b0c5fc4f0c0286ff21768d", "is_reserved": 0, "rental_uris": {"ios": "https://dc.lft.to/lastmile_qr_scan", "android": "https://dc.lft.to/lastmile_qr_scan"}, "name": "c94ba62ba9b0c5fc4f0c0286ff21768d", "fusion_lon": 0.0, "fusion_lat": 0.0, "lon": -77.0593485, "type": "electric_scooter"}, {"is_disabled": 0, "lat": 38.892246666666665, "bike_id": "4e1d9dc972e2e836d8e8b8275b65109c", "is_reserved": 0, "rental_uris": {"ios": "https://dc.lft.to/lastmile_qr_scan", "android": "https://dc.lft.to/lastmile_qr_scan"}, "name": "4e1d9dc972e2e836d8e8b8275b65109c", "fusion_lon": 0.0, "fusion_lat": 0.0, "lon": -77.04502033333333, "type": "electric_scooter"}, {"is_disabled": 0, "lat": 38.902381, "bike_id": "43ec62722c801a761a54a80529eb2123", "is_reserved": 0, "rental_uris": {"ios": "https://dc.lft.to/lastmile_qr_scan", "android": "https://dc.lft.to/lastmile_qr_scan"}, "name": "43ec62722c801a761a54a80529eb2123", "fusion_lon": 0.0, "fusion_lat": 0.0, "lon": -77.02649266666667, "type": "electric_scooter"}, {"is_disabled": 0, "lat": 38.90882383333334, "bike_id": "48458758f5588aa2144d91f37a29a56d", "is_reserved": 0, "rental_uris": {"ios": "https://dc.lft.to/lastmile_qr_scan", "android": "https://dc.lft.to/lastmile_qr_scan"}, "name": "48458758f5588aa2144d91f37a29a56d", "fusion_lon": 0.0, "fusion_lat": 0.0, "lon": -77.043494, "type": "electric_scooter"}, {"is_disabled": 0, "lat": 38.9216445, "bike_id": "e66105cf3345402c69c7a81372beac9e", "is_reserved": 0, "rental_uris": {"ios": "https://dc.lft.to/lastmile_qr_scan", "android": "https://dc.lft.to/lastmile_qr_scan"}, "name": "e66105cf3345402c69c7a81372beac9e", "fusion_lon": 0.0, "fusion_lat": 0.0, "lon": -77.04024683333333, "type": "electric_scooter"}, {"is_disabled": 0, "lat": 38.88742466666667, "bike_id": "eb32d07155b7d98d3ca22cc0670d9485", "is_reserved": 0, "rental_uris": {"ios": "https://dc.lft.to/lastmile_qr_scan", "android": "https://dc.lft.to/lastmile_qr_scan"}, "name": "eb32d07155b7d98d3ca22cc0670d9485", "fusion_lon": 0.0, "fusion_lat": 0.0, "lon": -77.028454, "type": "electric_scooter"}, {"is_disabled": 0, "lat": 38.920395166666665, "bike_id": "00a71bf6d2c357a51c2fc41ce5f848d3", "is_reserved": 0, "rental_uris": {"ios": "https://dc.lft.to/lastmile_qr_scan", "android": "https://dc.lft.to/lastmile_qr_scan"}, "name": "00a71bf6d2c357a51c2fc41ce5f848d3", "fusion_lon": 0.0, "fusion_lat": 0.0, "lon": -77.01684266666666, "type": "electric_scooter"}, {"is_disabled": 0, "lat": 38.83865683333333, "bike_id": "4c7a180cf86331733f1e047b2b806122", "is_reserved": 0, "rental_uris": {"ios": "https://dc.lft.to/lastmile_qr_scan", "android": "https://dc.lft.to/lastmile_qr_scan"}, "name": "4c7a180cf86331733f1e047b2b806122", "fusion_lon": 0.0, "fusion_lat": 0.0, "lon": -76.99704216666666, "type": "electric_bike"}, {"is_disabled": 0, "lat": 38.902179333333336, "bike_id": "6c60a6a3b1cb265de38dede13e5a32a5", "is_reserved": 0, "rental_uris": {"ios": "https://dc.lft.to/lastmile_qr_scan", "android": "https://dc.lft.to/lastmile_qr_scan"}, "name": "6c60a6a3b1cb265de38dede13e5a32a5", "fusion_lon": 0.0, "fusion_lat": 0.0, "lon": -76.9317835, "type": "electric_bike"}, {"is_disabled": 0, "lat": 38.911775666666664, "bike_id": "9a5636a3ecee73442e270074a372cc4d", "is_reserved": 0, "rental_uris": {"ios": "https://dc.lft.to/lastmile_qr_scan", "android": "https://dc.lft.to/lastmile_qr_scan"}, "name": "9a5636a3ecee73442e270074a372cc4d", "fusion_lon": 0.0, "fusion_lat": 0.0, "lon": -77.002793, "type": "electric_bike"}, {"is_disabled": 0, "lat": 38.92472883333333, "bike_id": "eda66de93c48090f859fdad034048728", "is_reserved": 0, "rental_uris": {"ios": "https://dc.lft.to/lastmile_qr_scan", "android": "https://dc.lft.to/lastmile_qr_scan"}, "name": "eda66de93c48090f859fdad034048728", "fusion_lon": 0.0, "fusion_lat": 0.0, "lon": -77.0381815, "type": "electric_scooter"}, {"is_disabled": 0, "lat": 38.87992366666667, "bike_id": "2da2954e256be0093fbaeb5f16ee70f4", "is_reserved": 0, "rental_uris": {"ios": "https://dc.lft.to/lastmile_qr_scan", "android": "https://dc.lft.to/lastmile_qr_scan"}, "name": "2da2954e256be0093fbaeb5f16ee70f4", "fusion_lon": 0.0, "fusion_lat": 0.0, "lon": -77.03741883333333, "type": "electric_scooter"}, {"is_disabled": 0, "lat": 38.940943833333336, "bike_id": "c248c5a7e68ad9f6f847bf9a845a0cb2", "is_reserved": 0, "rental_uris": {"ios": "https://dc.lft.to/lastmile_qr_scan", "android": "https://dc.lft.to/lastmile_qr_scan"}, "name": "c248c5a7e68ad9f6f847bf9a845a0cb2", "fusion_lon": 0.0, "fusion_lat": 0.0, "lon": -77.03278416666667, "type": "electric_scooter"}, {"is_disabled": 0, "lat": 38.9053995, "bike_id": "e23c2f5be983df696687171b5d3e1ee0", "is_reserved": 0, "rental_uris": {"ios": "https://dc.lft.to/lastmile_qr_scan", "android": "https://dc.lft.to/lastmile_qr_scan"}, "name": "e23c2f5be983df696687171b5d3e1ee0", "fusion_lon": 0.0, "fusion_lat": 0.0, "lon": -77.04181983333334, "type": "electric_scooter"}, {"is_disabled": 0, "lat": 38.90956466666667, "bike_id": "f13e8a2bf1c4cc419145f63b613c3ea1", "is_reserved": 0, "rental_uris": {"ios": "https://dc.lft.to/lastmile_qr_scan", "android": "https://dc.lft.to/lastmile_qr_scan"}, "name": "f13e8a2bf1c4cc419145f63b613c3ea1", "fusion_lon": 0.0, "fusion_lat": 0.0, "lon": -77.03399733333333, "type": "electric_scooter"}, {"is_disabled": 0, "lat": 38.9216405, "bike_id": "0d5db703a9238467a7d8f73b83418135", "is_reserved": 0, "rental_uris": {"ios": "https://dc.lft.to/lastmile_qr_scan", "android": "https://dc.lft.to/lastmile_qr_scan"}, "name": "0d5db703a9238467a7d8f73b83418135", "fusion_lon": 0.0, "fusion_lat": 0.0, "lon": -77.020926, "type": "electric_scooter"}, {"is_disabled": 0, "lat": 38.906776666666666, "bike_id": "63a9357e566e70759e10193034dc2baf", "is_reserved": 0, "rental_uris": {"ios": "https://dc.lft.to/lastmile_qr_scan", "android": "https://dc.lft.to/lastmile_qr_scan"}, "name": "63a9357e566e70759e10193034dc2baf", "fusion_lon": 0.0, "fusion_lat": 0.0, "lon": -76.97940416666667, "type": "electric_scooter"}, {"is_disabled": 0, "lat": 38.884859666666664, "bike_id": "6462bb9c998fe1bcf458c289680250c6", "is_reserved": 0, "rental_uris": {"ios": "https://dc.lft.to/lastmile_qr_scan", "android": "https://dc.lft.to/lastmile_qr_scan"}, "name": "6462bb9c998fe1bcf458c289680250c6", "fusion_lon": 0.0, "fusion_lat": 0.0, "lon": -77.0070925, "type": "electric_scooter"}, {"is_disabled": 0, "lat": 38.892469166666665, "bike_id": "3be0a2ee4a887d8c995cb2db647f6d80", "is_reserved": 0, "rental_uris": {"ios": "https://dc.lft.to/lastmile_qr_scan", "android": "https://dc.lft.to/lastmile_qr_scan"}, "name": "3be0a2ee4a887d8c995cb2db647f6d80", "fusion_lon": 0.0, "fusion_lat": 0.0, "lon": -77.0466315, "type": "electric_scooter"}, {"is_disabled": 0, "lat": 38.892198, "bike_id": "af564d94196166b02e7682c4dfd400dd", "is_reserved": 0, "rental_uris": {"ios": "https://dc.lft.to/lastmile_qr_scan", "android": "https://dc.lft.to/lastmile_qr_scan"}, "name": "af564d94196166b02e7682c4dfd400dd", "fusion_lon": 0.0, "fusion_lat": 0.0, "lon": -77.02371216666667, "type": "electric_scooter"}, {"is_disabled": 0, "lat": 38.91741533333333, "bike_id": "53020739a50d6af8f2c6495d0a65c743", "is_reserved": 0, "rental_uris": {"ios": "https://dc.lft.to/lastmile_qr_scan", "android": "https://dc.lft.to/lastmile_qr_scan"}, "name": "53020739a50d6af8f2c6495d0a65c743", "fusion_lon": 0.0, "fusion_lat": 0.0, "lon": -77.040614, "type": "electric_scooter"}, {"is_disabled": 0, "lat": 38.9297895, "bike_id": "a9a57f8d06a064bdcb6f73bb15478779", "is_reserved": 0, "rental_uris": {"ios": "https://dc.lft.to/lastmile_qr_scan", "android": "https://dc.lft.to/lastmile_qr_scan"}, "name": "a9a57f8d06a064bdcb6f73bb15478779", "fusion_lon": 0.0, "fusion_lat": 0.0, "lon": -77.01466216666667, "type": "electric_scooter"}, {"is_disabled": 0, "lat": 38.9051875, "bike_id": "20f664469db7401f295032ff23e52959", "is_reserved": 0, "rental_uris": {"ios": "https://dc.lft.to/lastmile_qr_scan", "android": "https://dc.lft.to/lastmile_qr_scan"}, "name": "20f664469db7401f295032ff23e52959", "fusion_lon": 0.0, "fusion_lat": 0.0, "lon": -77.029466, "type": "electric_scooter"}, {"is_disabled": 0, "lat": 38.942725333333335, "bike_id": "25f6138b1943869dc792feec63cd1dc3", "is_reserved": 0, "rental_uris": {"ios": "https://dc.lft.to/lastmile_qr_scan", "android": "https://dc.lft.to/lastmile_qr_scan"}, "name": "25f6138b1943869dc792feec63cd1dc3", "fusion_lon": 0.0, "fusion_lat": 0.0, "lon": -77.02925366666666, "type": "electric_scooter"}, {"is_disabled": 0, "lat": 38.905257166666665, "bike_id": "a93d74583e5b1a9dfc50bf0162ffeded", "is_reserved": 0, "rental_uris": {"ios": "https://dc.lft.to/lastmile_qr_scan", "android": "https://dc.lft.to/lastmile_qr_scan"}, "name": "a93d74583e5b1a9dfc50bf0162ffeded", "fusion_lon": 0.0, "fusion_lat": 0.0, "lon": -77.06277433333334, "type": "electric_bike"}, {"is_disabled": 0, "lat": 38.8921675, "bike_id": "3ae9a7f18f622d9787731a1e8d9db14c", "is_reserved": 0, "rental_uris": {"ios": "https://dc.lft.to/lastmile_qr_scan", "android": "https://dc.lft.to/lastmile_qr_scan"}, "name": "3ae9a7f18f622d9787731a1e8d9db14c", "fusion_lon": 0.0, "fusion_lat": 0.0, "lon": -77.03165966666667, "type": "electric_scooter"}, {"is_disabled": 0, "lat": 38.91437283333333, "bike_id": "6bc0fbe33af0f4b25ee9267ab47bc004", "is_reserved": 0, "rental_uris": {"ios": "https://dc.lft.to/lastmile_qr_scan", "android": "https://dc.lft.to/lastmile_qr_scan"}, "name": "6bc0fbe33af0f4b25ee9267ab47bc004", "fusion_lon": 0.0, "fusion_lat": 0.0, "lon": -77.00465066666666, "type": "electric_bike"}, {"is_disabled": 0, "lat": 38.90930433333333, "bike_id": "29aa008def5a4ca79ab5d19107e3f933", "is_reserved": 0, "rental_uris": {"ios": "https://dc.lft.to/lastmile_qr_scan", "android": "https://dc.lft.to/lastmile_qr_scan"}, "name": "29aa008def5a4ca79ab5d19107e3f933", "fusion_lon": 0.0, "fusion_lat": 0.0, "lon": -77.041703, "type": "electric_scooter"}, {"is_disabled": 0, "lat": 38.905634666666664, "bike_id": "fb52852bb93e950b317e1007d70bbbc1", "is_reserved": 0, "rental_uris": {"ios": "https://dc.lft.to/lastmile_qr_scan", "android": "https://dc.lft.to/lastmile_qr_scan"}, "name": "fb52852bb93e950b317e1007d70bbbc1", "fusion_lon": 0.0, "fusion_lat": 0.0, "lon": -77.00673366666666, "type": "electric_scooter"}, {"is_disabled": 0, "lat": 38.891714, "bike_id": "3da9e318062a68c39f9ee582131598ee", "is_reserved": 0, "rental_uris": {"ios": "https://dc.lft.to/lastmile_qr_scan", "android": "https://dc.lft.to/lastmile_qr_scan"}, "name": "3da9e318062a68c39f9ee582131598ee", "fusion_lon": 0.0, "fusion_lat": 0.0, "lon": -77.01558783333333, "type": "electric_scooter"}, {"is_disabled": 0, "lat": 38.912720666666665, "bike_id": "38248b0f0c04a09a60c3fee6dd431b53", "is_reserved": 0, "rental_uris": {"ios": "https://dc.lft.to/lastmile_qr_scan", "android": "https://dc.lft.to/lastmile_qr_scan"}, "name": "38248b0f0c04a09a60c3fee6dd431b53", "fusion_lon": 0.0, "fusion_lat": 0.0, "lon": -77.022961, "type": "electric_scooter"}, {"is_disabled": 0, "lat": 38.9047645, "bike_id": "553f50d8d7ecaec67538fc377352b843", "is_reserved": 0, "rental_uris": {"ios": "https://dc.lft.to/lastmile_qr_scan", "android": "https://dc.lft.to/lastmile_qr_scan"}, "name": "553f50d8d7ecaec67538fc377352b843", "fusion_lon": 0.0, "fusion_lat": 0.0, "lon": -77.03476183333333, "type": "electric_scooter"}, {"is_disabled": 0, "lat": 38.9036595, "bike_id": "0cddb7ae03c11abe495d67773b937328", "is_reserved": 0, "rental_uris": {"ios": "https://dc.lft.to/lastmile_qr_scan", "android": "https://dc.lft.to/lastmile_qr_scan"}, "name": "0cddb7ae03c11abe495d67773b937328", "fusion_lon": 0.0, "fusion_lat": 0.0, "lon": -77.03726366666666, "type": "electric_scooter"}, {"is_disabled": 0, "lat": 38.9110255, "bike_id": "453175857193c84574833f2d9dc4f108", "is_reserved": 0, "rental_uris": {"ios": "https://dc.lft.to/lastmile_qr_scan", "android": "https://dc.lft.to/lastmile_qr_scan"}, "name": "453175857193c84574833f2d9dc4f108", "fusion_lon": 0.0, "fusion_lat": 0.0, "lon": -77.03830183333334, "type": "electric_scooter"}, {"is_disabled": 0, "lat": 38.90828883333333, "bike_id": "7b736432d46fd40319413de5ffa73595", "is_reserved": 0, "rental_uris": {"ios": "https://dc.lft.to/lastmile_qr_scan", "android": "https://dc.lft.to/lastmile_qr_scan"}, "name": "7b736432d46fd40319413de5ffa73595", "fusion_lon": 0.0, "fusion_lat": 0.0, "lon": -77.03985866666666, "type": "electric_scooter"}, {"is_disabled": 0, "lat": 38.891754, "bike_id": "b627a668140685ac5d6957fd7267791f", "is_reserved": 0, "rental_uris": {"ios": "https://dc.lft.to/lastmile_qr_scan", "android": "https://dc.lft.to/lastmile_qr_scan"}, "name": "b627a668140685ac5d6957fd7267791f", "fusion_lon": 0.0, "fusion_lat": 0.0, "lon": -77.0156295, "type": "electric_scooter"}, {"is_disabled": 0, "lat": 38.89741866666667, "bike_id": "63e6723457cb82f554170d63a429d297", "is_reserved": 0, "rental_uris": {"ios": "https://dc.lft.to/lastmile_qr_scan", "android": "https://dc.lft.to/lastmile_qr_scan"}, "name": "63e6723457cb82f554170d63a429d297", "fusion_lon": 0.0, "fusion_lat": 0.0, "lon": -76.99044116666667, "type": "electric_scooter"}, {"is_disabled": 0, "lat": 38.909975, "bike_id": "2ce02424f4a805c7cbf60a03e82aa608", "is_reserved": 0, "rental_uris": {"ios": "https://dc.lft.to/lastmile_qr_scan", "android": "https://dc.lft.to/lastmile_qr_scan"}, "name": "2ce02424f4a805c7cbf60a03e82aa608", "fusion_lon": 0.0, "fusion_lat": 0.0, "lon": -77.04176466666667, "type": "electric_scooter"}, {"is_disabled": 0, "lat": 38.9087865, "bike_id": "5c95efb393c5f1fc1e8039a64861294c", "is_reserved": 0, "rental_uris": {"ios": "https://dc.lft.to/lastmile_qr_scan", "android": "https://dc.lft.to/lastmile_qr_scan"}, "name": "5c95efb393c5f1fc1e8039a64861294c", "fusion_lon": 0.0, "fusion_lat": 0.0, "lon": -77.04345083333334, "type": "electric_scooter"}, {"is_disabled": 0, "lat": 39.0262365, "bike_id": "99da65116fa89f28da12ce6fad43f313", "is_reserved": 0, "rental_uris": {"ios": "https://dc.lft.to/lastmile_qr_scan", "android": "https://dc.lft.to/lastmile_qr_scan"}, "name": "99da65116fa89f28da12ce6fad43f313", "fusion_lon": 0.0, "fusion_lat": 0.0, "lon": -77.03875433333333, "type": "electric_bike"}, {"is_disabled": 0, "lat": 38.902225333333334, "bike_id": "97e45760565c648a82b9fae2d2d16802", "is_reserved": 0, "rental_uris": {"ios": "https://dc.lft.to/lastmile_qr_scan", "android": "https://dc.lft.to/lastmile_qr_scan"}, "name": "97e45760565c648a82b9fae2d2d16802", "fusion_lon": 0.0, "fusion_lat": 0.0, "lon": -77.0513785, "type": "electric_scooter"}, {"is_disabled": 0, "lat": 38.900579666666665, "bike_id": "be64f8d1e6a1e9c56dc530e7e30dff6f", "is_reserved": 0, "rental_uris": {"ios": "https://dc.lft.to/lastmile_qr_scan", "android": "https://dc.lft.to/lastmile_qr_scan"}, "name": "be64f8d1e6a1e9c56dc530e7e30dff6f", "fusion_lon": 0.0, "fusion_lat": 0.0, "lon": -77.01382833333334, "type": "electric_scooter"}, {"is_disabled": 0, "lat": 38.9223205, "bike_id": "8399f9a625719e6cb476f4d2c2c2bdf6", "is_reserved": 0, "rental_uris": {"ios": "https://dc.lft.to/lastmile_qr_scan", "android": "https://dc.lft.to/lastmile_qr_scan"}, "name": "8399f9a625719e6cb476f4d2c2c2bdf6", "fusion_lon": 0.0, "fusion_lat": 0.0, "lon": -77.040159, "type": "electric_scooter"}, {"is_disabled": 0, "lat": 38.901407, "bike_id": "4f0cb7e45068f89b61fa2f96e625106c", "is_reserved": 0, "rental_uris": {"ios": "https://dc.lft.to/lastmile_qr_scan", "android": "https://dc.lft.to/lastmile_qr_scan"}, "name": "4f0cb7e45068f89b61fa2f96e625106c", "fusion_lon": 0.0, "fusion_lat": 0.0, "lon": -77.03957016666666, "type": "electric_scooter"}, {"is_disabled": 0, "lat": 38.90363766666667, "bike_id": "cc96cada61503cefe09ae9b16cd98afe", "is_reserved": 0, "rental_uris": {"ios": "https://dc.lft.to/lastmile_qr_scan", "android": "https://dc.lft.to/lastmile_qr_scan"}, "name": "cc96cada61503cefe09ae9b16cd98afe", "fusion_lon": 0.0, "fusion_lat": 0.0, "lon": -77.038823, "type": "electric_scooter"}, {"is_disabled": 0, "lat": 38.85794816666667, "bike_id": "f713170aca2b34dfa15c6a124f195e82", "is_reserved": 0, "rental_uris": {"ios": "https://dc.lft.to/lastmile_qr_scan", "android": "https://dc.lft.to/lastmile_qr_scan"}, "name": "f713170aca2b34dfa15c6a124f195e82", "fusion_lon": 0.0, "fusion_lat": 0.0, "lon": -76.98753333333333, "type": "electric_bike"}, {"is_disabled": 0, "lat": 38.925791833333335, "bike_id": "04e875ced110be87785226cd6442c688", "is_reserved": 0, "rental_uris": {"ios": "https://dc.lft.to/lastmile_qr_scan", "android": "https://dc.lft.to/lastmile_qr_scan"}, "name": "04e875ced110be87785226cd6442c688", "fusion_lon": 0.0, "fusion_lat": 0.0, "lon": -77.036402, "type": "electric_scooter"}, {"is_disabled": 0, "lat": 38.9085375, "bike_id": "45ee795e308528b23f79386c8edc67d4", "is_reserved": 0, "rental_uris": {"ios": "https://dc.lft.to/lastmile_qr_scan", "android": "https://dc.lft.to/lastmile_qr_scan"}, "name": "45ee795e308528b23f79386c8edc67d4", "fusion_lon": 0.0, "fusion_lat": 0.0, "lon": -77.04828616666667, "type": "electric_scooter"}, {"is_disabled": 0, "lat": 38.912274, "bike_id": "949c36ff746061d822561c6ea7dcb2af", "is_reserved": 0, "rental_uris": {"ios": "https://dc.lft.to/lastmile_qr_scan", "android": "https://dc.lft.to/lastmile_qr_scan"}, "name": "949c36ff746061d822561c6ea7dcb2af", "fusion_lon": 0.0, "fusion_lat": 0.0, "lon": -77.07746833333333, "type": "electric_scooter"}, {"is_disabled": 0, "lat": 38.90190066666667, "bike_id": "569c533a19d897205244590a9f507534", "is_reserved": 0, "rental_uris": {"ios": "https://dc.lft.to/lastmile_qr_scan", "android": "https://dc.lft.to/lastmile_qr_scan"}, "name": "569c533a19d897205244590a9f507534", "fusion_lon": 0.0, "fusion_lat": 0.0, "lon": -77.0509285, "type": "electric_scooter"}, {"is_disabled": 0, "lat": 38.91347366666667, "bike_id": "b56ea32671395a9dcec084b115d49fe5", "is_reserved": 0, "rental_uris": {"ios": "https://dc.lft.to/lastmile_qr_scan", "android": "https://dc.lft.to/lastmile_qr_scan"}, "name": "b56ea32671395a9dcec084b115d49fe5", "fusion_lon": 0.0, "fusion_lat": 0.0, "lon": -77.03211616666667, "type": "electric_scooter"}, {"is_disabled": 0, "lat": 38.93072866666667, "bike_id": "d30992b6ec627a1fc25d342bccfd4944", "is_reserved": 0, "rental_uris": {"ios": "https://dc.lft.to/lastmile_qr_scan", "android": "https://dc.lft.to/lastmile_qr_scan"}, "name": "d30992b6ec627a1fc25d342bccfd4944", "fusion_lon": 0.0, "fusion_lat": 0.0, "lon": -77.02759066666667, "type": "electric_scooter"}, {"is_disabled": 0, "lat": 38.947261166666664, "bike_id": "5617df4b8a3fc9fc88b60949fd4fa757", "is_reserved": 0, "rental_uris": {"ios": "https://dc.lft.to/lastmile_qr_scan", "android": "https://dc.lft.to/lastmile_qr_scan"}, "name": "5617df4b8a3fc9fc88b60949fd4fa757", "fusion_lon": 0.0, "fusion_lat": 0.0, "lon": -77.02358516666666, "type": "electric_scooter"}, {"is_disabled": 0, "lat": 38.9178075, "bike_id": "ab709174c353a4f21ca22eb8418d5902", "is_reserved": 0, "rental_uris": {"ios": "https://dc.lft.to/lastmile_qr_scan", "android": "https://dc.lft.to/lastmile_qr_scan"}, "name": "ab709174c353a4f21ca22eb8418d5902", "fusion_lon": 0.0, "fusion_lat": 0.0, "lon": -77.0247605, "type": "electric_scooter"}, {"is_disabled": 0, "lat": 38.92962033333333, "bike_id": "15d2cbff40b80a2fc242655a400e944d", "is_reserved": 0, "rental_uris": {"ios": "https://dc.lft.to/lastmile_qr_scan", "android": "https://dc.lft.to/lastmile_qr_scan"}, "name": "15d2cbff40b80a2fc242655a400e944d", "fusion_lon": 0.0, "fusion_lat": 0.0, "lon": -77.0420975, "type": "electric_scooter"}, {"is_disabled": 0, "lat": 38.8960005, "bike_id": "d625199a7b87a436b2ac48daf4b96ba4", "is_reserved": 0, "rental_uris": {"ios": "https://dc.lft.to/lastmile_qr_scan", "android": "https://dc.lft.to/lastmile_qr_scan"}, "name": "d625199a7b87a436b2ac48daf4b96ba4", "fusion_lon": 0.0, "fusion_lat": 0.0, "lon": -77.02519133333334, "type": "electric_scooter"}, {"is_disabled": 0, "lat": 38.901315, "bike_id": "9d80ee7fefa6923341ce2db57b0e070e", "is_reserved": 0, "rental_uris": {"ios": "https://dc.lft.to/lastmile_qr_scan", "android": "https://dc.lft.to/lastmile_qr_scan"}, "name": "9d80ee7fefa6923341ce2db57b0e070e", "fusion_lon": 0.0, "fusion_lat": 0.0, "lon": -77.04665483333333, "type": "electric_scooter"}, {"is_disabled": 0, "lat": 38.8919825, "bike_id": "eb10956b812547956af230155c394469", "is_reserved": 0, "rental_uris": {"ios": "https://dc.lft.to/lastmile_qr_scan", "android": "https://dc.lft.to/lastmile_qr_scan"}, "name": "eb10956b812547956af230155c394469", "fusion_lon": 0.0, "fusion_lat": 0.0, "lon": -77.043896, "type": "electric_scooter"}, {"is_disabled": 0, "lat": 38.892207166666665, "bike_id": "6ca553ace6d9f79991bd91ce5726c661", "is_reserved": 0, "rental_uris": {"ios": "https://dc.lft.to/lastmile_qr_scan", "android": "https://dc.lft.to/lastmile_qr_scan"}, "name": "6ca553ace6d9f79991bd91ce5726c661", "fusion_lon": 0.0, "fusion_lat": 0.0, "lon": -77.0222535, "type": "electric_scooter"}, {"is_disabled": 0, "lat": 38.822055, "bike_id": "2277be902457630082f08cbe5ab3f767", "is_reserved": 0, "rental_uris": {"ios": "https://dc.lft.to/lastmile_qr_scan", "android": "https://dc.lft.to/lastmile_qr_scan"}, "name": "2277be902457630082f08cbe5ab3f767", "fusion_lon": 0.0, "fusion_lat": 0.0, "lon": -76.97702333333334, "type": "electric_bike"}, {"is_disabled": 0, "lat": 38.9111655, "bike_id": "7a3f71d5bb803e0a897602cf23852d1d", "is_reserved": 0, "rental_uris": {"ios": "https://dc.lft.to/lastmile_qr_scan", "android": "https://dc.lft.to/lastmile_qr_scan"}, "name": "7a3f71d5bb803e0a897602cf23852d1d", "fusion_lon": 0.0, "fusion_lat": 0.0, "lon": -77.03871083333334, "type": "electric_scooter"}, {"is_disabled": 0, "lat": 38.915613666666665, "bike_id": "6203ab66dd226c602529c0b5270800aa", "is_reserved": 0, "rental_uris": {"ios": "https://dc.lft.to/lastmile_qr_scan", "android": "https://dc.lft.to/lastmile_qr_scan"}, "name": "6203ab66dd226c602529c0b5270800aa", "fusion_lon": 0.0, "fusion_lat": 0.0, "lon": -77.00081166666666, "type": "electric_scooter"}, {"is_disabled": 0, "lat": 38.92438816666667, "bike_id": "60e922bd6c88be2989df7197e2c1c58c", "is_reserved": 0, "rental_uris": {"ios": "https://dc.lft.to/lastmile_qr_scan", "android": "https://dc.lft.to/lastmile_qr_scan"}, "name": "60e922bd6c88be2989df7197e2c1c58c", "fusion_lon": 0.0, "fusion_lat": 0.0, "lon": -76.97164816666667, "type": "electric_bike"}, {"is_disabled": 0, "lat": 38.9255415, "bike_id": "799cd0b17bc83b32475c19d344702bbc", "is_reserved": 0, "rental_uris": {"ios": "https://dc.lft.to/lastmile_qr_scan", "android": "https://dc.lft.to/lastmile_qr_scan"}, "name": "799cd0b17bc83b32475c19d344702bbc", "fusion_lon": 0.0, "fusion_lat": 0.0, "lon": -77.0298155, "type": "electric_scooter"}, {"is_disabled": 0, "lat": 38.836049, "bike_id": "30b11f6428974236fc0a24b0a7b9034a", "is_reserved": 0, "rental_uris": {"ios": "https://dc.lft.to/lastmile_qr_scan", "android": "https://dc.lft.to/lastmile_qr_scan"}, "name": "30b11f6428974236fc0a24b0a7b9034a", "fusion_lon": 0.0, "fusion_lat": 0.0, "lon": -77.00381216666666, "type": "electric_bike"}, {"is_disabled": 0, "lat": 38.8961255, "bike_id": "2711f09dd8cd7a277d6a92263373090a", "is_reserved": 0, "rental_uris": {"ios": "https://dc.lft.to/lastmile_qr_scan", "android": "https://dc.lft.to/lastmile_qr_scan"}, "name": "2711f09dd8cd7a277d6a92263373090a", "fusion_lon": 0.0, "fusion_lat": 0.0, "lon": -77.04045566666667, "type": "electric_scooter"}, {"is_disabled": 0, "lat": 38.91919933333333, "bike_id": "2422035723fb133c903248c5344a68f6", "is_reserved": 0, "rental_uris": {"ios": "https://dc.lft.to/lastmile_qr_scan", "android": "https://dc.lft.to/lastmile_qr_scan"}, "name": "2422035723fb133c903248c5344a68f6", "fusion_lon": 0.0, "fusion_lat": 0.0, "lon": -77.03185366666666, "type": "electric_scooter"}, {"is_disabled": 0, "lat": 38.84027583333334, "bike_id": "9bc6e8769513479cc0c047320c184bf2", "is_reserved": 0, "rental_uris": {"ios": "https://dc.lft.to/lastmile_qr_scan", "android": "https://dc.lft.to/lastmile_qr_scan"}, "name": "9bc6e8769513479cc0c047320c184bf2", "fusion_lon": 0.0, "fusion_lat": 0.0, "lon": -76.9886115, "type": "electric_bike"}, {"is_disabled": 0, "lat": 38.89467766666667, "bike_id": "40166c75272da035b4905ae2b08312a2", "is_reserved": 0, "rental_uris": {"ios": "https://dc.lft.to/lastmile_qr_scan", "android": "https://dc.lft.to/lastmile_qr_scan"}, "name": "40166c75272da035b4905ae2b08312a2", "fusion_lon": 0.0, "fusion_lat": 0.0, "lon": -76.99266366666667, "type": "electric_scooter"},