{"data": {"bikes": [{"bike_id": "5b40c887143290b8c350819d63ca42ea", "is_reserved": 0, "fusion_lon": 0.0, "lat": 38.87216466666667, "is_disabled": 0, "name": "5b40c887143290b8c350819d63ca42ea", "fusion_lat": 0.0, "rental_uris": {"ios": "https://dc.lft.to/lastmile_qr_scan", "android": "https://dc.lft.to/lastmile_qr_scan"}, "lon": -77.00567866666667, "type": "electric_scooter"}, {"bike_id": "21d4fabb94e56962eeced4a216f90423", "is_reserved": 0, "fusion_lon": 0.0, "lat": 38.844265166666666, "is_disabled": 0, "name": "21d4fabb94e56962eeced4a216f90423", "fusion_lat": 0.0, "rental_uris": {"ios": "https://dc.lft.to/lastmile_qr_scan", "android": "https://dc.lft.to/lastmile_qr_scan"}, "lon": -76.99776466666667, "type": "electric_scooter"}, {"bike_id": "c629102d87ebe34fc43c7a4ca41fe779", "is_reserved": 0, "fusion_lon": 0.0, "lat": 38.91584733333333, "is_disabled": 0, "name": "c629102d87ebe34fc43c7a4ca41fe779", "fusion_lat": 0.0, "rental_uris": {"ios": "https://dc.lft.to/lastmile_qr_scan", "android": "https://dc.lft.to/lastmile_qr_scan"}, "lon": -76.983883, "type": "electric_scooter"}, {"bike_id": "d0c9ec38eb04272d7c471a52dddce338", "is_reserved": 0, "fusion_lon": 0.0, "lat": 38.91555866666667, "is_disabled": 0, "name": "d0c9ec38eb04272d7c471a52dddce338", "fusion_lat": 0.0, "rental_uris": {"ios": "https://dc.lft.to/lastmile_qr_scan", "android": "https://dc.lft.to/lastmile_qr_scan"}, "lon": -77.0141125, "type": "electric_scooter"}, {"bike_id": "33d596f490f351bd50267885a16a9229", "is_reserved": 0, "fusion_lon": 0.0, "lat": 38.90410833333333, "is_disabled": 0, "name": "33d596f490f351bd50267885a16a9229", "fusion_lat": 0.0, "rental_uris": {"ios": "https://dc.lft.to/lastmile_qr_scan", "android": "https://dc.lft.to/lastmile_qr_scan"}, "lon": -77.03645133333333, "type": "electric_scooter"}, {"bike_id": "274ecbeb7e5f51a84975a4416f2432ca", "is_reserved": 0, "fusion_lon": 0.0, "lat": 38.86919616666667, "is_disabled": 0, "name": "274ecbeb7e5f51a84975a4416f2432ca", "fusion_lat": 0.0, "rental_uris": {"ios": "https://dc.lft.to/lastmile_qr_scan", "android": "https://dc.lft.to/lastmile_qr_scan"}, "lon": -76.983088, "type": "electric_scooter"}, {"bike_id": "2536e5bdf7477ee96502ee6048490575", "is_reserved": 0, "fusion_lon": 0.0, "lat": 38.892989, "is_disabled": 0, "name": "2536e5bdf7477ee96502ee6048490575", "fusion_lat": 0.0, "rental_uris": {"ios": "https://dc.lft.to/lastmile_qr_scan", "android": "https://dc.lft.to/lastmile_qr_scan"}, "lon": -77.012393, "type": "electric_scooter"}, {"bike_id": "c832f2401fe58f9e59690de5489a57e0", "is_reserved": 0, "fusion_lon": 0.0, "lat": 38.9212425, "is_disabled": 0, "name": "c832f2401fe58f9e59690de5489a57e0", "fusion_lat": 0.0, "rental_uris": {"ios": "https://dc.lft.to/lastmile_qr_scan", "android": "https://dc.lft.to/lastmile_qr_scan"}, "lon": -77.04584366666667, "type": "electric_scooter"}, {"bike_id": "ff8c5d13196fe6bc3a7b642cf7076b9f", "is_reserved": 0, "fusion_lon": 0.0, "lat": 38.888729833333336, "is_disabled": 0, "name": "ff8c5d13196fe6bc3a7b642cf7076b9f", "fusion_lat": 0.0, "rental_uris": {"ios": "https://dc.lft.to/lastmile_qr_scan", "android": "https://dc.lft.to/lastmile_qr_scan"}, "lon": -76.99030766666667, "type": "electric_scooter"}, {"bike_id": "3d9a4f59488430dd9414de556f563dfe", "is_reserved": 0, "fusion_lon": 0.0, "lat": 38.917760333333334, "is_disabled": 0, "name": "3d9a4f59488430dd9414de556f563dfe", "fusion_lat": 0.0, "rental_uris": {"ios": "https://dc.lft.to/lastmile_qr_scan", "android": "https://dc.lft.to/lastmile_qr_scan"}, "lon": -77.040582, "type": "electric_scooter"}, {"bike_id": "bc46e09d72dc11cd0720f0a378f9b309", "is_reserved": 0, "fusion_lon": 0.0, "lat": 38.9046105, "is_disabled": 0, "name": "bc46e09d72dc11cd0720f0a378f9b309", "fusion_lat": 0.0, "rental_uris": {"ios": "https://dc.lft.to/lastmile_qr_scan", "android": "https://dc.lft.to/lastmile_qr_scan"}, "lon": -76.99503816666666, "type": "electric_scooter"}, {"bike_id": "8302ebb7d40022cada76c5ceea652cd5", "is_reserved": 0, "fusion_lon": 0.0, "lat": 38.896081, "is_disabled": 0, "name": "8302ebb7d40022cada76c5ceea652cd5", "fusion_lat": 0.0, "rental_uris": {"ios": "https://dc.lft.to/lastmile_qr_scan", "android": "https://dc.lft.to/lastmile_qr_scan"}, "lon": -77.045086, "type": "electric_scooter"}, {"bike_id": "c127203ca1ba62528c800e275456f6cd", "is_reserved": 0, "fusion_lon": 0.0, "lat": 38.86958816666667, "is_disabled": 0, "name": "c127203ca1ba62528c800e275456f6cd", "fusion_lat": 0.0, "rental_uris": {"ios": "https://dc.lft.to/lastmile_qr_scan", "android": "https://dc.lft.to/lastmile_qr_scan"}, "lon": -77.01374283333334, "type": "electric_scooter"}, {"bike_id": "426c3561fb215252bfd316d215622bb9", "is_reserved": 0, "fusion_lon": 0.0, "lat": 38.893081333333335, "is_disabled": 0, "name": "426c3561fb215252bfd316d215622bb9", "fusion_lat": 0.0, "rental_uris": {"ios": "https://dc.lft.to/lastmile_qr_scan", "android": "https://dc.lft.to/lastmile_qr_scan"}, "lon": -77.012408, "type": "electric_scooter"}, {"bike_id": "4580907ddc8936f504d5ea0bacf08b58", "is_reserved": 0, "fusion_lon": 0.0, "lat": 38.9682065, "is_disabled": 0, "name": "4580907ddc8936f504d5ea0bacf08b58", "fusion_lat": 0.0, "rental_uris": {"ios": "https://dc.lft.to/lastmile_qr_scan", "android": "https://dc.lft.to/lastmile_qr_scan"}, "lon": -77.01787266666666, "type": "electric_scooter"}, {"bike_id": "9865f7a9f860083ec8ff18d227e2b3eb", "is_reserved": 0, "fusion_lon": 0.0, "lat": 38.8962635, "is_disabled": 0, "name": "9865f7a9f860083ec8ff18d227e2b3eb", "fusion_lat": 0.0, "rental_uris": {"ios": "https://dc.lft.to/lastmile_qr_scan", "android": "https://dc.lft.to/lastmile_qr_scan"}, "lon": -77.03228233333333, "type": "electric_scooter"}, {"bike_id": "5b6497bb9ccf96dd54b43a4e187ef2e0", "is_reserved": 0, "fusion_lon": 0.0, "lat": 38.922387666666665, "is_disabled": 0, "name": "5b6497bb9ccf96dd54b43a4e187ef2e0", "fusion_lat": 0.0, "rental_uris": {"ios": "https://dc.lft.to/lastmile_qr_scan", "android": "https://dc.lft.to/lastmile_qr_scan"}, "lon": -77.035106, "type": "electric_scooter"}, {"bike_id": "cd280b087a16d5d22de80a8ab1152f3d", "is_reserved": 0, "fusion_lon": 0.0, "lat": 38.905268, "is_disabled": 0, "name": "cd280b087a16d5d22de80a8ab1152f3d", "fusion_lat": 0.0, "rental_uris": {"ios": "https://dc.lft.to/lastmile_qr_scan", "android": "https://dc.lft.to/lastmile_qr_scan"}, "lon": -77.04871183333333, "type": "electric_scooter"}, {"bike_id": "99ed1d53b8f3ec66be29e48548fbf318", "is_reserved": 0, "fusion_lon": 0.0, "lat": 38.905700833333334, "is_disabled": 0, "name": "99ed1d53b8f3ec66be29e48548fbf318", "fusion_lat": 0.0, "rental_uris": {"ios": "https://dc.lft.to/lastmile_qr_scan", "android": "https://dc.lft.to/lastmile_qr_scan"}, "lon": -77.02172583333333, "type": "electric_scooter"}, {"bike_id": "cfbafd8d9bfdee5016136796f42a5b36", "is_reserved": 0, "fusion_lon": 0.0, "lat": 38.95335433333333, "is_disabled": 0, "name": "cfbafd8d9bfdee5016136796f42a5b36", "fusion_lat": 0.0, "rental_uris": {"ios": "https://dc.lft.to/lastmile_qr_scan", "android": "https://dc.lft.to/lastmile_qr_scan"}, "lon": -77.00955466666667, "type": "electric_bike"}, {"bike_id": "df7d7534ac036d561506e4dd2b31cb10", "is_reserved": 0, "fusion_lon": 0.0, "lat": 38.915540666666665, "is_disabled": 0, "name": "df7d7534ac036d561506e4dd2b31cb10", "fusion_lat": 0.0, "rental_uris": {"ios": "https://dc.lft.to/lastmile_qr_scan", "android": "https://dc.lft.to/lastmile_qr_scan"}, "lon": -77.03864333333334, "type": "electric_scooter"}, {"bike_id": "7e36520d27a4fc4fb8315bf70ada09b8", "is_reserved": 0, "fusion_lon": 0.0, "lat": 38.95644816666667, "is_disabled": 0, "name": "7e36520d27a4fc4fb8315bf70ada09b8", "fusion_lat": 0.0, "rental_uris": {"ios": "https://dc.lft.to/lastmile_qr_scan", "android": "https://dc.lft.to/lastmile_qr_scan"}, "lon": -77.0328525, "type": "electric_scooter"}, {"bike_id": "fb724efab7ca8de8022f9ad1f9fe7240", "is_reserved": 0, "fusion_lon": 0.0, "lat": 38.92859816666667, "is_disabled": 0, "name": "fb724efab7ca8de8022f9ad1f9fe7240", "fusion_lat": 0.0, "rental_uris": {"ios": "https://dc.lft.to/lastmile_qr_scan", "android": "https://dc.lft.to/lastmile_qr_scan"}, "lon": -77.22204483333333, "type": "electric_bike"}, {"bike_id": "fcb0b713066f658b022783630fa885f2", "is_reserved": 0, "fusion_lon": 0.0, "lat": 38.9170485, "is_disabled": 0, "name": "fcb0b713066f658b022783630fa885f2", "fusion_lat": 0.0, "rental_uris": {"ios": "https://dc.lft.to/lastmile_qr_scan", "android": "https://dc.lft.to/lastmile_qr_scan"}, "lon": -77.02298866666666, "type": "electric_scooter"}, {"bike_id": "067c25a6efd271ee63f0445985f450d2", "is_reserved": 0, "fusion_lon": 0.0, "lat": 38.865372666666666, "is_disabled": 0, "name": "067c25a6efd271ee63f0445985f450d2", "fusion_lat": 0.0, "rental_uris": {"ios": "https://dc.lft.to/lastmile_qr_scan", "android": "https://dc.lft.to/lastmile_qr_scan"}, "lon": -76.9870125, "type": "electric_scooter"}, {"bike_id": "47883c615cbe91ffcc152c913c55388e", "is_reserved": 0, "fusion_lon": 0.0, "lat": 38.88743483333333, "is_disabled": 0, "name": "47883c615cbe91ffcc152c913c55388e", "fusion_lat": 0.0, "rental_uris": {"ios": "https://dc.lft.to/lastmile_qr_scan", "android": "https://dc.lft.to/lastmile_qr_scan"}, "lon": -77.02263166666667, "type": "electric_bike"}, {"bike_id": "69aacdb8074e05017691ebbdffa2be27", "is_reserved": 0, "fusion_lon": 0.0, "lat": 38.95747816666667, "is_disabled": 0, "name": "69aacdb8074e05017691ebbdffa2be27", "fusion_lat": 0.0, "rental_uris": {"ios": "https://dc.lft.to/lastmile_qr_scan", "android": "https://dc.lft.to/lastmile_qr_scan"}, "lon": -77.0241535, "type": "electric_scooter"}, {"bike_id": "96b222ba92253865148a0eb63fee1e17", "is_reserved": 0, "fusion_lon": 0.0, "lat": 39.08859416666667, "is_disabled": 0, "name": "96b222ba92253865148a0eb63fee1e17", "fusion_lat": 0.0, "rental_uris": {"ios": "https://dc.lft.to/lastmile_qr_scan", "android": "https://dc.lft.to/lastmile_qr_scan"}, "lon": -77.17839333333333, "type": "electric_bike"}, {"bike_id": "37ac4fb747b8a5d25d058622ea60b66d", "is_reserved": 0, "fusion_lon": 0.0, "lat": 38.90940916666667, "is_disabled": 0, "name": "37ac4fb747b8a5d25d058622ea60b66d", "fusion_lat": 0.0, "rental_uris": {"ios": "https://dc.lft.to/lastmile_qr_scan", "android": "https://dc.lft.to/lastmile_qr_scan"}, "lon": -77.04876883333333, "type": "electric_scooter"}, {"bike_id": "9a6dc9060c4ae8c082a2913d7850b586", "is_reserved": 0, "fusion_lon": 0.0, "lat": 38.923509833333334, "is_disabled": 0, "name": "9a6dc9060c4ae8c082a2913d7850b586", "fusion_lat": 0.0, "rental_uris": {"ios": "https://dc.lft.to/lastmile_qr_scan", "android": "https://dc.lft.to/lastmile_qr_scan"}, "lon": -77.04387966666667, "type": "electric_scooter"}, {"bike_id": "4de7df903ba07c8a9e4dbc36af76e820", "is_reserved": 0, "fusion_lon": 0.0, "lat": 38.9018385, "is_disabled": 0, "name": "4de7df903ba07c8a9e4dbc36af76e820", "fusion_lat": 0.0, "rental_uris": {"ios": "https://dc.lft.to/lastmile_qr_scan", "android": "https://dc.lft.to/lastmile_qr_scan"}, "lon": -77.0249515, "type": "electric_scooter"}, {"bike_id": "d1086e6524214e25660c85514b6b75be", "is_reserved": 0, "fusion_lon": 0.0, "lat": 38.890589166666665, "is_disabled": 0, "name": "d1086e6524214e25660c85514b6b75be", "fusion_lat": 0.0, "rental_uris": {"ios": "https://dc.lft.to/lastmile_qr_scan", "android": "https://dc.lft.to/lastmile_qr_scan"}, "lon": -77.0230215, "type": "electric_scooter"}, {"bike_id": "fcf16f9a3e0f35ea2d79a3434d0f990a", "is_reserved": 0, "fusion_lon": 0.0, "lat": 38.900371, "is_disabled": 0, "name": "fcf16f9a3e0f35ea2d79a3434d0f990a", "fusion_lat": 0.0, "rental_uris": {"ios": "https://dc.lft.to/lastmile_qr_scan", "android": "https://dc.lft.to/lastmile_qr_scan"}, "lon": -77.0053525, "type": "electric_scooter"}, {"bike_id": "e74737e7889817804a71cbb8997063b4", "is_reserved": 0, "fusion_lon": 0.0, "lat": 38.909752, "is_disabled": 0, "name": "e74737e7889817804a71cbb8997063b4", "fusion_lat": 0.0, "rental_uris": {"ios": "https://dc.lft.to/lastmile_qr_scan", "android": "https://dc.lft.to/lastmile_qr_scan"}, "lon": -77.04872466666667, "type": "electric_scooter"}, {"bike_id": "e1c40e176efffd49bcd487fb15b179ed", "is_reserved": 0, "fusion_lon": 0.0, "lat": 38.88430866666667, "is_disabled": 0, "name": "e1c40e176efffd49bcd487fb15b179ed", "fusion_lat": 0.0, "rental_uris": {"ios": "https://dc.lft.to/lastmile_qr_scan", "android": "https://dc.lft.to/lastmile_qr_scan"}, "lon": -76.95754483333333, "type": "electric_scooter"}, {"bike_id": "9ae26f212142810e3734d4f92c9c46dc", "is_reserved": 0, "fusion_lon": 0.0, "lat": 38.902191, "is_disabled": 0, "name": "9ae26f212142810e3734d4f92c9c46dc", "fusion_lat": 0.0, "rental_uris": {"ios": "https://dc.lft.to/lastmile_qr_scan", "android": "https://dc.lft.to/lastmile_qr_scan"}, "lon": -77.0174795, "type": "electric_scooter"}, {"bike_id": "646badc56dfd2f3f5b945efd93cd8359", "is_reserved": 0, "fusion_lon": 0.0, "lat": 38.91216716666667, "is_disabled": 0, "name": "646badc56dfd2f3f5b945efd93cd8359", "fusion_lat": 0.0, "rental_uris": {"ios": "https://dc.lft.to/lastmile_qr_scan", "android": "https://dc.lft.to/lastmile_qr_scan"}, "lon": -77.02800733333333, "type": "electric_scooter"}, {"bike_id": "7fb08b688d64d1a59337e3ff02c58752", "is_reserved": 0, "fusion_lon": 0.0, "lat": 38.91779183333333, "is_disabled": 0, "name": "7fb08b688d64d1a59337e3ff02c58752", "fusion_lat": 0.0, "rental_uris": {"ios": "https://dc.lft.to/lastmile_qr_scan", "android": "https://dc.lft.to/lastmile_qr_scan"}, "lon": -77.01487783333333, "type": "electric_scooter"}, {"bike_id": "72056273044d09aac68adc6e8387162e", "is_reserved": 0, "fusion_lon": 0.0, "lat": 38.8666305, "is_disabled": 0, "name": "72056273044d09aac68adc6e8387162e", "fusion_lat": 0.0, "rental_uris": {"ios": "https://dc.lft.to/lastmile_qr_scan", "android": "https://dc.lft.to/lastmile_qr_scan"}, "lon": -76.98906616666666, "type": "electric_scooter"}, {"bike_id": "97cc51c5013b4476e033a85bb3318eb6", "is_reserved": 0, "fusion_lon": 0.0, "lat": 38.93113266666667, "is_disabled": 0, "name": "97cc51c5013b4476e033a85bb3318eb6", "fusion_lat": 0.0, "rental_uris": {"ios": "https://dc.lft.to/lastmile_qr_scan", "android": "https://dc.lft.to/lastmile_qr_scan"}, "lon": -77.02143366666667, "type": "electric_scooter"}, {"bike_id": "87d78a1dc27ed7d9ca3ce2d82b4b41fb", "is_reserved": 0, "fusion_lon": 0.0, "lat": 38.964934166666666, "is_disabled": 0, "name": "87d78a1dc27ed7d9ca3ce2d82b4b41fb", "fusion_lat": 0.0, "rental_uris": {"ios": "https://dc.lft.to/lastmile_qr_scan", "android": "https://dc.lft.to/lastmile_qr_scan"}, "lon": -77.06488583333334, "type": "electric_bike"}, {"bike_id": "1392ea0b7689e69fa93bdbcb01bfdaf2", "is_reserved": 0, "fusion_lon": 0.0, "lat": 38.91882433333333, "is_disabled": 0, "name": "1392ea0b7689e69fa93bdbcb01bfdaf2", "fusion_lat": 0.0, "rental_uris": {"ios": "https://dc.lft.to/lastmile_qr_scan", "android": "https://dc.lft.to/lastmile_qr_scan"}, "lon": -77.04474433333333, "type": "electric_scooter"}, {"bike_id": "7e4a1e4aeb7946fe74934f02da651b6a", "is_reserved": 0, "fusion_lon": 0.0, "lat": 38.93149016666667, "is_disabled": 0, "name": "7e4a1e4aeb7946fe74934f02da651b6a", "fusion_lat": 0.0, "rental_uris": {"ios": "https://dc.lft.to/lastmile_qr_scan", "android": "https://dc.lft.to/lastmile_qr_scan"}, "lon": -77.0570565, "type": "electric_scooter"}, {"bike_id": "8380598a0950ee32551cdeca5e5b9de5", "is_reserved": 0, "fusion_lon": 0.0, "lat": 38.899359, "is_disabled": 0, "name": "8380598a0950ee32551cdeca5e5b9de5", "fusion_lat": 0.0, "rental_uris": {"ios": "https://dc.lft.to/lastmile_qr_scan", "android": "https://dc.lft.to/lastmile_qr_scan"}, "lon": -77.03927716666666, "type": "electric_scooter"}, {"bike_id": "61a9456141f8c0f8331078832881d75c", "is_reserved": 0, "fusion_lon": 0.0, "lat": 38.923154833333335, "is_disabled": 0, "name": "61a9456141f8c0f8331078832881d75c", "fusion_lat": 0.0, "rental_uris": {"ios": "https://dc.lft.to/lastmile_qr_scan", "android": "https://dc.lft.to/lastmile_qr_scan"}, "lon": -77.0365935, "type": "electric_scooter"}, {"bike_id": "bd43f59a3b930d973255a1bc938eeadc", "is_reserved": 0, "fusion_lon": 0.0, "lat": 38.943666666666665, "is_disabled": 0, "name": "bd43f59a3b930d973255a1bc938eeadc", "fusion_lat": 0.0, "rental_uris": {"ios": "https://dc.lft.to/lastmile_qr_scan", "android": "https://dc.lft.to/lastmile_qr_scan"}, "lon": -77.02173116666667, "type": "electric_scooter"}, {"bike_id": "223416864f57815f325056432a534d7c", "is_reserved": 0, "fusion_lon": 0.0, "lat": 38.90796783333333, "is_disabled": 0, "name": "223416864f57815f325056432a534d7c", "fusion_lat": 0.0, "rental_uris": {"ios": "https://dc.lft.to/lastmile_qr_scan", "android": "https://dc.lft.to/lastmile_qr_scan"}, "lon": -77.04256766666667, "type": "electric_scooter"}, {"bike_id": "28610c929f321fce7994bad40c2745d0", "is_reserved": 0, "fusion_lon": 0.0, "lat": 38.89549816666667, "is_disabled": 0, "name": "28610c929f321fce7994bad40c2745d0", "fusion_lat": 0.0, "rental_uris": {"ios": "https://dc.lft.to/lastmile_qr_scan", "android": "https://dc.lft.to/lastmile_qr_scan"}, "lon": -77.00908183333334, "type": "electric_scooter"}, {"bike_id": "40acf1f9d379d14f543e4bea6cd17d74", "is_reserved": 0, "fusion_lon": 0.0, "lat": 38.88768816666666, "is_disabled": 0, "name": "40acf1f9d379d14f543e4bea6cd17d74", "fusion_lat": 0.0, "rental_uris": {"ios": "https://dc.lft.to/lastmile_qr_scan", "android": "https://dc.lft.to/lastmile_qr_scan"}, "lon": -76.9805305, "type": "electric_scooter"}, {"bike_id": "944d3b66d90b15cebcaaff43fd04b1c2", "is_reserved": 0, "fusion_lon": 0.0, "lat": 38.93510766666667, "is_disabled": 0, "name": "944d3b66d90b15cebcaaff43fd04b1c2", "fusion_lat": 0.0, "rental_uris": {"ios": "https://dc.lft.to/lastmile_qr_scan", "android": "https://dc.lft.to/lastmile_qr_scan"}, "lon": -77.019954, "type": "electric_scooter"}, {"bike_id": "70707f9e7d6c1b66bfe703e42ce0ec9d", "is_reserved": 0, "fusion_lon": 0.0, "lat": 38.89891016666667, "is_disabled": 0, "name": "70707f9e7d6c1b66bfe703e42ce0ec9d", "fusion_lat": 0.0, "rental_uris": {"ios": "https://dc.lft.to/lastmile_qr_scan", "android": "https://dc.lft.to/lastmile_qr_scan"}, "lon": -77.03318716666666, "type": "electric_scooter"}, {"bike_id": "71fe840b9b5c789979459e532c233773", "is_reserved": 0, "fusion_lon": 0.0, "lat": 38.922628333333336, "is_disabled": 0, "name": "71fe840b9b5c789979459e532c233773", "fusion_lat": 0.0, "rental_uris": {"ios": "https://dc.lft.to/lastmile_qr_scan", "android": "https://dc.lft.to/lastmile_qr_scan"}, "lon": -76.97417083333333, "type": "electric_bike"}, {"bike_id": "d6b2695665303dedd59c82eca0beb677", "is_reserved": 0, "fusion_lon": 0.0, "lat": 38.87339683333333, "is_disabled": 0, "name": "d6b2695665303dedd59c82eca0beb677", "fusion_lat": 0.0, "rental_uris": {"ios": "https://dc.lft.to/lastmile_qr_scan", "android": "https://dc.lft.to/lastmile_qr_scan"}, "lon": -77.1062355, "type": "electric_bike"}, {"bike_id": "cfaaa50fc32dee12933162dbe33e2ff7", "is_reserved": 0, "fusion_lon": 0.0, "lat": 38.940456833333336, "is_disabled": 0, "name": "cfaaa50fc32dee12933162dbe33e2ff7", "fusion_lat": 0.0, "rental_uris": {"ios": "https://dc.lft.to/lastmile_qr_scan", "android": "https://dc.lft.to/lastmile_qr_scan"}, "lon": -77.02894566666667, "type": "electric_scooter"}, {"bike_id": "7d6c7e47b3d4922d3af27b1641fd051b", "is_reserved": 0, "fusion_lon": 0.0, "lat": 38.866275, "is_disabled": 0, "name": "7d6c7e47b3d4922d3af27b1641fd051b", "fusion_lat": 0.0, "rental_uris": {"ios": "https://dc.lft.to/lastmile_qr_scan", "android": "https://dc.lft.to/lastmile_qr_scan"}, "lon": -76.98715816666666, "type": "electric_scooter"}, {"bike_id": "df93d4f9560be56cb76fab6bd7317087", "is_reserved": 0, "fusion_lon": 0.0, "lat": 38.880426666666665, "is_disabled": 0, "name": "df93d4f9560be56cb76fab6bd7317087", "fusion_lat": 0.0, "rental_uris": {"ios": "https://dc.lft.to/lastmile_qr_scan", "android": "https://dc.lft.to/lastmile_qr_scan"}, "lon": -77.02512466666667, "type": "electric_scooter"}, {"bike_id": "e74fe4369517f038f31ca0f6c3ee0f58", "is_reserved": 0, "fusion_lon": 0.0, "lat": 38.90022783333333, "is_disabled": 0, "name": "e74fe4369517f038f31ca0f6c3ee0f58", "fusion_lat": 0.0, "rental_uris": {"ios": "https://dc.lft.to/lastmile_qr_scan", "android": "https://dc.lft.to/lastmile_qr_scan"}, "lon": -76.99539316666667, "type": "electric_scooter"}, {"bike_id": "85342e33637c1304a89405d2d34ac979", "is_reserved": 0, "fusion_lon": 0.0, "lat": 38.90672933333333, "is_disabled": 0, "name": "85342e33637c1304a89405d2d34ac979", "fusion_lat": 0.0, "rental_uris": {"ios": "https://dc.lft.to/lastmile_qr_scan", "android": "https://dc.lft.to/lastmile_qr_scan"}, "lon": -77.02721266666667, "type": "electric_scooter"}, {"bike_id": "29b43eb0708e540576ce50bfe425b670", "is_reserved": 0, "fusion_lon": 0.0, "lat": 38.86730683333333, "is_disabled": 0, "name": "29b43eb0708e540576ce50bfe425b670", "fusion_lat": 0.0, "rental_uris": {"ios": "https://dc.lft.to/lastmile_qr_scan", "android": "https://dc.lft.to/lastmile_qr_scan"}, "lon": -76.9877495, "type": "electric_scooter"}, {"bike_id": "ac65e0b984189bff7614ff97e473dbcd", "is_reserved": 0, "fusion_lon": 0.0, "lat": 38.92855433333333, "is_disabled": 0, "name": "ac65e0b984189bff7614ff97e473dbcd", "fusion_lat": 0.0, "rental_uris": {"ios": "https://dc.lft.to/lastmile_qr_scan", "android": "https://dc.lft.to/lastmile_qr_scan"}, "lon": -77.03625883333333, "type": "electric_scooter"}, {"bike_id": "e2060c4d34aac33dae3f7536fa929459", "is_reserved": 0, "fusion_lon": 0.0, "lat": 38.89942966666667, "is_disabled": 0, "name": "e2060c4d34aac33dae3f7536fa929459", "fusion_lat": 0.0, "rental_uris": {"ios": "https://dc.lft.to/lastmile_qr_scan", "android": "https://dc.lft.to/lastmile_qr_scan"}, "lon": -77.031785, "type": "electric_scooter"}, {"bike_id": "e873d72948e8fdc7912eb7ca5a0d0798", "is_reserved": 0, "fusion_lon": 0.0, "lat": 38.916049666666666, "is_disabled": 0, "name": "e873d72948e8fdc7912eb7ca5a0d0798", "fusion_lat": 0.0, "rental_uris": {"ios": "https://dc.lft.to/lastmile_qr_scan", "android": "https://dc.lft.to/lastmile_qr_scan"}, "lon": -77.04356166666666, "type": "electric_scooter"}, {"bike_id": "89cb10dbf640fff9c0e9f98296aec8cf", "is_reserved": 0, "fusion_lon": 0.0, "lat": 38.897984666666666, "is_disabled": 0, "name": "89cb10dbf640fff9c0e9f98296aec8cf", "fusion_lat": 0.0, "rental_uris": {"ios": "https://dc.lft.to/lastmile_qr_scan", "android": "https://dc.lft.to/lastmile_qr_scan"}, "lon": -76.99162683333333, "type": "electric_scooter"}, {"bike_id": "99db2be74beaa83cc0aabc0a217edd08", "is_reserved": 0, "fusion_lon": 0.0, "lat": 38.9183955, "is_disabled": 0, "name": "99db2be74beaa83cc0aabc0a217edd08", "fusion_lat": 0.0, "rental_uris": {"ios": "https://dc.lft.to/lastmile_qr_scan", "android": "https://dc.lft.to/lastmile_qr_scan"}, "lon": -77.03893283333333, "type": "electric_scooter"}, {"bike_id": "78e309aed451d9509d1bd88a9730e15f", "is_reserved": 0, "fusion_lon": 0.0, "lat": 38.95634366666667, "is_disabled": 0, "name": "78e309aed451d9509d1bd88a9730e15f", "fusion_lat": 0.0, "rental_uris": {"ios": "https://dc.lft.to/lastmile_qr_scan", "android": "https://dc.lft.to/lastmile_qr_scan"}, "lon": -76.93877933333333, "type": "electric_bike"}, {"bike_id": "5ad3fad6fc7a98e2da7acb2980105780", "is_reserved": 0, "fusion_lon": 0.0, "lat": 38.883252666666664, "is_disabled": 0, "name": "5ad3fad6fc7a98e2da7acb2980105780", "fusion_lat": 0.0, "rental_uris": {"ios": "https://dc.lft.to/lastmile_qr_scan", "android": "https://dc.lft.to/lastmile_qr_scan"}, "lon": -77.017515, "type": "electric_scooter"}, {"bike_id": "b30e4be611f61ad3b17d503c058c3803", "is_reserved": 0, "fusion_lon": 0.0, "lat": 38.8975695, "is_disabled": 0, "name": "b30e4be611f61ad3b17d503c058c3803", "fusion_lat": 0.0, "rental_uris": {"ios": "https://dc.lft.to/lastmile_qr_scan", "android": "https://dc.lft.to/lastmile_qr_scan"}, "lon": -77.02700183333333, "type": "electric_scooter"}, {"bike_id": "2b77a12320e1295529e2606d122f9b19", "is_reserved": 0, "fusion_lon": 0.0, "lat": 38.93445366666667, "is_disabled": 0, "name": "2b77a12320e1295529e2606d122f9b19", "fusion_lat": 0.0, "rental_uris": {"ios": "https://dc.lft.to/lastmile_qr_scan", "android": "https://dc.lft.to/lastmile_qr_scan"}, "lon": -77.02847533333333, "type": "electric_scooter"}, {"bike_id": "7a20b00d607322a5a56d40362bb9448f", "is_reserved": 0, "fusion_lon": 0.0, "lat": 38.924765, "is_disabled": 0, "name": "7a20b00d607322a5a56d40362bb9448f", "fusion_lat": 0.0, "rental_uris": {"ios": "https://dc.lft.to/lastmile_qr_scan", "android": "https://dc.lft.to/lastmile_qr_scan"}, "lon": -77.03769983333333, "type": "electric_scooter"}, {"bike_id": "3508237e3ec496170eb185fef3103c5d", "is_reserved": 0, "fusion_lon": 0.0, "lat": 38.885067666666664, "is_disabled": 0, "name": "3508237e3ec496170eb185fef3103c5d", "fusion_lat": 0.0, "rental_uris": {"ios": "https://dc.lft.to/lastmile_qr_scan", "android": "https://dc.lft.to/lastmile_qr_scan"}, "lon": -77.00565966666667, "type": "electric_scooter"}, {"bike_id": "7e912d5c2934fbecaeb4bab9e8adf0d3", "is_reserved": 0, "fusion_lon": 0.0, "lat": 38.9170445, "is_disabled": 0, "name": "7e912d5c2934fbecaeb4bab9e8adf0d3", "fusion_lat": 0.0, "rental_uris": {"ios": "https://dc.lft.to/lastmile_qr_scan", "android": "https://dc.lft.to/lastmile_qr_scan"}, "lon": -77.02287266666667, "type": "electric_scooter"}, {"bike_id": "1093e1014997e0b86132a606bebd9fc7", "is_reserved": 0, "fusion_lon": 0.0, "lat": 38.92834783333333, "is_disabled": 0, "name": "1093e1014997e0b86132a606bebd9fc7", "fusion_lat": 0.0, "rental_uris": {"ios": "https://dc.lft.to/lastmile_qr_scan", "android": "https://dc.lft.to/lastmile_qr_scan"}, "lon": -77.05508433333334, "type": "electric_scooter"}, {"bike_id": "bfa61cce90c6b092d51c576cc56faa1d", "is_reserved": 0, "fusion_lon": 0.0, "lat": 38.8977125, "is_disabled": 0, "name": "bfa61cce90c6b092d51c576cc56faa1d", "fusion_lat": 0.0, "rental_uris": {"ios": "https://dc.lft.to/lastmile_qr_scan", "android": "https://dc.lft.to/lastmile_qr_scan"}, "lon": -76.9043285, "type": "electric_bike"}, {"bike_id": "7d668d2f67d5bea4335e3ff43e7057b1", "is_reserved": 0, "fusion_lon": 0.0, "lat": 38.9177715, "is_disabled": 0, "name": "7d668d2f67d5bea4335e3ff43e7057b1", "fusion_lat": 0.0, "rental_uris": {"ios": "https://dc.lft.to/lastmile_qr_scan", "android": "https://dc.lft.to/lastmile_qr_scan"}, "lon": -77.04055083333333, "type": "electric_scooter"}, {"bike_id": "7e8f007cd0f76fc7e3e0838cbec3e9b6", "is_reserved": 0, "fusion_lon": 0.0, "lat": 38.8429235, "is_disabled": 0, "name": "7e8f007cd0f76fc7e3e0838cbec3e9b6", "fusion_lat": 0.0, "rental_uris": {"ios": "https://dc.lft.to/lastmile_qr_scan", "android": "https://dc.lft.to/lastmile_qr_scan"}, "lon": -76.9994545, "type": "electric_scooter"}, {"bike_id": "e9ca9c8c1d5f6368d81d04fa55a51047", "is_reserved": 0, "fusion_lon": 0.0, "lat": 38.93674766666667, "is_disabled": 0, "name": "e9ca9c8c1d5f6368d81d04fa55a51047", "fusion_lat": 0.0, "rental_uris": {"ios": "https://dc.lft.to/lastmile_qr_scan", "android": "https://dc.lft.to/lastmile_qr_scan"}, "lon": -77.03593383333333, "type": "electric_scooter"}, {"bike_id": "1c7e06c2664f3f824107eb794dcd099c", "is_reserved": 0, "fusion_lon": 0.0, "lat": 38.898428, "is_disabled": 0, "name": "1c7e06c2664f3f824107eb794dcd099c", "fusion_lat": 0.0, "rental_uris": {"ios": "https://dc.lft.to/lastmile_qr_scan", "android": "https://dc.lft.to/lastmile_qr_scan"}, "lon": -77.00736566666667, "type": "electric_scooter"}, {"bike_id": "976ad56360d7a1218ca0dc0a7d481fdb", "is_reserved": 0, "fusion_lon": 0.0, "lat": 38.913858166666664, "is_disabled": 0, "name": "976ad56360d7a1218ca0dc0a7d481fdb", "fusion_lat": 0.0, "rental_uris": {"ios": "https://dc.lft.to/lastmile_qr_scan", "android": "https://dc.lft.to/lastmile_qr_scan"}, "lon": -77.01793333333333, "type": "electric_scooter"}, {"bike_id": "1e2888123dac876dbe18f23704561809", "is_reserved": 0, "fusion_lon": 0.0, "lat": 38.918076166666665, "is_disabled": 0, "name": "1e2888123dac876dbe18f23704561809", "fusion_lat": 0.0, "rental_uris": {"ios": "https://dc.lft.to/lastmile_qr_scan", "android": "https://dc.lft.to/lastmile_qr_scan"}, "lon": -77.0343985, "type": "electric_scooter"}, {"bike_id": "cc66c2d4aaa9831a90eb91b12768475a", "is_reserved": 0, "fusion_lon": 0.0, "lat": 38.914132333333335, "is_disabled": 0, "name": "cc66c2d4aaa9831a90eb91b12768475a", "fusion_lat": 0.0, "rental_uris": {"ios": "https://dc.lft.to/lastmile_qr_scan", "android": "https://dc.lft.to/lastmile_qr_scan"}, "lon": -77.0414145, "type": "electric_scooter"}, {"bike_id": "17097f5d0f6044ab105f02491a23af26", "is_reserved": 0, "fusion_lon": 0.0, "lat": 38.9242725, "is_disabled": 0, "name": "17097f5d0f6044ab105f02491a23af26", "fusion_lat": 0.0, "rental_uris": {"ios": "https://dc.lft.to/lastmile_qr_scan", "android": "https://dc.lft.to/lastmile_qr_scan"}, "lon": -76.997417, "type": "electric_bike"}, {"bike_id": "eec8938304dbec7cd9ce90752f8bcd45", "is_reserved": 0, "fusion_lon": 0.0, "lat": 38.90868016666667, "is_disabled": 0, "name": "eec8938304dbec7cd9ce90752f8bcd45", "fusion_lat": 0.0, "rental_uris": {"ios": "https://dc.lft.to/lastmile_qr_scan", "android": "https://dc.lft.to/lastmile_qr_scan"}, "lon": -77.0063115, "type": "electric_scooter"}, {"bike_id": "6897f295ffb25f07727b25bc516fc457", "is_reserved": 0, "fusion_lon": 0.0, "lat": 38.902793333333335, "is_disabled": 0, "name": "6897f295ffb25f07727b25bc516fc457", "fusion_lat": 0.0, "rental_uris": {"ios": "https://dc.lft.to/lastmile_qr_scan", "android": "https://dc.lft.to/lastmile_qr_scan"}, "lon": -77.06096416666666, "type": "electric_scooter"}, {"bike_id": "a2a96e29569c8ec5280474b0f5825703", "is_reserved": 0, "fusion_lon": 0.0, "lat": 38.920899166666665, "is_disabled": 0, "name": "a2a96e29569c8ec5280474b0f5825703", "fusion_lat": 0.0, "rental_uris": {"ios": "https://dc.lft.to/lastmile_qr_scan", "android": "https://dc.lft.to/lastmile_qr_scan"}, "lon": -76.99895183333334, "type": "electric_scooter"}, {"bike_id": "7e7d61fccbfb6d9219fd9217602b1a5c", "is_reserved": 0, "fusion_lon": 0.0, "lat": 38.91872266666667, "is_disabled": 0, "name": "7e7d61fccbfb6d9219fd9217602b1a5c", "fusion_lat": 0.0, "rental_uris": {"ios": "https://dc.lft.to/lastmile_qr_scan", "android": "https://dc.lft.to/lastmile_qr_scan"}, "lon": -77.03500433333333, "type": "electric_scooter"}, {"bike_id": "0f031271e018698193d85c26e64b3b10", "is_reserved": 0, "fusion_lon": 0.0, "lat": 38.92047133333333, "is_disabled": 0, "name": "0f031271e018698193d85c26e64b3b10", "fusion_lat": 0.0, "rental_uris": {"ios": "https://dc.lft.to/lastmile_qr_scan", "android": "https://dc.lft.to/lastmile_qr_scan"}, "lon": -76.99821133333333, "type": "electric_scooter"}, {"bike_id": "9072fb51d10a0c876098152cb6d8ac40", "is_reserved": 0, "fusion_lon": 0.0, "lat": 38.92418416666667, "is_disabled": 0, "name": "9072fb51d10a0c876098152cb6d8ac40", "fusion_lat": 0.0, "rental_uris": {"ios": "https://dc.lft.to/lastmile_qr_scan", "android": "https://dc.lft.to/lastmile_qr_scan"}, "lon": -77.0355225, "type": "electric_scooter"}, {"bike_id": "02d395eed317cdc015f73336b8710afc", "is_reserved": 0, "fusion_lon": 0.0, "lat": 38.91809033333333, "is_disabled": 0, "name": "02d395eed317cdc015f73336b8710afc", "fusion_lat": 0.0, "rental_uris": {"ios": "https://dc.lft.to/lastmile_qr_scan", "android": "https://dc.lft.to/lastmile_qr_scan"}, "lon": -77.03436166666667, "type": "electric_scooter"}, {"bike_id": "eca39386f712d0c128cca3abd1997ee5", "is_reserved": 0, "fusion_lon": 0.0, "lat": 38.93947766666667, "is_disabled": 0, "name": "eca39386f712d0c128cca3abd1997ee5", "fusion_lat": 0.0, "rental_uris": {"ios": "https://dc.lft.to/lastmile_qr_scan", "android": "https://dc.lft.to/lastmile_qr_scan"}, "lon": -77.0327395, "type": "electric_scooter"}, {"bike_id": "9bd8b2c3db234f9bfd2a8f845f62c7f9", "is_reserved": 0, "fusion_lon": 0.0, "lat": 38.952808, "is_disabled": 0, "name": "9bd8b2c3db234f9bfd2a8f845f62c7f9", "fusion_lat": 0.0, "rental_uris": {"ios": "https://dc.lft.to/lastmile_qr_scan", "android": "https://dc.lft.to/lastmile_qr_scan"}, "lon": -77.0079055, "type": "electric_scooter"}, {"bike_id": "112dc6f479146c697231ad546939bd87", "is_reserved": 0, "fusion_lon": 0.0, "lat": 38.93395916666667, "is_disabled": 0, "name": "112dc6f479146c697231ad546939bd87", "fusion_lat": 0.0, "rental_uris": {"ios": "https://dc.lft.to/lastmile_qr_scan", "android": "https://dc.lft.to/lastmile_qr_scan"}, "lon": -77.02064866666667, "type": "electric_scooter"}, {"bike_id": "83de73a7cf851d775234290e98996a11", "is_reserved": 0, "fusion_lon": 0.0, "lat": 38.90018516666667, "is_disabled": 0, "name": "83de73a7cf851d775234290e98996a11", "fusion_lat": 0.0, "rental_uris": {"ios": "https://dc.lft.to/lastmile_qr_scan", "android": "https://dc.lft.to/lastmile_qr_scan"}, "lon": -77.00188666666666, "type": "electric_scooter"}, {"bike_id": "63b41e0cd2d287c216ae1d9aefcbb1f6", "is_reserved": 0, "fusion_lon": 0.0, "lat": 38.99065616666667, "is_disabled": 0, "name": "63b41e0cd2d287c216ae1d9aefcbb1f6", "fusion_lat": 0.0, "rental_uris": {"ios": "https://dc.lft.to/lastmile_qr_scan", "android": "https://dc.lft.to/lastmile_qr_scan"}, "lon": -77.10030216666667, "type": "electric_bike"}, {"bike_id": "733b53d8f513301639bc575be86f7347", "is_reserved": 0, "fusion_lon": 0.0, "lat": 38.87232233333334, "is_disabled": 0, "name": "733b53d8f513301639bc575be86f7347", "fusion_lat": 0.0, "rental_uris": {"ios": "https://dc.lft.to/lastmile_qr_scan", "android": "https://dc.lft.to/lastmile_qr_scan"}, "lon": -77.01169516666667, "type": "electric_bike"}, {"bike_id": "38408bf01c227b6e0fd0cdcd710c2e4c", "is_reserved": 0, "fusion_lon": 0.0, "lat": 38.90015266666666, "is_disabled": 0, "name": "38408bf01c227b6e0fd0cdcd710c2e4c", "fusion_lat": 0.0, "rental_uris": {"ios": "https://dc.lft.to/lastmile_qr_scan", "android": "https://dc.lft.to/lastmile_qr_scan"}, "lon": -76.99784833333334, "type": "electric_scooter"}, {"bike_id": "160e8ea48fc89c846ad83cab6f0cd19d", "is_reserved": 0, "fusion_lon": 0.0, "lat": 38.9243895, "is_disabled": 0, "name": "160e8ea48fc89c846ad83cab6f0cd19d", "fusion_lat": 0.0, "rental_uris": {"ios": "https://dc.lft.to/lastmile_qr_scan", "android": "https://dc.lft.to/lastmile_qr_scan"}, "lon": -77.04000533333334, "type": "electric_scooter"}, {"bike_id": "3295ee3662675c775e2a20c14fb7f8c6", "is_reserved": 0, "fusion_lon": 0.0, "lat": 38.940440333333335, "is_disabled": 0, "name": "3295ee3662675c775e2a20c14fb7f8c6", "fusion_lat": 0.0, "rental_uris": {"ios": "https://dc.lft.to/lastmile_qr_scan", "android": "https://dc.lft.to/lastmile_qr_scan"}, "lon": -77.02975783333333, "type": "electric_scooter"}, {"bike_id": "d2b22b13971cd9a33eca5deb8895f32d", "is_reserved": 0, "fusion_lon": 0.0, "lat": 38.853233, "is_disabled": 0, "name": "d2b22b13971cd9a33eca5deb8895f32d", "fusion_lat": 0.0, "rental_uris": {"ios": "https://dc.lft.to/lastmile_qr_scan", "android": "https://dc.lft.to/lastmile_qr_scan"}, "lon": -76.9800775, "type": "electric_scooter"}, {"bike_id": "ad588dfec13269cbd400070a98e098b4", "is_reserved": 0, "fusion_lon": 0.0, "lat": 38.92259266666667, "is_disabled": 0, "name": "ad588dfec13269cbd400070a98e098b4", "fusion_lat": 0.0, "rental_uris": {"ios": "https://dc.lft.to/lastmile_qr_scan", "android": "https://dc.lft.to/lastmile_qr_scan"}, "lon": -77.04136583333333, "type": "electric_scooter"}, {"bike_id": "b6ae51d6bb09916133b287927bb7ecdb", "is_reserved": 0, "fusion_lon": 0.0, "lat": 38.922588166666664, "is_disabled": 0, "name": "b6ae51d6bb09916133b287927bb7ecdb", "fusion_lat": 0.0, "rental_uris": {"ios": "https://dc.lft.to/lastmile_qr_scan", "android": "https://dc.lft.to/lastmile_qr_scan"}, "lon": -77.0421905, "type": "electric_scooter"}, {"bike_id": "a99411497b47d5dcd08196cdf03ebe3d", "is_reserved": 0, "fusion_lon": 0.0, "lat": 38.901574, "is_disabled": 0, "name": "a99411497b47d5dcd08196cdf03ebe3d", "fusion_lat": 0.0, "rental_uris": {"ios": "https://dc.lft.to/lastmile_qr_scan", "android": "https://dc.lft.to/lastmile_qr_scan"}, "lon": -76.97506583333333, "type": "electric_scooter"}, {"bike_id": "7a5eee2c94e0d45575a589dae121c1f1", "is_reserved": 0, "fusion_lon": 0.0, "lat": 38.900726166666665, "is_disabled": 0, "name": "7a5eee2c94e0d45575a589dae121c1f1", "fusion_lat": 0.0, "rental_uris": {"ios": "https://dc.lft.to/lastmile_qr_scan", "android": "https://dc.lft.to/lastmile_qr_scan"}, "lon": -77.04772816666667, "type": "electric_scooter"}, {"bike_id": "0844ce5dc970ce07ff64d658da15d44e", "is_reserved": 0, "fusion_lon": 0.0, "lat": 38.917154, "is_disabled": 0, "name": "0844ce5dc970ce07ff64d658da15d44e", "fusion_lat": 0.0, "rental_uris": {"ios": "https://dc.lft.to/lastmile_qr_scan", "android": "https://dc.lft.to/lastmile_qr_scan"}, "lon": -77.03040416666667, "type": "electric_scooter"}, {"bike_id": "d4b7215eb0f0c5451597000d6b10fc00", "is_reserved": 0, "fusion_lon": 0.0, "lat": 38.902951, "is_disabled": 0, "name": "d4b7215eb0f0c5451597000d6b10fc00", "fusion_lat": 0.0, "rental_uris": {"ios": "https://dc.lft.to/lastmile_qr_scan", "android": "https://dc.lft.to/lastmile_qr_scan"}, "lon": -76.9443725, "type": "electric_bike"}, {"bike_id": "bedcb0df08d798b298f5331f1dd14f25", "is_reserved": 0, "fusion_lon": 0.0, "lat": 38.933338166666665, "is_disabled": 0, "name": "bedcb0df08d798b298f5331f1dd14f25", "fusion_lat": 0.0, "rental_uris": {"ios": "https://dc.lft.to/lastmile_qr_scan", "android": "https://dc.lft.to/lastmile_qr_scan"}, "lon": -77.03279316666666, "type": "electric_scooter"}, {"bike_id": "ea6743b4568518d66052cb3c735e8488", "is_reserved": 0, "fusion_lon": 0.0, "lat": 39.01595916666667, "is_disabled": 0, "name": "ea6743b4568518d66052cb3c735e8488", "fusion_lat": 0.0, "rental_uris": {"ios": "https://dc.lft.to/lastmile_qr_scan", "android": "https://dc.lft.to/lastmile_qr_scan"}, "lon": -77.044296, "type": "electric_bike"}, {"bike_id": "f8040309f966209564793d3edcef9c56", "is_reserved": 0, "fusion_lon": 0.0, "lat": 38.838047833333334, "is_disabled": 0, "name": "f8040309f966209564793d3edcef9c56", "fusion_lat": 0.0, "rental_uris": {"ios": "https://dc.lft.to/lastmile_qr_scan", "android": "https://dc.lft.to/lastmile_qr_scan"}, "lon": -76.99829333333334, "type": "electric_bike"}, {"bike_id": "357daad6be8fe2bdf8f2b9e7906bb0fc", "is_reserved": 0, "fusion_lon": 0.0, "lat": 38.913236166666664, "is_disabled": 0, "name": "357daad6be8fe2bdf8f2b9e7906bb0fc", "fusion_lat": 0.0, "rental_uris": {"ios": "https://dc.lft.to/lastmile_qr_scan", "android": "https://dc.lft.to/lastmile_qr_scan"}, "lon": -77.01508533333333, "type": "electric_scooter"}, {"bike_id": "0583b23b864b6e7e420f3811c6f9e779", "is_reserved": 0, "fusion_lon": 0.0, "lat": 38.905417, "is_disabled": 0, "name": "0583b23b864b6e7e420f3811c6f9e779", "fusion_lat": 0.0, "rental_uris": {"ios": "https://dc.lft.to/lastmile_qr_scan", "android": "https://dc.lft.to/lastmile_qr_scan"}, "lon": -77.00208916666666, "type": "electric_bike"}, {"bike_id": "a4e135ae3dfd1bacbd666015ebbb79fb", "is_reserved": 0, "fusion_lon": 0.0, "lat": 38.9300165, "is_disabled": 0, "name": "a4e135ae3dfd1bacbd666015ebbb79fb", "fusion_lat": 0.0, "rental_uris": {"ios": "https://dc.lft.to/lastmile_qr_scan", "android": "https://dc.lft.to/lastmile_qr_scan"}, "lon": -77.05536766666667, "type": "electric_scooter"}, {"bike_id": "13c03a383d2c2a8b5a03ac3689c8b6f3", "is_reserved": 0, "fusion_lon": 0.0, "lat": 38.8878875, "is_disabled": 0, "name": "13c03a383d2c2a8b5a03ac3689c8b6f3", "fusion_lat": 0.0, "rental_uris": {"ios": "https://dc.lft.to/lastmile_qr_scan", "android": "https://dc.lft.to/lastmile_qr_scan"}, "lon": -77.020099, "type": "electric_scooter"}, {"bike_id": "686ff170ba09729d665ddece10843692", "is_reserved": 0, "fusion_lon": 0.0, "lat": 38.88237266666667, "is_disabled": 0, "name": "686ff170ba09729d665ddece10843692", "fusion_lat": 0.0, "rental_uris": {"ios": "https://dc.lft.to/lastmile_qr_scan", "android": "https://dc.lft.to/lastmile_qr_scan"}, "lon": -76.99083883333333, "type": "electric_scooter"}, {"bike_id": "342ddb2d23ba9124c12368decb03ed88", "is_reserved": 0, "fusion_lon": 0.0, "lat": 38.92399433333333, "is_disabled": 0, "name": "342ddb2d23ba9124c12368decb03ed88", "fusion_lat": 0.0, "rental_uris": {"ios": "https://dc.lft.to/lastmile_qr_scan", "android": "https://dc.lft.to/lastmile_qr_scan"}, "lon": -77.01962333333333, "type": "electric_scooter"}, {"bike_id": "1f96fdf2dd2bb9c6dfed166823bc871d", "is_reserved": 0, "fusion_lon": 0.0, "lat": 38.884973333333335, "is_disabled": 0, "name": "1f96fdf2dd2bb9c6dfed166823bc871d", "fusion_lat": 0.0, "rental_uris": {"ios": "https://dc.lft.to/lastmile_qr_scan", "android": "https://dc.lft.to/lastmile_qr_scan"}, "lon": -77.00729083333333, "type": "electric_scooter"}, {"bike_id": "de1fd5a4bc33f2b1138fc036629a3215", "is_reserved": 0, "fusion_lon": 0.0, "lat": 38.88967483333333, "is_disabled": 0, "name": "de1fd5a4bc33f2b1138fc036629a3215", "fusion_lat": 0.0, "rental_uris": {"ios": "https://dc.lft.to/lastmile_qr_scan", "android": "https://dc.lft.to/lastmile_qr_scan"}, "lon": -76.98035683333333, "type": "electric_bike"}, {"bike_id": "f74b1860f90ec78f2780778166477cf2", "is_reserved": 0, "fusion_lon": 0.0, "lat": 38.909981, "is_disabled": 0, "name": "f74b1860f90ec78f2780778166477cf2", "fusion_lat": 0.0, "rental_uris": {"ios": "https://dc.lft.to/lastmile_qr_scan", "android": "https://dc.lft.to/lastmile_qr_scan"}, "lon": -77.0400285, "type": "electric_scooter"}, {"bike_id": "609abc6d7e395f531d72930eb2476557", "is_reserved": 0, "fusion_lon": 0.0, "lat": 38.93083083333333, "is_disabled": 0, "name": "609abc6d7e395f531d72930eb2476557", "fusion_lat": 0.0, "rental_uris": {"ios": "https://dc.lft.to/lastmile_qr_scan", "android": "https://dc.lft.to/lastmile_qr_scan"}, "lon": -77.02795283333333, "type": "electric_scooter"}, {"bike_id": "b7ae6daf93d52e52701d5fec0e3bd806", "is_reserved": 0, "fusion_lon": 0.0, "lat": 38.88765816666667, "is_disabled": 0, "name": "b7ae6daf93d52e52701d5fec0e3bd806", "fusion_lat": 0.0, "rental_uris": {"ios": "https://dc.lft.to/lastmile_qr_scan", "android": "https://dc.lft.to/lastmile_qr_scan"}, "lon": -77.03139733333333, "type": "electric_scooter"}, {"bike_id": "12a88bb5d3d4ad23d37370e208d569aa", "is_reserved": 0, "fusion_lon": 0.0, "lat": 38.956428, "is_disabled": 0, "name": "12a88bb5d3d4ad23d37370e208d569aa", "fusion_lat": 0.0, "rental_uris": {"ios": "https://dc.lft.to/lastmile_qr_scan", "android": "https://dc.lft.to/lastmile_qr_scan"}, "lon": -76.99791983333333, "type": "electric_scooter"}, {"bike_id": "edf98a3faad26933ec39a02877f41576", "is_reserved": 0, "fusion_lon": 0.0, "lat": 38.912747, "is_disabled": 0, "name": "edf98a3faad26933ec39a02877f41576", "fusion_lat": 0.0, "rental_uris": {"ios": "https://dc.lft.to/lastmile_qr_scan", "android": "https://dc.lft.to/lastmile_qr_scan"}, "lon": -77.01611083333333, "type": "electric_scooter"}, {"bike_id": "5738cb2d0d929186854a3afc2d3c1cdc", "is_reserved": 0, "fusion_lon": 0.0, "lat": 38.9377265, "is_disabled": 0, "name": "5738cb2d0d929186854a3afc2d3c1cdc", "fusion_lat": 0.0, "rental_uris": {"ios": "https://dc.lft.to/lastmile_qr_scan", "android": "https://dc.lft.to/lastmile_qr_scan"}, "lon": -77.01912183333333, "type": "electric_bike"}, {"bike_id": "de158fd071dbe14c83dca980f5742396", "is_reserved": 0, "fusion_lon": 0.0, "lat": 38.90711683333333, "is_disabled": 0, "name": "de158fd071dbe14c83dca980f5742396", "fusion_lat": 0.0, "rental_uris": {"ios": "https://dc.lft.to/lastmile_qr_scan", "android": "https://dc.lft.to/lastmile_qr_scan"}, "lon": -77.03205166666666, "type": "electric_scooter"}, {"bike_id": "f002e2afada09c53febd2bbaa20502c2", "is_reserved": 0, "fusion_lon": 0.0, "lat": 38.922880666666664, "is_disabled": 0, "name": "f002e2afada09c53febd2bbaa20502c2", "fusion_lat": 0.0, "rental_uris": {"ios": "https://dc.lft.to/lastmile_qr_scan", "android": "https://dc.lft.to/lastmile_qr_scan"}, "lon": -77.03660183333334, "type": "electric_scooter"}, {"bike_id": "d2e87071af14caa25d1ca15c1b6167a6", "is_reserved": 0, "fusion_lon": 0.0, "lat": 38.9650315, "is_disabled": 0, "name": "d2e87071af14caa25d1ca15c1b6167a6", "fusion_lat": 0.0, "rental_uris": {"ios": "https://dc.lft.to/lastmile_qr_scan", "android": "https://dc.lft.to/lastmile_qr_scan"}, "lon": -77.02822016666667, "type": "electric_bike"}, {"bike_id": "c234a6e78a6d8eeb81c560119370a365", "is_reserved": 0, "fusion_lon": 0.0, "lat": 38.917724666666665, "is_disabled": 0, "name": "c234a6e78a6d8eeb81c560119370a365", "fusion_lat": 0.0, "rental_uris": {"ios": "https://dc.lft.to/lastmile_qr_scan", "android": "https://dc.lft.to/lastmile_qr_scan"}, "lon": -77.04752316666666, "type": "electric_scooter"}, {"bike_id": "e0ac1498d5b6797ff442160af1f46428", "is_reserved": 0, "fusion_lon": 0.0, "lat": 38.90723, "is_disabled": 0, "name": "e0ac1498d5b6797ff442160af1f46428", "fusion_lat": 0.0, "rental_uris": {"ios": "https://dc.lft.to/lastmile_qr_scan", "android": "https://dc.lft.to/lastmile_qr_scan"}, "lon": -77.0293735, "type": "electric_scooter"}, {"bike_id": "9233e6901762e33e8ddf2668a653cb26", "is_reserved": 0, "fusion_lon": 0.0, "lat": 38.876270833333336, "is_disabled": 0, "name": "9233e6901762e33e8ddf2668a653cb26", "fusion_lat": 0.0, "rental_uris": {"ios": "https://dc.lft.to/lastmile_qr_scan", "android": "https://dc.lft.to/lastmile_qr_scan"}, "lon": -76.96525466666667, "type": "electric_scooter"}, {"bike_id": "fbeaf11c2f49f81846e4044070355e8e", "is_reserved": 0, "fusion_lon": 0.0, "lat": 38.90175333333333, "is_disabled": 0, "name": "fbeaf11c2f49f81846e4044070355e8e", "fusion_lat": 0.0, "rental_uris": {"ios": "https://dc.lft.to/lastmile_qr_scan", "android": "https://dc.lft.to/lastmile_qr_scan"}, "lon": -76.98070766666666, "type": "electric_scooter"}, {"bike_id": "6f4f292e3f1a20bd9615bdfcd69f297f", "is_reserved": 0, "fusion_lon": 0.0, "lat": 38.8933055, "is_disabled": 0, "name": "6f4f292e3f1a20bd9615bdfcd69f297f", "fusion_lat": 0.0, "rental_uris": {"ios": "https://dc.lft.to/lastmile_qr_scan", "android": "https://dc.lft.to/lastmile_qr_scan"}, "lon": -76.92990133333333, "type": "electric_scooter"}, {"bike_id": "797b25f5dd69f02d4fb7abe6ea7968d9", "is_reserved": 0, "fusion_lon": 0.0, "lat": 38.90683933333333, "is_disabled": 0, "name": "797b25f5dd69f02d4fb7abe6ea7968d9", "fusion_lat": 0.0, "rental_uris": {"ios": "https://dc.lft.to/lastmile_qr_scan", "android": "https://dc.lft.to/lastmile_qr_scan"}, "lon": -77.03754633333334, "type": "electric_scooter"}, {"bike_id": "777c57a81577b699c2b5d6bc9a68bc8c", "is_reserved": 0, "fusion_lon": 0.0, "lat": 38.899865, "is_disabled": 0, "name": "777c57a81577b699c2b5d6bc9a68bc8c", "fusion_lat": 0.0, "rental_uris": {"ios": "https://dc.lft.to/lastmile_qr_scan", "android": "https://dc.lft.to/lastmile_qr_scan"}, "lon": -76.99149183333333, "type": "electric_scooter"}, {"bike_id": "4ead55c55fd1bab85c2cecda2e195a81", "is_reserved": 0, "fusion_lon": 0.0, "lat": 38.9229005, "is_disabled": 0, "name": "4ead55c55fd1bab85c2cecda2e195a81", "fusion_lat": 0.0, "rental_uris": {"ios": "https://dc.lft.to/lastmile_qr_scan", "android": "https://dc.lft.to/lastmile_qr_scan"}, "lon": -77.02950216666666, "type": "electric_scooter"}, {"bike_id": "99d5f7651764ce86eb0e57b7b4b2fa79", "is_reserved": 0, "fusion_lon": 0.0, "lat": 38.90369283333333, "is_disabled": 0, "name": "99d5f7651764ce86eb0e57b7b4b2fa79", "fusion_lat": 0.0, "rental_uris": {"ios": "https://dc.lft.to/lastmile_qr_scan", "android": "https://dc.lft.to/lastmile_qr_scan"}, "lon": -77.04349383333333, "type": "electric_scooter"}, {"bike_id": "ffcc9b6c9aefec733ffd6365e00fca0e", "is_reserved": 0, "fusion_lon": 0.0, "lat": 38.91112833333333, "is_disabled": 0, "name": "ffcc9b6c9aefec733ffd6365e00fca0e", "fusion_lat": 0.0, "rental_uris": {"ios": "https://dc.lft.to/lastmile_qr_scan", "android": "https://dc.lft.to/lastmile_qr_scan"}, "lon": -77.00273716666666, "type": "electric_scooter"}, {"bike_id": "961686334cb9473581114a1ff1c84c6a", "is_reserved": 0, "fusion_lon": 0.0, "lat": 38.907262833333334, "is_disabled": 0, "name": "961686334cb9473581114a1ff1c84c6a", "fusion_lat": 0.0, "rental_uris": {"ios": "https://dc.lft.to/lastmile_qr_scan", "android": "https://dc.lft.to/lastmile_qr_scan"}, "lon": -77.03206316666666, "type": "electric_scooter"}, {"bike_id": "f813263923eb49bfb9bfb02116e35ee1", "is_reserved": 0, "fusion_lon": 0.0, "lat": 38.915717666666666, "is_disabled": 0, "name": "f813263923eb49bfb9bfb02116e35ee1", "fusion_lat": 0.0, "rental_uris": {"ios": "https://dc.lft.to/lastmile_qr_scan", "android": "https://dc.lft.to/lastmile_qr_scan"}, "lon": -77.0467385, "type": "electric_scooter"}, {"bike_id": "d5224a2e13852534c701cf3c6c82d9b5", "is_reserved": 0, "fusion_lon": 0.0, "lat": 38.90277866666667, "is_disabled": 0, "name": "d5224a2e13852534c701cf3c6c82d9b5", "fusion_lat": 0.0, "rental_uris": {"ios": "https://dc.lft.to/lastmile_qr_scan", "android": "https://dc.lft.to/lastmile_qr_scan"}, "lon": -77.03650766666667, "type": "electric_scooter"}, {"bike_id": "984fd76ae95dcfc5603a95d942061306", "is_reserved": 0, "fusion_lon": 0.0, "lat": 38.902301333333334, "is_disabled": 0, "name": "984fd76ae95dcfc5603a95d942061306", "fusion_lat": 0.0, "rental_uris": {"ios": "https://dc.lft.to/lastmile_qr_scan", "android": "https://dc.lft.to/lastmile_qr_scan"}, "lon": -77.03429883333334, "type": "electric_scooter"}, {"bike_id": "7a6c711f0deb3f554f5656a2df35499d", "is_reserved": 0, "fusion_lon": 0.0, "lat": 38.91194733333333, "is_disabled": 0, "name": "7a6c711f0deb3f554f5656a2df35499d", "fusion_lat": 0.0, "rental_uris": {"ios": "https://dc.lft.to/lastmile_qr_scan", "android": "https://dc.lft.to/lastmile_qr_scan"}, "lon": -77.007215, "type": "electric_scooter"}, {"bike_id": "b2c171e61d78b2214484c84f41be96bf", "is_reserved": 0, "fusion_lon": 0.0, "lat": 38.8789105, "is_disabled": 0, "name": "b2c171e61d78b2214484c84f41be96bf", "fusion_lat": 0.0, "rental_uris": {"ios": "https://dc.lft.to/lastmile_qr_scan", "android": "https://dc.lft.to/lastmile_qr_scan"}, "lon": -76.99153416666667, "type": "electric_scooter"}, {"bike_id": "09ed31ce5861e2cae07f091aeced16ec", "is_reserved": 0, "fusion_lon": 0.0, "lat": 38.882189333333336, "is_disabled": 0, "name": "09ed31ce5861e2cae07f091aeced16ec", "fusion_lat": 0.0, "rental_uris": {"ios": "https://dc.lft.to/lastmile_qr_scan", "android": "https://dc.lft.to/lastmile_qr_scan"}, "lon": -76.94179233333334, "type": "electric_scooter"}, {"bike_id": "3219348cdd1b315ad9c0c3aac404017e", "is_reserved": 0, "fusion_lon": 0.0, "lat": 38.90320416666667, "is_disabled": 0, "name": "3219348cdd1b315ad9c0c3aac404017e", "fusion_lat": 0.0, "rental_uris": {"ios": "https://dc.lft.to/lastmile_qr_scan", "android": "https://dc.lft.to/lastmile_qr_scan"}, "lon": -77.03438166666666, "type": "electric_scooter"}, {"bike_id": "cbb0b090035810f20e63617c7ffd55c9", "is_reserved": 0, "fusion_lon": 0.0, "lat": 38.9312495, "is_disabled": 0, "name": "cbb0b090035810f20e63617c7ffd55c9", "fusion_lat": 0.0, "rental_uris": {"ios": "https://dc.lft.to/lastmile_qr_scan", "android": "https://dc.lft.to/lastmile_qr_scan"}, "lon": -77.0381215, "type": "electric_scooter"}, {"bike_id": "c92f4bea097112a91f76dbaa5ba89e61", "is_reserved": 0, "fusion_lon": 0.0, "lat": 38.903304, "is_disabled": 0, "name": "c92f4bea097112a91f76dbaa5ba89e61", "fusion_lat": 0.0, "rental_uris": {"ios": "https://dc.lft.to/lastmile_qr_scan", "android": "https://dc.lft.to/lastmile_qr_scan"}, "lon": -76.989674, "type": "electric_scooter"}, {"bike_id": "01e696464dba33460d1f50e5e2c2b70b", "is_reserved": 0, "fusion_lon": 0.0, "lat": 38.90863366666667, "is_disabled": 0, "name": "01e696464dba33460d1f50e5e2c2b70b", "fusion_lat": 0.0, "rental_uris": {"ios": "https://dc.lft.to/lastmile_qr_scan", "android": "https://dc.lft.to/lastmile_qr_scan"}, "lon": -76.9995165, "type": "electric_scooter"}, {"bike_id": "610566e6fae86bed1a2fa56e13209306", "is_reserved": 0, "fusion_lon": 0.0, "lat": 38.89683566666667, "is_disabled": 0, "name": "610566e6fae86bed1a2fa56e13209306", "fusion_lat": 0.0, "rental_uris": {"ios": "https://dc.lft.to/lastmile_qr_scan", "android": "https://dc.lft.to/lastmile_qr_scan"}, "lon": -76.996268, "type": "electric_scooter"}, {"bike_id": "61e88ec2a257dc63e589ce182980fbcb", "is_reserved": 0, "fusion_lon": 0.0, "lat": 38.913317666666664, "is_disabled": 0, "name": "61e88ec2a257dc63e589ce182980fbcb", "fusion_lat": 0.0, "rental_uris": {"ios": "https://dc.lft.to/lastmile_qr_scan", "android": "https://dc.lft.to/lastmile_qr_scan"}, "lon": -77.03127516666666, "type": "electric_scooter"}, {"bike_id": "f403ef2aa34f91a370898106b40a0524", "is_reserved": 0, "fusion_lon": 0.0, "lat": 38.90040233333333, "is_disabled": 0, "name": "f403ef2aa34f91a370898106b40a0524", "fusion_lat": 0.0, "rental_uris": {"ios": "https://dc.lft.to/lastmile_qr_scan", "android": "https://dc.lft.to/lastmile_qr_scan"}, "lon": -77.002069, "type": "electric_scooter"}, {"bike_id": "c2b85ce8f355ada257914be4ad2831f1", "is_reserved": 0, "fusion_lon": 0.0, "lat": 38.904381666666666, "is_disabled": 0, "name": "c2b85ce8f355ada257914be4ad2831f1", "fusion_lat": 0.0, "rental_uris": {"ios": "https://dc.lft.to/lastmile_qr_scan", "android": "https://dc.lft.to/lastmile_qr_scan"}, "lon": -77.01701766666666, "type": "electric_scooter"}, {"bike_id": "1401863d877696c8df91fd0b8ad5ba78", "is_reserved": 0, "fusion_lon": 0.0, "lat": 38.940548666666665, "is_disabled": 0, "name": "1401863d877696c8df91fd0b8ad5ba78", "fusion_lat": 0.0, "rental_uris": {"ios": "https://dc.lft.to/lastmile_qr_scan", "android": "https://dc.lft.to/lastmile_qr_scan"}, "lon": -77.09267266666667, "type": "electric_scooter"}, {"bike_id": "fdef53039d9a1f46317d9300d2ecb155", "is_reserved": 0, "fusion_lon": 0.0, "lat": 38.842918166666664, "is_disabled": 0, "name": "fdef53039d9a1f46317d9300d2ecb155", "fusion_lat": 0.0, "rental_uris": {"ios": "https://dc.lft.to/lastmile_qr_scan", "android": "https://dc.lft.to/lastmile_qr_scan"}, "lon": -76.99946783333333, "type": "electric_scooter"}, {"bike_id": "4b19bcec8b5b8197af91cc21e3cdb067", "is_reserved": 0, "fusion_lon": 0.0, "lat": 38.9173995, "is_disabled": 0, "name": "4b19bcec8b5b8197af91cc21e3cdb067", "fusion_lat": 0.0, "rental_uris": {"ios": "https://dc.lft.to/lastmile_qr_scan", "android": "https://dc.lft.to/lastmile_qr_scan"}, "lon": -77.00751466666667, "type": "electric_scooter"}, {"bike_id": "d14d7a1368d8fb5315c4356332a3f145", "is_reserved": 0, "fusion_lon": 0.0, "lat": 38.906227666666666, "is_disabled": 0, "name": "d14d7a1368d8fb5315c4356332a3f145", "fusion_lat": 0.0, "rental_uris": {"ios": "https://dc.lft.to/lastmile_qr_scan", "android": "https://dc.lft.to/lastmile_qr_scan"}, "lon": -77.05132466666667, "type": "electric_scooter"}, {"bike_id": "b94155d9bcd4ce70c80f31dd604b0dcc", "is_reserved": 0, "fusion_lon": 0.0, "lat": 38.8998495, "is_disabled": 0, "name": "b94155d9bcd4ce70c80f31dd604b0dcc", "fusion_lat": 0.0, "rental_uris": {"ios": "https://dc.lft.to/lastmile_qr_scan", "android": "https://dc.lft.to/lastmile_qr_scan"}, "lon": -77.02133533333334, "type": "electric_scooter"}, {"bike_id": "2e4bb663b9de3c02a4bae478fcfb9d61", "is_reserved": 0, "fusion_lon": 0.0, "lat": 38.9036855, "is_disabled": 0, "name": "2e4bb663b9de3c02a4bae478fcfb9d61", "fusion_lat": 0.0, "rental_uris": {"ios": "https://dc.lft.to/lastmile_qr_scan", "android": "https://dc.lft.to/lastmile_qr_scan"}, "lon": -77.01902133333333, "type": "electric_scooter"}, {"bike_id": "d43c5243d7869eb02c515bf2304d888e", "is_reserved": 0, "fusion_lon": 0.0, "lat": 38.907364333333334, "is_disabled": 0, "name": "d43c5243d7869eb02c515bf2304d888e", "fusion_lat": 0.0, "rental_uris": {"ios": "https://dc.lft.to/lastmile_qr_scan", "android": "https://dc.lft.to/lastmile_qr_scan"}, "lon": -77.0009915, "type": "electric_scooter"}, {"bike_id": "ee3cb5565be9c442bc7f3c2a172a35b1", "is_reserved": 0, "fusion_lon": 0.0, "lat": 38.867004666666666, "is_disabled": 0, "name": "ee3cb5565be9c442bc7f3c2a172a35b1", "fusion_lat": 0.0, "rental_uris": {"ios": "https://dc.lft.to/lastmile_qr_scan", "android": "https://dc.lft.to/lastmile_qr_scan"}, "lon": -76.98716266666666, "type": "electric_scooter"}, {"bike_id": "9b30eaa7ba2d3247a7dccb8407124ae2", "is_reserved": 0, "fusion_lon": 0.0, "lat": 38.90308483333333, "is_disabled": 0, "name": "9b30eaa7ba2d3247a7dccb8407124ae2", "fusion_lat": 0.0, "rental_uris": {"ios": "https://dc.lft.to/lastmile_qr_scan", "android": "https://dc.lft.to/lastmile_qr_scan"}, "lon": -77.03841783333333, "type": "electric_scooter"}, {"bike_id": "43762bbd2844be379134b7b39559ba5b", "is_reserved": 0, "fusion_lon": 0.0, "lat": 38.9274055, "is_disabled": 0, "name": "43762bbd2844be379134b7b39559ba5b", "fusion_lat": 0.0, "rental_uris": {"ios": "https://dc.lft.to/lastmile_qr_scan", "android": "https://dc.lft.to/lastmile_qr_scan"}, "lon": -77.01204333333334, "type": "electric_scooter"}, {"bike_id": "8893fa7939bc18aa22e27b7435375fad", "is_reserved": 0, "fusion_lon": 0.0, "lat": 38.974442, "is_disabled": 0, "name": "8893fa7939bc18aa22e27b7435375fad", "fusion_lat": 0.0, "rental_uris": {"ios": "https://dc.lft.to/lastmile_qr_scan", "android": "https://dc.lft.to/lastmile_qr_scan"}, "lon": -77.015235, "type": "electric_scooter"}, {"bike_id": "632f11ffbc63177c7854f9d333556f2c", "is_reserved": 0, "fusion_lon": 0.0, "lat": 38.91412783333333, "is_disabled": 0, "name": "632f11ffbc63177c7854f9d333556f2c", "fusion_lat": 0.0, "rental_uris": {"ios": "https://dc.lft.to/lastmile_qr_scan", "android": "https://dc.lft.to/lastmile_qr_scan"}, "lon": -77.0414595, "type": "electric_scooter"}, {"bike_id": "32c280f149a601532570d4af2f781d33", "is_reserved": 0, "fusion_lon": 0.0, "lat": 38.92003183333333, "is_disabled": 0, "name": "32c280f149a601532570d4af2f781d33", "fusion_lat": 0.0, "rental_uris": {"ios": "https://dc.lft.to/lastmile_qr_scan", "android": "https://dc.lft.to/lastmile_qr_scan"}, "lon": -77.03881383333334, "type": "electric_scooter"}, {"bike_id": "76c2e193a7e4e93ed7f972b3ac1cba7c", "is_reserved": 0, "fusion_lon": 0.0, "lat": 38.914935666666665, "is_disabled": 0, "name": "76c2e193a7e4e93ed7f972b3ac1cba7c", "fusion_lat": 0.0, "rental_uris": {"ios": "https://dc.lft.to/lastmile_qr_scan", "android": "https://dc.lft.to/lastmile_qr_scan"}, "lon": -77.02692683333333, "type": "electric_scooter"}, {"bike_id": "1584a1270e94f5cc20a1da16b178ce67", "is_reserved": 0, "fusion_lon": 0.0, "lat": 38.89929333333333, "is_disabled": 0, "name": "1584a1270e94f5cc20a1da16b178ce67", "fusion_lat": 0.0, "rental_uris": {"ios": "https://dc.lft.to/lastmile_qr_scan", "android": "https://dc.lft.to/lastmile_qr_scan"}, "lon": -77.05428783333333, "type": "electric_scooter"}, {"bike_id": "38e09043a7aaef8cca59cb2c4375e1f4", "is_reserved": 0, "fusion_lon": 0.0, "lat": 38.949312666666664, "is_disabled": 0, "name": "38e09043a7aaef8cca59cb2c4375e1f4", "fusion_lat": 0.0, "rental_uris": {"ios": "https://dc.lft.to/lastmile_qr_scan", "android": "https://dc.lft.to/lastmile_qr_scan"}, "lon": -77.01934883333334, "type": "electric_scooter"}, {"bike_id": "5303512d6913d2c381dd931a3c17b79e", "is_reserved": 0, "fusion_lon": 0.0, "lat": 38.94614516666667, "is_disabled": 0, "name": "5303512d6913d2c381dd931a3c17b79e", "fusion_lat": 0.0, "rental_uris": {"ios": "https://dc.lft.to/lastmile_qr_scan", "android": "https://dc.lft.to/lastmile_qr_scan"}, "lon": -77.03508133333334, "type": "electric_scooter"}, {"bike_id": "ebb17a27c8b847bd8195fa6eb5f48e7e", "is_reserved": 0, "fusion_lon": 0.0, "lat": 38.943271833333334, "is_disabled": 0, "name": "ebb17a27c8b847bd8195fa6eb5f48e7e", "fusion_lat": 0.0, "rental_uris": {"ios": "https://dc.lft.to/lastmile_qr_scan", "android": "https://dc.lft.to/lastmile_qr_scan"}, "lon": -77.07386233333334, "type": "electric_scooter"}, {"bike_id": "8799840b05906515a62baca2e582e17d", "is_reserved": 0, "fusion_lon": 0.0, "lat": 38.90981566666667, "is_disabled": 0, "name": "8799840b05906515a62baca2e582e17d", "fusion_lat": 0.0, "rental_uris": {"ios": "https://dc.lft.to/lastmile_qr_scan", "android": "https://dc.lft.to/lastmile_qr_scan"}, "lon": -77.06713633333334, "type": "electric_scooter"}, {"bike_id": "47569df2cc111f95bb312f1a6d75fff7", "is_reserved": 0, "fusion_lon": 0.0, "lat": 38.931160166666665, "is_disabled": 0, "name": "47569df2cc111f95bb312f1a6d75fff7", "fusion_lat": 0.0, "rental_uris": {"ios": "https://dc.lft.to/lastmile_qr_scan", "android": "https://dc.lft.to/lastmile_qr_scan"}, "lon": -77.02095883333334, "type": "electric_scooter"}, {"bike_id": "0ef33484fe34877f77b4d4c565fa7bca", "is_reserved": 0, "fusion_lon": 0.0, "lat": 38.883181666666665, "is_disabled": 0, "name": "0ef33484fe34877f77b4d4c565fa7bca", "fusion_lat": 0.0, "rental_uris": {"ios": "https://dc.lft.to/lastmile_qr_scan", "android": "https://dc.lft.to/lastmile_qr_scan"}, "lon": -77.0175885, "type": "electric_scooter"}, {"bike_id": "cd51b914d2cd6b5349ac3a3927c32a61", "is_reserved": 0, "fusion_lon": 0.0, "lat": 38.90900516666667, "is_disabled": 0, "name": "cd51b914d2cd6b5349ac3a3927c32a61", "fusion_lat": 0.0, "rental_uris": {"ios": "https://dc.lft.to/lastmile_qr_scan", "android": "https://dc.lft.to/lastmile_qr_scan"}, "lon": -77.0268775, "type": "electric_scooter"}, {"bike_id": "e8563e9a1dea596da2892c9401c39aa6", "is_reserved": 0, "fusion_lon": 0.0, "lat": 38.905715, "is_disabled": 0, "name": "e8563e9a1dea596da2892c9401c39aa6", "fusion_lat": 0.0, "rental_uris": {"ios": "https://dc.lft.to/lastmile_qr_scan", "android": "https://dc.lft.to/lastmile_qr_scan"}, "lon": -77.02477933333333, "type": "electric_scooter"}, {"bike_id": "b8636643a4ca5e6af8a8b500ae13418c", "is_reserved": 0, "fusion_lon": 0.0, "lat": 38.91281633333333, "is_disabled": 0, "name": "b8636643a4ca5e6af8a8b500ae13418c", "fusion_lat": 0.0, "rental_uris": {"ios": "https://dc.lft.to/lastmile_qr_scan", "android": "https://dc.lft.to/lastmile_qr_scan"}, "lon": -77.02296116666666, "type": "electric_scooter"}, {"bike_id": "86d1dd2b000b59efc3094e124fb76568", "is_reserved": 0, "fusion_lon": 0.0, "lat": 38.91882183333333, "is_disabled": 0, "name": "86d1dd2b000b59efc3094e124fb76568", "fusion_lat": 0.0, "rental_uris": {"ios": "https://dc.lft.to/lastmile_qr_scan", "android": "https://dc.lft.to/lastmile_qr_scan"}, "lon": -76.9716105, "type": "electric_scooter"}, {"bike_id": "e2db729973085f5f9bee827d8f2faacf", "is_reserved": 0, "fusion_lon": 0.0, "lat": 38.85618516666667, "is_disabled": 0, "name": "e2db729973085f5f9bee827d8f2faacf", "fusion_lat": 0.0, "rental_uris": {"ios": "https://dc.lft.to/lastmile_qr_scan", "android": "https://dc.lft.to/lastmile_qr_scan"}, "lon": -76.980164, "type": "electric_scooter"}, {"bike_id": "fbff5372beb165d2795799055c9c0bb3", "is_reserved": 0, "fusion_lon": 0.0, "lat": 38.91621516666667, "is_disabled": 0, "name": "fbff5372beb165d2795799055c9c0bb3", "fusion_lat": 0.0, "rental_uris": {"ios": "https://dc.lft.to/lastmile_qr_scan", "android": "https://dc.lft.to/lastmile_qr_scan"}, "lon": -77.03170316666667, "type": "electric_scooter"}, {"bike_id": "92ce03bba3df1dd77f5ac032eaee8374", "is_reserved": 0, "fusion_lon": 0.0, "lat": 38.902998333333336, "is_disabled": 0, "name": "92ce03bba3df1dd77f5ac032eaee8374", "fusion_lat": 0.0, "rental_uris": {"ios": "https://dc.lft.to/lastmile_qr_scan", "android": "https://dc.lft.to/lastmile_qr_scan"}, "lon": -76.998613, "type": "electric_scooter"}, {"bike_id": "d89ad02e25532e2cc7a25ea375eccc6f", "is_reserved": 0, "fusion_lon": 0.0, "lat": 38.87844883333333, "is_disabled": 0, "name": "d89ad02e25532e2cc7a25ea375eccc6f", "fusion_lat": 0.0, "rental_uris": {"ios": "https://dc.lft.to/lastmile_qr_scan", "android": "https://dc.lft.to/lastmile_qr_scan"}, "lon": -76.9903685, "type": "electric_scooter"}, {"bike_id": "f69bc9f38b566dddbc9a3a5477359836", "is_reserved": 0, "fusion_lon": 0.0, "lat": 38.94174016666667, "is_disabled": 0, "name": "f69bc9f38b566dddbc9a3a5477359836", "fusion_lat": 0.0, "rental_uris": {"ios": "https://dc.lft.to/lastmile_qr_scan", "android": "https://dc.lft.to/lastmile_qr_scan"}, "lon": -77.0250505, "type": "electric_scooter"}, {"bike_id": "d9a9333dd07f626ddb65b33fdd6b87eb", "is_reserved": 0, "fusion_lon": 0.0, "lat": 38.842959, "is_disabled": 0, "name": "d9a9333dd07f626ddb65b33fdd6b87eb", "fusion_lat": 0.0, "rental_uris": {"ios": "https://dc.lft.to/lastmile_qr_scan", "android": "https://dc.lft.to/lastmile_qr_scan"}, "lon": -76.999412, "type": "electric_scooter"}, {"bike_id": "4f08d3bb7898cc2f4c03ebe3916c092c", "is_reserved": 0, "fusion_lon": 0.0, "lat": 38.876303, "is_disabled": 0, "name": "4f08d3bb7898cc2f4c03ebe3916c092c", "fusion_lat": 0.0, "rental_uris": {"ios": "https://dc.lft.to/lastmile_qr_scan", "android": "https://dc.lft.to/lastmile_qr_scan"}, "lon": -76.965273, "type": "electric_scooter"}, {"bike_id": "bc6e33eeb87077143bcbe39df6dc98d4", "is_reserved": 0, "fusion_lon": 0.0, "lat": 38.88503733333334, "is_disabled": 0, "name": "bc6e33eeb87077143bcbe39df6dc98d4", "fusion_lat": 0.0, "rental_uris": {"ios": "https://dc.lft.to/lastmile_qr_scan", "android": "https://dc.lft.to/lastmile_qr_scan"}, "lon": -77.09689133333333, "type": "electric_bike"}, {"bike_id": "88a1e67675b070159207742a4d7f9f77", "is_reserved": 0, "fusion_lon": 0.0, "lat": 38.91932333333333, "is_disabled": 0, "name": "88a1e67675b070159207742a4d7f9f77", "fusion_lat": 0.0, "rental_uris": {"ios": "https://dc.lft.to/lastmile_qr_scan", "android": "https://dc.lft.to/lastmile_qr_scan"}, "lon": -77.03178783333334, "type": "electric_scooter"}, {"bike_id": "56d60a636b33833d6ef618ece9260a1b", "is_reserved": 0, "fusion_lon": 0.0, "lat": 38.907801, "is_disabled": 0, "name": "56d60a636b33833d6ef618ece9260a1b", "fusion_lat": 0.0, "rental_uris": {"ios": "https://dc.lft.to/lastmile_qr_scan", "android": "https://dc.lft.to/lastmile_qr_scan"}, "lon": -77.0693015, "type": "electric_scooter"}, {"bike_id": "9709db0fcca44cb4e7b7628b2c5cc557", "is_reserved": 0, "fusion_lon": 0.0, "lat": 38.90449316666667, "is_disabled": 0, "name": "9709db0fcca44cb4e7b7628b2c5cc557", "fusion_lat": 0.0, "rental_uris": {"ios": "https://dc.lft.to/lastmile_qr_scan", "android": "https://dc.lft.to/lastmile_qr_scan"}, "lon": -76.996242, "type": "electric_scooter"}, {"bike_id": "c38bb8b14d384d6049ab1b67f8c381bc", "is_reserved": 0, "fusion_lon": 0.0, "lat": 38.92264483333334, "is_disabled": 0, "name": "c38bb8b14d384d6049ab1b67f8c381bc", "fusion_lat": 0.0, "rental_uris": {"ios": "https://dc.lft.to/lastmile_qr_scan", "android": "https://dc.lft.to/lastmile_qr_scan"}, "lon": -77.01824866666666, "type": "electric_scooter"}, {"bike_id": "595b94bc58a3613565e252d6e87c3331", "is_reserved": 0, "fusion_lon": 0.0, "lat": 38.813319166666666, "is_disabled": 0, "name": "595b94bc58a3613565e252d6e87c3331", "fusion_lat": 0.0, "rental_uris": {"ios": "https://dc.lft.to/lastmile_qr_scan", "android": "https://dc.lft.to/lastmile_qr_scan"}, "lon": -77.0510465, "type": "electric_bike"}, {"bike_id": "f8d7d10e3fed3ec61b837daab1e4e321", "is_reserved": 0, "fusion_lon": 0.0, "lat": 38.886474, "is_disabled": 0, "name": "f8d7d10e3fed3ec61b837daab1e4e321", "fusion_lat": 0.0, "rental_uris": {"ios": "https://dc.lft.to/lastmile_qr_scan", "android": "https://dc.lft.to/lastmile_qr_scan"}, "lon": -77.0213565, "type": "electric_scooter"}, {"bike_id": "55ece90c92ecc79d607f7a2090add442", "is_reserved": 0, "fusion_lon": 0.0, "lat": 38.90674166666667, "is_disabled": 0, "name": "55ece90c92ecc79d607f7a2090add442", "fusion_lat": 0.0, "rental_uris": {"ios": "https://dc.lft.to/lastmile_qr_scan", "android": "https://dc.lft.to/lastmile_qr_scan"}, "lon": -77.0004125, "type": "electric_scooter"}, {"bike_id": "6fe35364d1f45efd325a088fddc59b61", "is_reserved": 0, "fusion_lon": 0.0, "lat": 38.90379216666667, "is_disabled": 0, "name": "6fe35364d1f45efd325a088fddc59b61", "fusion_lat": 0.0, "rental_uris": {"ios": "https://dc.lft.to/lastmile_qr_scan", "android": "https://dc.lft.to/lastmile_qr_scan"}, "lon": -76.99829033333333, "type": "electric_scooter"}, {"bike_id": "11ecdaf97f411f390ca8535c7bbee316", "is_reserved": 0, "fusion_lon": 0.0, "lat": 38.924608666666664, "is_disabled": 0, "name": "11ecdaf97f411f390ca8535c7bbee316", "fusion_lat": 0.0, "rental_uris": {"ios": "https://dc.lft.to/lastmile_qr_scan", "android": "https://dc.lft.to/lastmile_qr_scan"}, "lon": -76.9991075, "type": "electric_scooter"}, {"bike_id": "4f684535bc235a3e8c57249410a0e641", "is_reserved": 0, "fusion_lon": 0.0, "lat": 38.90364483333333, "is_disabled": 0, "name": "4f684535bc235a3e8c57249410a0e641", "fusion_lat": 0.0, "rental_uris": {"ios": "https://dc.lft.to/lastmile_qr_scan", "android": "https://dc.lft.to/lastmile_qr_scan"}, "lon": -77.03832583333333, "type": "electric_scooter"}, {"bike_id": "020de5d42b27e909de1920319aa90a98", "is_reserved": 0, "fusion_lon": 0.0, "lat": 38.934298166666665, "is_disabled": 0, "name": "020de5d42b27e909de1920319aa90a98", "fusion_lat": 0.0, "rental_uris": {"ios": "https://dc.lft.to/lastmile_qr_scan", "android": "https://dc.lft.to/lastmile_qr_scan"}, "lon": -77.04312466666667, "type": "electric_scooter"}, {"bike_id": "b9a5335293d19d82fb274e86cb83e455", "is_reserved": 0, "fusion_lon": 0.0, "lat": 38.92654866666667, "is_disabled": 0, "name": "b9a5335293d19d82fb274e86cb83e455", "fusion_lat": 0.0, "rental_uris": {"ios": "https://dc.lft.to/lastmile_qr_scan", "android": "https://dc.lft.to/lastmile_qr_scan"}, "lon": -77.03837416666667, "type": "electric_scooter"}, {"bike_id": "f71e37f9f4bef53dd5e4a080875cf7a9", "is_reserved": 0, "fusion_lon": 0.0, "lat": 38.9119715, "is_disabled": 0, "name": "f71e37f9f4bef53dd5e4a080875cf7a9", "fusion_lat": 0.0, "rental_uris": {"ios": "https://dc.lft.to/lastmile_qr_scan", "android": "https://dc.lft.to/lastmile_qr_scan"}, "lon": -77.00191133333334, "type": "electric_scooter"}, {"bike_id": "6a779a72c4ecef62bce360356f624780", "is_reserved": 0, "fusion_lon": 0.0, "lat": 38.89195433333333, "is_disabled": 0, "name": "6a779a72c4ecef62bce360356f624780", "fusion_lat": 0.0, "rental_uris": {"ios": "https://dc.lft.to/lastmile_qr_scan", "android": "https://dc.lft.to/lastmile_qr_scan"}, "lon": -77.02980316666667, "type": "electric_scooter"}, {"bike_id": "6252554ab5e64726c445d54d3b7bc47c", "is_reserved": 0, "fusion_lon": 0.0, "lat": 38.89806166666666, "is_disabled": 0, "name": "6252554ab5e64726c445d54d3b7bc47c", "fusion_lat": 0.0, "rental_uris": {"ios": "https://dc.lft.to/lastmile_qr_scan", "android": "https://dc.lft.to/lastmile_qr_scan"}, "lon": -77.0329965, "type": "electric_scooter"}, {"bike_id": "63e3fceb343a3b063e8700c417361805", "is_reserved": 0, "fusion_lon": 0.0, "lat": 38.9224435, "is_disabled": 0, "name": "63e3fceb343a3b063e8700c417361805", "fusion_lat": 0.0, "rental_uris": {"ios": "https://dc.lft.to/lastmile_qr_scan", "android": "https://dc.lft.to/lastmile_qr_scan"}, "lon": -77.01008433333334, "type": "electric_scooter"}, {"bike_id": "e478f8668f3186c4016373e1ee60f44f", "is_reserved": 0, "fusion_lon": 0.0, "lat": 38.92846433333333, "is_disabled": 0, "name": "e478f8668f3186c4016373e1ee60f44f", "fusion_lat": 0.0, "rental_uris": {"ios": "https://dc.lft.to/lastmile_qr_scan", "android": "https://dc.lft.to/lastmile_qr_scan"}, "lon": -77.05428333333333, "type": "electric_scooter"}, {"bike_id": "fb6738695137302fec293e97fcdb3dd9", "is_reserved": 0, "fusion_lon": 0.0, "lat": 38.902829, "is_disabled": 0, "name": "fb6738695137302fec293e97fcdb3dd9", "fusion_lat": 0.0, "rental_uris": {"ios": "https://dc.lft.to/lastmile_qr_scan", "android": "https://dc.lft.to/lastmile_qr_scan"}, "lon": -77.05914916666667, "type": "electric_scooter"}, {"bike_id": "08562bc8bfd52db5cd4ac193040558fb", "is_reserved": 0, "fusion_lon": 0.0, "lat": 38.9168785, "is_disabled": 0, "name": "08562bc8bfd52db5cd4ac193040558fb", "fusion_lat": 0.0, "rental_uris": {"ios": "https://dc.lft.to/lastmile_qr_scan", "android": "https://dc.lft.to/lastmile_qr_scan"}, "lon": -77.03186583333333, "type": "electric_scooter"}, {"bike_id": "a1a7b8634f3c9bea43204c9a016c1a89", "is_reserved": 0, "fusion_lon": 0.0, "lat": 38.8938625, "is_disabled": 0, "name": "a1a7b8634f3c9bea43204c9a016c1a89", "fusion_lat": 0.0, "rental_uris": {"ios": "https://dc.lft.to/lastmile_qr_scan", "android": "https://dc.lft.to/lastmile_qr_scan"}, "lon": -77.02252516666667, "type": "electric_bike"}, {"bike_id": "28a7e8ca4d0f8f3e0b76cedd6c07196e", "is_reserved": 0, "fusion_lon": 0.0, "lat": 38.896205, "is_disabled": 0, "name": "28a7e8ca4d0f8f3e0b76cedd6c07196e", "fusion_lat": 0.0, "rental_uris": {"ios": "https://dc.lft.to/lastmile_qr_scan", "android": "https://dc.lft.to/lastmile_qr_scan"}, "lon": -76.99850083333334, "type": "electric_scooter"}, {"bike_id": "81ec4ed85b7d58659e789ff38df4984b", "is_reserved": 0, "fusion_lon": 0.0, "lat": 38.90719266666667, "is_disabled": 0, "name": "81ec4ed85b7d58659e789ff38df4984b", "fusion_lat": 0.0, "rental_uris": {"ios": "https://dc.lft.to/lastmile_qr_scan", "android": "https://dc.lft.to/lastmile_qr_scan"}, "lon": -77.04341683333334, "type": "electric_scooter"}, {"bike_id": "a0a4cc8672c123c867d816f0b4b6bdfb", "is_reserved": 0, "fusion_lon": 0.0, "lat": 38.928975333333334, "is_disabled": 0, "name": "a0a4cc8672c123c867d816f0b4b6bdfb", "fusion_lat": 0.0, "rental_uris": {"ios": "https://dc.lft.to/lastmile_qr_scan", "android": "https://dc.lft.to/lastmile_qr_scan"}, "lon": -77.03188433333334, "type": "electric_scooter"}, {"bike_id": "91cdaace25d3a3c732a435c198c0d71c", "is_reserved": 0, "fusion_lon": 0.0, "lat": 38.869038833333335, "is_disabled": 0, "name": "91cdaace25d3a3c732a435c198c0d71c", "fusion_lat": 0.0, "rental_uris": {"ios": "https://dc.lft.to/lastmile_qr_scan", "android": "https://dc.lft.to/lastmile_qr_scan"}, "lon": -77.1317295, "type": "electric_bike"}, {"bike_id": "ae85044bf18dfd8f51e3fb379d3a0229", "is_reserved": 0, "fusion_lon": 0.0, "lat": 38.927922333333335, "is_disabled": 0, "name": "ae85044bf18dfd8f51e3fb379d3a0229", "fusion_lat": 0.0, "rental_uris": {"ios": "https://dc.lft.to/lastmile_qr_scan", "android": "https://dc.lft.to/lastmile_qr_scan"}, "lon": -77.0319895, "type": "electric_scooter"}, {"bike_id": "aa8c7fa768db36b0f26b40034aae388a", "is_reserved": 0, "fusion_lon": 0.0, "lat": 38.89615766666667, "is_disabled": 0, "name": "aa8c7fa768db36b0f26b40034aae388a", "fusion_lat": 0.0, "rental_uris": {"ios": "https://dc.lft.to/lastmile_qr_scan", "android": "https://dc.lft.to/lastmile_qr_scan"}, "lon": -77.0282415, "type": "electric_scooter"}, {"bike_id": "b475825422609fca3ec7cb25ba1532d7", "is_reserved": 0, "fusion_lon": 0.0, "lat": 38.90794066666667, "is_disabled": 0, "name": "b475825422609fca3ec7cb25ba1532d7", "fusion_lat": 0.0, "rental_uris": {"ios": "https://dc.lft.to/lastmile_qr_scan", "android": "https://dc.lft.to/lastmile_qr_scan"}, "lon": -77.00968933333333, "type": "electric_scooter"}, {"bike_id": "52d58200e8c055253e8d9c735fd4d56b", "is_reserved": 0, "fusion_lon": 0.0, "lat": 38.915429, "is_disabled": 0, "name": "52d58200e8c055253e8d9c735fd4d56b", "fusion_lat": 0.0, "rental_uris": {"ios": "https://dc.lft.to/lastmile_qr_scan", "android": "https://dc.lft.to/lastmile_qr_scan"}, "lon": -77.03852233333333, "type": "electric_scooter"}, {"bike_id": "214328a6d618bfaf0a61852d1bf7a200", "is_reserved": 0, "fusion_lon": 0.0, "lat": 38.892059833333334, "is_disabled": 0, "name": "214328a6d618bfaf0a61852d1bf7a200", "fusion_lat": 0.0, "rental_uris": {"ios": "https://dc.lft.to/lastmile_qr_scan", "android": "https://dc.lft.to/lastmile_qr_scan"}, "lon": -77.00237683333333, "type": "electric_bike"}, {"bike_id": "de1f34930e072c68eb84fddf2492eae7", "is_reserved": 0, "fusion_lon": 0.0, "lat": 38.90692333333333, "is_disabled": 0, "name": "de1f34930e072c68eb84fddf2492eae7", "fusion_lat": 0.0, "rental_uris": {"ios": "https://dc.lft.to/lastmile_qr_scan", "android": "https://dc.lft.to/lastmile_qr_scan"}, "lon": -77.01344083333333, "type": "electric_scooter"}, {"bike_id": "65b7bff78d5ac57de79653c40abb6708", "is_reserved": 0, "fusion_lon": 0.0, "lat": 38.90605083333333, "is_disabled": 0, "name": "65b7bff78d5ac57de79653c40abb6708", "fusion_lat": 0.0, "rental_uris": {"ios": "https://dc.lft.to/lastmile_qr_scan", "android": "https://dc.lft.to/lastmile_qr_scan"}, "lon": -77.013254, "type": "electric_scooter"}, {"bike_id": "c96de70555810e61541e9a1b32db660a", "is_reserved": 0, "fusion_lon": 0.0, "lat": 38.904667333333336, "is_disabled": 0, "name": "c96de70555810e61541e9a1b32db660a", "fusion_lat": 0.0, "rental_uris": {"ios": "https://dc.lft.to/lastmile_qr_scan", "android": "https://dc.lft.to/lastmile_qr_scan"}, "lon": -77.04358666666667, "type": "electric_scooter"}, {"bike_id": "b883a70802568ada2ba2082134bea54a", "is_reserved": 0, "fusion_lon": 0.0, "lat": 38.890056666666666, "is_disabled": 0, "name": "b883a70802568ada2ba2082134bea54a", "fusion_lat": 0.0, "rental_uris": {"ios": "https://dc.lft.to/lastmile_qr_scan", "android": "https://dc.lft.to/lastmile_qr_scan"}, "lon": -77.048933, "type": "electric_scooter"}, {"bike_id": "d78703f6cacdba320de5160d3cc6532f", "is_reserved": 0, "fusion_lon": 0.0, "lat": 38.9572835, "is_disabled": 0, "name": "d78703f6cacdba320de5160d3cc6532f", "fusion_lat": 0.0, "rental_uris": {"ios": "https://dc.lft.to/lastmile_qr_scan", "android": "https://dc.lft.to/lastmile_qr_scan"}, "lon": -76.98015166666667, "type": "electric_bike"}, {"bike_id": "5c7f4f0b8d7739b83b245eb700a6394c", "is_reserved": 0, "fusion_lon": 0.0, "lat": 38.9417375, "is_disabled": 0, "name": "5c7f4f0b8d7739b83b245eb700a6394c", "fusion_lat": 0.0, "rental_uris": {"ios": "https://dc.lft.to/lastmile_qr_scan", "android": "https://dc.lft.to/lastmile_qr_scan"}, "lon": -77.041314, "type": "electric_scooter"}, {"bike_id": "35447dec625149e951ea3c3310263e2d", "is_reserved": 0, "fusion_lon": 0.0, "lat": 38.91681833333333, "is_disabled": 0, "name": "35447dec625149e951ea3c3310263e2d", "fusion_lat": 0.0, "rental_uris": {"ios": "https://dc.lft.to/lastmile_qr_scan", "android": "https://dc.lft.to/lastmile_qr_scan"}, "lon": -77.01216016666666, "type": "electric_scooter"}, {"bike_id": "e3a575e6e977ef738db726ca373b26f7", "is_reserved": 0, "fusion_lon": 0.0, "lat": 38.998180166666664, "is_disabled": 0, "name": "e3a575e6e977ef738db726ca373b26f7", "fusion_lat": 0.0, "rental_uris": {"ios": "https://dc.lft.to/lastmile_qr_scan", "android": "https://dc.lft.to/lastmile_qr_scan"}, "lon": -76.88365216666666, "type": "electric_bike"}, {"bike_id": "bae989094f4e0cf82f24232454bdc75e", "is_reserved": 0, "fusion_lon": 0.0, "lat": 38.89876733333333, "is_disabled": 0, "name": "bae989094f4e0cf82f24232454bdc75e", "fusion_lat": 0.0, "rental_uris": {"ios": "https://dc.lft.to/lastmile_qr_scan", "android": "https://dc.lft.to/lastmile_qr_scan"}, "lon": -76.93160716666667, "type": "electric_scooter"}, {"bike_id": "afe12a53dac0181b30583bd492ac16d8", "is_reserved": 0, "fusion_lon": 0.0, "lat": 38.90381816666667, "is_disabled": 0, "name": "afe12a53dac0181b30583bd492ac16d8", "fusion_lat": 0.0, "rental_uris": {"ios": "https://dc.lft.to/lastmile_qr_scan", "android": "https://dc.lft.to/lastmile_qr_scan"}, "lon": -77.01099316666667, "type": "electric_scooter"}, {"bike_id": "db5fc84eae1c3e00b2b5b7be71e9ebe6", "is_reserved": 0, "fusion_lon": 0.0, "lat": 38.92896966666667, "is_disabled": 0, "name": "db5fc84eae1c3e00b2b5b7be71e9ebe6", "fusion_lat": 0.0, "rental_uris": {"ios": "https://dc.lft.to/lastmile_qr_scan", "android": "https://dc.lft.to/lastmile_qr_scan"}, "lon": -77.054543, "type": "electric_scooter"}, {"bike_id": "0384694c8ecf307c678a3a10b66b77e9", "is_reserved": 0, "fusion_lon": 0.0, "lat": 38.921515, "is_disabled": 0, "name": "0384694c8ecf307c678a3a10b66b77e9", "fusion_lat": 0.0, "rental_uris": {"ios": "https://dc.lft.to/lastmile_qr_scan", "android": "https://dc.lft.to/lastmile_qr_scan"}, "lon": -77.0347815, "type": "electric_scooter"}, {"bike_id": "fa22a0a7116c9ecdbc40cf47fd8abe75", "is_reserved": 0, "fusion_lon": 0.0, "lat": 38.903358, "is_disabled": 0, "name": "fa22a0a7116c9ecdbc40cf47fd8abe75", "fusion_lat": 0.0, "rental_uris": {"ios": "https://dc.lft.to/lastmile_qr_scan", "android": "https://dc.lft.to/lastmile_qr_scan"}, "lon": -77.06649883333333, "type": "electric_scooter"}, {"bike_id": "d8a5712caffafb38d8e795d03bab8ee7", "is_reserved": 0, "fusion_lon": 0.0, "lat": 38.807428, "is_disabled": 0, "name": "d8a5712caffafb38d8e795d03bab8ee7", "fusion_lat": 0.0, "rental_uris": {"ios": "https://dc.lft.to/lastmile_qr_scan", "android": "https://dc.lft.to/lastmile_qr_scan"}, "lon": -77.09426033333334, "type": "electric_bike"}, {"bike_id": "aa549cf37250138f55cf9e12a45659bc", "is_reserved": 0, "fusion_lon": 0.0, "lat": 38.86389033333333, "is_disabled": 0, "name": "aa549cf37250138f55cf9e12a45659bc", "fusion_lat": 0.0, "rental_uris": {"ios": "https://dc.lft.to/lastmile_qr_scan", "android": "https://dc.lft.to/lastmile_qr_scan"}, "lon": -76.989913, "type": "electric_bike"}, {"bike_id": "9479ba8a97764637fae4c7d432d74e57", "is_reserved": 0, "fusion_lon": 0.0, "lat": 38.939745, "is_disabled": 0, "name": "9479ba8a97764637fae4c7d432d74e57", "fusion_lat": 0.0, "rental_uris": {"ios": "https://dc.lft.to/lastmile_qr_scan", "android": "https://dc.lft.to/lastmile_qr_scan"}, "lon": -77.03587566666667, "type": "electric_scooter"}, {"bike_id": "aeddbc4de9d7a71d539f07c8ced0bf5d", "is_reserved": 0, "fusion_lon": 0.0, "lat": 38.8961905, "is_disabled": 0, "name": "aeddbc4de9d7a71d539f07c8ced0bf5d", "fusion_lat": 0.0, "rental_uris": {"ios": "https://dc.lft.to/lastmile_qr_scan", "android": "https://dc.lft.to/lastmile_qr_scan"}, "lon": -77.00049316666667, "type": "electric_bike"}, {"bike_id": "8d04ae867bc58433e4787cf132aa08f4", "is_reserved": 0, "fusion_lon": 0.0, "lat": 38.87734533333333, "is_disabled": 0, "name": "8d04ae867bc58433e4787cf132aa08f4", "fusion_lat": 0.0, "rental_uris": {"ios": "https://dc.lft.to/lastmile_qr_scan", "android": "https://dc.lft.to/lastmile_qr_scan"}, "lon": -76.9728005, "type": "electric_scooter"}, {"bike_id": "83664d1c654ebb62361ef0bce6825062", "is_reserved": 0, "fusion_lon": 0.0, "lat": 38.91557666666667, "is_disabled": 0, "name": "83664d1c654ebb62361ef0bce6825062", "fusion_lat": 0.0, "rental_uris": {"ios": "https://dc.lft.to/lastmile_qr_scan", "android": "https://dc.lft.to/lastmile_qr_scan"}, "lon": -77.03864366666667, "type": "electric_scooter"}, {"bike_id": "602be1e8d78ac13d940102881ec833b4", "is_reserved": 0, "fusion_lon": 0.0, "lat": 38.8947565, "is_disabled": 0, "name": "602be1e8d78ac13d940102881ec833b4", "fusion_lat": 0.0, "rental_uris": {"ios": "https://dc.lft.to/lastmile_qr_scan", "android": "https://dc.lft.to/lastmile_qr_scan"}, "lon": -77.04990066666667, "type": "electric_scooter"}, {"bike_id": "4526d4be30cddfe4459ece2732bcd124", "is_reserved": 0, "fusion_lon": 0.0, "lat": 38.90030083333333, "is_disabled": 0, "name": "4526d4be30cddfe4459ece2732bcd124", "fusion_lat": 0.0, "rental_uris": {"ios": "https://dc.lft.to/lastmile_qr_scan", "android": "https://dc.lft.to/lastmile_qr_scan"}, "lon": -77.01159533333333, "type": "electric_scooter"}, {"bike_id": "df3e6670db5b5767901fd71fb561ccfb", "is_reserved": 0, "fusion_lon": 0.0, "lat": 38.90796566666667, "is_disabled": 0, "name": "df3e6670db5b5767901fd71fb561ccfb", "fusion_lat": 0.0, "rental_uris": {"ios": "https://dc.lft.to/lastmile_qr_scan", "android": "https://dc.lft.to/lastmile_qr_scan"}, "lon": -77.03460633333333, "type": "electric_scooter"}, {"bike_id": "a3b590f492487b233d79523a06a639b7", "is_reserved": 0, "fusion_lon": 0.0, "lat": 38.897360666666664, "is_disabled": 0, "name": "a3b590f492487b233d79523a06a639b7", "fusion_lat": 0.0, "rental_uris": {"ios": "https://dc.lft.to/lastmile_qr_scan", "android": "https://dc.lft.to/lastmile_qr_scan"}, "lon": -77.04644816666666, "type": "electric_scooter"}, {"bike_id": "554d1b51c173f61fc3744502e7ac3c7b", "is_reserved": 0, "fusion_lon": 0.0, "lat": 38.902838333333335, "is_disabled": 0, "name": "554d1b51c173f61fc3744502e7ac3c7b", "fusion_lat": 0.0, "rental_uris": {"ios": "https://dc.lft.to/lastmile_qr_scan", "android": "https://dc.lft.to/lastmile_qr_scan"}, "lon": -77.016406, "type": "electric_bike"}, {"bike_id": "f9a7740243fab3a5f319270b5b8716e8", "is_reserved": 0, "fusion_lon": 0.0, "lat": 38.904587666666664, "is_disabled": 0, "name": "f9a7740243fab3a5f319270b5b8716e8", "fusion_lat": 0.0, "rental_uris": {"ios": "https://dc.lft.to/lastmile_qr_scan", "android": "https://dc.lft.to/lastmile_qr_scan"}, "lon": -77.02899333333333, "type": "electric_scooter"}, {"bike_id": "f0bcf4ab743e7020c944c595671cfc0e", "is_reserved": 0, "fusion_lon": 0.0, "lat": 38.923734333333336, "is_disabled": 0, "name": "f0bcf4ab743e7020c944c595671cfc0e", "fusion_lat": 0.0, "rental_uris": {"ios": "https://dc.lft.to/lastmile_qr_scan", "android": "https://dc.lft.to/lastmile_qr_scan"}, "lon": -77.02066116666667, "type": "electric_scooter"}, {"bike_id": "dd97721a48407d35ab4877bd8623c103", "is_reserved": 0, "fusion_lon": 0.0, "lat": 38.90390516666667, "is_disabled": 0, "name": "dd97721a48407d35ab4877bd8623c103", "fusion_lat": 0.0, "rental_uris": {"ios": "https://dc.lft.to/lastmile_qr_scan", "android": "https://dc.lft.to/lastmile_qr_scan"}, "lon": -77.0175675, "type": "electric_scooter"}, {"bike_id": "1ff818cb4bc7317a31fd9703ce91261a", "is_reserved": 0, "fusion_lon": 0.0, "lat": 38.93496566666666, "is_disabled": 0, "name": "1ff818cb4bc7317a31fd9703ce91261a", "fusion_lat": 0.0, "rental_uris": {"ios": "https://dc.lft.to/lastmile_qr_scan", "android": "https://dc.lft.to/lastmile_qr_scan"}, "lon": -77.02718966666667, "type": "electric_scooter"}, {"bike_id": "9ffd0e2b9339871f11bb4d7eb59e20f6", "is_reserved": 0, "fusion_lon": 0.0, "lat": 38.86202316666667, "is_disabled": 0, "name": "9ffd0e2b9339871f11bb4d7eb59e20f6", "fusion_lat": 0.0, "rental_uris": {"ios": "https://dc.lft.to/lastmile_qr_scan", "android": "https://dc.lft.to/lastmile_qr_scan"}, "lon": -76.99463583333333, "type": "electric_scooter"}, {"bike_id": "931f9e7fe06672d7906f9162cf787285", "is_reserved": 0, "fusion_lon": 0.0, "lat": 38.91414133333333, "is_disabled": 0, "name": "931f9e7fe06672d7906f9162cf787285", "fusion_lat": 0.0, "rental_uris": {"ios": "https://dc.lft.to/lastmile_qr_scan", "android": "https://dc.lft.to/lastmile_qr_scan"}, "lon": -77.02676083333333, "type": "electric_scooter"}, {"bike_id": "c4c344c2c5f41a2f1f82673add15be64", "is_reserved": 0, "fusion_lon": 0.0, "lat": 38.916406, "is_disabled": 0, "name": "c4c344c2c5f41a2f1f82673add15be64", "fusion_lat": 0.0, "rental_uris": {"ios": "https://dc.lft.to/lastmile_qr_scan", "android": "https://dc.lft.to/lastmile_qr_scan"}, "lon": -77.03181416666666, "type": "electric_scooter"}, {"bike_id": "c82d4126da3e9d82ee4453a6cb82e73a", "is_reserved": 0, "fusion_lon": 0.0, "lat": 38.916642333333336, "is_disabled": 0, "name": "c82d4126da3e9d82ee4453a6cb82e73a", "fusion_lat": 0.0, "rental_uris": {"ios": "https://dc.lft.to/lastmile_qr_scan", "android": "https://dc.lft.to/lastmile_qr_scan"}, "lon": -77.00499266666667, "type": "electric_scooter"}, {"bike_id": "4a5036c5a1db70987a9524e014a63bda", "is_reserved": 0, "fusion_lon": 0.0, "lat": 38.91558833333333, "is_disabled": 0, "name": "4a5036c5a1db70987a9524e014a63bda", "fusion_lat": 0.0, "rental_uris": {"ios": "https://dc.lft.to/lastmile_qr_scan", "android": "https://dc.lft.to/lastmile_qr_scan"}, "lon": -77.03930133333333, "type": "electric_scooter"}, {"bike_id": "943a30c85d2623821ed81949c6a341b5", "is_reserved": 0, "fusion_lon": 0.0, "lat": 38.90369966666667, "is_disabled": 0, "name": "943a30c85d2623821ed81949c6a341b5", "fusion_lat": 0.0, "rental_uris": {"ios": "https://dc.lft.to/lastmile_qr_scan", "android": "https://dc.lft.to/lastmile_qr_scan"}, "lon": -77.02984383333333, "type": "electric_scooter"}, {"bike_id": "e1e4798eb8535965ebc186440d82cf69", "is_reserved": 0, "fusion_lon": 0.0, "lat": 38.909599666666665, "is_disabled": 0, "name": "e1e4798eb8535965ebc186440d82cf69", "fusion_lat": 0.0, "rental_uris": {"ios": "https://dc.lft.to/lastmile_qr_scan", "android": "https://dc.lft.to/lastmile_qr_scan"}, "lon": -77.0348055, "type": "electric_scooter"}, {"bike_id": "2f2bf84c4aaaa1cb01a679eff8b3af65", "is_reserved": 0, "fusion_lon": 0.0, "lat": 38.9200425, "is_disabled": 0, "name": "2f2bf84c4aaaa1cb01a679eff8b3af65", "fusion_lat": 0.0, "rental_uris": {"ios": "https://dc.lft.to/lastmile_qr_scan", "android": "https://dc.lft.to/lastmile_qr_scan"}, "lon": -77.032235, "type": "electric_scooter"}, {"bike_id": "8d402d524993479c39a5bd1856f6fed7", "is_reserved": 0, "fusion_lon": 0.0, "lat": 38.91671816666667, "is_disabled": 0, "name": "8d402d524993479c39a5bd1856f6fed7", "fusion_lat": 0.0, "rental_uris": {"ios": "https://dc.lft.to/lastmile_qr_scan", "android": "https://dc.lft.to/lastmile_qr_scan"}, "lon": -77.03636483333334, "type": "electric_scooter"}, {"bike_id": "713ad6dfe9ee25db63c5353016968310", "is_reserved": 0, "fusion_lon": 0.0, "lat": 38.91972033333333, "is_disabled": 0, "name": "713ad6dfe9ee25db63c5353016968310", "fusion_lat": 0.0, "rental_uris": {"ios": "https://dc.lft.to/lastmile_qr_scan", "android": "https://dc.lft.to/lastmile_qr_scan"}, "lon": -77.02342216666666, "type": "electric_scooter"}, {"bike_id": "59b8634b609d236d1682e4e6ac0a50a1", "is_reserved": 0, "fusion_lon": 0.0, "lat": 38.93605866666667, "is_disabled": 0, "name": "59b8634b609d236d1682e4e6ac0a50a1", "fusion_lat": 0.0, "rental_uris": {"ios": "https://dc.lft.to/lastmile_qr_scan", "android": "https://dc.lft.to/lastmile_qr_scan"}, "lon": -77.05860366666667, "type": "electric_scooter"}, {"bike_id": "7ee4e9b46fc6d4cc9dfd1b238ec9327c", "is_reserved": 0, "fusion_lon": 0.0, "lat": 38.99090616666667, "is_disabled": 0, "name": "7ee4e9b46fc6d4cc9dfd1b238ec9327c", "fusion_lat": 0.0, "rental_uris": {"ios": "https://dc.lft.to/lastmile_qr_scan", "android": "https://dc.lft.to/lastmile_qr_scan"}, "lon": -76.87493083333334, "type": "electric_bike"}, {"bike_id": "b83dcc9f8973405c7068b9b88b788b57", "is_reserved": 0, "fusion_lon": 0.0, "lat": 38.90022866666666, "is_disabled": 0, "name": "b83dcc9f8973405c7068b9b88b788b57", "fusion_lat": 0.0, "rental_uris": {"ios": "https://dc.lft.to/lastmile_qr_scan", "android": "https://dc.lft.to/lastmile_qr_scan"}, "lon": -77.0135145, "type": "electric_scooter"}, {"bike_id": "51ac82831cfe922a0f8facfb33c6155a", "is_reserved": 0, "fusion_lon": 0.0, "lat": 38.91801366666667, "is_disabled": 0, "name": "51ac82831cfe922a0f8facfb33c6155a", "fusion_lat": 0.0, "rental_uris": {"ios": "https://dc.lft.to/lastmile_qr_scan", "android": "https://dc.lft.to/lastmile_qr_scan"}, "lon": -77.034402, "type": "electric_scooter"}, {"bike_id": "86a637793739251c532121f04645a36a", "is_reserved": 0, "fusion_lon": 0.0, "lat": 38.9010225, "is_disabled": 0, "name": "86a637793739251c532121f04645a36a", "fusion_lat": 0.0, "rental_uris": {"ios": "https://dc.lft.to/lastmile_qr_scan", "android": "https://dc.lft.to/lastmile_qr_scan"}, "lon": -77.04871333333334, "type": "electric_scooter"}, {"bike_id": "eef00da9de6b9a9de14ac4a2c58bb8e4", "is_reserved": 0, "fusion_lon": 0.0, "lat": 38.828758, "is_disabled": 0, "name": "eef00da9de6b9a9de14ac4a2c58bb8e4", "fusion_lat": 0.0, "rental_uris": {"ios": "https://dc.lft.to/lastmile_qr_scan", "android": "https://dc.lft.to/lastmile_qr_scan"}, "lon": -77.11220216666666, "type": "electric_bike"}, {"bike_id": "727be08262573a4b6ba47a13430c6342", "is_reserved": 0, "fusion_lon": 0.0, "lat": 38.878385, "is_disabled": 0, "name": "727be08262573a4b6ba47a13430c6342", "fusion_lat": 0.0, "rental_uris": {"ios": "https://dc.lft.to/lastmile_qr_scan", "android": "https://dc.lft.to/lastmile_qr_scan"}, "lon": -77.02277066666667, "type": "electric_scooter"}, {"bike_id": "a29b4535680a9c49a3f577b6e263c591", "is_reserved": 0, "fusion_lon": 0.0, "lat": 38.91094416666667, "is_disabled": 0, "name": "a29b4535680a9c49a3f577b6e263c591", "fusion_lat": 0.0, "rental_uris": {"ios": "https://dc.lft.to/lastmile_qr_scan", "android": "https://dc.lft.to/lastmile_qr_scan"}, "lon": -77.03444083333333, "type": "electric_scooter"}, {"bike_id": "4c00fc6b027b5d4e99bae0f630cecd48", "is_reserved": 0, "fusion_lon": 0.0, "lat": 38.8840395, "is_disabled": 0, "name": "4c00fc6b027b5d4e99bae0f630cecd48", "fusion_lat": 0.0, "rental_uris": {"ios": "https://dc.lft.to/lastmile_qr_scan", "android": "https://dc.lft.to/lastmile_qr_scan"}, "lon": -77.01509966666667, "type": "electric_scooter"}, {"bike_id": "8c2c0e8183812f288fd42f994721de24", "is_reserved": 0, "fusion_lon": 0.0, "lat": 38.882074333333335, "is_disabled": 0, "name": "8c2c0e8183812f288fd42f994721de24", "fusion_lat": 0.0, "rental_uris": {"ios": "https://dc.lft.to/lastmile_qr_scan", "android": "https://dc.lft.to/lastmile_qr_scan"}, "lon": -76.92695483333333, "type": "electric_scooter"}, {"bike_id": "7c5b811eb4d7505afc0b453681c262ea", "is_reserved": 0, "fusion_lon": 0.0, "lat": 38.9010735, "is_disabled": 0, "name": "7c5b811eb4d7505afc0b453681c262ea", "fusion_lat": 0.0, "rental_uris": {"ios": "https://dc.lft.to/lastmile_qr_scan", "android": "https://dc.lft.to/lastmile_qr_scan"}, "lon": -77.04220733333334, "type": "electric_scooter"}, {"bike_id": "5ed3868e9c1aaee164eeb90a9c1b79e0", "is_reserved": 0, "fusion_lon": 0.0, "lat": 38.920292833333335, "is_disabled": 0, "name": "5ed3868e9c1aaee164eeb90a9c1b79e0", "fusion_lat": 0.0, "rental_uris": {"ios": "https://dc.lft.to/lastmile_qr_scan", "android": "https://dc.lft.to/lastmile_qr_scan"}, "lon": -77.0387515, "type": "electric_scooter"}, {"bike_id": "f67e0e85c460667c8087f95deb10c73d", "is_reserved": 0, "fusion_lon": 0.0, "lat": 38.90667916666666, "is_disabled": 0, "name": "f67e0e85c460667c8087f95deb10c73d", "fusion_lat": 0.0, "rental_uris": {"ios": "https://dc.lft.to/lastmile_qr_scan", "android": "https://dc.lft.to/lastmile_qr_scan"}, "lon": -77.07561866666667, "type": "electric_scooter"}, {"bike_id": "fb6a1ddb7de7bc294d0a5d9c85ace8e8", "is_reserved": 0, "fusion_lon": 0.0, "lat": 38.91558116666667, "is_disabled": 0, "name": "fb6a1ddb7de7bc294d0a5d9c85ace8e8", "fusion_lat": 0.0, "rental_uris": {"ios": "https://dc.lft.to/lastmile_qr_scan", "android": "https://dc.lft.to/lastmile_qr_scan"}, "lon": -77.03938316666667, "type": "electric_scooter"}, {"bike_id": "85e5d6ce2f56c4d375796e461f6e8dbf", "is_reserved": 0, "fusion_lon": 0.0, "lat": 38.9146555, "is_disabled": 0, "name": "85e5d6ce2f56c4d375796e461f6e8dbf", "fusion_lat": 0.0, "rental_uris": {"ios": "https://dc.lft.to/lastmile_qr_scan", "android": "https://dc.lft.to/lastmile_qr_scan"}, "lon": -77.0318495, "type": "electric_scooter"}, {"bike_id": "af0dcae3927910665542bebb28e50a81", "is_reserved": 0, "fusion_lon": 0.0, "lat": 38.9220585, "is_disabled": 0, "name": "af0dcae3927910665542bebb28e50a81", "fusion_lat": 0.0, "rental_uris": {"ios": "https://dc.lft.to/lastmile_qr_scan", "android": "https://dc.lft.to/lastmile_qr_scan"}, "lon": -77.0364955, "type": "electric_scooter"}, {"bike_id": "e2303dc793476ace48dedab28c040fc1", "is_reserved": 0, "fusion_lon": 0.0, "lat": 38.92515083333333, "is_disabled": 0, "name": "e2303dc793476ace48dedab28c040fc1", "fusion_lat": 0.0, "rental_uris": {"ios": "https://dc.lft.to/lastmile_qr_scan", "android": "https://dc.lft.to/lastmile_qr_scan"}, "lon": -77.00175616666667, "type": "electric_scooter"}, {"bike_id": "5d7c5ff2deb78946dfc7ece23f1bbd5e", "is_reserved": 0, "fusion_lon": 0.0, "lat": 38.89224266666667, "is_disabled": 0, "name": "5d7c5ff2deb78946dfc7ece23f1bbd5e", "fusion_lat": 0.0, "rental_uris": {"ios": "https://dc.lft.to/lastmile_qr_scan", "android": "https://dc.lft.to/lastmile_qr_scan"}, "lon": -77.043354, "type": "electric_scooter"}, {"bike_id": "0db1060a780a352f22f518de22fe1ef5", "is_reserved": 0, "fusion_lon": 0.0, "lat": 38.93423933333333, "is_disabled": 0, "name": "0db1060a780a352f22f518de22fe1ef5", "fusion_lat": 0.0, "rental_uris": {"ios": "https://dc.lft.to/lastmile_qr_scan", "android": "https://dc.lft.to/lastmile_qr_scan"}, "lon": -77.04309383333333, "type": "electric_scooter"}, {"bike_id": "505b5dd5c0886d7d59d63df34e3cced5", "is_reserved": 0, "fusion_lon": 0.0, "lat": 38.93328833333333, "is_disabled": 0, "name": "505b5dd5c0886d7d59d63df34e3cced5", "fusion_lat": 0.0, "rental_uris": {"ios": "https://dc.lft.to/lastmile_qr_scan", "android": "https://dc.lft.to/lastmile_qr_scan"}, "lon": -77.03272666666666, "type": "electric_scooter"}, {"bike_id": "f9d8d79d5838111116555096c6e0e53c", "is_reserved": 0, "fusion_lon": 0.0, "lat": 39.0520065, "is_disabled": 0, "name": "f9d8d79d5838111116555096c6e0e53c", "fusion_lat": 0.0, "rental_uris": {"ios": "https://dc.lft.to/lastmile_qr_scan", "android": "https://dc.lft.to/lastmile_qr_scan"}, "lon": -77.10912166666667, "type": "electric_bike"}, {"bike_id": "02c412a5022dd996de7db97507d43af7", "is_reserved": 0, "fusion_lon": 0.0, "lat": 38.91548216666666, "is_disabled": 0, "name": "02c412a5022dd996de7db97507d43af7", "fusion_lat": 0.0, "rental_uris": {"ios": "https://dc.lft.to/lastmile_qr_scan", "android": "https://dc.lft.to/lastmile_qr_scan"}, "lon": -77.03858716666667, "type": "electric_scooter"}, {"bike_id": "bdb4196474f540287f426be823e8652e", "is_reserved": 0, "fusion_lon": 0.0, "lat": 38.896143, "is_disabled": 0, "name": "bdb4196474f540287f426be823e8652e", "fusion_lat": 0.0, "rental_uris": {"ios": "https://dc.lft.to/lastmile_qr_scan", "android": "https://dc.lft.to/lastmile_qr_scan"}, "lon": -77.00906583333334, "type": "electric_scooter"}, {"bike_id": "f69e52815bfdf9592697e3a5302d0218", "is_reserved": 0, "fusion_lon": 0.0, "lat": 38.909794833333336, "is_disabled": 0, "name": "f69e52815bfdf9592697e3a5302d0218", "fusion_lat": 0.0, "rental_uris": {"ios": "https://dc.lft.to/lastmile_qr_scan", "android": "https://dc.lft.to/lastmile_qr_scan"}, "lon": -77.04872683333333, "type": "electric_scooter"}, {"bike_id": "1e93acb09038ac90135de7a9bd5d70d7", "is_reserved": 0, "fusion_lon": 0.0, "lat": 38.9112085, "is_disabled": 0, "name": "1e93acb09038ac90135de7a9bd5d70d7", "fusion_lat": 0.0, "rental_uris": {"ios": "https://dc.lft.to/lastmile_qr_scan", "android": "https://dc.lft.to/lastmile_qr_scan"}, "lon": -77.0218355, "type": "electric_scooter"}, {"bike_id": "e24760f7556ea72f937e3dbef5dc0517", "is_reserved": 0, "fusion_lon": 0.0, "lat": 38.885326666666664, "is_disabled": 0, "name": "e24760f7556ea72f937e3dbef5dc0517", "fusion_lat": 0.0, "rental_uris": {"ios": "https://dc.lft.to/lastmile_qr_scan", "android": "https://dc.lft.to/lastmile_qr_scan"}, "lon": -77.00574316666666, "type": "electric_scooter"}, {"bike_id": "eaf3c0dea24212e7e2270f3568785487", "is_reserved": 0, "fusion_lon": 0.0, "lat": 38.90270983333333, "is_disabled": 0, "name": "eaf3c0dea24212e7e2270f3568785487", "fusion_lat": 0.0, "rental_uris": {"ios": "https://dc.lft.to/lastmile_qr_scan", "android": "https://dc.lft.to/lastmile_qr_scan"}, "lon": -77.03854483333333, "type": "electric_scooter"}, {"bike_id": "c0d4a5120e674d97d29d3c889f256063", "is_reserved": 0, "fusion_lon": 0.0, "lat": 38.8666085, "is_disabled": 0, "name": "c0d4a5120e674d97d29d3c889f256063", "fusion_lat": 0.0, "rental_uris": {"ios": "https://dc.lft.to/lastmile_qr_scan", "android": "https://dc.lft.to/lastmile_qr_scan"}, "lon": -76.98901616666667, "type": "electric_scooter"}, {"bike_id": "6d83443ed1b7f0b0b25c8258f7bea036", "is_reserved": 0, "fusion_lon": 0.0, "lat": 38.93544583333333, "is_disabled": 0, "name": "6d83443ed1b7f0b0b25c8258f7bea036", "fusion_lat": 0.0, "rental_uris": {"ios": "https://dc.lft.to/lastmile_qr_scan", "android": "https://dc.lft.to/lastmile_qr_scan"}, "lon": -77.03428383333333, "type": "electric_scooter"}, {"bike_id": "a5ac76b6bb39e0d34a6b1808e8f4b74c", "is_reserved": 0, "fusion_lon": 0.0, "lat": 38.899078833333334, "is_disabled": 0, "name": "a5ac76b6bb39e0d34a6b1808e8f4b74c", "fusion_lat": 0.0, "rental_uris": {"ios": "https://dc.lft.to/lastmile_qr_scan", "android": "https://dc.lft.to/lastmile_qr_scan"}, "lon": -77.03930883333334, "type": "electric_scooter"}, {"bike_id": "b2b1f3f76aae961f05310f3bb8714e09", "is_reserved": 0, "fusion_lon": 0.0, "lat": 38.897670833333336, "is_disabled": 0, "name": "b2b1f3f76aae961f05310f3bb8714e09", "fusion_lat": 0.0, "rental_uris": {"ios": "https://dc.lft.to/lastmile_qr_scan", "android": "https://dc.lft.to/lastmile_qr_scan"}, "lon": -77.0433785, "type": "electric_scooter"}, {"bike_id": "e5999a1ba2f6aaded8f463276b5efc47", "is_reserved": 0, "fusion_lon": 0.0, "lat": 38.933552, "is_disabled": 0, "name": "e5999a1ba2f6aaded8f463276b5efc47", "fusion_lat": 0.0, "rental_uris": {"ios": "https://dc.lft.to/lastmile_qr_scan", "android": "https://dc.lft.to/lastmile_qr_scan"}, "lon": -77.069304, "type": "electric_scooter"}, {"bike_id": "19002d53efb00ea6d5197dd1b830f52f", "is_reserved": 0, "fusion_lon": 0.0, "lat": 38.9170495, "is_disabled": 0, "name": "19002d53efb00ea6d5197dd1b830f52f", "fusion_lat": 0.0, "rental_uris": {"ios": "https://dc.lft.to/lastmile_qr_scan", "android": "https://dc.lft.to/lastmile_qr_scan"}, "lon": -77.001109, "type": "electric_scooter"},