{"data": {"bikes": [{"is_reserved": 0, "type": "electric_bike", "fusion_lat": 0.0, "is_disabled": 0, "rental_uris": {"ios": "https://dc.lft.to/lastmile_qr_scan", "android": "https://dc.lft.to/lastmile_qr_scan"}, "bike_id": "f4a7cadde3721eee3ff105bbec1f36bd", "lat": 38.8040525, "name": "f4a7cadde3721eee3ff105bbec1f36bd", "lon": -77.11334683333334, "fusion_lon": 0.0}, {"is_reserved": 0, "type": "electric_scooter", "fusion_lat": 0.0, "is_disabled": 0, "rental_uris": {"ios": "https://dc.lft.to/lastmile_qr_scan", "android": "https://dc.lft.to/lastmile_qr_scan"}, "bike_id": "5a3d31fe46c92f883eb8f5a7111c3ed3", "lat": 38.9326025, "name": "5a3d31fe46c92f883eb8f5a7111c3ed3", "lon": -77.02105533333334, "fusion_lon": 0.0}, {"is_reserved": 0, "type": "electric_bike", "fusion_lat": 0.0, "is_disabled": 0, "rental_uris": {"ios": "https://dc.lft.to/lastmile_qr_scan", "android": "https://dc.lft.to/lastmile_qr_scan"}, "bike_id": "e95adbbf3955955a7f9800fa083fd45e", "lat": 38.855942, "name": "e95adbbf3955955a7f9800fa083fd45e", "lon": -76.97288733333333, "fusion_lon": 0.0}, {"is_reserved": 0, "type": "electric_scooter", "fusion_lat": 0.0, "is_disabled": 0, "rental_uris": {"ios": "https://dc.lft.to/lastmile_qr_scan", "android": "https://dc.lft.to/lastmile_qr_scan"}, "bike_id": "e07bff5d43356808ff7948581b38377e", "lat": 38.909021333333335, "name": "e07bff5d43356808ff7948581b38377e", "lon": -76.99112716666667, "fusion_lon": 0.0}, {"is_reserved": 0, "type": "electric_scooter", "fusion_lat": 0.0, "is_disabled": 0, "rental_uris": {"ios": "https://dc.lft.to/lastmile_qr_scan", "android": "https://dc.lft.to/lastmile_qr_scan"}, "bike_id": "b31f7549f55cec2dc77a2fa63d497226", "lat": 38.874775166666666, "name": "b31f7549f55cec2dc77a2fa63d497226", "lon": -76.99171433333333, "fusion_lon": 0.0}, {"is_reserved": 0, "type": "electric_scooter", "fusion_lat": 0.0, "is_disabled": 0, "rental_uris": {"ios": "https://dc.lft.to/lastmile_qr_scan", "android": "https://dc.lft.to/lastmile_qr_scan"}, "bike_id": "b20b89449264b152eb5d7be4cc30289e", "lat": 38.917692, "name": "b20b89449264b152eb5d7be4cc30289e", "lon": -77.02310083333333, "fusion_lon": 0.0}, {"is_reserved": 0, "type": "electric_scooter", "fusion_lat": 0.0, "is_disabled": 0, "rental_uris": {"ios": "https://dc.lft.to/lastmile_qr_scan", "android": "https://dc.lft.to/lastmile_qr_scan"}, "bike_id": "e97a45c56c7bbf7fe940ebcbac43472c", "lat": 38.92838183333333, "name": "e97a45c56c7bbf7fe940ebcbac43472c", "lon": -77.03274666666667, "fusion_lon": 0.0}, {"is_reserved": 0, "type": "electric_scooter", "fusion_lat": 0.0, "is_disabled": 0, "rental_uris": {"ios": "https://dc.lft.to/lastmile_qr_scan", "android": "https://dc.lft.to/lastmile_qr_scan"}, "bike_id": "50ddbb5795b0853c75e0c5e146f7ae00", "lat": 38.96503033333333, "name": "50ddbb5795b0853c75e0c5e146f7ae00", "lon": -77.06283116666667, "fusion_lon": 0.0}, {"is_reserved": 0, "type": "electric_bike", "fusion_lat": 0.0, "is_disabled": 0, "rental_uris": {"ios": "https://dc.lft.to/lastmile_qr_scan", "android": "https://dc.lft.to/lastmile_qr_scan"}, "bike_id": "b38a83373a9c39ca3b726d08fd95f7e6", "lat": 38.93842, "name": "b38a83373a9c39ca3b726d08fd95f7e6", "lon": -76.94337266666666, "fusion_lon": 0.0}, {"is_reserved": 0, "type": "electric_scooter", "fusion_lat": 0.0, "is_disabled": 0, "rental_uris": {"ios": "https://dc.lft.to/lastmile_qr_scan", "android": "https://dc.lft.to/lastmile_qr_scan"}, "bike_id": "be3536069469621755f2b3f593e6684f", "lat": 38.88445433333333, "name": "be3536069469621755f2b3f593e6684f", "lon": -77.02992033333334, "fusion_lon": 0.0}, {"is_reserved": 0, "type": "electric_scooter", "fusion_lat": 0.0, "is_disabled": 0, "rental_uris": {"ios": "https://dc.lft.to/lastmile_qr_scan", "android": "https://dc.lft.to/lastmile_qr_scan"}, "bike_id": "c57bb03327ebc455cbbe3c0a4ef83740", "lat": 38.902592166666665, "name": "c57bb03327ebc455cbbe3c0a4ef83740", "lon": -77.0405715, "fusion_lon": 0.0}, {"is_reserved": 0, "type": "electric_scooter", "fusion_lat": 0.0, "is_disabled": 0, "rental_uris": {"ios": "https://dc.lft.to/lastmile_qr_scan", "android": "https://dc.lft.to/lastmile_qr_scan"}, "bike_id": "4430f9cfe3cccaae5091350d76c8cd70", "lat": 38.878434666666664, "name": "4430f9cfe3cccaae5091350d76c8cd70", "lon": -76.9313255, "fusion_lon": 0.0}, {"is_reserved": 0, "type": "electric_scooter", "fusion_lat": 0.0, "is_disabled": 0, "rental_uris": {"ios": "https://dc.lft.to/lastmile_qr_scan", "android": "https://dc.lft.to/lastmile_qr_scan"}, "bike_id": "f1a64e7b1d504ddc01a338e871d5804e", "lat": 38.901919, "name": "f1a64e7b1d504ddc01a338e871d5804e", "lon": -76.98839266666667, "fusion_lon": 0.0}, {"is_reserved": 0, "type": "electric_scooter", "fusion_lat": 0.0, "is_disabled": 0, "rental_uris": {"ios": "https://dc.lft.to/lastmile_qr_scan", "android": "https://dc.lft.to/lastmile_qr_scan"}, "bike_id": "8392785a85bd2ec8997d777f9b6a75f5", "lat": 38.907225833333335, "name": "8392785a85bd2ec8997d777f9b6a75f5", "lon": -77.04772633333333, "fusion_lon": 0.0}, {"is_reserved": 0, "type": "electric_scooter", "fusion_lat": 0.0, "is_disabled": 0, "rental_uris": {"ios": "https://dc.lft.to/lastmile_qr_scan", "android": "https://dc.lft.to/lastmile_qr_scan"}, "bike_id": "0919e35fbcc85de19c6d71dd3fc1ea21", "lat": 38.89733416666667, "name": "0919e35fbcc85de19c6d71dd3fc1ea21", "lon": -77.0075655, "fusion_lon": 0.0}, {"is_reserved": 0, "type": "electric_bike", "fusion_lat": 0.0, "is_disabled": 0, "rental_uris": {"ios": "https://dc.lft.to/lastmile_qr_scan", "android": "https://dc.lft.to/lastmile_qr_scan"}, "bike_id": "c28199949aab950d9822b57efb34c1fb", "lat": 39.01066266666667, "name": "c28199949aab950d9822b57efb34c1fb", "lon": -76.92245433333333, "fusion_lon": 0.0}, {"is_reserved": 0, "type": "electric_scooter", "fusion_lat": 0.0, "is_disabled": 0, "rental_uris": {"ios": "https://dc.lft.to/lastmile_qr_scan", "android": "https://dc.lft.to/lastmile_qr_scan"}, "bike_id": "b25a58c21a7b7edbbf6dc13b7f1a3887", "lat": 38.931292, "name": "b25a58c21a7b7edbbf6dc13b7f1a3887", "lon": -77.02198966666667, "fusion_lon": 0.0}, {"is_reserved": 0, "type": "electric_scooter", "fusion_lat": 0.0, "is_disabled": 0, "rental_uris": {"ios": "https://dc.lft.to/lastmile_qr_scan", "android": "https://dc.lft.to/lastmile_qr_scan"}, "bike_id": "5b3654c55156c326f14a6d95c5d27ed5", "lat": 38.918655, "name": "5b3654c55156c326f14a6d95c5d27ed5", "lon": -77.01538133333334, "fusion_lon": 0.0}, {"is_reserved": 0, "type": "electric_scooter", "fusion_lat": 0.0, "is_disabled": 0, "rental_uris": {"ios": "https://dc.lft.to/lastmile_qr_scan", "android": "https://dc.lft.to/lastmile_qr_scan"}, "bike_id": "574feb78e0ab45a7d20798d3d25a9ee1", "lat": 38.873739666666665, "name": "574feb78e0ab45a7d20798d3d25a9ee1", "lon": -77.0018515, "fusion_lon": 0.0}, {"is_reserved": 0, "type": "electric_scooter", "fusion_lat": 0.0, "is_disabled": 0, "rental_uris": {"ios": "https://dc.lft.to/lastmile_qr_scan", "android": "https://dc.lft.to/lastmile_qr_scan"}, "bike_id": "62d428073730a79c365549f4333e71d0", "lat": 38.92241883333333, "name": "62d428073730a79c365549f4333e71d0", "lon": -77.03666133333333, "fusion_lon": 0.0}, {"is_reserved": 0, "type": "electric_scooter", "fusion_lat": 0.0, "is_disabled": 0, "rental_uris": {"ios": "https://dc.lft.to/lastmile_qr_scan", "android": "https://dc.lft.to/lastmile_qr_scan"}, "bike_id": "0d31d2792a58def27d73f062bf61d22e", "lat": 38.920548, "name": "0d31d2792a58def27d73f062bf61d22e", "lon": -77.034673, "fusion_lon": 0.0}, {"is_reserved": 0, "type": "electric_scooter", "fusion_lat": 0.0, "is_disabled": 0, "rental_uris": {"ios": "https://dc.lft.to/lastmile_qr_scan", "android": "https://dc.lft.to/lastmile_qr_scan"}, "bike_id": "4c8862a74a146114e206407f08702cfb", "lat": 38.938582, "name": "4c8862a74a146114e206407f08702cfb", "lon": -77.07827516666667, "fusion_lon": 0.0}, {"is_reserved": 0, "type": "electric_scooter", "fusion_lat": 0.0, "is_disabled": 0, "rental_uris": {"ios": "https://dc.lft.to/lastmile_qr_scan", "android": "https://dc.lft.to/lastmile_qr_scan"}, "bike_id": "a5c70c45f8623f54d8dfe432151e8899", "lat": 38.901239, "name": "a5c70c45f8623f54d8dfe432151e8899", "lon": -77.04990366666667, "fusion_lon": 0.0}, {"is_reserved": 0, "type": "electric_scooter", "fusion_lat": 0.0, "is_disabled": 0, "rental_uris": {"ios": "https://dc.lft.to/lastmile_qr_scan", "android": "https://dc.lft.to/lastmile_qr_scan"}, "bike_id": "4ccb0cc33b0eccb054c7fd5f0c551f10", "lat": 38.8922365, "name": "4ccb0cc33b0eccb054c7fd5f0c551f10", "lon": -77.04369, "fusion_lon": 0.0}, {"is_reserved": 0, "type": "electric_scooter", "fusion_lat": 0.0, "is_disabled": 0, "rental_uris": {"ios": "https://dc.lft.to/lastmile_qr_scan", "android": "https://dc.lft.to/lastmile_qr_scan"}, "bike_id": "68ef2dff06f59eba27327746171c62ed", "lat": 38.933909166666666, "name": "68ef2dff06f59eba27327746171c62ed", "lon": -77.073857, "fusion_lon": 0.0}, {"is_reserved": 0, "type": "electric_scooter", "fusion_lat": 0.0, "is_disabled": 0, "rental_uris": {"ios": "https://dc.lft.to/lastmile_qr_scan", "android": "https://dc.lft.to/lastmile_qr_scan"}, "bike_id": "5d2bd593fef24ef99e6ee3a55c04ea65", "lat": 38.922269166666666, "name": "5d2bd593fef24ef99e6ee3a55c04ea65", "lon": -76.97531833333333, "fusion_lon": 0.0}, {"is_reserved": 0, "type": "electric_scooter", "fusion_lat": 0.0, "is_disabled": 0, "rental_uris": {"ios": "https://dc.lft.to/lastmile_qr_scan", "android": "https://dc.lft.to/lastmile_qr_scan"}, "bike_id": "2f0e380df747f179d50eb86c092af794", "lat": 38.926661333333335, "name": "2f0e380df747f179d50eb86c092af794", "lon": -77.0272105, "fusion_lon": 0.0}, {"is_reserved": 0, "type": "electric_scooter", "fusion_lat": 0.0, "is_disabled": 0, "rental_uris": {"ios": "https://dc.lft.to/lastmile_qr_scan", "android": "https://dc.lft.to/lastmile_qr_scan"}, "bike_id": "01b7df7b4954ae0bf6236ea19c3b2259", "lat": 38.9007565, "name": "01b7df7b4954ae0bf6236ea19c3b2259", "lon": -77.04360433333333, "fusion_lon": 0.0}, {"is_reserved": 0, "type": "electric_scooter", "fusion_lat": 0.0, "is_disabled": 0, "rental_uris": {"ios": "https://dc.lft.to/lastmile_qr_scan", "android": "https://dc.lft.to/lastmile_qr_scan"}, "bike_id": "1f739b314b5303420f43d7921d65ece2", "lat": 38.901072166666665, "name": "1f739b314b5303420f43d7921d65ece2", "lon": -77.03444666666667, "fusion_lon": 0.0}, {"is_reserved": 0, "type": "electric_scooter", "fusion_lat": 0.0, "is_disabled": 0, "rental_uris": {"ios": "https://dc.lft.to/lastmile_qr_scan", "android": "https://dc.lft.to/lastmile_qr_scan"}, "bike_id": "532edee737d103e5d319acd88fa62e1e", "lat": 38.933270666666665, "name": "532edee737d103e5d319acd88fa62e1e", "lon": -77.024005, "fusion_lon": 0.0}, {"is_reserved": 0, "type": "electric_scooter", "fusion_lat": 0.0, "is_disabled": 0, "rental_uris": {"ios": "https://dc.lft.to/lastmile_qr_scan", "android": "https://dc.lft.to/lastmile_qr_scan"}, "bike_id": "41919ee6bce494e32ebf6d1fc2d07ed6", "lat": 38.94490483333333, "name": "41919ee6bce494e32ebf6d1fc2d07ed6", "lon": -77.0073695, "fusion_lon": 0.0}, {"is_reserved": 0, "type": "electric_scooter", "fusion_lat": 0.0, "is_disabled": 0, "rental_uris": {"ios": "https://dc.lft.to/lastmile_qr_scan", "android": "https://dc.lft.to/lastmile_qr_scan"}, "bike_id": "12573e754f2213eafa96527f08c217f6", "lat": 38.901757333333336, "name": "12573e754f2213eafa96527f08c217f6", "lon": -76.92946416666666, "fusion_lon": 0.0}, {"is_reserved": 0, "type": "electric_scooter", "fusion_lat": 0.0, "is_disabled": 0, "rental_uris": {"ios": "https://dc.lft.to/lastmile_qr_scan", "android": "https://dc.lft.to/lastmile_qr_scan"}, "bike_id": "e9f4013caaf4123e525b9f1e558129c5", "lat": 38.92208433333333, "name": "e9f4013caaf4123e525b9f1e558129c5", "lon": -77.01848266666667, "fusion_lon": 0.0}, {"is_reserved": 0, "type": "electric_scooter", "fusion_lat": 0.0, "is_disabled": 0, "rental_uris": {"ios": "https://dc.lft.to/lastmile_qr_scan", "android": "https://dc.lft.to/lastmile_qr_scan"}, "bike_id": "5882926c457ac362a5aac48ecde0d19d", "lat": 38.902688833333336, "name": "5882926c457ac362a5aac48ecde0d19d", "lon": -77.03916083333333, "fusion_lon": 0.0}, {"is_reserved": 0, "type": "electric_bike", "fusion_lat": 0.0, "is_disabled": 0, "rental_uris": {"ios": "https://dc.lft.to/lastmile_qr_scan", "android": "https://dc.lft.to/lastmile_qr_scan"}, "bike_id": "a62fadad31823769aaf4990f9dcde8b1", "lat": 38.929471166666666, "name": "a62fadad31823769aaf4990f9dcde8b1", "lon": -76.97562316666667, "fusion_lon": 0.0}, {"is_reserved": 0, "type": "electric_bike", "fusion_lat": 0.0, "is_disabled": 0, "rental_uris": {"ios": "https://dc.lft.to/lastmile_qr_scan", "android": "https://dc.lft.to/lastmile_qr_scan"}, "bike_id": "f170901e61fa85aae47a606c47dc0154", "lat": 38.92868683333333, "name": "f170901e61fa85aae47a606c47dc0154", "lon": -76.961066, "fusion_lon": 0.0}, {"is_reserved": 0, "type": "electric_scooter", "fusion_lat": 0.0, "is_disabled": 0, "rental_uris": {"ios": "https://dc.lft.to/lastmile_qr_scan", "android": "https://dc.lft.to/lastmile_qr_scan"}, "bike_id": "fc6a58323b7c4ff4958546ab5b82d7d5", "lat": 38.92632316666667, "name": "fc6a58323b7c4ff4958546ab5b82d7d5", "lon": -77.05314283333334, "fusion_lon": 0.0}, {"is_reserved": 0, "type": "electric_bike", "fusion_lat": 0.0, "is_disabled": 0, "rental_uris": {"ios": "https://dc.lft.to/lastmile_qr_scan", "android": "https://dc.lft.to/lastmile_qr_scan"}, "bike_id": "205474525bf745da4e68f2f81c2a8ee0", "lat": 38.92598566666667, "name": "205474525bf745da4e68f2f81c2a8ee0", "lon": -77.02433583333334, "fusion_lon": 0.0}, {"is_reserved": 0, "type": "electric_scooter", "fusion_lat": 0.0, "is_disabled": 0, "rental_uris": {"ios": "https://dc.lft.to/lastmile_qr_scan", "android": "https://dc.lft.to/lastmile_qr_scan"}, "bike_id": "714e3a43f468c62efe9e6dbe53c2ed7b", "lat": 38.912581833333334, "name": "714e3a43f468c62efe9e6dbe53c2ed7b", "lon": -77.03880516666666, "fusion_lon": 0.0}, {"is_reserved": 0, "type": "electric_scooter", "fusion_lat": 0.0, "is_disabled": 0, "rental_uris": {"ios": "https://dc.lft.to/lastmile_qr_scan", "android": "https://dc.lft.to/lastmile_qr_scan"}, "bike_id": "4716107f3f13be9e6a8884f29c1fa711", "lat": 38.90969783333333, "name": "4716107f3f13be9e6a8884f29c1fa711", "lon": -77.0459705, "fusion_lon": 0.0}, {"is_reserved": 0, "type": "electric_bike", "fusion_lat": 0.0, "is_disabled": 0, "rental_uris": {"ios": "https://dc.lft.to/lastmile_qr_scan", "android": "https://dc.lft.to/lastmile_qr_scan"}, "bike_id": "0a76e00591a8871f0acc9af19be3eee8", "lat": 38.80481116666667, "name": "0a76e00591a8871f0acc9af19be3eee8", "lon": -76.99109233333333, "fusion_lon": 0.0}, {"is_reserved": 0, "type": "electric_scooter", "fusion_lat": 0.0, "is_disabled": 0, "rental_uris": {"ios": "https://dc.lft.to/lastmile_qr_scan", "android": "https://dc.lft.to/lastmile_qr_scan"}, "bike_id": "bb01bdf281f325d025d74043b5725700", "lat": 38.9077865, "name": "bb01bdf281f325d025d74043b5725700", "lon": -77.043536, "fusion_lon": 0.0}, {"is_reserved": 0, "type": "electric_scooter", "fusion_lat": 0.0, "is_disabled": 0, "rental_uris": {"ios": "https://dc.lft.to/lastmile_qr_scan", "android": "https://dc.lft.to/lastmile_qr_scan"}, "bike_id": "8fe032b75d001aface77b88486452e49", "lat": 38.8941015, "name": "8fe032b75d001aface77b88486452e49", "lon": -77.010851, "fusion_lon": 0.0}, {"is_reserved": 0, "type": "electric_scooter", "fusion_lat": 0.0, "is_disabled": 0, "rental_uris": {"ios": "https://dc.lft.to/lastmile_qr_scan", "android": "https://dc.lft.to/lastmile_qr_scan"}, "bike_id": "d65941e56fa347d990778d8025804fbb", "lat": 38.878549666666665, "name": "d65941e56fa347d990778d8025804fbb", "lon": -77.00562816666667, "fusion_lon": 0.0}, {"is_reserved": 0, "type": "electric_scooter", "fusion_lat": 0.0, "is_disabled": 0, "rental_uris": {"ios": "https://dc.lft.to/lastmile_qr_scan", "android": "https://dc.lft.to/lastmile_qr_scan"}, "bike_id": "47e62851d563c45e1dbae9c34fbf9dbd", "lat": 38.903975, "name": "47e62851d563c45e1dbae9c34fbf9dbd", "lon": -76.98951566666666, "fusion_lon": 0.0}, {"is_reserved": 0, "type": "electric_scooter", "fusion_lat": 0.0, "is_disabled": 0, "rental_uris": {"ios": "https://dc.lft.to/lastmile_qr_scan", "android": "https://dc.lft.to/lastmile_qr_scan"}, "bike_id": "ebbcd531b56d4abc0efd53cd51e47f50", "lat": 38.9173245, "name": "ebbcd531b56d4abc0efd53cd51e47f50", "lon": -77.068977, "fusion_lon": 0.0}, {"is_reserved": 0, "type": "electric_scooter", "fusion_lat": 0.0, "is_disabled": 0, "rental_uris": {"ios": "https://dc.lft.to/lastmile_qr_scan", "android": "https://dc.lft.to/lastmile_qr_scan"}, "bike_id": "512d7330280316cb57608cf61365ccd0", "lat": 38.90597366666667, "name": "512d7330280316cb57608cf61365ccd0", "lon": -77.06304683333333, "fusion_lon": 0.0}, {"is_reserved": 0, "type": "electric_scooter", "fusion_lat": 0.0, "is_disabled": 0, "rental_uris": {"ios": "https://dc.lft.to/lastmile_qr_scan", "android": "https://dc.lft.to/lastmile_qr_scan"}, "bike_id": "c6a8cfa44c35257a8f53d20d31faa90d", "lat": 38.892314166666665, "name": "c6a8cfa44c35257a8f53d20d31faa90d", "lon": -77.02575466666667, "fusion_lon": 0.0}, {"is_reserved": 0, "type": "electric_scooter", "fusion_lat": 0.0, "is_disabled": 0, "rental_uris": {"ios": "https://dc.lft.to/lastmile_qr_scan", "android": "https://dc.lft.to/lastmile_qr_scan"}, "bike_id": "d0f02f913a28eb4f5cc42092f72c1822", "lat": 38.89982283333333, "name": "d0f02f913a28eb4f5cc42092f72c1822", "lon": -77.00923666666667, "fusion_lon": 0.0}, {"is_reserved": 0, "type": "electric_scooter", "fusion_lat": 0.0, "is_disabled": 0, "rental_uris": {"ios": "https://dc.lft.to/lastmile_qr_scan", "android": "https://dc.lft.to/lastmile_qr_scan"}, "bike_id": "039a9660158de80361301562a967b63e", "lat": 38.901411333333336, "name": "039a9660158de80361301562a967b63e", "lon": -77.01514083333333, "fusion_lon": 0.0}, {"is_reserved": 0, "type": "electric_bike", "fusion_lat": 0.0, "is_disabled": 0, "rental_uris": {"ios": "https://dc.lft.to/lastmile_qr_scan", "android": "https://dc.lft.to/lastmile_qr_scan"}, "bike_id": "7b996cc9eca3ec83767e61bae0621767", "lat": 38.952372, "name": "7b996cc9eca3ec83767e61bae0621767", "lon": -76.9824545, "fusion_lon": 0.0}, {"is_reserved": 0, "type": "electric_scooter", "fusion_lat": 0.0, "is_disabled": 0, "rental_uris": {"ios": "https://dc.lft.to/lastmile_qr_scan", "android": "https://dc.lft.to/lastmile_qr_scan"}, "bike_id": "a3760057441e848eca5e1a9262f06244", "lat": 38.90647716666667, "name": "a3760057441e848eca5e1a9262f06244", "lon": -77.02483966666667, "fusion_lon": 0.0}, {"is_reserved": 0, "type": "electric_bike", "fusion_lat": 0.0, "is_disabled": 0, "rental_uris": {"ios": "https://dc.lft.to/lastmile_qr_scan", "android": "https://dc.lft.to/lastmile_qr_scan"}, "bike_id": "a656d5e01a975b5a64af93fae203545d", "lat": 38.958704, "name": "a656d5e01a975b5a64af93fae203545d", "lon": -76.97054366666667, "fusion_lon": 0.0}, {"is_reserved": 0, "type": "electric_scooter", "fusion_lat": 0.0, "is_disabled": 0, "rental_uris": {"ios": "https://dc.lft.to/lastmile_qr_scan", "android": "https://dc.lft.to/lastmile_qr_scan"}, "bike_id": "5f2e88c9bb72fe997f9d92cc78ea5c88", "lat": 38.903923166666665, "name": "5f2e88c9bb72fe997f9d92cc78ea5c88", "lon": -76.99006966666667, "fusion_lon": 0.0}, {"is_reserved": 0, "type": "electric_scooter", "fusion_lat": 0.0, "is_disabled": 0, "rental_uris": {"ios": "https://dc.lft.to/lastmile_qr_scan", "android": "https://dc.lft.to/lastmile_qr_scan"}, "bike_id": "f67153da663390e38d88fc4c4052a4b7", "lat": 38.92055233333333, "name": "f67153da663390e38d88fc4c4052a4b7", "lon": -77.0230655, "fusion_lon": 0.0}, {"is_reserved": 0, "type": "electric_scooter", "fusion_lat": 0.0, "is_disabled": 0, "rental_uris": {"ios": "https://dc.lft.to/lastmile_qr_scan", "android": "https://dc.lft.to/lastmile_qr_scan"}, "bike_id": "44d92900aa6f4ce2d38e37160af76c42", "lat": 38.927942333333334, "name": "44d92900aa6f4ce2d38e37160af76c42", "lon": -77.02132316666666, "fusion_lon": 0.0}, {"is_reserved": 0, "type": "electric_scooter", "fusion_lat": 0.0, "is_disabled": 0, "rental_uris": {"ios": "https://dc.lft.to/lastmile_qr_scan", "android": "https://dc.lft.to/lastmile_qr_scan"}, "bike_id": "db050e7689deec5b3a88232ef4ca1637", "lat": 38.921349, "name": "db050e7689deec5b3a88232ef4ca1637", "lon": -77.004017, "fusion_lon": 0.0}, {"is_reserved": 0, "type": "electric_scooter", "fusion_lat": 0.0, "is_disabled": 0, "rental_uris": {"ios": "https://dc.lft.to/lastmile_qr_scan", "android": "https://dc.lft.to/lastmile_qr_scan"}, "bike_id": "9c35b42e3c179b48d3007fdfc3c517a3", "lat": 38.88642, "name": "9c35b42e3c179b48d3007fdfc3c517a3", "lon": -77.012259, "fusion_lon": 0.0}, {"is_reserved": 0, "type": "electric_scooter", "fusion_lat": 0.0, "is_disabled": 0, "rental_uris": {"ios": "https://dc.lft.to/lastmile_qr_scan", "android": "https://dc.lft.to/lastmile_qr_scan"}, "bike_id": "ea278a890eba94e5d54bcc7e914916ba", "lat": 38.917150166666666, "name": "ea278a890eba94e5d54bcc7e914916ba", "lon": -77.03859583333333, "fusion_lon": 0.0}, {"is_reserved": 0, "type": "electric_scooter", "fusion_lat": 0.0, "is_disabled": 0, "rental_uris": {"ios": "https://dc.lft.to/lastmile_qr_scan", "android": "https://dc.lft.to/lastmile_qr_scan"}, "bike_id": "c1d2db053b8ac15d4545f97a21fd7a3f", "lat": 38.89969266666667, "name": "c1d2db053b8ac15d4545f97a21fd7a3f", "lon": -77.04716833333333, "fusion_lon": 0.0}, {"is_reserved": 0, "type": "electric_scooter", "fusion_lat": 0.0, "is_disabled": 0, "rental_uris": {"ios": "https://dc.lft.to/lastmile_qr_scan", "android": "https://dc.lft.to/lastmile_qr_scan"}, "bike_id": "b925150b5b4caaa996077034d81764d9", "lat": 38.8984425, "name": "b925150b5b4caaa996077034d81764d9", "lon": -77.02854016666667, "fusion_lon": 0.0}, {"is_reserved": 0, "type": "electric_scooter", "fusion_lat": 0.0, "is_disabled": 0, "rental_uris": {"ios": "https://dc.lft.to/lastmile_qr_scan", "android": "https://dc.lft.to/lastmile_qr_scan"}, "bike_id": "0163f7786db491b87cf91c7595a36d5b", "lat": 38.88315333333333, "name": "0163f7786db491b87cf91c7595a36d5b", "lon": -76.9315675, "fusion_lon": 0.0}, {"is_reserved": 0, "type": "electric_scooter", "fusion_lat": 0.0, "is_disabled": 0, "rental_uris": {"ios": "https://dc.lft.to/lastmile_qr_scan", "android": "https://dc.lft.to/lastmile_qr_scan"}, "bike_id": "1822a91c838c33c88802b27b53a5125b", "lat": 38.90341866666667, "name": "1822a91c838c33c88802b27b53a5125b", "lon": -77.01113483333333, "fusion_lon": 0.0}, {"is_reserved": 0, "type": "electric_scooter", "fusion_lat": 0.0, "is_disabled": 0, "rental_uris": {"ios": "https://dc.lft.to/lastmile_qr_scan", "android": "https://dc.lft.to/lastmile_qr_scan"}, "bike_id": "04ba021c21d9faea4fa03511a3791085", "lat": 38.93269, "name": "04ba021c21d9faea4fa03511a3791085", "lon": -77.03079633333333, "fusion_lon": 0.0}, {"is_reserved": 0, "type": "electric_bike", "fusion_lat": 0.0, "is_disabled": 0, "rental_uris": {"ios": "https://dc.lft.to/lastmile_qr_scan", "android": "https://dc.lft.to/lastmile_qr_scan"}, "bike_id": "0c06ed89562ba22442d1131c0aaa9290", "lat": 38.8463, "name": "0c06ed89562ba22442d1131c0aaa9290", "lon": -77.069311, "fusion_lon": 0.0}, {"is_reserved": 0, "type": "electric_scooter", "fusion_lat": 0.0, "is_disabled": 0, "rental_uris": {"ios": "https://dc.lft.to/lastmile_qr_scan", "android": "https://dc.lft.to/lastmile_qr_scan"}, "bike_id": "e270ca3ccebef7928ffb62a2265fe659", "lat": 38.903191666666665, "name": "e270ca3ccebef7928ffb62a2265fe659", "lon": -77.0109765, "fusion_lon": 0.0}, {"is_reserved": 0, "type": "electric_scooter", "fusion_lat": 0.0, "is_disabled": 0, "rental_uris": {"ios": "https://dc.lft.to/lastmile_qr_scan", "android": "https://dc.lft.to/lastmile_qr_scan"}, "bike_id": "8c5583efd1b3cf6a075db680d169cec8", "lat": 38.935384166666665, "name": "8c5583efd1b3cf6a075db680d169cec8", "lon": -77.02346483333334, "fusion_lon": 0.0}, {"is_reserved": 0, "type": "electric_scooter", "fusion_lat": 0.0, "is_disabled": 0, "rental_uris": {"ios": "https://dc.lft.to/lastmile_qr_scan", "android": "https://dc.lft.to/lastmile_qr_scan"}, "bike_id": "b29c249b70d8c1c6707ff2ef666be614", "lat": 38.892035166666666, "name": "b29c249b70d8c1c6707ff2ef666be614", "lon": -77.02218066666667, "fusion_lon": 0.0}, {"is_reserved": 0, "type": "electric_scooter", "fusion_lat": 0.0, "is_disabled": 0, "rental_uris": {"ios": "https://dc.lft.to/lastmile_qr_scan", "android": "https://dc.lft.to/lastmile_qr_scan"}, "bike_id": "a2e78ea82ed711dfd26d4f7f1ccb468e", "lat": 38.89968366666667, "name": "a2e78ea82ed711dfd26d4f7f1ccb468e", "lon": -76.9376385, "fusion_lon": 0.0}, {"is_reserved": 0, "type": "electric_scooter", "fusion_lat": 0.0, "is_disabled": 0, "rental_uris": {"ios": "https://dc.lft.to/lastmile_qr_scan", "android": "https://dc.lft.to/lastmile_qr_scan"}, "bike_id": "2aada1acf22b20aca1107c4f92f7a444", "lat": 38.905207, "name": "2aada1acf22b20aca1107c4f92f7a444", "lon": -77.06789983333333, "fusion_lon": 0.0}, {"is_reserved": 0, "type": "electric_scooter", "fusion_lat": 0.0, "is_disabled": 0, "rental_uris": {"ios": "https://dc.lft.to/lastmile_qr_scan", "android": "https://dc.lft.to/lastmile_qr_scan"}, "bike_id": "8a266f13ec2c25daa7a2f398891ce719", "lat": 38.916047166666665, "name": "8a266f13ec2c25daa7a2f398891ce719", "lon": -77.0320365, "fusion_lon": 0.0}, {"is_reserved": 0, "type": "electric_bike", "fusion_lat": 0.0, "is_disabled": 0, "rental_uris": {"ios": "https://dc.lft.to/lastmile_qr_scan", "android": "https://dc.lft.to/lastmile_qr_scan"}, "bike_id": "8125798f0930750cfb41a55c1932da9e", "lat": 38.830440333333335, "name": "8125798f0930750cfb41a55c1932da9e", "lon": -77.00825316666666, "fusion_lon": 0.0}, {"is_reserved": 0, "type": "electric_scooter", "fusion_lat": 0.0, "is_disabled": 0, "rental_uris": {"ios": "https://dc.lft.to/lastmile_qr_scan", "android": "https://dc.lft.to/lastmile_qr_scan"}, "bike_id": "e87ce8af3a579d48a0b13a93f388267c", "lat": 38.93660766666667, "name": "e87ce8af3a579d48a0b13a93f388267c", "lon": -77.0661415, "fusion_lon": 0.0}, {"is_reserved": 0, "type": "electric_scooter", "fusion_lat": 0.0, "is_disabled": 0, "rental_uris": {"ios": "https://dc.lft.to/lastmile_qr_scan", "android": "https://dc.lft.to/lastmile_qr_scan"}, "bike_id": "1846708485bb4148622370b4ed61b1a8", "lat": 38.901785833333335, "name": "1846708485bb4148622370b4ed61b1a8", "lon": -77.0248705, "fusion_lon": 0.0}, {"is_reserved": 0, "type": "electric_scooter", "fusion_lat": 0.0, "is_disabled": 0, "rental_uris": {"ios": "https://dc.lft.to/lastmile_qr_scan", "android": "https://dc.lft.to/lastmile_qr_scan"}, "bike_id": "b0f0d78aec4613b2c9147c4b3913036e", "lat": 38.900279166666664, "name": "b0f0d78aec4613b2c9147c4b3913036e", "lon": -77.033068, "fusion_lon": 0.0}, {"is_reserved": 0, "type": "electric_scooter", "fusion_lat": 0.0, "is_disabled": 0, "rental_uris": {"ios": "https://dc.lft.to/lastmile_qr_scan", "android": "https://dc.lft.to/lastmile_qr_scan"}, "bike_id": "0fc3588cf88187194bbf8ed2ef75bd38", "lat": 38.904504333333335, "name": "0fc3588cf88187194bbf8ed2ef75bd38", "lon": -77.01713983333333, "fusion_lon": 0.0}, {"is_reserved": 0, "type": "electric_scooter", "fusion_lat": 0.0, "is_disabled": 0, "rental_uris": {"ios": "https://dc.lft.to/lastmile_qr_scan", "android": "https://dc.lft.to/lastmile_qr_scan"}, "bike_id": "8ce373579fd228cf8b542b3f67ca9294", "lat": 38.906181333333336, "name": "8ce373579fd228cf8b542b3f67ca9294", "lon": -77.02954016666666, "fusion_lon": 0.0}, {"is_reserved": 0, "type": "electric_scooter", "fusion_lat": 0.0, "is_disabled": 0, "rental_uris": {"ios": "https://dc.lft.to/lastmile_qr_scan", "android": "https://dc.lft.to/lastmile_qr_scan"}, "bike_id": "bc2487ed28af773aad8eab02a87f0502", "lat": 38.92049183333334, "name": "bc2487ed28af773aad8eab02a87f0502", "lon": -77.04040466666666, "fusion_lon": 0.0}, {"is_reserved": 0, "type": "electric_scooter", "fusion_lat": 0.0, "is_disabled": 0, "rental_uris": {"ios": "https://dc.lft.to/lastmile_qr_scan", "android": "https://dc.lft.to/lastmile_qr_scan"}, "bike_id": "8bd97957dafeb07cc9ca3030dcdcd37f", "lat": 38.88711266666667, "name": "8bd97957dafeb07cc9ca3030dcdcd37f", "lon": -76.9838115, "fusion_lon": 0.0}, {"is_reserved": 0, "type": "electric_scooter", "fusion_lat": 0.0, "is_disabled": 0, "rental_uris": {"ios": "https://dc.lft.to/lastmile_qr_scan", "android": "https://dc.lft.to/lastmile_qr_scan"}, "bike_id": "e3a5a851635c677449cf9da43b857df3", "lat": 38.90686066666667, "name": "e3a5a851635c677449cf9da43b857df3", "lon": -77.0101245, "fusion_lon": 0.0}, {"is_reserved": 0, "type": "electric_scooter", "fusion_lat": 0.0, "is_disabled": 0, "rental_uris": {"ios": "https://dc.lft.to/lastmile_qr_scan", "android": "https://dc.lft.to/lastmile_qr_scan"}, "bike_id": "5ce5cf0364aebe5d367f1fd1bae6b224", "lat": 38.93002716666667, "name": "5ce5cf0364aebe5d367f1fd1bae6b224", "lon": -77.0377985, "fusion_lon": 0.0}, {"is_reserved": 0, "type": "electric_scooter", "fusion_lat": 0.0, "is_disabled": 0, "rental_uris": {"ios": "https://dc.lft.to/lastmile_qr_scan", "android": "https://dc.lft.to/lastmile_qr_scan"}, "bike_id": "e355fa43bf8317f11e3c44143fff7aef", "lat": 38.925499, "name": "e355fa43bf8317f11e3c44143fff7aef", "lon": -77.00324383333333, "fusion_lon": 0.0}, {"is_reserved": 0, "type": "electric_bike", "fusion_lat": 0.0, "is_disabled": 0, "rental_uris": {"ios": "https://dc.lft.to/lastmile_qr_scan", "android": "https://dc.lft.to/lastmile_qr_scan"}, "bike_id": "29943ed796494d100a841e49b79ef9dc", "lat": 38.9450485, "name": "29943ed796494d100a841e49b79ef9dc", "lon": -77.00675716666667, "fusion_lon": 0.0}, {"is_reserved": 0, "type": "electric_scooter", "fusion_lat": 0.0, "is_disabled": 0, "rental_uris": {"ios": "https://dc.lft.to/lastmile_qr_scan", "android": "https://dc.lft.to/lastmile_qr_scan"}, "bike_id": "a8dd9aee592727954da061e17270ccff", "lat": 38.907837, "name": "a8dd9aee592727954da061e17270ccff", "lon": -77.07263133333333, "fusion_lon": 0.0}, {"is_reserved": 0, "type": "electric_scooter", "fusion_lat": 0.0, "is_disabled": 0, "rental_uris": {"ios": "https://dc.lft.to/lastmile_qr_scan", "android": "https://dc.lft.to/lastmile_qr_scan"}, "bike_id": "eae51365a93f6cbb97779d2a7df686ef", "lat": 38.92413233333333, "name": "eae51365a93f6cbb97779d2a7df686ef", "lon": -77.02131033333333, "fusion_lon": 0.0}, {"is_reserved": 0, "type": "electric_scooter", "fusion_lat": 0.0, "is_disabled": 0, "rental_uris": {"ios": "https://dc.lft.to/lastmile_qr_scan", "android": "https://dc.lft.to/lastmile_qr_scan"}, "bike_id": "18715f497458d0297cfcfaea02e0c80b", "lat": 38.899871, "name": "18715f497458d0297cfcfaea02e0c80b", "lon": -77.04478816666666, "fusion_lon": 0.0}, {"is_reserved": 0, "type": "electric_scooter", "fusion_lat": 0.0, "is_disabled": 0, "rental_uris": {"ios": "https://dc.lft.to/lastmile_qr_scan", "android": "https://dc.lft.to/lastmile_qr_scan"}, "bike_id": "3a9cc5ffd57b5eb1710262a5c77b1269", "lat": 38.948223666666664, "name": "3a9cc5ffd57b5eb1710262a5c77b1269", "lon": -77.02615533333334, "fusion_lon": 0.0}, {"is_reserved": 0, "type": "electric_scooter", "fusion_lat": 0.0, "is_disabled": 0, "rental_uris": {"ios": "https://dc.lft.to/lastmile_qr_scan", "android": "https://dc.lft.to/lastmile_qr_scan"}, "bike_id": "88b2e3a21a156b4df9dfddaac310c936", "lat": 38.8765065, "name": "88b2e3a21a156b4df9dfddaac310c936", "lon": -77.00082216666667, "fusion_lon": 0.0}, {"is_reserved": 0, "type": "electric_scooter", "fusion_lat": 0.0, "is_disabled": 0, "rental_uris": {"ios": "https://dc.lft.to/lastmile_qr_scan", "android": "https://dc.lft.to/lastmile_qr_scan"}, "bike_id": "14f404fffc3306d78cf66a4f88f2d513", "lat": 38.881348, "name": "14f404fffc3306d78cf66a4f88f2d513", "lon": -77.02004766666667, "fusion_lon": 0.0}, {"is_reserved": 0, "type": "electric_scooter", "fusion_lat": 0.0, "is_disabled": 0, "rental_uris": {"ios": "https://dc.lft.to/lastmile_qr_scan", "android": "https://dc.lft.to/lastmile_qr_scan"}, "bike_id": "69affbb190811190955548ac22d9dbfc", "lat": 38.89197433333333, "name": "69affbb190811190955548ac22d9dbfc", "lon": -77.0155285, "fusion_lon": 0.0}, {"is_reserved": 0, "type": "electric_bike", "fusion_lat": 0.0, "is_disabled": 0, "rental_uris": {"ios": "https://dc.lft.to/lastmile_qr_scan", "android": "https://dc.lft.to/lastmile_qr_scan"}, "bike_id": "4e7e7f6c6641d59572781ede01ca4009", "lat": 38.81335083333333, "name": "4e7e7f6c6641d59572781ede01ca4009", "lon": -77.05113233333333, "fusion_lon": 0.0}, {"is_reserved": 0, "type": "electric_scooter", "fusion_lat": 0.0, "is_disabled": 0, "rental_uris": {"ios": "https://dc.lft.to/lastmile_qr_scan", "android": "https://dc.lft.to/lastmile_qr_scan"}, "bike_id": "03b0c7366c4c791364fc63f37696121c", "lat": 38.91799433333333, "name": "03b0c7366c4c791364fc63f37696121c", "lon": -77.04439583333334, "fusion_lon": 0.0}, {"is_reserved": 0, "type": "electric_scooter", "fusion_lat": 0.0, "is_disabled": 0, "rental_uris": {"ios": "https://dc.lft.to/lastmile_qr_scan", "android": "https://dc.lft.to/lastmile_qr_scan"}, "bike_id": "c59109bbcd1cf12f79d6bae7d5b046cc", "lat": 38.902351833333334, "name": "c59109bbcd1cf12f79d6bae7d5b046cc", "lon": -77.00058, "fusion_lon": 0.0}, {"is_reserved": 0, "type": "electric_scooter", "fusion_lat": 0.0, "is_disabled": 0, "rental_uris": {"ios": "https://dc.lft.to/lastmile_qr_scan", "android": "https://dc.lft.to/lastmile_qr_scan"}, "bike_id": "0fcad96de21d3dc1c6a807ea71dbe267", "lat": 38.9050905, "name": "0fcad96de21d3dc1c6a807ea71dbe267", "lon": -76.95210783333333, "fusion_lon": 0.0}, {"is_reserved": 0, "type": "electric_scooter", "fusion_lat": 0.0, "is_disabled": 0, "rental_uris": {"ios": "https://dc.lft.to/lastmile_qr_scan", "android": "https://dc.lft.to/lastmile_qr_scan"}, "bike_id": "d2d6f98ce3fb9d5521379127f4da318b", "lat": 38.8836415, "name": "d2d6f98ce3fb9d5521379127f4da318b", "lon": -76.95761933333333, "fusion_lon": 0.0}, {"is_reserved": 0, "type": "electric_scooter", "fusion_lat": 0.0, "is_disabled": 0, "rental_uris": {"ios": "https://dc.lft.to/lastmile_qr_scan", "android": "https://dc.lft.to/lastmile_qr_scan"}, "bike_id": "d378ce331ae841fbbe0f0f4d14550e50", "lat": 38.9195245, "name": "d378ce331ae841fbbe0f0f4d14550e50", "lon": -77.01408233333333, "fusion_lon": 0.0}, {"is_reserved": 0, "type": "electric_scooter", "fusion_lat": 0.0, "is_disabled": 0, "rental_uris": {"ios": "https://dc.lft.to/lastmile_qr_scan", "android": "https://dc.lft.to/lastmile_qr_scan"}, "bike_id": "6caf88766a572f614b7660f8d35dcd4a", "lat": 38.902672, "name": "6caf88766a572f614b7660f8d35dcd4a", "lon": -77.0200645, "fusion_lon": 0.0}, {"is_reserved": 0, "type": "electric_scooter", "fusion_lat": 0.0, "is_disabled": 0, "rental_uris": {"ios": "https://dc.lft.to/lastmile_qr_scan", "android": "https://dc.lft.to/lastmile_qr_scan"}, "bike_id": "0eda00f1997355c29d6d1f8231588144", "lat": 38.883017, "name": "0eda00f1997355c29d6d1f8231588144", "lon": -76.993713, "fusion_lon": 0.0}, {"is_reserved": 0, "type": "electric_scooter", "fusion_lat": 0.0, "is_disabled": 0, "rental_uris": {"ios": "https://dc.lft.to/lastmile_qr_scan", "android": "https://dc.lft.to/lastmile_qr_scan"}, "bike_id": "d583a3030590dc7ad2514afda4443b3d", "lat": 38.93844266666667, "name": "d583a3030590dc7ad2514afda4443b3d", "lon": -77.01952583333333, "fusion_lon": 0.0}, {"is_reserved": 0, "type": "electric_scooter", "fusion_lat": 0.0, "is_disabled": 0, "rental_uris": {"ios": "https://dc.lft.to/lastmile_qr_scan", "android": "https://dc.lft.to/lastmile_qr_scan"}, "bike_id": "d77fc93d51726e78044281691dedaef3", "lat": 38.897282833333335, "name": "d77fc93d51726e78044281691dedaef3", "lon": -77.01917833333333, "fusion_lon": 0.0}, {"is_reserved": 0, "type": "electric_bike", "fusion_lat": 0.0, "is_disabled": 0, "rental_uris": {"ios": "https://dc.lft.to/lastmile_qr_scan", "android": "https://dc.lft.to/lastmile_qr_scan"}, "bike_id": "2bc7f415df4195b00a078f212e4ecfb4", "lat": 38.8601, "name": "2bc7f415df4195b00a078f212e4ecfb4", "lon": -77.0652975, "fusion_lon": 0.0}, {"is_reserved": 0, "type": "electric_scooter", "fusion_lat": 0.0, "is_disabled": 0, "rental_uris": {"ios": "https://dc.lft.to/lastmile_qr_scan", "android": "https://dc.lft.to/lastmile_qr_scan"}, "bike_id": "b19ab5646c0e03506303f9a21aefd558", "lat": 38.89669416666667, "name": "b19ab5646c0e03506303f9a21aefd558", "lon": -76.93209166666666, "fusion_lon": 0.0}, {"is_reserved": 0, "type": "electric_scooter", "fusion_lat": 0.0, "is_disabled": 0, "rental_uris": {"ios": "https://dc.lft.to/lastmile_qr_scan", "android": "https://dc.lft.to/lastmile_qr_scan"}, "bike_id": "24b5a8aea346e284f2c566f07ce95d3c", "lat": 38.87210233333333, "name": "24b5a8aea346e284f2c566f07ce95d3c", "lon": -76.97836783333334, "fusion_lon": 0.0}, {"is_reserved": 0, "type": "electric_scooter", "fusion_lat": 0.0, "is_disabled": 0, "rental_uris": {"ios": "https://dc.lft.to/lastmile_qr_scan", "android": "https://dc.lft.to/lastmile_qr_scan"}, "bike_id": "5d13bdbdac6928399bc5c77b3293a21c", "lat": 38.934793, "name": "5d13bdbdac6928399bc5c77b3293a21c", "lon": -77.03579166666667, "fusion_lon": 0.0}, {"is_reserved": 0, "type": "electric_scooter", "fusion_lat": 0.0, "is_disabled": 0, "rental_uris": {"ios": "https://dc.lft.to/lastmile_qr_scan", "android": "https://dc.lft.to/lastmile_qr_scan"}, "bike_id": "3d996c409cc8467372633399a95b1506", "lat": 38.9162285, "name": "3d996c409cc8467372633399a95b1506", "lon": -77.00501416666667, "fusion_lon": 0.0}, {"is_reserved": 0, "type": "electric_bike", "fusion_lat": 0.0, "is_disabled": 0, "rental_uris": {"ios": "https://dc.lft.to/lastmile_qr_scan", "android": "https://dc.lft.to/lastmile_qr_scan"}, "bike_id": "abd73b74d880b8ff6cd62e993a661046", "lat": 38.971557, "name": "abd73b74d880b8ff6cd62e993a661046", "lon": -76.98363683333334, "fusion_lon": 0.0}, {"is_reserved": 0, "type": "electric_scooter", "fusion_lat": 0.0, "is_disabled": 0, "rental_uris": {"ios": "https://dc.lft.to/lastmile_qr_scan", "android": "https://dc.lft.to/lastmile_qr_scan"}, "bike_id": "8b469bccb2e41a94188bdb76717c5b0d", "lat": 38.902318333333334, "name": "8b469bccb2e41a94188bdb76717c5b0d", "lon": -77.01634283333334, "fusion_lon": 0.0}, {"is_reserved": 0, "type": "electric_scooter", "fusion_lat": 0.0, "is_disabled": 0, "rental_uris": {"ios": "https://dc.lft.to/lastmile_qr_scan", "android": "https://dc.lft.to/lastmile_qr_scan"}, "bike_id": "6893a2518db95af9c945d1d2062f6cbc", "lat": 38.89931966666666, "name": "6893a2518db95af9c945d1d2062f6cbc", "lon": -77.00360783333333, "fusion_lon": 0.0}, {"is_reserved": 0, "type": "electric_bike", "fusion_lat": 0.0, "is_disabled": 0, "rental_uris": {"ios": "https://dc.lft.to/lastmile_qr_scan", "android": "https://dc.lft.to/lastmile_qr_scan"}, "bike_id": "437669a1f035af37b460930a86284c99", "lat": 38.926489833333335, "name": "437669a1f035af37b460930a86284c99", "lon": -77.0901845, "fusion_lon": 0.0}, {"is_reserved": 0, "type": "electric_scooter", "fusion_lat": 0.0, "is_disabled": 0, "rental_uris": {"ios": "https://dc.lft.to/lastmile_qr_scan", "android": "https://dc.lft.to/lastmile_qr_scan"}, "bike_id": "5a9d2f23d44441248e66e0775a133ae0", "lat": 38.92333283333333, "name": "5a9d2f23d44441248e66e0775a133ae0", "lon": -77.02810416666667, "fusion_lon": 0.0}, {"is_reserved": 0, "type": "electric_scooter", "fusion_lat": 0.0, "is_disabled": 0, "rental_uris": {"ios": "https://dc.lft.to/lastmile_qr_scan", "android": "https://dc.lft.to/lastmile_qr_scan"}, "bike_id": "78e85410f1d513db36b538a0eb9cc41d", "lat": 38.9393415, "name": "78e85410f1d513db36b538a0eb9cc41d", "lon": -77.025935, "fusion_lon": 0.0}, {"is_reserved": 0, "type": "electric_scooter", "fusion_lat": 0.0, "is_disabled": 0, "rental_uris": {"ios": "https://dc.lft.to/lastmile_qr_scan", "android": "https://dc.lft.to/lastmile_qr_scan"}, "bike_id": "f8933de7014b4d1beee5fb59091db7d3", "lat": 38.903459166666664, "name": "f8933de7014b4d1beee5fb59091db7d3", "lon": -76.9748925, "fusion_lon": 0.0}, {"is_reserved": 0, "type": "electric_scooter", "fusion_lat": 0.0, "is_disabled": 0, "rental_uris": {"ios": "https://dc.lft.to/lastmile_qr_scan", "android": "https://dc.lft.to/lastmile_qr_scan"}, "bike_id": "1a51bdb0a94708e4b0024a978172f1fe", "lat": 38.916478, "name": "1a51bdb0a94708e4b0024a978172f1fe", "lon": -77.048081, "fusion_lon": 0.0}, {"is_reserved": 0, "type": "electric_scooter", "fusion_lat": 0.0, "is_disabled": 0, "rental_uris": {"ios": "https://dc.lft.to/lastmile_qr_scan", "android": "https://dc.lft.to/lastmile_qr_scan"}, "bike_id": "54146889054a6f3ac9c29aa396fb71ca", "lat": 38.927640333333336, "name": "54146889054a6f3ac9c29aa396fb71ca", "lon": -77.02783433333333, "fusion_lon": 0.0}, {"is_reserved": 0, "type": "electric_scooter", "fusion_lat": 0.0, "is_disabled": 0, "rental_uris": {"ios": "https://dc.lft.to/lastmile_qr_scan", "android": "https://dc.lft.to/lastmile_qr_scan"}, "bike_id": "7046665d0b3aee1220151f07318c672b", "lat": 38.902403166666666, "name": "7046665d0b3aee1220151f07318c672b", "lon": -77.02783966666667, "fusion_lon": 0.0}, {"is_reserved": 0, "type": "electric_scooter", "fusion_lat": 0.0, "is_disabled": 0, "rental_uris": {"ios": "https://dc.lft.to/lastmile_qr_scan", "android": "https://dc.lft.to/lastmile_qr_scan"}, "bike_id": "483ff755dd45f5b97ee64e52ebee6ebf", "lat": 38.9231575, "name": "483ff755dd45f5b97ee64e52ebee6ebf", "lon": -77.04515616666667, "fusion_lon": 0.0}, {"is_reserved": 0, "type": "electric_scooter", "fusion_lat": 0.0, "is_disabled": 0, "rental_uris": {"ios": "https://dc.lft.to/lastmile_qr_scan", "android": "https://dc.lft.to/lastmile_qr_scan"}, "bike_id": "577c179d8d10df1710054355c9937bf1", "lat": 38.9185975, "name": "577c179d8d10df1710054355c9937bf1", "lon": -77.02604933333333, "fusion_lon": 0.0}, {"is_reserved": 0, "type": "electric_scooter", "fusion_lat": 0.0, "is_disabled": 0, "rental_uris": {"ios": "https://dc.lft.to/lastmile_qr_scan", "android": "https://dc.lft.to/lastmile_qr_scan"}, "bike_id": "83679b68ad591a39f7f0527dd67252c1", "lat": 38.921065166666665, "name": "83679b68ad591a39f7f0527dd67252c1", "lon": -77.03045483333334, "fusion_lon": 0.0}, {"is_reserved": 0, "type": "electric_scooter", "fusion_lat": 0.0, "is_disabled": 0, "rental_uris": {"ios": "https://dc.lft.to/lastmile_qr_scan", "android": "https://dc.lft.to/lastmile_qr_scan"}, "bike_id": "7705f9c2603e2342afb8e521cc7dedca", "lat": 38.915039, "name": "7705f9c2603e2342afb8e521cc7dedca", "lon": -77.0321505, "fusion_lon": 0.0}, {"is_reserved": 0, "type": "electric_bike", "fusion_lat": 0.0, "is_disabled": 0, "rental_uris": {"ios": "https://dc.lft.to/lastmile_qr_scan", "android": "https://dc.lft.to/lastmile_qr_scan"}, "bike_id": "bce4f4b708e511f8779b9279abf47f4d", "lat": 38.92565333333334, "name": "bce4f4b708e511f8779b9279abf47f4d", "lon": -77.040329, "fusion_lon": 0.0}, {"is_reserved": 0, "type": "electric_scooter", "fusion_lat": 0.0, "is_disabled": 0, "rental_uris": {"ios": "https://dc.lft.to/lastmile_qr_scan", "android": "https://dc.lft.to/lastmile_qr_scan"}, "bike_id": "890a817c6693bcd6dac97273cb7809de", "lat": 38.90960166666667, "name": "890a817c6693bcd6dac97273cb7809de", "lon": -77.02208866666666, "fusion_lon": 0.0}, {"is_reserved": 0, "type": "electric_scooter", "fusion_lat": 0.0, "is_disabled": 0, "rental_uris": {"ios": "https://dc.lft.to/lastmile_qr_scan", "android": "https://dc.lft.to/lastmile_qr_scan"}, "bike_id": "7ed97f54e9eaa442c09ecccbc966a084", "lat": 38.91823866666667, "name": "7ed97f54e9eaa442c09ecccbc966a084", "lon": -77.02421866666667, "fusion_lon": 0.0}, {"is_reserved": 0, "type": "electric_scooter", "fusion_lat": 0.0, "is_disabled": 0, "rental_uris": {"ios": "https://dc.lft.to/lastmile_qr_scan", "android": "https://dc.lft.to/lastmile_qr_scan"}, "bike_id": "2c0b7eb2f74f8f713607b187a06d0eb6", "lat": 38.92750433333333, "name": "2c0b7eb2f74f8f713607b187a06d0eb6", "lon": -77.02621933333333, "fusion_lon": 0.0}, {"is_reserved": 0, "type": "electric_scooter", "fusion_lat": 0.0, "is_disabled": 0, "rental_uris": {"ios": "https://dc.lft.to/lastmile_qr_scan", "android": "https://dc.lft.to/lastmile_qr_scan"}, "bike_id": "b71bdc6104ca835c374d5266cb5ae607", "lat": 38.9231995, "name": "b71bdc6104ca835c374d5266cb5ae607", "lon": -77.01951966666667, "fusion_lon": 0.0}, {"is_reserved": 0, "type": "electric_scooter", "fusion_lat": 0.0, "is_disabled": 0, "rental_uris": {"ios": "https://dc.lft.to/lastmile_qr_scan", "android": "https://dc.lft.to/lastmile_qr_scan"}, "bike_id": "cbf5327e58c6640db5764922cef36562", "lat": 38.914841333333335, "name": "cbf5327e58c6640db5764922cef36562", "lon": -77.03433383333333, "fusion_lon": 0.0}, {"is_reserved": 0, "type": "electric_scooter", "fusion_lat": 0.0, "is_disabled": 0, "rental_uris": {"ios": "https://dc.lft.to/lastmile_qr_scan", "android": "https://dc.lft.to/lastmile_qr_scan"}, "bike_id": "84305e779aeee4b930463146a3ccb94e", "lat": 38.911415166666664, "name": "84305e779aeee4b930463146a3ccb94e", "lon": -77.015269, "fusion_lon": 0.0}, {"is_reserved": 0, "type": "electric_scooter", "fusion_lat": 0.0, "is_disabled": 0, "rental_uris": {"ios": "https://dc.lft.to/lastmile_qr_scan", "android": "https://dc.lft.to/lastmile_qr_scan"}, "bike_id": "3837f8a2beac971768173f1b6efc3ca2", "lat": 38.8919905, "name": "3837f8a2beac971768173f1b6efc3ca2", "lon": -77.01551066666667, "fusion_lon": 0.0}, {"is_reserved": 0, "type": "electric_scooter", "fusion_lat": 0.0, "is_disabled": 0, "rental_uris": {"ios": "https://dc.lft.to/lastmile_qr_scan", "android": "https://dc.lft.to/lastmile_qr_scan"}, "bike_id": "48a34510bf6eb0ae6d8f1a3a42dbaac9", "lat": 38.89997133333333, "name": "48a34510bf6eb0ae6d8f1a3a42dbaac9", "lon": -77.0525965, "fusion_lon": 0.0}, {"is_reserved": 0, "type": "electric_scooter", "fusion_lat": 0.0, "is_disabled": 0, "rental_uris": {"ios": "https://dc.lft.to/lastmile_qr_scan", "android": "https://dc.lft.to/lastmile_qr_scan"}, "bike_id": "65ce614d5b48e79e076e4ee02158cc31", "lat": 38.942251666666664, "name": "65ce614d5b48e79e076e4ee02158cc31", "lon": -77.01443216666667, "fusion_lon": 0.0}, {"is_reserved": 0, "type": "electric_scooter", "fusion_lat": 0.0, "is_disabled": 0, "rental_uris": {"ios": "https://dc.lft.to/lastmile_qr_scan", "android": "https://dc.lft.to/lastmile_qr_scan"}, "bike_id": "46573d736c3674a445cc593831862d12", "lat": 38.898437, "name": "46573d736c3674a445cc593831862d12", "lon": -76.92750116666667, "fusion_lon": 0.0}, {"is_reserved": 0, "type": "electric_bike", "fusion_lat": 0.0, "is_disabled": 0, "rental_uris": {"ios": "https://dc.lft.to/lastmile_qr_scan", "android": "https://dc.lft.to/lastmile_qr_scan"}, "bike_id": "7d13c5960d1b0c14d20de595822ed0fe", "lat": 38.90436916666667, "name": "7d13c5960d1b0c14d20de595822ed0fe", "lon": -76.97239766666667, "fusion_lon": 0.0}, {"is_reserved": 0, "type": "electric_scooter", "fusion_lat": 0.0, "is_disabled": 0, "rental_uris": {"ios": "https://dc.lft.to/lastmile_qr_scan", "android": "https://dc.lft.to/lastmile_qr_scan"}, "bike_id": "20bae3bbd6b849ea342f8ce44d262f06", "lat": 38.934406333333335, "name": "20bae3bbd6b849ea342f8ce44d262f06", "lon": -77.023993, "fusion_lon": 0.0}, {"is_reserved": 0, "type": "electric_scooter", "fusion_lat": 0.0, "is_disabled": 0, "rental_uris": {"ios": "https://dc.lft.to/lastmile_qr_scan", "android": "https://dc.lft.to/lastmile_qr_scan"}, "bike_id": "88d086c74f409cd5d9fbf0ec64efa20e", "lat": 38.90981516666667, "name": "88d086c74f409cd5d9fbf0ec64efa20e", "lon": -77.06495616666666, "fusion_lon": 0.0}, {"is_reserved": 0, "type": "electric_bike", "fusion_lat": 0.0, "is_disabled": 0, "rental_uris": {"ios": "https://dc.lft.to/lastmile_qr_scan", "android": "https://dc.lft.to/lastmile_qr_scan"}, "bike_id": "0199b314bfa3e89d464c2973b982f800", "lat": 38.832995333333336, "name": "0199b314bfa3e89d464c2973b982f800", "lon": -77.08410933333333, "fusion_lon": 0.0}, {"is_reserved": 0, "type": "electric_scooter", "fusion_lat": 0.0, "is_disabled": 0, "rental_uris": {"ios": "https://dc.lft.to/lastmile_qr_scan", "android": "https://dc.lft.to/lastmile_qr_scan"}, "bike_id": "78debb29faed423805af78a74b1764d7", "lat": 38.95184616666667, "name": "78debb29faed423805af78a74b1764d7", "lon": -77.02612466666666, "fusion_lon": 0.0}, {"is_reserved": 0, "type": "electric_scooter", "fusion_lat": 0.0, "is_disabled": 0, "rental_uris": {"ios": "https://dc.lft.to/lastmile_qr_scan", "android": "https://dc.lft.to/lastmile_qr_scan"}, "bike_id": "2357e21b1d8c6d574c6bcfafda38098e", "lat": 38.90300633333333, "name": "2357e21b1d8c6d574c6bcfafda38098e", "lon": -77.0281915, "fusion_lon": 0.0}, {"is_reserved": 0, "type": "electric_scooter", "fusion_lat": 0.0, "is_disabled": 0, "rental_uris": {"ios": "https://dc.lft.to/lastmile_qr_scan", "android": "https://dc.lft.to/lastmile_qr_scan"}, "bike_id": "655f9d02df2ec9c5b6839756b5893030", "lat": 38.917381, "name": "655f9d02df2ec9c5b6839756b5893030", "lon": -77.02120066666667, "fusion_lon": 0.0}, {"is_reserved": 0, "type": "electric_scooter", "fusion_lat": 0.0, "is_disabled": 0, "rental_uris": {"ios": "https://dc.lft.to/lastmile_qr_scan", "android": "https://dc.lft.to/lastmile_qr_scan"}, "bike_id": "848a7808118dd7426a94bb9a43b95e2d", "lat": 38.90727616666667, "name": "848a7808118dd7426a94bb9a43b95e2d", "lon": -77.00363733333333, "fusion_lon": 0.0}, {"is_reserved": 0, "type": "electric_bike", "fusion_lat": 0.0, "is_disabled": 0, "rental_uris": {"ios": "https://dc.lft.to/lastmile_qr_scan", "android": "https://dc.lft.to/lastmile_qr_scan"}, "bike_id": "c3a0fb34d94b7fb78130a44333cc4007", "lat": 38.933883333333334, "name": "c3a0fb34d94b7fb78130a44333cc4007", "lon": -77.02398433333333, "fusion_lon": 0.0}, {"is_reserved": 0, "type": "electric_scooter", "fusion_lat": 0.0, "is_disabled": 0, "rental_uris": {"ios": "https://dc.lft.to/lastmile_qr_scan", "android": "https://dc.lft.to/lastmile_qr_scan"}, "bike_id": "1ed2735f954f02a7705bfdf4c4b8b386", "lat": 38.919879333333334, "name": "1ed2735f954f02a7705bfdf4c4b8b386", "lon": -77.04156433333333, "fusion_lon": 0.0}, {"is_reserved": 0, "type": "electric_scooter", "fusion_lat": 0.0, "is_disabled": 0, "rental_uris": {"ios": "https://dc.lft.to/lastmile_qr_scan", "android": "https://dc.lft.to/lastmile_qr_scan"}, "bike_id": "80e5d004f4327cac7cb58c2f6b0d692b", "lat": 38.967972, "name": "80e5d004f4327cac7cb58c2f6b0d692b", "lon": -77.02559483333333, "fusion_lon": 0.0}, {"is_reserved": 0, "type": "electric_bike", "fusion_lat": 0.0, "is_disabled": 0, "rental_uris": {"ios": "https://dc.lft.to/lastmile_qr_scan", "android": "https://dc.lft.to/lastmile_qr_scan"}, "bike_id": "1d857193f7b97e5ec21311c30ecee451", "lat": 38.95015866666667, "name": "1d857193f7b97e5ec21311c30ecee451", "lon": -77.0142945, "fusion_lon": 0.0}, {"is_reserved": 0, "type": "electric_scooter", "fusion_lat": 0.0, "is_disabled": 0, "rental_uris": {"ios": "https://dc.lft.to/lastmile_qr_scan", "android": "https://dc.lft.to/lastmile_qr_scan"}, "bike_id": "d28c1bbf63b309db299d5c7323998188", "lat": 38.90485916666667, "name": "d28c1bbf63b309db299d5c7323998188", "lon": -76.949608, "fusion_lon": 0.0}, {"is_reserved": 0, "type": "electric_scooter", "fusion_lat": 0.0, "is_disabled": 0, "rental_uris": {"ios": "https://dc.lft.to/lastmile_qr_scan", "android": "https://dc.lft.to/lastmile_qr_scan"}, "bike_id": "a85b639e5dc9d37c35c1f0e478463043", "lat": 38.9245865, "name": "a85b639e5dc9d37c35c1f0e478463043", "lon": -77.052322, "fusion_lon": 0.0}, {"is_reserved": 0, "type": "electric_scooter", "fusion_lat": 0.0, "is_disabled": 0, "rental_uris": {"ios": "https://dc.lft.to/lastmile_qr_scan", "android": "https://dc.lft.to/lastmile_qr_scan"}, "bike_id": "09b5ccbddcd832cea10d0de439a48ade", "lat": 38.902873666666665, "name": "09b5ccbddcd832cea10d0de439a48ade", "lon": -77.048798, "fusion_lon": 0.0}, {"is_reserved": 0, "type": "electric_scooter", "fusion_lat": 0.0, "is_disabled": 0, "rental_uris": {"ios": "https://dc.lft.to/lastmile_qr_scan", "android": "https://dc.lft.to/lastmile_qr_scan"}, "bike_id": "c02e48f170549eba09a93f56677864bd", "lat": 38.92755833333333, "name": "c02e48f170549eba09a93f56677864bd", "lon": -77.03266633333334, "fusion_lon": 0.0}, {"is_reserved": 0, "type": "electric_scooter", "fusion_lat": 0.0, "is_disabled": 0, "rental_uris": {"ios": "https://dc.lft.to/lastmile_qr_scan", "android": "https://dc.lft.to/lastmile_qr_scan"}, "bike_id": "5ed3f52d66d81d1fa6d91dec02df201c", "lat": 38.90579683333333, "name": "5ed3f52d66d81d1fa6d91dec02df201c", "lon": -77.02990683333333, "fusion_lon": 0.0}, {"is_reserved": 0, "type": "electric_scooter", "fusion_lat": 0.0, "is_disabled": 0, "rental_uris": {"ios": "https://dc.lft.to/lastmile_qr_scan", "android": "https://dc.lft.to/lastmile_qr_scan"}, "bike_id": "a5ae57da9aa539240f551f3336dcfb57", "lat": 38.90278883333333, "name": "a5ae57da9aa539240f551f3336dcfb57", "lon": -77.041794, "fusion_lon": 0.0}, {"is_reserved": 0, "type": "electric_scooter", "fusion_lat": 0.0, "is_disabled": 0, "rental_uris": {"ios": "https://dc.lft.to/lastmile_qr_scan", "android": "https://dc.lft.to/lastmile_qr_scan"}, "bike_id": "b0188c2e634ce9021e6f2b4f2f0a9d76", "lat": 38.953768, "name": "b0188c2e634ce9021e6f2b4f2f0a9d76", "lon": -77.00189183333333, "fusion_lon": 0.0}, {"is_reserved": 0, "type": "electric_scooter", "fusion_lat": 0.0, "is_disabled": 0, "rental_uris": {"ios": "https://dc.lft.to/lastmile_qr_scan", "android": "https://dc.lft.to/lastmile_qr_scan"}, "bike_id": "c92bd5e1664582fce32aa925249a17ec", "lat": 38.913641, "name": "c92bd5e1664582fce32aa925249a17ec", "lon": -77.04489833333334, "fusion_lon": 0.0}, {"is_reserved": 0, "type": "electric_scooter", "fusion_lat": 0.0, "is_disabled": 0, "rental_uris": {"ios": "https://dc.lft.to/lastmile_qr_scan", "android": "https://dc.lft.to/lastmile_qr_scan"}, "bike_id": "563a988daf33e1c6805c8d0ee6dd1c67", "lat": 38.912691333333335, "name": "563a988daf33e1c6805c8d0ee6dd1c67", "lon": -77.0143675, "fusion_lon": 0.0}, {"is_reserved": 0, "type": "electric_scooter", "fusion_lat": 0.0, "is_disabled": 0, "rental_uris": {"ios": "https://dc.lft.to/lastmile_qr_scan", "android": "https://dc.lft.to/lastmile_qr_scan"}, "bike_id": "a3a0fee00d968a25cc46b20997327d3b", "lat": 38.944508, "name": "a3a0fee00d968a25cc46b20997327d3b", "lon": -77.03279016666667, "fusion_lon": 0.0}, {"is_reserved": 0, "type": "electric_scooter", "fusion_lat": 0.0, "is_disabled": 0, "rental_uris": {"ios": "https://dc.lft.to/lastmile_qr_scan", "android": "https://dc.lft.to/lastmile_qr_scan"}, "bike_id": "b5de0e8dc19c14a109bd3a001e882a5b", "lat": 38.928736666666666, "name": "b5de0e8dc19c14a109bd3a001e882a5b", "lon": -77.0399835, "fusion_lon": 0.0}, {"is_reserved": 0, "type": "electric_scooter", "fusion_lat": 0.0, "is_disabled": 0, "rental_uris": {"ios": "https://dc.lft.to/lastmile_qr_scan", "android": "https://dc.lft.to/lastmile_qr_scan"}, "bike_id": "95404312d5db5e9b92aae6633da0fe82", "lat": 38.89319666666667, "name": "95404312d5db5e9b92aae6633da0fe82", "lon": -77.02015383333334, "fusion_lon": 0.0}, {"is_reserved": 0, "type": "electric_scooter", "fusion_lat": 0.0, "is_disabled": 0, "rental_uris": {"ios": "https://dc.lft.to/lastmile_qr_scan", "android": "https://dc.lft.to/lastmile_qr_scan"}, "bike_id": "f72a58bbc789a477d3a7ea1c380cb2d3", "lat": 38.90478983333333, "name": "f72a58bbc789a477d3a7ea1c380cb2d3", "lon": -77.02728083333334, "fusion_lon": 0.0}, {"is_reserved": 0, "type": "electric_scooter", "fusion_lat": 0.0, "is_disabled": 0, "rental_uris": {"ios": "https://dc.lft.to/lastmile_qr_scan", "android": "https://dc.lft.to/lastmile_qr_scan"}, "bike_id": "c7e347ff4b76a3e0ac77d6b58489d7cb", "lat": 38.892218666666665, "name": "c7e347ff4b76a3e0ac77d6b58489d7cb", "lon": -77.04488233333333, "fusion_lon": 0.0}, {"is_reserved": 0, "type": "electric_bike", "fusion_lat": 0.0, "is_disabled": 0, "rental_uris": {"ios": "https://dc.lft.to/lastmile_qr_scan", "android": "https://dc.lft.to/lastmile_qr_scan"}, "bike_id": "68e9492dcc7e801654471381d8bcd250", "lat": 38.868222833333334, "name": "68e9492dcc7e801654471381d8bcd250", "lon": -76.98022083333333, "fusion_lon": 0.0}, {"is_reserved": 0, "type": "electric_scooter", "fusion_lat": 0.0, "is_disabled": 0, "rental_uris": {"ios": "https://dc.lft.to/lastmile_qr_scan", "android": "https://dc.lft.to/lastmile_qr_scan"}, "bike_id": "c89f6387d55eebd2949ff464aadd2a39", "lat": 38.95151033333333, "name": "c89f6387d55eebd2949ff464aadd2a39", "lon": -77.018668, "fusion_lon": 0.0}, {"is_reserved": 0, "type": "electric_scooter", "fusion_lat": 0.0, "is_disabled": 0, "rental_uris": {"ios": "https://dc.lft.to/lastmile_qr_scan", "android": "https://dc.lft.to/lastmile_qr_scan"}, "bike_id": "ce894ab3e93ed6819c414b3e580c98f2", "lat": 38.9195355, "name": "ce894ab3e93ed6819c414b3e580c98f2", "lon": -77.02305083333333, "fusion_lon": 0.0}, {"is_reserved": 0, "type": "electric_scooter", "fusion_lat": 0.0, "is_disabled": 0, "rental_uris": {"ios": "https://dc.lft.to/lastmile_qr_scan", "android": "https://dc.lft.to/lastmile_qr_scan"}, "bike_id": "f9d94513aca5dcd7b69b95897341de0b", "lat": 38.90361333333333, "name": "f9d94513aca5dcd7b69b95897341de0b", "lon": -77.0098915, "fusion_lon": 0.0}, {"is_reserved": 0, "type": "electric_scooter", "fusion_lat": 0.0, "is_disabled": 0, "rental_uris": {"ios": "https://dc.lft.to/lastmile_qr_scan", "android": "https://dc.lft.to/lastmile_qr_scan"}, "bike_id": "893b2979aed52f66f2e1f036f0abbf04", "lat": 38.90269816666667, "name": "893b2979aed52f66f2e1f036f0abbf04", "lon": -77.02010433333334, "fusion_lon": 0.0}, {"is_reserved": 0, "type": "electric_scooter", "fusion_lat": 0.0, "is_disabled": 0, "rental_uris": {"ios": "https://dc.lft.to/lastmile_qr_scan", "android": "https://dc.lft.to/lastmile_qr_scan"}, "bike_id": "c394063c5261f0294291f5bccfe4e843", "lat": 38.917706, "name": "c394063c5261f0294291f5bccfe4e843", "lon": -77.04752033333334, "fusion_lon": 0.0}, {"is_reserved": 0, "type": "electric_scooter", "fusion_lat": 0.0, "is_disabled": 0, "rental_uris": {"ios": "https://dc.lft.to/lastmile_qr_scan", "android": "https://dc.lft.to/lastmile_qr_scan"}, "bike_id": "a421429c64881c55c45ad4af1f9cca1a", "lat": 38.9076015, "name": "a421429c64881c55c45ad4af1f9cca1a", "lon": -77.01909266666667, "fusion_lon": 0.0}, {"is_reserved": 0, "type": "electric_scooter", "fusion_lat": 0.0, "is_disabled": 0, "rental_uris": {"ios": "https://dc.lft.to/lastmile_qr_scan", "android": "https://dc.lft.to/lastmile_qr_scan"}, "bike_id": "f61187a778f2c6d858b27a2aec1ec583", "lat": 38.917176166666664, "name": "f61187a778f2c6d858b27a2aec1ec583", "lon": -77.03454583333334, "fusion_lon": 0.0}, {"is_reserved": 0, "type": "electric_scooter", "fusion_lat": 0.0, "is_disabled": 0, "rental_uris": {"ios": "https://dc.lft.to/lastmile_qr_scan", "android": "https://dc.lft.to/lastmile_qr_scan"}, "bike_id": "361c8331aba90c7e4d59ae8586ae2f4e", "lat": 38.923517833333335, "name": "361c8331aba90c7e4d59ae8586ae2f4e", "lon": -77.03311566666666, "fusion_lon": 0.0}, {"is_reserved": 0, "type": "electric_scooter", "fusion_lat": 0.0, "is_disabled": 0, "rental_uris": {"ios": "https://dc.lft.to/lastmile_qr_scan", "android": "https://dc.lft.to/lastmile_qr_scan"}, "bike_id": "2d2d59d4207770f3399b0b928d9bd542", "lat": 38.91239866666667, "name": "2d2d59d4207770f3399b0b928d9bd542", "lon": -77.0385755, "fusion_lon": 0.0}, {"is_reserved": 0, "type": "electric_scooter", "fusion_lat": 0.0, "is_disabled": 0, "rental_uris": {"ios": "https://dc.lft.to/lastmile_qr_scan", "android": "https://dc.lft.to/lastmile_qr_scan"}, "bike_id": "55aa4358a9cf7a96fac0c37c06c19ab5", "lat": 38.927997166666664, "name": "55aa4358a9cf7a96fac0c37c06c19ab5", "lon": -77.02391616666667, "fusion_lon": 0.0}, {"is_reserved": 0, "type": "electric_bike", "fusion_lat": 0.0, "is_disabled": 0, "rental_uris": {"ios": "https://dc.lft.to/lastmile_qr_scan", "android": "https://dc.lft.to/lastmile_qr_scan"}, "bike_id": "2657c1e241a2d44719c1853a6ab4b7e5", "lat": 38.88373216666667, "name": "2657c1e241a2d44719c1853a6ab4b7e5", "lon": -76.92370633333333, "fusion_lon": 0.0}, {"is_reserved": 0, "type": "electric_bike", "fusion_lat": 0.0, "is_disabled": 0, "rental_uris": {"ios": "https://dc.lft.to/lastmile_qr_scan", "android": "https://dc.lft.to/lastmile_qr_scan"}, "bike_id": "e33be456bbf4f98689eb42caa29f6ee2", "lat": 39.0843695, "name": "e33be456bbf4f98689eb42caa29f6ee2", "lon": -76.95140583333334, "fusion_lon": 0.0}, {"is_reserved": 0, "type": "electric_scooter", "fusion_lat": 0.0, "is_disabled": 0, "rental_uris": {"ios": "https://dc.lft.to/lastmile_qr_scan", "android": "https://dc.lft.to/lastmile_qr_scan"}, "bike_id": "8e6eed672ed94cc59d55f7ed7fa8c11d", "lat": 38.90110766666667, "name": "8e6eed672ed94cc59d55f7ed7fa8c11d", "lon": -77.0514665, "fusion_lon": 0.0}, {"is_reserved": 0, "type": "electric_scooter", "fusion_lat": 0.0, "is_disabled": 0, "rental_uris": {"ios": "https://dc.lft.to/lastmile_qr_scan", "android": "https://dc.lft.to/lastmile_qr_scan"}, "bike_id": "0014aa5f2b32306847ae8ae12b6d3907", "lat": 38.926794666666666, "name": "0014aa5f2b32306847ae8ae12b6d3907", "lon": -77.00885016666666, "fusion_lon": 0.0}, {"is_reserved": 0, "type": "electric_scooter", "fusion_lat": 0.0, "is_disabled": 0, "rental_uris": {"ios": "https://dc.lft.to/lastmile_qr_scan", "android": "https://dc.lft.to/lastmile_qr_scan"}, "bike_id": "0e2efb8aa5589a19103d77ab7457bacf", "lat": 38.92418883333333, "name": "0e2efb8aa5589a19103d77ab7457bacf", "lon": -77.01950383333333, "fusion_lon": 0.0}, {"is_reserved": 0, "type": "electric_scooter", "fusion_lat": 0.0, "is_disabled": 0, "rental_uris": {"ios": "https://dc.lft.to/lastmile_qr_scan", "android": "https://dc.lft.to/lastmile_qr_scan"}, "bike_id": "c427d44763073e8f1541a11c4a74ea59", "lat": 38.931598666666666, "name": "c427d44763073e8f1541a11c4a74ea59", "lon": -77.05610916666667, "fusion_lon": 0.0}, {"is_reserved": 0, "type": "electric_scooter", "fusion_lat": 0.0, "is_disabled": 0, "rental_uris": {"ios": "https://dc.lft.to/lastmile_qr_scan", "android": "https://dc.lft.to/lastmile_qr_scan"}, "bike_id": "db1ebb935c14b0fb976b9d54ba0db67a", "lat": 38.907347333333334, "name": "db1ebb935c14b0fb976b9d54ba0db67a", "lon": -77.0451825, "fusion_lon": 0.0}, {"is_reserved": 0, "type": "electric_scooter", "fusion_lat": 0.0, "is_disabled": 0, "rental_uris": {"ios": "https://dc.lft.to/lastmile_qr_scan", "android": "https://dc.lft.to/lastmile_qr_scan"}, "bike_id": "aabe07c19eceaed9c34a4a4061c5ea9b", "lat": 38.88398466666666, "name": "aabe07c19eceaed9c34a4a4061c5ea9b", "lon": -76.930433, "fusion_lon": 0.0}, {"is_reserved": 0, "type": "electric_scooter", "fusion_lat": 0.0, "is_disabled": 0, "rental_uris": {"ios": "https://dc.lft.to/lastmile_qr_scan", "android": "https://dc.lft.to/lastmile_qr_scan"}, "bike_id": "90fcde4828821bfae24428f5d299f8b9", "lat": 38.9038335, "name": "90fcde4828821bfae24428f5d299f8b9", "lon": -77.05085583333333, "fusion_lon": 0.0}, {"is_reserved": 0, "type": "electric_scooter", "fusion_lat": 0.0, "is_disabled": 0, "rental_uris": {"ios": "https://dc.lft.to/lastmile_qr_scan", "android": "https://dc.lft.to/lastmile_qr_scan"}, "bike_id": "d0b429ad8e6ce6be2ac7740fde0cbd3d", "lat": 38.92364966666667, "name": "d0b429ad8e6ce6be2ac7740fde0cbd3d", "lon": -77.02979733333333, "fusion_lon": 0.0}, {"is_reserved": 0, "type": "electric_scooter", "fusion_lat": 0.0, "is_disabled": 0, "rental_uris": {"ios": "https://dc.lft.to/lastmile_qr_scan", "android": "https://dc.lft.to/lastmile_qr_scan"}, "bike_id": "daa9aab429132e768083033861a20df6", "lat": 38.90364433333333, "name": "daa9aab429132e768083033861a20df6", "lon": -77.00573983333334, "fusion_lon": 0.0}, {"is_reserved": 0, "type": "electric_scooter", "fusion_lat": 0.0, "is_disabled": 0, "rental_uris": {"ios": "https://dc.lft.to/lastmile_qr_scan", "android": "https://dc.lft.to/lastmile_qr_scan"}, "bike_id": "a8797765669b827c04240b236adb060e", "lat": 38.90673133333333, "name": "a8797765669b827c04240b236adb060e", "lon": -77.027008, "fusion_lon": 0.0}, {"is_reserved": 0, "type": "electric_bike", "fusion_lat": 0.0, "is_disabled": 0, "rental_uris": {"ios": "https://dc.lft.to/lastmile_qr_scan", "android": "https://dc.lft.to/lastmile_qr_scan"}, "bike_id": "6e47429b7cb2dd06f19cf664e5ee93be", "lat": 38.85786133333333, "name": "6e47429b7cb2dd06f19cf664e5ee93be", "lon": -77.09964266666667, "fusion_lon": 0.0}, {"is_reserved": 0, "type": "electric_scooter", "fusion_lat": 0.0, "is_disabled": 0, "rental_uris": {"ios": "https://dc.lft.to/lastmile_qr_scan", "android": "https://dc.lft.to/lastmile_qr_scan"}, "bike_id": "209fdc415fea6c74ad04d02785bcd329", "lat": 38.8985345, "name": "209fdc415fea6c74ad04d02785bcd329", "lon": -76.99037016666666, "fusion_lon": 0.0}, {"is_reserved": 0, "type": "electric_scooter", "fusion_lat": 0.0, "is_disabled": 0, "rental_uris": {"ios": "https://dc.lft.to/lastmile_qr_scan", "android": "https://dc.lft.to/lastmile_qr_scan"}, "bike_id": "2d51d5ed0dc33784db220c617f6fabe7", "lat": 38.896671, "name": "2d51d5ed0dc33784db220c617f6fabe7", "lon": -76.93216483333333, "fusion_lon": 0.0}, {"is_reserved": 0, "type": "electric_scooter", "fusion_lat": 0.0, "is_disabled": 0, "rental_uris": {"ios": "https://dc.lft.to/lastmile_qr_scan", "android": "https://dc.lft.to/lastmile_qr_scan"}, "bike_id": "247def49e6c81f0710d26129ad786697", "lat": 38.900143666666665, "name": "247def49e6c81f0710d26129ad786697", "lon": -77.00677983333334, "fusion_lon": 0.0}, {"is_reserved": 0, "type": "electric_scooter", "fusion_lat": 0.0, "is_disabled": 0, "rental_uris": {"ios": "https://dc.lft.to/lastmile_qr_scan", "android": "https://dc.lft.to/lastmile_qr_scan"}, "bike_id": "edbbf9f0c17eb7320c9c5707e380669a", "lat": 38.91901683333333, "name": "edbbf9f0c17eb7320c9c5707e380669a", "lon": -77.00048166666667, "fusion_lon": 0.0}, {"is_reserved": 0, "type": "electric_scooter", "fusion_lat": 0.0, "is_disabled": 0, "rental_uris": {"ios": "https://dc.lft.to/lastmile_qr_scan", "android": "https://dc.lft.to/lastmile_qr_scan"}, "bike_id": "2ba286fd3a2a4b39642d8a30021df94a", "lat": 38.90135216666667, "name": "2ba286fd3a2a4b39642d8a30021df94a", "lon": -77.0418865, "fusion_lon": 0.0}, {"is_reserved": 0, "type": "electric_scooter", "fusion_lat": 0.0, "is_disabled": 0, "rental_uris": {"ios": "https://dc.lft.to/lastmile_qr_scan", "android": "https://dc.lft.to/lastmile_qr_scan"}, "bike_id": "fd55ee342e09f83efed61f043de5663f", "lat": 38.91960183333333, "name": "fd55ee342e09f83efed61f043de5663f", "lon": -77.024268, "fusion_lon": 0.0}, {"is_reserved": 0, "type": "electric_scooter", "fusion_lat": 0.0, "is_disabled": 0, "rental_uris": {"ios": "https://dc.lft.to/lastmile_qr_scan", "android": "https://dc.lft.to/lastmile_qr_scan"}, "bike_id": "0cca0c3ed3abd1c74003dab1c12a0ce6", "lat": 38.92341166666667, "name": "0cca0c3ed3abd1c74003dab1c12a0ce6", "lon": -76.98492616666667, "fusion_lon": 0.0}, {"is_reserved": 0, "type": "electric_scooter", "fusion_lat": 0.0, "is_disabled": 0, "rental_uris": {"ios": "https://dc.lft.to/lastmile_qr_scan", "android": "https://dc.lft.to/lastmile_qr_scan"}, "bike_id": "d7ca8e884a8fb6cfc67b681808c0c5fc", "lat": 38.923526833333334, "name": "d7ca8e884a8fb6cfc67b681808c0c5fc", "lon": -77.03651616666667, "fusion_lon": 0.0}, {"is_reserved": 0, "type": "electric_bike", "fusion_lat": 0.0, "is_disabled": 0, "rental_uris": {"ios": "https://dc.lft.to/lastmile_qr_scan", "android": "https://dc.lft.to/lastmile_qr_scan"}, "bike_id": "d7a496ff829386df4f6c94e42aa01832", "lat": 38.86814966666667, "name": "d7a496ff829386df4f6c94e42aa01832", "lon": -76.98027116666667, "fusion_lon": 0.0}, {"is_reserved": 0, "type": "electric_scooter", "fusion_lat": 0.0, "is_disabled": 0, "rental_uris": {"ios": "https://dc.lft.to/lastmile_qr_scan", "android": "https://dc.lft.to/lastmile_qr_scan"}, "bike_id": "6bd6c54887bba80b03dec6e4c58cc552", "lat": 38.91667066666667, "name": "6bd6c54887bba80b03dec6e4c58cc552", "lon": -77.0269235, "fusion_lon": 0.0}, {"is_reserved": 0, "type": "electric_scooter", "fusion_lat": 0.0, "is_disabled": 0, "rental_uris": {"ios": "https://dc.lft.to/lastmile_qr_scan", "android": "https://dc.lft.to/lastmile_qr_scan"}, "bike_id": "b88e5e232cbe8d5cf42912fb7106ac1c", "lat": 38.943060333333335, "name": "b88e5e232cbe8d5cf42912fb7106ac1c", "lon": -77.02528416666667, "fusion_lon": 0.0}, {"is_reserved": 0, "type": "electric_scooter", "fusion_lat": 0.0, "is_disabled": 0, "rental_uris": {"ios": "https://dc.lft.to/lastmile_qr_scan", "android": "https://dc.lft.to/lastmile_qr_scan"}, "bike_id": "9f89c6b07203cd1e5ecf384c896d2491", "lat": 38.905447333333335, "name": "9f89c6b07203cd1e5ecf384c896d2491", "lon": -77.00593116666667, "fusion_lon": 0.0}, {"is_reserved": 0, "type": "electric_scooter", "fusion_lat": 0.0, "is_disabled": 0, "rental_uris": {"ios": "https://dc.lft.to/lastmile_qr_scan", "android": "https://dc.lft.to/lastmile_qr_scan"}, "bike_id": "1fb21a175300ec8bdb34a6005d6fe462", "lat": 38.92641, "name": "1fb21a175300ec8bdb34a6005d6fe462", "lon": -77.03843766666667, "fusion_lon": 0.0}, {"is_reserved": 0, "type": "electric_scooter", "fusion_lat": 0.0, "is_disabled": 0, "rental_uris": {"ios": "https://dc.lft.to/lastmile_qr_scan", "android": "https://dc.lft.to/lastmile_qr_scan"}, "bike_id": "250adc98b9b6973faf18174f7dbed7bb", "lat": 38.905697, "name": "250adc98b9b6973faf18174f7dbed7bb", "lon": -77.03116366666667, "fusion_lon": 0.0}, {"is_reserved": 0, "type": "electric_bike", "fusion_lat": 0.0, "is_disabled": 0, "rental_uris": {"ios": "https://dc.lft.to/lastmile_qr_scan", "android": "https://dc.lft.to/lastmile_qr_scan"}, "bike_id": "6f2235b6767f9971c9b3bb194d3a7a95", "lat": 39.00532416666667, "name": "6f2235b6767f9971c9b3bb194d3a7a95", "lon": -77.10402366666666, "fusion_lon": 0.0}, {"is_reserved": 0, "type": "electric_scooter", "fusion_lat": 0.0, "is_disabled": 0, "rental_uris": {"ios": "https://dc.lft.to/lastmile_qr_scan", "android": "https://dc.lft.to/lastmile_qr_scan"}, "bike_id": "c36b6815691923dfc742f2075024fef5", "lat": 38.92968466666667, "name": "c36b6815691923dfc742f2075024fef5", "lon": -77.02350133333333, "fusion_lon": 0.0}, {"is_reserved": 0, "type": "electric_scooter", "fusion_lat": 0.0, "is_disabled": 0, "rental_uris": {"ios": "https://dc.lft.to/lastmile_qr_scan", "android": "https://dc.lft.to/lastmile_qr_scan"}, "bike_id": "3090ba2b720f5598f0e2094292247129", "lat": 38.91470283333334, "name": "3090ba2b720f5598f0e2094292247129", "lon": -77.00924216666667, "fusion_lon": 0.0}, {"is_reserved": 0, "type": "electric_scooter", "fusion_lat": 0.0, "is_disabled": 0, "rental_uris": {"ios": "https://dc.lft.to/lastmile_qr_scan", "android": "https://dc.lft.to/lastmile_qr_scan"}, "bike_id": "8570ae966771a9d25d2b5c9f392b24fd", "lat": 38.898522666666665, "name": "8570ae966771a9d25d2b5c9f392b24fd", "lon": -76.99485933333334, "fusion_lon": 0.0}, {"is_reserved": 0, "type": "electric_scooter", "fusion_lat": 0.0, "is_disabled": 0, "rental_uris": {"ios": "https://dc.lft.to/lastmile_qr_scan", "android": "https://dc.lft.to/lastmile_qr_scan"}, "bike_id": "e404b6160f75c1b4b7aac77877e74e3e", "lat": 38.89782233333333, "name": "e404b6160f75c1b4b7aac77877e74e3e", "lon": -77.01215783333333, "fusion_lon": 0.0}, {"is_reserved": 0, "type": "electric_scooter", "fusion_lat": 0.0, "is_disabled": 0, "rental_uris": {"ios": "https://dc.lft.to/lastmile_qr_scan", "android": "https://dc.lft.to/lastmile_qr_scan"}, "bike_id": "9f00248f7fde654cb5318753b57d2948", "lat": 38.91459616666667, "name": "9f00248f7fde654cb5318753b57d2948", "lon": -77.02285983333333, "fusion_lon": 0.0}, {"is_reserved": 0, "type": "electric_bike", "fusion_lat": 0.0, "is_disabled": 0, "rental_uris": {"ios": "https://dc.lft.to/lastmile_qr_scan", "android": "https://dc.lft.to/lastmile_qr_scan"}, "bike_id": "c1f33d1c890b548ccb89c17d1a281f24", "lat": 38.8651475, "name": "c1f33d1c890b548ccb89c17d1a281f24", "lon": -76.97340216666667, "fusion_lon": 0.0}, {"is_reserved": 0, "type": "electric_scooter", "fusion_lat": 0.0, "is_disabled": 0, "rental_uris": {"ios": "https://dc.lft.to/lastmile_qr_scan", "android": "https://dc.lft.to/lastmile_qr_scan"}, "bike_id": "fb14eb20f511a2cc96814eb86da23c30", "lat": 38.9191275, "name": "fb14eb20f511a2cc96814eb86da23c30", "lon": -77.02514333333333, "fusion_lon": 0.0}, {"is_reserved": 0, "type": "electric_bike", "fusion_lat": 0.0, "is_disabled": 0, "rental_uris": {"ios": "https://dc.lft.to/lastmile_qr_scan", "android": "https://dc.lft.to/lastmile_qr_scan"}, "bike_id": "8fa084f800d4a1059bda97894b3c5ec6", "lat": 38.87739766666667, "name": "8fa084f800d4a1059bda97894b3c5ec6", "lon": -77.14875033333334, "fusion_lon": 0.0}, {"is_reserved": 0, "type": "electric_scooter", "fusion_lat": 0.0, "is_disabled": 0, "rental_uris": {"ios": "https://dc.lft.to/lastmile_qr_scan", "android": "https://dc.lft.to/lastmile_qr_scan"}, "bike_id": "40ef5427491ea7f1053ea73753b2be2a", "lat": 38.87823216666666, "name": "40ef5427491ea7f1053ea73753b2be2a", "lon": -77.00853966666666, "fusion_lon": 0.0}, {"is_reserved": 0, "type": "electric_scooter", "fusion_lat": 0.0, "is_disabled": 0, "rental_uris": {"ios": "https://dc.lft.to/lastmile_qr_scan", "android": "https://dc.lft.to/lastmile_qr_scan"}, "bike_id": "9bd7f8696e6fdcfdffcca8975fff49fc", "lat": 38.885196666666666, "name": "9bd7f8696e6fdcfdffcca8975fff49fc", "lon": -76.99622316666667, "fusion_lon": 0.0}, {"is_reserved": 0, "type": "electric_scooter", "fusion_lat": 0.0, "is_disabled": 0, "rental_uris": {"ios": "https://dc.lft.to/lastmile_qr_scan", "android": "https://dc.lft.to/lastmile_qr_scan"}, "bike_id": "28ff5effd6c12f2d3bbca68e8a4c9305", "lat": 38.885436, "name": "28ff5effd6c12f2d3bbca68e8a4c9305", "lon": -77.000746, "fusion_lon": 0.0}, {"is_reserved": 0, "type": "electric_scooter", "fusion_lat": 0.0, "is_disabled": 0, "rental_uris": {"ios": "https://dc.lft.to/lastmile_qr_scan", "android": "https://dc.lft.to/lastmile_qr_scan"}, "bike_id": "c377b5841eb7df3b659451923bc843cf", "lat": 38.8871085, "name": "c377b5841eb7df3b659451923bc843cf", "lon": -76.98341316666667, "fusion_lon": 0.0}, {"is_reserved": 0, "type": "electric_scooter", "fusion_lat": 0.0, "is_disabled": 0, "rental_uris": {"ios": "https://dc.lft.to/lastmile_qr_scan", "android": "https://dc.lft.to/lastmile_qr_scan"}, "bike_id": "7ccbf534a75dff3ec16e335e31c62e39", "lat": 38.9249785, "name": "7ccbf534a75dff3ec16e335e31c62e39", "lon": -77.0434265, "fusion_lon": 0.0}, {"is_reserved": 0, "type": "electric_scooter", "fusion_lat": 0.0, "is_disabled": 0, "rental_uris": {"ios": "https://dc.lft.to/lastmile_qr_scan", "android": "https://dc.lft.to/lastmile_qr_scan"}, "bike_id": "b104ea2cf6e79162f9cbeca5fd484dad", "lat": 38.908697333333336, "name": "b104ea2cf6e79162f9cbeca5fd484dad", "lon": -77.0031945, "fusion_lon": 0.0}, {"is_reserved": 0, "type": "electric_scooter", "fusion_lat": 0.0, "is_disabled": 0, "rental_uris": {"ios": "https://dc.lft.to/lastmile_qr_scan", "android": "https://dc.lft.to/lastmile_qr_scan"}, "bike_id": "3f86917022996f3d5003fbbf4645d5d8", "lat": 38.9288585, "name": "3f86917022996f3d5003fbbf4645d5d8", "lon": -77.03740316666666, "fusion_lon": 0.0}, {"is_reserved": 0, "type": "electric_scooter", "fusion_lat": 0.0, "is_disabled": 0, "rental_uris": {"ios": "https://dc.lft.to/lastmile_qr_scan", "android": "https://dc.lft.to/lastmile_qr_scan"}, "bike_id": "cb2cc3635af0719c81db9d3dbbc3f559", "lat": 38.8977885, "name": "cb2cc3635af0719c81db9d3dbbc3f559", "lon": -77.05027366666667, "fusion_lon": 0.0}, {"is_reserved": 0, "type": "electric_scooter", "fusion_lat": 0.0, "is_disabled": 0, "rental_uris": {"ios": "https://dc.lft.to/lastmile_qr_scan", "android": "https://dc.lft.to/lastmile_qr_scan"}, "bike_id": "e78ebb5421b4b26ffaa32354c8dcb158", "lat": 38.89221366666666, "name": "e78ebb5421b4b26ffaa32354c8dcb158", "lon": -77.02538816666667, "fusion_lon": 0.0}, {"is_reserved": 0, "type": "electric_scooter", "fusion_lat": 0.0, "is_disabled": 0, "rental_uris": {"ios": "https://dc.lft.to/lastmile_qr_scan", "android": "https://dc.lft.to/lastmile_qr_scan"}, "bike_id": "fedea7665956991fd316a8452a026637", "lat": 38.92183516666667, "name": "fedea7665956991fd316a8452a026637", "lon": -76.956403, "fusion_lon": 0.0}, {"is_reserved": 0, "type": "electric_scooter", "fusion_lat": 0.0, "is_disabled": 0, "rental_uris": {"ios": "https://dc.lft.to/lastmile_qr_scan", "android": "https://dc.lft.to/lastmile_qr_scan"}, "bike_id": "05cece9979c51ed942642626d5687408", "lat": 38.93110516666667, "name": "05cece9979c51ed942642626d5687408", "lon": -77.02798316666667, "fusion_lon": 0.0}, {"is_reserved": 0, "type": "electric_scooter", "fusion_lat": 0.0, "is_disabled": 0, "rental_uris": {"ios": "https://dc.lft.to/lastmile_qr_scan", "android": "https://dc.lft.to/lastmile_qr_scan"}, "bike_id": "12da9894835e53749a38189cd947992d", "lat": 38.907777, "name": "12da9894835e53749a38189cd947992d", "lon": -77.07255466666666, "fusion_lon": 0.0}, {"is_reserved": 0, "type": "electric_scooter", "fusion_lat": 0.0, "is_disabled": 0, "rental_uris": {"ios": "https://dc.lft.to/lastmile_qr_scan", "android": "https://dc.lft.to/lastmile_qr_scan"}, "bike_id": "37701274e8beb83aae6b09c055c6f114", "lat": 38.9360265, "name": "37701274e8beb83aae6b09c055c6f114", "lon": -77.02414316666666, "fusion_lon": 0.0}, {"is_reserved": 0, "type": "electric_scooter", "fusion_lat": 0.0, "is_disabled": 0, "rental_uris": {"ios": "https://dc.lft.to/lastmile_qr_scan", "android": "https://dc.lft.to/lastmile_qr_scan"}, "bike_id": "ef91648dedb1afa12a366c51de9005d3", "lat": 38.88239133333333, "name": "ef91648dedb1afa12a366c51de9005d3", "lon": -76.93334933333334, "fusion_lon": 0.0}, {"is_reserved": 0, "type": "electric_scooter", "fusion_lat": 0.0, "is_disabled": 0, "rental_uris": {"ios": "https://dc.lft.to/lastmile_qr_scan", "android": "https://dc.lft.to/lastmile_qr_scan"}, "bike_id": "e659d49af2790491307724975c4b1b5c", "lat": 38.893653, "name": "e659d49af2790491307724975c4b1b5c", "lon": -77.02055366666667, "fusion_lon": 0.0}, {"is_reserved": 0, "type": "electric_scooter", "fusion_lat": 0.0, "is_disabled": 0, "rental_uris": {"ios": "https://dc.lft.to/lastmile_qr_scan", "android": "https://dc.lft.to/lastmile_qr_scan"}, "bike_id": "0e251fa9c49dcf928e5e0f1748de5c0c", "lat": 38.855602, "name": "0e251fa9c49dcf928e5e0f1748de5c0c", "lon": -76.99074916666666, "fusion_lon": 0.0}, {"is_reserved": 0, "type": "electric_scooter", "fusion_lat": 0.0, "is_disabled": 0, "rental_uris": {"ios": "https://dc.lft.to/lastmile_qr_scan", "android": "https://dc.lft.to/lastmile_qr_scan"}, "bike_id": "08ab9859ba34b2cea346ea04ae862ff5", "lat": 38.92908966666667, "name": "08ab9859ba34b2cea346ea04ae862ff5", "lon": -77.020914, "fusion_lon": 0.0}, {"is_reserved": 0, "type": "electric_scooter", "fusion_lat": 0.0, "is_disabled": 0, "rental_uris": {"ios": "https://dc.lft.to/lastmile_qr_scan", "android": "https://dc.lft.to/lastmile_qr_scan"}, "bike_id": "8d83f7a6ad856c0c78168f71a4acf7e6", "lat": 38.931168166666666, "name": "8d83f7a6ad856c0c78168f71a4acf7e6", "lon": -77.0210025, "fusion_lon": 0.0}, {"is_reserved": 0, "type": "electric_scooter", "fusion_lat": 0.0, "is_disabled": 0, "rental_uris": {"ios": "https://dc.lft.to/lastmile_qr_scan", "android": "https://dc.lft.to/lastmile_qr_scan"}, "bike_id": "d138b4ded6b2686d1f0323ec13c5d832", "lat": 38.917734833333334, "name": "d138b4ded6b2686d1f0323ec13c5d832", "lon": -77.02311066666667, "fusion_lon": 0.0}, {"is_reserved": 0, "type": "electric_scooter", "fusion_lat": 0.0, "is_disabled": 0, "rental_uris": {"ios": "https://dc.lft.to/lastmile_qr_scan", "android": "https://dc.lft.to/lastmile_qr_scan"}, "bike_id": "02e17c3551f589003493331638b02df3", "lat": 38.90341383333333, "name": "02e17c3551f589003493331638b02df3", "lon": -77.026043, "fusion_lon": 0.0}, {"is_reserved": 0, "type": "electric_scooter", "fusion_lat": 0.0, "is_disabled": 0, "rental_uris": {"ios": "https://dc.lft.to/lastmile_qr_scan", "android": "https://dc.lft.to/lastmile_qr_scan"}, "bike_id": "42d3c59b6c09a282cab0b130dadeed7b", "lat": 38.8994915, "name": "42d3c59b6c09a282cab0b130dadeed7b", "lon": -77.0475915, "fusion_lon": 0.0}, {"is_reserved": 0, "type": "electric_scooter", "fusion_lat": 0.0, "is_disabled": 0, "rental_uris": {"ios": "https://dc.lft.to/lastmile_qr_scan", "android": "https://dc.lft.to/lastmile_qr_scan"}, "bike_id": "e2088e1ce212b0912ddcfdf4f84aa16f", "lat": 38.88728783333333, "name": "e2088e1ce212b0912ddcfdf4f84aa16f", "lon": -76.983772, "fusion_lon": 0.0}, {"is_reserved": 0, "type": "electric_scooter", "fusion_lat": 0.0, "is_disabled": 0, "rental_uris": {"ios": "https://dc.lft.to/lastmile_qr_scan", "android": "https://dc.lft.to/lastmile_qr_scan"}, "bike_id": "b1651a666ddda556cf4ba8932bd2ed84", "lat": 38.95627866666667, "name": "b1651a666ddda556cf4ba8932bd2ed84", "lon": -77.02238233333334, "fusion_lon": 0.0}, {"is_reserved": 0, "type": "electric_scooter", "fusion_lat": 0.0, "is_disabled": 0, "rental_uris": {"ios": "https://dc.lft.to/lastmile_qr_scan", "android": "https://dc.lft.to/lastmile_qr_scan"}, "bike_id": "6229d8f13664989023fe48cee81482ea", "lat": 38.91796866666667, "name": "6229d8f13664989023fe48cee81482ea", "lon": -77.03339366666667, "fusion_lon": 0.0}, {"is_reserved": 0, "type": "electric_scooter", "fusion_lat": 0.0, "is_disabled": 0, "rental_uris": {"ios": "https://dc.lft.to/lastmile_qr_scan", "android": "https://dc.lft.to/lastmile_qr_scan"}, "bike_id": "08c3b103fcee7a7c4143dd0ba51e0512", "lat": 38.9079065, "name": "08c3b103fcee7a7c4143dd0ba51e0512", "lon": -77.00957966666667, "fusion_lon": 0.0}, {"is_reserved": 0, "type": "electric_scooter", "fusion_lat": 0.0, "is_disabled": 0, "rental_uris": {"ios": "https://dc.lft.to/lastmile_qr_scan", "android": "https://dc.lft.to/lastmile_qr_scan"}, "bike_id": "713372f515bb38bad16246c5999aa68c", "lat": 38.90935016666667, "name": "713372f515bb38bad16246c5999aa68c", "lon": -76.99906533333333, "fusion_lon": 0.0}, {"is_reserved": 0, "type": "electric_scooter", "fusion_lat": 0.0, "is_disabled": 0, "rental_uris": {"ios": "https://dc.lft.to/lastmile_qr_scan", "android": "https://dc.lft.to/lastmile_qr_scan"}, "bike_id": "e8c64959fbaaf542bc856e97ce9f31d5", "lat": 38.93420716666667, "name": "e8c64959fbaaf542bc856e97ce9f31d5", "lon": -77.03289166666667, "fusion_lon": 0.0}, {"is_reserved": 0, "type": "electric_scooter", "fusion_lat": 0.0, "is_disabled": 0, "rental_uris": {"ios": "https://dc.lft.to/lastmile_qr_scan", "android": "https://dc.lft.to/lastmile_qr_scan"}, "bike_id": "a26b9565ea1de543938b66fc881bcc56", "lat": 38.879437, "name": "a26b9565ea1de543938b66fc881bcc56", "lon": -77.00593766666667, "fusion_lon": 0.0}, {"is_reserved": 0, "type": "electric_scooter", "fusion_lat": 0.0, "is_disabled": 0, "rental_uris": {"ios": "https://dc.lft.to/lastmile_qr_scan", "android": "https://dc.lft.to/lastmile_qr_scan"}, "bike_id": "ac70aa0e89f6111ea7644cb0091ce1ca", "lat": 38.910494, "name": "ac70aa0e89f6111ea7644cb0091ce1ca", "lon": -77.04351133333333, "fusion_lon": 0.0}, {"is_reserved": 0, "type": "electric_scooter", "fusion_lat": 0.0, "is_disabled": 0, "rental_uris": {"ios": "https://dc.lft.to/lastmile_qr_scan", "android": "https://dc.lft.to/lastmile_qr_scan"}, "bike_id": "258617060539abf6aba1353269046f89", "lat": 38.8987095, "name": "258617060539abf6aba1353269046f89", "lon": -77.04652933333334, "fusion_lon": 0.0}, {"is_reserved": 0, "type": "electric_scooter", "fusion_lat": 0.0, "is_disabled": 0, "rental_uris": {"ios": "https://dc.lft.to/lastmile_qr_scan", "android": "https://dc.lft.to/lastmile_qr_scan"}, "bike_id": "232aa01a33767d6eb3811021f62b22b5", "lat": 38.89428733333333, "name": "232aa01a33767d6eb3811021f62b22b5", "lon": -77.0447295, "fusion_lon": 0.0}, {"is_reserved": 0, "type": "electric_scooter", "fusion_lat": 0.0, "is_disabled": 0, "rental_uris": {"ios": "https://dc.lft.to/lastmile_qr_scan", "android": "https://dc.lft.to/lastmile_qr_scan"}, "bike_id": "38bd3c314afa037b63a7edf9645380f8", "lat": 38.927857833333334, "name": "38bd3c314afa037b63a7edf9645380f8", "lon": -77.03151033333333, "fusion_lon": 0.0}, {"is_reserved": 0, "type": "electric_scooter", "fusion_lat": 0.0, "is_disabled": 0, "rental_uris": {"ios": "https://dc.lft.to/lastmile_qr_scan", "android": "https://dc.lft.to/lastmile_qr_scan"}, "bike_id": "38850f9cd1470ab93dd7a5ec469f48fd", "lat": 38.88601883333333, "name": "38850f9cd1470ab93dd7a5ec469f48fd", "lon": -77.00341233333333, "fusion_lon": 0.0}, {"is_reserved": 0, "type": "electric_scooter", "fusion_lat": 0.0, "is_disabled": 0, "rental_uris": {"ios": "https://dc.lft.to/lastmile_qr_scan", "android": "https://dc.lft.to/lastmile_qr_scan"}, "bike_id": "83f69ce0f7926554c50e24a56f629703", "lat": 38.9191385, "name": "83f69ce0f7926554c50e24a56f629703", "lon": -77.01169266666666, "fusion_lon": 0.0}, {"is_reserved": 0, "type": "electric_scooter", "fusion_lat": 0.0, "is_disabled": 0, "rental_uris": {"ios": "https://dc.lft.to/lastmile_qr_scan", "android": "https://dc.lft.to/lastmile_qr_scan"}, "bike_id": "649653e8204fe147dfaa91b028530e13", "lat": 38.876575833333334, "name": "649653e8204fe147dfaa91b028530e13", "lon": -77.0034525, "fusion_lon": 0.0}, {"is_reserved": 0, "type": "electric_scooter", "fusion_lat": 0.0, "is_disabled": 0, "rental_uris": {"ios": "https://dc.lft.to/lastmile_qr_scan", "android": "https://dc.lft.to/lastmile_qr_scan"}, "bike_id": "b55c6e9b66b6b89faae608bab0848c18", "lat": 38.93193466666666, "name": "b55c6e9b66b6b89faae608bab0848c18", "lon": -77.0199425, "fusion_lon": 0.0}, {"is_reserved": 0, "type": "electric_scooter", "fusion_lat": 0.0, "is_disabled": 0, "rental_uris": {"ios": "https://dc.lft.to/lastmile_qr_scan", "android": "https://dc.lft.to/lastmile_qr_scan"}, "bike_id": "8980133c17642522ac561e460cc6e1e0", "lat": 38.88177233333333, "name": "8980133c17642522ac561e460cc6e1e0", "lon": -77.01748283333333, "fusion_lon": 0.0}, {"is_reserved": 0, "type": "electric_scooter", "fusion_lat": 0.0, "is_disabled": 0, "rental_uris": {"ios": "https://dc.lft.to/lastmile_qr_scan", "android": "https://dc.lft.to/lastmile_qr_scan"}, "bike_id": "b8992ff2d4e71734af7728b9dc5f7bcc", "lat": 38.89724983333333, "name": "b8992ff2d4e71734af7728b9dc5f7bcc", "lon": -77.02534166666666, "fusion_lon": 0.0}, {"is_reserved": 0, "type": "electric_scooter", "fusion_lat": 0.0, "is_disabled": 0, "rental_uris": {"ios": "https://dc.lft.to/lastmile_qr_scan", "android": "https://dc.lft.to/lastmile_qr_scan"}, "bike_id": "8d6f195132ddd576160ae4a739f7c928", "lat": 38.94263316666667, "name": "8d6f195132ddd576160ae4a739f7c928", "lon": -76.98468483333333, "fusion_lon": 0.0}, {"is_reserved": 0, "type": "electric_scooter", "fusion_lat": 0.0, "is_disabled": 0, "rental_uris": {"ios": "https://dc.lft.to/lastmile_qr_scan", "android": "https://dc.lft.to/lastmile_qr_scan"}, "bike_id": "3159f48eeae9f62aa991990a226e510e", "lat": 38.883607166666664, "name": "3159f48eeae9f62aa991990a226e510e", "lon": -76.95765166666666, "fusion_lon": 0.0}, {"is_reserved": 0, "type": "electric_bike", "fusion_lat": 0.0, "is_disabled": 0, "rental_uris": {"ios": "https://dc.lft.to/lastmile_qr_scan", "android": "https://dc.lft.to/lastmile_qr_scan"}, "bike_id": "6ef2e5e2d7ccb23dc2484f83fdd9f61b", "lat": 38.906945, "name": "6ef2e5e2d7ccb23dc2484f83fdd9f61b", "lon": -76.95255033333333, "fusion_lon": 0.0}, {"is_reserved": 0, "type": "electric_scooter", "fusion_lat": 0.0, "is_disabled": 0, "rental_uris": {"ios": "https://dc.lft.to/lastmile_qr_scan", "android": "https://dc.lft.to/lastmile_qr_scan"}, "bike_id": "40f1e04786454cffbff9370943b821a8", "lat": 38.8966785, "name": "40f1e04786454cffbff9370943b821a8", "lon": -77.0511405, "fusion_lon": 0.0}, {"is_reserved": 0, "type": "electric_scooter", "fusion_lat": 0.0, "is_disabled": 0, "rental_uris": {"ios": "https://dc.lft.to/lastmile_qr_scan", "android": "https://dc.lft.to/lastmile_qr_scan"}, "bike_id": "2e97edb7febdb74a5272a3a7a5ee2450", "lat": 38.9118635, "name": "2e97edb7febdb74a5272a3a7a5ee2450", "lon": -77.0608685, "fusion_lon": 0.0}, {"is_reserved": 0, "type": "electric_scooter", "fusion_lat": 0.0, "is_disabled": 0, "rental_uris": {"ios": "https://dc.lft.to/lastmile_qr_scan", "android": "https://dc.lft.to/lastmile_qr_scan"}, "bike_id": "ca8b6ca6d141b6674ce980feb4ccaf05", "lat": 38.94714066666667, "name": "ca8b6ca6d141b6674ce980feb4ccaf05", "lon": -77.06807233333333, "fusion_lon": 0.0}, {"is_reserved": 0, "type": "electric_scooter", "fusion_lat": 0.0, "is_disabled": 0, "rental_uris": {"ios": "https://dc.lft.to/lastmile_qr_scan", "android": "https://dc.lft.to/lastmile_qr_scan"}, "bike_id": "96226ec497cbce69eddb54ee51525a63", "lat": 38.89537883333333, "name": "96226ec497cbce69eddb54ee51525a63", "lon": -76.98841983333334, "fusion_lon": 0.0}, {"is_reserved": 0, "type": "electric_scooter", "fusion_lat": 0.0, "is_disabled": 0, "rental_uris": {"ios": "https://dc.lft.to/lastmile_qr_scan", "android": "https://dc.lft.to/lastmile_qr_scan"}, "bike_id": "d073d40d70cc87743c9bd9f4dbb747ff", "lat": 38.87071683333333, "name": "d073d40d70cc87743c9bd9f4dbb747ff", "lon": -76.98129666666667, "fusion_lon": 0.0}, {"is_reserved": 0, "type": "electric_scooter", "fusion_lat": 0.0, "is_disabled": 0, "rental_uris": {"ios": "https://dc.lft.to/lastmile_qr_scan", "android": "https://dc.lft.to/lastmile_qr_scan"}, "bike_id": "963eecd96eb81dc42313a1b572f3f029", "lat": 38.93036683333333, "name": "963eecd96eb81dc42313a1b572f3f029", "lon": -77.06079116666666, "fusion_lon": 0.0}, {"is_reserved": 0, "type": "electric_scooter", "fusion_lat": 0.0, "is_disabled": 0, "rental_uris": {"ios": "https://dc.lft.to/lastmile_qr_scan", "android": "https://dc.lft.to/lastmile_qr_scan"}, "bike_id": "bf10fb4eaa2708702bd59782d780e17a", "lat": 38.914046, "name": "bf10fb4eaa2708702bd59782d780e17a", "lon": -77.0450865, "fusion_lon": 0.0}, {"is_reserved": 0, "type": "electric_scooter", "fusion_lat": 0.0, "is_disabled": 0, "rental_uris": {"ios": "https://dc.lft.to/lastmile_qr_scan", "android": "https://dc.lft.to/lastmile_qr_scan"}, "bike_id": "ab6e0b6c7ec38aaac4dce0bf68676f8f", "lat": 38.90847866666667, "name": "ab6e0b6c7ec38aaac4dce0bf68676f8f", "lon": -77.02465883333333, "fusion_lon": 0.0}, {"is_reserved": 0, "type": "electric_scooter", "fusion_lat": 0.0, "is_disabled": 0, "rental_uris": {"ios": "https://dc.lft.to/lastmile_qr_scan", "android": "https://dc.lft.to/lastmile_qr_scan"}, "bike_id": "91edff4935d06d557c7a8f448875f4c8", "lat": 38.8948225, "name": "91edff4935d06d557c7a8f448875f4c8", "lon": -76.94870966666667, "fusion_lon": 0.0}, {"is_reserved": 0, "type": "electric_scooter", "fusion_lat": 0.0, "is_disabled": 0, "rental_uris": {"ios": "https://dc.lft.to/lastmile_qr_scan", "android": "https://dc.lft.to/lastmile_qr_scan"}, "bike_id": "f86779e435565d7af50be7eec999f83a", "lat": 38.893278333333335, "name": "f86779e435565d7af50be7eec999f83a", "lon": -76.939295, "fusion_lon": 0.0}, {"is_reserved": 0, "type": "electric_scooter", "fusion_lat": 0.0, "is_disabled": 0, "rental_uris": {"ios": "https://dc.lft.to/lastmile_qr_scan", "android": "https://dc.lft.to/lastmile_qr_scan"}, "bike_id": "00fcf7be4f74376d5dafc4a3598d5e9f", "lat": 38.9175975, "name": "00fcf7be4f74376d5dafc4a3598d5e9f", "lon": -77.00461133333333, "fusion_lon": 0.0}, {"is_reserved": 0, "type": "electric_bike", "fusion_lat": 0.0, "is_disabled": 0, "rental_uris": {"ios": "https://dc.lft.to/lastmile_qr_scan", "android": "https://dc.lft.to/lastmile_qr_scan"}, "bike_id": "c086793119f76942dd3e8b8ac64fb6b3", "lat": 38.87578766666667, "name": "c086793119f76942dd3e8b8ac64fb6b3", "lon": -77.234128, "fusion_lon": 0.0}, {"is_reserved": 0, "type": "electric_scooter", "fusion_lat": 0.0, "is_disabled": 0, "rental_uris": {"ios": "https://dc.lft.to/lastmile_qr_scan", "android": "https://dc.lft.to/lastmile_qr_scan"}, "bike_id": "09371ca9ceabe2aebee93d5d18ca19ad", "lat": 38.916905666666665, "name": "09371ca9ceabe2aebee93d5d18ca19ad", "lon": -77.0376665, "fusion_lon": 0.0}, {"is_reserved": 0, "type": "electric_scooter", "fusion_lat": 0.0, "is_disabled": 0, "rental_uris": {"ios": "https://dc.lft.to/lastmile_qr_scan", "android": "https://dc.lft.to/lastmile_qr_scan"}, "bike_id": "f1e0ea2b135371896a7b6c7a5c9f3885", "lat": 38.9116105, "name": "f1e0ea2b135371896a7b6c7a5c9f3885", "lon": -77.04482216666666, "fusion_lon": 0.0}, {"is_reserved": 0, "type": "electric_scooter", "fusion_lat": 0.0, "is_disabled": 0, "rental_uris": {"ios": "https://dc.lft.to/lastmile_qr_scan", "android": "https://dc.lft.to/lastmile_qr_scan"}, "bike_id": "2971c38f87d5c7ec364e0385eb6accce", "lat": 38.90228316666666, "name": "2971c38f87d5c7ec364e0385eb6accce", "lon": -77.01744933333333, "fusion_lon": 0.0}, {"is_reserved": 0, "type": "electric_bike", "fusion_lat": 0.0, "is_disabled": 0, "rental_uris": {"ios": "https://dc.lft.to/lastmile_qr_scan", "android": "https://dc.lft.to/lastmile_qr_scan"}, "bike_id": "6e384084fbbd358b4cc154f7a3cdad82", "lat": 38.87665466666667, "name": "6e384084fbbd358b4cc154f7a3cdad82", "lon": -77.02086916666667, "fusion_lon": 0.0}, {"is_reserved": 0, "type": "electric_scooter", "fusion_lat": 0.0, "is_disabled": 0, "rental_uris": {"ios": "https://dc.lft.to/lastmile_qr_scan", "android": "https://dc.lft.to/lastmile_qr_scan"}, "bike_id": "7f8958f023dfa9bcd6959aeea6fdb0ab", "lat": 38.9243555, "name": "7f8958f023dfa9bcd6959aeea6fdb0ab", "lon": -77.042371, "fusion_lon": 0.0}, {"is_reserved": 0, "type": "electric_scooter", "fusion_lat": 0.0, "is_disabled": 0, "rental_uris": {"ios": "https://dc.lft.to/lastmile_qr_scan", "android": "https://dc.lft.to/lastmile_qr_scan"}, "bike_id": "86792dc4c95dc7220fddeeb4de337476", "lat": 38.93329583333333, "name": "86792dc4c95dc7220fddeeb4de337476", "lon": -77.0389295, "fusion_lon": 0.0}, {"is_reserved": 0, "type": "electric_scooter", "fusion_lat": 0.0, "is_disabled": 0, "rental_uris": {"ios": "https://dc.lft.to/lastmile_qr_scan", "android": "https://dc.lft.to/lastmile_qr_scan"}, "bike_id": "be2926ac441297d7e38170f57d94b2af", "lat": 38.92340866666667, "name": "be2926ac441297d7e38170f57d94b2af", "lon": -77.04027233333333, "fusion_lon": 0.0}, {"is_reserved": 0, "type": "electric_scooter", "fusion_lat": 0.0, "is_disabled": 0, "rental_uris": {"ios": "https://dc.lft.to/lastmile_qr_scan", "android": "https://dc.lft.to/lastmile_qr_scan"}, "bike_id": "c22cb8f0541204cca18c8b0092c2f90a", "lat": 38.927156833333335, "name": "c22cb8f0541204cca18c8b0092c2f90a", "lon": -77.02074766666667, "fusion_lon": 0.0}, {"is_reserved": 0, "type": "electric_scooter", "fusion_lat": 0.0, "is_disabled": 0, "rental_uris": {"ios": "https://dc.lft.to/lastmile_qr_scan", "android": "https://dc.lft.to/lastmile_qr_scan"}, "bike_id": "745a20f882e5b37c6fad78201c34627b", "lat": 38.925683666666664, "name": "745a20f882e5b37c6fad78201c34627b", "lon": -77.05260816666667, "fusion_lon": 0.0}, {"is_reserved": 0, "type": "electric_scooter", "fusion_lat": 0.0, "is_disabled": 0, "rental_uris": {"ios": "https://dc.lft.to/lastmile_qr_scan", "android": "https://dc.lft.to/lastmile_qr_scan"}, "bike_id": "5da82209198722c034a081b16e691c6b", "lat": 38.924750833333334, "name": "5da82209198722c034a081b16e691c6b", "lon": -77.0284825, "fusion_lon": 0.0}, {"is_reserved": 0, "type": "electric_bike", "fusion_lat": 0.0, "is_disabled": 0, "rental_uris": {"ios": "https://dc.lft.to/lastmile_qr_scan", "android": "https://dc.lft.to/lastmile_qr_scan"}, "bike_id": "22aeb278d419b41bb83c8710390ef00d", "lat": 38.9638165, "name": "22aeb278d419b41bb83c8710390ef00d", "lon": -77.019785, "fusion_lon": 0.0}, {"is_reserved": 0, "type": "electric_scooter", "fusion_lat": 0.0, "is_disabled": 0, "rental_uris": {"ios": "https://dc.lft.to/lastmile_qr_scan", "android": "https://dc.lft.to/lastmile_qr_scan"}, "bike_id": "836c44b63dd1b92a1a03d9b506994d0b", "lat": 38.928194500000004, "name": "836c44b63dd1b92a1a03d9b506994d0b", "lon": -77.01405816666667, "fusion_lon": 0.0}, {"is_reserved": 0, "type": "electric_scooter", "fusion_lat": 0.0, "is_disabled": 0, "rental_uris": {"ios": "https://dc.lft.to/lastmile_qr_scan", "android": "https://dc.lft.to/lastmile_qr_scan"}, "bike_id": "bb84f6c9134fff6b4112d036233971e5", "lat": 38.8954325, "name": "bb84f6c9134fff6b4112d036233971e5", "lon": -76.9834125, "fusion_lon": 0.0}, {"is_reserved": 0, "type": "electric_scooter", "fusion_lat": 0.0, "is_disabled": 0, "rental_uris": {"ios": "https://dc.lft.to/lastmile_qr_scan", "android": "https://dc.lft.to/lastmile_qr_scan"}, "bike_id": "56047af5897baf3d93fd8aaeeb18b3ea", "lat": 38.884494333333336, "name": "56047af5897baf3d93fd8aaeeb18b3ea", "lon": -77.02493033333333, "fusion_lon": 0.0}, {"is_reserved": 0, "type": "electric_bike", "fusion_lat": 0.0, "is_disabled": 0, "rental_uris": {"ios": "https://dc.lft.to/lastmile_qr_scan", "android": "https://dc.lft.to/lastmile_qr_scan"}, "bike_id": "69e969c7ee9f0f804b74372402340345", "lat": 38.831593166666664, "name": "69e969c7ee9f0f804b74372402340345", "lon": -76.995914, "fusion_lon": 0.0}, {"is_reserved": 0, "type": "electric_scooter", "fusion_lat": 0.0, "is_disabled": 0, "rental_uris": {"ios": "https://dc.lft.to/lastmile_qr_scan", "android": "https://dc.lft.to/lastmile_qr_scan"}, "bike_id": "3d5e598fede99b199e4710d179e704be", "lat": 38.876464166666665, "name": "3d5e598fede99b199e4710d179e704be", "lon": -76.99292433333333, "fusion_lon": 0.0}, {"is_reserved": 0, "type": "electric_scooter", "fusion_lat": 0.0, "is_disabled": 0, "rental_uris": {"ios": "https://dc.lft.to/lastmile_qr_scan", "android": "https://dc.lft.to/lastmile_qr_scan"}, "bike_id": "36f2b828e0a730fab46bd5de801ecff9", "lat": 38.917367, "name": "36f2b828e0a730fab46bd5de801ecff9", "lon": -77.017718, "fusion_lon": 0.0}, {"is_reserved": 0, "type": "electric_scooter", "fusion_lat": 0.0, "is_disabled": 0, "rental_uris": {"ios": "https://dc.lft.to/lastmile_qr_scan", "android": "https://dc.lft.to/lastmile_qr_scan"}, "bike_id": "51ab0ecd36face5e0394e8986d7a1626", "lat": 38.925950666666665, "name": "51ab0ecd36face5e0394e8986d7a1626", "lon": -77.023867, "fusion_lon": 0.0}, {"is_reserved": 0, "type": "electric_scooter", "fusion_lat": 0.0, "is_disabled": 0, "rental_uris": {"ios": "https://dc.lft.to/lastmile_qr_scan", "android": "https://dc.lft.to/lastmile_qr_scan"}, "bike_id": "8c2c3d3b835578e8fbdbf93d52a605e1", "lat": 38.90572083333333, "name": "8c2c3d3b835578e8fbdbf93d52a605e1", "lon": -76.9762165, "fusion_lon": 0.0}, {"is_reserved": 0, "type": "electric_bike", "fusion_lat": 0.0, "is_disabled": 0, "rental_uris": {"ios": "https://dc.lft.to/lastmile_qr_scan", "android": "https://dc.lft.to/lastmile_qr_scan"}, "bike_id": "15f60b4183075d538cef313496e376c1", "lat": 38.879967, "name": "15f60b4183075d538cef313496e376c1", "lon": -76.98545766666666, "fusion_lon": 0.0}, {"is_reserved": 0, "type": "electric_scooter", "fusion_lat": 0.0, "is_disabled": 0, "rental_uris": {"ios": "https://dc.lft.to/lastmile_qr_scan", "android": "https://dc.lft.to/lastmile_qr_scan"}, "bike_id": "a176814327c5112b93390412a78b4569", "lat": 38.9351245, "name": "a176814327c5112b93390412a78b4569", "lon": -77.056886, "fusion_lon": 0.0}, {"is_reserved": 0, "type": "electric_scooter", "fusion_lat": 0.0, "is_disabled": 0, "rental_uris": {"ios": "https://dc.lft.to/lastmile_qr_scan", "android": "https://dc.lft.to/lastmile_qr_scan"}, "bike_id": "36e69cd38d04bd489869461a4051e987", "lat": 38.92166516666666, "name": "36e69cd38d04bd489869461a4051e987", "lon": -77.04023, "fusion_lon": 0.0}, {"is_reserved": 0, "type": "electric_scooter", "fusion_lat": 0.0, "is_disabled": 0, "rental_uris": {"ios": "https://dc.lft.to/lastmile_qr_scan", "android": "https://dc.lft.to/lastmile_qr_scan"}, "bike_id": "7c4f4d6fd174a25e2c72ee416f957625", "lat": 38.9234055, "name": "7c4f4d6fd174a25e2c72ee416f957625", "lon": -77.05784983333334, "fusion_lon": 0.0}, {"is_reserved": 0, "type": "electric_scooter", "fusion_lat": 0.0, "is_disabled": 0, "rental_uris": {"ios": "https://dc.lft.to/lastmile_qr_scan", "android": "https://dc.lft.to/lastmile_qr_scan"}, "bike_id": "2ddce03979670fb71bf266276c6b78f4", "lat": 38.90905433333333, "name": "2ddce03979670fb71bf266276c6b78f4", "lon": -77.03514733333333, "fusion_lon": 0.0}, {"is_reserved": 0, "type": "electric_scooter", "fusion_lat": 0.0, "is_disabled": 0, "rental_uris": {"ios": "https://dc.lft.to/lastmile_qr_scan", "android": "https://dc.lft.to/lastmile_qr_scan"}, "bike_id": "cf470e1ebb4c5c47477db3d53416729e", "lat": 38.87457333333333, "name": "cf470e1ebb4c5c47477db3d53416729e", "lon": -77.00489483333334, "fusion_lon": 0.0}, {"is_reserved": 0, "type": "electric_scooter", "fusion_lat": 0.0, "is_disabled": 0, "rental_uris": {"ios": "https://dc.lft.to/lastmile_qr_scan", "android": "https://dc.lft.to/lastmile_qr_scan"}, "bike_id": "8d28ef253568a1c74f42e6a7a654e691", "lat": 38.90977216666667, "name": "8d28ef253568a1c74f42e6a7a654e691", "lon": -77.02290533333333, "fusion_lon": 0.0},