{"data": {"bikes": [{"fusion_lat": 0.0, "name": "f519d4610383eab628b7c9c1a0470982", "is_disabled": 0, "rental_uris": {"android": "https://dc.lft.to/lastmile_qr_scan", "ios": "https://dc.lft.to/lastmile_qr_scan"}, "fusion_lon": 0.0, "lat": 38.9258085, "bike_id": "f519d4610383eab628b7c9c1a0470982", "type": "electric_scooter", "is_reserved": 0, "lon": -77.032384}, {"fusion_lat": 0.0, "name": "9c1e0d0c72330d047bef2351bb2ec00a", "is_disabled": 0, "rental_uris": {"android": "https://dc.lft.to/lastmile_qr_scan", "ios": "https://dc.lft.to/lastmile_qr_scan"}, "fusion_lon": 0.0, "lat": 38.9233955, "bike_id": "9c1e0d0c72330d047bef2351bb2ec00a", "type": "electric_scooter", "is_reserved": 0, "lon": -77.02428966666666}, {"fusion_lat": 0.0, "name": "e42cb30587700fb52acc95bd7526135d", "is_disabled": 0, "rental_uris": {"android": "https://dc.lft.to/lastmile_qr_scan", "ios": "https://dc.lft.to/lastmile_qr_scan"}, "fusion_lon": 0.0, "lat": 38.8655425, "bike_id": "e42cb30587700fb52acc95bd7526135d", "type": "electric_scooter", "is_reserved": 0, "lon": -76.98351}, {"fusion_lat": 0.0, "name": "da667b125e49eac590e1b4d5df69165a", "is_disabled": 0, "rental_uris": {"android": "https://dc.lft.to/lastmile_qr_scan", "ios": "https://dc.lft.to/lastmile_qr_scan"}, "fusion_lon": 0.0, "lat": 38.8974595, "bike_id": "da667b125e49eac590e1b4d5df69165a", "type": "electric_scooter", "is_reserved": 0, "lon": -76.94703983333333}, {"fusion_lat": 0.0, "name": "9800557c1370c722c95d05e8b640a8f1", "is_disabled": 0, "rental_uris": {"android": "https://dc.lft.to/lastmile_qr_scan", "ios": "https://dc.lft.to/lastmile_qr_scan"}, "fusion_lon": 0.0, "lat": 38.90781666666667, "bike_id": "9800557c1370c722c95d05e8b640a8f1", "type": "electric_scooter", "is_reserved": 0, "lon": -77.01108266666667}, {"fusion_lat": 0.0, "name": "51d85be8234a3cf21b0199bcca66c9a3", "is_disabled": 0, "rental_uris": {"android": "https://dc.lft.to/lastmile_qr_scan", "ios": "https://dc.lft.to/lastmile_qr_scan"}, "fusion_lon": 0.0, "lat": 38.884044333333335, "bike_id": "51d85be8234a3cf21b0199bcca66c9a3", "type": "electric_bike", "is_reserved": 0, "lon": -76.96057533333334}, {"fusion_lat": 0.0, "name": "3f407d403e0bd2eb619848d03048761c", "is_disabled": 0, "rental_uris": {"android": "https://dc.lft.to/lastmile_qr_scan", "ios": "https://dc.lft.to/lastmile_qr_scan"}, "fusion_lon": 0.0, "lat": 38.8957985, "bike_id": "3f407d403e0bd2eb619848d03048761c", "type": "electric_scooter", "is_reserved": 0, "lon": -77.02721133333333}, {"fusion_lat": 0.0, "name": "d30ec54e26f5b79cb487718b3ceb3bb4", "is_disabled": 0, "rental_uris": {"android": "https://dc.lft.to/lastmile_qr_scan", "ios": "https://dc.lft.to/lastmile_qr_scan"}, "fusion_lon": 0.0, "lat": 38.89773733333333, "bike_id": "d30ec54e26f5b79cb487718b3ceb3bb4", "type": "electric_scooter", "is_reserved": 0, "lon": -77.010794}, {"fusion_lat": 0.0, "name": "8e2b9570161f83d15dc66280de5aaea6", "is_disabled": 0, "rental_uris": {"android": "https://dc.lft.to/lastmile_qr_scan", "ios": "https://dc.lft.to/lastmile_qr_scan"}, "fusion_lon": 0.0, "lat": 38.885041333333334, "bike_id": "8e2b9570161f83d15dc66280de5aaea6", "type": "electric_scooter", "is_reserved": 0, "lon": -77.007}, {"fusion_lat": 0.0, "name": "8eacf88215fd0d7e7d177cdc9dd22cd2", "is_disabled": 0, "rental_uris": {"android": "https://dc.lft.to/lastmile_qr_scan", "ios": "https://dc.lft.to/lastmile_qr_scan"}, "fusion_lon": 0.0, "lat": 38.87371816666667, "bike_id": "8eacf88215fd0d7e7d177cdc9dd22cd2", "type": "electric_scooter", "is_reserved": 0, "lon": -77.00047016666667}, {"fusion_lat": 0.0, "name": "47e3b83bdf40e8e4d2fce93f5cbc6a46", "is_disabled": 0, "rental_uris": {"android": "https://dc.lft.to/lastmile_qr_scan", "ios": "https://dc.lft.to/lastmile_qr_scan"}, "fusion_lon": 0.0, "lat": 38.905695, "bike_id": "47e3b83bdf40e8e4d2fce93f5cbc6a46", "type": "electric_scooter", "is_reserved": 0, "lon": -77.034547}, {"fusion_lat": 0.0, "name": "272d57822addc7947da650371d086ad4", "is_disabled": 0, "rental_uris": {"android": "https://dc.lft.to/lastmile_qr_scan", "ios": "https://dc.lft.to/lastmile_qr_scan"}, "fusion_lon": 0.0, "lat": 38.86761933333333, "bike_id": "272d57822addc7947da650371d086ad4", "type": "electric_scooter", "is_reserved": 0, "lon": -76.9827455}, {"fusion_lat": 0.0, "name": "7a52b3419efc1e5040fbe266f3ae3080", "is_disabled": 0, "rental_uris": {"android": "https://dc.lft.to/lastmile_qr_scan", "ios": "https://dc.lft.to/lastmile_qr_scan"}, "fusion_lon": 0.0, "lat": 38.905253333333334, "bike_id": "7a52b3419efc1e5040fbe266f3ae3080", "type": "electric_scooter", "is_reserved": 0, "lon": -77.02936333333334}, {"fusion_lat": 0.0, "name": "2f0e2ffb0340427c84e73e9fa8abf96d", "is_disabled": 0, "rental_uris": {"android": "https://dc.lft.to/lastmile_qr_scan", "ios": "https://dc.lft.to/lastmile_qr_scan"}, "fusion_lon": 0.0, "lat": 38.9126785, "bike_id": "2f0e2ffb0340427c84e73e9fa8abf96d", "type": "electric_scooter", "is_reserved": 0, "lon": -77.03865}, {"fusion_lat": 0.0, "name": "6a2c745ca2e0d44e0266d84f25a788e9", "is_disabled": 0, "rental_uris": {"android": "https://dc.lft.to/lastmile_qr_scan", "ios": "https://dc.lft.to/lastmile_qr_scan"}, "fusion_lon": 0.0, "lat": 38.916245, "bike_id": "6a2c745ca2e0d44e0266d84f25a788e9", "type": "electric_scooter", "is_reserved": 0, "lon": -77.04554616666667}, {"fusion_lat": 0.0, "name": "2390759101c0b708c0843f701b57907c", "is_disabled": 0, "rental_uris": {"android": "https://dc.lft.to/lastmile_qr_scan", "ios": "https://dc.lft.to/lastmile_qr_scan"}, "fusion_lon": 0.0, "lat": 38.9280325, "bike_id": "2390759101c0b708c0843f701b57907c", "type": "electric_scooter", "is_reserved": 0, "lon": -77.0239225}, {"fusion_lat": 0.0, "name": "a3192c20e07469844463702655fcdbbf", "is_disabled": 0, "rental_uris": {"android": "https://dc.lft.to/lastmile_qr_scan", "ios": "https://dc.lft.to/lastmile_qr_scan"}, "fusion_lon": 0.0, "lat": 38.889031, "bike_id": "a3192c20e07469844463702655fcdbbf", "type": "electric_scooter", "is_reserved": 0, "lon": -76.977372}, {"fusion_lat": 0.0, "name": "c70b16fdddb41fb5bec36501a8a8db61", "is_disabled": 0, "rental_uris": {"android": "https://dc.lft.to/lastmile_qr_scan", "ios": "https://dc.lft.to/lastmile_qr_scan"}, "fusion_lon": 0.0, "lat": 38.9495635, "bike_id": "c70b16fdddb41fb5bec36501a8a8db61", "type": "electric_scooter", "is_reserved": 0, "lon": -77.06637016666667}, {"fusion_lat": 0.0, "name": "56a2d75c26f0608435bc32e67d01b9a0", "is_disabled": 0, "rental_uris": {"android": "https://dc.lft.to/lastmile_qr_scan", "ios": "https://dc.lft.to/lastmile_qr_scan"}, "fusion_lon": 0.0, "lat": 38.91115283333333, "bike_id": "56a2d75c26f0608435bc32e67d01b9a0", "type": "electric_scooter", "is_reserved": 0, "lon": -77.03826733333334}, {"fusion_lat": 0.0, "name": "a4f09cd3f908f6c5ecd18c42319aa6a7", "is_disabled": 0, "rental_uris": {"android": "https://dc.lft.to/lastmile_qr_scan", "ios": "https://dc.lft.to/lastmile_qr_scan"}, "fusion_lon": 0.0, "lat": 38.8663, "bike_id": "a4f09cd3f908f6c5ecd18c42319aa6a7", "type": "electric_scooter", "is_reserved": 0, "lon": -76.9871445}, {"fusion_lat": 0.0, "name": "5d78846418803b7f992441519b917e46", "is_disabled": 0, "rental_uris": {"android": "https://dc.lft.to/lastmile_qr_scan", "ios": "https://dc.lft.to/lastmile_qr_scan"}, "fusion_lon": 0.0, "lat": 38.932750166666665, "bike_id": "5d78846418803b7f992441519b917e46", "type": "electric_scooter", "is_reserved": 0, "lon": -77.04083}, {"fusion_lat": 0.0, "name": "502a504f7366550910dc815496e28f5e", "is_disabled": 0, "rental_uris": {"android": "https://dc.lft.to/lastmile_qr_scan", "ios": "https://dc.lft.to/lastmile_qr_scan"}, "fusion_lon": 0.0, "lat": 38.9155525, "bike_id": "502a504f7366550910dc815496e28f5e", "type": "electric_scooter", "is_reserved": 0, "lon": -77.03477666666667}, {"fusion_lat": 0.0, "name": "a7ce9f7ad648217183a42cf2bad85504", "is_disabled": 0, "rental_uris": {"android": "https://dc.lft.to/lastmile_qr_scan", "ios": "https://dc.lft.to/lastmile_qr_scan"}, "fusion_lon": 0.0, "lat": 38.950570666666664, "bike_id": "a7ce9f7ad648217183a42cf2bad85504", "type": "electric_scooter", "is_reserved": 0, "lon": -77.08029383333333}, {"fusion_lat": 0.0, "name": "fdb7715ed1746cd1b402b690cb0cba14", "is_disabled": 0, "rental_uris": {"android": "https://dc.lft.to/lastmile_qr_scan", "ios": "https://dc.lft.to/lastmile_qr_scan"}, "fusion_lon": 0.0, "lat": 38.897962, "bike_id": "fdb7715ed1746cd1b402b690cb0cba14", "type": "electric_bike", "is_reserved": 0, "lon": -76.99954016666666}, {"fusion_lat": 0.0, "name": "2ea64fc2256e9f7d59970b49d2b391ad", "is_disabled": 0, "rental_uris": {"android": "https://dc.lft.to/lastmile_qr_scan", "ios": "https://dc.lft.to/lastmile_qr_scan"}, "fusion_lon": 0.0, "lat": 38.9639095, "bike_id": "2ea64fc2256e9f7d59970b49d2b391ad", "type": "electric_scooter", "is_reserved": 0, "lon": -77.0258995}, {"fusion_lat": 0.0, "name": "c75d4a100b8791c6566613bd452fbf44", "is_disabled": 0, "rental_uris": {"android": "https://dc.lft.to/lastmile_qr_scan", "ios": "https://dc.lft.to/lastmile_qr_scan"}, "fusion_lon": 0.0, "lat": 38.90306183333333, "bike_id": "c75d4a100b8791c6566613bd452fbf44", "type": "electric_scooter", "is_reserved": 0, "lon": -77.06020916666667}, {"fusion_lat": 0.0, "name": "ca8e20e67ee15f6533dff16b9151130a", "is_disabled": 0, "rental_uris": {"android": "https://dc.lft.to/lastmile_qr_scan", "ios": "https://dc.lft.to/lastmile_qr_scan"}, "fusion_lon": 0.0, "lat": 38.8199745, "bike_id": "ca8e20e67ee15f6533dff16b9151130a", "type": "electric_bike", "is_reserved": 0, "lon": -76.99817866666666}, {"fusion_lat": 0.0, "name": "f3ab61cdd8db580ad6870f2057a4d509", "is_disabled": 0, "rental_uris": {"android": "https://dc.lft.to/lastmile_qr_scan", "ios": "https://dc.lft.to/lastmile_qr_scan"}, "fusion_lon": 0.0, "lat": 38.876663, "bike_id": "f3ab61cdd8db580ad6870f2057a4d509", "type": "electric_bike", "is_reserved": 0, "lon": -77.0145895}, {"fusion_lat": 0.0, "name": "c935e91f720a06fcf8b770dbf8f1fda1", "is_disabled": 0, "rental_uris": {"android": "https://dc.lft.to/lastmile_qr_scan", "ios": "https://dc.lft.to/lastmile_qr_scan"}, "fusion_lon": 0.0, "lat": 38.87660733333333, "bike_id": "c935e91f720a06fcf8b770dbf8f1fda1", "type": "electric_scooter", "is_reserved": 0, "lon": -77.0064835}, {"fusion_lat": 0.0, "name": "d557d1ad218c8d25da756021a94642dd", "is_disabled": 0, "rental_uris": {"android": "https://dc.lft.to/lastmile_qr_scan", "ios": "https://dc.lft.to/lastmile_qr_scan"}, "fusion_lon": 0.0, "lat": 38.908773833333335, "bike_id": "d557d1ad218c8d25da756021a94642dd", "type": "electric_scooter", "is_reserved": 0, "lon": -77.00262966666666}, {"fusion_lat": 0.0, "name": "e410f53099593c59637da2ba6ea978b5", "is_disabled": 0, "rental_uris": {"android": "https://dc.lft.to/lastmile_qr_scan", "ios": "https://dc.lft.to/lastmile_qr_scan"}, "fusion_lon": 0.0, "lat": 38.907992666666665, "bike_id": "e410f53099593c59637da2ba6ea978b5", "type": "electric_scooter", "is_reserved": 0, "lon": -77.0318585}, {"fusion_lat": 0.0, "name": "2b6cfa3888ffbf6cacd5a552a289c26d", "is_disabled": 0, "rental_uris": {"android": "https://dc.lft.to/lastmile_qr_scan", "ios": "https://dc.lft.to/lastmile_qr_scan"}, "fusion_lon": 0.0, "lat": 38.916166833333335, "bike_id": "2b6cfa3888ffbf6cacd5a552a289c26d", "type": "electric_scooter", "is_reserved": 0, "lon": -77.01127733333334}, {"fusion_lat": 0.0, "name": "9870d1d8a5344219cc00b75422a25ac1", "is_disabled": 0, "rental_uris": {"android": "https://dc.lft.to/lastmile_qr_scan", "ios": "https://dc.lft.to/lastmile_qr_scan"}, "fusion_lon": 0.0, "lat": 38.815917, "bike_id": "9870d1d8a5344219cc00b75422a25ac1", "type": "electric_bike", "is_reserved": 0, "lon": -77.05058033333333}, {"fusion_lat": 0.0, "name": "63fca2e86d63005ef345848356c3096b", "is_disabled": 0, "rental_uris": {"android": "https://dc.lft.to/lastmile_qr_scan", "ios": "https://dc.lft.to/lastmile_qr_scan"}, "fusion_lon": 0.0, "lat": 38.9040175, "bike_id": "63fca2e86d63005ef345848356c3096b", "type": "electric_scooter", "is_reserved": 0, "lon": -77.06774716666666}, {"fusion_lat": 0.0, "name": "5b9c1fd7263e0a650a52b7f49f79d2f4", "is_disabled": 0, "rental_uris": {"android": "https://dc.lft.to/lastmile_qr_scan", "ios": "https://dc.lft.to/lastmile_qr_scan"}, "fusion_lon": 0.0, "lat": 38.9084305, "bike_id": "5b9c1fd7263e0a650a52b7f49f79d2f4", "type": "electric_scooter", "is_reserved": 0, "lon": -77.02696566666667}, {"fusion_lat": 0.0, "name": "638adec33614a962abfb20409b0657b8", "is_disabled": 0, "rental_uris": {"android": "https://dc.lft.to/lastmile_qr_scan", "ios": "https://dc.lft.to/lastmile_qr_scan"}, "fusion_lon": 0.0, "lat": 38.90916383333333, "bike_id": "638adec33614a962abfb20409b0657b8", "type": "electric_scooter", "is_reserved": 0, "lon": -77.04574733333334}, {"fusion_lat": 0.0, "name": "5939e1d65325be7653676480af9295a0", "is_disabled": 0, "rental_uris": {"android": "https://dc.lft.to/lastmile_qr_scan", "ios": "https://dc.lft.to/lastmile_qr_scan"}, "fusion_lon": 0.0, "lat": 38.905164, "bike_id": "5939e1d65325be7653676480af9295a0", "type": "electric_scooter", "is_reserved": 0, "lon": -77.02969966666667}, {"fusion_lat": 0.0, "name": "0590ffc9a17129fccc0729629bef8a92", "is_disabled": 0, "rental_uris": {"android": "https://dc.lft.to/lastmile_qr_scan", "ios": "https://dc.lft.to/lastmile_qr_scan"}, "fusion_lon": 0.0, "lat": 38.905961833333336, "bike_id": "0590ffc9a17129fccc0729629bef8a92", "type": "electric_scooter", "is_reserved": 0, "lon": -76.98799016666666}, {"fusion_lat": 0.0, "name": "506f642a4b00a6faf1db831caae45bc8", "is_disabled": 0, "rental_uris": {"android": "https://dc.lft.to/lastmile_qr_scan", "ios": "https://dc.lft.to/lastmile_qr_scan"}, "fusion_lon": 0.0, "lat": 38.9661755, "bike_id": "506f642a4b00a6faf1db831caae45bc8", "type": "electric_bike", "is_reserved": 0, "lon": -77.03427466666666}, {"fusion_lat": 0.0, "name": "8c51cab42fb08bc3a6bb5fba1cb84521", "is_disabled": 0, "rental_uris": {"android": "https://dc.lft.to/lastmile_qr_scan", "ios": "https://dc.lft.to/lastmile_qr_scan"}, "fusion_lon": 0.0, "lat": 38.917187, "bike_id": "8c51cab42fb08bc3a6bb5fba1cb84521", "type": "electric_scooter", "is_reserved": 0, "lon": -77.04155283333333}, {"fusion_lat": 0.0, "name": "24fcb169ed18c5738abde0cc3719a9b7", "is_disabled": 0, "rental_uris": {"android": "https://dc.lft.to/lastmile_qr_scan", "ios": "https://dc.lft.to/lastmile_qr_scan"}, "fusion_lon": 0.0, "lat": 38.895407166666665, "bike_id": "24fcb169ed18c5738abde0cc3719a9b7", "type": "electric_scooter", "is_reserved": 0, "lon": -76.9820525}, {"fusion_lat": 0.0, "name": "59da124fc71c3f7e9091ff7d3cc3063b", "is_disabled": 0, "rental_uris": {"android": "https://dc.lft.to/lastmile_qr_scan", "ios": "https://dc.lft.to/lastmile_qr_scan"}, "fusion_lon": 0.0, "lat": 38.90930516666667, "bike_id": "59da124fc71c3f7e9091ff7d3cc3063b", "type": "electric_scooter", "is_reserved": 0, "lon": -77.02128133333333}, {"fusion_lat": 0.0, "name": "814ca36346d04f08aa9356dbb0e47d4e", "is_disabled": 0, "rental_uris": {"android": "https://dc.lft.to/lastmile_qr_scan", "ios": "https://dc.lft.to/lastmile_qr_scan"}, "fusion_lon": 0.0, "lat": 38.88988066666667, "bike_id": "814ca36346d04f08aa9356dbb0e47d4e", "type": "electric_scooter", "is_reserved": 0, "lon": -76.98736366666667}, {"fusion_lat": 0.0, "name": "9be0028f441de7fbcd1b0ee055ceb592", "is_disabled": 0, "rental_uris": {"android": "https://dc.lft.to/lastmile_qr_scan", "ios": "https://dc.lft.to/lastmile_qr_scan"}, "fusion_lon": 0.0, "lat": 38.903930833333334, "bike_id": "9be0028f441de7fbcd1b0ee055ceb592", "type": "electric_scooter", "is_reserved": 0, "lon": -76.9901045}, {"fusion_lat": 0.0, "name": "f11719d32ff2c0545c5b0be168e19789", "is_disabled": 0, "rental_uris": {"android": "https://dc.lft.to/lastmile_qr_scan", "ios": "https://dc.lft.to/lastmile_qr_scan"}, "fusion_lon": 0.0, "lat": 38.898205833333336, "bike_id": "f11719d32ff2c0545c5b0be168e19789", "type": "electric_scooter", "is_reserved": 0, "lon": -77.031553}, {"fusion_lat": 0.0, "name": "ec16346c2ee96cb24ff85f4c05318e2b", "is_disabled": 0, "rental_uris": {"android": "https://dc.lft.to/lastmile_qr_scan", "ios": "https://dc.lft.to/lastmile_qr_scan"}, "fusion_lon": 0.0, "lat": 38.9394155, "bike_id": "ec16346c2ee96cb24ff85f4c05318e2b", "type": "electric_scooter", "is_reserved": 0, "lon": -77.03323433333334}, {"fusion_lat": 0.0, "name": "b8ae72bb59c3192bf3a0db4fdbf01ffe", "is_disabled": 0, "rental_uris": {"android": "https://dc.lft.to/lastmile_qr_scan", "ios": "https://dc.lft.to/lastmile_qr_scan"}, "fusion_lon": 0.0, "lat": 38.883133, "bike_id": "b8ae72bb59c3192bf3a0db4fdbf01ffe", "type": "electric_scooter", "is_reserved": 0, "lon": -77.01770733333333}, {"fusion_lat": 0.0, "name": "d97da0eb193bd6d8502ba863a7071d30", "is_disabled": 0, "rental_uris": {"android": "https://dc.lft.to/lastmile_qr_scan", "ios": "https://dc.lft.to/lastmile_qr_scan"}, "fusion_lon": 0.0, "lat": 38.906788166666665, "bike_id": "d97da0eb193bd6d8502ba863a7071d30", "type": "electric_scooter", "is_reserved": 0, "lon": -77.07510566666667}, {"fusion_lat": 0.0, "name": "db0e3737b2b10331c2ad9e7e3e06eec2", "is_disabled": 0, "rental_uris": {"android": "https://dc.lft.to/lastmile_qr_scan", "ios": "https://dc.lft.to/lastmile_qr_scan"}, "fusion_lon": 0.0, "lat": 38.87289666666667, "bike_id": "db0e3737b2b10331c2ad9e7e3e06eec2", "type": "electric_scooter", "is_reserved": 0, "lon": -77.00995916666666}, {"fusion_lat": 0.0, "name": "f7d9b329038d6464885670e257b78542", "is_disabled": 0, "rental_uris": {"android": "https://dc.lft.to/lastmile_qr_scan", "ios": "https://dc.lft.to/lastmile_qr_scan"}, "fusion_lon": 0.0, "lat": 38.9057605, "bike_id": "f7d9b329038d6464885670e257b78542", "type": "electric_scooter", "is_reserved": 0, "lon": -77.02208366666666}, {"fusion_lat": 0.0, "name": "4adb66098dbec80ca4afc7f28f5c605e", "is_disabled": 0, "rental_uris": {"android": "https://dc.lft.to/lastmile_qr_scan", "ios": "https://dc.lft.to/lastmile_qr_scan"}, "fusion_lon": 0.0, "lat": 38.92700766666667, "bike_id": "4adb66098dbec80ca4afc7f28f5c605e", "type": "electric_scooter", "is_reserved": 0, "lon": -77.020848}, {"fusion_lat": 0.0, "name": "541b696b7d4bb4294398c4de743ad424", "is_disabled": 0, "rental_uris": {"android": "https://dc.lft.to/lastmile_qr_scan", "ios": "https://dc.lft.to/lastmile_qr_scan"}, "fusion_lon": 0.0, "lat": 38.88488733333333, "bike_id": "541b696b7d4bb4294398c4de743ad424", "type": "electric_scooter", "is_reserved": 0, "lon": -77.020996}, {"fusion_lat": 0.0, "name": "ad29401a0abf610f345252d0e2272bb1", "is_disabled": 0, "rental_uris": {"android": "https://dc.lft.to/lastmile_qr_scan", "ios": "https://dc.lft.to/lastmile_qr_scan"}, "fusion_lon": 0.0, "lat": 38.90236516666667, "bike_id": "ad29401a0abf610f345252d0e2272bb1", "type": "electric_scooter", "is_reserved": 0, "lon": -77.02933816666666}, {"fusion_lat": 0.0, "name": "a26ce8f5fbb9e0f7c88f58770f8a6551", "is_disabled": 0, "rental_uris": {"android": "https://dc.lft.to/lastmile_qr_scan", "ios": "https://dc.lft.to/lastmile_qr_scan"}, "fusion_lon": 0.0, "lat": 38.936012166666664, "bike_id": "a26ce8f5fbb9e0f7c88f58770f8a6551", "type": "electric_scooter", "is_reserved": 0, "lon": -77.024116}, {"fusion_lat": 0.0, "name": "85230beb575fc3c732576b9db9a28d63", "is_disabled": 0, "rental_uris": {"android": "https://dc.lft.to/lastmile_qr_scan", "ios": "https://dc.lft.to/lastmile_qr_scan"}, "fusion_lon": 0.0, "lat": 38.943121833333336, "bike_id": "85230beb575fc3c732576b9db9a28d63", "type": "electric_scooter", "is_reserved": 0, "lon": -77.06074283333334}, {"fusion_lat": 0.0, "name": "1ee8c3bfe75b98bf56c98c8e9522271f", "is_disabled": 0, "rental_uris": {"android": "https://dc.lft.to/lastmile_qr_scan", "ios": "https://dc.lft.to/lastmile_qr_scan"}, "fusion_lon": 0.0, "lat": 38.90728216666667, "bike_id": "1ee8c3bfe75b98bf56c98c8e9522271f", "type": "electric_scooter", "is_reserved": 0, "lon": -77.02979016666667}, {"fusion_lat": 0.0, "name": "42482db9ad01b752bde88a698b1616c1", "is_disabled": 0, "rental_uris": {"android": "https://dc.lft.to/lastmile_qr_scan", "ios": "https://dc.lft.to/lastmile_qr_scan"}, "fusion_lon": 0.0, "lat": 38.922983, "bike_id": "42482db9ad01b752bde88a698b1616c1", "type": "electric_scooter", "is_reserved": 0, "lon": -77.04263566666667}, {"fusion_lat": 0.0, "name": "b739f26d88fb38b8289e57e526f4694e", "is_disabled": 0, "rental_uris": {"android": "https://dc.lft.to/lastmile_qr_scan", "ios": "https://dc.lft.to/lastmile_qr_scan"}, "fusion_lon": 0.0, "lat": 38.910297666666665, "bike_id": "b739f26d88fb38b8289e57e526f4694e", "type": "electric_scooter", "is_reserved": 0, "lon": -77.015134}, {"fusion_lat": 0.0, "name": "ec6d227443625ffc7c2428186cf50641", "is_disabled": 0, "rental_uris": {"android": "https://dc.lft.to/lastmile_qr_scan", "ios": "https://dc.lft.to/lastmile_qr_scan"}, "fusion_lon": 0.0, "lat": 38.9613265, "bike_id": "ec6d227443625ffc7c2428186cf50641", "type": "electric_scooter", "is_reserved": 0, "lon": -77.02782733333333}, {"fusion_lat": 0.0, "name": "222f8669cbc226def17b3666f443a435", "is_disabled": 0, "rental_uris": {"android": "https://dc.lft.to/lastmile_qr_scan", "ios": "https://dc.lft.to/lastmile_qr_scan"}, "fusion_lon": 0.0, "lat": 38.89243783333333, "bike_id": "222f8669cbc226def17b3666f443a435", "type": "electric_bike", "is_reserved": 0, "lon": -76.98541916666667}, {"fusion_lat": 0.0, "name": "34b7b69ddf7b389f5c02aa51f9733848", "is_disabled": 0, "rental_uris": {"android": "https://dc.lft.to/lastmile_qr_scan", "ios": "https://dc.lft.to/lastmile_qr_scan"}, "fusion_lon": 0.0, "lat": 38.920312833333334, "bike_id": "34b7b69ddf7b389f5c02aa51f9733848", "type": "electric_scooter", "is_reserved": 0, "lon": -77.01029166666666}, {"fusion_lat": 0.0, "name": "3ffb6789c423d3219ca09a269ec46472", "is_disabled": 0, "rental_uris": {"android": "https://dc.lft.to/lastmile_qr_scan", "ios": "https://dc.lft.to/lastmile_qr_scan"}, "fusion_lon": 0.0, "lat": 38.893505833333336, "bike_id": "3ffb6789c423d3219ca09a269ec46472", "type": "electric_bike", "is_reserved": 0, "lon": -77.1874395}, {"fusion_lat": 0.0, "name": "5cabd267ae9bcbd5f02ce1587219af26", "is_disabled": 0, "rental_uris": {"android": "https://dc.lft.to/lastmile_qr_scan", "ios": "https://dc.lft.to/lastmile_qr_scan"}, "fusion_lon": 0.0, "lat": 38.922448833333334, "bike_id": "5cabd267ae9bcbd5f02ce1587219af26", "type": "electric_scooter", "is_reserved": 0, "lon": -77.02970716666667}, {"fusion_lat": 0.0, "name": "aac1587e9c61831d843aeee0d22af5b6", "is_disabled": 0, "rental_uris": {"android": "https://dc.lft.to/lastmile_qr_scan", "ios": "https://dc.lft.to/lastmile_qr_scan"}, "fusion_lon": 0.0, "lat": 38.892181666666666, "bike_id": "aac1587e9c61831d843aeee0d22af5b6", "type": "electric_scooter", "is_reserved": 0, "lon": -77.03982333333333}, {"fusion_lat": 0.0, "name": "43429feaeb55c1893edfd673a9585833", "is_disabled": 0, "rental_uris": {"android": "https://dc.lft.to/lastmile_qr_scan", "ios": "https://dc.lft.to/lastmile_qr_scan"}, "fusion_lon": 0.0, "lat": 38.889136666666666, "bike_id": "43429feaeb55c1893edfd673a9585833", "type": "electric_bike", "is_reserved": 0, "lon": -77.04930333333333}, {"fusion_lat": 0.0, "name": "536c3c0bd48d4f679faf1ceb8b67e26d", "is_disabled": 0, "rental_uris": {"android": "https://dc.lft.to/lastmile_qr_scan", "ios": "https://dc.lft.to/lastmile_qr_scan"}, "fusion_lon": 0.0, "lat": 38.962289166666665, "bike_id": "536c3c0bd48d4f679faf1ceb8b67e26d", "type": "electric_bike", "is_reserved": 0, "lon": -76.92764133333333}, {"fusion_lat": 0.0, "name": "ab3947dad735eeaa2286b70c4433f58d", "is_disabled": 0, "rental_uris": {"android": "https://dc.lft.to/lastmile_qr_scan", "ios": "https://dc.lft.to/lastmile_qr_scan"}, "fusion_lon": 0.0, "lat": 38.93066783333333, "bike_id": "ab3947dad735eeaa2286b70c4433f58d", "type": "electric_scooter", "is_reserved": 0, "lon": -77.019589}, {"fusion_lat": 0.0, "name": "c12f60886fc34ed3efdb50961c267553", "is_disabled": 0, "rental_uris": {"android": "https://dc.lft.to/lastmile_qr_scan", "ios": "https://dc.lft.to/lastmile_qr_scan"}, "fusion_lon": 0.0, "lat": 38.898483666666664, "bike_id": "c12f60886fc34ed3efdb50961c267553", "type": "electric_scooter", "is_reserved": 0, "lon": -76.9462845}, {"fusion_lat": 0.0, "name": "8a47585f3c3d46bfa6c8bb91fee5f2ed", "is_disabled": 0, "rental_uris": {"android": "https://dc.lft.to/lastmile_qr_scan", "ios": "https://dc.lft.to/lastmile_qr_scan"}, "fusion_lon": 0.0, "lat": 38.949504166666664, "bike_id": "8a47585f3c3d46bfa6c8bb91fee5f2ed", "type": "electric_scooter", "is_reserved": 0, "lon": -77.02313416666667}, {"fusion_lat": 0.0, "name": "9da30abeaabe6204bf05b6483550d279", "is_disabled": 0, "rental_uris": {"android": "https://dc.lft.to/lastmile_qr_scan", "ios": "https://dc.lft.to/lastmile_qr_scan"}, "fusion_lon": 0.0, "lat": 38.88903766666667, "bike_id": "9da30abeaabe6204bf05b6483550d279", "type": "electric_scooter", "is_reserved": 0, "lon": -76.99201333333333}, {"fusion_lat": 0.0, "name": "9d07857dd05f47a4118bcffe31ce0a19", "is_disabled": 0, "rental_uris": {"android": "https://dc.lft.to/lastmile_qr_scan", "ios": "https://dc.lft.to/lastmile_qr_scan"}, "fusion_lon": 0.0, "lat": 38.89427083333333, "bike_id": "9d07857dd05f47a4118bcffe31ce0a19", "type": "electric_scooter", "is_reserved": 0, "lon": -77.00101216666667}, {"fusion_lat": 0.0, "name": "abed10bdb29459086237410e2dac56bd", "is_disabled": 0, "rental_uris": {"android": "https://dc.lft.to/lastmile_qr_scan", "ios": "https://dc.lft.to/lastmile_qr_scan"}, "fusion_lon": 0.0, "lat": 38.975180333333334, "bike_id": "abed10bdb29459086237410e2dac56bd", "type": "electric_scooter", "is_reserved": 0, "lon": -77.01736516666666}, {"fusion_lat": 0.0, "name": "895ec8f0ee0aa54875ef3c044391bc2c", "is_disabled": 0, "rental_uris": {"android": "https://dc.lft.to/lastmile_qr_scan", "ios": "https://dc.lft.to/lastmile_qr_scan"}, "fusion_lon": 0.0, "lat": 38.92352483333333, "bike_id": "895ec8f0ee0aa54875ef3c044391bc2c", "type": "electric_scooter", "is_reserved": 0, "lon": -77.03372316666666}, {"fusion_lat": 0.0, "name": "968344a5dae1e2896a9aa74525977dc2", "is_disabled": 0, "rental_uris": {"android": "https://dc.lft.to/lastmile_qr_scan", "ios": "https://dc.lft.to/lastmile_qr_scan"}, "fusion_lon": 0.0, "lat": 38.90368266666667, "bike_id": "968344a5dae1e2896a9aa74525977dc2", "type": "electric_bike", "is_reserved": 0, "lon": -76.97914733333333}, {"fusion_lat": 0.0, "name": "cd7d03bbfbe9c9e0da5c5f5e2665ff68", "is_disabled": 0, "rental_uris": {"android": "https://dc.lft.to/lastmile_qr_scan", "ios": "https://dc.lft.to/lastmile_qr_scan"}, "fusion_lon": 0.0, "lat": 38.877995, "bike_id": "cd7d03bbfbe9c9e0da5c5f5e2665ff68", "type": "electric_scooter", "is_reserved": 0, "lon": -77.001234}, {"fusion_lat": 0.0, "name": "757279c01ec30d995c09d363f0b69441", "is_disabled": 0, "rental_uris": {"android": "https://dc.lft.to/lastmile_qr_scan", "ios": "https://dc.lft.to/lastmile_qr_scan"}, "fusion_lon": 0.0, "lat": 38.89941233333333, "bike_id": "757279c01ec30d995c09d363f0b69441", "type": "electric_scooter", "is_reserved": 0, "lon": -77.028185}, {"fusion_lat": 0.0, "name": "26e8a4d091f45ec4284964f79fa4c926", "is_disabled": 0, "rental_uris": {"android": "https://dc.lft.to/lastmile_qr_scan", "ios": "https://dc.lft.to/lastmile_qr_scan"}, "fusion_lon": 0.0, "lat": 38.87933316666667, "bike_id": "26e8a4d091f45ec4284964f79fa4c926", "type": "electric_scooter", "is_reserved": 0, "lon": -77.009109}, {"fusion_lat": 0.0, "name": "2be332fa2114febd894341fda04c3584", "is_disabled": 0, "rental_uris": {"android": "https://dc.lft.to/lastmile_qr_scan", "ios": "https://dc.lft.to/lastmile_qr_scan"}, "fusion_lon": 0.0, "lat": 38.951793333333335, "bike_id": "2be332fa2114febd894341fda04c3584", "type": "electric_scooter", "is_reserved": 0, "lon": -77.02726116666666}, {"fusion_lat": 0.0, "name": "38e31ad3a42d7d2e1b9cb16b53a593c3", "is_disabled": 0, "rental_uris": {"android": "https://dc.lft.to/lastmile_qr_scan", "ios": "https://dc.lft.to/lastmile_qr_scan"}, "fusion_lon": 0.0, "lat": 38.89751233333333, "bike_id": "38e31ad3a42d7d2e1b9cb16b53a593c3", "type": "electric_scooter", "is_reserved": 0, "lon": -77.04432316666667}, {"fusion_lat": 0.0, "name": "71622c2e6dfcc577fb1a76327cdb4f98", "is_disabled": 0, "rental_uris": {"android": "https://dc.lft.to/lastmile_qr_scan", "ios": "https://dc.lft.to/lastmile_qr_scan"}, "fusion_lon": 0.0, "lat": 38.89208683333333, "bike_id": "71622c2e6dfcc577fb1a76327cdb4f98", "type": "electric_scooter", "is_reserved": 0, "lon": -76.99713833333334}, {"fusion_lat": 0.0, "name": "8aa30e731c1d61205f6eabbd8bf6d765", "is_disabled": 0, "rental_uris": {"android": "https://dc.lft.to/lastmile_qr_scan", "ios": "https://dc.lft.to/lastmile_qr_scan"}, "fusion_lon": 0.0, "lat": 38.92982216666667, "bike_id": "8aa30e731c1d61205f6eabbd8bf6d765", "type": "electric_scooter", "is_reserved": 0, "lon": -77.0197985}, {"fusion_lat": 0.0, "name": "d6f69381963c7c85e046c125c56712d9", "is_disabled": 0, "rental_uris": {"android": "https://dc.lft.to/lastmile_qr_scan", "ios": "https://dc.lft.to/lastmile_qr_scan"}, "fusion_lon": 0.0, "lat": 38.88435916666667, "bike_id": "d6f69381963c7c85e046c125c56712d9", "type": "electric_bike", "is_reserved": 0, "lon": -76.954014}, {"fusion_lat": 0.0, "name": "bb0d41b8473565262fd44df1593634e1", "is_disabled": 0, "rental_uris": {"android": "https://dc.lft.to/lastmile_qr_scan", "ios": "https://dc.lft.to/lastmile_qr_scan"}, "fusion_lon": 0.0, "lat": 38.918223166666664, "bike_id": "bb0d41b8473565262fd44df1593634e1", "type": "electric_scooter", "is_reserved": 0, "lon": -77.0417595}, {"fusion_lat": 0.0, "name": "a0257da9e3ad2f1aad1e33f8501d194b", "is_disabled": 0, "rental_uris": {"android": "https://dc.lft.to/lastmile_qr_scan", "ios": "https://dc.lft.to/lastmile_qr_scan"}, "fusion_lon": 0.0, "lat": 38.90131733333333, "bike_id": "a0257da9e3ad2f1aad1e33f8501d194b", "type": "electric_scooter", "is_reserved": 0, "lon": -77.00324366666666}, {"fusion_lat": 0.0, "name": "4d29f2cf5ae579e7a850b60cf89fcc80", "is_disabled": 0, "rental_uris": {"android": "https://dc.lft.to/lastmile_qr_scan", "ios": "https://dc.lft.to/lastmile_qr_scan"}, "fusion_lon": 0.0, "lat": 38.924223166666664, "bike_id": "4d29f2cf5ae579e7a850b60cf89fcc80", "type": "electric_bike", "is_reserved": 0, "lon": -77.0504665}, {"fusion_lat": 0.0, "name": "f50b18739a5617e6308c6cce29f90473", "is_disabled": 0, "rental_uris": {"android": "https://dc.lft.to/lastmile_qr_scan", "ios": "https://dc.lft.to/lastmile_qr_scan"}, "fusion_lon": 0.0, "lat": 38.9595775, "bike_id": "f50b18739a5617e6308c6cce29f90473", "type": "electric_bike", "is_reserved": 0, "lon": -76.98164566666667}, {"fusion_lat": 0.0, "name": "f945e62b2da8a2cc90bf6b298b445bf0", "is_disabled": 0, "rental_uris": {"android": "https://dc.lft.to/lastmile_qr_scan", "ios": "https://dc.lft.to/lastmile_qr_scan"}, "fusion_lon": 0.0, "lat": 38.92861166666667, "bike_id": "f945e62b2da8a2cc90bf6b298b445bf0", "type": "electric_scooter", "is_reserved": 0, "lon": -77.030982}, {"fusion_lat": 0.0, "name": "318ea48c8ccf4797aa406dc92c130299", "is_disabled": 0, "rental_uris": {"android": "https://dc.lft.to/lastmile_qr_scan", "ios": "https://dc.lft.to/lastmile_qr_scan"}, "fusion_lon": 0.0, "lat": 38.92638766666666, "bike_id": "318ea48c8ccf4797aa406dc92c130299", "type": "electric_scooter", "is_reserved": 0, "lon": -77.02700783333333}, {"fusion_lat": 0.0, "name": "c99412ad72b6c9ba20f95c3f95b377c9", "is_disabled": 0, "rental_uris": {"android": "https://dc.lft.to/lastmile_qr_scan", "ios": "https://dc.lft.to/lastmile_qr_scan"}, "fusion_lon": 0.0, "lat": 38.8990075, "bike_id": "c99412ad72b6c9ba20f95c3f95b377c9", "type": "electric_scooter", "is_reserved": 0, "lon": -76.9336125}, {"fusion_lat": 0.0, "name": "db007a61d13a8fa0bde2e6aa692dd895", "is_disabled": 0, "rental_uris": {"android": "https://dc.lft.to/lastmile_qr_scan", "ios": "https://dc.lft.to/lastmile_qr_scan"}, "fusion_lon": 0.0, "lat": 38.92033216666667, "bike_id": "db007a61d13a8fa0bde2e6aa692dd895", "type": "electric_scooter", "is_reserved": 0, "lon": -77.04821183333334}, {"fusion_lat": 0.0, "name": "de019036ccc0c7e4feb6c06b10aaaa62", "is_disabled": 0, "rental_uris": {"android": "https://dc.lft.to/lastmile_qr_scan", "ios": "https://dc.lft.to/lastmile_qr_scan"}, "fusion_lon": 0.0, "lat": 38.9206855, "bike_id": "de019036ccc0c7e4feb6c06b10aaaa62", "type": "electric_scooter", "is_reserved": 0, "lon": -77.01814683333333}, {"fusion_lat": 0.0, "name": "48d2ac5760da4396714651381f9fdd10", "is_disabled": 0, "rental_uris": {"android": "https://dc.lft.to/lastmile_qr_scan", "ios": "https://dc.lft.to/lastmile_qr_scan"}, "fusion_lon": 0.0, "lat": 38.896301333333334, "bike_id": "48d2ac5760da4396714651381f9fdd10", "type": "electric_scooter", "is_reserved": 0, "lon": -77.046577}, {"fusion_lat": 0.0, "name": "650c980a24180f127f503133d167548a", "is_disabled": 0, "rental_uris": {"android": "https://dc.lft.to/lastmile_qr_scan", "ios": "https://dc.lft.to/lastmile_qr_scan"}, "fusion_lon": 0.0, "lat": 38.957586166666665, "bike_id": "650c980a24180f127f503133d167548a", "type": "electric_bike", "is_reserved": 0, "lon": -76.980987}, {"fusion_lat": 0.0, "name": "f5441d56295ea99efac53c886a78e5b3", "is_disabled": 0, "rental_uris": {"android": "https://dc.lft.to/lastmile_qr_scan", "ios": "https://dc.lft.to/lastmile_qr_scan"}, "fusion_lon": 0.0, "lat": 38.89891716666666, "bike_id": "f5441d56295ea99efac53c886a78e5b3", "type": "electric_scooter", "is_reserved": 0, "lon": -77.03280166666667}, {"fusion_lat": 0.0, "name": "d88fa13f6238becab3fc2787106d71e1", "is_disabled": 0, "rental_uris": {"android": "https://dc.lft.to/lastmile_qr_scan", "ios": "https://dc.lft.to/lastmile_qr_scan"}, "fusion_lon": 0.0, "lat": 38.92906816666667, "bike_id": "d88fa13f6238becab3fc2787106d71e1", "type": "electric_scooter", "is_reserved": 0, "lon": -77.0640395}, {"fusion_lat": 0.0, "name": "19d5fd3a0edb3f45c82bc30801ebd957", "is_disabled": 0, "rental_uris": {"android": "https://dc.lft.to/lastmile_qr_scan", "ios": "https://dc.lft.to/lastmile_qr_scan"}, "fusion_lon": 0.0, "lat": 38.906294833333334, "bike_id": "19d5fd3a0edb3f45c82bc30801ebd957", "type": "electric_scooter", "is_reserved": 0, "lon": -77.006041}, {"fusion_lat": 0.0, "name": "1ade6dad6507d49aa952948304cf1d52", "is_disabled": 0, "rental_uris": {"android": "https://dc.lft.to/lastmile_qr_scan", "ios": "https://dc.lft.to/lastmile_qr_scan"}, "fusion_lon": 0.0, "lat": 38.94289833333333, "bike_id": "1ade6dad6507d49aa952948304cf1d52", "type": "electric_scooter", "is_reserved": 0, "lon": -77.02175283333334}, {"fusion_lat": 0.0, "name": "1eb2c06e8b9da7eb5e7fed0eb3d881ab", "is_disabled": 0, "rental_uris": {"android": "https://dc.lft.to/lastmile_qr_scan", "ios": "https://dc.lft.to/lastmile_qr_scan"}, "fusion_lon": 0.0, "lat": 38.89819966666666, "bike_id": "1eb2c06e8b9da7eb5e7fed0eb3d881ab", "type": "electric_scooter", "is_reserved": 0, "lon": -77.031971}, {"fusion_lat": 0.0, "name": "67bf4abb6f4e43ea50cd4ceeaa7c767e", "is_disabled": 0, "rental_uris": {"android": "https://dc.lft.to/lastmile_qr_scan", "ios": "https://dc.lft.to/lastmile_qr_scan"}, "fusion_lon": 0.0, "lat": 38.923972166666665, "bike_id": "67bf4abb6f4e43ea50cd4ceeaa7c767e", "type": "electric_scooter", "is_reserved": 0, "lon": -77.04307033333333}, {"fusion_lat": 0.0, "name": "d31a417a8f791324c320057e57e024b6", "is_disabled": 0, "rental_uris": {"android": "https://dc.lft.to/lastmile_qr_scan", "ios": "https://dc.lft.to/lastmile_qr_scan"}, "fusion_lon": 0.0, "lat": 38.897373333333334, "bike_id": "d31a417a8f791324c320057e57e024b6", "type": "electric_scooter", "is_reserved": 0, "lon": -77.02398133333334}, {"fusion_lat": 0.0, "name": "ee5126e9e54d4d6f2c805e6cfe42e229", "is_disabled": 0, "rental_uris": {"android": "https://dc.lft.to/lastmile_qr_scan", "ios": "https://dc.lft.to/lastmile_qr_scan"}, "fusion_lon": 0.0, "lat": 38.9074075, "bike_id": "ee5126e9e54d4d6f2c805e6cfe42e229", "type": "electric_scooter", "is_reserved": 0, "lon": -77.04197283333333}, {"fusion_lat": 0.0, "name": "bb604d5f9e830ba01a48cf1fe922c30e", "is_disabled": 0, "rental_uris": {"android": "https://dc.lft.to/lastmile_qr_scan", "ios": "https://dc.lft.to/lastmile_qr_scan"}, "fusion_lon": 0.0, "lat": 38.931223833333334, "bike_id": "bb604d5f9e830ba01a48cf1fe922c30e", "type": "electric_scooter", "is_reserved": 0, "lon": -76.98442666666666}, {"fusion_lat": 0.0, "name": "5d81c08ebe005366e6816bf6a8777106", "is_disabled": 0, "rental_uris": {"android": "https://dc.lft.to/lastmile_qr_scan", "ios": "https://dc.lft.to/lastmile_qr_scan"}, "fusion_lon": 0.0, "lat": 38.909543666666664, "bike_id": "5d81c08ebe005366e6816bf6a8777106", "type": "electric_scooter", "is_reserved": 0, "lon": -76.98541483333334}, {"fusion_lat": 0.0, "name": "2362893a4498ceb72420cdc381382dbc", "is_disabled": 0, "rental_uris": {"android": "https://dc.lft.to/lastmile_qr_scan", "ios": "https://dc.lft.to/lastmile_qr_scan"}, "fusion_lon": 0.0, "lat": 38.933972833333335, "bike_id": "2362893a4498ceb72420cdc381382dbc", "type": "electric_scooter", "is_reserved": 0, "lon": -77.02839783333333}, {"fusion_lat": 0.0, "name": "235143bef7624ec0bbb262c73c317db2", "is_disabled": 0, "rental_uris": {"android": "https://dc.lft.to/lastmile_qr_scan", "ios": "https://dc.lft.to/lastmile_qr_scan"}, "fusion_lon": 0.0, "lat": 38.8948905, "bike_id": "235143bef7624ec0bbb262c73c317db2", "type": "electric_scooter", "is_reserved": 0, "lon": -77.002546}, {"fusion_lat": 0.0, "name": "1a766149cc56d2c4e1d2ca5664f39351", "is_disabled": 0, "rental_uris": {"android": "https://dc.lft.to/lastmile_qr_scan", "ios": "https://dc.lft.to/lastmile_qr_scan"}, "fusion_lon": 0.0, "lat": 38.8922095, "bike_id": "1a766149cc56d2c4e1d2ca5664f39351", "type": "electric_scooter", "is_reserved": 0, "lon": -77.04505066666667}, {"fusion_lat": 0.0, "name": "d32936c2efe5908356ccf69f65b54ac8", "is_disabled": 0, "rental_uris": {"android": "https://dc.lft.to/lastmile_qr_scan", "ios": "https://dc.lft.to/lastmile_qr_scan"}, "fusion_lon": 0.0, "lat": 38.952818, "bike_id": "d32936c2efe5908356ccf69f65b54ac8", "type": "electric_bike", "is_reserved": 0, "lon": -77.00004833333334}, {"fusion_lat": 0.0, "name": "969747078184d03d8d07674f48435721", "is_disabled": 0, "rental_uris": {"android": "https://dc.lft.to/lastmile_qr_scan", "ios": "https://dc.lft.to/lastmile_qr_scan"}, "fusion_lon": 0.0, "lat": 38.841272333333336, "bike_id": "969747078184d03d8d07674f48435721", "type": "electric_bike", "is_reserved": 0, "lon": -77.06308083333333}, {"fusion_lat": 0.0, "name": "9c8a1f6e096c4400705f209d97370e28", "is_disabled": 0, "rental_uris": {"android": "https://dc.lft.to/lastmile_qr_scan", "ios": "https://dc.lft.to/lastmile_qr_scan"}, "fusion_lon": 0.0, "lat": 38.899628166666666, "bike_id": "9c8a1f6e096c4400705f209d97370e28", "type": "electric_scooter", "is_reserved": 0, "lon": -76.98162616666667}, {"fusion_lat": 0.0, "name": "1393bd7cca154f75e0a3ec216da0d7e7", "is_disabled": 0, "rental_uris": {"android": "https://dc.lft.to/lastmile_qr_scan", "ios": "https://dc.lft.to/lastmile_qr_scan"}, "fusion_lon": 0.0, "lat": 38.8975095, "bike_id": "1393bd7cca154f75e0a3ec216da0d7e7", "type": "electric_scooter", "is_reserved": 0, "lon": -77.03313383333334}, {"fusion_lat": 0.0, "name": "02f7db2903e99d68d8c621e7b9c84d4b", "is_disabled": 0, "rental_uris": {"android": "https://dc.lft.to/lastmile_qr_scan", "ios": "https://dc.lft.to/lastmile_qr_scan"}, "fusion_lon": 0.0, "lat": 38.935314166666664, "bike_id": "02f7db2903e99d68d8c621e7b9c84d4b", "type": "electric_scooter", "is_reserved": 0, "lon": -77.0451855}, {"fusion_lat": 0.0, "name": "66ba1b703434aa7a3aea4d7b383e7f63", "is_disabled": 0, "rental_uris": {"android": "https://dc.lft.to/lastmile_qr_scan", "ios": "https://dc.lft.to/lastmile_qr_scan"}, "fusion_lon": 0.0, "lat": 38.974965833333336, "bike_id": "66ba1b703434aa7a3aea4d7b383e7f63", "type": "electric_scooter", "is_reserved": 0, "lon": -77.01693166666666}, {"fusion_lat": 0.0, "name": "bae324bf3290cfd56b1773aa42ab26c9", "is_disabled": 0, "rental_uris": {"android": "https://dc.lft.to/lastmile_qr_scan", "ios": "https://dc.lft.to/lastmile_qr_scan"}, "fusion_lon": 0.0, "lat": 38.883182166666664, "bike_id": "bae324bf3290cfd56b1773aa42ab26c9", "type": "electric_scooter", "is_reserved": 0, "lon": -77.01369183333334}, {"fusion_lat": 0.0, "name": "7c4b39b86cbeb90964163ecb707d212b", "is_disabled": 0, "rental_uris": {"android": "https://dc.lft.to/lastmile_qr_scan", "ios": "https://dc.lft.to/lastmile_qr_scan"}, "fusion_lon": 0.0, "lat": 38.90352266666667, "bike_id": "7c4b39b86cbeb90964163ecb707d212b", "type": "electric_scooter", "is_reserved": 0, "lon": -76.97479016666666}, {"fusion_lat": 0.0, "name": "a8d9e9364d358587d0d185b48ec8e709", "is_disabled": 0, "rental_uris": {"android": "https://dc.lft.to/lastmile_qr_scan", "ios": "https://dc.lft.to/lastmile_qr_scan"}, "fusion_lon": 0.0, "lat": 38.918546, "bike_id": "a8d9e9364d358587d0d185b48ec8e709", "type": "electric_scooter", "is_reserved": 0, "lon": -77.03485716666667}, {"fusion_lat": 0.0, "name": "0f74e999bb89622ffe0779ba32f5441f", "is_disabled": 0, "rental_uris": {"android": "https://dc.lft.to/lastmile_qr_scan", "ios": "https://dc.lft.to/lastmile_qr_scan"}, "fusion_lon": 0.0, "lat": 38.9086925, "bike_id": "0f74e999bb89622ffe0779ba32f5441f", "type": "electric_scooter", "is_reserved": 0, "lon": -77.05425983333333}, {"fusion_lat": 0.0, "name": "2327c739fd8dca5ff60d249379fa5d77", "is_disabled": 0, "rental_uris": {"android": "https://dc.lft.to/lastmile_qr_scan", "ios": "https://dc.lft.to/lastmile_qr_scan"}, "fusion_lon": 0.0, "lat": 38.90971183333333, "bike_id": "2327c739fd8dca5ff60d249379fa5d77", "type": "electric_scooter", "is_reserved": 0, "lon": -77.04874483333333}, {"fusion_lat": 0.0, "name": "b28a76b9f69244d397a9f9ed1516e533", "is_disabled": 0, "rental_uris": {"android": "https://dc.lft.to/lastmile_qr_scan", "ios": "https://dc.lft.to/lastmile_qr_scan"}, "fusion_lon": 0.0, "lat": 38.895191, "bike_id": "b28a76b9f69244d397a9f9ed1516e533", "type": "electric_scooter", "is_reserved": 0, "lon": -77.0267425}, {"fusion_lat": 0.0, "name": "eb206058c0a13acc56e14d5f4ead6aec", "is_disabled": 0, "rental_uris": {"android": "https://dc.lft.to/lastmile_qr_scan", "ios": "https://dc.lft.to/lastmile_qr_scan"}, "fusion_lon": 0.0, "lat": 38.88396216666667, "bike_id": "eb206058c0a13acc56e14d5f4ead6aec", "type": "electric_bike", "is_reserved": 0, "lon": -76.96050866666667}, {"fusion_lat": 0.0, "name": "a6fde5e96053191915822ac032c7749e", "is_disabled": 0, "rental_uris": {"android": "https://dc.lft.to/lastmile_qr_scan", "ios": "https://dc.lft.to/lastmile_qr_scan"}, "fusion_lon": 0.0, "lat": 38.876855666666664, "bike_id": "a6fde5e96053191915822ac032c7749e", "type": "electric_scooter", "is_reserved": 0, "lon": -77.01754666666666}, {"fusion_lat": 0.0, "name": "491eae03b0e8a3f2edf327921c3f99a7", "is_disabled": 0, "rental_uris": {"android": "https://dc.lft.to/lastmile_qr_scan", "ios": "https://dc.lft.to/lastmile_qr_scan"}, "fusion_lon": 0.0, "lat": 38.920888, "bike_id": "491eae03b0e8a3f2edf327921c3f99a7", "type": "electric_scooter", "is_reserved": 0, "lon": -76.9945725}, {"fusion_lat": 0.0, "name": "df0b9ede75fd835720f37e59ffac9ebb", "is_disabled": 0, "rental_uris": {"android": "https://dc.lft.to/lastmile_qr_scan", "ios": "https://dc.lft.to/lastmile_qr_scan"}, "fusion_lon": 0.0, "lat": 38.91469466666667, "bike_id": "df0b9ede75fd835720f37e59ffac9ebb", "type": "electric_scooter", "is_reserved": 0, "lon": -77.04541266666666}, {"fusion_lat": 0.0, "name": "d30d47d68fe7abaac946a9058384f02e", "is_disabled": 0, "rental_uris": {"android": "https://dc.lft.to/lastmile_qr_scan", "ios": "https://dc.lft.to/lastmile_qr_scan"}, "fusion_lon": 0.0, "lat": 38.898268, "bike_id": "d30d47d68fe7abaac946a9058384f02e", "type": "electric_scooter", "is_reserved": 0, "lon": -76.94629466666666}, {"fusion_lat": 0.0, "name": "6a52fc64a6515d4384692d048930d2e2", "is_disabled": 0, "rental_uris": {"android": "https://dc.lft.to/lastmile_qr_scan", "ios": "https://dc.lft.to/lastmile_qr_scan"}, "fusion_lon": 0.0, "lat": 38.90410766666667, "bike_id": "6a52fc64a6515d4384692d048930d2e2", "type": "electric_scooter", "is_reserved": 0, "lon": -76.97333216666667}, {"fusion_lat": 0.0, "name": "5c0b08a45f19d6d70b8951cd327658b7", "is_disabled": 0, "rental_uris": {"android": "https://dc.lft.to/lastmile_qr_scan", "ios": "https://dc.lft.to/lastmile_qr_scan"}, "fusion_lon": 0.0, "lat": 38.927493166666665, "bike_id": "5c0b08a45f19d6d70b8951cd327658b7", "type": "electric_scooter", "is_reserved": 0, "lon": -77.03427133333334}, {"fusion_lat": 0.0, "name": "ee863fd224311ecce8b20001fe1a9192", "is_disabled": 0, "rental_uris": {"android": "https://dc.lft.to/lastmile_qr_scan", "ios": "https://dc.lft.to/lastmile_qr_scan"}, "fusion_lon": 0.0, "lat": 38.9001445, "bike_id": "ee863fd224311ecce8b20001fe1a9192", "type": "electric_scooter", "is_reserved": 0, "lon": -77.00202833333333}, {"fusion_lat": 0.0, "name": "a43ebb22c74a9d9910fd6f702511dfe4", "is_disabled": 0, "rental_uris": {"android": "https://dc.lft.to/lastmile_qr_scan", "ios": "https://dc.lft.to/lastmile_qr_scan"}, "fusion_lon": 0.0, "lat": 38.8870985, "bike_id": "a43ebb22c74a9d9910fd6f702511dfe4", "type": "electric_scooter", "is_reserved": 0, "lon": -77.00240033333333}, {"fusion_lat": 0.0, "name": "1323b24388eaed00b885433a334a5737", "is_disabled": 0, "rental_uris": {"android": "https://dc.lft.to/lastmile_qr_scan", "ios": "https://dc.lft.to/lastmile_qr_scan"}, "fusion_lon": 0.0, "lat": 38.8217385, "bike_id": "1323b24388eaed00b885433a334a5737", "type": "electric_bike", "is_reserved": 0, "lon": -76.99516033333333}, {"fusion_lat": 0.0, "name": "9c1d63f70a081e41575914903092b83a", "is_disabled": 0, "rental_uris": {"android": "https://dc.lft.to/lastmile_qr_scan", "ios": "https://dc.lft.to/lastmile_qr_scan"}, "fusion_lon": 0.0, "lat": 38.896912, "bike_id": "9c1d63f70a081e41575914903092b83a", "type": "electric_scooter", "is_reserved": 0, "lon": -77.02996666666667}, {"fusion_lat": 0.0, "name": "f36a11211f2570ea91a847bea53d90e7", "is_disabled": 0, "rental_uris": {"android": "https://dc.lft.to/lastmile_qr_scan", "ios": "https://dc.lft.to/lastmile_qr_scan"}, "fusion_lon": 0.0, "lat": 38.91873316666667, "bike_id": "f36a11211f2570ea91a847bea53d90e7", "type": "electric_scooter", "is_reserved": 0, "lon": -77.03497666666667}, {"fusion_lat": 0.0, "name": "730e892fba3fe8ae730b9bc28c03071e", "is_disabled": 0, "rental_uris": {"android": "https://dc.lft.to/lastmile_qr_scan", "ios": "https://dc.lft.to/lastmile_qr_scan"}, "fusion_lon": 0.0, "lat": 38.896806166666664, "bike_id": "730e892fba3fe8ae730b9bc28c03071e", "type": "electric_scooter", "is_reserved": 0, "lon": -77.05106866666667}, {"fusion_lat": 0.0, "name": "30f253bcd5698a45deac072d503fec19", "is_disabled": 0, "rental_uris": {"android": "https://dc.lft.to/lastmile_qr_scan", "ios": "https://dc.lft.to/lastmile_qr_scan"}, "fusion_lon": 0.0, "lat": 38.897035, "bike_id": "30f253bcd5698a45deac072d503fec19", "type": "electric_bike", "is_reserved": 0, "lon": -77.0241205}, {"fusion_lat": 0.0, "name": "105bcb18cda9c92ceff19fb72d78d034", "is_disabled": 0, "rental_uris": {"android": "https://dc.lft.to/lastmile_qr_scan", "ios": "https://dc.lft.to/lastmile_qr_scan"}, "fusion_lon": 0.0, "lat": 38.91983416666667, "bike_id": "105bcb18cda9c92ceff19fb72d78d034", "type": "electric_scooter", "is_reserved": 0, "lon": -77.04187683333333}, {"fusion_lat": 0.0, "name": "b25a173b7fb7c27a476a5b7732ea2bac", "is_disabled": 0, "rental_uris": {"android": "https://dc.lft.to/lastmile_qr_scan", "ios": "https://dc.lft.to/lastmile_qr_scan"}, "fusion_lon": 0.0, "lat": 38.877476333333334, "bike_id": "b25a173b7fb7c27a476a5b7732ea2bac", "type": "electric_scooter", "is_reserved": 0, "lon": -77.0142765}, {"fusion_lat": 0.0, "name": "322fef9684c4912808ad9de4aa21a332", "is_disabled": 0, "rental_uris": {"android": "https://dc.lft.to/lastmile_qr_scan", "ios": "https://dc.lft.to/lastmile_qr_scan"}, "fusion_lon": 0.0, "lat": 38.92605416666667, "bike_id": "322fef9684c4912808ad9de4aa21a332", "type": "electric_scooter", "is_reserved": 0, "lon": -77.02157016666666}, {"fusion_lat": 0.0, "name": "8a4b07d9348a564c2993c71f7fecc3c5", "is_disabled": 0, "rental_uris": {"android": "https://dc.lft.to/lastmile_qr_scan", "ios": "https://dc.lft.to/lastmile_qr_scan"}, "fusion_lon": 0.0, "lat": 38.9164485, "bike_id": "8a4b07d9348a564c2993c71f7fecc3c5", "type": "electric_scooter", "is_reserved": 0, "lon": -77.03163216666667}, {"fusion_lat": 0.0, "name": "119fbca66dec8aaf27cb2527ae1b82f6", "is_disabled": 0, "rental_uris": {"android": "https://dc.lft.to/lastmile_qr_scan", "ios": "https://dc.lft.to/lastmile_qr_scan"}, "fusion_lon": 0.0, "lat": 38.87950683333333, "bike_id": "119fbca66dec8aaf27cb2527ae1b82f6", "type": "electric_scooter", "is_reserved": 0, "lon": -76.99011033333333}, {"fusion_lat": 0.0, "name": "5d5d6d182ec0b575ae3c37a8acf9b406", "is_disabled": 0, "rental_uris": {"android": "https://dc.lft.to/lastmile_qr_scan", "ios": "https://dc.lft.to/lastmile_qr_scan"}, "fusion_lon": 0.0, "lat": 38.883103, "bike_id": "5d5d6d182ec0b575ae3c37a8acf9b406", "type": "electric_scooter", "is_reserved": 0, "lon": -77.0175955}, {"fusion_lat": 0.0, "name": "aef5b901aee2386ce6aff55d91f9e28b", "is_disabled": 0, "rental_uris": {"android": "https://dc.lft.to/lastmile_qr_scan", "ios": "https://dc.lft.to/lastmile_qr_scan"}, "fusion_lon": 0.0, "lat": 38.896078333333335, "bike_id": "aef5b901aee2386ce6aff55d91f9e28b", "type": "electric_scooter", "is_reserved": 0, "lon": -76.94817266666666}, {"fusion_lat": 0.0, "name": "56ddf440239345b9e52eb84c401b1479", "is_disabled": 0, "rental_uris": {"android": "https://dc.lft.to/lastmile_qr_scan", "ios": "https://dc.lft.to/lastmile_qr_scan"}, "fusion_lon": 0.0, "lat": 38.890038, "bike_id": "56ddf440239345b9e52eb84c401b1479", "type": "electric_scooter", "is_reserved": 0, "lon": -76.93743183333333}, {"fusion_lat": 0.0, "name": "bcfe96f8b5d5b896bbddc7040b3d37db", "is_disabled": 0, "rental_uris": {"android": "https://dc.lft.to/lastmile_qr_scan", "ios": "https://dc.lft.to/lastmile_qr_scan"}, "fusion_lon": 0.0, "lat": 38.804505166666665, "bike_id": "bcfe96f8b5d5b896bbddc7040b3d37db", "type": "electric_bike", "is_reserved": 0, "lon": -77.05395316666667}, {"fusion_lat": 0.0, "name": "9b77db63f64b5172702ad7e48c09dc58", "is_disabled": 0, "rental_uris": {"android": "https://dc.lft.to/lastmile_qr_scan", "ios": "https://dc.lft.to/lastmile_qr_scan"}, "fusion_lon": 0.0, "lat": 38.914717833333334, "bike_id": "9b77db63f64b5172702ad7e48c09dc58", "type": "electric_scooter", "is_reserved": 0, "lon": -77.03212466666666}, {"fusion_lat": 0.0, "name": "4e611da0d851fbb486db0901e569fc2d", "is_disabled": 0, "rental_uris": {"android": "https://dc.lft.to/lastmile_qr_scan", "ios": "https://dc.lft.to/lastmile_qr_scan"}, "fusion_lon": 0.0, "lat": 38.941886333333336, "bike_id": "4e611da0d851fbb486db0901e569fc2d", "type": "electric_scooter", "is_reserved": 0, "lon": -77.02406066666667}, {"fusion_lat": 0.0, "name": "752ccdb9e0a2a821f1fed821d370c92c", "is_disabled": 0, "rental_uris": {"android": "https://dc.lft.to/lastmile_qr_scan", "ios": "https://dc.lft.to/lastmile_qr_scan"}, "fusion_lon": 0.0, "lat": 38.91038533333333, "bike_id": "752ccdb9e0a2a821f1fed821d370c92c", "type": "electric_scooter", "is_reserved": 0, "lon": -77.0383525}, {"fusion_lat": 0.0, "name": "19e773ddf31f787dd9e7c1cfe51f29cd", "is_disabled": 0, "rental_uris": {"android": "https://dc.lft.to/lastmile_qr_scan", "ios": "https://dc.lft.to/lastmile_qr_scan"}, "fusion_lon": 0.0, "lat": 38.909489666666666, "bike_id": "19e773ddf31f787dd9e7c1cfe51f29cd", "type": "electric_scooter", "is_reserved": 0, "lon": -77.03211533333334}, {"fusion_lat": 0.0, "name": "74c2c1a294cf423556f83a32007c305a", "is_disabled": 0, "rental_uris": {"android": "https://dc.lft.to/lastmile_qr_scan", "ios": "https://dc.lft.to/lastmile_qr_scan"}, "fusion_lon": 0.0, "lat": 38.90206666666667, "bike_id": "74c2c1a294cf423556f83a32007c305a", "type": "electric_scooter", "is_reserved": 0, "lon": -76.97509683333334}, {"fusion_lat": 0.0, "name": "01a253f124f27a3ce60f59a547722bae", "is_disabled": 0, "rental_uris": {"android": "https://dc.lft.to/lastmile_qr_scan", "ios": "https://dc.lft.to/lastmile_qr_scan"}, "fusion_lon": 0.0, "lat": 38.9003425, "bike_id": "01a253f124f27a3ce60f59a547722bae", "type": "electric_scooter", "is_reserved": 0, "lon": -76.99251583333333}, {"fusion_lat": 0.0, "name": "fe792ae863cfacde26dda0963e4211f5", "is_disabled": 0, "rental_uris": {"android": "https://dc.lft.to/lastmile_qr_scan", "ios": "https://dc.lft.to/lastmile_qr_scan"}, "fusion_lon": 0.0, "lat": 38.89471233333333, "bike_id": "fe792ae863cfacde26dda0963e4211f5", "type": "electric_scooter", "is_reserved": 0, "lon": -77.02688166666667}, {"fusion_lat": 0.0, "name": "69b0e5242dc252eaf52897e35fe3e0fc", "is_disabled": 0, "rental_uris": {"android": "https://dc.lft.to/lastmile_qr_scan", "ios": "https://dc.lft.to/lastmile_qr_scan"}, "fusion_lon": 0.0, "lat": 38.907290333333336, "bike_id": "69b0e5242dc252eaf52897e35fe3e0fc", "type": "electric_scooter", "is_reserved": 0, "lon": -77.0345135}, {"fusion_lat": 0.0, "name": "2cefd50e7c0ca32d1e0c331594781bc4", "is_disabled": 0, "rental_uris": {"android": "https://dc.lft.to/lastmile_qr_scan", "ios": "https://dc.lft.to/lastmile_qr_scan"}, "fusion_lon": 0.0, "lat": 38.9050445, "bike_id": "2cefd50e7c0ca32d1e0c331594781bc4", "type": "electric_scooter", "is_reserved": 0, "lon": -76.97954933333334}, {"fusion_lat": 0.0, "name": "a119206415052c4d378af246ebed7e79", "is_disabled": 0, "rental_uris": {"android": "https://dc.lft.to/lastmile_qr_scan", "ios": "https://dc.lft.to/lastmile_qr_scan"}, "fusion_lon": 0.0, "lat": 38.9429095, "bike_id": "a119206415052c4d378af246ebed7e79", "type": "electric_scooter", "is_reserved": 0, "lon": -77.0217775}, {"fusion_lat": 0.0, "name": "d11e5af72018fc0522adca7980bb0dbf", "is_disabled": 0, "rental_uris": {"android": "https://dc.lft.to/lastmile_qr_scan", "ios": "https://dc.lft.to/lastmile_qr_scan"}, "fusion_lon": 0.0, "lat": 38.86139383333333, "bike_id": "d11e5af72018fc0522adca7980bb0dbf", "type": "electric_bike", "is_reserved": 0, "lon": -76.97166083333333}, {"fusion_lat": 0.0, "name": "73f9e5d1f567b61c234e91c5801ab1b6", "is_disabled": 0, "rental_uris": {"android": "https://dc.lft.to/lastmile_qr_scan", "ios": "https://dc.lft.to/lastmile_qr_scan"}, "fusion_lon": 0.0, "lat": 38.92655283333333, "bike_id": "73f9e5d1f567b61c234e91c5801ab1b6", "type": "electric_scooter", "is_reserved": 0, "lon": -77.02422016666667}, {"fusion_lat": 0.0, "name": "290f30d75d2acc57f6b626a6c880fb2e", "is_disabled": 0, "rental_uris": {"android": "https://dc.lft.to/lastmile_qr_scan", "ios": "https://dc.lft.to/lastmile_qr_scan"}, "fusion_lon": 0.0, "lat": 38.96604283333333, "bike_id": "290f30d75d2acc57f6b626a6c880fb2e", "type": "electric_bike", "is_reserved": 0, "lon": -77.02806216666667}, {"fusion_lat": 0.0, "name": "bf261598428bd3e2f67dae00e752937c", "is_disabled": 0, "rental_uris": {"android": "https://dc.lft.to/lastmile_qr_scan", "ios": "https://dc.lft.to/lastmile_qr_scan"}, "fusion_lon": 0.0, "lat": 38.93460783333333, "bike_id": "bf261598428bd3e2f67dae00e752937c", "type": "electric_scooter", "is_reserved": 0, "lon": -77.0411995}, {"fusion_lat": 0.0, "name": "a9fd490077409334ec0c24d26da99b87", "is_disabled": 0, "rental_uris": {"android": "https://dc.lft.to/lastmile_qr_scan", "ios": "https://dc.lft.to/lastmile_qr_scan"}, "fusion_lon": 0.0, "lat": 38.91046933333333, "bike_id": "a9fd490077409334ec0c24d26da99b87", "type": "electric_scooter", "is_reserved": 0, "lon": -77.03438966666667}, {"fusion_lat": 0.0, "name": "a19b69af336832b82df1b913fd593dbe", "is_disabled": 0, "rental_uris": {"android": "https://dc.lft.to/lastmile_qr_scan", "ios": "https://dc.lft.to/lastmile_qr_scan"}, "fusion_lon": 0.0, "lat": 38.86681816666667, "bike_id": "a19b69af336832b82df1b913fd593dbe", "type": "electric_scooter", "is_reserved": 0, "lon": -76.98566216666667}, {"fusion_lat": 0.0, "name": "6a6196864fdea876ce94035bd8269a83", "is_disabled": 0, "rental_uris": {"android": "https://dc.lft.to/lastmile_qr_scan", "ios": "https://dc.lft.to/lastmile_qr_scan"}, "fusion_lon": 0.0, "lat": 38.842768666666665, "bike_id": "6a6196864fdea876ce94035bd8269a83", "type": "electric_bike", "is_reserved": 0, "lon": -77.04501816666667}, {"fusion_lat": 0.0, "name": "0ef5b4058dd6b61d4e9607bf0f358814", "is_disabled": 0, "rental_uris": {"android": "https://dc.lft.to/lastmile_qr_scan", "ios": "https://dc.lft.to/lastmile_qr_scan"}, "fusion_lon": 0.0, "lat": 38.88485266666667, "bike_id": "0ef5b4058dd6b61d4e9607bf0f358814", "type": "electric_scooter", "is_reserved": 0, "lon": -77.0071215}, {"fusion_lat": 0.0, "name": "958850813a4125ddd6a50dff1a926c47", "is_disabled": 0, "rental_uris": {"android": "https://dc.lft.to/lastmile_qr_scan", "ios": "https://dc.lft.to/lastmile_qr_scan"}, "fusion_lon": 0.0, "lat": 38.900034, "bike_id": "958850813a4125ddd6a50dff1a926c47", "type": "electric_scooter", "is_reserved": 0, "lon": -76.93154}, {"fusion_lat": 0.0, "name": "b7222d006e9d29f80ca75a6266b6b7da", "is_disabled": 0, "rental_uris": {"android": "https://dc.lft.to/lastmile_qr_scan", "ios": "https://dc.lft.to/lastmile_qr_scan"}, "fusion_lon": 0.0, "lat": 38.92244916666667, "bike_id": "b7222d006e9d29f80ca75a6266b6b7da", "type": "electric_scooter", "is_reserved": 0, "lon": -77.04200316666666}, {"fusion_lat": 0.0, "name": "2ed453c28887128d0e94245e3d0ab3fe", "is_disabled": 0, "rental_uris": {"android": "https://dc.lft.to/lastmile_qr_scan", "ios": "https://dc.lft.to/lastmile_qr_scan"}, "fusion_lon": 0.0, "lat": 38.91538233333333, "bike_id": "2ed453c28887128d0e94245e3d0ab3fe", "type": "electric_scooter", "is_reserved": 0, "lon": -77.03208883333333}, {"fusion_lat": 0.0, "name": "9ca15b9d83c57cf9595c260ee9152b80", "is_disabled": 0, "rental_uris": {"android": "https://dc.lft.to/lastmile_qr_scan", "ios": "https://dc.lft.to/lastmile_qr_scan"}, "fusion_lon": 0.0, "lat": 38.897255666666666, "bike_id": "9ca15b9d83c57cf9595c260ee9152b80", "type": "electric_scooter", "is_reserved": 0, "lon": -77.04352266666666}, {"fusion_lat": 0.0, "name": "bbe58a94abd8bcc6fd4a016911da7ea4", "is_disabled": 0, "rental_uris": {"android": "https://dc.lft.to/lastmile_qr_scan", "ios": "https://dc.lft.to/lastmile_qr_scan"}, "fusion_lon": 0.0, "lat": 38.93531633333333, "bike_id": "bbe58a94abd8bcc6fd4a016911da7ea4", "type": "electric_scooter", "is_reserved": 0, "lon": -77.03653216666666}, {"fusion_lat": 0.0, "name": "6864a041658173bb63bab4f4e6dbaac2", "is_disabled": 0, "rental_uris": {"android": "https://dc.lft.to/lastmile_qr_scan", "ios": "https://dc.lft.to/lastmile_qr_scan"}, "fusion_lon": 0.0, "lat": 38.92856916666667, "bike_id": "6864a041658173bb63bab4f4e6dbaac2", "type": "electric_scooter", "is_reserved": 0, "lon": -77.03263816666667}, {"fusion_lat": 0.0, "name": "e218baed22e9d2960101fd67472e9b82", "is_disabled": 0, "rental_uris": {"android": "https://dc.lft.to/lastmile_qr_scan", "ios": "https://dc.lft.to/lastmile_qr_scan"}, "fusion_lon": 0.0, "lat": 38.900194166666665, "bike_id": "e218baed22e9d2960101fd67472e9b82", "type": "electric_scooter", "is_reserved": 0, "lon": -77.006901}, {"fusion_lat": 0.0, "name": "02e2a51994d557c734ae148c63dfd78e", "is_disabled": 0, "rental_uris": {"android": "https://dc.lft.to/lastmile_qr_scan", "ios": "https://dc.lft.to/lastmile_qr_scan"}, "fusion_lon": 0.0, "lat": 38.909835, "bike_id": "02e2a51994d557c734ae148c63dfd78e", "type": "electric_scooter", "is_reserved": 0, "lon": -77.03383866666667}, {"fusion_lat": 0.0, "name": "550d4e665b697b3e59a50f4fea79eb26", "is_disabled": 0, "rental_uris": {"android": "https://dc.lft.to/lastmile_qr_scan", "ios": "https://dc.lft.to/lastmile_qr_scan"}, "fusion_lon": 0.0, "lat": 38.922721, "bike_id": "550d4e665b697b3e59a50f4fea79eb26", "type": "electric_scooter", "is_reserved": 0, "lon": -76.99125533333333}, {"fusion_lat": 0.0, "name": "e66831d1b2adba0a6e198d45e23920fa", "is_disabled": 0, "rental_uris": {"android": "https://dc.lft.to/lastmile_qr_scan", "ios": "https://dc.lft.to/lastmile_qr_scan"}, "fusion_lon": 0.0, "lat": 38.92029183333333, "bike_id": "e66831d1b2adba0a6e198d45e23920fa", "type": "electric_scooter", "is_reserved": 0, "lon": -77.03144266666666}, {"fusion_lat": 0.0, "name": "ba49f1192337e794e6664b60e4921949", "is_disabled": 0, "rental_uris": {"android": "https://dc.lft.to/lastmile_qr_scan", "ios": "https://dc.lft.to/lastmile_qr_scan"}, "fusion_lon": 0.0, "lat": 38.8961715, "bike_id": "ba49f1192337e794e6664b60e4921949", "type": "electric_scooter", "is_reserved": 0, "lon": -77.03228716666666}, {"fusion_lat": 0.0, "name": "36f41cc726cae1d0a2d42f1a76ac7846", "is_disabled": 0, "rental_uris": {"android": "https://dc.lft.to/lastmile_qr_scan", "ios": "https://dc.lft.to/lastmile_qr_scan"}, "fusion_lon": 0.0, "lat": 38.897342, "bike_id": "36f41cc726cae1d0a2d42f1a76ac7846", "type": "electric_scooter", "is_reserved": 0, "lon": -77.00430183333333}, {"fusion_lat": 0.0, "name": "f62e2bdbf8a8c6f46241bb69daa29325", "is_disabled": 0, "rental_uris": {"android": "https://dc.lft.to/lastmile_qr_scan", "ios": "https://dc.lft.to/lastmile_qr_scan"}, "fusion_lon": 0.0, "lat": 38.86418483333333, "bike_id": "f62e2bdbf8a8c6f46241bb69daa29325", "type": "electric_scooter", "is_reserved": 0, "lon": -76.9745015}, {"fusion_lat": 0.0, "name": "c0370e108560955d70217ab25bc8bccd", "is_disabled": 0, "rental_uris": {"android": "https://dc.lft.to/lastmile_qr_scan", "ios": "https://dc.lft.to/lastmile_qr_scan"}, "fusion_lon": 0.0, "lat": 38.897885, "bike_id": "c0370e108560955d70217ab25bc8bccd", "type": "electric_scooter", "is_reserved": 0, "lon": -76.93113616666666}, {"fusion_lat": 0.0, "name": "201897eea07f098ed50145355ad47a9c", "is_disabled": 0, "rental_uris": {"android": "https://dc.lft.to/lastmile_qr_scan", "ios": "https://dc.lft.to/lastmile_qr_scan"}, "fusion_lon": 0.0, "lat": 38.949892, "bike_id": "201897eea07f098ed50145355ad47a9c", "type": "electric_scooter", "is_reserved": 0, "lon": -77.06687616666666}, {"fusion_lat": 0.0, "name": "4c3bc75515c3ef052fd353f71799a346", "is_disabled": 0, "rental_uris": {"android": "https://dc.lft.to/lastmile_qr_scan", "ios": "https://dc.lft.to/lastmile_qr_scan"}, "fusion_lon": 0.0, "lat": 38.86241716666667, "bike_id": "4c3bc75515c3ef052fd353f71799a346", "type": "electric_scooter", "is_reserved": 0, "lon": -76.994957}, {"fusion_lat": 0.0, "name": "571e7c6051726c7844b752ad8d05293f", "is_disabled": 0, "rental_uris": {"android": "https://dc.lft.to/lastmile_qr_scan", "ios": "https://dc.lft.to/lastmile_qr_scan"}, "fusion_lon": 0.0, "lat": 38.8535135, "bike_id": "571e7c6051726c7844b752ad8d05293f", "type": "electric_bike", "is_reserved": 0, "lon": -77.13461}, {"fusion_lat": 0.0, "name": "37d17c1f894484010453ec46d4c9a92b", "is_disabled": 0, "rental_uris": {"android": "https://dc.lft.to/lastmile_qr_scan", "ios": "https://dc.lft.to/lastmile_qr_scan"}, "fusion_lon": 0.0, "lat": 38.88650466666667, "bike_id": "37d17c1f894484010453ec46d4c9a92b", "type": "electric_scooter", "is_reserved": 0, "lon": -77.00122366666666}, {"fusion_lat": 0.0, "name": "058d81fa41bd1062e2798e3b02b894aa", "is_disabled": 0, "rental_uris": {"android": "https://dc.lft.to/lastmile_qr_scan", "ios": "https://dc.lft.to/lastmile_qr_scan"}, "fusion_lon": 0.0, "lat": 38.91983833333333, "bike_id": "058d81fa41bd1062e2798e3b02b894aa", "type": "electric_scooter", "is_reserved": 0, "lon": -77.04168983333334}, {"fusion_lat": 0.0, "name": "13a73df31fc276dc47a5c19f80d7e9d7", "is_disabled": 0, "rental_uris": {"android": "https://dc.lft.to/lastmile_qr_scan", "ios": "https://dc.lft.to/lastmile_qr_scan"}, "fusion_lon": 0.0, "lat": 38.9146005, "bike_id": "13a73df31fc276dc47a5c19f80d7e9d7", "type": "electric_scooter", "is_reserved": 0, "lon": -77.00215183333333}, {"fusion_lat": 0.0, "name": "e8a84f2f7d702293dd397c5ed902f262", "is_disabled": 0, "rental_uris": {"android": "https://dc.lft.to/lastmile_qr_scan", "ios": "https://dc.lft.to/lastmile_qr_scan"}, "fusion_lon": 0.0, "lat": 38.980658, "bike_id": "e8a84f2f7d702293dd397c5ed902f262", "type": "electric_bike", "is_reserved": 0, "lon": -77.09588133333334}, {"fusion_lat": 0.0, "name": "9713245ce85b68fa44720217e261d691", "is_disabled": 0, "rental_uris": {"android": "https://dc.lft.to/lastmile_qr_scan", "ios": "https://dc.lft.to/lastmile_qr_scan"}, "fusion_lon": 0.0, "lat": 38.923769, "bike_id": "9713245ce85b68fa44720217e261d691", "type": "electric_scooter", "is_reserved": 0, "lon": -77.03131966666666}, {"fusion_lat": 0.0, "name": "7a00a727935b8f82831fb58a1a98bb87", "is_disabled": 0, "rental_uris": {"android": "https://dc.lft.to/lastmile_qr_scan", "ios": "https://dc.lft.to/lastmile_qr_scan"}, "fusion_lon": 0.0, "lat": 38.926863166666664, "bike_id": "7a00a727935b8f82831fb58a1a98bb87", "type": "electric_scooter", "is_reserved": 0, "lon": -77.023074}, {"fusion_lat": 0.0, "name": "1c0cc9cf2910f2b82d7ae78046ab7e0a", "is_disabled": 0, "rental_uris": {"android": "https://dc.lft.to/lastmile_qr_scan", "ios": "https://dc.lft.to/lastmile_qr_scan"}, "fusion_lon": 0.0, "lat": 38.915447, "bike_id": "1c0cc9cf2910f2b82d7ae78046ab7e0a", "type": "electric_scooter", "is_reserved": 0, "lon": -77.0055005}, {"fusion_lat": 0.0, "name": "0206f35390b6af1a47aca07be3104700", "is_disabled": 0, "rental_uris": {"android": "https://dc.lft.to/lastmile_qr_scan", "ios": "https://dc.lft.to/lastmile_qr_scan"}, "fusion_lon": 0.0, "lat": 38.920822, "bike_id": "0206f35390b6af1a47aca07be3104700", "type": "electric_scooter", "is_reserved": 0, "lon": -76.99450616666667}, {"fusion_lat": 0.0, "name": "5d3c438d1f97590b1857d443816f9058", "is_disabled": 0, "rental_uris": {"android": "https://dc.lft.to/lastmile_qr_scan", "ios": "https://dc.lft.to/lastmile_qr_scan"}, "fusion_lon": 0.0, "lat": 38.921204, "bike_id": "5d3c438d1f97590b1857d443816f9058", "type": "electric_scooter", "is_reserved": 0, "lon": -77.012093}, {"fusion_lat": 0.0, "name": "a24ebe658bacda1e4559a0c56ad9a5a5", "is_disabled": 0, "rental_uris": {"android": "https://dc.lft.to/lastmile_qr_scan", "ios": "https://dc.lft.to/lastmile_qr_scan"}, "fusion_lon": 0.0, "lat": 38.887372, "bike_id": "a24ebe658bacda1e4559a0c56ad9a5a5", "type": "electric_scooter", "is_reserved": 0, "lon": -77.02581516666666}, {"fusion_lat": 0.0, "name": "bef1da696d339abb628d939fa01a5df4", "is_disabled": 0, "rental_uris": {"android": "https://dc.lft.to/lastmile_qr_scan", "ios": "https://dc.lft.to/lastmile_qr_scan"}, "fusion_lon": 0.0, "lat": 38.89860216666667, "bike_id": "bef1da696d339abb628d939fa01a5df4", "type": "electric_scooter", "is_reserved": 0, "lon": -76.94648416666666}, {"fusion_lat": 0.0, "name": "cf7c2a931fa9578d13260a357d4e0d50", "is_disabled": 0, "rental_uris": {"android": "https://dc.lft.to/lastmile_qr_scan", "ios": "https://dc.lft.to/lastmile_qr_scan"}, "fusion_lon": 0.0, "lat": 38.928798666666665, "bike_id": "cf7c2a931fa9578d13260a357d4e0d50", "type": "electric_scooter", "is_reserved": 0, "lon": -77.03790616666667}, {"fusion_lat": 0.0, "name": "6bb297c97b7c8a86562d70e6dd8bb8cf", "is_disabled": 0, "rental_uris": {"android": "https://dc.lft.to/lastmile_qr_scan", "ios": "https://dc.lft.to/lastmile_qr_scan"}, "fusion_lon": 0.0, "lat": 38.917020666666666, "bike_id": "6bb297c97b7c8a86562d70e6dd8bb8cf", "type": "electric_scooter", "is_reserved": 0, "lon": -77.00118}, {"fusion_lat": 0.0, "name": "7acc6ee368cfe6d36f22902bb6134291", "is_disabled": 0, "rental_uris": {"android": "https://dc.lft.to/lastmile_qr_scan", "ios": "https://dc.lft.to/lastmile_qr_scan"}, "fusion_lon": 0.0, "lat": 38.89851633333333, "bike_id": "7acc6ee368cfe6d36f22902bb6134291", "type": "electric_scooter", "is_reserved": 0, "lon": -76.99037383333334}, {"fusion_lat": 0.0, "name": "a1cc53f46803a49d7d9a0e5fd0866751", "is_disabled": 0, "rental_uris": {"android": "https://dc.lft.to/lastmile_qr_scan", "ios": "https://dc.lft.to/lastmile_qr_scan"}, "fusion_lon": 0.0, "lat": 38.89923783333333, "bike_id": "a1cc53f46803a49d7d9a0e5fd0866751", "type": "electric_scooter", "is_reserved": 0, "lon": -77.07193866666667}, {"fusion_lat": 0.0, "name": "9f4d4e57fd27815b955fb2ff1820bfae", "is_disabled": 0, "rental_uris": {"android": "https://dc.lft.to/lastmile_qr_scan", "ios": "https://dc.lft.to/lastmile_qr_scan"}, "fusion_lon": 0.0, "lat": 38.91047233333333, "bike_id": "9f4d4e57fd27815b955fb2ff1820bfae", "type": "electric_scooter", "is_reserved": 0, "lon": -77.03340933333334}, {"fusion_lat": 0.0, "name": "9799f8b586508e60bec65bbfa5912d7a", "is_disabled": 0, "rental_uris": {"android": "https://dc.lft.to/lastmile_qr_scan", "ios": "https://dc.lft.to/lastmile_qr_scan"}, "fusion_lon": 0.0, "lat": 38.93793516666667, "bike_id": "9799f8b586508e60bec65bbfa5912d7a", "type": "electric_scooter", "is_reserved": 0, "lon": -77.02466016666666}, {"fusion_lat": 0.0, "name": "da329012bfee93b3f0a28916c9fad98a", "is_disabled": 0, "rental_uris": {"android": "https://dc.lft.to/lastmile_qr_scan", "ios": "https://dc.lft.to/lastmile_qr_scan"}, "fusion_lon": 0.0, "lat": 38.920557333333335, "bike_id": "da329012bfee93b3f0a28916c9fad98a", "type": "electric_scooter", "is_reserved": 0, "lon": -77.02535366666666}, {"fusion_lat": 0.0, "name": "17bf31a955a42347fdaf5e9d2cd3ded3", "is_disabled": 0, "rental_uris": {"android": "https://dc.lft.to/lastmile_qr_scan", "ios": "https://dc.lft.to/lastmile_qr_scan"}, "fusion_lon": 0.0, "lat": 38.9388135, "bike_id": "17bf31a955a42347fdaf5e9d2cd3ded3", "type": "electric_scooter", "is_reserved": 0, "lon": -77.03083916666667}, {"fusion_lat": 0.0, "name": "404dc89b10f12208c49db5f8746f3ebc", "is_disabled": 0, "rental_uris": {"android": "https://dc.lft.to/lastmile_qr_scan", "ios": "https://dc.lft.to/lastmile_qr_scan"}, "fusion_lon": 0.0, "lat": 38.91062266666667, "bike_id": "404dc89b10f12208c49db5f8746f3ebc", "type": "electric_scooter", "is_reserved": 0, "lon": -77.0526855}, {"fusion_lat": 0.0, "name": "f4da671e05de6bac610277818c057ee0", "is_disabled": 0, "rental_uris": {"android": "https://dc.lft.to/lastmile_qr_scan", "ios": "https://dc.lft.to/lastmile_qr_scan"}, "fusion_lon": 0.0, "lat": 38.911103833333335, "bike_id": "f4da671e05de6bac610277818c057ee0", "type": "electric_scooter", "is_reserved": 0, "lon": -77.02172716666666}, {"fusion_lat": 0.0, "name": "9b32ef3eff461d47e7f4b36381a39b40", "is_disabled": 0, "rental_uris": {"android": "https://dc.lft.to/lastmile_qr_scan", "ios": "https://dc.lft.to/lastmile_qr_scan"}, "fusion_lon": 0.0, "lat": 38.900144166666664, "bike_id": "9b32ef3eff461d47e7f4b36381a39b40", "type": "electric_scooter", "is_reserved": 0, "lon": -77.00024516666667}, {"fusion_lat": 0.0, "name": "86816551c4cf1671642ec0803eec5985", "is_disabled": 0, "rental_uris": {"android": "https://dc.lft.to/lastmile_qr_scan", "ios": "https://dc.lft.to/lastmile_qr_scan"}, "fusion_lon": 0.0, "lat": 38.900634, "bike_id": "86816551c4cf1671642ec0803eec5985", "type": "electric_scooter", "is_reserved": 0, "lon": -76.98559133333333}, {"fusion_lat": 0.0, "name": "c29baa4086a1aa043d50e6adfd8b1cc4", "is_disabled": 0, "rental_uris": {"android": "https://dc.lft.to/lastmile_qr_scan", "ios": "https://dc.lft.to/lastmile_qr_scan"}, "fusion_lon": 0.0, "lat": 38.9432715, "bike_id": "c29baa4086a1aa043d50e6adfd8b1cc4", "type": "electric_scooter", "is_reserved": 0, "lon": -77.026898}, {"fusion_lat": 0.0, "name": "14f115240170da82a7fa41b10fe791aa", "is_disabled": 0, "rental_uris": {"android": "https://dc.lft.to/lastmile_qr_scan", "ios": "https://dc.lft.to/lastmile_qr_scan"}, "fusion_lon": 0.0, "lat": 38.87375, "bike_id": "14f115240170da82a7fa41b10fe791aa", "type": "electric_scooter", "is_reserved": 0, "lon": -77.00093816666667}, {"fusion_lat": 0.0, "name": "5c6e5cd8d029de1eca507fd37e89ba51", "is_disabled": 0, "rental_uris": {"android": "https://dc.lft.to/lastmile_qr_scan", "ios": "https://dc.lft.to/lastmile_qr_scan"}, "fusion_lon": 0.0, "lat": 38.89876533333333, "bike_id": "5c6e5cd8d029de1eca507fd37e89ba51", "type": "electric_scooter", "is_reserved": 0, "lon": -77.03287533333334}, {"fusion_lat": 0.0, "name": "3bdc3a197bfcf9b4d8c32371589e0b18", "is_disabled": 0, "rental_uris": {"android": "https://dc.lft.to/lastmile_qr_scan", "ios": "https://dc.lft.to/lastmile_qr_scan"}, "fusion_lon": 0.0, "lat": 38.927036666666666, "bike_id": "3bdc3a197bfcf9b4d8c32371589e0b18", "type": "electric_scooter", "is_reserved": 0, "lon": -77.020772}, {"fusion_lat": 0.0, "name": "99bcf466bbba21aac6c4ef81064b2715", "is_disabled": 0, "rental_uris": {"android": "https://dc.lft.to/lastmile_qr_scan", "ios": "https://dc.lft.to/lastmile_qr_scan"}, "fusion_lon": 0.0, "lat": 38.939752166666665, "bike_id": "99bcf466bbba21aac6c4ef81064b2715", "type": "electric_scooter", "is_reserved": 0, "lon": -77.035673}, {"fusion_lat": 0.0, "name": "3ff9312d74105be5166b6fa62b1187fb", "is_disabled": 0, "rental_uris": {"android": "https://dc.lft.to/lastmile_qr_scan", "ios": "https://dc.lft.to/lastmile_qr_scan"}, "fusion_lon": 0.0, "lat": 38.94446133333334, "bike_id": "3ff9312d74105be5166b6fa62b1187fb", "type": "electric_scooter", "is_reserved": 0, "lon": -77.0618745}, {"fusion_lat": 0.0, "name": "8df5c80026aff4ae802a87b763c86395", "is_disabled": 0, "rental_uris": {"android": "https://dc.lft.to/lastmile_qr_scan", "ios": "https://dc.lft.to/lastmile_qr_scan"}, "fusion_lon": 0.0, "lat": 38.88475, "bike_id": "8df5c80026aff4ae802a87b763c86395", "type": "electric_scooter", "is_reserved": 0, "lon": -76.9498545}, {"fusion_lat": 0.0, "name": "3cfe7ca94d1ab99fab4dab76cfc095a0", "is_disabled": 0, "rental_uris": {"android": "https://dc.lft.to/lastmile_qr_scan", "ios": "https://dc.lft.to/lastmile_qr_scan"}, "fusion_lon": 0.0, "lat": 38.88509966666667, "bike_id": "3cfe7ca94d1ab99fab4dab76cfc095a0", "type": "electric_scooter", "is_reserved": 0, "lon": -76.92940983333334}, {"fusion_lat": 0.0, "name": "b8b18c34f210c341f0bf63b0f144f78c", "is_disabled": 0, "rental_uris": {"android": "https://dc.lft.to/lastmile_qr_scan", "ios": "https://dc.lft.to/lastmile_qr_scan"}, "fusion_lon": 0.0, "lat": 38.96124733333333, "bike_id": "b8b18c34f210c341f0bf63b0f144f78c", "type": "electric_bike", "is_reserved": 0, "lon": -77.032713}, {"fusion_lat": 0.0, "name": "a0f2da8a18953ce7aa2b82ee4b83fe29", "is_disabled": 0, "rental_uris": {"android": "https://dc.lft.to/lastmile_qr_scan", "ios": "https://dc.lft.to/lastmile_qr_scan"}, "fusion_lon": 0.0, "lat": 38.876226833333334, "bike_id": "a0f2da8a18953ce7aa2b82ee4b83fe29", "type": "electric_scooter", "is_reserved": 0, "lon": -77.00113216666666}, {"fusion_lat": 0.0, "name": "72e36d926f460dd16f2382aae4423f91", "is_disabled": 0, "rental_uris": {"android": "https://dc.lft.to/lastmile_qr_scan", "ios": "https://dc.lft.to/lastmile_qr_scan"}, "fusion_lon": 0.0, "lat": 38.878415333333336, "bike_id": "72e36d926f460dd16f2382aae4423f91", "type": "electric_scooter", "is_reserved": 0, "lon": -77.00568083333333}, {"fusion_lat": 0.0, "name": "2b1835f3815a7760c160708af5bae1d5", "is_disabled": 0, "rental_uris": {"android": "https://dc.lft.to/lastmile_qr_scan", "ios": "https://dc.lft.to/lastmile_qr_scan"}, "fusion_lon": 0.0, "lat": 38.90847183333333, "bike_id": "2b1835f3815a7760c160708af5bae1d5", "type": "electric_scooter", "is_reserved": 0, "lon": -77.04540266666666}, {"fusion_lat": 0.0, "name": "f3fded578374da50df4761a3839186cc", "is_disabled": 0, "rental_uris": {"android": "https://dc.lft.to/lastmile_qr_scan", "ios": "https://dc.lft.to/lastmile_qr_scan"}, "fusion_lon": 0.0, "lat": 38.915454833333335, "bike_id": "f3fded578374da50df4761a3839186cc", "type": "electric_scooter", "is_reserved": 0, "lon": -77.02202233333334}, {"fusion_lat": 0.0, "name": "23b894a94087106be4403c83461191fe", "is_disabled": 0, "rental_uris": {"android": "https://dc.lft.to/lastmile_qr_scan", "ios": "https://dc.lft.to/lastmile_qr_scan"}, "fusion_lon": 0.0, "lat": 38.916547333333334, "bike_id": "23b894a94087106be4403c83461191fe", "type": "electric_scooter", "is_reserved": 0, "lon": -77.04792}, {"fusion_lat": 0.0, "name": "5820cbf2b8e539b702f9a372d1c5317a", "is_disabled": 0, "rental_uris": {"android": "https://dc.lft.to/lastmile_qr_scan", "ios": "https://dc.lft.to/lastmile_qr_scan"}, "fusion_lon": 0.0, "lat": 38.904260666666666, "bike_id": "5820cbf2b8e539b702f9a372d1c5317a", "type": "electric_scooter", "is_reserved": 0, "lon": -76.981816}, {"fusion_lat": 0.0, "name": "8074a34e3fdb2cbea260ba996afeeaf5", "is_disabled": 0, "rental_uris": {"android": "https://dc.lft.to/lastmile_qr_scan", "ios": "https://dc.lft.to/lastmile_qr_scan"}, "fusion_lon": 0.0, "lat": 38.89786933333333, "bike_id": "8074a34e3fdb2cbea260ba996afeeaf5", "type": "electric_scooter", "is_reserved": 0, "lon": -77.02432216666666}, {"fusion_lat": 0.0, "name": "c50cd32a13135236033b29f1bf1795c6", "is_disabled": 0, "rental_uris": {"android": "https://dc.lft.to/lastmile_qr_scan", "ios": "https://dc.lft.to/lastmile_qr_scan"}, "fusion_lon": 0.0, "lat": 38.93186, "bike_id": "c50cd32a13135236033b29f1bf1795c6", "type": "electric_scooter", "is_reserved": 0, "lon": -77.04301633333333}, {"fusion_lat": 0.0, "name": "9883f554b2db87751e00c84829d7f6e4", "is_disabled": 0, "rental_uris": {"android": "https://dc.lft.to/lastmile_qr_scan", "ios": "https://dc.lft.to/lastmile_qr_scan"}, "fusion_lon": 0.0, "lat": 38.897160666666664, "bike_id": "9883f554b2db87751e00c84829d7f6e4", "type": "electric_scooter", "is_reserved": 0, "lon": -77.00797283333333}, {"fusion_lat": 0.0, "name": "22ec0b7cc1025716323a86eae00d5697", "is_disabled": 0, "rental_uris": {"android": "https://dc.lft.to/lastmile_qr_scan", "ios": "https://dc.lft.to/lastmile_qr_scan"}, "fusion_lon": 0.0, "lat": 38.88542983333333, "bike_id": "22ec0b7cc1025716323a86eae00d5697", "type": "electric_scooter", "is_reserved": 0, "lon": -76.99790983333334}, {"fusion_lat": 0.0, "name": "8c70b844b015375bc1247e707917ae3c", "is_disabled": 0, "rental_uris": {"android": "https://dc.lft.to/lastmile_qr_scan", "ios": "https://dc.lft.to/lastmile_qr_scan"}, "fusion_lon": 0.0, "lat": 38.91118083333333, "bike_id": "8c70b844b015375bc1247e707917ae3c", "type": "electric_scooter", "is_reserved": 0, "lon": -77.035617}, {"fusion_lat": 0.0, "name": "294d40433e40f35240192b7541e46fed", "is_disabled": 0, "rental_uris": {"android": "https://dc.lft.to/lastmile_qr_scan", "ios": "https://dc.lft.to/lastmile_qr_scan"}, "fusion_lon": 0.0, "lat": 38.920212, "bike_id": "294d40433e40f35240192b7541e46fed", "type": "electric_bike", "is_reserved": 0, "lon": -77.0770765}, {"fusion_lat": 0.0, "name": "1592a507da7e32d4e7eead33e99bb362", "is_disabled": 0, "rental_uris": {"android": "https://dc.lft.to/lastmile_qr_scan", "ios": "https://dc.lft.to/lastmile_qr_scan"}, "fusion_lon": 0.0, "lat": 38.92432183333333, "bike_id": "1592a507da7e32d4e7eead33e99bb362", "type": "electric_scooter", "is_reserved": 0, "lon": -77.00070066666666}, {"fusion_lat": 0.0, "name": "1af32491f6ad4804c7c73e6c08187044", "is_disabled": 0, "rental_uris": {"android": "https://dc.lft.to/lastmile_qr_scan", "ios": "https://dc.lft.to/lastmile_qr_scan"}, "fusion_lon": 0.0, "lat": 38.866778833333335, "bike_id": "1af32491f6ad4804c7c73e6c08187044", "type": "electric_scooter", "is_reserved": 0, "lon": -76.98572566666667}, {"fusion_lat": 0.0, "name": "142fde52511b2e65e6f30adee413681a", "is_disabled": 0, "rental_uris": {"android": "https://dc.lft.to/lastmile_qr_scan", "ios": "https://dc.lft.to/lastmile_qr_scan"}, "fusion_lon": 0.0, "lat": 38.9234585, "bike_id": "142fde52511b2e65e6f30adee413681a", "type": "electric_scooter", "is_reserved": 0, "lon": -77.05127666666667}, {"fusion_lat": 0.0, "name": "f689c61fe6ac26e99ce1877549727193", "is_disabled": 0, "rental_uris": {"android": "https://dc.lft.to/lastmile_qr_scan", "ios": "https://dc.lft.to/lastmile_qr_scan"}, "fusion_lon": 0.0, "lat": 38.92138216666667, "bike_id": "f689c61fe6ac26e99ce1877549727193", "type": "electric_scooter", "is_reserved": 0, "lon": -77.0251975}, {"fusion_lat": 0.0, "name": "c06e6c3e5dcec28049613e48b0487f3c", "is_disabled": 0, "rental_uris": {"android": "https://dc.lft.to/lastmile_qr_scan", "ios": "https://dc.lft.to/lastmile_qr_scan"}, "fusion_lon": 0.0, "lat": 38.89247983333333, "bike_id": "c06e6c3e5dcec28049613e48b0487f3c", "type": "electric_scooter", "is_reserved": 0, "lon": -77.04653116666667}, {"fusion_lat": 0.0, "name": "b72d46a4bfca0a93a63deac05b1d688b", "is_disabled": 0, "rental_uris": {"android": "https://dc.lft.to/lastmile_qr_scan", "ios": "https://dc.lft.to/lastmile_qr_scan"}, "fusion_lon": 0.0, "lat": 38.926147, "bike_id": "b72d46a4bfca0a93a63deac05b1d688b", "type": "electric_scooter", "is_reserved": 0, "lon": -77.03963583333334}, {"fusion_lat": 0.0, "name": "05f5a0e1e68295ba01e34ac4a10e0d6e", "is_disabled": 0, "rental_uris": {"android": "https://dc.lft.to/lastmile_qr_scan", "ios": "https://dc.lft.to/lastmile_qr_scan"}, "fusion_lon": 0.0, "lat": 38.898244, "bike_id": "05f5a0e1e68295ba01e34ac4a10e0d6e", "type": "electric_scooter", "is_reserved": 0, "lon": -77.04651983333333}, {"fusion_lat": 0.0, "name": "9f8e3f64e1448de07c216c416ed1c1bc", "is_disabled": 0, "rental_uris": {"android": "https://dc.lft.to/lastmile_qr_scan", "ios": "https://dc.lft.to/lastmile_qr_scan"}, "fusion_lon": 0.0, "lat": 38.85619066666667, "bike_id": "9f8e3f64e1448de07c216c416ed1c1bc", "type": "electric_scooter", "is_reserved": 0, "lon": -76.97272216666667}, {"fusion_lat": 0.0, "name": "bf7548dc65ab146a19a56f33abba2738", "is_disabled": 0, "rental_uris": {"android": "https://dc.lft.to/lastmile_qr_scan", "ios": "https://dc.lft.to/lastmile_qr_scan"}, "fusion_lon": 0.0, "lat": 38.948246833333336, "bike_id": "bf7548dc65ab146a19a56f33abba2738", "type": "electric_bike", "is_reserved": 0, "lon": -77.02941683333333}, {"fusion_lat": 0.0, "name": "3543ed726d8c35bfaafb8f0729932fab", "is_disabled": 0, "rental_uris": {"android": "https://dc.lft.to/lastmile_qr_scan", "ios": "https://dc.lft.to/lastmile_qr_scan"}, "fusion_lon": 0.0, "lat": 38.87303466666667, "bike_id": "3543ed726d8c35bfaafb8f0729932fab", "type": "electric_bike", "is_reserved": 0, "lon": -77.0109395}, {"fusion_lat": 0.0, "name": "533da21e20461b27d7d87aaa4717f390", "is_disabled": 0, "rental_uris": {"android": "https://dc.lft.to/lastmile_qr_scan", "ios": "https://dc.lft.to/lastmile_qr_scan"}, "fusion_lon": 0.0, "lat": 38.93330533333334, "bike_id": "533da21e20461b27d7d87aaa4717f390", "type": "electric_scooter", "is_reserved": 0, "lon": -77.03431183333333}, {"fusion_lat": 0.0, "name": "bb6ccf90d5fec4574a620e10a58eab42", "is_disabled": 0, "rental_uris": {"android": "https://dc.lft.to/lastmile_qr_scan", "ios": "https://dc.lft.to/lastmile_qr_scan"}, "fusion_lon": 0.0, "lat": 39.002898, "bike_id": "bb6ccf90d5fec4574a620e10a58eab42", "type": "electric_bike", "is_reserved": 0, "lon": -76.90303383333334}, {"fusion_lat": 0.0, "name": "445c58381995b1557df30b6d033ce74d", "is_disabled": 0, "rental_uris": {"android": "https://dc.lft.to/lastmile_qr_scan", "ios": "https://dc.lft.to/lastmile_qr_scan"}, "fusion_lon": 0.0, "lat": 38.89840616666667, "bike_id": "445c58381995b1557df30b6d033ce74d", "type": "electric_scooter", "is_reserved": 0, "lon": -77.0188165}, {"fusion_lat": 0.0, "name": "498557534c9aab19e6f901101f0a5a53", "is_disabled": 0, "rental_uris": {"android": "https://dc.lft.to/lastmile_qr_scan", "ios": "https://dc.lft.to/lastmile_qr_scan"}, "fusion_lon": 0.0, "lat": 38.89747233333333, "bike_id": "498557534c9aab19e6f901101f0a5a53", "type": "electric_scooter", "is_reserved": 0, "lon": -77.02204466666667}, {"fusion_lat": 0.0, "name": "818fd6714c7c045ed0e77be8a8c6c9a7", "is_disabled": 0, "rental_uris": {"android": "https://dc.lft.to/lastmile_qr_scan", "ios": "https://dc.lft.to/lastmile_qr_scan"}, "fusion_lon": 0.0, "lat": 38.91332366666666, "bike_id": "818fd6714c7c045ed0e77be8a8c6c9a7", "type": "electric_scooter", "is_reserved": 0, "lon": -77.04230316666667}, {"fusion_lat": 0.0, "name": "e023043496fefbee87640086b86a2bf8", "is_disabled": 0, "rental_uris": {"android": "https://dc.lft.to/lastmile_qr_scan", "ios": "https://dc.lft.to/lastmile_qr_scan"}, "fusion_lon": 0.0, "lat": 38.92347733333333, "bike_id": "e023043496fefbee87640086b86a2bf8", "type": "electric_scooter", "is_reserved": 0, "lon": -77.01963583333334}, {"fusion_lat": 0.0, "name": "9f2f121af7756a2d6ce130b6240fb979", "is_disabled": 0, "rental_uris": {"android": "https://dc.lft.to/lastmile_qr_scan", "ios": "https://dc.lft.to/lastmile_qr_scan"}, "fusion_lon": 0.0, "lat": 38.9222425, "bike_id": "9f2f121af7756a2d6ce130b6240fb979", "type": "electric_scooter", "is_reserved": 0, "lon": -77.041395}, {"fusion_lat": 0.0, "name": "d523253f2a4217df7dfba0028f196480", "is_disabled": 0, "rental_uris": {"android": "https://dc.lft.to/lastmile_qr_scan", "ios": "https://dc.lft.to/lastmile_qr_scan"}, "fusion_lon": 0.0, "lat": 38.93508083333333, "bike_id": "d523253f2a4217df7dfba0028f196480", "type": "electric_scooter", "is_reserved": 0, "lon": -77.024009}, {"fusion_lat": 0.0, "name": "2ef3492425045d1c88cd16254b9bdc22", "is_disabled": 0, "rental_uris": {"android": "https://dc.lft.to/lastmile_qr_scan", "ios": "https://dc.lft.to/lastmile_qr_scan"}, "fusion_lon": 0.0, "lat": 38.92842366666667, "bike_id": "2ef3492425045d1c88cd16254b9bdc22", "type": "electric_scooter", "is_reserved": 0, "lon": -76.99773066666667}, {"fusion_lat": 0.0, "name": "06778ff342f72aea9f60787659354ea2", "is_disabled": 0, "rental_uris": {"android": "https://dc.lft.to/lastmile_qr_scan", "ios": "https://dc.lft.to/lastmile_qr_scan"}, "fusion_lon": 0.0, "lat": 38.904294166666666, "bike_id": "06778ff342f72aea9f60787659354ea2", "type": "electric_scooter", "is_reserved": 0, "lon": -77.034369}, {"fusion_lat": 0.0, "name": "bea8553de6553a5546cc016a24f6fe26", "is_disabled": 0, "rental_uris": {"android": "https://dc.lft.to/lastmile_qr_scan", "ios": "https://dc.lft.to/lastmile_qr_scan"}, "fusion_lon": 0.0, "lat": 38.91547883333333, "bike_id": "bea8553de6553a5546cc016a24f6fe26", "type": "electric_scooter", "is_reserved": 0, "lon": -77.02199883333333}, {"fusion_lat": 0.0, "name": "17eb41aab40331fb353019491222b3e9", "is_disabled": 0, "rental_uris": {"android": "https://dc.lft.to/lastmile_qr_scan", "ios": "https://dc.lft.to/lastmile_qr_scan"}, "fusion_lon": 0.0, "lat": 38.92328883333333, "bike_id": "17eb41aab40331fb353019491222b3e9", "type": "electric_scooter", "is_reserved": 0, "lon": -77.02047983333334}, {"fusion_lat": 0.0, "name": "90bfaf850c258ff9e3ff33deb99cf6e6", "is_disabled": 0, "rental_uris": {"android": "https://dc.lft.to/lastmile_qr_scan", "ios": "https://dc.lft.to/lastmile_qr_scan"}, "fusion_lon": 0.0, "lat": 38.92108133333333, "bike_id": "90bfaf850c258ff9e3ff33deb99cf6e6", "type": "electric_scooter", "is_reserved": 0, "lon": -77.04676683333334}, {"fusion_lat": 0.0, "name": "3d00f317d3bd3c5a2393db6737db8627", "is_disabled": 0, "rental_uris": {"android": "https://dc.lft.to/lastmile_qr_scan", "ios": "https://dc.lft.to/lastmile_qr_scan"}, "fusion_lon": 0.0, "lat": 38.938019833333335, "bike_id": "3d00f317d3bd3c5a2393db6737db8627", "type": "electric_scooter", "is_reserved": 0, "lon": -77.068576}, {"fusion_lat": 0.0, "name": "899d3c7e964d353dfc97aa03ea3e889a", "is_disabled": 0, "rental_uris": {"android": "https://dc.lft.to/lastmile_qr_scan", "ios": "https://dc.lft.to/lastmile_qr_scan"}, "fusion_lon": 0.0, "lat": 38.92025983333333, "bike_id": "899d3c7e964d353dfc97aa03ea3e889a", "type": "electric_scooter", "is_reserved": 0, "lon": -77.02803833333333}, {"fusion_lat": 0.0, "name": "99dd10df642444d1bff4857bcfb462a5", "is_disabled": 0, "rental_uris": {"android": "https://dc.lft.to/lastmile_qr_scan", "ios": "https://dc.lft.to/lastmile_qr_scan"}, "fusion_lon": 0.0, "lat": 38.94471266666667, "bike_id": "99dd10df642444d1bff4857bcfb462a5", "type": "electric_scooter", "is_reserved": 0, "lon": -77.02357183333334}, {"fusion_lat": 0.0, "name": "4c7194080a1a76f9e98776fef1c3abfc", "is_disabled": 0, "rental_uris": {"android": "https://dc.lft.to/lastmile_qr_scan", "ios": "https://dc.lft.to/lastmile_qr_scan"}, "fusion_lon": 0.0, "lat": 38.940922666666665, "bike_id": "4c7194080a1a76f9e98776fef1c3abfc", "type": "electric_scooter", "is_reserved": 0, "lon": -77.02319083333333}, {"fusion_lat": 0.0, "name": "35528257dfa3ceeb84cf5e62824673b9", "is_disabled": 0, "rental_uris": {"android": "https://dc.lft.to/lastmile_qr_scan", "ios": "https://dc.lft.to/lastmile_qr_scan"}, "fusion_lon": 0.0, "lat": 38.900876833333335, "bike_id": "35528257dfa3ceeb84cf5e62824673b9", "type": "electric_scooter", "is_reserved": 0, "lon": -76.98335916666667}, {"fusion_lat": 0.0, "name": "590d0e8e308a0fc29651bee82f664630", "is_disabled": 0, "rental_uris": {"android": "https://dc.lft.to/lastmile_qr_scan", "ios": "https://dc.lft.to/lastmile_qr_scan"}, "fusion_lon": 0.0, "lat": 38.93898083333333, "bike_id": "590d0e8e308a0fc29651bee82f664630", "type": "electric_scooter", "is_reserved": 0, "lon": -77.03337033333334}, {"fusion_lat": 0.0, "name": "772000f48e76a604769078c39bd61238", "is_disabled": 0, "rental_uris": {"android": "https://dc.lft.to/lastmile_qr_scan", "ios": "https://dc.lft.to/lastmile_qr_scan"}, "fusion_lon": 0.0, "lat": 38.93284833333333, "bike_id": "772000f48e76a604769078c39bd61238", "type": "electric_scooter", "is_reserved": 0, "lon": -77.02750433333334}, {"fusion_lat": 0.0, "name": "72c6af59ea30b826f2e6f734edc5aff1", "is_disabled": 0, "rental_uris": {"android": "https://dc.lft.to/lastmile_qr_scan", "ios": "https://dc.lft.to/lastmile_qr_scan"}, "fusion_lon": 0.0, "lat": 38.9413195, "bike_id": "72c6af59ea30b826f2e6f734edc5aff1", "type": "electric_scooter", "is_reserved": 0, "lon": -77.015449}, {"fusion_lat": 0.0, "name": "d06f316a55c039bf73341fda363b7a46", "is_disabled": 0, "rental_uris": {"android": "https://dc.lft.to/lastmile_qr_scan", "ios": "https://dc.lft.to/lastmile_qr_scan"}, "fusion_lon": 0.0, "lat": 38.900670833333336, "bike_id": "d06f316a55c039bf73341fda363b7a46", "type": "electric_scooter", "is_reserved": 0, "lon": -77.050052}, {"fusion_lat": 0.0, "name": "ffb76462f01ddc0b1cfaebf8d17b1c46", "is_disabled": 0, "rental_uris": {"android": "https://dc.lft.to/lastmile_qr_scan", "ios": "https://dc.lft.to/lastmile_qr_scan"}, "fusion_lon": 0.0, "lat": 38.9563395, "bike_id": "ffb76462f01ddc0b1cfaebf8d17b1c46", "type": "electric_scooter", "is_reserved": 0, "lon": -77.03302583333334}, {"fusion_lat": 0.0, "name": "db94d7aa9bf1883dc82b601f7a50e5a9", "is_disabled": 0, "rental_uris": {"android": "https://dc.lft.to/lastmile_qr_scan", "ios": "https://dc.lft.to/lastmile_qr_scan"}, "fusion_lon": 0.0, "lat": 38.882918333333336, "bike_id": "db94d7aa9bf1883dc82b601f7a50e5a9", "type": "electric_bike", "is_reserved": 0, "lon": -77.030206}, {"fusion_lat": 0.0, "name": "c7dc3f92250a0533212cfb79b8ad562c", "is_disabled": 0, "rental_uris": {"android": "https://dc.lft.to/lastmile_qr_scan", "ios": "https://dc.lft.to/lastmile_qr_scan"}, "fusion_lon": 0.0, "lat": 38.9101825, "bike_id": "c7dc3f92250a0533212cfb79b8ad562c", "type": "electric_scooter", "is_reserved": 0, "lon": -77.03862683333334}, {"fusion_lat": 0.0, "name": "b7bea612d87edc4d84035a9c1209e434", "is_disabled": 0, "rental_uris": {"android": "https://dc.lft.to/lastmile_qr_scan", "ios": "https://dc.lft.to/lastmile_qr_scan"}, "fusion_lon": 0.0, "lat": 38.950177833333335, "bike_id": "b7bea612d87edc4d84035a9c1209e434", "type": "electric_scooter", "is_reserved": 0, "lon": -77.03354633333333}, {"fusion_lat": 0.0, "name": "3c12dd5516ac6070a529b67e26d07fc4", "is_disabled": 0, "rental_uris": {"android": "https://dc.lft.to/lastmile_qr_scan", "ios": "https://dc.lft.to/lastmile_qr_scan"}, "fusion_lon": 0.0, "lat": 38.92495616666667, "bike_id": "3c12dd5516ac6070a529b67e26d07fc4", "type": "electric_scooter", "is_reserved": 0, "lon": -77.02170166666667}, {"fusion_lat": 0.0, "name": "a9db7e5ec3098d90d34a52db3123b211", "is_disabled": 0, "rental_uris": {"android": "https://dc.lft.to/lastmile_qr_scan", "ios": "https://dc.lft.to/lastmile_qr_scan"}, "fusion_lon": 0.0, "lat": 38.92731416666667, "bike_id": "a9db7e5ec3098d90d34a52db3123b211", "type": "electric_scooter", "is_reserved": 0, "lon": -77.0232305}, {"fusion_lat": 0.0, "name": "1dd67a4da17072e1ff5445f7718d5fd8", "is_disabled": 0, "rental_uris": {"android": "https://dc.lft.to/lastmile_qr_scan", "ios": "https://dc.lft.to/lastmile_qr_scan"}, "fusion_lon": 0.0, "lat": 38.958759, "bike_id": "1dd67a4da17072e1ff5445f7718d5fd8", "type": "electric_bike", "is_reserved": 0, "lon": -76.9705525}, {"fusion_lat": 0.0, "name": "57e1953e0820aff9e7d8e01f4a36ffdb", "is_disabled": 0, "rental_uris": {"android": "https://dc.lft.to/lastmile_qr_scan", "ios": "https://dc.lft.to/lastmile_qr_scan"}, "fusion_lon": 0.0, "lat": 38.92225616666666, "bike_id": "57e1953e0820aff9e7d8e01f4a36ffdb", "type": "electric_scooter", "is_reserved": 0, "lon": -76.99353516666666}, {"fusion_lat": 0.0, "name": "31034924e5edb61e1bb3d331bb6549de", "is_disabled": 0, "rental_uris": {"android": "https://dc.lft.to/lastmile_qr_scan", "ios": "https://dc.lft.to/lastmile_qr_scan"}, "fusion_lon": 0.0, "lat": 38.926699, "bike_id": "31034924e5edb61e1bb3d331bb6549de", "type": "electric_bike", "is_reserved": 0, "lon": -77.09851183333333}, {"fusion_lat": 0.0, "name": "4b371a3e308f295b8b5eb2cc60598d9b", "is_disabled": 0, "rental_uris": {"android": "https://dc.lft.to/lastmile_qr_scan", "ios": "https://dc.lft.to/lastmile_qr_scan"}, "fusion_lon": 0.0, "lat": 38.956321833333334, "bike_id": "4b371a3e308f295b8b5eb2cc60598d9b", "type": "electric_scooter", "is_reserved": 0, "lon": -77.033063}, {"fusion_lat": 0.0, "name": "ada8b6e5487f31ce55c329b4e9c616f6", "is_disabled": 0, "rental_uris": {"android": "https://dc.lft.to/lastmile_qr_scan", "ios": "https://dc.lft.to/lastmile_qr_scan"}, "fusion_lon": 0.0, "lat": 38.92082533333333, "bike_id": "ada8b6e5487f31ce55c329b4e9c616f6", "type": "electric_scooter", "is_reserved": 0, "lon": -77.073707}, {"fusion_lat": 0.0, "name": "2fb8814af4153bfca11bd9992382aa10", "is_disabled": 0, "rental_uris": {"android": "https://dc.lft.to/lastmile_qr_scan", "ios": "https://dc.lft.to/lastmile_qr_scan"}, "fusion_lon": 0.0, "lat": 38.918063, "bike_id": "2fb8814af4153bfca11bd9992382aa10", "type": "electric_scooter", "is_reserved": 0, "lon": -77.02705916666666}, {"fusion_lat": 0.0, "name": "8000850f473bd972c854bb8d148b023e", "is_disabled": 0, "rental_uris": {"android": "https://dc.lft.to/lastmile_qr_scan", "ios": "https://dc.lft.to/lastmile_qr_scan"}, "fusion_lon": 0.0, "lat": 38.957448, "bike_id": "8000850f473bd972c854bb8d148b023e", "type": "electric_bike", "is_reserved": 0, "lon": -76.97252783333333}, {"fusion_lat": 0.0, "name": "3461a828576b7c745b0449893ba49e28", "is_disabled": 0, "rental_uris": {"android": "https://dc.lft.to/lastmile_qr_scan", "ios": "https://dc.lft.to/lastmile_qr_scan"}, "fusion_lon": 0.0, "lat": 38.896446833333336, "bike_id": "3461a828576b7c745b0449893ba49e28", "type": "electric_scooter", "is_reserved": 0, "lon": -77.02667833333334}, {"fusion_lat": 0.0, "name": "4f6cb627a5530189d98f2332217a9902", "is_disabled": 0, "rental_uris": {"android": "https://dc.lft.to/lastmile_qr_scan", "ios": "https://dc.lft.to/lastmile_qr_scan"}, "fusion_lon": 0.0, "lat": 38.95063433333333, "bike_id": "4f6cb627a5530189d98f2332217a9902", "type": "electric_bike", "is_reserved": 0, "lon": -77.072308}, {"fusion_lat": 0.0, "name": "2d93befbd4383b997614be35710b67aa", "is_disabled": 0, "rental_uris": {"android": "https://dc.lft.to/lastmile_qr_scan", "ios": "https://dc.lft.to/lastmile_qr_scan"}, "fusion_lon": 0.0, "lat": 38.91407266666667, "bike_id": "2d93befbd4383b997614be35710b67aa", "type": "electric_scooter", "is_reserved": 0, "lon": -77.0399165}, {"fusion_lat": 0.0, "name": "8d53673e98e83fb8b1ae3d37fb717912", "is_disabled": 0, "rental_uris": {"android": "https://dc.lft.to/lastmile_qr_scan", "ios": "https://dc.lft.to/lastmile_qr_scan"}, "fusion_lon": 0.0, "lat": 38.90511383333333, "bike_id": "8d53673e98e83fb8b1ae3d37fb717912", "type": "electric_scooter", "is_reserved": 0, "lon": -77.02971533333333}, {"fusion_lat": 0.0, "name": "a187432b3bf7e142da40761c8e94b903", "is_disabled": 0, "rental_uris": {"android": "https://dc.lft.to/lastmile_qr_scan", "ios": "https://dc.lft.to/lastmile_qr_scan"}, "fusion_lon": 0.0, "lat": 38.91323083333333, "bike_id": "a187432b3bf7e142da40761c8e94b903", "type": "electric_scooter", "is_reserved": 0, "lon": -77.029516}, {"fusion_lat": 0.0, "name": "22ffe91bc1f98546ac75e0924f3fced1", "is_disabled": 0, "rental_uris": {"android": "https://dc.lft.to/lastmile_qr_scan", "ios": "https://dc.lft.to/lastmile_qr_scan"}, "fusion_lon": 0.0, "lat": 38.911175666666665, "bike_id": "22ffe91bc1f98546ac75e0924f3fced1", "type": "electric_scooter", "is_reserved": 0, "lon": -77.01147383333333}, {"fusion_lat": 0.0, "name": "e7b9c037a97411b5832ff235377f6a5d", "is_disabled": 0, "rental_uris": {"android": "https://dc.lft.to/lastmile_qr_scan", "ios": "https://dc.lft.to/lastmile_qr_scan"}, "fusion_lon": 0.0, "lat": 38.932181666666665, "bike_id": "e7b9c037a97411b5832ff235377f6a5d", "type": "electric_scooter", "is_reserved": 0, "lon": -77.03344983333334}, {"fusion_lat": 0.0, "name": "97a224d339f476ab89a6af886e40262c", "is_disabled": 0, "rental_uris": {"android": "https://dc.lft.to/lastmile_qr_scan", "ios": "https://dc.lft.to/lastmile_qr_scan"}, "fusion_lon": 0.0, "lat": 38.920602833333334, "bike_id": "97a224d339f476ab89a6af886e40262c", "type": "electric_scooter", "is_reserved": 0, "lon": -77.032463}, {"fusion_lat": 0.0, "name": "6b913e9980d6bea9c1d44918e5069cbf", "is_disabled": 0, "rental_uris": {"android": "https://dc.lft.to/lastmile_qr_scan", "ios": "https://dc.lft.to/lastmile_qr_scan"}, "fusion_lon": 0.0, "lat": 38.892225833333335, "bike_id": "6b913e9980d6bea9c1d44918e5069cbf", "type": "electric_scooter", "is_reserved": 0, "lon": -77.04505983333334}, {"fusion_lat": 0.0, "name": "665d14c06a3ab6deb203c9ff03c4b3e2", "is_disabled": 0, "rental_uris": {"android": "https://dc.lft.to/lastmile_qr_scan", "ios": "https://dc.lft.to/lastmile_qr_scan"}, "fusion_lon": 0.0, "lat": 38.856986666666664, "bike_id": "665d14c06a3ab6deb203c9ff03c4b3e2", "type": "electric_scooter", "is_reserved": 0, "lon": -76.99596583333333}, {"fusion_lat": 0.0, "name": "a0049a874106b754ca34e92f72367520", "is_disabled": 0, "rental_uris": {"android": "https://dc.lft.to/lastmile_qr_scan", "ios": "https://dc.lft.to/lastmile_qr_scan"}, "fusion_lon": 0.0, "lat": 38.901670833333334, "bike_id": "a0049a874106b754ca34e92f72367520", "type": "electric_scooter", "is_reserved": 0, "lon": -77.022237}, {"fusion_lat": 0.0, "name": "edcd8b7a672701ddd82b1a9abd369ea4", "is_disabled": 0, "rental_uris": {"android": "https://dc.lft.to/lastmile_qr_scan", "ios": "https://dc.lft.to/lastmile_qr_scan"}, "fusion_lon": 0.0, "lat": 38.915724, "bike_id": "edcd8b7a672701ddd82b1a9abd369ea4", "type": "electric_scooter", "is_reserved": 0, "lon": -77.0377825}, {"fusion_lat": 0.0, "name": "0577fb445202ec30ba1d646f2409d0a2", "is_disabled": 0, "rental_uris": {"android": "https://dc.lft.to/lastmile_qr_scan", "ios": "https://dc.lft.to/lastmile_qr_scan"}, "fusion_lon": 0.0, "lat": 38.924814833333336, "bike_id": "0577fb445202ec30ba1d646f2409d0a2", "type": "electric_scooter", "is_reserved": 0, "lon": -77.02652983333333}, {"fusion_lat": 0.0, "name": "e54d9d6599c623a43b384d456656371f", "is_disabled": 0, "rental_uris": {"android": "https://dc.lft.to/lastmile_qr_scan", "ios": "https://dc.lft.to/lastmile_qr_scan"}, "fusion_lon": 0.0, "lat": 38.900293, "bike_id": "e54d9d6599c623a43b384d456656371f", "type": "electric_scooter", "is_reserved": 0, "lon": -77.02950533333333}, {"fusion_lat": 0.0, "name": "e7232b2e59276376ddc5db7a5ec7f522", "is_disabled": 0, "rental_uris": {"android": "https://dc.lft.to/lastmile_qr_scan", "ios": "https://dc.lft.to/lastmile_qr_scan"}, "fusion_lon": 0.0, "lat": 38.889841, "bike_id": "e7232b2e59276376ddc5db7a5ec7f522", "type": "electric_scooter", "is_reserved": 0, "lon": -76.98414816666667}, {"fusion_lat": 0.0, "name": "bca635f72429b9979b036acc10b9cb74", "is_disabled": 0, "rental_uris": {"android": "https://dc.lft.to/lastmile_qr_scan", "ios": "https://dc.lft.to/lastmile_qr_scan"}, "fusion_lon": 0.0, "lat": 38.92789466666667, "bike_id": "bca635f72429b9979b036acc10b9cb74", "type": "electric_scooter", "is_reserved": 0, "lon": -77.05532983333333}, {"fusion_lat": 0.0, "name": "039e2289ae620c7f84be15648171fbd8", "is_disabled": 0, "rental_uris": {"android": "https://dc.lft.to/lastmile_qr_scan", "ios": "https://dc.lft.to/lastmile_qr_scan"}, "fusion_lon": 0.0, "lat": 38.896316666666664, "bike_id": "039e2289ae620c7f84be15648171fbd8", "type": "electric_scooter", "is_reserved": 0, "lon": -77.009129},