{"data": {"bikes": [{"name": "e8e3d3676a2ebc70f698f7e5cea68dd5", "lon": -77.03501666666666, "lat": 38.917067333333335, "type": "electric_scooter", "fusion_lon": 0.0, "is_reserved": 0, "bike_id": "e8e3d3676a2ebc70f698f7e5cea68dd5", "fusion_lat": 0.0, "is_disabled": 0, "rental_uris": {"ios": "https://dc.lft.to/lastmile_qr_scan", "android": "https://dc.lft.to/lastmile_qr_scan"}}, {"name": "da4f0f58e7284c0a8e7cd6620392a3e6", "lon": -77.03307833333334, "lat": 38.95640683333333, "type": "electric_scooter", "fusion_lon": 0.0, "is_reserved": 0, "bike_id": "da4f0f58e7284c0a8e7cd6620392a3e6", "fusion_lat": 0.0, "is_disabled": 0, "rental_uris": {"ios": "https://dc.lft.to/lastmile_qr_scan", "android": "https://dc.lft.to/lastmile_qr_scan"}}, {"name": "778021d9f12164dfa6e6828048ebbedf", "lon": -77.04163516666667, "lat": 38.918617833333336, "type": "electric_scooter", "fusion_lon": 0.0, "is_reserved": 0, "bike_id": "778021d9f12164dfa6e6828048ebbedf", "fusion_lat": 0.0, "is_disabled": 0, "rental_uris": {"ios": "https://dc.lft.to/lastmile_qr_scan", "android": "https://dc.lft.to/lastmile_qr_scan"}}, {"name": "c3f3a53a0897206f5e1bd6c1c76268d5", "lon": -77.02162933333334, "lat": 38.89729116666667, "type": "electric_scooter", "fusion_lon": 0.0, "is_reserved": 0, "bike_id": "c3f3a53a0897206f5e1bd6c1c76268d5", "fusion_lat": 0.0, "is_disabled": 0, "rental_uris": {"ios": "https://dc.lft.to/lastmile_qr_scan", "android": "https://dc.lft.to/lastmile_qr_scan"}}, {"name": "74f4aa1886de29e340124f7cc7590a9a", "lon": -76.96692416666667, "lat": 38.85903966666667, "type": "electric_scooter", "fusion_lon": 0.0, "is_reserved": 0, "bike_id": "74f4aa1886de29e340124f7cc7590a9a", "fusion_lat": 0.0, "is_disabled": 0, "rental_uris": {"ios": "https://dc.lft.to/lastmile_qr_scan", "android": "https://dc.lft.to/lastmile_qr_scan"}}, {"name": "f5123af5b0ac33761fbadab7b179d873", "lon": -76.94633, "lat": 38.89843, "type": "electric_scooter", "fusion_lon": 0.0, "is_reserved": 0, "bike_id": "f5123af5b0ac33761fbadab7b179d873", "fusion_lat": 0.0, "is_disabled": 0, "rental_uris": {"ios": "https://dc.lft.to/lastmile_qr_scan", "android": "https://dc.lft.to/lastmile_qr_scan"}}, {"name": "46ffdb038f6d20563339b5c077cd0a5c", "lon": -77.03440583333334, "lat": 38.9100965, "type": "electric_scooter", "fusion_lon": 0.0, "is_reserved": 0, "bike_id": "46ffdb038f6d20563339b5c077cd0a5c", "fusion_lat": 0.0, "is_disabled": 0, "rental_uris": {"ios": "https://dc.lft.to/lastmile_qr_scan", "android": "https://dc.lft.to/lastmile_qr_scan"}}, {"name": "5fee9df9fe7c1daf9d749367302de121", "lon": -77.02188616666666, "lat": 38.91430183333333, "type": "electric_scooter", "fusion_lon": 0.0, "is_reserved": 0, "bike_id": "5fee9df9fe7c1daf9d749367302de121", "fusion_lat": 0.0, "is_disabled": 0, "rental_uris": {"ios": "https://dc.lft.to/lastmile_qr_scan", "android": "https://dc.lft.to/lastmile_qr_scan"}}, {"name": "07bf140dea673ddc6381027094476af9", "lon": -77.020527, "lat": 38.9269825, "type": "electric_scooter", "fusion_lon": 0.0, "is_reserved": 0, "bike_id": "07bf140dea673ddc6381027094476af9", "fusion_lat": 0.0, "is_disabled": 0, "rental_uris": {"ios": "https://dc.lft.to/lastmile_qr_scan", "android": "https://dc.lft.to/lastmile_qr_scan"}}, {"name": "7e60e9e16d4a7e1a53c166f85b57037a", "lon": -76.99807133333333, "lat": 38.885638166666666, "type": "electric_scooter", "fusion_lon": 0.0, "is_reserved": 0, "bike_id": "7e60e9e16d4a7e1a53c166f85b57037a", "fusion_lat": 0.0, "is_disabled": 0, "rental_uris": {"ios": "https://dc.lft.to/lastmile_qr_scan", "android": "https://dc.lft.to/lastmile_qr_scan"}}, {"name": "1375221c4d3b6797b72886bd174745c7", "lon": -77.045378, "lat": 38.90063, "type": "electric_scooter", "fusion_lon": 0.0, "is_reserved": 0, "bike_id": "1375221c4d3b6797b72886bd174745c7", "fusion_lat": 0.0, "is_disabled": 0, "rental_uris": {"ios": "https://dc.lft.to/lastmile_qr_scan", "android": "https://dc.lft.to/lastmile_qr_scan"}}, {"name": "07ebe6d4e895991823540dba10683c56", "lon": -77.04812733333333, "lat": 38.91031383333333, "type": "electric_scooter", "fusion_lon": 0.0, "is_reserved": 0, "bike_id": "07ebe6d4e895991823540dba10683c56", "fusion_lat": 0.0, "is_disabled": 0, "rental_uris": {"ios": "https://dc.lft.to/lastmile_qr_scan", "android": "https://dc.lft.to/lastmile_qr_scan"}}, {"name": "f98ac600ae610d91dff6eb749d63efe6", "lon": -76.99713383333334, "lat": 38.844309, "type": "electric_scooter", "fusion_lon": 0.0, "is_reserved": 0, "bike_id": "f98ac600ae610d91dff6eb749d63efe6", "fusion_lat": 0.0, "is_disabled": 0, "rental_uris": {"ios": "https://dc.lft.to/lastmile_qr_scan", "android": "https://dc.lft.to/lastmile_qr_scan"}}, {"name": "d6187a19762c04913b578b411e06a9e2", "lon": -77.03321433333333, "lat": 38.8984925, "type": "electric_scooter", "fusion_lon": 0.0, "is_reserved": 0, "bike_id": "d6187a19762c04913b578b411e06a9e2", "fusion_lat": 0.0, "is_disabled": 0, "rental_uris": {"ios": "https://dc.lft.to/lastmile_qr_scan", "android": "https://dc.lft.to/lastmile_qr_scan"}}, {"name": "29a299de7e7c5f195f91d5d6d636ab9b", "lon": -77.04847666666667, "lat": 38.9196815, "type": "electric_scooter", "fusion_lon": 0.0, "is_reserved": 0, "bike_id": "29a299de7e7c5f195f91d5d6d636ab9b", "fusion_lat": 0.0, "is_disabled": 0, "rental_uris": {"ios": "https://dc.lft.to/lastmile_qr_scan", "android": "https://dc.lft.to/lastmile_qr_scan"}}, {"name": "a267944f1db371864ac7631a42a227bb", "lon": -77.0240615, "lat": 38.933517, "type": "electric_scooter", "fusion_lon": 0.0, "is_reserved": 0, "bike_id": "a267944f1db371864ac7631a42a227bb", "fusion_lat": 0.0, "is_disabled": 0, "rental_uris": {"ios": "https://dc.lft.to/lastmile_qr_scan", "android": "https://dc.lft.to/lastmile_qr_scan"}}, {"name": "8fbaa2052ab407f1e9e3abe08216a761", "lon": -76.9884, "lat": 38.89258133333333, "type": "electric_scooter", "fusion_lon": 0.0, "is_reserved": 0, "bike_id": "8fbaa2052ab407f1e9e3abe08216a761", "fusion_lat": 0.0, "is_disabled": 0, "rental_uris": {"ios": "https://dc.lft.to/lastmile_qr_scan", "android": "https://dc.lft.to/lastmile_qr_scan"}}, {"name": "32018874aa366c5ba33d54c88cc81bf7", "lon": -77.03832566666667, "lat": 38.914974, "type": "electric_scooter", "fusion_lon": 0.0, "is_reserved": 0, "bike_id": "32018874aa366c5ba33d54c88cc81bf7", "fusion_lat": 0.0, "is_disabled": 0, "rental_uris": {"ios": "https://dc.lft.to/lastmile_qr_scan", "android": "https://dc.lft.to/lastmile_qr_scan"}}, {"name": "31ea3ef563e4644d2c215c4c6f1ed757", "lon": -77.026942, "lat": 38.911269, "type": "electric_scooter", "fusion_lon": 0.0, "is_reserved": 0, "bike_id": "31ea3ef563e4644d2c215c4c6f1ed757", "fusion_lat": 0.0, "is_disabled": 0, "rental_uris": {"ios": "https://dc.lft.to/lastmile_qr_scan", "android": "https://dc.lft.to/lastmile_qr_scan"}}, {"name": "94efb6ba00d464e862004c9d25d37adf", "lon": -77.03199516666666, "lat": 38.907776, "type": "electric_scooter", "fusion_lon": 0.0, "is_reserved": 0, "bike_id": "94efb6ba00d464e862004c9d25d37adf", "fusion_lat": 0.0, "is_disabled": 0, "rental_uris": {"ios": "https://dc.lft.to/lastmile_qr_scan", "android": "https://dc.lft.to/lastmile_qr_scan"}}, {"name": "ed0029e33b481a544da47dd249d9e72a", "lon": -77.0512165, "lat": 38.923441833333335, "type": "electric_scooter", "fusion_lon": 0.0, "is_reserved": 0, "bike_id": "ed0029e33b481a544da47dd249d9e72a", "fusion_lat": 0.0, "is_disabled": 0, "rental_uris": {"ios": "https://dc.lft.to/lastmile_qr_scan", "android": "https://dc.lft.to/lastmile_qr_scan"}}, {"name": "609c4c447996bafa3253e5a1685f765d", "lon": -77.0074085, "lat": 38.8983995, "type": "electric_scooter", "fusion_lon": 0.0, "is_reserved": 0, "bike_id": "609c4c447996bafa3253e5a1685f765d", "fusion_lat": 0.0, "is_disabled": 0, "rental_uris": {"ios": "https://dc.lft.to/lastmile_qr_scan", "android": "https://dc.lft.to/lastmile_qr_scan"}}, {"name": "e1e29346842546b7bc470a15d4848f36", "lon": -77.01281266666666, "lat": 38.87168233333333, "type": "electric_bike", "fusion_lon": 0.0, "is_reserved": 0, "bike_id": "e1e29346842546b7bc470a15d4848f36", "fusion_lat": 0.0, "is_disabled": 0, "rental_uris": {"ios": "https://dc.lft.to/lastmile_qr_scan", "android": "https://dc.lft.to/lastmile_qr_scan"}}, {"name": "0e24c67992ebce3615b95c1eb4a182fd", "lon": -77.0558205, "lat": 38.893252333333336, "type": "electric_scooter", "fusion_lon": 0.0, "is_reserved": 0, "bike_id": "0e24c67992ebce3615b95c1eb4a182fd", "fusion_lat": 0.0, "is_disabled": 0, "rental_uris": {"ios": "https://dc.lft.to/lastmile_qr_scan", "android": "https://dc.lft.to/lastmile_qr_scan"}}, {"name": "15e945a1e5af4030582f673bd6995dbd", "lon": -77.0499785, "lat": 38.904199166666665, "type": "electric_scooter", "fusion_lon": 0.0, "is_reserved": 0, "bike_id": "15e945a1e5af4030582f673bd6995dbd", "fusion_lat": 0.0, "is_disabled": 0, "rental_uris": {"ios": "https://dc.lft.to/lastmile_qr_scan", "android": "https://dc.lft.to/lastmile_qr_scan"}}, {"name": "ef9b0e532a4341d5936b9aba6ba99946", "lon": -77.04370416666667, "lat": 38.911201, "type": "electric_scooter", "fusion_lon": 0.0, "is_reserved": 0, "bike_id": "ef9b0e532a4341d5936b9aba6ba99946", "fusion_lat": 0.0, "is_disabled": 0, "rental_uris": {"ios": "https://dc.lft.to/lastmile_qr_scan", "android": "https://dc.lft.to/lastmile_qr_scan"}}, {"name": "780cbaa7c7609e220465a8c23a4a3b49", "lon": -77.02529633333333, "lat": 38.942610333333334, "type": "electric_scooter", "fusion_lon": 0.0, "is_reserved": 0, "bike_id": "780cbaa7c7609e220465a8c23a4a3b49", "fusion_lat": 0.0, "is_disabled": 0, "rental_uris": {"ios": "https://dc.lft.to/lastmile_qr_scan", "android": "https://dc.lft.to/lastmile_qr_scan"}}, {"name": "ad29d9d653ebd4b46ad0c7303c172ca5", "lon": -77.04622333333333, "lat": 38.90960366666667, "type": "electric_scooter", "fusion_lon": 0.0, "is_reserved": 0, "bike_id": "ad29d9d653ebd4b46ad0c7303c172ca5", "fusion_lat": 0.0, "is_disabled": 0, "rental_uris": {"ios": "https://dc.lft.to/lastmile_qr_scan", "android": "https://dc.lft.to/lastmile_qr_scan"}}, {"name": "d4784f8415b196273f1acdb302c9adb8", "lon": -76.985505, "lat": 38.9042565, "type": "electric_scooter", "fusion_lon": 0.0, "is_reserved": 0, "bike_id": "d4784f8415b196273f1acdb302c9adb8", "fusion_lat": 0.0, "is_disabled": 0, "rental_uris": {"ios": "https://dc.lft.to/lastmile_qr_scan", "android": "https://dc.lft.to/lastmile_qr_scan"}}, {"name": "79553581fa1b5a1200ce771b40c4eddb", "lon": -77.03677966666666, "lat": 38.922641666666664, "type": "electric_scooter", "fusion_lon": 0.0, "is_reserved": 0, "bike_id": "79553581fa1b5a1200ce771b40c4eddb", "fusion_lat": 0.0, "is_disabled": 0, "rental_uris": {"ios": "https://dc.lft.to/lastmile_qr_scan", "android": "https://dc.lft.to/lastmile_qr_scan"}}, {"name": "467be5faca17e206fa0ccdc7c356dee8", "lon": -77.040067, "lat": 38.88862916666667, "type": "electric_scooter", "fusion_lon": 0.0, "is_reserved": 0, "bike_id": "467be5faca17e206fa0ccdc7c356dee8", "fusion_lat": 0.0, "is_disabled": 0, "rental_uris": {"ios": "https://dc.lft.to/lastmile_qr_scan", "android": "https://dc.lft.to/lastmile_qr_scan"}}, {"name": "c62766ffe388f1e5ec68d781df307174", "lon": -77.03778683333333, "lat": 38.916913, "type": "electric_scooter", "fusion_lon": 0.0, "is_reserved": 0, "bike_id": "c62766ffe388f1e5ec68d781df307174", "fusion_lat": 0.0, "is_disabled": 0, "rental_uris": {"ios": "https://dc.lft.to/lastmile_qr_scan", "android": "https://dc.lft.to/lastmile_qr_scan"}}, {"name": "f2ac2f02198cf646091151cf62ca5b7e", "lon": -77.041632, "lat": 38.91589833333333, "type": "electric_scooter", "fusion_lon": 0.0, "is_reserved": 0, "bike_id": "f2ac2f02198cf646091151cf62ca5b7e", "fusion_lat": 0.0, "is_disabled": 0, "rental_uris": {"ios": "https://dc.lft.to/lastmile_qr_scan", "android": "https://dc.lft.to/lastmile_qr_scan"}}, {"name": "8cc3007d74e488d34d02023b0aa42e01", "lon": -77.03181016666667, "lat": 38.915476, "type": "electric_scooter", "fusion_lon": 0.0, "is_reserved": 0, "bike_id": "8cc3007d74e488d34d02023b0aa42e01", "fusion_lat": 0.0, "is_disabled": 0, "rental_uris": {"ios": "https://dc.lft.to/lastmile_qr_scan", "android": "https://dc.lft.to/lastmile_qr_scan"}}, {"name": "6a8866e21574216e50fed3ba56e96841", "lon": -76.98885216666666, "lat": 38.86658333333333, "type": "electric_scooter", "fusion_lon": 0.0, "is_reserved": 0, "bike_id": "6a8866e21574216e50fed3ba56e96841", "fusion_lat": 0.0, "is_disabled": 0, "rental_uris": {"ios": "https://dc.lft.to/lastmile_qr_scan", "android": "https://dc.lft.to/lastmile_qr_scan"}}, {"name": "3b175a1d76d98277eff23831599fb126", "lon": -76.97832766666667, "lat": 38.872086333333336, "type": "electric_scooter", "fusion_lon": 0.0, "is_reserved": 0, "bike_id": "3b175a1d76d98277eff23831599fb126", "fusion_lat": 0.0, "is_disabled": 0, "rental_uris": {"ios": "https://dc.lft.to/lastmile_qr_scan", "android": "https://dc.lft.to/lastmile_qr_scan"}}, {"name": "8006cfef6cedd658462279deb9acb69b", "lon": -77.01069283333334, "lat": 38.866687, "type": "electric_scooter", "fusion_lon": 0.0, "is_reserved": 0, "bike_id": "8006cfef6cedd658462279deb9acb69b", "fusion_lat": 0.0, "is_disabled": 0, "rental_uris": {"ios": "https://dc.lft.to/lastmile_qr_scan", "android": "https://dc.lft.to/lastmile_qr_scan"}}, {"name": "eb9eb5712caded0876746fd80a126943", "lon": -77.04861316666667, "lat": 38.9064615, "type": "electric_scooter", "fusion_lon": 0.0, "is_reserved": 0, "bike_id": "eb9eb5712caded0876746fd80a126943", "fusion_lat": 0.0, "is_disabled": 0, "rental_uris": {"ios": "https://dc.lft.to/lastmile_qr_scan", "android": "https://dc.lft.to/lastmile_qr_scan"}}, {"name": "598bc72c02534f9a19c707bdfcbd4354", "lon": -77.041838, "lat": 38.89232366666667, "type": "electric_scooter", "fusion_lon": 0.0, "is_reserved": 0, "bike_id": "598bc72c02534f9a19c707bdfcbd4354", "fusion_lat": 0.0, "is_disabled": 0, "rental_uris": {"ios": "https://dc.lft.to/lastmile_qr_scan", "android": "https://dc.lft.to/lastmile_qr_scan"}}, {"name": "07caca79f672e41a2ec7602b18c7fd65", "lon": -77.04869116666667, "lat": 38.90630766666666, "type": "electric_scooter", "fusion_lon": 0.0, "is_reserved": 0, "bike_id": "07caca79f672e41a2ec7602b18c7fd65", "fusion_lat": 0.0, "is_disabled": 0, "rental_uris": {"ios": "https://dc.lft.to/lastmile_qr_scan", "android": "https://dc.lft.to/lastmile_qr_scan"}}, {"name": "ad45c6bec60f28816c4555a7c002f031", "lon": -77.02700083333333, "lat": 38.900955833333335, "type": "electric_scooter", "fusion_lon": 0.0, "is_reserved": 0, "bike_id": "ad45c6bec60f28816c4555a7c002f031", "fusion_lat": 0.0, "is_disabled": 0, "rental_uris": {"ios": "https://dc.lft.to/lastmile_qr_scan", "android": "https://dc.lft.to/lastmile_qr_scan"}}, {"name": "dee2cd7881083a3bdbae11eb05f4a36c", "lon": -77.03516216666667, "lat": 38.935914333333336, "type": "electric_scooter", "fusion_lon": 0.0, "is_reserved": 0, "bike_id": "dee2cd7881083a3bdbae11eb05f4a36c", "fusion_lat": 0.0, "is_disabled": 0, "rental_uris": {"ios": "https://dc.lft.to/lastmile_qr_scan", "android": "https://dc.lft.to/lastmile_qr_scan"}}, {"name": "a30bda2458f7a5b1777c54588a3a8ca3", "lon": -77.04478183333333, "lat": 38.905532666666666, "type": "electric_scooter", "fusion_lon": 0.0, "is_reserved": 0, "bike_id": "a30bda2458f7a5b1777c54588a3a8ca3", "fusion_lat": 0.0, "is_disabled": 0, "rental_uris": {"ios": "https://dc.lft.to/lastmile_qr_scan", "android": "https://dc.lft.to/lastmile_qr_scan"}}, {"name": "a1636688c6ad553d14b13b8e146b1851", "lon": -77.04328883333334, "lat": 38.89224433333333, "type": "electric_scooter", "fusion_lon": 0.0, "is_reserved": 0, "bike_id": "a1636688c6ad553d14b13b8e146b1851", "fusion_lat": 0.0, "is_disabled": 0, "rental_uris": {"ios": "https://dc.lft.to/lastmile_qr_scan", "android": "https://dc.lft.to/lastmile_qr_scan"}}, {"name": "66cfae3f886fb5b807c0a30ed78ce747", "lon": -77.00889933333333, "lat": 38.88177183333333, "type": "electric_scooter", "fusion_lon": 0.0, "is_reserved": 0, "bike_id": "66cfae3f886fb5b807c0a30ed78ce747", "fusion_lat": 0.0, "is_disabled": 0, "rental_uris": {"ios": "https://dc.lft.to/lastmile_qr_scan", "android": "https://dc.lft.to/lastmile_qr_scan"}}, {"name": "74838f807e84c8c7a708c0bd0d6a6a7c", "lon": -77.0337485, "lat": 38.932293666666666, "type": "electric_scooter", "fusion_lon": 0.0, "is_reserved": 0, "bike_id": "74838f807e84c8c7a708c0bd0d6a6a7c", "fusion_lat": 0.0, "is_disabled": 0, "rental_uris": {"ios": "https://dc.lft.to/lastmile_qr_scan", "android": "https://dc.lft.to/lastmile_qr_scan"}}, {"name": "7ec4ba2577df802e0a290d9f0ae44437", "lon": -77.02151683333334, "lat": 38.89960816666667, "type": "electric_scooter", "fusion_lon": 0.0, "is_reserved": 0, "bike_id": "7ec4ba2577df802e0a290d9f0ae44437", "fusion_lat": 0.0, "is_disabled": 0, "rental_uris": {"ios": "https://dc.lft.to/lastmile_qr_scan", "android": "https://dc.lft.to/lastmile_qr_scan"}}, {"name": "6139e8893f5ee55b88fc7cb86a310ee7", "lon": -77.026877, "lat": 38.89610233333333, "type": "electric_scooter", "fusion_lon": 0.0, "is_reserved": 0, "bike_id": "6139e8893f5ee55b88fc7cb86a310ee7", "fusion_lat": 0.0, "is_disabled": 0, "rental_uris": {"ios": "https://dc.lft.to/lastmile_qr_scan", "android": "https://dc.lft.to/lastmile_qr_scan"}}, {"name": "5d7beee310e2dc2149075e0302453722", "lon": -76.985342, "lat": 38.86649116666667, "type": "electric_scooter", "fusion_lon": 0.0, "is_reserved": 0, "bike_id": "5d7beee310e2dc2149075e0302453722", "fusion_lat": 0.0, "is_disabled": 0, "rental_uris": {"ios": "https://dc.lft.to/lastmile_qr_scan", "android": "https://dc.lft.to/lastmile_qr_scan"}}, {"name": "8ed93db173d4d491bccec5c71f1fd7c4", "lon": -77.02723816666666, "lat": 38.9495675, "type": "electric_scooter", "fusion_lon": 0.0, "is_reserved": 0, "bike_id": "8ed93db173d4d491bccec5c71f1fd7c4", "fusion_lat": 0.0, "is_disabled": 0, "rental_uris": {"ios": "https://dc.lft.to/lastmile_qr_scan", "android": "https://dc.lft.to/lastmile_qr_scan"}}, {"name": "105bd05b4416e6719e1ac9d44ff20317", "lon": -76.989776, "lat": 38.865132833333334, "type": "electric_scooter", "fusion_lon": 0.0, "is_reserved": 0, "bike_id": "105bd05b4416e6719e1ac9d44ff20317", "fusion_lat": 0.0, "is_disabled": 0, "rental_uris": {"ios": "https://dc.lft.to/lastmile_qr_scan", "android": "https://dc.lft.to/lastmile_qr_scan"}}, {"name": "8f9594d7ad516be9397512d92f3c22b1", "lon": -77.00346633333334, "lat": 38.88702716666667, "type": "electric_scooter", "fusion_lon": 0.0, "is_reserved": 0, "bike_id": "8f9594d7ad516be9397512d92f3c22b1", "fusion_lat": 0.0, "is_disabled": 0, "rental_uris": {"ios": "https://dc.lft.to/lastmile_qr_scan", "android": "https://dc.lft.to/lastmile_qr_scan"}}, {"name": "3e6c6b1c924ec0f13d913f73b5b61e3a", "lon": -77.02474083333334, "lat": 38.91811583333333, "type": "electric_scooter", "fusion_lon": 0.0, "is_reserved": 0, "bike_id": "3e6c6b1c924ec0f13d913f73b5b61e3a", "fusion_lat": 0.0, "is_disabled": 0, "rental_uris": {"ios": "https://dc.lft.to/lastmile_qr_scan", "android": "https://dc.lft.to/lastmile_qr_scan"}}, {"name": "52d29c87acee1352a25778f8baae9a1b", "lon": -77.035902, "lat": 38.912565, "type": "electric_scooter", "fusion_lon": 0.0, "is_reserved": 0, "bike_id": "52d29c87acee1352a25778f8baae9a1b", "fusion_lat": 0.0, "is_disabled": 0, "rental_uris": {"ios": "https://dc.lft.to/lastmile_qr_scan", "android": "https://dc.lft.to/lastmile_qr_scan"}}, {"name": "a24bd83f483569ba3d4fa283bdbb718a", "lon": -76.97788666666666, "lat": 38.88864783333333, "type": "electric_bike", "fusion_lon": 0.0, "is_reserved": 0, "bike_id": "a24bd83f483569ba3d4fa283bdbb718a", "fusion_lat": 0.0, "is_disabled": 0, "rental_uris": {"ios": "https://dc.lft.to/lastmile_qr_scan", "android": "https://dc.lft.to/lastmile_qr_scan"}}, {"name": "88ae10c3eaa7bd4ba8386fb874070124", "lon": -77.02364, "lat": 38.92515616666667, "type": "electric_scooter", "fusion_lon": 0.0, "is_reserved": 0, "bike_id": "88ae10c3eaa7bd4ba8386fb874070124", "fusion_lat": 0.0, "is_disabled": 0, "rental_uris": {"ios": "https://dc.lft.to/lastmile_qr_scan", "android": "https://dc.lft.to/lastmile_qr_scan"}}, {"name": "49fdcae8826281398df7de068bc1b7ef", "lon": -77.00139533333333, "lat": 38.905110666666666, "type": "electric_scooter", "fusion_lon": 0.0, "is_reserved": 0, "bike_id": "49fdcae8826281398df7de068bc1b7ef", "fusion_lat": 0.0, "is_disabled": 0, "rental_uris": {"ios": "https://dc.lft.to/lastmile_qr_scan", "android": "https://dc.lft.to/lastmile_qr_scan"}}, {"name": "5896eed9bfe0d603e4560f0f7a34dc3f", "lon": -77.041789, "lat": 38.90570566666667, "type": "electric_scooter", "fusion_lon": 0.0, "is_reserved": 0, "bike_id": "5896eed9bfe0d603e4560f0f7a34dc3f", "fusion_lat": 0.0, "is_disabled": 0, "rental_uris": {"ios": "https://dc.lft.to/lastmile_qr_scan", "android": "https://dc.lft.to/lastmile_qr_scan"}}, {"name": "565f254dc3182187ad9dcfabd82b020d", "lon": -76.95182166666666, "lat": 38.90737816666667, "type": "electric_scooter", "fusion_lon": 0.0, "is_reserved": 0, "bike_id": "565f254dc3182187ad9dcfabd82b020d", "fusion_lat": 0.0, "is_disabled": 0, "rental_uris": {"ios": "https://dc.lft.to/lastmile_qr_scan", "android": "https://dc.lft.to/lastmile_qr_scan"}}, {"name": "13ab2d617c9bd2ae81c31b7cc89fba63", "lon": -77.0178095, "lat": 38.907826166666666, "type": "electric_scooter", "fusion_lon": 0.0, "is_reserved": 0, "bike_id": "13ab2d617c9bd2ae81c31b7cc89fba63", "fusion_lat": 0.0, "is_disabled": 0, "rental_uris": {"ios": "https://dc.lft.to/lastmile_qr_scan", "android": "https://dc.lft.to/lastmile_qr_scan"}}, {"name": "c32b41324d12b2007e8f0c4f1119b819", "lon": -77.04407166666667, "lat": 38.920788, "type": "electric_scooter", "fusion_lon": 0.0, "is_reserved": 0, "bike_id": "c32b41324d12b2007e8f0c4f1119b819", "fusion_lat": 0.0, "is_disabled": 0, "rental_uris": {"ios": "https://dc.lft.to/lastmile_qr_scan", "android": "https://dc.lft.to/lastmile_qr_scan"}}, {"name": "7f0ad39fc359766c1b7cafc6fa643a3b", "lon": -77.04332983333333, "lat": 38.903422666666664, "type": "electric_scooter", "fusion_lon": 0.0, "is_reserved": 0, "bike_id": "7f0ad39fc359766c1b7cafc6fa643a3b", "fusion_lat": 0.0, "is_disabled": 0, "rental_uris": {"ios": "https://dc.lft.to/lastmile_qr_scan", "android": "https://dc.lft.to/lastmile_qr_scan"}}, {"name": "24bacc3e77960720a1242e458c0458ed", "lon": -76.996107, "lat": 38.885764, "type": "electric_scooter", "fusion_lon": 0.0, "is_reserved": 0, "bike_id": "24bacc3e77960720a1242e458c0458ed", "fusion_lat": 0.0, "is_disabled": 0, "rental_uris": {"ios": "https://dc.lft.to/lastmile_qr_scan", "android": "https://dc.lft.to/lastmile_qr_scan"}}, {"name": "8690178a062dc92c5f084e6c776d471a", "lon": -77.081867, "lat": 38.8556885, "type": "electric_bike", "fusion_lon": 0.0, "is_reserved": 0, "bike_id": "8690178a062dc92c5f084e6c776d471a", "fusion_lat": 0.0, "is_disabled": 0, "rental_uris": {"ios": "https://dc.lft.to/lastmile_qr_scan", "android": "https://dc.lft.to/lastmile_qr_scan"}}, {"name": "5a98aeaf637a2a4f934cf27199f4a1a1", "lon": -76.9870065, "lat": 38.8625335, "type": "electric_scooter", "fusion_lon": 0.0, "is_reserved": 0, "bike_id": "5a98aeaf637a2a4f934cf27199f4a1a1", "fusion_lat": 0.0, "is_disabled": 0, "rental_uris": {"ios": "https://dc.lft.to/lastmile_qr_scan", "android": "https://dc.lft.to/lastmile_qr_scan"}}, {"name": "349daf953c9473d80e1b0dcca80152c7", "lon": -77.01611416666667, "lat": 38.918071833333336, "type": "electric_scooter", "fusion_lon": 0.0, "is_reserved": 0, "bike_id": "349daf953c9473d80e1b0dcca80152c7", "fusion_lat": 0.0, "is_disabled": 0, "rental_uris": {"ios": "https://dc.lft.to/lastmile_qr_scan", "android": "https://dc.lft.to/lastmile_qr_scan"}}, {"name": "47faa2a010dd30f2a2d2738f02fb4bbe", "lon": -77.02642783333333, "lat": 38.89198116666667, "type": "electric_scooter", "fusion_lon": 0.0, "is_reserved": 0, "bike_id": "47faa2a010dd30f2a2d2738f02fb4bbe", "fusion_lat": 0.0, "is_disabled": 0, "rental_uris": {"ios": "https://dc.lft.to/lastmile_qr_scan", "android": "https://dc.lft.to/lastmile_qr_scan"}}, {"name": "6c0f60bab84e7c6fd265983dde82a320", "lon": -77.01884416666667, "lat": 38.900604333333334, "type": "electric_scooter", "fusion_lon": 0.0, "is_reserved": 0, "bike_id": "6c0f60bab84e7c6fd265983dde82a320", "fusion_lat": 0.0, "is_disabled": 0, "rental_uris": {"ios": "https://dc.lft.to/lastmile_qr_scan", "android": "https://dc.lft.to/lastmile_qr_scan"}}, {"name": "91e08b164e3b3c909cc1b67f8f0da3b9", "lon": -77.0275945, "lat": 38.954272833333334, "type": "electric_scooter", "fusion_lon": 0.0, "is_reserved": 0, "bike_id": "91e08b164e3b3c909cc1b67f8f0da3b9", "fusion_lat": 0.0, "is_disabled": 0, "rental_uris": {"ios": "https://dc.lft.to/lastmile_qr_scan", "android": "https://dc.lft.to/lastmile_qr_scan"}}, {"name": "5a23c409d89c0dd98a456bf2ec8a72e6", "lon": -77.01436616666666, "lat": 38.919645333333335, "type": "electric_scooter", "fusion_lon": 0.0, "is_reserved": 0, "bike_id": "5a23c409d89c0dd98a456bf2ec8a72e6", "fusion_lat": 0.0, "is_disabled": 0, "rental_uris": {"ios": "https://dc.lft.to/lastmile_qr_scan", "android": "https://dc.lft.to/lastmile_qr_scan"}}, {"name": "ca1c5ed7beeba3e25357912298461ed4", "lon": -77.032859, "lat": 38.93670916666667, "type": "electric_scooter", "fusion_lon": 0.0, "is_reserved": 0, "bike_id": "ca1c5ed7beeba3e25357912298461ed4", "fusion_lat": 0.0, "is_disabled": 0, "rental_uris": {"ios": "https://dc.lft.to/lastmile_qr_scan", "android": "https://dc.lft.to/lastmile_qr_scan"}}, {"name": "9ce30de25455bec9fb601788eec31935", "lon": -77.06328216666667, "lat": 38.907642833333334, "type": "electric_scooter", "fusion_lon": 0.0, "is_reserved": 0, "bike_id": "9ce30de25455bec9fb601788eec31935", "fusion_lat": 0.0, "is_disabled": 0, "rental_uris": {"ios": "https://dc.lft.to/lastmile_qr_scan", "android": "https://dc.lft.to/lastmile_qr_scan"}}, {"name": "b907190640f221cdafffd08cf7260f40", "lon": -77.03132783333334, "lat": 38.923731833333335, "type": "electric_scooter", "fusion_lon": 0.0, "is_reserved": 0, "bike_id": "b907190640f221cdafffd08cf7260f40", "fusion_lat": 0.0, "is_disabled": 0, "rental_uris": {"ios": "https://dc.lft.to/lastmile_qr_scan", "android": "https://dc.lft.to/lastmile_qr_scan"}}, {"name": "34b2d7f65b4b7816274f278bd579d793", "lon": -76.9950655, "lat": 38.88251533333333, "type": "electric_scooter", "fusion_lon": 0.0, "is_reserved": 0, "bike_id": "34b2d7f65b4b7816274f278bd579d793", "fusion_lat": 0.0, "is_disabled": 0, "rental_uris": {"ios": "https://dc.lft.to/lastmile_qr_scan", "android": "https://dc.lft.to/lastmile_qr_scan"}}, {"name": "715f6fc4000e312fe59e0f898ee234b1", "lon": -77.02798666666666, "lat": 38.961426, "type": "electric_scooter", "fusion_lon": 0.0, "is_reserved": 0, "bike_id": "715f6fc4000e312fe59e0f898ee234b1", "fusion_lat": 0.0, "is_disabled": 0, "rental_uris": {"ios": "https://dc.lft.to/lastmile_qr_scan", "android": "https://dc.lft.to/lastmile_qr_scan"}}, {"name": "73f894aae2ea807f1ebabb41bdedbf9c", "lon": -77.05350416666667, "lat": 38.923469, "type": "electric_scooter", "fusion_lon": 0.0, "is_reserved": 0, "bike_id": "73f894aae2ea807f1ebabb41bdedbf9c", "fusion_lat": 0.0, "is_disabled": 0, "rental_uris": {"ios": "https://dc.lft.to/lastmile_qr_scan", "android": "https://dc.lft.to/lastmile_qr_scan"}}, {"name": "444bbd615e66922dd03c5dbb933192cd", "lon": -76.9973005, "lat": 38.90129366666667, "type": "electric_scooter", "fusion_lon": 0.0, "is_reserved": 0, "bike_id": "444bbd615e66922dd03c5dbb933192cd", "fusion_lat": 0.0, "is_disabled": 0, "rental_uris": {"ios": "https://dc.lft.to/lastmile_qr_scan", "android": "https://dc.lft.to/lastmile_qr_scan"}}, {"name": "c1686e4f7f07da5c0ed77303ebb4821f", "lon": -77.0313115, "lat": 38.9237905, "type": "electric_scooter", "fusion_lon": 0.0, "is_reserved": 0, "bike_id": "c1686e4f7f07da5c0ed77303ebb4821f", "fusion_lat": 0.0, "is_disabled": 0, "rental_uris": {"ios": "https://dc.lft.to/lastmile_qr_scan", "android": "https://dc.lft.to/lastmile_qr_scan"}}, {"name": "db2b0afee833bddaba8aeaad98a9ec0f", "lon": -77.04031583333334, "lat": 38.9240905, "type": "electric_scooter", "fusion_lon": 0.0, "is_reserved": 0, "bike_id": "db2b0afee833bddaba8aeaad98a9ec0f", "fusion_lat": 0.0, "is_disabled": 0, "rental_uris": {"ios": "https://dc.lft.to/lastmile_qr_scan", "android": "https://dc.lft.to/lastmile_qr_scan"}}, {"name": "38f22bd12b9f38b1c61f6921d66e9f8b", "lon": -77.00646433333333, "lat": 38.9009895, "type": "electric_scooter", "fusion_lon": 0.0, "is_reserved": 0, "bike_id": "38f22bd12b9f38b1c61f6921d66e9f8b", "fusion_lat": 0.0, "is_disabled": 0, "rental_uris": {"ios": "https://dc.lft.to/lastmile_qr_scan", "android": "https://dc.lft.to/lastmile_qr_scan"}}, {"name": "7ed66b9f5fa6bd0881793392afebe642", "lon": -77.05023666666666, "lat": 38.903481666666664, "type": "electric_scooter", "fusion_lon": 0.0, "is_reserved": 0, "bike_id": "7ed66b9f5fa6bd0881793392afebe642", "fusion_lat": 0.0, "is_disabled": 0, "rental_uris": {"ios": "https://dc.lft.to/lastmile_qr_scan", "android": "https://dc.lft.to/lastmile_qr_scan"}}, {"name": "71881048bcc6a0a4bef7637e5f693cc2", "lon": -77.034567, "lat": 38.92146366666667, "type": "electric_scooter", "fusion_lon": 0.0, "is_reserved": 0, "bike_id": "71881048bcc6a0a4bef7637e5f693cc2", "fusion_lat": 0.0, "is_disabled": 0, "rental_uris": {"ios": "https://dc.lft.to/lastmile_qr_scan", "android": "https://dc.lft.to/lastmile_qr_scan"}}, {"name": "94195a8a2b508942f322be8808a2899d", "lon": -77.0297675, "lat": 38.92193666666667, "type": "electric_scooter", "fusion_lon": 0.0, "is_reserved": 0, "bike_id": "94195a8a2b508942f322be8808a2899d", "fusion_lat": 0.0, "is_disabled": 0, "rental_uris": {"ios": "https://dc.lft.to/lastmile_qr_scan", "android": "https://dc.lft.to/lastmile_qr_scan"}}, {"name": "39dd600a5ab93e6739ec6c1d6046d8af", "lon": -77.05861233333333, "lat": 38.93607866666667, "type": "electric_scooter", "fusion_lon": 0.0, "is_reserved": 0, "bike_id": "39dd600a5ab93e6739ec6c1d6046d8af", "fusion_lat": 0.0, "is_disabled": 0, "rental_uris": {"ios": "https://dc.lft.to/lastmile_qr_scan", "android": "https://dc.lft.to/lastmile_qr_scan"}}, {"name": "8f4389ba7eddc5e8f46d6c29521ddbc3", "lon": -77.00207833333333, "lat": 38.89542566666667, "type": "electric_scooter", "fusion_lon": 0.0, "is_reserved": 0, "bike_id": "8f4389ba7eddc5e8f46d6c29521ddbc3", "fusion_lat": 0.0, "is_disabled": 0, "rental_uris": {"ios": "https://dc.lft.to/lastmile_qr_scan", "android": "https://dc.lft.to/lastmile_qr_scan"}}, {"name": "b54961490a59de9d580aeddd7157fa20", "lon": -77.04172816666667, "lat": 38.917028, "type": "electric_scooter", "fusion_lon": 0.0, "is_reserved": 0, "bike_id": "b54961490a59de9d580aeddd7157fa20", "fusion_lat": 0.0, "is_disabled": 0, "rental_uris": {"ios": "https://dc.lft.to/lastmile_qr_scan", "android": "https://dc.lft.to/lastmile_qr_scan"}}, {"name": "46a8a0e44cf50cdc2b99d93d277b1730", "lon": -76.98772683333334, "lat": 38.88290466666667, "type": "electric_scooter", "fusion_lon": 0.0, "is_reserved": 0, "bike_id": "46a8a0e44cf50cdc2b99d93d277b1730", "fusion_lat": 0.0, "is_disabled": 0, "rental_uris": {"ios": "https://dc.lft.to/lastmile_qr_scan", "android": "https://dc.lft.to/lastmile_qr_scan"}}, {"name": "bf4ac1cbd54906f6cf37745499099d08", "lon": -76.972051, "lat": 38.9234975, "type": "electric_bike", "fusion_lon": 0.0, "is_reserved": 0, "bike_id": "bf4ac1cbd54906f6cf37745499099d08", "fusion_lat": 0.0, "is_disabled": 0, "rental_uris": {"ios": "https://dc.lft.to/lastmile_qr_scan", "android": "https://dc.lft.to/lastmile_qr_scan"}}, {"name": "70abba6deff99bedd56ae95feba89a82", "lon": -77.0432915, "lat": 38.892214333333335, "type": "electric_scooter", "fusion_lon": 0.0, "is_reserved": 0, "bike_id": "70abba6deff99bedd56ae95feba89a82", "fusion_lat": 0.0, "is_disabled": 0, "rental_uris": {"ios": "https://dc.lft.to/lastmile_qr_scan", "android": "https://dc.lft.to/lastmile_qr_scan"}}, {"name": "32529db4c5a1bc0b23dd9214e4476d8f", "lon": -76.9936405, "lat": 38.92837566666667, "type": "electric_scooter", "fusion_lon": 0.0, "is_reserved": 0, "bike_id": "32529db4c5a1bc0b23dd9214e4476d8f", "fusion_lat": 0.0, "is_disabled": 0, "rental_uris": {"ios": "https://dc.lft.to/lastmile_qr_scan", "android": "https://dc.lft.to/lastmile_qr_scan"}}, {"name": "9cb7626d93285771cb9ae1b4e43bf6ce", "lon": -76.98695383333333, "lat": 38.86254533333333, "type": "electric_scooter", "fusion_lon": 0.0, "is_reserved": 0, "bike_id": "9cb7626d93285771cb9ae1b4e43bf6ce", "fusion_lat": 0.0, "is_disabled": 0, "rental_uris": {"ios": "https://dc.lft.to/lastmile_qr_scan", "android": "https://dc.lft.to/lastmile_qr_scan"}}, {"name": "9ebeefc6ff84ce2f18dad03f34596e8a", "lon": -77.0026635, "lat": 38.911711, "type": "electric_bike", "fusion_lon": 0.0, "is_reserved": 0, "bike_id": "9ebeefc6ff84ce2f18dad03f34596e8a", "fusion_lat": 0.0, "is_disabled": 0, "rental_uris": {"ios": "https://dc.lft.to/lastmile_qr_scan", "android": "https://dc.lft.to/lastmile_qr_scan"}}, {"name": "51c8f3a475f8ce770ad12622fdf3271c", "lon": -77.0332235, "lat": 38.9216185, "type": "electric_scooter", "fusion_lon": 0.0, "is_reserved": 0, "bike_id": "51c8f3a475f8ce770ad12622fdf3271c", "fusion_lat": 0.0, "is_disabled": 0, "rental_uris": {"ios": "https://dc.lft.to/lastmile_qr_scan", "android": "https://dc.lft.to/lastmile_qr_scan"}}, {"name": "ba090cde10b32dc96d89d6238d20ae7f", "lon": -77.046579, "lat": 38.902294166666664, "type": "electric_scooter", "fusion_lon": 0.0, "is_reserved": 0, "bike_id": "ba090cde10b32dc96d89d6238d20ae7f", "fusion_lat": 0.0, "is_disabled": 0, "rental_uris": {"ios": "https://dc.lft.to/lastmile_qr_scan", "android": "https://dc.lft.to/lastmile_qr_scan"}}, {"name": "13296faafe22349e20a5acf1582d0cd4", "lon": -77.04863116666667, "lat": 38.915713, "type": "electric_scooter", "fusion_lon": 0.0, "is_reserved": 0, "bike_id": "13296faafe22349e20a5acf1582d0cd4", "fusion_lat": 0.0, "is_disabled": 0, "rental_uris": {"ios": "https://dc.lft.to/lastmile_qr_scan", "android": "https://dc.lft.to/lastmile_qr_scan"}}, {"name": "83dc265c8f05b90f802d0fc5d98f238a", "lon": -76.97424666666667, "lat": 38.90449266666667, "type": "electric_scooter", "fusion_lon": 0.0, "is_reserved": 0, "bike_id": "83dc265c8f05b90f802d0fc5d98f238a", "fusion_lat": 0.0, "is_disabled": 0, "rental_uris": {"ios": "https://dc.lft.to/lastmile_qr_scan", "android": "https://dc.lft.to/lastmile_qr_scan"}}, {"name": "7fcdef8e2a53c098ed4c0e892cc5aa61", "lon": -77.02690516666667, "lat": 38.908711333333336, "type": "electric_scooter", "fusion_lon": 0.0, "is_reserved": 0, "bike_id": "7fcdef8e2a53c098ed4c0e892cc5aa61", "fusion_lat": 0.0, "is_disabled": 0, "rental_uris": {"ios": "https://dc.lft.to/lastmile_qr_scan", "android": "https://dc.lft.to/lastmile_qr_scan"}}, {"name": "ae311865e0f3490a28a031e8966786aa", "lon": -77.01845316666666, "lat": 38.877097166666665, "type": "electric_scooter", "fusion_lon": 0.0, "is_reserved": 0, "bike_id": "ae311865e0f3490a28a031e8966786aa", "fusion_lat": 0.0, "is_disabled": 0, "rental_uris": {"ios": "https://dc.lft.to/lastmile_qr_scan", "android": "https://dc.lft.to/lastmile_qr_scan"}}, {"name": "e3e1723e58d13fd777bb6bfc809aea43", "lon": -77.03735783333333, "lat": 38.91112616666667, "type": "electric_scooter", "fusion_lon": 0.0, "is_reserved": 0, "bike_id": "e3e1723e58d13fd777bb6bfc809aea43", "fusion_lat": 0.0, "is_disabled": 0, "rental_uris": {"ios": "https://dc.lft.to/lastmile_qr_scan", "android": "https://dc.lft.to/lastmile_qr_scan"}}, {"name": "af0d0118e41238f934771350c0c20d01", "lon": -77.03662616666666, "lat": 38.90997983333333, "type": "electric_scooter", "fusion_lon": 0.0, "is_reserved": 0, "bike_id": "af0d0118e41238f934771350c0c20d01", "fusion_lat": 0.0, "is_disabled": 0, "rental_uris": {"ios": "https://dc.lft.to/lastmile_qr_scan", "android": "https://dc.lft.to/lastmile_qr_scan"}}, {"name": "f7b38afe00618d10134c6d7bd78f551c", "lon": -77.02336233333334, "lat": 38.924754, "type": "electric_scooter", "fusion_lon": 0.0, "is_reserved": 0, "bike_id": "f7b38afe00618d10134c6d7bd78f551c", "fusion_lat": 0.0, "is_disabled": 0, "rental_uris": {"ios": "https://dc.lft.to/lastmile_qr_scan", "android": "https://dc.lft.to/lastmile_qr_scan"}}, {"name": "bc4086b8ed3ea41122d4b0a10af2b3c3", "lon": -77.02077516666667, "lat": 38.87577433333333, "type": "electric_scooter", "fusion_lon": 0.0, "is_reserved": 0, "bike_id": "bc4086b8ed3ea41122d4b0a10af2b3c3", "fusion_lat": 0.0, "is_disabled": 0, "rental_uris": {"ios": "https://dc.lft.to/lastmile_qr_scan", "android": "https://dc.lft.to/lastmile_qr_scan"}}, {"name": "26c4ebb3b8cb1c0424a6532ec5fc64da", "lon": -76.974794, "lat": 38.90349166666667, "type": "electric_scooter", "fusion_lon": 0.0, "is_reserved": 0, "bike_id": "26c4ebb3b8cb1c0424a6532ec5fc64da", "fusion_lat": 0.0, "is_disabled": 0, "rental_uris": {"ios": "https://dc.lft.to/lastmile_qr_scan", "android": "https://dc.lft.to/lastmile_qr_scan"}}, {"name": "6e246049d45e3c5c699315c4445c526e", "lon": -77.03203683333334, "lat": 38.91477, "type": "electric_scooter", "fusion_lon": 0.0, "is_reserved": 0, "bike_id": "6e246049d45e3c5c699315c4445c526e", "fusion_lat": 0.0, "is_disabled": 0, "rental_uris": {"ios": "https://dc.lft.to/lastmile_qr_scan", "android": "https://dc.lft.to/lastmile_qr_scan"}}, {"name": "394f8a607aa2297d640ff9c91181aa4d", "lon": -77.023524, "lat": 38.930269833333334, "type": "electric_scooter", "fusion_lon": 0.0, "is_reserved": 0, "bike_id": "394f8a607aa2297d640ff9c91181aa4d", "fusion_lat": 0.0, "is_disabled": 0, "rental_uris": {"ios": "https://dc.lft.to/lastmile_qr_scan", "android": "https://dc.lft.to/lastmile_qr_scan"}}, {"name": "7851eaebb332701bc80438861d59c8dc", "lon": -77.09479183333333, "lat": 39.0305365, "type": "electric_bike", "fusion_lon": 0.0, "is_reserved": 0, "bike_id": "7851eaebb332701bc80438861d59c8dc", "fusion_lat": 0.0, "is_disabled": 0, "rental_uris": {"ios": "https://dc.lft.to/lastmile_qr_scan", "android": "https://dc.lft.to/lastmile_qr_scan"}}, {"name": "6f275756883a10cb46d90745c6d51efb", "lon": -77.01934616666666, "lat": 38.94705583333333, "type": "electric_scooter", "fusion_lon": 0.0, "is_reserved": 0, "bike_id": "6f275756883a10cb46d90745c6d51efb", "fusion_lat": 0.0, "is_disabled": 0, "rental_uris": {"ios": "https://dc.lft.to/lastmile_qr_scan", "android": "https://dc.lft.to/lastmile_qr_scan"}}, {"name": "4552c0ec2dbafa67769a2993b99b8070", "lon": -77.0371915, "lat": 38.91066283333333, "type": "electric_scooter", "fusion_lon": 0.0, "is_reserved": 0, "bike_id": "4552c0ec2dbafa67769a2993b99b8070", "fusion_lat": 0.0, "is_disabled": 0, "rental_uris": {"ios": "https://dc.lft.to/lastmile_qr_scan", "android": "https://dc.lft.to/lastmile_qr_scan"}}, {"name": "40786fa14db96369fc2674c78791e8b3", "lon": -76.92735816666666, "lat": 38.88965016666667, "type": "electric_scooter", "fusion_lon": 0.0, "is_reserved": 0, "bike_id": "40786fa14db96369fc2674c78791e8b3", "fusion_lat": 0.0, "is_disabled": 0, "rental_uris": {"ios": "https://dc.lft.to/lastmile_qr_scan", "android": "https://dc.lft.to/lastmile_qr_scan"}}, {"name": "99b80fb6db9484449a2054d32f14bdf6", "lon": -77.03845233333334, "lat": 38.92538733333333, "type": "electric_scooter", "fusion_lon": 0.0, "is_reserved": 0, "bike_id": "99b80fb6db9484449a2054d32f14bdf6", "fusion_lat": 0.0, "is_disabled": 0, "rental_uris": {"ios": "https://dc.lft.to/lastmile_qr_scan", "android": "https://dc.lft.to/lastmile_qr_scan"}}, {"name": "6d6608639a414f2a09df16cb0a9a5d92", "lon": -76.98507683333334, "lat": 38.866688833333335, "type": "electric_scooter", "fusion_lon": 0.0, "is_reserved": 0, "bike_id": "6d6608639a414f2a09df16cb0a9a5d92", "fusion_lat": 0.0, "is_disabled": 0, "rental_uris": {"ios": "https://dc.lft.to/lastmile_qr_scan", "android": "https://dc.lft.to/lastmile_qr_scan"}}, {"name": "f7e1242a85135057c5015595b9d14eb7", "lon": -77.00943, "lat": 38.9066855, "type": "electric_scooter", "fusion_lon": 0.0, "is_reserved": 0, "bike_id": "f7e1242a85135057c5015595b9d14eb7", "fusion_lat": 0.0, "is_disabled": 0, "rental_uris": {"ios": "https://dc.lft.to/lastmile_qr_scan", "android": "https://dc.lft.to/lastmile_qr_scan"}}, {"name": "f1bac17c0a6ade3acb4cb36eaf236b9a", "lon": -77.05659316666667, "lat": 38.90532616666667, "type": "electric_scooter", "fusion_lon": 0.0, "is_reserved": 0, "bike_id": "f1bac17c0a6ade3acb4cb36eaf236b9a", "fusion_lat": 0.0, "is_disabled": 0, "rental_uris": {"ios": "https://dc.lft.to/lastmile_qr_scan", "android": "https://dc.lft.to/lastmile_qr_scan"}}, {"name": "517733d39f993b4b72422f70c8171215", "lon": -77.05031733333334, "lat": 39.03906033333333, "type": "electric_bike", "fusion_lon": 0.0, "is_reserved": 0, "bike_id": "517733d39f993b4b72422f70c8171215", "fusion_lat": 0.0, "is_disabled": 0, "rental_uris": {"ios": "https://dc.lft.to/lastmile_qr_scan", "android": "https://dc.lft.to/lastmile_qr_scan"}}, {"name": "bed8b1884c4f8a738907ffd423828549", "lon": -76.93156683333333, "lat": 38.898764166666666, "type": "electric_scooter", "fusion_lon": 0.0, "is_reserved": 0, "bike_id": "bed8b1884c4f8a738907ffd423828549", "fusion_lat": 0.0, "is_disabled": 0, "rental_uris": {"ios": "https://dc.lft.to/lastmile_qr_scan", "android": "https://dc.lft.to/lastmile_qr_scan"}}, {"name": "c4f46d6c7a9fd788b8fb45dbe7d7f39c", "lon": -77.02330283333333, "lat": 38.92888633333333, "type": "electric_scooter", "fusion_lon": 0.0, "is_reserved": 0, "bike_id": "c4f46d6c7a9fd788b8fb45dbe7d7f39c", "fusion_lat": 0.0, "is_disabled": 0, "rental_uris": {"ios": "https://dc.lft.to/lastmile_qr_scan", "android": "https://dc.lft.to/lastmile_qr_scan"}}, {"name": "f901236806357b5abc821e7a15b162bf", "lon": -77.06864616666667, "lat": 38.805788, "type": "electric_bike", "fusion_lon": 0.0, "is_reserved": 0, "bike_id": "f901236806357b5abc821e7a15b162bf", "fusion_lat": 0.0, "is_disabled": 0, "rental_uris": {"ios": "https://dc.lft.to/lastmile_qr_scan", "android": "https://dc.lft.to/lastmile_qr_scan"}}, {"name": "9dc99104046ede287d8035e92661f3b6", "lon": -77.02291133333334, "lat": 38.91028083333333, "type": "electric_scooter", "fusion_lon": 0.0, "is_reserved": 0, "bike_id": "9dc99104046ede287d8035e92661f3b6", "fusion_lat": 0.0, "is_disabled": 0, "rental_uris": {"ios": "https://dc.lft.to/lastmile_qr_scan", "android": "https://dc.lft.to/lastmile_qr_scan"}}, {"name": "68136139c83eab0f687c41b2cfe5b91e", "lon": -76.98797783333333, "lat": 38.922101166666664, "type": "electric_bike", "fusion_lon": 0.0, "is_reserved": 0, "bike_id": "68136139c83eab0f687c41b2cfe5b91e", "fusion_lat": 0.0, "is_disabled": 0, "rental_uris": {"ios": "https://dc.lft.to/lastmile_qr_scan", "android": "https://dc.lft.to/lastmile_qr_scan"}}, {"name": "82fb0fe77fc295e19f8d8799296d26c8", "lon": -77.0048555, "lat": 38.874751833333335, "type": "electric_scooter", "fusion_lon": 0.0, "is_reserved": 0, "bike_id": "82fb0fe77fc295e19f8d8799296d26c8", "fusion_lat": 0.0, "is_disabled": 0, "rental_uris": {"ios": "https://dc.lft.to/lastmile_qr_scan", "android": "https://dc.lft.to/lastmile_qr_scan"}}, {"name": "98c6cf09509454f7db497037fd494cd6", "lon": -77.047957, "lat": 38.91943466666667, "type": "electric_scooter", "fusion_lon": 0.0, "is_reserved": 0, "bike_id": "98c6cf09509454f7db497037fd494cd6", "fusion_lat": 0.0, "is_disabled": 0, "rental_uris": {"ios": "https://dc.lft.to/lastmile_qr_scan", "android": "https://dc.lft.to/lastmile_qr_scan"}}, {"name": "a8fcf1d9f90cec62270aacfdb7aaf874", "lon": -77.00657033333333, "lat": 38.94466083333333, "type": "electric_scooter", "fusion_lon": 0.0, "is_reserved": 0, "bike_id": "a8fcf1d9f90cec62270aacfdb7aaf874", "fusion_lat": 0.0, "is_disabled": 0, "rental_uris": {"ios": "https://dc.lft.to/lastmile_qr_scan", "android": "https://dc.lft.to/lastmile_qr_scan"}}, {"name": "bfd8371d60a97a8de84b356551d5b26d", "lon": -77.04904833333333, "lat": 38.88838066666667, "type": "electric_scooter", "fusion_lon": 0.0, "is_reserved": 0, "bike_id": "bfd8371d60a97a8de84b356551d5b26d", "fusion_lat": 0.0, "is_disabled": 0, "rental_uris": {"ios": "https://dc.lft.to/lastmile_qr_scan", "android": "https://dc.lft.to/lastmile_qr_scan"}}, {"name": "57402a33ad684c6aa869944e29cf9c83", "lon": -77.0020615, "lat": 38.819410500000004, "type": "electric_bike", "fusion_lon": 0.0, "is_reserved": 0, "bike_id": "57402a33ad684c6aa869944e29cf9c83", "fusion_lat": 0.0, "is_disabled": 0, "rental_uris": {"ios": "https://dc.lft.to/lastmile_qr_scan", "android": "https://dc.lft.to/lastmile_qr_scan"}}, {"name": "830ce0437d6a36a4f54e208e2ff39f2d", "lon": -77.03296983333334, "lat": 38.909671833333334, "type": "electric_scooter", "fusion_lon": 0.0, "is_reserved": 0, "bike_id": "830ce0437d6a36a4f54e208e2ff39f2d", "fusion_lat": 0.0, "is_disabled": 0, "rental_uris": {"ios": "https://dc.lft.to/lastmile_qr_scan", "android": "https://dc.lft.to/lastmile_qr_scan"}}, {"name": "c667f4afa9b267c67b18b8bcd96c7d03", "lon": -77.06165066666667, "lat": 38.90255766666667, "type": "electric_scooter", "fusion_lon": 0.0, "is_reserved": 0, "bike_id": "c667f4afa9b267c67b18b8bcd96c7d03", "fusion_lat": 0.0, "is_disabled": 0, "rental_uris": {"ios": "https://dc.lft.to/lastmile_qr_scan", "android": "https://dc.lft.to/lastmile_qr_scan"}}, {"name": "f61078d1a7db46dcb6f435bacf78fab0", "lon": -77.04171316666667, "lat": 38.920053833333334, "type": "electric_scooter", "fusion_lon": 0.0, "is_reserved": 0, "bike_id": "f61078d1a7db46dcb6f435bacf78fab0", "fusion_lat": 0.0, "is_disabled": 0, "rental_uris": {"ios": "https://dc.lft.to/lastmile_qr_scan", "android": "https://dc.lft.to/lastmile_qr_scan"}}, {"name": "2a1c207522151819ec9d5cc81853f65a", "lon": -77.0310995, "lat": 38.946487, "type": "electric_scooter", "fusion_lon": 0.0, "is_reserved": 0, "bike_id": "2a1c207522151819ec9d5cc81853f65a", "fusion_lat": 0.0, "is_disabled": 0, "rental_uris": {"ios": "https://dc.lft.to/lastmile_qr_scan", "android": "https://dc.lft.to/lastmile_qr_scan"}}, {"name": "69d2dd72aae78c37ac589c7b8bd1dd0d", "lon": -77.021663, "lat": 38.897291, "type": "electric_scooter", "fusion_lon": 0.0, "is_reserved": 0, "bike_id": "69d2dd72aae78c37ac589c7b8bd1dd0d", "fusion_lat": 0.0, "is_disabled": 0, "rental_uris": {"ios": "https://dc.lft.to/lastmile_qr_scan", "android": "https://dc.lft.to/lastmile_qr_scan"}}, {"name": "2803b2dc36f66ab6a80f1c0b9d4c80e0", "lon": -76.99803683333333, "lat": 38.908508499999996, "type": "electric_scooter", "fusion_lon": 0.0, "is_reserved": 0, "bike_id": "2803b2dc36f66ab6a80f1c0b9d4c80e0", "fusion_lat": 0.0, "is_disabled": 0, "rental_uris": {"ios": "https://dc.lft.to/lastmile_qr_scan", "android": "https://dc.lft.to/lastmile_qr_scan"}}, {"name": "462e52d179ce87548dc6d4cb10171dad", "lon": -77.03204383333333, "lat": 38.90448933333333, "type": "electric_scooter", "fusion_lon": 0.0, "is_reserved": 0, "bike_id": "462e52d179ce87548dc6d4cb10171dad", "fusion_lat": 0.0, "is_disabled": 0, "rental_uris": {"ios": "https://dc.lft.to/lastmile_qr_scan", "android": "https://dc.lft.to/lastmile_qr_scan"}}, {"name": "81f12eb8661911386ab44566c78e1a0f", "lon": -76.9863275, "lat": 38.88043483333333, "type": "electric_bike", "fusion_lon": 0.0, "is_reserved": 0, "bike_id": "81f12eb8661911386ab44566c78e1a0f", "fusion_lat": 0.0, "is_disabled": 0, "rental_uris": {"ios": "https://dc.lft.to/lastmile_qr_scan", "android": "https://dc.lft.to/lastmile_qr_scan"}}, {"name": "1a79297a432b9a37ac9d633316d3a24e", "lon": -77.117097, "lat": 38.86745533333333, "type": "electric_bike", "fusion_lon": 0.0, "is_reserved": 0, "bike_id": "1a79297a432b9a37ac9d633316d3a24e", "fusion_lat": 0.0, "is_disabled": 0, "rental_uris": {"ios": "https://dc.lft.to/lastmile_qr_scan", "android": "https://dc.lft.to/lastmile_qr_scan"}}, {"name": "18cdec87529ef3faaf83aa24032dd846", "lon": -77.00369, "lat": 38.88268333333333, "type": "electric_scooter", "fusion_lon": 0.0, "is_reserved": 0, "bike_id": "18cdec87529ef3faaf83aa24032dd846", "fusion_lat": 0.0, "is_disabled": 0, "rental_uris": {"ios": "https://dc.lft.to/lastmile_qr_scan", "android": "https://dc.lft.to/lastmile_qr_scan"}}, {"name": "e82d88cb5f5d6b97244a1be6423dae3c", "lon": -77.06329216666667, "lat": 38.94420183333333, "type": "electric_scooter", "fusion_lon": 0.0, "is_reserved": 0, "bike_id": "e82d88cb5f5d6b97244a1be6423dae3c", "fusion_lat": 0.0, "is_disabled": 0, "rental_uris": {"ios": "https://dc.lft.to/lastmile_qr_scan", "android": "https://dc.lft.to/lastmile_qr_scan"}}, {"name": "cd18ad1289d1009500c12ba6cf315537", "lon": -77.02725116666667, "lat": 38.949547333333335, "type": "electric_scooter", "fusion_lon": 0.0, "is_reserved": 0, "bike_id": "cd18ad1289d1009500c12ba6cf315537", "fusion_lat": 0.0, "is_disabled": 0, "rental_uris": {"ios": "https://dc.lft.to/lastmile_qr_scan", "android": "https://dc.lft.to/lastmile_qr_scan"}}, {"name": "f30798258ff56bb52e2cc6860a4e3299", "lon": -77.00092016666666, "lat": 38.92023833333333, "type": "electric_scooter", "fusion_lon": 0.0, "is_reserved": 0, "bike_id": "f30798258ff56bb52e2cc6860a4e3299", "fusion_lat": 0.0, "is_disabled": 0, "rental_uris": {"ios": "https://dc.lft.to/lastmile_qr_scan", "android": "https://dc.lft.to/lastmile_qr_scan"}}, {"name": "2b568b70c8e0aad14d67f7ca486e6055", "lon": -77.03635083333333, "lat": 38.9366615, "type": "electric_scooter", "fusion_lon": 0.0, "is_reserved": 0, "bike_id": "2b568b70c8e0aad14d67f7ca486e6055", "fusion_lat": 0.0, "is_disabled": 0, "rental_uris": {"ios": "https://dc.lft.to/lastmile_qr_scan", "android": "https://dc.lft.to/lastmile_qr_scan"}}, {"name": "9990fc8f5abe4d7176a87264dd0073d3", "lon": -77.0359935, "lat": 38.92857733333334, "type": "electric_scooter", "fusion_lon": 0.0, "is_reserved": 0, "bike_id": "9990fc8f5abe4d7176a87264dd0073d3", "fusion_lat": 0.0, "is_disabled": 0, "rental_uris": {"ios": "https://dc.lft.to/lastmile_qr_scan", "android": "https://dc.lft.to/lastmile_qr_scan"}}, {"name": "4518c43debdd30134245aa51b38eb7de", "lon": -77.0087695, "lat": 38.876399666666664, "type": "electric_scooter", "fusion_lon": 0.0, "is_reserved": 0, "bike_id": "4518c43debdd30134245aa51b38eb7de", "fusion_lat": 0.0, "is_disabled": 0, "rental_uris": {"ios": "https://dc.lft.to/lastmile_qr_scan", "android": "https://dc.lft.to/lastmile_qr_scan"}}, {"name": "0547989333fb17a9cdba20ca07789ab6", "lon": -77.02097033333334, "lat": 38.93114883333333, "type": "electric_scooter", "fusion_lon": 0.0, "is_reserved": 0, "bike_id": "0547989333fb17a9cdba20ca07789ab6", "fusion_lat": 0.0, "is_disabled": 0, "rental_uris": {"ios": "https://dc.lft.to/lastmile_qr_scan", "android": "https://dc.lft.to/lastmile_qr_scan"}}, {"name": "c7cbe79f10f41712302691f9eab9e367", "lon": -77.01543466666666, "lat": 38.892201166666666, "type": "electric_scooter", "fusion_lon": 0.0, "is_reserved": 0, "bike_id": "c7cbe79f10f41712302691f9eab9e367", "fusion_lat": 0.0, "is_disabled": 0, "rental_uris": {"ios": "https://dc.lft.to/lastmile_qr_scan", "android": "https://dc.lft.to/lastmile_qr_scan"}}, {"name": "bfbedb5e18a2df92cb22af28f0f61a9c", "lon": -77.03202133333333, "lat": 38.91568516666667, "type": "electric_scooter", "fusion_lon": 0.0, "is_reserved": 0, "bike_id": "bfbedb5e18a2df92cb22af28f0f61a9c", "fusion_lat": 0.0, "is_disabled": 0, "rental_uris": {"ios": "https://dc.lft.to/lastmile_qr_scan", "android": "https://dc.lft.to/lastmile_qr_scan"}}, {"name": "c139e5c182838aadb57f561388d850f2", "lon": -76.989925, "lat": 38.86499116666667, "type": "electric_scooter", "fusion_lon": 0.0, "is_reserved": 0, "bike_id": "c139e5c182838aadb57f561388d850f2", "fusion_lat": 0.0, "is_disabled": 0, "rental_uris": {"ios": "https://dc.lft.to/lastmile_qr_scan", "android": "https://dc.lft.to/lastmile_qr_scan"}}, {"name": "f6314ba99f7f37940a6f00bcea2b67ba", "lon": -77.1072545, "lat": 38.85537266666667, "type": "electric_bike", "fusion_lon": 0.0, "is_reserved": 0, "bike_id": "f6314ba99f7f37940a6f00bcea2b67ba", "fusion_lat": 0.0, "is_disabled": 0, "rental_uris": {"ios": "https://dc.lft.to/lastmile_qr_scan", "android": "https://dc.lft.to/lastmile_qr_scan"}}, {"name": "03354c1528184751be37fccec71c0887", "lon": -77.05512483333334, "lat": 38.89967733333334, "type": "electric_scooter", "fusion_lon": 0.0, "is_reserved": 0, "bike_id": "03354c1528184751be37fccec71c0887", "fusion_lat": 0.0, "is_disabled": 0, "rental_uris": {"ios": "https://dc.lft.to/lastmile_qr_scan", "android": "https://dc.lft.to/lastmile_qr_scan"}}, {"name": "09ae0036d232d6208728c312269e4611", "lon": -76.99516333333334, "lat": 38.86257, "type": "electric_scooter", "fusion_lon": 0.0, "is_reserved": 0, "bike_id": "09ae0036d232d6208728c312269e4611", "fusion_lat": 0.0, "is_disabled": 0, "rental_uris": {"ios": "https://dc.lft.to/lastmile_qr_scan", "android": "https://dc.lft.to/lastmile_qr_scan"}}, {"name": "31a7acf49b46864a224c641beb3f656c", "lon": -77.03465766666666, "lat": 38.915486, "type": "electric_scooter", "fusion_lon": 0.0, "is_reserved": 0, "bike_id": "31a7acf49b46864a224c641beb3f656c", "fusion_lat": 0.0, "is_disabled": 0, "rental_uris": {"ios": "https://dc.lft.to/lastmile_qr_scan", "android": "https://dc.lft.to/lastmile_qr_scan"}}, {"name": "8a4939b5f3fcc2875cc103c613a2cb0e", "lon": -77.06708433333333, "lat": 38.9506525, "type": "electric_scooter", "fusion_lon": 0.0, "is_reserved": 0, "bike_id": "8a4939b5f3fcc2875cc103c613a2cb0e", "fusion_lat": 0.0, "is_disabled": 0, "rental_uris": {"ios": "https://dc.lft.to/lastmile_qr_scan", "android": "https://dc.lft.to/lastmile_qr_scan"}}, {"name": "012ca330ae79696f8911dfa8dd820e81", "lon": -77.05513433333333, "lat": 38.90939616666667, "type": "electric_scooter", "fusion_lon": 0.0, "is_reserved": 0, "bike_id": "012ca330ae79696f8911dfa8dd820e81", "fusion_lat": 0.0, "is_disabled": 0, "rental_uris": {"ios": "https://dc.lft.to/lastmile_qr_scan", "android": "https://dc.lft.to/lastmile_qr_scan"}}, {"name": "2d98410a5d2cabaf378e6629225961be", "lon": -76.99843583333333, "lat": 38.887661666666666, "type": "electric_scooter", "fusion_lon": 0.0, "is_reserved": 0, "bike_id": "2d98410a5d2cabaf378e6629225961be", "fusion_lat": 0.0, "is_disabled": 0, "rental_uris": {"ios": "https://dc.lft.to/lastmile_qr_scan", "android": "https://dc.lft.to/lastmile_qr_scan"}}, {"name": "8917075566cff68e97ed3604ee994b57", "lon": -77.09961266666667, "lat": 38.85789233333333, "type": "electric_bike", "fusion_lon": 0.0, "is_reserved": 0, "bike_id": "8917075566cff68e97ed3604ee994b57", "fusion_lat": 0.0, "is_disabled": 0, "rental_uris": {"ios": "https://dc.lft.to/lastmile_qr_scan", "android": "https://dc.lft.to/lastmile_qr_scan"}}, {"name": "c8d6205b5d9de44a626ab44548102b1f", "lon": -77.05295433333333, "lat": 38.92794033333333, "type": "electric_scooter", "fusion_lon": 0.0, "is_reserved": 0, "bike_id": "c8d6205b5d9de44a626ab44548102b1f", "fusion_lat": 0.0, "is_disabled": 0, "rental_uris": {"ios": "https://dc.lft.to/lastmile_qr_scan", "android": "https://dc.lft.to/lastmile_qr_scan"}}, {"name": "fadc1b9521ea1b8071db3508becbf44f", "lon": -77.03471333333333, "lat": 38.922562, "type": "electric_scooter", "fusion_lon": 0.0, "is_reserved": 0, "bike_id": "fadc1b9521ea1b8071db3508becbf44f", "fusion_lat": 0.0, "is_disabled": 0, "rental_uris": {"ios": "https://dc.lft.to/lastmile_qr_scan", "android": "https://dc.lft.to/lastmile_qr_scan"}}, {"name": "8b913388f1de9785898dddcc4049e681", "lon": -76.93754533333333, "lat": 38.89047716666666, "type": "electric_scooter", "fusion_lon": 0.0, "is_reserved": 0, "bike_id": "8b913388f1de9785898dddcc4049e681", "fusion_lat": 0.0, "is_disabled": 0, "rental_uris": {"ios": "https://dc.lft.to/lastmile_qr_scan", "android": "https://dc.lft.to/lastmile_qr_scan"}}, {"name": "595ca68aeb89ee7cb0d4ebba66e36747", "lon": -77.02844783333333, "lat": 38.93421933333333, "type": "electric_scooter", "fusion_lon": 0.0, "is_reserved": 0, "bike_id": "595ca68aeb89ee7cb0d4ebba66e36747", "fusion_lat": 0.0, "is_disabled": 0, "rental_uris": {"ios": "https://dc.lft.to/lastmile_qr_scan", "android": "https://dc.lft.to/lastmile_qr_scan"}}, {"name": "9f2738f4e3dc3af1a10a1c5f56658f04", "lon": -77.0097515, "lat": 38.914126333333336, "type": "electric_scooter", "fusion_lon": 0.0, "is_reserved": 0, "bike_id": "9f2738f4e3dc3af1a10a1c5f56658f04", "fusion_lat": 0.0, "is_disabled": 0, "rental_uris": {"ios": "https://dc.lft.to/lastmile_qr_scan", "android": "https://dc.lft.to/lastmile_qr_scan"}}, {"name": "4982061857b52ba67d0b6cef2ee244b7", "lon": -77.02894616666667, "lat": 38.90932933333333, "type": "electric_scooter", "fusion_lon": 0.0, "is_reserved": 0, "bike_id": "4982061857b52ba67d0b6cef2ee244b7", "fusion_lat": 0.0, "is_disabled": 0, "rental_uris": {"ios": "https://dc.lft.to/lastmile_qr_scan", "android": "https://dc.lft.to/lastmile_qr_scan"}}, {"name": "850ebaeed61577cc8e648f6e71754da5", "lon": -77.033928, "lat": 38.91406666666666, "type": "electric_scooter", "fusion_lon": 0.0, "is_reserved": 0, "bike_id": "850ebaeed61577cc8e648f6e71754da5", "fusion_lat": 0.0, "is_disabled": 0, "rental_uris": {"ios": "https://dc.lft.to/lastmile_qr_scan", "android": "https://dc.lft.to/lastmile_qr_scan"}}, {"name": "25abf070c59c50d43c22630b6945c334", "lon": -76.99064616666666, "lat": 38.904179166666665, "type": "electric_scooter", "fusion_lon": 0.0, "is_reserved": 0, "bike_id": "25abf070c59c50d43c22630b6945c334", "fusion_lat": 0.0, "is_disabled": 0, "rental_uris": {"ios": "https://dc.lft.to/lastmile_qr_scan", "android": "https://dc.lft.to/lastmile_qr_scan"}}, {"name": "4136ae3934b686d68f18df8f969e9cc1", "lon": -76.97332966666667, "lat": 38.91785633333333, "type": "electric_scooter", "fusion_lon": 0.0, "is_reserved": 0, "bike_id": "4136ae3934b686d68f18df8f969e9cc1", "fusion_lat": 0.0, "is_disabled": 0, "rental_uris": {"ios": "https://dc.lft.to/lastmile_qr_scan", "android": "https://dc.lft.to/lastmile_qr_scan"}}, {"name": "9dbf7fbfb7391860caec3b0722ecb72a", "lon": -77.02532283333333, "lat": 38.90961033333333, "type": "electric_scooter", "fusion_lon": 0.0, "is_reserved": 0, "bike_id": "9dbf7fbfb7391860caec3b0722ecb72a", "fusion_lat": 0.0, "is_disabled": 0, "rental_uris": {"ios": "https://dc.lft.to/lastmile_qr_scan", "android": "https://dc.lft.to/lastmile_qr_scan"}}, {"name": "cd7d5de60f98ca05431e517e93659625", "lon": -77.03935816666667, "lat": 38.9026355, "type": "electric_scooter", "fusion_lon": 0.0, "is_reserved": 0, "bike_id": "cd7d5de60f98ca05431e517e93659625", "fusion_lat": 0.0, "is_disabled": 0, "rental_uris": {"ios": "https://dc.lft.to/lastmile_qr_scan", "android": "https://dc.lft.to/lastmile_qr_scan"}}, {"name": "a0b9e195e3558759d32d32ce6f9b348b", "lon": -77.05884983333333, "lat": 38.918253666666665, "type": "electric_scooter", "fusion_lon": 0.0, "is_reserved": 0, "bike_id": "a0b9e195e3558759d32d32ce6f9b348b", "fusion_lat": 0.0, "is_disabled": 0, "rental_uris": {"ios": "https://dc.lft.to/lastmile_qr_scan", "android": "https://dc.lft.to/lastmile_qr_scan"}}, {"name": "e498e2d388d589e418903cf2ee56230b", "lon": -76.98399133333334, "lat": 38.866987333333334, "type": "electric_scooter", "fusion_lon": 0.0, "is_reserved": 0, "bike_id": "e498e2d388d589e418903cf2ee56230b", "fusion_lat": 0.0, "is_disabled": 0, "rental_uris": {"ios": "https://dc.lft.to/lastmile_qr_scan", "android": "https://dc.lft.to/lastmile_qr_scan"}}, {"name": "d176c76fff5e1bafec249e32ae7bb8ee", "lon": -77.0500015, "lat": 38.8923255, "type": "electric_scooter", "fusion_lon": 0.0, "is_reserved": 0, "bike_id": "d176c76fff5e1bafec249e32ae7bb8ee", "fusion_lat": 0.0, "is_disabled": 0, "rental_uris": {"ios": "https://dc.lft.to/lastmile_qr_scan", "android": "https://dc.lft.to/lastmile_qr_scan"}}, {"name": "cfb5458f253ceb1d4416c4b718dda639", "lon": -77.040172, "lat": 38.922004333333334, "type": "electric_scooter", "fusion_lon": 0.0, "is_reserved": 0, "bike_id": "cfb5458f253ceb1d4416c4b718dda639", "fusion_lat": 0.0, "is_disabled": 0, "rental_uris": {"ios": "https://dc.lft.to/lastmile_qr_scan", "android": "https://dc.lft.to/lastmile_qr_scan"}}, {"name": "8371556a3cf516915ce18c46de68b369", "lon": -77.043394, "lat": 38.904954333333336, "type": "electric_scooter", "fusion_lon": 0.0, "is_reserved": 0, "bike_id": "8371556a3cf516915ce18c46de68b369", "fusion_lat": 0.0, "is_disabled": 0, "rental_uris": {"ios": "https://dc.lft.to/lastmile_qr_scan", "android": "https://dc.lft.to/lastmile_qr_scan"}}, {"name": "9336cfcc9c133d034c6e15ac9d775045", "lon": -77.02681733333333, "lat": 38.896234, "type": "electric_scooter", "fusion_lon": 0.0, "is_reserved": 0, "bike_id": "9336cfcc9c133d034c6e15ac9d775045", "fusion_lat": 0.0, "is_disabled": 0, "rental_uris": {"ios": "https://dc.lft.to/lastmile_qr_scan", "android": "https://dc.lft.to/lastmile_qr_scan"}}, {"name": "4e3919741ed5adb34f69028a36f4382a", "lon": -76.93343366666667, "lat": 38.8881535, "type": "electric_scooter", "fusion_lon": 0.0, "is_reserved": 0, "bike_id": "4e3919741ed5adb34f69028a36f4382a", "fusion_lat": 0.0, "is_disabled": 0, "rental_uris": {"ios": "https://dc.lft.to/lastmile_qr_scan", "android": "https://dc.lft.to/lastmile_qr_scan"}}, {"name": "7cc0ce17d81f46eb2bad99c2b0fd4cf4", "lon": -77.04175733333334, "lat": 38.9183715, "type": "electric_scooter", "fusion_lon": 0.0, "is_reserved": 0, "bike_id": "7cc0ce17d81f46eb2bad99c2b0fd4cf4", "fusion_lat": 0.0, "is_disabled": 0, "rental_uris": {"ios": "https://dc.lft.to/lastmile_qr_scan", "android": "https://dc.lft.to/lastmile_qr_scan"}}, {"name": "32a4a567645be054f2e3803ba4dc9f4f", "lon": -77.03147366666667, "lat": 38.999524666666666, "type": "electric_bike", "fusion_lon": 0.0, "is_reserved": 0, "bike_id": "32a4a567645be054f2e3803ba4dc9f4f", "fusion_lat": 0.0, "is_disabled": 0, "rental_uris": {"ios": "https://dc.lft.to/lastmile_qr_scan", "android": "https://dc.lft.to/lastmile_qr_scan"}}, {"name": "69655683e4b7c6ed6696a462b127e4cd", "lon": -77.032829, "lat": 38.920627333333336, "type": "electric_scooter", "fusion_lon": 0.0, "is_reserved": 0, "bike_id": "69655683e4b7c6ed6696a462b127e4cd", "fusion_lat": 0.0, "is_disabled": 0, "rental_uris": {"ios": "https://dc.lft.to/lastmile_qr_scan", "android": "https://dc.lft.to/lastmile_qr_scan"}}, {"name": "daf1fd277765dc5a3e8ba054c983d9e3", "lon": -77.04158166666667, "lat": 38.91830083333333, "type": "electric_scooter", "fusion_lon": 0.0, "is_reserved": 0, "bike_id": "daf1fd277765dc5a3e8ba054c983d9e3", "fusion_lat": 0.0, "is_disabled": 0, "rental_uris": {"ios": "https://dc.lft.to/lastmile_qr_scan", "android": "https://dc.lft.to/lastmile_qr_scan"}}, {"name": "048ca611c00fc8c6f4a35ddee00f90a7", "lon": -77.003546, "lat": 38.90230016666667, "type": "electric_scooter", "fusion_lon": 0.0, "is_reserved": 0, "bike_id": "048ca611c00fc8c6f4a35ddee00f90a7", "fusion_lat": 0.0, "is_disabled": 0, "rental_uris": {"ios": "https://dc.lft.to/lastmile_qr_scan", "android": "https://dc.lft.to/lastmile_qr_scan"}}, {"name": "6ee0838546f7e404bf51e4053eafb05a", "lon": -77.01564683333334, "lat": 38.9151185, "type": "electric_scooter", "fusion_lon": 0.0, "is_reserved": 0, "bike_id": "6ee0838546f7e404bf51e4053eafb05a", "fusion_lat": 0.0, "is_disabled": 0, "rental_uris": {"ios": "https://dc.lft.to/lastmile_qr_scan", "android": "https://dc.lft.to/lastmile_qr_scan"}}, {"name": "2a26024035ccbe63d2bbf7ac2e9935a5", "lon": -76.983749, "lat": 38.88591133333333, "type": "electric_scooter", "fusion_lon": 0.0, "is_reserved": 0, "bike_id": "2a26024035ccbe63d2bbf7ac2e9935a5", "fusion_lat": 0.0, "is_disabled": 0, "rental_uris": {"ios": "https://dc.lft.to/lastmile_qr_scan", "android": "https://dc.lft.to/lastmile_qr_scan"}}, {"name": "19fef9d3f3fa06ca8deb8f9b47a39558", "lon": -77.04133466666667, "lat": 38.914018, "type": "electric_scooter", "fusion_lon": 0.0, "is_reserved": 0, "bike_id": "19fef9d3f3fa06ca8deb8f9b47a39558", "fusion_lat": 0.0, "is_disabled": 0, "rental_uris": {"ios": "https://dc.lft.to/lastmile_qr_scan", "android": "https://dc.lft.to/lastmile_qr_scan"}}, {"name": "fab3e0ce11dc810cb980ac7882095445", "lon": -76.9758745, "lat": 38.84026683333333, "type": "electric_bike", "fusion_lon": 0.0, "is_reserved": 0, "bike_id": "fab3e0ce11dc810cb980ac7882095445", "fusion_lat": 0.0, "is_disabled": 0, "rental_uris": {"ios": "https://dc.lft.to/lastmile_qr_scan", "android": "https://dc.lft.to/lastmile_qr_scan"}}, {"name": "6285c3597ba7c1566103fb8c29372673", "lon": -77.024749, "lat": 38.918142833333334, "type": "electric_scooter", "fusion_lon": 0.0, "is_reserved": 0, "bike_id": "6285c3597ba7c1566103fb8c29372673", "fusion_lat": 0.0, "is_disabled": 0, "rental_uris": {"ios": "https://dc.lft.to/lastmile_qr_scan", "android": "https://dc.lft.to/lastmile_qr_scan"}}, {"name": "b38659b4c102b82a8f8437564b49445e", "lon": -77.0327865, "lat": 38.91626766666667, "type": "electric_scooter", "fusion_lon": 0.0, "is_reserved": 0, "bike_id": "b38659b4c102b82a8f8437564b49445e", "fusion_lat": 0.0, "is_disabled": 0, "rental_uris": {"ios": "https://dc.lft.to/lastmile_qr_scan", "android": "https://dc.lft.to/lastmile_qr_scan"}}, {"name": "f5a82a12f31312e59da7bc482e36e30e", "lon": -77.01107266666666, "lat": 38.903591, "type": "electric_scooter", "fusion_lon": 0.0, "is_reserved": 0, "bike_id": "f5a82a12f31312e59da7bc482e36e30e", "fusion_lat": 0.0, "is_disabled": 0, "rental_uris": {"ios": "https://dc.lft.to/lastmile_qr_scan", "android": "https://dc.lft.to/lastmile_qr_scan"}}, {"name": "03c256a13891c3fe4c4bc06d64afdadc", "lon": -77.0460335, "lat": 38.916980833333334, "type": "electric_scooter", "fusion_lon": 0.0, "is_reserved": 0, "bike_id": "03c256a13891c3fe4c4bc06d64afdadc", "fusion_lat": 0.0, "is_disabled": 0, "rental_uris": {"ios": "https://dc.lft.to/lastmile_qr_scan", "android": "https://dc.lft.to/lastmile_qr_scan"}}, {"name": "a2a697fe7c5b6bfcad58a51cf67c0ae8", "lon": -77.092496, "lat": 38.9415855, "type": "electric_scooter", "fusion_lon": 0.0, "is_reserved": 0, "bike_id": "a2a697fe7c5b6bfcad58a51cf67c0ae8", "fusion_lat": 0.0, "is_disabled": 0, "rental_uris": {"ios": "https://dc.lft.to/lastmile_qr_scan", "android": "https://dc.lft.to/lastmile_qr_scan"}}, {"name": "5c7797617bc692dc1725c819774d6f50", "lon": -77.037313, "lat": 38.93572533333333, "type": "electric_scooter", "fusion_lon": 0.0, "is_reserved": 0, "bike_id": "5c7797617bc692dc1725c819774d6f50", "fusion_lat": 0.0, "is_disabled": 0, "rental_uris": {"ios": "https://dc.lft.to/lastmile_qr_scan", "android": "https://dc.lft.to/lastmile_qr_scan"}}, {"name": "df65b6fd8f328bdd66f2bae6cc5f6f3d", "lon": -77.04906483333333, "lat": 38.90090416666666, "type": "electric_scooter", "fusion_lon": 0.0, "is_reserved": 0, "bike_id": "df65b6fd8f328bdd66f2bae6cc5f6f3d", "fusion_lat": 0.0, "is_disabled": 0, "rental_uris": {"ios": "https://dc.lft.to/lastmile_qr_scan", "android": "https://dc.lft.to/lastmile_qr_scan"}}, {"name": "4a24fd8276fa1361bda9dbd970feada2", "lon": -77.03128766666667, "lat": 38.91561466666667, "type": "electric_scooter", "fusion_lon": 0.0, "is_reserved": 0, "bike_id": "4a24fd8276fa1361bda9dbd970feada2", "fusion_lat": 0.0, "is_disabled": 0, "rental_uris": {"ios": "https://dc.lft.to/lastmile_qr_scan", "android": "https://dc.lft.to/lastmile_qr_scan"}}, {"name": "0643bb0511d3cecf97237548f7c88377", "lon": -77.022812, "lat": 38.944742833333336, "type": "electric_bike", "fusion_lon": 0.0, "is_reserved": 0, "bike_id": "0643bb0511d3cecf97237548f7c88377", "fusion_lat": 0.0, "is_disabled": 0, "rental_uris": {"ios": "https://dc.lft.to/lastmile_qr_scan", "android": "https://dc.lft.to/lastmile_qr_scan"}}, {"name": "67bd01637a953dc22604fe6160419702", "lon": -77.00298433333333, "lat": 38.891991, "type": "electric_scooter", "fusion_lon": 0.0, "is_reserved": 0, "bike_id": "67bd01637a953dc22604fe6160419702", "fusion_lat": 0.0, "is_disabled": 0, "rental_uris": {"ios": "https://dc.lft.to/lastmile_qr_scan", "android": "https://dc.lft.to/lastmile_qr_scan"}}, {"name": "7cb4165b445f6a93f1ed714483e44b29", "lon": -77.04754066666666, "lat": 38.905542, "type": "electric_scooter", "fusion_lon": 0.0, "is_reserved": 0, "bike_id": "7cb4165b445f6a93f1ed714483e44b29", "fusion_lat": 0.0, "is_disabled": 0, "rental_uris": {"ios": "https://dc.lft.to/lastmile_qr_scan", "android": "https://dc.lft.to/lastmile_qr_scan"}}, {"name": "7346f9e37c11b860f2e4b16a1d010742", "lon": -77.03839083333334, "lat": 38.93190883333333, "type": "electric_scooter", "fusion_lon": 0.0, "is_reserved": 0, "bike_id": "7346f9e37c11b860f2e4b16a1d010742", "fusion_lat": 0.0, "is_disabled": 0, "rental_uris": {"ios": "https://dc.lft.to/lastmile_qr_scan", "android": "https://dc.lft.to/lastmile_qr_scan"}}, {"name": "34b5822b474003971fc9604e116aae28", "lon": -77.040349, "lat": 38.9241535, "type": "electric_scooter", "fusion_lon": 0.0, "is_reserved": 0, "bike_id": "34b5822b474003971fc9604e116aae28", "fusion_lat": 0.0, "is_disabled": 0, "rental_uris": {"ios": "https://dc.lft.to/lastmile_qr_scan", "android": "https://dc.lft.to/lastmile_qr_scan"}}, {"name": "61cafd0c428fd0f3f69e2fe1ba1f7097", "lon": -77.02274333333334, "lat": 38.924828166666664, "type": "electric_scooter", "fusion_lon": 0.0, "is_reserved": 0, "bike_id": "61cafd0c428fd0f3f69e2fe1ba1f7097", "fusion_lat": 0.0, "is_disabled": 0, "rental_uris": {"ios": "https://dc.lft.to/lastmile_qr_scan", "android": "https://dc.lft.to/lastmile_qr_scan"}}, {"name": "fc56118462f2cc22506facdc469af8f4", "lon": -77.029889, "lat": 38.895579, "type": "electric_scooter", "fusion_lon": 0.0, "is_reserved": 0, "bike_id": "fc56118462f2cc22506facdc469af8f4", "fusion_lat": 0.0, "is_disabled": 0, "rental_uris": {"ios": "https://dc.lft.to/lastmile_qr_scan", "android": "https://dc.lft.to/lastmile_qr_scan"}}, {"name": "7968caea520584f323e3ed0c017dba3c", "lon": -77.04307316666667, "lat": 38.908963666666665, "type": "electric_scooter", "fusion_lon": 0.0, "is_reserved": 0, "bike_id": "7968caea520584f323e3ed0c017dba3c", "fusion_lat": 0.0, "is_disabled": 0, "rental_uris": {"ios": "https://dc.lft.to/lastmile_qr_scan", "android": "https://dc.lft.to/lastmile_qr_scan"}}, {"name": "78a0145133cd1efd02368f9cd609782b", "lon": -77.033183, "lat": 38.9264675, "type": "electric_scooter", "fusion_lon": 0.0, "is_reserved": 0, "bike_id": "78a0145133cd1efd02368f9cd609782b", "fusion_lat": 0.0, "is_disabled": 0, "rental_uris": {"ios": "https://dc.lft.to/lastmile_qr_scan", "android": "https://dc.lft.to/lastmile_qr_scan"}}, {"name": "8d3baa9cdcb2a1f804d3974a1ca95072", "lon": -76.883722, "lat": 38.99830683333333, "type": "electric_bike", "fusion_lon": 0.0, "is_reserved": 0, "bike_id": "8d3baa9cdcb2a1f804d3974a1ca95072", "fusion_lat": 0.0, "is_disabled": 0, "rental_uris": {"ios": "https://dc.lft.to/lastmile_qr_scan", "android": "https://dc.lft.to/lastmile_qr_scan"}}, {"name": "24126fbf4bc65808df35ed11e66e3a73", "lon": -76.95139133333333, "lat": 38.89037716666667, "type": "electric_scooter", "fusion_lon": 0.0, "is_reserved": 0, "bike_id": "24126fbf4bc65808df35ed11e66e3a73", "fusion_lat": 0.0, "is_disabled": 0, "rental_uris": {"ios": "https://dc.lft.to/lastmile_qr_scan", "android": "https://dc.lft.to/lastmile_qr_scan"}}, {"name": "8cc9762965f9e8cf79c1b55c64b9b27c", "lon": -76.97702283333334, "lat": 38.94913833333333, "type": "electric_bike", "fusion_lon": 0.0, "is_reserved": 0, "bike_id": "8cc9762965f9e8cf79c1b55c64b9b27c", "fusion_lat": 0.0, "is_disabled": 0, "rental_uris": {"ios": "https://dc.lft.to/lastmile_qr_scan", "android": "https://dc.lft.to/lastmile_qr_scan"}}, {"name": "d4c8551d9a0f1af4ab316043b3d1f46b", "lon": -77.03274316666666, "lat": 38.900280333333335, "type": "electric_scooter", "fusion_lon": 0.0, "is_reserved": 0, "bike_id": "d4c8551d9a0f1af4ab316043b3d1f46b", "fusion_lat": 0.0, "is_disabled": 0, "rental_uris": {"ios": "https://dc.lft.to/lastmile_qr_scan", "android": "https://dc.lft.to/lastmile_qr_scan"}}, {"name": "8b897483bd507c0787661c6133acbfc1", "lon": -77.03973666666667, "lat": 38.91189833333333, "type": "electric_scooter", "fusion_lon": 0.0, "is_reserved": 0, "bike_id": "8b897483bd507c0787661c6133acbfc1", "fusion_lat": 0.0, "is_disabled": 0, "rental_uris": {"ios": "https://dc.lft.to/lastmile_qr_scan", "android": "https://dc.lft.to/lastmile_qr_scan"}}, {"name": "1c3d7a8205b9207953dd43cf3abacda1", "lon": -77.01705383333334, "lat": 38.974995666666665, "type": "electric_scooter", "fusion_lon": 0.0, "is_reserved": 0, "bike_id": "1c3d7a8205b9207953dd43cf3abacda1", "fusion_lat": 0.0, "is_disabled": 0, "rental_uris": {"ios": "https://dc.lft.to/lastmile_qr_scan", "android": "https://dc.lft.to/lastmile_qr_scan"}}, {"name": "96c7bfd8f29aaf8afb3d87e8d2568476", "lon": -77.36093333333334, "lat": 38.939633666666666, "type": "electric_bike", "fusion_lon": 0.0, "is_reserved": 0, "bike_id": "96c7bfd8f29aaf8afb3d87e8d2568476", "fusion_lat": 0.0, "is_disabled": 0, "rental_uris": {"ios": "https://dc.lft.to/lastmile_qr_scan", "android": "https://dc.lft.to/lastmile_qr_scan"}}, {"name": "99a98191288be96aa8d01bae17e34741", "lon": -77.02617516666666, "lat": 38.96228416666667, "type": "electric_bike", "fusion_lon": 0.0, "is_reserved": 0, "bike_id": "99a98191288be96aa8d01bae17e34741", "fusion_lat": 0.0, "is_disabled": 0, "rental_uris": {"ios": "https://dc.lft.to/lastmile_qr_scan", "android": "https://dc.lft.to/lastmile_qr_scan"}}, {"name": "300730a30d4749295fbf834d42d90a0c", "lon": -77.07236433333334, "lat": 38.940056, "type": "electric_scooter", "fusion_lon": 0.0, "is_reserved": 0, "bike_id": "300730a30d4749295fbf834d42d90a0c", "fusion_lat": 0.0, "is_disabled": 0, "rental_uris": {"ios": "https://dc.lft.to/lastmile_qr_scan", "android": "https://dc.lft.to/lastmile_qr_scan"}}, {"name": "ff19648c44eac8a0a36681673bff846e", "lon": -77.02406483333333, "lat": 38.90859183333333, "type": "electric_scooter", "fusion_lon": 0.0, "is_reserved": 0, "bike_id": "ff19648c44eac8a0a36681673bff846e", "fusion_lat": 0.0, "is_disabled": 0, "rental_uris": {"ios": "https://dc.lft.to/lastmile_qr_scan", "android": "https://dc.lft.to/lastmile_qr_scan"}}, {"name": "78ad9fb4ffb78f1993692f3a1be1e0bb", "lon": -77.06401616666666, "lat": 38.840556666666664, "type": "electric_bike", "fusion_lon": 0.0, "is_reserved": 0, "bike_id": "78ad9fb4ffb78f1993692f3a1be1e0bb", "fusion_lat": 0.0, "is_disabled": 0, "rental_uris": {"ios": "https://dc.lft.to/lastmile_qr_scan", "android": "https://dc.lft.to/lastmile_qr_scan"}}, {"name": "4b7b3ef2eab5329cfc117a3cef0e4602", "lon": -76.96046, "lat": 38.884054166666665, "type": "electric_bike", "fusion_lon": 0.0, "is_reserved": 0, "bike_id": "4b7b3ef2eab5329cfc117a3cef0e4602", "fusion_lat": 0.0, "is_disabled": 0, "rental_uris": {"ios": "https://dc.lft.to/lastmile_qr_scan", "android": "https://dc.lft.to/lastmile_qr_scan"}}, {"name": "ba0a4e362d284d77d19b3bf67fd6a1ee", "lon": -77.04411616666667, "lat": 38.933342333333336, "type": "electric_scooter", "fusion_lon": 0.0, "is_reserved": 0, "bike_id": "ba0a4e362d284d77d19b3bf67fd6a1ee", "fusion_lat": 0.0, "is_disabled": 0, "rental_uris": {"ios": "https://dc.lft.to/lastmile_qr_scan", "android": "https://dc.lft.to/lastmile_qr_scan"}}, {"name": "3bbd5d502823cfe7f217289780674a14", "lon": -77.01774783333333, "lat": 38.901363, "type": "electric_scooter", "fusion_lon": 0.0, "is_reserved": 0, "bike_id": "3bbd5d502823cfe7f217289780674a14", "fusion_lat": 0.0, "is_disabled": 0, "rental_uris": {"ios": "https://dc.lft.to/lastmile_qr_scan", "android": "https://dc.lft.to/lastmile_qr_scan"}}, {"name": "7f7459045c2bc1a06fc89897daf7206d", "lon": -76.9837995, "lat": 38.861227666666665, "type": "electric_scooter", "fusion_lon": 0.0, "is_reserved": 0, "bike_id": "7f7459045c2bc1a06fc89897daf7206d", "fusion_lat": 0.0, "is_disabled": 0, "rental_uris": {"ios": "https://dc.lft.to/lastmile_qr_scan", "android": "https://dc.lft.to/lastmile_qr_scan"}}, {"name": "f26f2a48c16a1b82bf087cacf2098bed", "lon": -76.99529816666667, "lat": 38.862488166666665, "type": "electric_scooter", "fusion_lon": 0.0, "is_reserved": 0, "bike_id": "f26f2a48c16a1b82bf087cacf2098bed", "fusion_lat": 0.0, "is_disabled": 0, "rental_uris": {"ios": "https://dc.lft.to/lastmile_qr_scan", "android": "https://dc.lft.to/lastmile_qr_scan"}}, {"name": "8114f03ebf576c4486f30db912400756", "lon": -77.01202016666667, "lat": 38.9000825, "type": "electric_scooter", "fusion_lon": 0.0, "is_reserved": 0, "bike_id": "8114f03ebf576c4486f30db912400756", "fusion_lat": 0.0, "is_disabled": 0, "rental_uris": {"ios": "https://dc.lft.to/lastmile_qr_scan", "android": "https://dc.lft.to/lastmile_qr_scan"}}, {"name": "56d5a005357868af7842a4bcd8d457c4", "lon": -76.981198, "lat": 38.91466633333334, "type": "electric_scooter", "fusion_lon": 0.0, "is_reserved": 0, "bike_id": "56d5a005357868af7842a4bcd8d457c4", "fusion_lat": 0.0, "is_disabled": 0, "rental_uris": {"ios": "https://dc.lft.to/lastmile_qr_scan", "android": "https://dc.lft.to/lastmile_qr_scan"}}, {"name": "f75ec41e70c255ab65a7db245d5dc5a5", "lon": -77.01797533333334, "lat": 38.87673383333333, "type": "electric_scooter", "fusion_lon": 0.0, "is_reserved": 0, "bike_id": "f75ec41e70c255ab65a7db245d5dc5a5", "fusion_lat": 0.0, "is_disabled": 0, "rental_uris": {"ios": "https://dc.lft.to/lastmile_qr_scan", "android": "https://dc.lft.to/lastmile_qr_scan"}}, {"name": "131adc2c3f4532fef9accc10e83299a7", "lon": -76.97714316666666, "lat": 38.8882115, "type": "electric_scooter", "fusion_lon": 0.0, "is_reserved": 0, "bike_id": "131adc2c3f4532fef9accc10e83299a7", "fusion_lat": 0.0, "is_disabled": 0, "rental_uris": {"ios": "https://dc.lft.to/lastmile_qr_scan", "android": "https://dc.lft.to/lastmile_qr_scan"}}, {"name": "d661e7e297e2f67760274bda2f52bcd3", "lon": -77.028203, "lat": 38.960823166666664, "type": "electric_scooter", "fusion_lon": 0.0, "is_reserved": 0, "bike_id": "d661e7e297e2f67760274bda2f52bcd3", "fusion_lat": 0.0, "is_disabled": 0, "rental_uris": {"ios": "https://dc.lft.to/lastmile_qr_scan", "android": "https://dc.lft.to/lastmile_qr_scan"}}, {"name": "e711e7c3dc0da7c5b54063c506dae94d", "lon": -77.03163683333334, "lat": 38.91255683333333, "type": "electric_scooter", "fusion_lon": 0.0, "is_reserved": 0, "bike_id": "e711e7c3dc0da7c5b54063c506dae94d", "fusion_lat": 0.0, "is_disabled": 0, "rental_uris": {"ios": "https://dc.lft.to/lastmile_qr_scan", "android": "https://dc.lft.to/lastmile_qr_scan"}}, {"name": "e8e71c2b12514e16e196ef069284bd9b", "lon": -77.02644816666667, "lat": 38.8973435, "type": "electric_scooter", "fusion_lon": 0.0, "is_reserved": 0, "bike_id": "e8e71c2b12514e16e196ef069284bd9b", "fusion_lat": 0.0, "is_disabled": 0, "rental_uris": {"ios": "https://dc.lft.to/lastmile_qr_scan", "android": "https://dc.lft.to/lastmile_qr_scan"}}, {"name": "fab6dd1fedcef295d2cb388a2d3550f1", "lon": -77.0526575, "lat": 38.939362, "type": "electric_scooter", "fusion_lon": 0.0, "is_reserved": 0, "bike_id": "fab6dd1fedcef295d2cb388a2d3550f1", "fusion_lat": 0.0, "is_disabled": 0, "rental_uris": {"ios": "https://dc.lft.to/lastmile_qr_scan", "android": "https://dc.lft.to/lastmile_qr_scan"}}, {"name": "6054c92f8f40ab93b4ecb08465ee4861", "lon": -77.01740766666667, "lat": 38.901252166666666, "type": "electric_scooter", "fusion_lon": 0.0, "is_reserved": 0, "bike_id": "6054c92f8f40ab93b4ecb08465ee4861", "fusion_lat": 0.0, "is_disabled": 0, "rental_uris": {"ios": "https://dc.lft.to/lastmile_qr_scan", "android": "https://dc.lft.to/lastmile_qr_scan"}}, {"name": "8143d8b053999acc9814bb07486d41d5", "lon": -77.03841116666666, "lat": 38.91087666666667, "type": "electric_scooter", "fusion_lon": 0.0, "is_reserved": 0, "bike_id": "8143d8b053999acc9814bb07486d41d5", "fusion_lat": 0.0, "is_disabled": 0, "rental_uris": {"ios": "https://dc.lft.to/lastmile_qr_scan", "android": "https://dc.lft.to/lastmile_qr_scan"}}, {"name": "feeceda0f378acc1006ace14d6618009", "lon": -77.02174466666666, "lat": 38.894658, "type": "electric_scooter", "fusion_lon": 0.0, "is_reserved": 0, "bike_id": "feeceda0f378acc1006ace14d6618009", "fusion_lat": 0.0, "is_disabled": 0, "rental_uris": {"ios": "https://dc.lft.to/lastmile_qr_scan", "android": "https://dc.lft.to/lastmile_qr_scan"}}, {"name": "45b5b2d25f446cfb115ab6b29bbd6cd6", "lon": -77.04270233333334, "lat": 38.916208, "type": "electric_scooter", "fusion_lon": 0.0, "is_reserved": 0, "bike_id": "45b5b2d25f446cfb115ab6b29bbd6cd6", "fusion_lat": 0.0, "is_disabled": 0, "rental_uris": {"ios": "https://dc.lft.to/lastmile_qr_scan", "android": "https://dc.lft.to/lastmile_qr_scan"}}, {"name": "8ce817871504fb10b5322b9607feecf5", "lon": -77.02058583333333, "lat": 38.921884166666665, "type": "electric_scooter", "fusion_lon": 0.0, "is_reserved": 0, "bike_id": "8ce817871504fb10b5322b9607feecf5", "fusion_lat": 0.0, "is_disabled": 0, "rental_uris": {"ios": "https://dc.lft.to/lastmile_qr_scan", "android": "https://dc.lft.to/lastmile_qr_scan"}}, {"name": "fce1b99be7bcb51c7ec8e08a0b9ae300", "lon": -77.0325325, "lat": 38.918167, "type": "electric_scooter", "fusion_lon": 0.0, "is_reserved": 0, "bike_id": "fce1b99be7bcb51c7ec8e08a0b9ae300", "fusion_lat": 0.0, "is_disabled": 0, "rental_uris": {"ios": "https://dc.lft.to/lastmile_qr_scan", "android": "https://dc.lft.to/lastmile_qr_scan"}}, {"name": "91438cd89fb86ed8a665c7ac8fb77605", "lon": -77.03661066666666, "lat": 38.936314333333335, "type": "electric_scooter", "fusion_lon": 0.0, "is_reserved": 0, "bike_id": "91438cd89fb86ed8a665c7ac8fb77605", "fusion_lat": 0.0, "is_disabled": 0, "rental_uris": {"ios": "https://dc.lft.to/lastmile_qr_scan", "android": "https://dc.lft.to/lastmile_qr_scan"}}, {"name": "4880297fe36914336938d050be5419a3", "lon": -77.02625383333333, "lat": 38.89427333333333, "type": "electric_scooter", "fusion_lon": 0.0, "is_reserved": 0, "bike_id": "4880297fe36914336938d050be5419a3", "fusion_lat": 0.0, "is_disabled": 0, "rental_uris": {"ios": "https://dc.lft.to/lastmile_qr_scan", "android": "https://dc.lft.to/lastmile_qr_scan"}}, {"name": "4da3e1510083477b04594b540f5a450b", "lon": -76.996968, "lat": 38.83861, "type": "electric_bike", "fusion_lon": 0.0, "is_reserved": 0, "bike_id": "4da3e1510083477b04594b540f5a450b", "fusion_lat": 0.0, "is_disabled": 0, "rental_uris": {"ios": "https://dc.lft.to/lastmile_qr_scan", "android": "https://dc.lft.to/lastmile_qr_scan"}}, {"name": "fed2c8195229370f10a791e6b574d4fa", "lon": -77.07824033333333, "lat": 38.9363655, "type": "electric_bike", "fusion_lon": 0.0, "is_reserved": 0, "bike_id": "fed2c8195229370f10a791e6b574d4fa", "fusion_lat": 0.0, "is_disabled": 0, "rental_uris": {"ios": "https://dc.lft.to/lastmile_qr_scan", "android": "https://dc.lft.to/lastmile_qr_scan"}}, {"name": "bda18ea51e36aaec34ef306d48a4e95d", "lon": -77.04599266666666, "lat": 38.91690666666667, "type": "electric_scooter", "fusion_lon": 0.0, "is_reserved": 0, "bike_id": "bda18ea51e36aaec34ef306d48a4e95d", "fusion_lat": 0.0, "is_disabled": 0, "rental_uris": {"ios": "https://dc.lft.to/lastmile_qr_scan", "android": "https://dc.lft.to/lastmile_qr_scan"}}, {"name": "54a19673d4d9486c59a19c1ad5139ed0", "lon": -76.95960816666667, "lat": 38.890067, "type": "electric_scooter", "fusion_lon": 0.0, "is_reserved": 0, "bike_id": "54a19673d4d9486c59a19c1ad5139ed0", "fusion_lat": 0.0, "is_disabled": 0, "rental_uris": {"ios": "https://dc.lft.to/lastmile_qr_scan", "android": "https://dc.lft.to/lastmile_qr_scan"}}, {"name": "583a5db81c2a76b11f54f23df2608826", "lon": -77.032819, "lat": 38.90712116666667, "type": "electric_scooter", "fusion_lon": 0.0, "is_reserved": 0, "bike_id": "583a5db81c2a76b11f54f23df2608826", "fusion_lat": 0.0, "is_disabled": 0, "rental_uris": {"ios": "https://dc.lft.to/lastmile_qr_scan", "android": "https://dc.lft.to/lastmile_qr_scan"}}, {"name": "4d99faea97f4356161c432e00478bbe9", "lon": -76.98842666666667, "lat": 38.84279766666667, "type": "electric_bike", "fusion_lon": 0.0, "is_reserved": 0, "bike_id": "4d99faea97f4356161c432e00478bbe9", "fusion_lat": 0.0, "is_disabled": 0, "rental_uris": {"ios": "https://dc.lft.to/lastmile_qr_scan", "android": "https://dc.lft.to/lastmile_qr_scan"}}, {"name": "cbf8240b1ca0a3b19e4ed8bd58ae92a8", "lon": -77.0389125, "lat": 38.922035666666666, "type": "electric_scooter", "fusion_lon": 0.0, "is_reserved": 0, "bike_id": "cbf8240b1ca0a3b19e4ed8bd58ae92a8", "fusion_lat": 0.0, "is_disabled": 0, "rental_uris": {"ios": "https://dc.lft.to/lastmile_qr_scan", "android": "https://dc.lft.to/lastmile_qr_scan"}}, {"name": "86984cac78e83eae2bb94bcff3db471c", "lon": -77.02689016666666, "lat": 38.896323333333335, "type": "electric_scooter", "fusion_lon": 0.0, "is_reserved": 0, "bike_id": "86984cac78e83eae2bb94bcff3db471c", "fusion_lat": 0.0, "is_disabled": 0, "rental_uris": {"ios": "https://dc.lft.to/lastmile_qr_scan", "android": "https://dc.lft.to/lastmile_qr_scan"}}, {"name": "7be1fa8bc9353c99e35bfe63ea02eec3", "lon": -77.03201166666666, "lat": 38.92043, "type": "electric_scooter", "fusion_lon": 0.0, "is_reserved": 0, "bike_id": "7be1fa8bc9353c99e35bfe63ea02eec3", "fusion_lat": 0.0, "is_disabled": 0, "rental_uris": {"ios": "https://dc.lft.to/lastmile_qr_scan", "android": "https://dc.lft.to/lastmile_qr_scan"}}, {"name": "a2dc7c7adb19f192836aec4c6062b368", "lon": -77.0384245, "lat": 38.91683966666667, "type": "electric_scooter", "fusion_lon": 0.0, "is_reserved": 0, "bike_id": "a2dc7c7adb19f192836aec4c6062b368", "fusion_lat": 0.0, "is_disabled": 0, "rental_uris": {"ios": "https://dc.lft.to/lastmile_qr_scan", "android": "https://dc.lft.to/lastmile_qr_scan"}}, {"name": "4291d88a37647efa9892739ed4454ad2", "lon": -77.08824033333333, "lat": 38.909725, "type": "electric_bike", "fusion_lon": 0.0, "is_reserved": 0, "bike_id": "4291d88a37647efa9892739ed4454ad2", "fusion_lat": 0.0, "is_disabled": 0, "rental_uris": {"ios": "https://dc.lft.to/lastmile_qr_scan", "android": "https://dc.lft.to/lastmile_qr_scan"}}, {"name": "b6feb68031f051d5fb0d34cd54c5da34", "lon": -77.05856583333333, "lat": 38.935871666666664, "type": "electric_scooter", "fusion_lon": 0.0, "is_reserved": 0, "bike_id": "b6feb68031f051d5fb0d34cd54c5da34", "fusion_lat": 0.0, "is_disabled": 0, "rental_uris": {"ios": "https://dc.lft.to/lastmile_qr_scan", "android": "https://dc.lft.to/lastmile_qr_scan"}}, {"name": "9772fd32a928b6d8b3e1e5caa6ccc45a", "lon": -77.04498083333333, "lat": 38.913288, "type": "electric_scooter", "fusion_lon": 0.0, "is_reserved": 0, "bike_id": "9772fd32a928b6d8b3e1e5caa6ccc45a", "fusion_lat": 0.0, "is_disabled": 0, "rental_uris": {"ios": "https://dc.lft.to/lastmile_qr_scan", "android": "https://dc.lft.to/lastmile_qr_scan"}}, {"name": "5780f4125b52bc77dbf081072434c40f", "lon": -77.02694516666666, "lat": 38.91124666666666, "type": "electric_scooter", "fusion_lon": 0.0, "is_reserved": 0, "bike_id": "5780f4125b52bc77dbf081072434c40f", "fusion_lat": 0.0, "is_disabled": 0, "rental_uris": {"ios": "https://dc.lft.to/lastmile_qr_scan", "android": "https://dc.lft.to/lastmile_qr_scan"}}, {"name": "f5fe50574a4c8ed226364d953b0bca46", "lon": -77.01323816666667, "lat": 38.90188883333333, "type": "electric_scooter", "fusion_lon": 0.0, "is_reserved": 0, "bike_id": "f5fe50574a4c8ed226364d953b0bca46", "fusion_lat": 0.0, "is_disabled": 0, "rental_uris": {"ios": "https://dc.lft.to/lastmile_qr_scan", "android": "https://dc.lft.to/lastmile_qr_scan"}}, {"name": "73ca122c048e8adb1ec6847e3f433a7e", "lon": -77.01744533333333, "lat": 38.8727925, "type": "electric_scooter", "fusion_lon": 0.0, "is_reserved": 0, "bike_id": "73ca122c048e8adb1ec6847e3f433a7e", "fusion_lat": 0.0, "is_disabled": 0, "rental_uris": {"ios": "https://dc.lft.to/lastmile_qr_scan", "android": "https://dc.lft.to/lastmile_qr_scan"}}, {"name": "811e65b575815e5877673304c16c6393", "lon": -77.02391483333334, "lat": 38.89896233333333, "type": "electric_scooter", "fusion_lon": 0.0, "is_reserved": 0, "bike_id": "811e65b575815e5877673304c16c6393", "fusion_lat": 0.0, "is_disabled": 0, "rental_uris": {"ios": "https://dc.lft.to/lastmile_qr_scan", "android": "https://dc.lft.to/lastmile_qr_scan"}}, {"name": "38013868533649483846fe9954c30054", "lon": -77.02564933333333, "lat": 38.88058016666667, "type": "electric_scooter", "fusion_lon": 0.0, "is_reserved": 0, "bike_id": "38013868533649483846fe9954c30054", "fusion_lat": 0.0, "is_disabled": 0, "rental_uris": {"ios": "https://dc.lft.to/lastmile_qr_scan", "android": "https://dc.lft.to/lastmile_qr_scan"}}, {"name": "647558185bed1fcafdf1b810219575d2", "lon": -76.93350216666667, "lat": 38.8990845, "type": "electric_scooter", "fusion_lon": 0.0, "is_reserved": 0, "bike_id": "647558185bed1fcafdf1b810219575d2", "fusion_lat": 0.0, "is_disabled": 0, "rental_uris": {"ios": "https://dc.lft.to/lastmile_qr_scan", "android": "https://dc.lft.to/lastmile_qr_scan"}}, {"name": "cfeb3413c5998548adcc69c4c08b08c7", "lon": -77.01748683333334, "lat": 38.87498083333333, "type": "electric_scooter", "fusion_lon": 0.0, "is_reserved": 0, "bike_id": "cfeb3413c5998548adcc69c4c08b08c7", "fusion_lat": 0.0, "is_disabled": 0, "rental_uris": {"ios": "https://dc.lft.to/lastmile_qr_scan", "android": "https://dc.lft.to/lastmile_qr_scan"}}, {"name": "ae4fc16d10999e61b007f58b2fea9961", "lon": -77.03497083333333, "lat": 38.916934833333336, "type": "electric_scooter", "fusion_lon": 0.0, "is_reserved": 0, "bike_id": "ae4fc16d10999e61b007f58b2fea9961", "fusion_lat": 0.0, "is_disabled": 0, "rental_uris": {"ios": "https://dc.lft.to/lastmile_qr_scan", "android": "https://dc.lft.to/lastmile_qr_scan"}}, {"name": "233ad3b9892b45f6976f839a1d0fbf96", "lon": -77.0273625, "lat": 38.94381416666667, "type": "electric_scooter", "fusion_lon": 0.0, "is_reserved": 0, "bike_id": "233ad3b9892b45f6976f839a1d0fbf96", "fusion_lat": 0.0, "is_disabled": 0, "rental_uris": {"ios": "https://dc.lft.to/lastmile_qr_scan", "android": "https://dc.lft.to/lastmile_qr_scan"}}, {"name": "0a4298e4ad5346dcf4219ecb66198621", "lon": -77.0238575, "lat": 38.896211666666666, "type": "electric_scooter", "fusion_lon": 0.0, "is_reserved": 0, "bike_id": "0a4298e4ad5346dcf4219ecb66198621", "fusion_lat": 0.0, "is_disabled": 0, "rental_uris": {"ios": "https://dc.lft.to/lastmile_qr_scan", "android": "https://dc.lft.to/lastmile_qr_scan"}}, {"name": "1ee8f03331637cf927596d325c0aef2c", "lon": -77.0385895, "lat": 38.916904, "type": "electric_scooter", "fusion_lon": 0.0, "is_reserved": 0, "bike_id": "1ee8f03331637cf927596d325c0aef2c", "fusion_lat": 0.0, "is_disabled": 0, "rental_uris": {"ios": "https://dc.lft.to/lastmile_qr_scan", "android": "https://dc.lft.to/lastmile_qr_scan"}}, {"name": "3c6eda1753a5350dc97f21808b29cc1f", "lon": -77.0089045, "lat": 38.9248555, "type": "electric_scooter", "fusion_lon": 0.0, "is_reserved": 0, "bike_id": "3c6eda1753a5350dc97f21808b29cc1f", "fusion_lat": 0.0, "is_disabled": 0, "rental_uris": {"ios": "https://dc.lft.to/lastmile_qr_scan", "android": "https://dc.lft.to/lastmile_qr_scan"}}, {"name": "c3c5b5608d932caea3cec013433503e5", "lon": -77.07148616666667, "lat": 38.92037233333333, "type": "electric_scooter", "fusion_lon": 0.0, "is_reserved": 0, "bike_id": "c3c5b5608d932caea3cec013433503e5", "fusion_lat": 0.0, "is_disabled": 0, "rental_uris": {"ios": "https://dc.lft.to/lastmile_qr_scan", "android": "https://dc.lft.to/lastmile_qr_scan"}}, {"name": "4b1544d812044493a6dd7a6e508cb4f4", "lon": -76.987803, "lat": 38.865939, "type": "electric_bike", "fusion_lon": 0.0, "is_reserved": 0, "bike_id": "4b1544d812044493a6dd7a6e508cb4f4", "fusion_lat": 0.0, "is_disabled": 0, "rental_uris": {"ios": "https://dc.lft.to/lastmile_qr_scan", "android": "https://dc.lft.to/lastmile_qr_scan"}}, {"name": "e16becee846e52b13ce66beea4bd0a5f", "lon": -77.031736, "lat": 38.90963816666667, "type": "electric_scooter", "fusion_lon": 0.0, "is_reserved": 0, "bike_id": "e16becee846e52b13ce66beea4bd0a5f", "fusion_lat": 0.0, "is_disabled": 0, "rental_uris": {"ios": "https://dc.lft.to/lastmile_qr_scan", "android": "https://dc.lft.to/lastmile_qr_scan"}}, {"name": "098754885f8e557643d42164de2d7835", "lon": -77.00270166666667, "lat": 38.922419, "type": "electric_scooter", "fusion_lon": 0.0, "is_reserved": 0, "bike_id": "098754885f8e557643d42164de2d7835", "fusion_lat": 0.0, "is_disabled": 0, "rental_uris": {"ios": "https://dc.lft.to/lastmile_qr_scan", "android": "https://dc.lft.to/lastmile_qr_scan"}}, {"name": "45503a53c4d5893563682fc2b1c78b00", "lon": -77.01666183333333, "lat": 38.88129716666667, "type": "electric_scooter", "fusion_lon": 0.0, "is_reserved": 0, "bike_id": "45503a53c4d5893563682fc2b1c78b00", "fusion_lat": 0.0, "is_disabled": 0, "rental_uris": {"ios": "https://dc.lft.to/lastmile_qr_scan", "android": "https://dc.lft.to/lastmile_qr_scan"}}, {"name": "3f60df19520faa065adb35864775efa9", "lon": -76.9855735, "lat": 38.89956433333333, "type": "electric_bike", "fusion_lon": 0.0, "is_reserved": 0, "bike_id": "3f60df19520faa065adb35864775efa9", "fusion_lat": 0.0, "is_disabled": 0, "rental_uris": {"ios": "https://dc.lft.to/lastmile_qr_scan", "android": "https://dc.lft.to/lastmile_qr_scan"}}, {"name": "70cc28f293b416ffecc295c4f91607e1", "lon": -77.043612, "lat": 38.9080725, "type": "electric_scooter", "fusion_lon": 0.0, "is_reserved": 0, "bike_id": "70cc28f293b416ffecc295c4f91607e1", "fusion_lat": 0.0, "is_disabled": 0, "rental_uris": {"ios": "https://dc.lft.to/lastmile_qr_scan", "android": "https://dc.lft.to/lastmile_qr_scan"}}, {"name": "eb25ffb38f1101955d5407dfd1d2c8c0", "lon": -77.02486816666666, "lat": 38.938709833333334, "type": "electric_scooter", "fusion_lon": 0.0, "is_reserved": 0, "bike_id": "eb25ffb38f1101955d5407dfd1d2c8c0", "fusion_lat": 0.0, "is_disabled": 0, "rental_uris": {"ios": "https://dc.lft.to/lastmile_qr_scan", "android": "https://dc.lft.to/lastmile_qr_scan"}}, {"name": "e6e648a243700fe07a2b25dbe6eb83ad", "lon": -77.03644333333334, "lat": 38.923083, "type": "electric_scooter", "fusion_lon": 0.0, "is_reserved": 0, "bike_id": "e6e648a243700fe07a2b25dbe6eb83ad", "fusion_lat": 0.0, "is_disabled": 0, "rental_uris": {"ios": "https://dc.lft.to/lastmile_qr_scan", "android": "https://dc.lft.to/lastmile_qr_scan"}}, {"name": "fca31b5581a565435c3dcbd78d895300", "lon": -77.0354395, "lat": 38.9241845, "type": "electric_scooter", "fusion_lon": 0.0, "is_reserved": 0, "bike_id": "fca31b5581a565435c3dcbd78d895300", "fusion_lat": 0.0, "is_disabled": 0, "rental_uris": {"ios": "https://dc.lft.to/lastmile_qr_scan", "android": "https://dc.lft.to/lastmile_qr_scan"}}, {"name": "7d06f6be9163a5ea147977ef4052ec43", "lon": -77.03488116666666, "lat": 38.93267266666667, "type": "electric_scooter", "fusion_lon": 0.0, "is_reserved": 0, "bike_id": "7d06f6be9163a5ea147977ef4052ec43", "fusion_lat": 0.0, "is_disabled": 0, "rental_uris": {"ios": "https://dc.lft.to/lastmile_qr_scan", "android": "https://dc.lft.to/lastmile_qr_scan"}}, {"name": "3d81ccbe8cc96fc8432b86073d5dfce3", "lon": -77.02292516666667, "lat": 38.915681, "type": "electric_scooter", "fusion_lon": 0.0, "is_reserved": 0, "bike_id": "3d81ccbe8cc96fc8432b86073d5dfce3", "fusion_lat": 0.0, "is_disabled": 0, "rental_uris": {"ios": "https://dc.lft.to/lastmile_qr_scan", "android": "https://dc.lft.to/lastmile_qr_scan"}}, {"name": "e285faffeec05b6a86b66c9d1107a77b", "lon": -77.042411, "lat": 38.9064605, "type": "electric_scooter", "fusion_lon": 0.0, "is_reserved": 0, "bike_id": "e285faffeec05b6a86b66c9d1107a77b", "fusion_lat": 0.0, "is_disabled": 0, "rental_uris": {"ios": "https://dc.lft.to/lastmile_qr_scan", "android": "https://dc.lft.to/lastmile_qr_scan"}}, {"name": "246516153b2e13d2716fca17c6999b73", "lon": -77.04480816666667, "lat": 38.912441666666666, "type": "electric_scooter", "fusion_lon": 0.0, "is_reserved": 0, "bike_id": "246516153b2e13d2716fca17c6999b73", "fusion_lat": 0.0, "is_disabled": 0, "rental_uris": {"ios": "https://dc.lft.to/lastmile_qr_scan", "android": "https://dc.lft.to/lastmile_qr_scan"}}, {"name": "b9b16a8546e9a69e24b7891e551e960d", "lon": -77.021998, "lat": 38.91126366666667, "type": "electric_scooter", "fusion_lon": 0.0, "is_reserved": 0, "bike_id": "b9b16a8546e9a69e24b7891e551e960d", "fusion_lat": 0.0, "is_disabled": 0, "rental_uris": {"ios": "https://dc.lft.to/lastmile_qr_scan", "android": "https://dc.lft.to/lastmile_qr_scan"}}, {"name": "7a8b87052a57dd40887d8e3c078485f5", "lon": -77.02747766666667, "lat": 38.9240975, "type": "electric_scooter", "fusion_lon": 0.0, "is_reserved": 0, "bike_id": "7a8b87052a57dd40887d8e3c078485f5", "fusion_lat": 0.0, "is_disabled": 0, "rental_uris": {"ios": "https://dc.lft.to/lastmile_qr_scan", "android": "https://dc.lft.to/lastmile_qr_scan"}}, {"name": "3a5cdf4c22d49299d92405009b67b38a", "lon": -77.03222183333334, "lat": 38.928908166666666, "type": "electric_scooter", "fusion_lon": 0.0, "is_reserved": 0, "bike_id": "3a5cdf4c22d49299d92405009b67b38a", "fusion_lat": 0.0, "is_disabled": 0, "rental_uris": {"ios": "https://dc.lft.to/lastmile_qr_scan", "android": "https://dc.lft.to/lastmile_qr_scan"}}, {"name": "c727504fb6f531377b382cc243be5205", "lon": -77.05433283333333, "lat": 38.9235325, "type": "electric_scooter", "fusion_lon": 0.0, "is_reserved": 0, "bike_id": "c727504fb6f531377b382cc243be5205", "fusion_lat": 0.0, "is_disabled": 0, "rental_uris": {"ios": "https://dc.lft.to/lastmile_qr_scan", "android": "https://dc.lft.to/lastmile_qr_scan"}}, {"name": "eae637aa8a3ed523fe5cd7897b3c8d5b", "lon": -77.02586, "lat": 38.92034966666667, "type": "electric_scooter", "fusion_lon": 0.0, "is_reserved": 0, "bike_id": "eae637aa8a3ed523fe5cd7897b3c8d5b", "fusion_lat": 0.0, "is_disabled": 0, "rental_uris": {"ios": "https://dc.lft.to/lastmile_qr_scan", "android": "https://dc.lft.to/lastmile_qr_scan"}}, {"name": "0c66d73f426bc4b56c513383b711226a", "lon": -77.02896916666667, "lat": 38.93977566666667, "type": "electric_scooter", "fusion_lon": 0.0, "is_reserved": 0, "bike_id": "0c66d73f426bc4b56c513383b711226a", "fusion_lat": 0.0, "is_disabled": 0, "rental_uris": {"ios": "https://dc.lft.to/lastmile_qr_scan", "android": "https://dc.lft.to/lastmile_qr_scan"}}, {"name": "4714ba08b132d3320aed65c94a64f92f", "lon": -77.02806333333334, "lat": 38.897047666666666, "type": "electric_scooter", "fusion_lon": 0.0, "is_reserved": 0, "bike_id": "4714ba08b132d3320aed65c94a64f92f", "fusion_lat": 0.0, "is_disabled": 0, "rental_uris": {"ios": "https://dc.lft.to/lastmile_qr_scan", "android": "https://dc.lft.to/lastmile_qr_scan"}}, {"name": "6603881d9ed3f55aa5f38dd3f047b190", "lon": -77.03636883333333, "lat": 38.93151966666667, "type": "electric_scooter", "fusion_lon": 0.0, "is_reserved": 0, "bike_id": "6603881d9ed3f55aa5f38dd3f047b190", "fusion_lat": 0.0, "is_disabled": 0, "rental_uris": {"ios": "https://dc.lft.to/lastmile_qr_scan", "android": "https://dc.lft.to/lastmile_qr_scan"}}, {"name": "cc9584ed58453daf8e15ced2e1759848", "lon": -77.03218816666667, "lat": 38.89219883333333, "type": "electric_scooter", "fusion_lon": 0.0, "is_reserved": 0, "bike_id": "cc9584ed58453daf8e15ced2e1759848", "fusion_lat": 0.0, "is_disabled": 0, "rental_uris": {"ios": "https://dc.lft.to/lastmile_qr_scan", "android": "https://dc.lft.to/lastmile_qr_scan"}}, {"name": "cd2db9246922478599d08118ab415ec8", "lon": -77.02448166666667, "lat": 38.934182166666666, "type": "electric_scooter", "fusion_lon": 0.0, "is_reserved": 0, "bike_id": "cd2db9246922478599d08118ab415ec8", "fusion_lat": 0.0, "is_disabled": 0, "rental_uris": {"ios": "https://dc.lft.to/lastmile_qr_scan", "android": "https://dc.lft.to/lastmile_qr_scan"}}, {"name": "0de4734a17b462875e2662d2a82d5420", "lon": -77.01409483333333, "lat": 38.881174666666666, "type": "electric_scooter", "fusion_lon": 0.0, "is_reserved": 0, "bike_id": "0de4734a17b462875e2662d2a82d5420", "fusion_lat": 0.0, "is_disabled": 0, "rental_uris": {"ios": "https://dc.lft.to/lastmile_qr_scan", "android": "https://dc.lft.to/lastmile_qr_scan"}}, {"name": "b9f79131a944231af558405ac5816889", "lon": -77.02362166666667, "lat": 38.93536116666667, "type": "electric_scooter", "fusion_lon": 0.0, "is_reserved": 0, "bike_id": "b9f79131a944231af558405ac5816889", "fusion_lat": 0.0, "is_disabled": 0, "rental_uris": {"ios": "https://dc.lft.to/lastmile_qr_scan", "android": "https://dc.lft.to/lastmile_qr_scan"}}, {"name": "114e439793f48fb6bdd373ee7a018a2d", "lon": -77.0333585, "lat": 38.909798, "type": "electric_scooter", "fusion_lon": 0.0, "is_reserved": 0, "bike_id": "114e439793f48fb6bdd373ee7a018a2d", "fusion_lat": 0.0, "is_disabled": 0, "rental_uris": {"ios": "https://dc.lft.to/lastmile_qr_scan", "android": "https://dc.lft.to/lastmile_qr_scan"}}, {"name": "e69259b3647766643111c2f48c3fce03", "lon": -77.0363275, "lat": 38.93674083333333, "type": "electric_scooter", "fusion_lon": 0.0, "is_reserved": 0, "bike_id": "e69259b3647766643111c2f48c3fce03", "fusion_lat": 0.0, "is_disabled": 0, "rental_uris": {"ios": "https://dc.lft.to/lastmile_qr_scan", "android": "https://dc.lft.to/lastmile_qr_scan"}}, {"name": "e627be7f815ff8798cbc05a6f7a581c2", "lon": -77.04620366666667, "lat": 38.9193195, "type": "electric_scooter", "fusion_lon": 0.0, "is_reserved": 0, "bike_id": "e627be7f815ff8798cbc05a6f7a581c2", "fusion_lat": 0.0, "is_disabled": 0, "rental_uris": {"ios": "https://dc.lft.to/lastmile_qr_scan", "android": "https://dc.lft.to/lastmile_qr_scan"}},