{"data": {"bikes": [{"type": "electric_scooter", "rental_uris": {"ios": "https://dc.lft.to/lastmile_qr_scan", "android": "https://dc.lft.to/lastmile_qr_scan"}, "lon": -77.02696233333333, "fusion_lon": 0.0, "is_disabled": 0, "lat": 38.91128883333333, "bike_id": "50fde98f2be049ca8f96d6f1e104aad1", "name": "50fde98f2be049ca8f96d6f1e104aad1", "is_reserved": 0, "fusion_lat": 0.0}, {"type": "electric_scooter", "rental_uris": {"ios": "https://dc.lft.to/lastmile_qr_scan", "android": "https://dc.lft.to/lastmile_qr_scan"}, "lon": -77.02155166666667, "fusion_lon": 0.0, "is_disabled": 0, "lat": 38.886475833333336, "bike_id": "a27e4762e26f6f1a888a9f7940276537", "name": "a27e4762e26f6f1a888a9f7940276537", "is_reserved": 0, "fusion_lat": 0.0}, {"type": "electric_bike", "rental_uris": {"ios": "https://dc.lft.to/lastmile_qr_scan", "android": "https://dc.lft.to/lastmile_qr_scan"}, "lon": -77.12023816666667, "fusion_lon": 0.0, "is_disabled": 0, "lat": 38.85490816666667, "bike_id": "b146e67b16567c639a821b4b6756867d", "name": "b146e67b16567c639a821b4b6756867d", "is_reserved": 0, "fusion_lat": 0.0}, {"type": "electric_scooter", "rental_uris": {"ios": "https://dc.lft.to/lastmile_qr_scan", "android": "https://dc.lft.to/lastmile_qr_scan"}, "lon": -77.03782466666667, "fusion_lon": 0.0, "is_disabled": 0, "lat": 38.93028283333334, "bike_id": "884d5c3c5f2a81e9af7c38530d880286", "name": "884d5c3c5f2a81e9af7c38530d880286", "is_reserved": 0, "fusion_lat": 0.0}, {"type": "electric_bike", "rental_uris": {"ios": "https://dc.lft.to/lastmile_qr_scan", "android": "https://dc.lft.to/lastmile_qr_scan"}, "lon": -77.116117, "fusion_lon": 0.0, "is_disabled": 0, "lat": 38.854882833333335, "bike_id": "b3aefbb3a142b6a9c7010e1fbec915fd", "name": "b3aefbb3a142b6a9c7010e1fbec915fd", "is_reserved": 0, "fusion_lat": 0.0}, {"type": "electric_bike", "rental_uris": {"ios": "https://dc.lft.to/lastmile_qr_scan", "android": "https://dc.lft.to/lastmile_qr_scan"}, "lon": -76.9007315, "fusion_lon": 0.0, "is_disabled": 0, "lat": 38.88757533333333, "bike_id": "37b30858bc2b070b0b80a73352b004bc", "name": "37b30858bc2b070b0b80a73352b004bc", "is_reserved": 0, "fusion_lat": 0.0}, {"type": "electric_scooter", "rental_uris": {"ios": "https://dc.lft.to/lastmile_qr_scan", "android": "https://dc.lft.to/lastmile_qr_scan"}, "lon": -77.0401375, "fusion_lon": 0.0, "is_disabled": 0, "lat": 38.941952666666666, "bike_id": "6cc83429f16f7c21e5c083930d6b888c", "name": "6cc83429f16f7c21e5c083930d6b888c", "is_reserved": 0, "fusion_lat": 0.0}, {"type": "electric_scooter", "rental_uris": {"ios": "https://dc.lft.to/lastmile_qr_scan", "android": "https://dc.lft.to/lastmile_qr_scan"}, "lon": -77.015608, "fusion_lon": 0.0, "is_disabled": 0, "lat": 38.879933666666666, "bike_id": "9f021c5d393616bb9acf936021d536ae", "name": "9f021c5d393616bb9acf936021d536ae", "is_reserved": 0, "fusion_lat": 0.0}, {"type": "electric_scooter", "rental_uris": {"ios": "https://dc.lft.to/lastmile_qr_scan", "android": "https://dc.lft.to/lastmile_qr_scan"}, "lon": -77.02614366666667, "fusion_lon": 0.0, "is_disabled": 0, "lat": 38.930803, "bike_id": "88e088c37d03dfe9e5e8db0f8611a170", "name": "88e088c37d03dfe9e5e8db0f8611a170", "is_reserved": 0, "fusion_lat": 0.0}, {"type": "electric_bike", "rental_uris": {"ios": "https://dc.lft.to/lastmile_qr_scan", "android": "https://dc.lft.to/lastmile_qr_scan"}, "lon": -77.08841583333333, "fusion_lon": 0.0, "is_disabled": 0, "lat": 38.966942, "bike_id": "1e9982be3458a72e3958f8ccddc0e737", "name": "1e9982be3458a72e3958f8ccddc0e737", "is_reserved": 0, "fusion_lat": 0.0}, {"type": "electric_bike", "rental_uris": {"ios": "https://dc.lft.to/lastmile_qr_scan", "android": "https://dc.lft.to/lastmile_qr_scan"}, "lon": -76.9881065, "fusion_lon": 0.0, "is_disabled": 0, "lat": 38.911385333333335, "bike_id": "4834f1b35971f03a66c6aae11f01c11f", "name": "4834f1b35971f03a66c6aae11f01c11f", "is_reserved": 0, "fusion_lat": 0.0}, {"type": "electric_scooter", "rental_uris": {"ios": "https://dc.lft.to/lastmile_qr_scan", "android": "https://dc.lft.to/lastmile_qr_scan"}, "lon": -77.04161233333333, "fusion_lon": 0.0, "is_disabled": 0, "lat": 38.93414633333333, "bike_id": "6d069e85b30ce821cd20b4a6be5dfc4c", "name": "6d069e85b30ce821cd20b4a6be5dfc4c", "is_reserved": 0, "fusion_lat": 0.0}, {"type": "electric_scooter", "rental_uris": {"ios": "https://dc.lft.to/lastmile_qr_scan", "android": "https://dc.lft.to/lastmile_qr_scan"}, "lon": -77.03639666666666, "fusion_lon": 0.0, "is_disabled": 0, "lat": 38.9161775, "bike_id": "e92bfe56d91cb5950867d45b9e58ee1f", "name": "e92bfe56d91cb5950867d45b9e58ee1f", "is_reserved": 0, "fusion_lat": 0.0}, {"type": "electric_scooter", "rental_uris": {"ios": "https://dc.lft.to/lastmile_qr_scan", "android": "https://dc.lft.to/lastmile_qr_scan"}, "lon": -77.03156383333334, "fusion_lon": 0.0, "is_disabled": 0, "lat": 38.8922835, "bike_id": "c157be6dc498f9904031ca07a5098def", "name": "c157be6dc498f9904031ca07a5098def", "is_reserved": 0, "fusion_lat": 0.0}, {"type": "electric_scooter", "rental_uris": {"ios": "https://dc.lft.to/lastmile_qr_scan", "android": "https://dc.lft.to/lastmile_qr_scan"}, "lon": -77.070652, "fusion_lon": 0.0, "is_disabled": 0, "lat": 38.931767666666666, "bike_id": "134c957c40a0838034d4b99baebe2335", "name": "134c957c40a0838034d4b99baebe2335", "is_reserved": 0, "fusion_lat": 0.0}, {"type": "electric_scooter", "rental_uris": {"ios": "https://dc.lft.to/lastmile_qr_scan", "android": "https://dc.lft.to/lastmile_qr_scan"}, "lon": -76.9852015, "fusion_lon": 0.0, "is_disabled": 0, "lat": 38.866856, "bike_id": "41e3a86f6ebbcf19dcfd86a55598b85b", "name": "41e3a86f6ebbcf19dcfd86a55598b85b", "is_reserved": 0, "fusion_lat": 0.0}, {"type": "electric_scooter", "rental_uris": {"ios": "https://dc.lft.to/lastmile_qr_scan", "android": "https://dc.lft.to/lastmile_qr_scan"}, "lon": -77.02493516666667, "fusion_lon": 0.0, "is_disabled": 0, "lat": 38.918041, "bike_id": "25937789dabe4175c94ad64573db50ea", "name": "25937789dabe4175c94ad64573db50ea", "is_reserved": 0, "fusion_lat": 0.0}, {"type": "electric_scooter", "rental_uris": {"ios": "https://dc.lft.to/lastmile_qr_scan", "android": "https://dc.lft.to/lastmile_qr_scan"}, "lon": -77.03404533333334, "fusion_lon": 0.0, "is_disabled": 0, "lat": 38.92057066666667, "bike_id": "6deca11531101ac7874142112d9c12ca", "name": "6deca11531101ac7874142112d9c12ca", "is_reserved": 0, "fusion_lat": 0.0}, {"type": "electric_bike", "rental_uris": {"ios": "https://dc.lft.to/lastmile_qr_scan", "android": "https://dc.lft.to/lastmile_qr_scan"}, "lon": -77.03330583333333, "fusion_lon": 0.0, "is_disabled": 0, "lat": 38.920553, "bike_id": "62fbc3968ac5c43b9a9f974731cea0e7", "name": "62fbc3968ac5c43b9a9f974731cea0e7", "is_reserved": 0, "fusion_lat": 0.0}, {"type": "electric_scooter", "rental_uris": {"ios": "https://dc.lft.to/lastmile_qr_scan", "android": "https://dc.lft.to/lastmile_qr_scan"}, "lon": -76.93342, "fusion_lon": 0.0, "is_disabled": 0, "lat": 38.888149, "bike_id": "5a64f477395f35b27bbd9117198c0ed8", "name": "5a64f477395f35b27bbd9117198c0ed8", "is_reserved": 0, "fusion_lat": 0.0}, {"type": "electric_scooter", "rental_uris": {"ios": "https://dc.lft.to/lastmile_qr_scan", "android": "https://dc.lft.to/lastmile_qr_scan"}, "lon": -77.039948, "fusion_lon": 0.0, "is_disabled": 0, "lat": 38.91331683333333, "bike_id": "078fbf7a75ea1baf4a77acfea2fb17c7", "name": "078fbf7a75ea1baf4a77acfea2fb17c7", "is_reserved": 0, "fusion_lat": 0.0}, {"type": "electric_bike", "rental_uris": {"ios": "https://dc.lft.to/lastmile_qr_scan", "android": "https://dc.lft.to/lastmile_qr_scan"}, "lon": -77.00568566666666, "fusion_lon": 0.0, "is_disabled": 0, "lat": 38.83989433333333, "bike_id": "36b6939d75ae602a03e1e7812c6ede95", "name": "36b6939d75ae602a03e1e7812c6ede95", "is_reserved": 0, "fusion_lat": 0.0}, {"type": "electric_bike", "rental_uris": {"ios": "https://dc.lft.to/lastmile_qr_scan", "android": "https://dc.lft.to/lastmile_qr_scan"}, "lon": -77.01446233333333, "fusion_lon": 0.0, "is_disabled": 0, "lat": 38.876753666666666, "bike_id": "d4ed4df98d8c17ecc3b31a6221fbf5e7", "name": "d4ed4df98d8c17ecc3b31a6221fbf5e7", "is_reserved": 0, "fusion_lat": 0.0}, {"type": "electric_scooter", "rental_uris": {"ios": "https://dc.lft.to/lastmile_qr_scan", "android": "https://dc.lft.to/lastmile_qr_scan"}, "lon": -77.03197233333333, "fusion_lon": 0.0, "is_disabled": 0, "lat": 38.918014166666666, "bike_id": "1fe1afe0ed046c51fc0003ea35a05ad9", "name": "1fe1afe0ed046c51fc0003ea35a05ad9", "is_reserved": 0, "fusion_lat": 0.0}, {"type": "electric_scooter", "rental_uris": {"ios": "https://dc.lft.to/lastmile_qr_scan", "android": "https://dc.lft.to/lastmile_qr_scan"}, "lon": -77.03206066666667, "fusion_lon": 0.0, "is_disabled": 0, "lat": 38.9088945, "bike_id": "1a5844ab1339834afcde382e0b32bd90", "name": "1a5844ab1339834afcde382e0b32bd90", "is_reserved": 0, "fusion_lat": 0.0}, {"type": "electric_scooter", "rental_uris": {"ios": "https://dc.lft.to/lastmile_qr_scan", "android": "https://dc.lft.to/lastmile_qr_scan"}, "lon": -77.03266833333333, "fusion_lon": 0.0, "is_disabled": 0, "lat": 38.91985283333333, "bike_id": "c14b71bab046cf802f181ec48d9b651b", "name": "c14b71bab046cf802f181ec48d9b651b", "is_reserved": 0, "fusion_lat": 0.0}, {"type": "electric_scooter", "rental_uris": {"ios": "https://dc.lft.to/lastmile_qr_scan", "android": "https://dc.lft.to/lastmile_qr_scan"}, "lon": -77.04923366666667, "fusion_lon": 0.0, "is_disabled": 0, "lat": 38.900870166666664, "bike_id": "cd602d43cf78b7afdb803af02f4a93cc", "name": "cd602d43cf78b7afdb803af02f4a93cc", "is_reserved": 0, "fusion_lat": 0.0}, {"type": "electric_scooter", "rental_uris": {"ios": "https://dc.lft.to/lastmile_qr_scan", "android": "https://dc.lft.to/lastmile_qr_scan"}, "lon": -76.946372, "fusion_lon": 0.0, "is_disabled": 0, "lat": 38.898444166666664, "bike_id": "7ddacc154cdf75358eb8f667cf29210e", "name": "7ddacc154cdf75358eb8f667cf29210e", "is_reserved": 0, "fusion_lat": 0.0}, {"type": "electric_scooter", "rental_uris": {"ios": "https://dc.lft.to/lastmile_qr_scan", "android": "https://dc.lft.to/lastmile_qr_scan"}, "lon": -77.04594933333334, "fusion_lon": 0.0, "is_disabled": 0, "lat": 38.918626, "bike_id": "341d99823b37313923aa2be7510430f3", "name": "341d99823b37313923aa2be7510430f3", "is_reserved": 0, "fusion_lat": 0.0}, {"type": "electric_bike", "rental_uris": {"ios": "https://dc.lft.to/lastmile_qr_scan", "android": "https://dc.lft.to/lastmile_qr_scan"}, "lon": -76.98687216666667, "fusion_lon": 0.0, "is_disabled": 0, "lat": 38.94474366666667, "bike_id": "187705912055e295f532a076da9942d5", "name": "187705912055e295f532a076da9942d5", "is_reserved": 0, "fusion_lat": 0.0}, {"type": "electric_scooter", "rental_uris": {"ios": "https://dc.lft.to/lastmile_qr_scan", "android": "https://dc.lft.to/lastmile_qr_scan"}, "lon": -77.03508083333334, "fusion_lon": 0.0, "is_disabled": 0, "lat": 38.92156466666667, "bike_id": "dcbf1a8309c3406a415af77153437eab", "name": "dcbf1a8309c3406a415af77153437eab", "is_reserved": 0, "fusion_lat": 0.0}, {"type": "electric_scooter", "rental_uris": {"ios": "https://dc.lft.to/lastmile_qr_scan", "android": "https://dc.lft.to/lastmile_qr_scan"}, "lon": -77.027548, "fusion_lon": 0.0, "is_disabled": 0, "lat": 38.95774616666667, "bike_id": "efc8b935aed07e23fb1a39486e6b6362", "name": "efc8b935aed07e23fb1a39486e6b6362", "is_reserved": 0, "fusion_lat": 0.0}, {"type": "electric_scooter", "rental_uris": {"ios": "https://dc.lft.to/lastmile_qr_scan", "android": "https://dc.lft.to/lastmile_qr_scan"}, "lon": -77.05232783333334, "fusion_lon": 0.0, "is_disabled": 0, "lat": 38.9245985, "bike_id": "c60b0dd6d1befb31068b3ba1a3728608", "name": "c60b0dd6d1befb31068b3ba1a3728608", "is_reserved": 0, "fusion_lat": 0.0}, {"type": "electric_scooter", "rental_uris": {"ios": "https://dc.lft.to/lastmile_qr_scan", "android": "https://dc.lft.to/lastmile_qr_scan"}, "lon": -77.02982966666667, "fusion_lon": 0.0, "is_disabled": 0, "lat": 38.92243, "bike_id": "35632d5dfcf7527adce3ff1ca785ff5c", "name": "35632d5dfcf7527adce3ff1ca785ff5c", "is_reserved": 0, "fusion_lat": 0.0}, {"type": "electric_scooter", "rental_uris": {"ios": "https://dc.lft.to/lastmile_qr_scan", "android": "https://dc.lft.to/lastmile_qr_scan"}, "lon": -76.95756116666666, "fusion_lon": 0.0, "is_disabled": 0, "lat": 38.88429566666667, "bike_id": "f51cfde0394b1a4ee824fa2d4d27d5aa", "name": "f51cfde0394b1a4ee824fa2d4d27d5aa", "is_reserved": 0, "fusion_lat": 0.0}, {"type": "electric_scooter", "rental_uris": {"ios": "https://dc.lft.to/lastmile_qr_scan", "android": "https://dc.lft.to/lastmile_qr_scan"}, "lon": -77.02179166666667, "fusion_lon": 0.0, "is_disabled": 0, "lat": 38.893013333333336, "bike_id": "e68806841faba697ee603b534bb73152", "name": "e68806841faba697ee603b534bb73152", "is_reserved": 0, "fusion_lat": 0.0}, {"type": "electric_scooter", "rental_uris": {"ios": "https://dc.lft.to/lastmile_qr_scan", "android": "https://dc.lft.to/lastmile_qr_scan"}, "lon": -77.03432816666667, "fusion_lon": 0.0, "is_disabled": 0, "lat": 38.909725333333334, "bike_id": "03560ea11b4d2c906c6b8ac1ac324c44", "name": "03560ea11b4d2c906c6b8ac1ac324c44", "is_reserved": 0, "fusion_lat": 0.0}, {"type": "electric_scooter", "rental_uris": {"ios": "https://dc.lft.to/lastmile_qr_scan", "android": "https://dc.lft.to/lastmile_qr_scan"}, "lon": -77.024244, "fusion_lon": 0.0, "is_disabled": 0, "lat": 38.927534, "bike_id": "b22777d4c2ab72687a11a7ad2c3d9017", "name": "b22777d4c2ab72687a11a7ad2c3d9017", "is_reserved": 0, "fusion_lat": 0.0}, {"type": "electric_scooter", "rental_uris": {"ios": "https://dc.lft.to/lastmile_qr_scan", "android": "https://dc.lft.to/lastmile_qr_scan"}, "lon": -77.03771666666667, "fusion_lon": 0.0, "is_disabled": 0, "lat": 38.9297475, "bike_id": "082447b4ec61ce83f1a99d4c5cb3fa90", "name": "082447b4ec61ce83f1a99d4c5cb3fa90", "is_reserved": 0, "fusion_lat": 0.0}, {"type": "electric_scooter", "rental_uris": {"ios": "https://dc.lft.to/lastmile_qr_scan", "android": "https://dc.lft.to/lastmile_qr_scan"}, "lon": -77.02965166666667, "fusion_lon": 0.0, "is_disabled": 0, "lat": 38.907708166666666, "bike_id": "9c37f0e77c9de3418da86c2b2e389526", "name": "9c37f0e77c9de3418da86c2b2e389526", "is_reserved": 0, "fusion_lat": 0.0}, {"type": "electric_bike", "rental_uris": {"ios": "https://dc.lft.to/lastmile_qr_scan", "android": "https://dc.lft.to/lastmile_qr_scan"}, "lon": -77.36094433333334, "fusion_lon": 0.0, "is_disabled": 0, "lat": 38.9395565, "bike_id": "5e833ae9f2a37e159522264e994dc515", "name": "5e833ae9f2a37e159522264e994dc515", "is_reserved": 0, "fusion_lat": 0.0}, {"type": "electric_bike", "rental_uris": {"ios": "https://dc.lft.to/lastmile_qr_scan", "android": "https://dc.lft.to/lastmile_qr_scan"}, "lon": -77.07395716666667, "fusion_lon": 0.0, "is_disabled": 0, "lat": 38.96181333333333, "bike_id": "a1fd166868bc146a3bb3c2e7bf2966e7", "name": "a1fd166868bc146a3bb3c2e7bf2966e7", "is_reserved": 0, "fusion_lat": 0.0}, {"type": "electric_bike", "rental_uris": {"ios": "https://dc.lft.to/lastmile_qr_scan", "android": "https://dc.lft.to/lastmile_qr_scan"}, "lon": -76.88373, "fusion_lon": 0.0, "is_disabled": 0, "lat": 38.99810683333333, "bike_id": "d32bf52baa3d141f4bb9be348e572dac", "name": "d32bf52baa3d141f4bb9be348e572dac", "is_reserved": 0, "fusion_lat": 0.0}, {"type": "electric_scooter", "rental_uris": {"ios": "https://dc.lft.to/lastmile_qr_scan", "android": "https://dc.lft.to/lastmile_qr_scan"}, "lon": -77.04915716666666, "fusion_lon": 0.0, "is_disabled": 0, "lat": 38.90086983333333, "bike_id": "72d62e91b5f2168a56e30fb385a04c24", "name": "72d62e91b5f2168a56e30fb385a04c24", "is_reserved": 0, "fusion_lat": 0.0}, {"type": "electric_bike", "rental_uris": {"ios": "https://dc.lft.to/lastmile_qr_scan", "android": "https://dc.lft.to/lastmile_qr_scan"}, "lon": -76.945814, "fusion_lon": 0.0, "is_disabled": 0, "lat": 38.9533125, "bike_id": "1021c476359f178d6281227e00533fcd", "name": "1021c476359f178d6281227e00533fcd", "is_reserved": 0, "fusion_lat": 0.0}, {"type": "electric_scooter", "rental_uris": {"ios": "https://dc.lft.to/lastmile_qr_scan", "android": "https://dc.lft.to/lastmile_qr_scan"}, "lon": -77.04643816666666, "fusion_lon": 0.0, "is_disabled": 0, "lat": 38.8921695, "bike_id": "0a3276068085add4c4ca438a4f0bce82", "name": "0a3276068085add4c4ca438a4f0bce82", "is_reserved": 0, "fusion_lat": 0.0}, {"type": "electric_bike", "rental_uris": {"ios": "https://dc.lft.to/lastmile_qr_scan", "android": "https://dc.lft.to/lastmile_qr_scan"}, "lon": -76.99005516666666, "fusion_lon": 0.0, "is_disabled": 0, "lat": 38.95487333333333, "bike_id": "59e112350348f061d840f9cf64ec5b74", "name": "59e112350348f061d840f9cf64ec5b74", "is_reserved": 0, "fusion_lat": 0.0}, {"type": "electric_scooter", "rental_uris": {"ios": "https://dc.lft.to/lastmile_qr_scan", "android": "https://dc.lft.to/lastmile_qr_scan"}, "lon": -76.9514, "fusion_lon": 0.0, "is_disabled": 0, "lat": 38.890425, "bike_id": "28b930c61ea1a7261822e228f98c4919", "name": "28b930c61ea1a7261822e228f98c4919", "is_reserved": 0, "fusion_lat": 0.0}, {"type": "electric_scooter", "rental_uris": {"ios": "https://dc.lft.to/lastmile_qr_scan", "android": "https://dc.lft.to/lastmile_qr_scan"}, "lon": -77.032812, "fusion_lon": 0.0, "is_disabled": 0, "lat": 38.927444, "bike_id": "1bfe1d144910c2982ac24835d8bfae5c", "name": "1bfe1d144910c2982ac24835d8bfae5c", "is_reserved": 0, "fusion_lat": 0.0}, {"type": "electric_scooter", "rental_uris": {"ios": "https://dc.lft.to/lastmile_qr_scan", "android": "https://dc.lft.to/lastmile_qr_scan"}, "lon": -77.03173016666666, "fusion_lon": 0.0, "is_disabled": 0, "lat": 38.92110733333333, "bike_id": "b2057f79c776ae5bc8d44da94052787f", "name": "b2057f79c776ae5bc8d44da94052787f", "is_reserved": 0, "fusion_lat": 0.0}, {"type": "electric_scooter", "rental_uris": {"ios": "https://dc.lft.to/lastmile_qr_scan", "android": "https://dc.lft.to/lastmile_qr_scan"}, "lon": -76.93047783333333, "fusion_lon": 0.0, "is_disabled": 0, "lat": 38.895724333333334, "bike_id": "ef8be693f7ce6cda9564e818f8583d7c", "name": "ef8be693f7ce6cda9564e818f8583d7c", "is_reserved": 0, "fusion_lat": 0.0}, {"type": "electric_scooter", "rental_uris": {"ios": "https://dc.lft.to/lastmile_qr_scan", "android": "https://dc.lft.to/lastmile_qr_scan"}, "lon": -77.031971, "fusion_lon": 0.0, "is_disabled": 0, "lat": 38.921031, "bike_id": "0091c108576a402deb7fa8341c8abeb9", "name": "0091c108576a402deb7fa8341c8abeb9", "is_reserved": 0, "fusion_lat": 0.0}, {"type": "electric_scooter", "rental_uris": {"ios": "https://dc.lft.to/lastmile_qr_scan", "android": "https://dc.lft.to/lastmile_qr_scan"}, "lon": -76.93176883333334, "fusion_lon": 0.0, "is_disabled": 0, "lat": 38.89885833333334, "bike_id": "28c2bdb359a0b39921cf9f6b932f5add", "name": "28c2bdb359a0b39921cf9f6b932f5add", "is_reserved": 0, "fusion_lat": 0.0}, {"type": "electric_scooter", "rental_uris": {"ios": "https://dc.lft.to/lastmile_qr_scan", "android": "https://dc.lft.to/lastmile_qr_scan"}, "lon": -77.03701316666667, "fusion_lon": 0.0, "is_disabled": 0, "lat": 38.926449, "bike_id": "9918ba645a3c048b79313477a161a0ea", "name": "9918ba645a3c048b79313477a161a0ea", "is_reserved": 0, "fusion_lat": 0.0}, {"type": "electric_bike", "rental_uris": {"ios": "https://dc.lft.to/lastmile_qr_scan", "android": "https://dc.lft.to/lastmile_qr_scan"}, "lon": -77.02623966666667, "fusion_lon": 0.0, "is_disabled": 0, "lat": 38.962285, "bike_id": "3e00ae46d8022fc656a4c2a66463532f", "name": "3e00ae46d8022fc656a4c2a66463532f", "is_reserved": 0, "fusion_lat": 0.0}, {"type": "electric_scooter", "rental_uris": {"ios": "https://dc.lft.to/lastmile_qr_scan", "android": "https://dc.lft.to/lastmile_qr_scan"}, "lon": -77.05723083333334, "fusion_lon": 0.0, "is_disabled": 0, "lat": 38.933659666666664, "bike_id": "ad4e7027341f0cc245bf470b302508e5", "name": "ad4e7027341f0cc245bf470b302508e5", "is_reserved": 0, "fusion_lat": 0.0}, {"type": "electric_scooter", "rental_uris": {"ios": "https://dc.lft.to/lastmile_qr_scan", "android": "https://dc.lft.to/lastmile_qr_scan"}, "lon": -77.043612, "fusion_lon": 0.0, "is_disabled": 0, "lat": 38.92063533333334, "bike_id": "3a1372beda485270ee02b2e0d532639d", "name": "3a1372beda485270ee02b2e0d532639d", "is_reserved": 0, "fusion_lat": 0.0}, {"type": "electric_scooter", "rental_uris": {"ios": "https://dc.lft.to/lastmile_qr_scan", "android": "https://dc.lft.to/lastmile_qr_scan"}, "lon": -77.03083366666667, "fusion_lon": 0.0, "is_disabled": 0, "lat": 38.899861, "bike_id": "8ad45d783e824b18b0dcd397b141d34e", "name": "8ad45d783e824b18b0dcd397b141d34e", "is_reserved": 0, "fusion_lat": 0.0}, {"type": "electric_scooter", "rental_uris": {"ios": "https://dc.lft.to/lastmile_qr_scan", "android": "https://dc.lft.to/lastmile_qr_scan"}, "lon": -77.03793733333333, "fusion_lon": 0.0, "is_disabled": 0, "lat": 38.909642166666664, "bike_id": "3d52ce7c76d03d592134208445864d84", "name": "3d52ce7c76d03d592134208445864d84", "is_reserved": 0, "fusion_lat": 0.0}, {"type": "electric_scooter", "rental_uris": {"ios": "https://dc.lft.to/lastmile_qr_scan", "android": "https://dc.lft.to/lastmile_qr_scan"}, "lon": -77.027995, "fusion_lon": 0.0, "is_disabled": 0, "lat": 38.902771, "bike_id": "ce8ec01ed23480b2b3a8da37c0826497", "name": "ce8ec01ed23480b2b3a8da37c0826497", "is_reserved": 0, "fusion_lat": 0.0}, {"type": "electric_scooter", "rental_uris": {"ios": "https://dc.lft.to/lastmile_qr_scan", "android": "https://dc.lft.to/lastmile_qr_scan"}, "lon": -76.989766, "fusion_lon": 0.0, "is_disabled": 0, "lat": 38.865079333333334, "bike_id": "411ab7a9f21d0a829b533b4b9a298ef4", "name": "411ab7a9f21d0a829b533b4b9a298ef4", "is_reserved": 0, "fusion_lat": 0.0}, {"type": "electric_scooter", "rental_uris": {"ios": "https://dc.lft.to/lastmile_qr_scan", "android": "https://dc.lft.to/lastmile_qr_scan"}, "lon": -77.04139316666667, "fusion_lon": 0.0, "is_disabled": 0, "lat": 38.893542, "bike_id": "e18e6088dc884b36b97f1c07642f64cf", "name": "e18e6088dc884b36b97f1c07642f64cf", "is_reserved": 0, "fusion_lat": 0.0}, {"type": "electric_bike", "rental_uris": {"ios": "https://dc.lft.to/lastmile_qr_scan", "android": "https://dc.lft.to/lastmile_qr_scan"}, "lon": -76.89538483333334, "fusion_lon": 0.0, "is_disabled": 0, "lat": 38.94552983333333, "bike_id": "9dd40f4f56bd86ee83042a7d8e5ca19d", "name": "9dd40f4f56bd86ee83042a7d8e5ca19d", "is_reserved": 0, "fusion_lat": 0.0}, {"type": "electric_scooter", "rental_uris": {"ios": "https://dc.lft.to/lastmile_qr_scan", "android": "https://dc.lft.to/lastmile_qr_scan"}, "lon": -77.04472716666666, "fusion_lon": 0.0, "is_disabled": 0, "lat": 38.8961165, "bike_id": "3c83fde36da3ce522e484a3ca1cbef99", "name": "3c83fde36da3ce522e484a3ca1cbef99", "is_reserved": 0, "fusion_lat": 0.0}, {"type": "electric_bike", "rental_uris": {"ios": "https://dc.lft.to/lastmile_qr_scan", "android": "https://dc.lft.to/lastmile_qr_scan"}, "lon": -76.979773, "fusion_lon": 0.0, "is_disabled": 0, "lat": 38.9537205, "bike_id": "be2e0b654a242eb704116da9f920afb6", "name": "be2e0b654a242eb704116da9f920afb6", "is_reserved": 0, "fusion_lat": 0.0}, {"type": "electric_scooter", "rental_uris": {"ios": "https://dc.lft.to/lastmile_qr_scan", "android": "https://dc.lft.to/lastmile_qr_scan"}, "lon": -77.02589716666667, "fusion_lon": 0.0, "is_disabled": 0, "lat": 38.907405, "bike_id": "1dbd6e04e044265223e95d0cd7dc2b69", "name": "1dbd6e04e044265223e95d0cd7dc2b69", "is_reserved": 0, "fusion_lat": 0.0}, {"type": "electric_scooter", "rental_uris": {"ios": "https://dc.lft.to/lastmile_qr_scan", "android": "https://dc.lft.to/lastmile_qr_scan"}, "lon": -77.03064283333333, "fusion_lon": 0.0, "is_disabled": 0, "lat": 38.88615216666667, "bike_id": "bcf643135f402e25baf722830906dcd2", "name": "bcf643135f402e25baf722830906dcd2", "is_reserved": 0, "fusion_lat": 0.0}, {"type": "electric_scooter", "rental_uris": {"ios": "https://dc.lft.to/lastmile_qr_scan", "android": "https://dc.lft.to/lastmile_qr_scan"}, "lon": -77.03205266666667, "fusion_lon": 0.0, "is_disabled": 0, "lat": 38.9157075, "bike_id": "b148baed9f1c620e28821a0971eea3fb", "name": "b148baed9f1c620e28821a0971eea3fb", "is_reserved": 0, "fusion_lat": 0.0}, {"type": "electric_scooter", "rental_uris": {"ios": "https://dc.lft.to/lastmile_qr_scan", "android": "https://dc.lft.to/lastmile_qr_scan"}, "lon": -77.03448066666667, "fusion_lon": 0.0, "is_disabled": 0, "lat": 38.90677766666667, "bike_id": "c32f63f59d059f404707ff4c99cbee06", "name": "c32f63f59d059f404707ff4c99cbee06", "is_reserved": 0, "fusion_lat": 0.0}, {"type": "electric_scooter", "rental_uris": {"ios": "https://dc.lft.to/lastmile_qr_scan", "android": "https://dc.lft.to/lastmile_qr_scan"}, "lon": -77.03452966666667, "fusion_lon": 0.0, "is_disabled": 0, "lat": 38.918200166666665, "bike_id": "1f11484cf86ca7f4b44b284d9af6814c", "name": "1f11484cf86ca7f4b44b284d9af6814c", "is_reserved": 0, "fusion_lat": 0.0}, {"type": "electric_scooter", "rental_uris": {"ios": "https://dc.lft.to/lastmile_qr_scan", "android": "https://dc.lft.to/lastmile_qr_scan"}, "lon": -77.04467033333333, "fusion_lon": 0.0, "is_disabled": 0, "lat": 38.9112165, "bike_id": "63cd52aefb4cb0ccce525634d6cce7db", "name": "63cd52aefb4cb0ccce525634d6cce7db", "is_reserved": 0, "fusion_lat": 0.0}, {"type": "electric_scooter", "rental_uris": {"ios": "https://dc.lft.to/lastmile_qr_scan", "android": "https://dc.lft.to/lastmile_qr_scan"}, "lon": -77.02972966666667, "fusion_lon": 0.0, "is_disabled": 0, "lat": 38.9325465, "bike_id": "3dc46eda3d1702f7bcd0ef2016b12799", "name": "3dc46eda3d1702f7bcd0ef2016b12799", "is_reserved": 0, "fusion_lat": 0.0}, {"type": "electric_scooter", "rental_uris": {"ios": "https://dc.lft.to/lastmile_qr_scan", "android": "https://dc.lft.to/lastmile_qr_scan"}, "lon": -77.02211933333334, "fusion_lon": 0.0, "is_disabled": 0, "lat": 38.887486833333334, "bike_id": "4bc7fa3af3acf3a9eb63687631033585", "name": "4bc7fa3af3acf3a9eb63687631033585", "is_reserved": 0, "fusion_lat": 0.0}, {"type": "electric_scooter", "rental_uris": {"ios": "https://dc.lft.to/lastmile_qr_scan", "android": "https://dc.lft.to/lastmile_qr_scan"}, "lon": -77.01745733333334, "fusion_lon": 0.0, "is_disabled": 0, "lat": 38.9026095, "bike_id": "3d41d36823b51daa46b19a701a6aa0d9", "name": "3d41d36823b51daa46b19a701a6aa0d9", "is_reserved": 0, "fusion_lat": 0.0}, {"type": "electric_scooter", "rental_uris": {"ios": "https://dc.lft.to/lastmile_qr_scan", "android": "https://dc.lft.to/lastmile_qr_scan"}, "lon": -76.976323, "fusion_lon": 0.0, "is_disabled": 0, "lat": 38.85196633333334, "bike_id": "31807433864975794665fa8dd7f870c1", "name": "31807433864975794665fa8dd7f870c1", "is_reserved": 0, "fusion_lat": 0.0}, {"type": "electric_scooter", "rental_uris": {"ios": "https://dc.lft.to/lastmile_qr_scan", "android": "https://dc.lft.to/lastmile_qr_scan"}, "lon": -77.032191, "fusion_lon": 0.0, "is_disabled": 0, "lat": 38.902717, "bike_id": "8259603a6c2b560cd5c4327c4a461940", "name": "8259603a6c2b560cd5c4327c4a461940", "is_reserved": 0, "fusion_lat": 0.0}, {"type": "electric_scooter", "rental_uris": {"ios": "https://dc.lft.to/lastmile_qr_scan", "android": "https://dc.lft.to/lastmile_qr_scan"}, "lon": -76.98833466666666, "fusion_lon": 0.0, "is_disabled": 0, "lat": 38.892515333333336, "bike_id": "607f22586b00d7cd2488a7f1126f1e8d", "name": "607f22586b00d7cd2488a7f1126f1e8d", "is_reserved": 0, "fusion_lat": 0.0}, {"type": "electric_scooter", "rental_uris": {"ios": "https://dc.lft.to/lastmile_qr_scan", "android": "https://dc.lft.to/lastmile_qr_scan"}, "lon": -77.04031416666666, "fusion_lon": 0.0, "is_disabled": 0, "lat": 38.924439, "bike_id": "a12d8dbf2c6892cfafb647e210d13942", "name": "a12d8dbf2c6892cfafb647e210d13942", "is_reserved": 0, "fusion_lat": 0.0}, {"type": "electric_scooter", "rental_uris": {"ios": "https://dc.lft.to/lastmile_qr_scan", "android": "https://dc.lft.to/lastmile_qr_scan"}, "lon": -77.03165383333334, "fusion_lon": 0.0, "is_disabled": 0, "lat": 38.89981816666667, "bike_id": "5ba5af46edfaebb5789cacae3bf46976", "name": "5ba5af46edfaebb5789cacae3bf46976", "is_reserved": 0, "fusion_lat": 0.0}, {"type": "electric_scooter", "rental_uris": {"ios": "https://dc.lft.to/lastmile_qr_scan", "android": "https://dc.lft.to/lastmile_qr_scan"}, "lon": -77.04479366666666, "fusion_lon": 0.0, "is_disabled": 0, "lat": 38.9116435, "bike_id": "e78d11bfc46e9b4d378a04ccb3ff0aca", "name": "e78d11bfc46e9b4d378a04ccb3ff0aca", "is_reserved": 0, "fusion_lat": 0.0}, {"type": "electric_scooter", "rental_uris": {"ios": "https://dc.lft.to/lastmile_qr_scan", "android": "https://dc.lft.to/lastmile_qr_scan"}, "lon": -77.0328525, "fusion_lon": 0.0, "is_disabled": 0, "lat": 38.925559166666666, "bike_id": "87f406bd885f7599d131b87a83f28c56", "name": "87f406bd885f7599d131b87a83f28c56", "is_reserved": 0, "fusion_lat": 0.0}, {"type": "electric_scooter", "rental_uris": {"ios": "https://dc.lft.to/lastmile_qr_scan", "android": "https://dc.lft.to/lastmile_qr_scan"}, "lon": -77.01193816666667, "fusion_lon": 0.0, "is_disabled": 0, "lat": 38.90316583333333, "bike_id": "794b8c728613beb4c454c50f6f9bc8e9", "name": "794b8c728613beb4c454c50f6f9bc8e9", "is_reserved": 0, "fusion_lat": 0.0}, {"type": "electric_scooter", "rental_uris": {"ios": "https://dc.lft.to/lastmile_qr_scan", "android": "https://dc.lft.to/lastmile_qr_scan"}, "lon": -77.040187, "fusion_lon": 0.0, "is_disabled": 0, "lat": 38.923693166666666, "bike_id": "3c8e7c04c1f8499c196ec80c1d8d3cd9", "name": "3c8e7c04c1f8499c196ec80c1d8d3cd9", "is_reserved": 0, "fusion_lat": 0.0}, {"type": "electric_scooter", "rental_uris": {"ios": "https://dc.lft.to/lastmile_qr_scan", "android": "https://dc.lft.to/lastmile_qr_scan"}, "lon": -76.99776633333333, "fusion_lon": 0.0, "is_disabled": 0, "lat": 38.844223166666666, "bike_id": "97fff0d95b27c288b26ecea273691dd7", "name": "97fff0d95b27c288b26ecea273691dd7", "is_reserved": 0, "fusion_lat": 0.0}, {"type": "electric_scooter", "rental_uris": {"ios": "https://dc.lft.to/lastmile_qr_scan", "android": "https://dc.lft.to/lastmile_qr_scan"}, "lon": -77.0270395, "fusion_lon": 0.0, "is_disabled": 0, "lat": 38.906702333333335, "bike_id": "f0cc6a4f577aaf9a07511c338605c2aa", "name": "f0cc6a4f577aaf9a07511c338605c2aa", "is_reserved": 0, "fusion_lat": 0.0}, {"type": "electric_scooter", "rental_uris": {"ios": "https://dc.lft.to/lastmile_qr_scan", "android": "https://dc.lft.to/lastmile_qr_scan"}, "lon": -77.04043566666667, "fusion_lon": 0.0, "is_disabled": 0, "lat": 38.914100833333336, "bike_id": "9200064499f4b80a267a56581b39448f", "name": "9200064499f4b80a267a56581b39448f", "is_reserved": 0, "fusion_lat": 0.0}, {"type": "electric_scooter", "rental_uris": {"ios": "https://dc.lft.to/lastmile_qr_scan", "android": "https://dc.lft.to/lastmile_qr_scan"}, "lon": -76.9575785, "fusion_lon": 0.0, "is_disabled": 0, "lat": 38.88431216666667, "bike_id": "b3d5bb5a7dd0b1874cdded6e9edf1ed3", "name": "b3d5bb5a7dd0b1874cdded6e9edf1ed3", "is_reserved": 0, "fusion_lat": 0.0}, {"type": "electric_scooter", "rental_uris": {"ios": "https://dc.lft.to/lastmile_qr_scan", "android": "https://dc.lft.to/lastmile_qr_scan"}, "lon": -77.0344175, "fusion_lon": 0.0, "is_disabled": 0, "lat": 38.930907166666664, "bike_id": "7b6d8860afd0759cc383e073760503c7", "name": "7b6d8860afd0759cc383e073760503c7", "is_reserved": 0, "fusion_lat": 0.0}, {"type": "electric_scooter", "rental_uris": {"ios": "https://dc.lft.to/lastmile_qr_scan", "android": "https://dc.lft.to/lastmile_qr_scan"}, "lon": -77.02126833333334, "fusion_lon": 0.0, "is_disabled": 0, "lat": 38.8874645, "bike_id": "0b7e3441e0cd893b21a00c76a30dd0db", "name": "0b7e3441e0cd893b21a00c76a30dd0db", "is_reserved": 0, "fusion_lat": 0.0}, {"type": "electric_scooter", "rental_uris": {"ios": "https://dc.lft.to/lastmile_qr_scan", "android": "https://dc.lft.to/lastmile_qr_scan"}, "lon": -76.95525933333333, "fusion_lon": 0.0, "is_disabled": 0, "lat": 38.887812, "bike_id": "958e3bc52269da5559e5c74025b6f132", "name": "958e3bc52269da5559e5c74025b6f132", "is_reserved": 0, "fusion_lat": 0.0}, {"type": "electric_bike", "rental_uris": {"ios": "https://dc.lft.to/lastmile_qr_scan", "android": "https://dc.lft.to/lastmile_qr_scan"}, "lon": -77.10603316666666, "fusion_lon": 0.0, "is_disabled": 0, "lat": 38.9289705, "bike_id": "b2368ea7987b313dbdc3d6e519b0b5a9", "name": "b2368ea7987b313dbdc3d6e519b0b5a9", "is_reserved": 0, "fusion_lat": 0.0}, {"type": "electric_scooter", "rental_uris": {"ios": "https://dc.lft.to/lastmile_qr_scan", "android": "https://dc.lft.to/lastmile_qr_scan"}, "lon": -77.01569583333334, "fusion_lon": 0.0, "is_disabled": 0, "lat": 38.916946, "bike_id": "41eed4e0c91c8ee17af98e0fcdf3ef68", "name": "41eed4e0c91c8ee17af98e0fcdf3ef68", "is_reserved": 0, "fusion_lat": 0.0}, {"type": "electric_scooter", "rental_uris": {"ios": "https://dc.lft.to/lastmile_qr_scan", "android": "https://dc.lft.to/lastmile_qr_scan"}, "lon": -77.011407, "fusion_lon": 0.0, "is_disabled": 0, "lat": 38.9170395, "bike_id": "84f0ed8ad9bb9043ec8a3d890476f056", "name": "84f0ed8ad9bb9043ec8a3d890476f056", "is_reserved": 0, "fusion_lat": 0.0}, {"type": "electric_scooter", "rental_uris": {"ios": "https://dc.lft.to/lastmile_qr_scan", "android": "https://dc.lft.to/lastmile_qr_scan"}, "lon": -77.01323816666667, "fusion_lon": 0.0, "is_disabled": 0, "lat": 38.90606016666667, "bike_id": "d91240332ab2a0098b5dfc20f61aec42", "name": "d91240332ab2a0098b5dfc20f61aec42", "is_reserved": 0, "fusion_lat": 0.0}, {"type": "electric_scooter", "rental_uris": {"ios": "https://dc.lft.to/lastmile_qr_scan", "android": "https://dc.lft.to/lastmile_qr_scan"}, "lon": -77.03835816666667, "fusion_lon": 0.0, "is_disabled": 0, "lat": 38.90849933333333, "bike_id": "31d0a1cc7b75054207b6e0581f1f4fb0", "name": "31d0a1cc7b75054207b6e0581f1f4fb0", "is_reserved": 0, "fusion_lat": 0.0}, {"type": "electric_scooter", "rental_uris": {"ios": "https://dc.lft.to/lastmile_qr_scan", "android": "https://dc.lft.to/lastmile_qr_scan"}, "lon": -77.03142983333333, "fusion_lon": 0.0, "is_disabled": 0, "lat": 38.91563416666666, "bike_id": "3244c0cbcf0595ca3f2f640c5b9525c9", "name": "3244c0cbcf0595ca3f2f640c5b9525c9", "is_reserved": 0, "fusion_lat": 0.0}, {"type": "electric_scooter", "rental_uris": {"ios": "https://dc.lft.to/lastmile_qr_scan", "android": "https://dc.lft.to/lastmile_qr_scan"}, "lon": -77.01699983333333, "fusion_lon": 0.0, "is_disabled": 0, "lat": 38.913861833333335, "bike_id": "2fd351bcd6901bf3bc95bc725411bd86", "name": "2fd351bcd6901bf3bc95bc725411bd86", "is_reserved": 0, "fusion_lat": 0.0}, {"type": "electric_scooter", "rental_uris": {"ios": "https://dc.lft.to/lastmile_qr_scan", "android": "https://dc.lft.to/lastmile_qr_scan"}, "lon": -77.03695966666666, "fusion_lon": 0.0, "is_disabled": 0, "lat": 38.92615683333333, "bike_id": "9a12a596f20ce6b0f6e4911533db51b4", "name": "9a12a596f20ce6b0f6e4911533db51b4", "is_reserved": 0, "fusion_lat": 0.0}, {"type": "electric_scooter", "rental_uris": {"ios": "https://dc.lft.to/lastmile_qr_scan", "android": "https://dc.lft.to/lastmile_qr_scan"}, "lon": -77.024911, "fusion_lon": 0.0, "is_disabled": 0, "lat": 38.9418415, "bike_id": "11b24d37aba72db688c04f8e5ff45252", "name": "11b24d37aba72db688c04f8e5ff45252", "is_reserved": 0, "fusion_lat": 0.0}, {"type": "electric_scooter", "rental_uris": {"ios": "https://dc.lft.to/lastmile_qr_scan", "android": "https://dc.lft.to/lastmile_qr_scan"}, "lon": -77.058583, "fusion_lon": 0.0, "is_disabled": 0, "lat": 38.93547266666667, "bike_id": "016c699ae35864f3391c132d11ccfb6a", "name": "016c699ae35864f3391c132d11ccfb6a", "is_reserved": 0, "fusion_lat": 0.0}, {"type": "electric_scooter", "rental_uris": {"ios": "https://dc.lft.to/lastmile_qr_scan", "android": "https://dc.lft.to/lastmile_qr_scan"}, "lon": -77.03261016666667, "fusion_lon": 0.0, "is_disabled": 0, "lat": 38.91567216666667, "bike_id": "bdc164574f9ecb5702dc3a03ca01b47f", "name": "bdc164574f9ecb5702dc3a03ca01b47f", "is_reserved": 0, "fusion_lat": 0.0}, {"type": "electric_scooter", "rental_uris": {"ios": "https://dc.lft.to/lastmile_qr_scan", "android": "https://dc.lft.to/lastmile_qr_scan"}, "lon": -77.03205466666667, "fusion_lon": 0.0, "is_disabled": 0, "lat": 38.91199066666667, "bike_id": "d22362caf58bc61e0f33bae0342b5b56", "name": "d22362caf58bc61e0f33bae0342b5b56", "is_reserved": 0, "fusion_lat": 0.0}, {"type": "electric_scooter", "rental_uris": {"ios": "https://dc.lft.to/lastmile_qr_scan", "android": "https://dc.lft.to/lastmile_qr_scan"}, "lon": -77.0060695, "fusion_lon": 0.0, "is_disabled": 0, "lat": 38.87182766666667, "bike_id": "e66e3b199dbb6126b4c035e5aa8f50fb", "name": "e66e3b199dbb6126b4c035e5aa8f50fb", "is_reserved": 0, "fusion_lat": 0.0}, {"type": "electric_scooter", "rental_uris": {"ios": "https://dc.lft.to/lastmile_qr_scan", "android": "https://dc.lft.to/lastmile_qr_scan"}, "lon": -77.009963, "fusion_lon": 0.0, "is_disabled": 0, "lat": 38.902595166666664, "bike_id": "79e58b369f3c49e386d52afa1bc5c438", "name": "79e58b369f3c49e386d52afa1bc5c438", "is_reserved": 0, "fusion_lat": 0.0}, {"type": "electric_scooter", "rental_uris": {"ios": "https://dc.lft.to/lastmile_qr_scan", "android": "https://dc.lft.to/lastmile_qr_scan"}, "lon": -77.023004, "fusion_lon": 0.0, "is_disabled": 0, "lat": 38.9260915, "bike_id": "c7ae0d414178b8fb798862f030679439", "name": "c7ae0d414178b8fb798862f030679439", "is_reserved": 0, "fusion_lat": 0.0}, {"type": "electric_scooter", "rental_uris": {"ios": "https://dc.lft.to/lastmile_qr_scan", "android": "https://dc.lft.to/lastmile_qr_scan"}, "lon": -77.05591616666666, "fusion_lon": 0.0, "is_disabled": 0, "lat": 38.90097033333333, "bike_id": "55103ce26b60182410f395fbb97379ab", "name": "55103ce26b60182410f395fbb97379ab", "is_reserved": 0, "fusion_lat": 0.0}, {"type": "electric_scooter", "rental_uris": {"ios": "https://dc.lft.to/lastmile_qr_scan", "android": "https://dc.lft.to/lastmile_qr_scan"}, "lon": -76.9329885, "fusion_lon": 0.0, "is_disabled": 0, "lat": 38.89222266666667, "bike_id": "2eb7c5e80116048918dcd1e4b96dead2", "name": "2eb7c5e80116048918dcd1e4b96dead2", "is_reserved": 0, "fusion_lat": 0.0}, {"type": "electric_scooter", "rental_uris": {"ios": "https://dc.lft.to/lastmile_qr_scan", "android": "https://dc.lft.to/lastmile_qr_scan"}, "lon": -77.04183633333334, "fusion_lon": 0.0, "is_disabled": 0, "lat": 38.89286216666667, "bike_id": "43309f9f9683c0a9b84f6ea2f9f2ad36", "name": "43309f9f9683c0a9b84f6ea2f9f2ad36", "is_reserved": 0, "fusion_lat": 0.0}, {"type": "electric_scooter", "rental_uris": {"ios": "https://dc.lft.to/lastmile_qr_scan", "android": "https://dc.lft.to/lastmile_qr_scan"}, "lon": -77.0510595, "fusion_lon": 0.0, "is_disabled": 0, "lat": 38.8966925, "bike_id": "70539ebb2ac031fbc94b4a5ceec09c74", "name": "70539ebb2ac031fbc94b4a5ceec09c74", "is_reserved": 0, "fusion_lat": 0.0}, {"type": "electric_scooter", "rental_uris": {"ios": "https://dc.lft.to/lastmile_qr_scan", "android": "https://dc.lft.to/lastmile_qr_scan"}, "lon": -77.01369033333333, "fusion_lon": 0.0, "is_disabled": 0, "lat": 38.892244166666664, "bike_id": "5c5c4dd39e5a9db2b36b358d65822b0f", "name": "5c5c4dd39e5a9db2b36b358d65822b0f", "is_reserved": 0, "fusion_lat": 0.0}, {"type": "electric_scooter", "rental_uris": {"ios": "https://dc.lft.to/lastmile_qr_scan", "android": "https://dc.lft.to/lastmile_qr_scan"}, "lon": -77.022118, "fusion_lon": 0.0, "is_disabled": 0, "lat": 38.88751666666667, "bike_id": "f50354c7261286e12d0a68b0dd8c19d7", "name": "f50354c7261286e12d0a68b0dd8c19d7", "is_reserved": 0, "fusion_lat": 0.0}, {"type": "electric_scooter", "rental_uris": {"ios": "https://dc.lft.to/lastmile_qr_scan", "android": "https://dc.lft.to/lastmile_qr_scan"}, "lon": -77.03410283333334, "fusion_lon": 0.0, "is_disabled": 0, "lat": 38.91923383333334, "bike_id": "2e4b45c929fbd75d1de4c4f2e27e02c5", "name": "2e4b45c929fbd75d1de4c4f2e27e02c5", "is_reserved": 0, "fusion_lat": 0.0}, {"type": "electric_scooter", "rental_uris": {"ios": "https://dc.lft.to/lastmile_qr_scan", "android": "https://dc.lft.to/lastmile_qr_scan"}, "lon": -77.02494733333333, "fusion_lon": 0.0, "is_disabled": 0, "lat": 38.941863166666664, "bike_id": "5ae2ce292d5f1eb0c9b7b3dfb26bc670", "name": "5ae2ce292d5f1eb0c9b7b3dfb26bc670", "is_reserved": 0, "fusion_lat": 0.0}, {"type": "electric_scooter", "rental_uris": {"ios": "https://dc.lft.to/lastmile_qr_scan", "android": "https://dc.lft.to/lastmile_qr_scan"}, "lon": -77.04283933333333, "fusion_lon": 0.0, "is_disabled": 0, "lat": 38.920627833333334, "bike_id": "d2af88135b1005754b6e2d0ca19c6fd9", "name": "d2af88135b1005754b6e2d0ca19c6fd9", "is_reserved": 0, "fusion_lat": 0.0}, {"type": "electric_scooter", "rental_uris": {"ios": "https://dc.lft.to/lastmile_qr_scan", "android": "https://dc.lft.to/lastmile_qr_scan"}, "lon": -77.0336265, "fusion_lon": 0.0, "is_disabled": 0, "lat": 38.9135965, "bike_id": "29077cac130590026f471e3c8a2d2317", "name": "29077cac130590026f471e3c8a2d2317", "is_reserved": 0, "fusion_lat": 0.0}, {"type": "electric_scooter", "rental_uris": {"ios": "https://dc.lft.to/lastmile_qr_scan", "android": "https://dc.lft.to/lastmile_qr_scan"}, "lon": -77.0329615, "fusion_lon": 0.0, "is_disabled": 0, "lat": 38.9471405, "bike_id": "6babac50776150504a6e61df55a1f7d4", "name": "6babac50776150504a6e61df55a1f7d4", "is_reserved": 0, "fusion_lat": 0.0}, {"type": "electric_scooter", "rental_uris": {"ios": "https://dc.lft.to/lastmile_qr_scan", "android": "https://dc.lft.to/lastmile_qr_scan"}, "lon": -77.02639016666667, "fusion_lon": 0.0, "is_disabled": 0, "lat": 38.899533166666664, "bike_id": "43fd15b79c4243090e693b222aace0c5", "name": "43fd15b79c4243090e693b222aace0c5", "is_reserved": 0, "fusion_lat": 0.0}, {"type": "electric_scooter", "rental_uris": {"ios": "https://dc.lft.to/lastmile_qr_scan", "android": "https://dc.lft.to/lastmile_qr_scan"}, "lon": -77.01972383333333, "fusion_lon": 0.0, "is_disabled": 0, "lat": 38.930010833333334, "bike_id": "467ee90abe0791970e71935d863133bc", "name": "467ee90abe0791970e71935d863133bc", "is_reserved": 0, "fusion_lat": 0.0}, {"type": "electric_scooter", "rental_uris": {"ios": "https://dc.lft.to/lastmile_qr_scan", "android": "https://dc.lft.to/lastmile_qr_scan"}, "lon": -76.98172216666667, "fusion_lon": 0.0, "is_disabled": 0, "lat": 38.8568085, "bike_id": "39ca2df73ee82e4caa195ca379a9d0b1", "name": "39ca2df73ee82e4caa195ca379a9d0b1", "is_reserved": 0, "fusion_lat": 0.0}, {"type": "electric_scooter", "rental_uris": {"ios": "https://dc.lft.to/lastmile_qr_scan", "android": "https://dc.lft.to/lastmile_qr_scan"}, "lon": -77.04310716666667, "fusion_lon": 0.0, "is_disabled": 0, "lat": 38.9012195, "bike_id": "864cb25a7a9cdb9f2670fb62be4c14fb", "name": "864cb25a7a9cdb9f2670fb62be4c14fb", "is_reserved": 0, "fusion_lat": 0.0}, {"type": "electric_bike", "rental_uris": {"ios": "https://dc.lft.to/lastmile_qr_scan", "android": "https://dc.lft.to/lastmile_qr_scan"}, "lon": -76.997714, "fusion_lon": 0.0, "is_disabled": 0, "lat": 38.83744133333333, "bike_id": "c4a9c5b552c172efe2e348abf3c78cb2", "name": "c4a9c5b552c172efe2e348abf3c78cb2", "is_reserved": 0, "fusion_lat": 0.0}, {"type": "electric_bike", "rental_uris": {"ios": "https://dc.lft.to/lastmile_qr_scan", "android": "https://dc.lft.to/lastmile_qr_scan"}, "lon": -76.99131366666667, "fusion_lon": 0.0, "is_disabled": 0, "lat": 38.846383333333335, "bike_id": "c5ecd4a87cae24537762e54e5fb36240", "name": "c5ecd4a87cae24537762e54e5fb36240", "is_reserved": 0, "fusion_lat": 0.0}, {"type": "electric_scooter", "rental_uris": {"ios": "https://dc.lft.to/lastmile_qr_scan", "android": "https://dc.lft.to/lastmile_qr_scan"}, "lon": -77.0727115, "fusion_lon": 0.0, "is_disabled": 0, "lat": 38.93487666666667, "bike_id": "bdb3aa6991191a7c04e8c49961ec8f30", "name": "bdb3aa6991191a7c04e8c49961ec8f30", "is_reserved": 0, "fusion_lat": 0.0}, {"type": "electric_scooter", "rental_uris": {"ios": "https://dc.lft.to/lastmile_qr_scan", "android": "https://dc.lft.to/lastmile_qr_scan"}, "lon": -77.03743983333334, "fusion_lon": 0.0, "is_disabled": 0, "lat": 38.929409, "bike_id": "9d8c6db323db30fca0ee47b87f7efbfc", "name": "9d8c6db323db30fca0ee47b87f7efbfc", "is_reserved": 0, "fusion_lat": 0.0}, {"type": "electric_scooter", "rental_uris": {"ios": "https://dc.lft.to/lastmile_qr_scan", "android": "https://dc.lft.to/lastmile_qr_scan"}, "lon": -76.94875466666667, "fusion_lon": 0.0, "is_disabled": 0, "lat": 38.8950105, "bike_id": "b6aae83e0a9d26b886076ac8b59d9391", "name": "b6aae83e0a9d26b886076ac8b59d9391", "is_reserved": 0, "fusion_lat": 0.0}, {"type": "electric_bike", "rental_uris": {"ios": "https://dc.lft.to/lastmile_qr_scan", "android": "https://dc.lft.to/lastmile_qr_scan"}, "lon": -77.05644766666667, "fusion_lon": 0.0, "is_disabled": 0, "lat": 38.936903, "bike_id": "eaa8d82b37788fa17aa9ef34e4760e33", "name": "eaa8d82b37788fa17aa9ef34e4760e33", "is_reserved": 0, "fusion_lat": 0.0}, {"type": "electric_scooter", "rental_uris": {"ios": "https://dc.lft.to/lastmile_qr_scan", "android": "https://dc.lft.to/lastmile_qr_scan"}, "lon": -77.02473783333333, "fusion_lon": 0.0, "is_disabled": 0, "lat": 38.9309695, "bike_id": "714c938dcf5d329c0a8f3bcb964673b4", "name": "714c938dcf5d329c0a8f3bcb964673b4", "is_reserved": 0, "fusion_lat": 0.0}, {"type": "electric_scooter", "rental_uris": {"ios": "https://dc.lft.to/lastmile_qr_scan", "android": "https://dc.lft.to/lastmile_qr_scan"}, "lon": -77.022218, "fusion_lon": 0.0, "is_disabled": 0, "lat": 38.892197833333334, "bike_id": "d5c8c8c67f6d21d74c1ba4c188266e2d", "name": "d5c8c8c67f6d21d74c1ba4c188266e2d", "is_reserved": 0, "fusion_lat": 0.0}, {"type": "electric_scooter", "rental_uris": {"ios": "https://dc.lft.to/lastmile_qr_scan", "android": "https://dc.lft.to/lastmile_qr_scan"}, "lon": -77.041713, "fusion_lon": 0.0, "is_disabled": 0, "lat": 38.9181285, "bike_id": "79a6b4f52a5d6ad92ce287e265bade7f", "name": "79a6b4f52a5d6ad92ce287e265bade7f", "is_reserved": 0, "fusion_lat": 0.0}, {"type": "electric_scooter", "rental_uris": {"ios": "https://dc.lft.to/lastmile_qr_scan", "android": "https://dc.lft.to/lastmile_qr_scan"}, "lon": -77.02718983333334, "fusion_lon": 0.0, "is_disabled": 0, "lat": 38.9068745, "bike_id": "35319e8c17a506570734a6cdb094c4e5", "name": "35319e8c17a506570734a6cdb094c4e5", "is_reserved": 0, "fusion_lat": 0.0}, {"type": "electric_scooter", "rental_uris": {"ios": "https://dc.lft.to/lastmile_qr_scan", "android": "https://dc.lft.to/lastmile_qr_scan"}, "lon": -77.0465945, "fusion_lon": 0.0, "is_disabled": 0, "lat": 38.892413833333336, "bike_id": "a39e2f46ee52985e905d0d8c82fb10b6", "name": "a39e2f46ee52985e905d0d8c82fb10b6", "is_reserved": 0, "fusion_lat": 0.0}, {"type": "electric_scooter", "rental_uris": {"ios": "https://dc.lft.to/lastmile_qr_scan", "android": "https://dc.lft.to/lastmile_qr_scan"}, "lon": -77.02327666666666, "fusion_lon": 0.0, "is_disabled": 0, "lat": 38.916793, "bike_id": "4df67bda8745973096ce49660e407ff8", "name": "4df67bda8745973096ce49660e407ff8", "is_reserved": 0, "fusion_lat": 0.0}, {"type": "electric_scooter", "rental_uris": {"ios": "https://dc.lft.to/lastmile_qr_scan", "android": "https://dc.lft.to/lastmile_qr_scan"}, "lon": -77.04531216666666, "fusion_lon": 0.0, "is_disabled": 0, "lat": 38.91820366666666, "bike_id": "1425cb345da296e32c70a7c735501629", "name": "1425cb345da296e32c70a7c735501629", "is_reserved": 0, "fusion_lat": 0.0}, {"type": "electric_scooter", "rental_uris": {"ios": "https://dc.lft.to/lastmile_qr_scan", "android": "https://dc.lft.to/lastmile_qr_scan"}, "lon": -77.04003166666666, "fusion_lon": 0.0, "is_disabled": 0, "lat": 38.92168066666667, "bike_id": "d3bd19f62d700feb24a58997ce3a3c6c", "name": "d3bd19f62d700feb24a58997ce3a3c6c", "is_reserved": 0, "fusion_lat": 0.0}, {"type": "electric_scooter", "rental_uris": {"ios": "https://dc.lft.to/lastmile_qr_scan", "android": "https://dc.lft.to/lastmile_qr_scan"}, "lon": -76.96864016666666, "fusion_lon": 0.0, "is_disabled": 0, "lat": 38.870929, "bike_id": "f452e43c3b35a6592ebbe99de8edd11c", "name": "f452e43c3b35a6592ebbe99de8edd11c", "is_reserved": 0, "fusion_lat": 0.0}, {"type": "electric_scooter", "rental_uris": {"ios": "https://dc.lft.to/lastmile_qr_scan", "android": "https://dc.lft.to/lastmile_qr_scan"}, "lon": -77.033637, "fusion_lon": 0.0, "is_disabled": 0, "lat": 38.887591, "bike_id": "d6f5c657d65b29a9614e77eabd3381fc", "name": "d6f5c657d65b29a9614e77eabd3381fc", "is_reserved": 0, "fusion_lat": 0.0}, {"type": "electric_scooter", "rental_uris": {"ios": "https://dc.lft.to/lastmile_qr_scan", "android": "https://dc.lft.to/lastmile_qr_scan"}, "lon": -76.99503033333333, "fusion_lon": 0.0, "is_disabled": 0, "lat": 38.894898, "bike_id": "8776c1a934b07146c843299d70ffd087", "name": "8776c1a934b07146c843299d70ffd087", "is_reserved": 0, "fusion_lat": 0.0}, {"type": "electric_scooter", "rental_uris": {"ios": "https://dc.lft.to/lastmile_qr_scan", "android": "https://dc.lft.to/lastmile_qr_scan"}, "lon": -77.04505483333334, "fusion_lon": 0.0, "is_disabled": 0, "lat": 38.89224816666667, "bike_id": "f377d2329d98dcf74c15cb61cd63d6c8", "name": "f377d2329d98dcf74c15cb61cd63d6c8", "is_reserved": 0, "fusion_lat": 0.0}, {"type": "electric_scooter", "rental_uris": {"ios": "https://dc.lft.to/lastmile_qr_scan", "android": "https://dc.lft.to/lastmile_qr_scan"}, "lon": -76.966038, "fusion_lon": 0.0, "is_disabled": 0, "lat": 38.87390516666667, "bike_id": "246de4a40ccedb9b0994e425112386dd", "name": "246de4a40ccedb9b0994e425112386dd", "is_reserved": 0, "fusion_lat": 0.0}, {"type": "electric_scooter", "rental_uris": {"ios": "https://dc.lft.to/lastmile_qr_scan", "android": "https://dc.lft.to/lastmile_qr_scan"}, "lon": -77.03796683333333, "fusion_lon": 0.0, "is_disabled": 0, "lat": 38.926224500000004, "bike_id": "39b2b5419eb2c2c1ea2eeb46dcb969a8", "name": "39b2b5419eb2c2c1ea2eeb46dcb969a8", "is_reserved": 0, "fusion_lat": 0.0}, {"type": "electric_scooter", "rental_uris": {"ios": "https://dc.lft.to/lastmile_qr_scan", "android": "https://dc.lft.to/lastmile_qr_scan"}, "lon": -77.04372183333334, "fusion_lon": 0.0, "is_disabled": 0, "lat": 38.92119116666667, "bike_id": "1c430c20be521370e088215ae64fe129", "name": "1c430c20be521370e088215ae64fe129", "is_reserved": 0, "fusion_lat": 0.0}, {"type": "electric_scooter", "rental_uris": {"ios": "https://dc.lft.to/lastmile_qr_scan", "android": "https://dc.lft.to/lastmile_qr_scan"}, "lon": -77.03377016666667, "fusion_lon": 0.0, "is_disabled": 0, "lat": 38.92146283333334, "bike_id": "8703b52bcbefcb6ca236d4c6c84d736a", "name": "8703b52bcbefcb6ca236d4c6c84d736a", "is_reserved": 0, "fusion_lat": 0.0}, {"type": "electric_scooter", "rental_uris": {"ios": "https://dc.lft.to/lastmile_qr_scan", "android": "https://dc.lft.to/lastmile_qr_scan"}, "lon": -77.02774783333334, "fusion_lon": 0.0, "is_disabled": 0, "lat": 38.892208833333335, "bike_id": "33d83d004a2559b01b543d0f67ab4533", "name": "33d83d004a2559b01b543d0f67ab4533", "is_reserved": 0, "fusion_lat": 0.0}, {"type": "electric_scooter", "rental_uris": {"ios": "https://dc.lft.to/lastmile_qr_scan", "android": "https://dc.lft.to/lastmile_qr_scan"}, "lon": -77.038454, "fusion_lon": 0.0, "is_disabled": 0, "lat": 38.932564166666666, "bike_id": "57ff0182c6d66a47e004d77326da0476", "name": "57ff0182c6d66a47e004d77326da0476", "is_reserved": 0, "fusion_lat": 0.0}, {"type": "electric_scooter", "rental_uris": {"ios": "https://dc.lft.to/lastmile_qr_scan", "android": "https://dc.lft.to/lastmile_qr_scan"}, "lon": -77.031802, "fusion_lon": 0.0, "is_disabled": 0, "lat": 38.907931833333336, "bike_id": "e60e223c3c00e4cc2e8a9053306309c4", "name": "e60e223c3c00e4cc2e8a9053306309c4", "is_reserved": 0, "fusion_lat": 0.0}, {"type": "electric_bike", "rental_uris": {"ios": "https://dc.lft.to/lastmile_qr_scan", "android": "https://dc.lft.to/lastmile_qr_scan"}, "lon": -76.93649183333333, "fusion_lon": 0.0, "is_disabled": 0, "lat": 38.871557833333334, "bike_id": "ab734d6a297a38a597e4ccec0e53005a", "name": "ab734d6a297a38a597e4ccec0e53005a", "is_reserved": 0, "fusion_lat": 0.0}, {"type": "electric_scooter", "rental_uris": {"ios": "https://dc.lft.to/lastmile_qr_scan", "android": "https://dc.lft.to/lastmile_qr_scan"}, "lon": -77.02972933333334, "fusion_lon": 0.0, "is_disabled": 0, "lat": 38.916872833333336, "bike_id": "aecb13efa421cc74593f253dd1b6aac3", "name": "aecb13efa421cc74593f253dd1b6aac3", "is_reserved": 0, "fusion_lat": 0.0}, {"type": "electric_scooter", "rental_uris": {"ios": "https://dc.lft.to/lastmile_qr_scan", "android": "https://dc.lft.to/lastmile_qr_scan"}, "lon": -76.97438366666667, "fusion_lon": 0.0, "is_disabled": 0, "lat": 38.86427666666667, "bike_id": "ea03b6f72b5f807b9f30cef6671140da", "name": "ea03b6f72b5f807b9f30cef6671140da", "is_reserved": 0, "fusion_lat": 0.0}, {"type": "electric_scooter", "rental_uris": {"ios": "https://dc.lft.to/lastmile_qr_scan", "android": "https://dc.lft.to/lastmile_qr_scan"}, "lon": -77.0265195, "fusion_lon": 0.0, "is_disabled": 0, "lat": 38.892204166666666, "bike_id": "7b6d0266e98888655bc7be7b6896bbed", "name": "7b6d0266e98888655bc7be7b6896bbed", "is_reserved": 0, "fusion_lat": 0.0}, {"type": "electric_scooter", "rental_uris": {"ios": "https://dc.lft.to/lastmile_qr_scan", "android": "https://dc.lft.to/lastmile_qr_scan"}, "lon": -77.02095583333333, "fusion_lon": 0.0, "is_disabled": 0, "lat": 38.931158, "bike_id": "7894d72c92893671cd4dbb1022c56712", "name": "7894d72c92893671cd4dbb1022c56712", "is_reserved": 0, "fusion_lat": 0.0}, {"type": "electric_scooter", "rental_uris": {"ios": "https://dc.lft.to/lastmile_qr_scan", "android": "https://dc.lft.to/lastmile_qr_scan"}, "lon": -76.9262175, "fusion_lon": 0.0, "is_disabled": 0, "lat": 38.884587333333336, "bike_id": "a859318946666eedcc2bdf698d588892", "name": "a859318946666eedcc2bdf698d588892", "is_reserved": 0, "fusion_lat": 0.0}, {"type": "electric_scooter", "rental_uris": {"ios": "https://dc.lft.to/lastmile_qr_scan", "android": "https://dc.lft.to/lastmile_qr_scan"}, "lon": -77.02597183333333, "fusion_lon": 0.0, "is_disabled": 0, "lat": 38.916940833333335, "bike_id": "0876d749109994cb9a127be6c98a6e1d", "name": "0876d749109994cb9a127be6c98a6e1d", "is_reserved": 0, "fusion_lat": 0.0}, {"type": "electric_scooter", "rental_uris": {"ios": "https://dc.lft.to/lastmile_qr_scan", "android": "https://dc.lft.to/lastmile_qr_scan"}, "lon": -76.99515633333333, "fusion_lon": 0.0, "is_disabled": 0, "lat": 38.86256866666667, "bike_id": "e12e541ec653453fb74054451e9f0c27", "name": "e12e541ec653453fb74054451e9f0c27", "is_reserved": 0, "fusion_lat": 0.0}, {"type": "electric_scooter", "rental_uris": {"ios": "https://dc.lft.to/lastmile_qr_scan", "android": "https://dc.lft.to/lastmile_qr_scan"}, "lon": -77.0451335, "fusion_lon": 0.0, "is_disabled": 0, "lat": 38.91968633333333, "bike_id": "a397861d7654431a715d7a100ff33ae5", "name": "a397861d7654431a715d7a100ff33ae5", "is_reserved": 0, "fusion_lat": 0.0}, {"type": "electric_scooter", "rental_uris": {"ios": "https://dc.lft.to/lastmile_qr_scan", "android": "https://dc.lft.to/lastmile_qr_scan"}, "lon": -76.98985316666666, "fusion_lon": 0.0, "is_disabled": 0, "lat": 38.8649815, "bike_id": "39f9e3bcfd6b966beec07dac96ab5bbd", "name": "39f9e3bcfd6b966beec07dac96ab5bbd", "is_reserved": 0, "fusion_lat": 0.0}, {"type": "electric_scooter", "rental_uris": {"ios": "https://dc.lft.to/lastmile_qr_scan", "android": "https://dc.lft.to/lastmile_qr_scan"}, "lon": -77.002116, "fusion_lon": 0.0, "is_disabled": 0, "lat": 38.920511833333336, "bike_id": "6f4228cfd546d2d0dd95ca8741f12425", "name": "6f4228cfd546d2d0dd95ca8741f12425", "is_reserved": 0, "fusion_lat": 0.0}, {"type": "electric_scooter", "rental_uris": {"ios": "https://dc.lft.to/lastmile_qr_scan", "android": "https://dc.lft.to/lastmile_qr_scan"}, "lon": -77.04471333333333, "fusion_lon": 0.0, "is_disabled": 0, "lat": 38.9093635, "bike_id": "7494863fea61b9282d36fa390515e99f", "name": "7494863fea61b9282d36fa390515e99f", "is_reserved": 0, "fusion_lat": 0.0}, {"type": "electric_bike", "rental_uris": {"ios": "https://dc.lft.to/lastmile_qr_scan", "android": "https://dc.lft.to/lastmile_qr_scan"}, "lon": -77.03428516666666, "fusion_lon": 0.0, "is_disabled": 0, "lat": 38.96618466666666, "bike_id": "d762a26e859ed49b24f9107aeab9d89b", "name": "d762a26e859ed49b24f9107aeab9d89b", "is_reserved": 0, "fusion_lat": 0.0}, {"type": "electric_scooter", "rental_uris": {"ios": "https://dc.lft.to/lastmile_qr_scan", "android": "https://dc.lft.to/lastmile_qr_scan"}, "lon": -77.035803, "fusion_lon": 0.0, "is_disabled": 0, "lat": 38.93474766666667, "bike_id": "1ac97414e292757b78278af31182612b", "name": "1ac97414e292757b78278af31182612b", "is_reserved": 0, "fusion_lat": 0.0}, {"type": "electric_scooter", "rental_uris": {"ios": "https://dc.lft.to/lastmile_qr_scan", "android": "https://dc.lft.to/lastmile_qr_scan"}, "lon": -77.02784433333333, "fusion_lon": 0.0, "is_disabled": 0, "lat": 38.896930833333336, "bike_id": "a262e08fb1ea6b969e172d4f2fef8bdd", "name": "a262e08fb1ea6b969e172d4f2fef8bdd", "is_reserved": 0, "fusion_lat": 0.0}, {"type": "electric_scooter", "rental_uris": {"ios": "https://dc.lft.to/lastmile_qr_scan", "android": "https://dc.lft.to/lastmile_qr_scan"}, "lon": -77.05240733333333, "fusion_lon": 0.0, "is_disabled": 0, "lat": 38.9246785, "bike_id": "c7975cd09d4d2d7e5583773adba6e575", "name": "c7975cd09d4d2d7e5583773adba6e575", "is_reserved": 0, "fusion_lat": 0.0}, {"type": "electric_bike", "rental_uris": {"ios": "https://dc.lft.to/lastmile_qr_scan", "android": "https://dc.lft.to/lastmile_qr_scan"}, "lon": -77.04975216666666, "fusion_lon": 0.0, "is_disabled": 0, "lat": 38.83220933333333, "bike_id": "f4a5397dd7f2f0ff811df0fbe6193145", "name": "f4a5397dd7f2f0ff811df0fbe6193145", "is_reserved": 0, "fusion_lat": 0.0}, {"type": "electric_scooter", "rental_uris": {"ios": "https://dc.lft.to/lastmile_qr_scan", "android": "https://dc.lft.to/lastmile_qr_scan"}, "lon": -77.02241683333334, "fusion_lon": 0.0, "is_disabled": 0, "lat": 38.8786855, "bike_id": "2ec18220524b8a075c86b40a06df72d6", "name": "2ec18220524b8a075c86b40a06df72d6", "is_reserved": 0, "fusion_lat": 0.0}, {"type": "electric_scooter", "rental_uris": {"ios": "https://dc.lft.to/lastmile_qr_scan", "android": "https://dc.lft.to/lastmile_qr_scan"}, "lon": -77.02490266666666, "fusion_lon": 0.0, "is_disabled": 0, "lat": 38.919546833333335, "bike_id": "8406e98f2660bcac05e4a5703771ea5b", "name": "8406e98f2660bcac05e4a5703771ea5b", "is_reserved": 0, "fusion_lat": 0.0}, {"type": "electric_scooter", "rental_uris": {"ios": "https://dc.lft.to/lastmile_qr_scan", "android": "https://dc.lft.to/lastmile_qr_scan"}, "lon": -77.0283845, "fusion_lon": 0.0, "is_disabled": 0, "lat": 38.8923025, "bike_id": "71a908b7c94239ed010bf8c3d4ef6be7", "name": "71a908b7c94239ed010bf8c3d4ef6be7", "is_reserved": 0, "fusion_lat": 0.0}, {"type": "electric_scooter", "rental_uris": {"ios": "https://dc.lft.to/lastmile_qr_scan", "android": "https://dc.lft.to/lastmile_qr_scan"}, "lon": -76.95334583333333, "fusion_lon": 0.0, "is_disabled": 0, "lat": 38.89237683333333, "bike_id": "dc0a4bb3811230709079bd89822883ce", "name": "dc0a4bb3811230709079bd89822883ce", "is_reserved": 0, "fusion_lat": 0.0}, {"type": "electric_scooter", "rental_uris": {"ios": "https://dc.lft.to/lastmile_qr_scan", "android": "https://dc.lft.to/lastmile_qr_scan"}, "lon": -77.04173216666666, "fusion_lon": 0.0, "is_disabled": 0, "lat": 38.91730533333333, "bike_id": "b5ff8f4d56cc432a2987ab9ac3e16248", "name": "b5ff8f4d56cc432a2987ab9ac3e16248", "is_reserved": 0, "fusion_lat": 0.0}, {"type": "electric_scooter", "rental_uris": {"ios": "https://dc.lft.to/lastmile_qr_scan", "android": "https://dc.lft.to/lastmile_qr_scan"}, "lon": -77.04156966666666, "fusion_lon": 0.0, "is_disabled": 0, "lat": 38.91615133333333, "bike_id": "6f8084501a0956f8bf714c6a29628ecc", "name": "6f8084501a0956f8bf714c6a29628ecc", "is_reserved": 0, "fusion_lat": 0.0}, {"type": "electric_scooter", "rental_uris": {"ios": "https://dc.lft.to/lastmile_qr_scan", "android": "https://dc.lft.to/lastmile_qr_scan"}, "lon": -77.01339783333333, "fusion_lon": 0.0, "is_disabled": 0, "lat": 38.864199666666664, "bike_id": "efcf37230bd2290571e9688aafc2e9d4", "name": "efcf37230bd2290571e9688aafc2e9d4", "is_reserved": 0, "fusion_lat": 0.0}, {"type": "electric_scooter", "rental_uris": {"ios": "https://dc.lft.to/lastmile_qr_scan", "android": "https://dc.lft.to/lastmile_qr_scan"}, "lon": -77.0218085, "fusion_lon": 0.0, "is_disabled": 0, "lat": 38.898839333333335, "bike_id": "a760316885f4baa08f254f18c145160f", "name": "a760316885f4baa08f254f18c145160f", "is_reserved": 0, "fusion_lat": 0.0}, {"type": "electric_scooter", "rental_uris": {"ios": "https://dc.lft.to/lastmile_qr_scan", "android": "https://dc.lft.to/lastmile_qr_scan"}, "lon": -77.03591183333333, "fusion_lon": 0.0, "is_disabled": 0, "lat": 38.93744983333333, "bike_id": "5227214b7df49c071fa37c273c6d1888", "name": "5227214b7df49c071fa37c273c6d1888", "is_reserved": 0, "fusion_lat": 0.0}, {"type": "electric_scooter", "rental_uris": {"ios": "https://dc.lft.to/lastmile_qr_scan", "android": "https://dc.lft.to/lastmile_qr_scan"}, "lon": -77.02157383333333, "fusion_lon": 0.0, "is_disabled": 0, "lat": 38.939711, "bike_id": "b9a4ac172579c707137c75f92cfc7e74", "name": "b9a4ac172579c707137c75f92cfc7e74", "is_reserved": 0, "fusion_lat": 0.0}, {"type": "electric_scooter", "rental_uris": {"ios": "https://dc.lft.to/lastmile_qr_scan", "android": "https://dc.lft.to/lastmile_qr_scan"}, "lon": -77.02890766666667, "fusion_lon": 0.0, "is_disabled": 0, "lat": 38.907233833333336, "bike_id": "945e7ae11e4dfb1b555a7e9054d7fb2c", "name": "945e7ae11e4dfb1b555a7e9054d7fb2c", "is_reserved": 0, "fusion_lat": 0.0}, {"type": "electric_scooter", "rental_uris": {"ios": "https://dc.lft.to/lastmile_qr_scan", "android": "https://dc.lft.to/lastmile_qr_scan"}, "lon": -77.0209985, "fusion_lon": 0.0, "is_disabled": 0, "lat": 38.910770666666664, "bike_id": "38eb6238842b0ac49f83360d93090c82", "name": "38eb6238842b0ac49f83360d93090c82", "is_reserved": 0, "fusion_lat": 0.0}, {"type": "electric_scooter", "rental_uris": {"ios": "https://dc.lft.to/lastmile_qr_scan", "android": "https://dc.lft.to/lastmile_qr_scan"}, "lon": -77.0322025, "fusion_lon": 0.0, "is_disabled": 0, "lat": 38.89220533333334, "bike_id": "bfa5678f2b135f5b04e1fb594ee33e25", "name": "bfa5678f2b135f5b04e1fb594ee33e25", "is_reserved": 0, "fusion_lat": 0.0}, {"type": "electric_scooter", "rental_uris": {"ios": "https://dc.lft.to/lastmile_qr_scan", "android": "https://dc.lft.to/lastmile_qr_scan"}, "lon": -77.02855, "fusion_lon": 0.0, "is_disabled": 0, "lat": 38.925705666666666, "bike_id": "c9b726b09fc6b9d5dc058ecd25d52247", "name": "c9b726b09fc6b9d5dc058ecd25d52247", "is_reserved": 0, "fusion_lat": 0.0}, {"type": "electric_scooter", "rental_uris": {"ios": "https://dc.lft.to/lastmile_qr_scan", "android": "https://dc.lft.to/lastmile_qr_scan"}, "lon": -77.04689133333333, "fusion_lon": 0.0, "is_disabled": 0, "lat": 38.89726683333333, "bike_id": "14d28e718cd52a347379baa6e373267a", "name": "14d28e718cd52a347379baa6e373267a", "is_reserved": 0, "fusion_lat": 0.0}, {"type": "electric_scooter", "rental_uris": {"ios": "https://dc.lft.to/lastmile_qr_scan", "android": "https://dc.lft.to/lastmile_qr_scan"}, "lon": -77.00305533333334, "fusion_lon": 0.0, "is_disabled": 0, "lat": 38.924814166666664, "bike_id": "ae50bd28055705b72ef76d92f8e5f5f4", "name": "ae50bd28055705b72ef76d92f8e5f5f4", "is_reserved": 0, "fusion_lat": 0.0}, {"type": "electric_scooter", "rental_uris": {"ios": "https://dc.lft.to/lastmile_qr_scan", "android": "https://dc.lft.to/lastmile_qr_scan"}, "lon": -76.98610933333333, "fusion_lon": 0.0, "is_disabled": 0, "lat": 38.8800405, "bike_id": "20c10579983f4ae54e7aaca22b441005", "name": "20c10579983f4ae54e7aaca22b441005", "is_reserved": 0, "fusion_lat": 0.0}, {"type": "electric_scooter", "rental_uris": {"ios": "https://dc.lft.to/lastmile_qr_scan", "android": "https://dc.lft.to/lastmile_qr_scan"}, "lon": -77.02690433333333, "fusion_lon": 0.0, "is_disabled": 0, "lat": 38.91688933333333, "bike_id": "79a06691cc424b3f864b21e86f404969", "name": "79a06691cc424b3f864b21e86f404969", "is_reserved": 0, "fusion_lat": 0.0}, {"type": "electric_scooter", "rental_uris": {"ios": "https://dc.lft.to/lastmile_qr_scan", "android": "https://dc.lft.to/lastmile_qr_scan"}, "lon": -77.0436425, "fusion_lon": 0.0, "is_disabled": 0, "lat": 38.89222, "bike_id": "cb442da835bd584f57569b41d3fb1f5e", "name": "cb442da835bd584f57569b41d3fb1f5e", "is_reserved": 0, "fusion_lat": 0.0}, {"type": "electric_scooter", "rental_uris": {"ios": "https://dc.lft.to/lastmile_qr_scan", "android": "https://dc.lft.to/lastmile_qr_scan"}, "lon": -77.040127, "fusion_lon": 0.0, "is_disabled": 0, "lat": 38.922071833333334, "bike_id": "354be1b343938a0d90ef009cf6f450d3", "name": "354be1b343938a0d90ef009cf6f450d3", "is_reserved": 0, "fusion_lat": 0.0}, {"type": "electric_scooter", "rental_uris": {"ios": "https://dc.lft.to/lastmile_qr_scan", "android": "https://dc.lft.to/lastmile_qr_scan"}, "lon": -77.02788033333333, "fusion_lon": 0.0, "is_disabled": 0, "lat": 38.961299833333335, "bike_id": "805811301afa178ffe43be4c75b5d71f", "name": "805811301afa178ffe43be4c75b5d71f", "is_reserved": 0, "fusion_lat": 0.0}, {"type": "electric_scooter", "rental_uris": {"ios": "https://dc.lft.to/lastmile_qr_scan", "android": "https://dc.lft.to/lastmile_qr_scan"}, "lon": -77.02333416666667, "fusion_lon": 0.0, "is_disabled": 0, "lat": 38.917698, "bike_id": "027a564476a4034ea2058f228840eddf", "name": "027a564476a4034ea2058f228840eddf", "is_reserved": 0, "fusion_lat": 0.0}, {"type": "electric_scooter", "rental_uris": {"ios": "https://dc.lft.to/lastmile_qr_scan", "android": "https://dc.lft.to/lastmile_qr_scan"}, "lon": -77.0447195, "fusion_lon": 0.0, "is_disabled": 0, "lat": 38.91528483333333, "bike_id": "ed8000d1c89db58b32e6ae10458b3d48", "name": "ed8000d1c89db58b32e6ae10458b3d48", "is_reserved": 0, "fusion_lat": 0.0}, {"type": "electric_scooter", "rental_uris": {"ios": "https://dc.lft.to/lastmile_qr_scan", "android": "https://dc.lft.to/lastmile_qr_scan"}, "lon": -77.030719, "fusion_lon": 0.0, "is_disabled": 0, "lat": 38.91110916666667, "bike_id": "b734efcc174ec8cccae6475375384bea", "name": "b734efcc174ec8cccae6475375384bea", "is_reserved": 0, "fusion_lat": 0.0}, {"type": "electric_scooter", "rental_uris": {"ios": "https://dc.lft.to/lastmile_qr_scan", "android": "https://dc.lft.to/lastmile_qr_scan"}, "lon": -77.04239116666666, "fusion_lon": 0.0, "is_disabled": 0, "lat": 38.90781966666667, "bike_id": "55dd994dfe06426c66bf73942b3650d4", "name": "55dd994dfe06426c66bf73942b3650d4", "is_reserved": 0, "fusion_lat": 0.0}, {"type": "electric_scooter", "rental_uris": {"ios": "https://dc.lft.to/lastmile_qr_scan", "android": "https://dc.lft.to/lastmile_qr_scan"}, "lon": -76.94632766666666, "fusion_lon": 0.0, "is_disabled": 0, "lat": 38.89843916666667, "bike_id": "7d1f72e3e95293c6b31a9a634512cfc2", "name": "7d1f72e3e95293c6b31a9a634512cfc2", "is_reserved": 0, "fusion_lat": 0.0}, {"type": "electric_scooter", "rental_uris": {"ios": "https://dc.lft.to/lastmile_qr_scan", "android": "https://dc.lft.to/lastmile_qr_scan"}, "lon": -77.03660233333333, "fusion_lon": 0.0, "is_disabled": 0, "lat": 38.917270333333335, "bike_id": "df36e7344d39a9231473979eeb839e07", "name": "df36e7344d39a9231473979eeb839e07", "is_reserved": 0, "fusion_lat": 0.0}, {"type": "electric_scooter", "rental_uris": {"ios": "https://dc.lft.to/lastmile_qr_scan", "android": "https://dc.lft.to/lastmile_qr_scan"}, "lon": -77.03286716666666, "fusion_lon": 0.0, "is_disabled": 0, "lat": 38.89927333333333, "bike_id": "30b1cbbf27dfeed4f4e6ec5973a95b49", "name": "30b1cbbf27dfeed4f4e6ec5973a95b49", "is_reserved": 0, "fusion_lat": 0.0}, {"type": "electric_bike", "rental_uris": {"ios": "https://dc.lft.to/lastmile_qr_scan", "android": "https://dc.lft.to/lastmile_qr_scan"}, "lon": -77.18742883333333, "fusion_lon": 0.0, "is_disabled": 0, "lat": 38.893554, "bike_id": "7283ffd8c4ca3ee3d13efd4e7bb4bdd2", "name": "7283ffd8c4ca3ee3d13efd4e7bb4bdd2", "is_reserved": 0, "fusion_lat": 0.0}, {"type": "electric_scooter", "rental_uris": {"ios": "https://dc.lft.to/lastmile_qr_scan", "android": "https://dc.lft.to/lastmile_qr_scan"}, "lon": -77.02606216666666, "fusion_lon": 0.0, "is_disabled": 0, "lat": 38.914148, "bike_id": "afc6912b1223c3e1db23665e5035a8ea", "name": "afc6912b1223c3e1db23665e5035a8ea", "is_reserved": 0, "fusion_lat": 0.0}, {"type": "electric_bike", "rental_uris": {"ios": "https://dc.lft.to/lastmile_qr_scan", "android": "https://dc.lft.to/lastmile_qr_scan"}, "lon": -77.04415916666666, "fusion_lon": 0.0, "is_disabled": 0, "lat": 39.015687166666666, "bike_id": "322316c1290e7a4a29209d56ee3ccafc", "name": "322316c1290e7a4a29209d56ee3ccafc", "is_reserved": 0, "fusion_lat": 0.0}, {"type": "electric_bike", "rental_uris": {"ios": "https://dc.lft.to/lastmile_qr_scan", "android": "https://dc.lft.to/lastmile_qr_scan"}, "lon": -77.03814633333333, "fusion_lon": 0.0, "is_disabled": 0, "lat": 38.914118333333334, "bike_id": "63a7eab834acd7af46392e66651a35ca", "name": "63a7eab834acd7af46392e66651a35ca", "is_reserved": 0, "fusion_lat": 0.0}, {"type": "electric_scooter", "rental_uris": {"ios": "https://dc.lft.to/lastmile_qr_scan", "android": "https://dc.lft.to/lastmile_qr_scan"}, "lon": -77.04027133333334, "fusion_lon": 0.0, "is_disabled": 0, "lat": 38.918076666666664, "bike_id": "1dcee3988720d6760cb4679048090823", "name": "1dcee3988720d6760cb4679048090823", "is_reserved": 0, "fusion_lat": 0.0}, {"type": "electric_scooter", "rental_uris": {"ios": "https://dc.lft.to/lastmile_qr_scan", "android": "https://dc.lft.to/lastmile_qr_scan"}, "lon": -77.01299666666667, "fusion_lon": 0.0, "is_disabled": 0, "lat": 38.881614166666665, "bike_id": "ffedf9ce6d6b76e3280d815215de0270", "name": "ffedf9ce6d6b76e3280d815215de0270", "is_reserved": 0, "fusion_lat": 0.0}, {"type": "electric_scooter", "rental_uris": {"ios": "https://dc.lft.to/lastmile_qr_scan", "android": "https://dc.lft.to/lastmile_qr_scan"}, "lon": -77.02593516666667, "fusion_lon": 0.0, "is_disabled": 0, "lat": 38.905264333333335, "bike_id": "f70801374362bf98db3ce000b1427593", "name": "f70801374362bf98db3ce000b1427593", "is_reserved": 0, "fusion_lat": 0.0}, {"type": "electric_scooter", "rental_uris": {"ios": "https://dc.lft.to/lastmile_qr_scan", "android": "https://dc.lft.to/lastmile_qr_scan"}, "lon": -77.026788, "fusion_lon": 0.0, "is_disabled": 0, "lat": 38.899247333333335, "bike_id": "cf1ecf81bf10091ca38e15afaa244243", "name": "cf1ecf81bf10091ca38e15afaa244243", "is_reserved": 0, "fusion_lat": 0.0}, {"type": "electric_scooter", "rental_uris": {"ios": "https://dc.lft.to/lastmile_qr_scan", "android": "https://dc.lft.to/lastmile_qr_scan"}, "lon": -77.04357516666667, "fusion_lon": 0.0, "is_disabled": 0, "lat": 38.913457333333334, "bike_id": "b12d90a74ce1367de44c0d1b84866eab", "name": "b12d90a74ce1367de44c0d1b84866eab", "is_reserved": 0, "fusion_lat": 0.0}, {"type": "electric_scooter", "rental_uris": {"ios": "https://dc.lft.to/lastmile_qr_scan", "android": "https://dc.lft.to/lastmile_qr_scan"}, "lon": -77.0770725, "fusion_lon": 0.0, "is_disabled": 0, "lat": 38.943872999999996, "bike_id": "8c90773419611404a1682db39699ea79", "name": "8c90773419611404a1682db39699ea79", "is_reserved": 0, "fusion_lat": 0.0}, {"type": "electric_scooter", "rental_uris": {"ios": "https://dc.lft.to/lastmile_qr_scan", "android": "https://dc.lft.to/lastmile_qr_scan"}, "lon": -76.99819683333334, "fusion_lon": 0.0, "is_disabled": 0, "lat": 38.90008616666667, "bike_id": "57d9442f10ee8e5851085826a6fdfd78", "name": "57d9442f10ee8e5851085826a6fdfd78", "is_reserved": 0, "fusion_lat": 0.0}, {"type": "electric_scooter", "rental_uris": {"ios": "https://dc.lft.to/lastmile_qr_scan", "android": "https://dc.lft.to/lastmile_qr_scan"}, "lon": -77.04419266666666, "fusion_lon": 0.0, "is_disabled": 0, "lat": 38.92137316666667, "bike_id": "a15ba368cc69d650e4b9fd0c553222bb", "name": "a15ba368cc69d650e4b9fd0c553222bb", "is_reserved": 0, "fusion_lat": 0.0}, {"type": "electric_scooter", "rental_uris": {"ios": "https://dc.lft.to/lastmile_qr_scan", "android": "https://dc.lft.to/lastmile_qr_scan"}, "lon": -77.03504916666667, "fusion_lon": 0.0, "is_disabled": 0, "lat": 38.92152516666667, "bike_id": "2b6eabd78d9135041114fbaa78dcbc52", "name": "2b6eabd78d9135041114fbaa78dcbc52", "is_reserved": 0, "fusion_lat": 0.0}, {"type": "electric_bike", "rental_uris": {"ios": "https://dc.lft.to/lastmile_qr_scan", "android": "https://dc.lft.to/lastmile_qr_scan"}, "lon": -77.04926516666667, "fusion_lon": 0.0, "is_disabled": 0, "lat": 39.0293435, "bike_id": "447eec3e4dad8eef3fb046ef52f192ea", "name": "447eec3e4dad8eef3fb046ef52f192ea", "is_reserved": 0, "fusion_lat": 0.0}, {"type": "electric_scooter", "rental_uris": {"ios": "https://dc.lft.to/lastmile_qr_scan", "android": "https://dc.lft.to/lastmile_qr_scan"}, "lon": -77.0386825, "fusion_lon": 0.0, "is_disabled": 0, "lat": 38.90978033333333, "bike_id": "db5d109ae55f53ce70fe48b19aa243c3", "name": "db5d109ae55f53ce70fe48b19aa243c3", "is_reserved": 0, "fusion_lat": 0.0}, {"type": "electric_scooter", "rental_uris": {"ios": "https://dc.lft.to/lastmile_qr_scan", "android": "https://dc.lft.to/lastmile_qr_scan"}, "lon": -77.038809, "fusion_lon": 0.0, "is_disabled": 0, "lat": 38.90265316666667, "bike_id": "0f4464b7df0410abca3ac858030b4127", "name": "0f4464b7df0410abca3ac858030b4127", "is_reserved": 0, "fusion_lat": 0.0}, {"type": "electric_bike", "rental_uris": {"ios": "https://dc.lft.to/lastmile_qr_scan", "android": "https://dc.lft.to/lastmile_qr_scan"}, "lon": -77.03900066666667, "fusion_lon": 0.0, "is_disabled": 0, "lat": 38.92336383333333, "bike_id": "06d5fa25767a09816849526f7c3dcc3e", "name": "06d5fa25767a09816849526f7c3dcc3e", "is_reserved": 0, "fusion_lat": 0.0}, {"type": "electric_bike", "rental_uris": {"ios": "https://dc.lft.to/lastmile_qr_scan", "android": "https://dc.lft.to/lastmile_qr_scan"}, "lon": -77.02776016666667, "fusion_lon": 0.0, "is_disabled": 0, "lat": 38.929063166666666, "bike_id": "c63f580802b967566a9fbe3639c7fdf5", "name": "c63f580802b967566a9fbe3639c7fdf5", "is_reserved": 0, "fusion_lat": 0.0}, {"type": "electric_scooter", "rental_uris": {"ios": "https://dc.lft.to/lastmile_qr_scan", "android": "https://dc.lft.to/lastmile_qr_scan"}, "lon": -77.02688833333333, "fusion_lon": 0.0, "is_disabled": 0, "lat": 38.90607416666667, "bike_id": "802c2a1b8b769c5923f5c7f4e653cbf0", "name": "802c2a1b8b769c5923f5c7f4e653cbf0", "is_reserved": 0, "fusion_lat": 0.0}, {"type": "electric_scooter", "rental_uris": {"ios": "https://dc.lft.to/lastmile_qr_scan", "android": "https://dc.lft.to/lastmile_qr_scan"}, "lon": -77.02971166666667, "fusion_lon": 0.0, "is_disabled": 0, "lat": 38.916953166666666, "bike_id": "783008598b50333ede7e8339346598b9", "name": "783008598b50333ede7e8339346598b9", "is_reserved": 0, "fusion_lat": 0.0}, {"type": "electric_scooter", "rental_uris": {"ios": "https://dc.lft.to/lastmile_qr_scan", "android": "https://dc.lft.to/lastmile_qr_scan"}, "lon": -77.07886183333333, "fusion_lon": 0.0, "is_disabled": 0, "lat": 38.92064166666667, "bike_id": "fc2bf9c75086eee90646efa7be4cc268", "name": "fc2bf9c75086eee90646efa7be4cc268", "is_reserved": 0, "fusion_lat": 0.0}, {"type": "electric_scooter", "rental_uris": {"ios": "https://dc.lft.to/lastmile_qr_scan", "android": "https://dc.lft.to/lastmile_qr_scan"}, "lon": -77.00595383333334, "fusion_lon": 0.0, "is_disabled": 0, "lat": 38.90558433333333, "bike_id": "c1c716cfccb07299f4cccc5a53069fac", "name": "c1c716cfccb07299f4cccc5a53069fac", "is_reserved": 0, "fusion_lat": 0.0}, {"type": "electric_scooter", "rental_uris": {"ios": "https://dc.lft.to/lastmile_qr_scan", "android": "https://dc.lft.to/lastmile_qr_scan"}, "lon": -77.02176733333333, "fusion_lon": 0.0, "is_disabled": 0, "lat": 38.942862833333336, "bike_id": "3ef285b638c80e7b8d1c36f546ee9f27", "name": "3ef285b638c80e7b8d1c36f546ee9f27", "is_reserved": 0, "fusion_lat": 0.0}, {"type": "electric_scooter", "rental_uris": {"ios": "https://dc.lft.to/lastmile_qr_scan", "android": "https://dc.lft.to/lastmile_qr_scan"}, "lon": -77.05857966666666, "fusion_lon": 0.0, "is_disabled": 0, "lat": 38.936083333333336, "bike_id": "346b95f88997611cfa90f60bcd01ac2b", "name": "346b95f88997611cfa90f60bcd01ac2b", "is_reserved": 0, "fusion_lat": 0.0}, {"type": "electric_scooter", "rental_uris": {"ios": "https://dc.lft.to/lastmile_qr_scan", "android": "https://dc.lft.to/lastmile_qr_scan"}, "lon": -76.96527433333333, "fusion_lon": 0.0, "is_disabled": 0, "lat": 38.876273166666664, "bike_id": "9c850c46caf9ce89755520c3533e83e2", "name": "9c850c46caf9ce89755520c3533e83e2", "is_reserved": 0, "fusion_lat": 0.0}, {"type": "electric_scooter", "rental_uris": {"ios": "https://dc.lft.to/lastmile_qr_scan", "android": "https://dc.lft.to/lastmile_qr_scan"}, "lon": -76.9762725, "fusion_lon": 0.0, "is_disabled": 0, "lat": 38.89877466666667, "bike_id": "4b843a6fc4f8c0e7fbb6b14e69dcbad4", "name": "4b843a6fc4f8c0e7fbb6b14e69dcbad4", "is_reserved": 0, "fusion_lat": 0.0}, {"type": "electric_scooter", "rental_uris": {"ios": "https://dc.lft.to/lastmile_qr_scan", "android": "https://dc.lft.to/lastmile_qr_scan"}, "lon": -76.94154966666666, "fusion_lon": 0.0, "is_disabled": 0, "lat": 38.88363616666667, "bike_id": "7966ba0d60ea8e493c68de2d2748e595", "name": "7966ba0d60ea8e493c68de2d2748e595", "is_reserved": 0, "fusion_lat": 0.0}, {"type": "electric_bike", "rental_uris": {"ios": "https://dc.lft.to/lastmile_qr_scan", "android": "https://dc.lft.to/lastmile_qr_scan"}, "lon": -76.924974, "fusion_lon": 0.0, "is_disabled": 0, "lat": 38.958812, "bike_id": "c8232ebf34cdbb2f874ce96aea8f6fac", "name": "c8232ebf34cdbb2f874ce96aea8f6fac", "is_reserved": 0, "fusion_lat": 0.0}, {"type": "electric_scooter", "rental_uris": {"ios": "https://dc.lft.to/lastmile_qr_scan", "android": "https://dc.lft.to/lastmile_qr_scan"}, "lon": -77.0396215, "fusion_lon": 0.0, "is_disabled": 0, "lat": 38.89908416666667, "bike_id": "fb53918d6345d2b1276d1cd057084503", "name": "fb53918d6345d2b1276d1cd057084503", "is_reserved": 0, "fusion_lat": 0.0}, {"type": "electric_scooter", "rental_uris": {"ios": "https://dc.lft.to/lastmile_qr_scan", "android": "https://dc.lft.to/lastmile_qr_scan"}, "lon": -77.02626983333333, "fusion_lon": 0.0, "is_disabled": 0, "lat": 38.925385, "bike_id": "53face4163536663f6aeca6ea18852a5", "name": "53face4163536663f6aeca6ea18852a5", "is_reserved": 0, "fusion_lat": 0.0}, {"type": "electric_scooter", "rental_uris": {"ios": "https://dc.lft.to/lastmile_qr_scan", "android": "https://dc.lft.to/lastmile_qr_scan"}, "lon": -77.00613366666667, "fusion_lon": 0.0, "is_disabled": 0, "lat": 38.905656666666665, "bike_id": "cf0da65ca26bc1d128d899500ddc09cc", "name": "cf0da65ca26bc1d128d899500ddc09cc", "is_reserved": 0, "fusion_lat": 0.0}, {"type": "electric_bike", "rental_uris": {"ios": "https://dc.lft.to/lastmile_qr_scan", "android": "https://dc.lft.to/lastmile_qr_scan"}, "lon": -77.024705, "fusion_lon": 0.0, "is_disabled": 0, "lat": 38.952938833333334, "bike_id": "5359c7894708a7964724f3960a650e6b", "name": "5359c7894708a7964724f3960a650e6b", "is_reserved": 0, "fusion_lat": 0.0}, {"type": "electric_scooter", "rental_uris": {"ios": "https://dc.lft.to/lastmile_qr_scan", "android": "https://dc.lft.to/lastmile_qr_scan"}, "lon": -77.032051, "fusion_lon": 0.0, "is_disabled": 0, "lat": 38.918489, "bike_id": "c7cca3ac90c6138e6d120a2fb24bd7c3", "name": "c7cca3ac90c6138e6d120a2fb24bd7c3", "is_reserved": 0, "fusion_lat": 0.0}, {"type": "electric_bike", "rental_uris": {"ios": "https://dc.lft.to/lastmile_qr_scan", "android": "https://dc.lft.to/lastmile_qr_scan"}, "lon": -77.06328733333334, "fusion_lon": 0.0, "is_disabled": 0, "lat": 38.92109033333333, "bike_id": "1650da573dca8ce864dff93665fcf47a", "name": "1650da573dca8ce864dff93665fcf47a", "is_reserved": 0, "fusion_lat": 0.0}, {"type": "electric_scooter", "rental_uris": {"ios": "https://dc.lft.to/lastmile_qr_scan", "android": "https://dc.lft.to/lastmile_qr_scan"}, "lon": -77.01616516666667, "fusion_lon": 0.0, "is_disabled": 0, "lat": 38.91889883333333, "bike_id": "583632203123b0b11d7f785d1aa83c9e", "name": "583632203123b0b11d7f785d1aa83c9e", "is_reserved": 0, "fusion_lat": 0.0}, {"type": "electric_scooter", "rental_uris": {"ios": "https://dc.lft.to/lastmile_qr_scan", "android": "https://dc.lft.to/lastmile_qr_scan"}, "lon": -77.04083883333334, "fusion_lon": 0.0, "is_disabled": 0, "lat": 38.916941, "bike_id": "b8f8a6ca7255efdb57ffd7f6787fb38c", "name": "b8f8a6ca7255efdb57ffd7f6787fb38c", "is_reserved": 0, "fusion_lat": 0.0}, {"type": "electric_scooter", "rental_uris": {"ios": "https://dc.lft.to/lastmile_qr_scan", "android": "https://dc.lft.to/lastmile_qr_scan"}, "lon": -76.98884416666667, "fusion_lon": 0.0, "is_disabled": 0, "lat": 38.866425666666665, "bike_id": "07433477419892994b4da883b0376e5d", "name": "07433477419892994b4da883b0376e5d", "is_reserved": 0, "fusion_lat": 0.0}, {"type": "electric_scooter", "rental_uris": {"ios": "https://dc.lft.to/lastmile_qr_scan", "android": "https://dc.lft.to/lastmile_qr_scan"}, "lon": -77.02482516666667, "fusion_lon": 0.0, "is_disabled": 0, "lat": 38.91952883333333, "bike_id": "05e180a650691aecec1121d5a84a9978", "name": "05e180a650691aecec1121d5a84a9978", "is_reserved": 0, "fusion_lat": 0.0}, {"type": "electric_scooter", "rental_uris": {"ios": "https://dc.lft.to/lastmile_qr_scan", "android": "https://dc.lft.to/lastmile_qr_scan"}, "lon": -76.996346, "fusion_lon": 0.0, "is_disabled": 0, "lat": 38.90002066666667, "bike_id": "ec58f5cbaa1460b635dd4d300dd7ed58", "name": "ec58f5cbaa1460b635dd4d300dd7ed58", "is_reserved": 0, "fusion_lat": 0.0}, {"type": "electric_scooter", "rental_uris": {"ios": "https://dc.lft.to/lastmile_qr_scan", "android": "https://dc.lft.to/lastmile_qr_scan"}, "lon": -77.0205735, "fusion_lon": 0.0, "is_disabled": 0, "lat": 38.9085155, "bike_id": "1c7beaaec9041aafa9610ba708a5c7d5", "name": "1c7beaaec9041aafa9610ba708a5c7d5", "is_reserved": 0, "fusion_lat": 0.0}, {"type": "electric_scooter", "rental_uris": {"ios": "https://dc.lft.to/lastmile_qr_scan", "android": "https://dc.lft.to/lastmile_qr_scan"}, "lon": -76.94876466666666, "fusion_lon": 0.0, "is_disabled": 0, "lat": 38.895014833333335, "bike_id": "adff41d2d42f88584771819267d7e91d", "name": "adff41d2d42f88584771819267d7e91d", "is_reserved": 0, "fusion_lat": 0.0}, {"type": "electric_bike", "rental_uris": {"ios": "https://dc.lft.to/lastmile_qr_scan", "android": "https://dc.lft.to/lastmile_qr_scan"}, "lon": -77.07116716666667, "fusion_lon": 0.0, "is_disabled": 0, "lat": 38.80066583333333, "bike_id": "74dd35bcaf05c3aac276f03b205ccffb", "name": "74dd35bcaf05c3aac276f03b205ccffb", "is_reserved": 0, "fusion_lat": 0.0}, {"type": "electric_scooter", "rental_uris": {"ios": "https://dc.lft.to/lastmile_qr_scan", "android": "https://dc.lft.to/lastmile_qr_scan"}, "lon": -76.999034, "fusion_lon": 0.0, "is_disabled": 0, "lat": 38.89889433333333, "bike_id": "7895dbbd72b7540125178cd741845387", "name": "7895dbbd72b7540125178cd741845387", "is_reserved": 0, "fusion_lat": 0.0}, {"type": "electric_scooter", "rental_uris": {"ios": "https://dc.lft.to/lastmile_qr_scan", "android": "https://dc.lft.to/lastmile_qr_scan"}, "lon": -77.0490875, "fusion_lon": 0.0, "is_disabled": 0, "lat": 38.9008155, "bike_id": "80506ed530bddb2dc60a0e485221ea66", "name": "80506ed530bddb2dc60a0e485221ea66", "is_reserved": 0, "fusion_lat": 0.0}, {"type": "electric_scooter", "rental_uris": {"ios": "https://dc.lft.to/lastmile_qr_scan", "android": "https://dc.lft.to/lastmile_qr_scan"}, "lon": -77.0416655, "fusion_lon": 0.0, "is_disabled": 0, "lat": 38.9053225, "bike_id": "8aa943710f51fab33eb7b030a89ee43b", "name": "8aa943710f51fab33eb7b030a89ee43b", "is_reserved": 0, "fusion_lat": 0.0}, {"type": "electric_scooter", "rental_uris": {"ios": "https://dc.lft.to/lastmile_qr_scan", "android": "https://dc.lft.to/lastmile_qr_scan"}, "lon": -77.043394, "fusion_lon": 0.0, "is_disabled": 0, "lat": 38.9052615, "bike_id": "5a11d5709977e652f007038f79da6db9", "name": "5a11d5709977e652f007038f79da6db9", "is_reserved": 0, "fusion_lat": 0.0}, {"type": "electric_bike", "rental_uris": {"ios": "https://dc.lft.to/lastmile_qr_scan", "android": "https://dc.lft.to/lastmile_qr_scan"}, "lon": -77.03591233333333, "fusion_lon": 0.0, "is_disabled": 0, "lat": 38.90693233333333, "bike_id": "66606370925375dee39859f7a5cd726c", "name": "66606370925375dee39859f7a5cd726c", "is_reserved": 0, "fusion_lat": 0.0}, {"type": "electric_scooter", "rental_uris": {"ios": "https://dc.lft.to/lastmile_qr_scan", "android": "https://dc.lft.to/lastmile_qr_scan"}, "lon": -77.003691, "fusion_lon": 0.0, "is_disabled": 0, "lat": 38.882719, "bike_id": "e104f6ca4bb2f59a58854c193792a943", "name": "e104f6ca4bb2f59a58854c193792a943", "is_reserved": 0, "fusion_lat": 0.0}, {"type": "electric_scooter", "rental_uris": {"ios": "https://dc.lft.to/lastmile_qr_scan", "android": "https://dc.lft.to/lastmile_qr_scan"}, "lon": -77.03659783333333, "fusion_lon": 0.0, "is_disabled": 0, "lat": 38.91868083333333, "bike_id": "63f7becc7bd41b333eec5d0a30fc7d97", "name": "63f7becc7bd41b333eec5d0a30fc7d97", "is_reserved": 0, "fusion_lat": 0.0}, {"type": "electric_scooter", "rental_uris": {"ios": "https://dc.lft.to/lastmile_qr_scan", "android": "https://dc.lft.to/lastmile_qr_scan"}, "lon": -77.02979216666667, "fusion_lon": 0.0, "is_disabled": 0, "lat": 38.93063816666667, "bike_id": "f896e4423a55a238e363e089d6071ea4", "name": "f896e4423a55a238e363e089d6071ea4", "is_reserved": 0, "fusion_lat": 0.0}, {"type": "electric_scooter", "rental_uris": {"ios": "https://dc.lft.to/lastmile_qr_scan", "android": "https://dc.lft.to/lastmile_qr_scan"}, "lon": -76.99501666666667, "fusion_lon": 0.0, "is_disabled": 0, "lat": 38.9266525, "bike_id": "4c6217a42fb14238b13d9944603afde0", "name": "4c6217a42fb14238b13d9944603afde0", "is_reserved": 0, "fusion_lat": 0.0}, {"type": "electric_scooter", "rental_uris": {"ios": "https://dc.lft.to/lastmile_qr_scan", "android": "https://dc.lft.to/lastmile_qr_scan"}, "lon": -77.01066833333333, "fusion_lon": 0.0, "is_disabled": 0, "lat": 38.907342166666666, "bike_id": "7c550d20ccfb1cbb7e783f5c1b5dad17", "name": "7c550d20ccfb1cbb7e783f5c1b5dad17", "is_reserved": 0, "fusion_lat": 0.0}, {"type": "electric_scooter", "rental_uris": {"ios": "https://dc.lft.to/lastmile_qr_scan", "android": "https://dc.lft.to/lastmile_qr_scan"}, "lon": -76.95414133333334, "fusion_lon": 0.0, "is_disabled": 0, "lat": 38.889988333333335, "bike_id": "cc86865456924ac859f81a7615c05bad", "name": "cc86865456924ac859f81a7615c05bad", "is_reserved": 0, "fusion_lat": 0.0}, {"type": "electric_scooter", "rental_uris": {"ios": "https://dc.lft.to/lastmile_qr_scan", "android": "https://dc.lft.to/lastmile_qr_scan"}, "lon": -77.0417305, "fusion_lon": 0.0, "is_disabled": 0, "lat": 38.915506666666666, "bike_id": "4d593a9c248be2052e7b95e107b8b887", "name": "4d593a9c248be2052e7b95e107b8b887", "is_reserved": 0, "fusion_lat": 0.0}, {"type": "electric_scooter", "rental_uris": {"ios": "https://dc.lft.to/lastmile_qr_scan", "android": "https://dc.lft.to/lastmile_qr_scan"}, "lon": -77.04178416666667, "fusion_lon": 0.0, "is_disabled": 0, "lat": 38.905256666666666, "bike_id": "a14f3612b1df26736577ef1bbb9b0003", "name": "a14f3612b1df26736577ef1bbb9b0003", "is_reserved": 0, "fusion_lat": 0.0}, {"type": "electric_scooter", "rental_uris": {"ios": "https://dc.lft.to/lastmile_qr_scan", "android": "https://dc.lft.to/lastmile_qr_scan"}, "lon": -77.03677133333333, "fusion_lon": 0.0, "is_disabled": 0, "lat": 38.91710916666667, "bike_id": "1d1df58669d5c03df6a13c0e827c3683", "name": "1d1df58669d5c03df6a13c0e827c3683", "is_reserved": 0, "fusion_lat": 0.0}, {"type": "electric_scooter", "rental_uris": {"ios": "https://dc.lft.to/lastmile_qr_scan", "android": "https://dc.lft.to/lastmile_qr_scan"}, "lon": -76.98692, "fusion_lon": 0.0, "is_disabled": 0, "lat": 38.86622366666667, "bike_id": "e7bee8bd4cd51526173c15dcea3e5f1d", "name": "e7bee8bd4cd51526173c15dcea3e5f1d", "is_reserved": 0, "fusion_lat": 0.0}, {"type": "electric_scooter", "rental_uris": {"ios": "https://dc.lft.to/lastmile_qr_scan", "android": "https://dc.lft.to/lastmile_qr_scan"}, "lon": -77.02398083333334, "fusion_lon": 0.0, "is_disabled": 0, "lat": 38.9571165, "bike_id": "8f05270e186a567648221e82b4d02587", "name": "8f05270e186a567648221e82b4d02587", "is_reserved": 0, "fusion_lat": 0.0}, {"type": "electric_scooter", "rental_uris": {"ios": "https://dc.lft.to/lastmile_qr_scan", "android": "https://dc.lft.to/lastmile_qr_scan"}, "lon": -77.03865366666666, "fusion_lon": 0.0, "is_disabled": 0, "lat": 38.91239733333333, "bike_id": "8d47871728ea911430a474497919b706", "name": "8d47871728ea911430a474497919b706", "is_reserved": 0, "fusion_lat": 0.0}, {"type": "electric_scooter", "rental_uris": {"ios": "https://dc.lft.to/lastmile_qr_scan", "android": "https://dc.lft.to/lastmile_qr_scan"}, "lon": -77.0281405, "fusion_lon": 0.0, "is_disabled": 0, "lat": 38.89919883333334, "bike_id": "2419da641b822213bca36d338ef87aaf", "name": "2419da641b822213bca36d338ef87aaf", "is_reserved": 0, "fusion_lat": 0.0}, {"type": "electric_scooter", "rental_uris": {"ios": "https://dc.lft.to/lastmile_qr_scan", "android": "https://dc.lft.to/lastmile_qr_scan"}, "lon": -77.05930783333334, "fusion_lon": 0.0, "is_disabled": 0, "lat": 38.90942183333333, "bike_id": "d2dc2ba1a12efc2117c8e4a85a303e9b", "name": "d2dc2ba1a12efc2117c8e4a85a303e9b", "is_reserved": 0, "fusion_lat": 0.0}, {"type": "electric_scooter", "rental_uris": {"ios": "https://dc.lft.to/lastmile_qr_scan", "android": "https://dc.lft.to/lastmile_qr_scan"}, "lon": -77.02032833333334, "fusion_lon": 0.0, "is_disabled": 0, "lat": 38.9318915, "bike_id": "d115abeb7f9284e4e44c027bac997e46", "name": "d115abeb7f9284e4e44c027bac997e46", "is_reserved": 0, "fusion_lat": 0.0}, {"type": "electric_bike", "rental_uris": {"ios": "https://dc.lft.to/lastmile_qr_scan", "android": "https://dc.lft.to/lastmile_qr_scan"}, "lon": -76.92499, "fusion_lon": 0.0, "is_disabled": 0, "lat": 38.99996133333333, "bike_id": "3d5429298577f2b1281ff15ee5e66498", "name": "3d5429298577f2b1281ff15ee5e66498", "is_reserved": 0, "fusion_lat": 0.0}, {"type": "electric_scooter", "rental_uris": {"ios": "https://dc.lft.to/lastmile_qr_scan", "android": "https://dc.lft.to/lastmile_qr_scan"}, "lon": -77.0322055, "fusion_lon": 0.0, "is_disabled": 0, "lat": 38.909737166666666, "bike_id": "b400dbc4df038bf1b0ad350327fbbb31", "name": "b400dbc4df038bf1b0ad350327fbbb31", "is_reserved": 0, "fusion_lat": 0.0}, {"type": "electric_scooter", "rental_uris": {"ios": "https://dc.lft.to/lastmile_qr_scan", "android": "https://dc.lft.to/lastmile_qr_scan"}, "lon": -77.031256, "fusion_lon": 0.0, "is_disabled": 0, "lat": 38.91815666666667, "bike_id": "deb97c165d27fc20a70a4444835fb8d4", "name": "deb97c165d27fc20a70a4444835fb8d4", "is_reserved": 0, "fusion_lat": 0.0}, {"type": "electric_scooter", "rental_uris": {"ios": "https://dc.lft.to/lastmile_qr_scan", "android": "https://dc.lft.to/lastmile_qr_scan"}, "lon": -77.03343683333334, "fusion_lon": 0.0, "is_disabled": 0, "lat": 38.89252833333333, "bike_id": "3df561b771570753a694c42ba7067bb4", "name": "3df561b771570753a694c42ba7067bb4", "is_reserved": 0, "fusion_lat": 0.0}, {"type": "electric_scooter", "rental_uris": {"ios": "https://dc.lft.to/lastmile_qr_scan", "android": "https://dc.lft.to/lastmile_qr_scan"}, "lon": -77.027962, "fusion_lon": 0.0, "is_disabled": 0, "lat": 38.930851, "bike_id": "75dd5b822badb76abd779b99be8da4fd", "name": "75dd5b822badb76abd779b99be8da4fd", "is_reserved": 0, "fusion_lat": 0.0}, {"type": "electric_scooter", "rental_uris": {"ios": "https://dc.lft.to/lastmile_qr_scan", "android": "https://dc.lft.to/lastmile_qr_scan"}, "lon": -77.03655866666666, "fusion_lon": 0.0, "is_disabled": 0, "lat": 38.922524333333335, "bike_id": "a67fc241bf83eb96d939ac9d0ccc8b59", "name": "a67fc241bf83eb96d939ac9d0ccc8b59", "is_reserved": 0, "fusion_lat": 0.0}, {"type": "electric_scooter", "rental_uris": {"ios": "https://dc.lft.to/lastmile_qr_scan", "android": "https://dc.lft.to/lastmile_qr_scan"}, "lon": -77.03897783333333, "fusion_lon": 0.0, "is_disabled": 0, "lat": 38.9065085, "bike_id": "5a7e528a5a64689aeb0edbda5cb03c8d", "name": "5a7e528a5a64689aeb0edbda5cb03c8d", "is_reserved": 0, "fusion_lat": 0.0}, {"type": "electric_bike", "rental_uris": {"ios": "https://dc.lft.to/lastmile_qr_scan", "android": "https://dc.lft.to/lastmile_qr_scan"}, "lon": -77.02100033333333, "fusion_lon": 0.0, "is_disabled": 0, "lat": 38.9372, "bike_id": "f13083c49e5b1d6d208a59237fcc83e1", "name": "f13083c49e5b1d6d208a59237fcc83e1", "is_reserved": 0, "fusion_lat": 0.0}, {"type": "electric_scooter", "rental_uris": {"ios": "https://dc.lft.to/lastmile_qr_scan", "android": "https://dc.lft.to/lastmile_qr_scan"}, "lon": -77.04477166666666, "fusion_lon": 0.0, "is_disabled": 0, "lat": 38.9111375, "bike_id": "f2ddee47a7b46daf8989c006f3ea95b3", "name": "f2ddee47a7b46daf8989c006f3ea95b3", "is_reserved": 0, "fusion_lat": 0.0}, {"type": "electric_scooter", "rental_uris": {"ios": "https://dc.lft.to/lastmile_qr_scan", "android": "https://dc.lft.to/lastmile_qr_scan"}, "lon": -76.96520166666667, "fusion_lon": 0.0, "is_disabled": 0, "lat": 38.8762905, "bike_id": "3d888214f59bbe3056e6f258f7ca3dac", "name": "3d888214f59bbe3056e6f258f7ca3dac", "is_reserved": 0, "fusion_lat": 0.0}, {"type": "electric_bike", "rental_uris": {"ios": "https://dc.lft.to/lastmile_qr_scan", "android": "https://dc.lft.to/lastmile_qr_scan"}, "lon": -77.11796683333333, "fusion_lon": 0.0, "is_disabled": 0, "lat": 38.8737435, "bike_id": "13bbabd62394e5d0b7d90240702d2a1d", "name": "13bbabd62394e5d0b7d90240702d2a1d", "is_reserved": 0, "fusion_lat": 0.0}, {"type": "electric_scooter", "rental_uris": {"ios": "https://dc.lft.to/lastmile_qr_scan", "android": "https://dc.lft.to/lastmile_qr_scan"}, "lon": -77.04521116666666, "fusion_lon": 0.0, "is_disabled": 0, "lat": 38.9159455, "bike_id": "64b88657bbdfd0656696176171a64b88", "name": "64b88657bbdfd0656696176171a64b88", "is_reserved": 0, "fusion_lat": 0.0}, {"type": "electric_scooter", "rental_uris": {"ios": "https://dc.lft.to/lastmile_qr_scan", "android": "https://dc.lft.to/lastmile_qr_scan"}, "lon": -76.9373435, "fusion_lon": 0.0, "is_disabled": 0, "lat": 38.89015466666667, "bike_id": "b26b7163e42fbb441a6342b77c23bd54", "name": "b26b7163e42fbb441a6342b77c23bd54", "is_reserved": 0, "fusion_lat": 0.0}, {"type": "electric_scooter", "rental_uris": {"ios": "https://dc.lft.to/lastmile_qr_scan", "android": "https://dc.lft.to/lastmile_qr_scan"}, "lon": -76.96525766666667, "fusion_lon": 0.0, "is_disabled": 0, "lat": 38.87628016666667, "bike_id": "9ed9c93c739fd4631036421a7a19a40b", "name": "9ed9c93c739fd4631036421a7a19a40b", "is_reserved": 0, "fusion_lat": 0.0}, {"type": "electric_bike", "rental_uris": {"ios": "https://dc.lft.to/lastmile_qr_scan", "android": "https://dc.lft.to/lastmile_qr_scan"}, "lon": -77.02620316666666, "fusion_lon": 0.0, "is_disabled": 0, "lat": 38.96932266666666, "bike_id": "0d07cdd29580d09b7360fbde5b988adf", "name": "0d07cdd29580d09b7360fbde5b988adf", "is_reserved": 0, "fusion_lat": 0.0}, {"type": "electric_scooter", "rental_uris": {"ios": "https://dc.lft.to/lastmile_qr_scan", "android": "https://dc.lft.to/lastmile_qr_scan"}, "lon": -77.03199783333334, "fusion_lon": 0.0, "is_disabled": 0, "lat": 38.916198, "bike_id": "77f8862d729fde047add40b216040763", "name": "77f8862d729fde047add40b216040763", "is_reserved": 0, "fusion_lat": 0.0}, {"type": "electric_scooter", "rental_uris": {"ios": "https://dc.lft.to/lastmile_qr_scan", "android": "https://dc.lft.to/lastmile_qr_scan"}, "lon": -77.02286116666667, "fusion_lon": 0.0, "is_disabled": 0, "lat": 38.914479666666665, "bike_id": "8dbb7c6f83ee11655af01e385ab2bb15", "name": "8dbb7c6f83ee11655af01e385ab2bb15", "is_reserved": 0, "fusion_lat": 0.0}, {"type": "electric_scooter", "rental_uris": {"ios": "https://dc.lft.to/lastmile_qr_scan", "android": "https://dc.lft.to/lastmile_qr_scan"}, "lon": -77.04682016666666, "fusion_lon": 0.0, "is_disabled": 0, "lat": 38.897279, "bike_id": "f1f6d3a6ce4f35f1fe758c37dea1b7f5", "name": "f1f6d3a6ce4f35f1fe758c37dea1b7f5", "is_reserved": 0, "fusion_lat": 0.0}, {"type": "electric_bike", "rental_uris": {"ios": "https://dc.lft.to/lastmile_qr_scan", "android": "https://dc.lft.to/lastmile_qr_scan"}, "lon": -77.12485883333333, "fusion_lon": 0.0, "is_disabled": 0, "lat": 38.853972666666664, "bike_id": "35ee539ad7ba39f577bb1b3abf45c4f2", "name": "35ee539ad7ba39f577bb1b3abf45c4f2", "is_reserved": 0, "fusion_lat": 0.0}, {"type": "electric_bike", "rental_uris": {"ios": "https://dc.lft.to/lastmile_qr_scan", "android": "https://dc.lft.to/lastmile_qr_scan"}, "lon": -77.03204733333334, "fusion_lon": 0.0, "is_disabled": 0, "lat": 38.908929666666666, "bike_id": "8ddfd04ee5fb67e282d5ddb494f6d9df", "name": "8ddfd04ee5fb67e282d5ddb494f6d9df", "is_reserved": 0, "fusion_lat": 0.0}, {"type": "electric_scooter", "rental_uris": {"ios": "https://dc.lft.to/lastmile_qr_scan", "android": "https://dc.lft.to/lastmile_qr_scan"}, "lon": -77.03185533333334, "fusion_lon": 0.0, "is_disabled": 0, "lat": 38.89617966666667, "bike_id": "0c16fe914ed2a4e701a5b0644c4c195a", "name": "0c16fe914ed2a4e701a5b0644c4c195a", "is_reserved": 0, "fusion_lat": 0.0}, {"type": "electric_bike", "rental_uris": {"ios": "https://dc.lft.to/lastmile_qr_scan", "android": "https://dc.lft.to/lastmile_qr_scan"}, "lon": -76.975309, "fusion_lon": 0.0, "is_disabled": 0, "lat": 38.8401275, "bike_id": "145235610c767ce8aa5ad60a4085347b", "name": "145235610c767ce8aa5ad60a4085347b", "is_reserved": 0, "fusion_lat": 0.0}, {"type": "electric_scooter", "rental_uris": {"ios": "https://dc.lft.to/lastmile_qr_scan", "android": "https://dc.lft.to/lastmile_qr_scan"}, "lon": -77.03036433333334, "fusion_lon": 0.0, "is_disabled": 0, "lat": 38.93116066666666, "bike_id": "9e0b007e4eb7d890092c968835a4fb2e", "name": "9e0b007e4eb7d890092c968835a4fb2e", "is_reserved": 0, "fusion_lat": 0.0}, {"type": "electric_scooter", "rental_uris": {"ios": "https://dc.lft.to/lastmile_qr_scan", "android": "https://dc.lft.to/lastmile_qr_scan"}, "lon": -76.99516316666667, "fusion_lon": 0.0, "is_disabled": 0, "lat": 38.883756166666664, "bike_id": "cf677abd31f77be0ef5b190f12f93ff4", "name": "cf677abd31f77be0ef5b190f12f93ff4", "is_reserved": 0, "fusion_lat": 0.0}, {"type": "electric_scooter", "rental_uris": {"ios": "https://dc.lft.to/lastmile_qr_scan", "android": "https://dc.lft.to/lastmile_qr_scan"}, "lon": -76.98174233333333, "fusion_lon": 0.0, "is_disabled": 0, "lat": 38.8957715, "bike_id": "48412a204ad4a97c5764c3961d9ab884", "name": "48412a204ad4a97c5764c3961d9ab884", "is_reserved": 0, "fusion_lat": 0.0}, {"type": "electric_scooter", "rental_uris": {"ios": "https://dc.lft.to/lastmile_qr_scan", "android": "https://dc.lft.to/lastmile_qr_scan"}, "lon": -77.0417645, "fusion_lon": 0.0, "is_disabled": 0, "lat": 38.90147483333333, "bike_id": "c588803ae4adf666b72e3baff82c1267", "name": "c588803ae4adf666b72e3baff82c1267", "is_reserved": 0, "fusion_lat": 0.0}, {"type": "electric_scooter", "rental_uris": {"ios": "https://dc.lft.to/lastmile_qr_scan", "android": "https://dc.lft.to/lastmile_qr_scan"}, "lon": -77.0394845, "fusion_lon": 0.0, "is_disabled": 0, "lat": 38.90719033333333, "bike_id": "ffd4986ce32ca093e81a5105d9a0ef79", "name": "ffd4986ce32ca093e81a5105d9a0ef79", "is_reserved": 0, "fusion_lat": 0.0}, {"type": "electric_scooter", "rental_uris": {"ios": "https://dc.lft.to/lastmile_qr_scan", "android": "https://dc.lft.to/lastmile_qr_scan"}, "lon": -76.9795165, "fusion_lon": 0.0, "is_disabled": 0, "lat": 38.945281666666666, "bike_id": "9b7cd1c00c8e990068518783fb4044b4", "name": "9b7cd1c00c8e990068518783fb4044b4", "is_reserved": 0, "fusion_lat": 0.0}, {"type": "electric_bike", "rental_uris": {"ios": "https://dc.lft.to/lastmile_qr_scan", "android": "https://dc.lft.to/lastmile_qr_scan"}, "lon": -77.0980275, "fusion_lon": 0.0, "is_disabled": 0, "lat": 38.85026, "bike_id": "d8c5f0400cd6684f20e83890e4363fc1", "name": "d8c5f0400cd6684f20e83890e4363fc1", "is_reserved": 0, "fusion_lat": 0.0}, {"type": "electric_scooter", "rental_uris": {"ios": "https://dc.lft.to/lastmile_qr_scan", "android": "https://dc.lft.to/lastmile_qr_scan"}, "lon": -77.00245783333334, "fusion_lon": 0.0, "is_disabled": 0, "lat": 38.8802415, "bike_id": "5cd74c5db84f9ef9268af32b29a5ffb8", "name": "5cd74c5db84f9ef9268af32b29a5ffb8", "is_reserved": 0, "fusion_lat": 0.0}, {"type": "electric_scooter", "rental_uris": {"ios": "https://dc.lft.to/lastmile_qr_scan", "android": "https://dc.lft.to/lastmile_qr_scan"},