{"data": {"bikes": [{"is_disabled": 0, "fusion_lon": 0.0, "fusion_lat": 0.0, "lat": 38.8925095, "type": "electric_scooter", "lon": -77.03211066666667, "bike_id": "9432703601ffac155bf48ef8ae9e9814", "rental_uris": {"android": "https://dc.lft.to/lastmile_qr_scan", "ios": "https://dc.lft.to/lastmile_qr_scan"}, "name": "9432703601ffac155bf48ef8ae9e9814", "is_reserved": 0}, {"is_disabled": 0, "fusion_lon": 0.0, "fusion_lat": 0.0, "lat": 38.907104833333335, "type": "electric_scooter", "lon": -77.02444183333333, "bike_id": "e97e5e83d8ca76cdc4743cd6ea46339d", "rental_uris": {"android": "https://dc.lft.to/lastmile_qr_scan", "ios": "https://dc.lft.to/lastmile_qr_scan"}, "name": "e97e5e83d8ca76cdc4743cd6ea46339d", "is_reserved": 0}, {"is_disabled": 0, "fusion_lon": 0.0, "fusion_lat": 0.0, "lat": 38.9146205, "type": "electric_scooter", "lon": -76.9836, "bike_id": "5f58e4bc909c7dde1ea5b2fde3e82078", "rental_uris": {"android": "https://dc.lft.to/lastmile_qr_scan", "ios": "https://dc.lft.to/lastmile_qr_scan"}, "name": "5f58e4bc909c7dde1ea5b2fde3e82078", "is_reserved": 0}, {"is_disabled": 0, "fusion_lon": 0.0, "fusion_lat": 0.0, "lat": 38.895022166666664, "type": "electric_scooter", "lon": -76.94880333333333, "bike_id": "37f355f9658f5d502c75084c96a40ad6", "rental_uris": {"android": "https://dc.lft.to/lastmile_qr_scan", "ios": "https://dc.lft.to/lastmile_qr_scan"}, "name": "37f355f9658f5d502c75084c96a40ad6", "is_reserved": 0}, {"is_disabled": 0, "fusion_lon": 0.0, "fusion_lat": 0.0, "lat": 38.901382, "type": "electric_scooter", "lon": -76.99356983333334, "bike_id": "41ae922bd25f173b74468cfca3bcc521", "rental_uris": {"android": "https://dc.lft.to/lastmile_qr_scan", "ios": "https://dc.lft.to/lastmile_qr_scan"}, "name": "41ae922bd25f173b74468cfca3bcc521", "is_reserved": 0}, {"is_disabled": 0, "fusion_lon": 0.0, "fusion_lat": 0.0, "lat": 38.94418266666667, "type": "electric_scooter", "lon": -77.02626083333334, "bike_id": "874bcf47d1895cc9ca06525661db1d0c", "rental_uris": {"android": "https://dc.lft.to/lastmile_qr_scan", "ios": "https://dc.lft.to/lastmile_qr_scan"}, "name": "874bcf47d1895cc9ca06525661db1d0c", "is_reserved": 0}, {"is_disabled": 0, "fusion_lon": 0.0, "fusion_lat": 0.0, "lat": 38.9312875, "type": "electric_scooter", "lon": -77.05708116666666, "bike_id": "56b268549ad23ed5264c55887328c956", "rental_uris": {"android": "https://dc.lft.to/lastmile_qr_scan", "ios": "https://dc.lft.to/lastmile_qr_scan"}, "name": "56b268549ad23ed5264c55887328c956", "is_reserved": 0}, {"is_disabled": 0, "fusion_lon": 0.0, "fusion_lat": 0.0, "lat": 38.89982466666667, "type": "electric_scooter", "lon": -77.02948933333333, "bike_id": "a3550078f35cd75c45ea122f6122936e", "rental_uris": {"android": "https://dc.lft.to/lastmile_qr_scan", "ios": "https://dc.lft.to/lastmile_qr_scan"}, "name": "a3550078f35cd75c45ea122f6122936e", "is_reserved": 0}, {"is_disabled": 0, "fusion_lon": 0.0, "fusion_lat": 0.0, "lat": 38.93969416666667, "type": "electric_scooter", "lon": -77.02797233333334, "bike_id": "9c79e1b02bd7c5baddfde7298cf025e6", "rental_uris": {"android": "https://dc.lft.to/lastmile_qr_scan", "ios": "https://dc.lft.to/lastmile_qr_scan"}, "name": "9c79e1b02bd7c5baddfde7298cf025e6", "is_reserved": 0}, {"is_disabled": 0, "fusion_lon": 0.0, "fusion_lat": 0.0, "lat": 38.89963566666667, "type": "electric_scooter", "lon": -76.98316833333334, "bike_id": "449453ee10d45a50fe6b5972abe85263", "rental_uris": {"android": "https://dc.lft.to/lastmile_qr_scan", "ios": "https://dc.lft.to/lastmile_qr_scan"}, "name": "449453ee10d45a50fe6b5972abe85263", "is_reserved": 0}, {"is_disabled": 0, "fusion_lon": 0.0, "fusion_lat": 0.0, "lat": 38.97821666666667, "type": "electric_bike", "lon": -76.92890283333334, "bike_id": "641d628ddedda1b414699e616f23923a", "rental_uris": {"android": "https://dc.lft.to/lastmile_qr_scan", "ios": "https://dc.lft.to/lastmile_qr_scan"}, "name": "641d628ddedda1b414699e616f23923a", "is_reserved": 0}, {"is_disabled": 0, "fusion_lon": 0.0, "fusion_lat": 0.0, "lat": 38.827269333333334, "type": "electric_bike", "lon": -77.00861933333333, "bike_id": "c3601d3acf8251e7971c43d6be3663be", "rental_uris": {"android": "https://dc.lft.to/lastmile_qr_scan", "ios": "https://dc.lft.to/lastmile_qr_scan"}, "name": "c3601d3acf8251e7971c43d6be3663be", "is_reserved": 0}, {"is_disabled": 0, "fusion_lon": 0.0, "fusion_lat": 0.0, "lat": 38.93530633333334, "type": "electric_scooter", "lon": -77.023838, "bike_id": "61025a4284925e721b4e9d84349a3f4b", "rental_uris": {"android": "https://dc.lft.to/lastmile_qr_scan", "ios": "https://dc.lft.to/lastmile_qr_scan"}, "name": "61025a4284925e721b4e9d84349a3f4b", "is_reserved": 0}, {"is_disabled": 0, "fusion_lon": 0.0, "fusion_lat": 0.0, "lat": 38.88576, "type": "electric_scooter", "lon": -76.919102, "bike_id": "5f390d6837053689f821dff26d0d53c3", "rental_uris": {"android": "https://dc.lft.to/lastmile_qr_scan", "ios": "https://dc.lft.to/lastmile_qr_scan"}, "name": "5f390d6837053689f821dff26d0d53c3", "is_reserved": 0}, {"is_disabled": 0, "fusion_lon": 0.0, "fusion_lat": 0.0, "lat": 38.99261683333334, "type": "electric_scooter", "lon": -77.03612683333333, "bike_id": "5a0385795edcaab484c78a90c18ffee7", "rental_uris": {"android": "https://dc.lft.to/lastmile_qr_scan", "ios": "https://dc.lft.to/lastmile_qr_scan"}, "name": "5a0385795edcaab484c78a90c18ffee7", "is_reserved": 0}, {"is_disabled": 0, "fusion_lon": 0.0, "fusion_lat": 0.0, "lat": 38.93664416666667, "type": "electric_bike", "lon": -76.95208333333333, "bike_id": "b3f2f324df4e1a933c9af33aa5afe899", "rental_uris": {"android": "https://dc.lft.to/lastmile_qr_scan", "ios": "https://dc.lft.to/lastmile_qr_scan"}, "name": "b3f2f324df4e1a933c9af33aa5afe899", "is_reserved": 0}, {"is_disabled": 0, "fusion_lon": 0.0, "fusion_lat": 0.0, "lat": 38.9164375, "type": "electric_scooter", "lon": -77.04175033333334, "bike_id": "05eb06f4610e3d14ac9dbdc38b167c60", "rental_uris": {"android": "https://dc.lft.to/lastmile_qr_scan", "ios": "https://dc.lft.to/lastmile_qr_scan"}, "name": "05eb06f4610e3d14ac9dbdc38b167c60", "is_reserved": 0}, {"is_disabled": 0, "fusion_lon": 0.0, "fusion_lat": 0.0, "lat": 38.918344833333336, "type": "electric_scooter", "lon": -77.03940883333334, "bike_id": "19655ec9bdff9d11b06a07e77ae7fdee", "rental_uris": {"android": "https://dc.lft.to/lastmile_qr_scan", "ios": "https://dc.lft.to/lastmile_qr_scan"}, "name": "19655ec9bdff9d11b06a07e77ae7fdee", "is_reserved": 0}, {"is_disabled": 0, "fusion_lon": 0.0, "fusion_lat": 0.0, "lat": 38.958344, "type": "electric_scooter", "lon": -77.0713995, "bike_id": "055e81ab965077074d67ff5bcebf3dbd", "rental_uris": {"android": "https://dc.lft.to/lastmile_qr_scan", "ios": "https://dc.lft.to/lastmile_qr_scan"}, "name": "055e81ab965077074d67ff5bcebf3dbd", "is_reserved": 0}, {"is_disabled": 0, "fusion_lon": 0.0, "fusion_lat": 0.0, "lat": 38.934638166666666, "type": "electric_scooter", "lon": -77.07265133333334, "bike_id": "f6694d33bcaf1ba93042feb45bbe04f9", "rental_uris": {"android": "https://dc.lft.to/lastmile_qr_scan", "ios": "https://dc.lft.to/lastmile_qr_scan"}, "name": "f6694d33bcaf1ba93042feb45bbe04f9", "is_reserved": 0}, {"is_disabled": 0, "fusion_lon": 0.0, "fusion_lat": 0.0, "lat": 38.91702933333333, "type": "electric_scooter", "lon": -77.05126533333333, "bike_id": "8ec6272b3705731ec398b941231799a4", "rental_uris": {"android": "https://dc.lft.to/lastmile_qr_scan", "ios": "https://dc.lft.to/lastmile_qr_scan"}, "name": "8ec6272b3705731ec398b941231799a4", "is_reserved": 0}, {"is_disabled": 0, "fusion_lon": 0.0, "fusion_lat": 0.0, "lat": 38.91781616666667, "type": "electric_scooter", "lon": -77.04338033333333, "bike_id": "515af7c846ceccc20397474ca74878ce", "rental_uris": {"android": "https://dc.lft.to/lastmile_qr_scan", "ios": "https://dc.lft.to/lastmile_qr_scan"}, "name": "515af7c846ceccc20397474ca74878ce", "is_reserved": 0}, {"is_disabled": 0, "fusion_lon": 0.0, "fusion_lat": 0.0, "lat": 38.893711833333334, "type": "electric_scooter", "lon": -77.0227755, "bike_id": "2fb39dd07aa8279280c9034526a9ec8f", "rental_uris": {"android": "https://dc.lft.to/lastmile_qr_scan", "ios": "https://dc.lft.to/lastmile_qr_scan"}, "name": "2fb39dd07aa8279280c9034526a9ec8f", "is_reserved": 0}, {"is_disabled": 0, "fusion_lon": 0.0, "fusion_lat": 0.0, "lat": 38.90639816666667, "type": "electric_scooter", "lon": -77.0060255, "bike_id": "79e73b559a87482cf6d2a2b9778352c8", "rental_uris": {"android": "https://dc.lft.to/lastmile_qr_scan", "ios": "https://dc.lft.to/lastmile_qr_scan"}, "name": "79e73b559a87482cf6d2a2b9778352c8", "is_reserved": 0}, {"is_disabled": 0, "fusion_lon": 0.0, "fusion_lat": 0.0, "lat": 39.03884766666667, "type": "electric_bike", "lon": -77.10911833333333, "bike_id": "36779f8a1ec5ec6c5fd4996bdac734d4", "rental_uris": {"android": "https://dc.lft.to/lastmile_qr_scan", "ios": "https://dc.lft.to/lastmile_qr_scan"}, "name": "36779f8a1ec5ec6c5fd4996bdac734d4", "is_reserved": 0}, {"is_disabled": 0, "fusion_lon": 0.0, "fusion_lat": 0.0, "lat": 38.919865, "type": "electric_scooter", "lon": -77.03276166666667, "bike_id": "e115980bce5f64abdb2b44caafe51cb0", "rental_uris": {"android": "https://dc.lft.to/lastmile_qr_scan", "ios": "https://dc.lft.to/lastmile_qr_scan"}, "name": "e115980bce5f64abdb2b44caafe51cb0", "is_reserved": 0}, {"is_disabled": 0, "fusion_lon": 0.0, "fusion_lat": 0.0, "lat": 38.90388016666667, "type": "electric_scooter", "lon": -76.99005, "bike_id": "728b150a011a3e09395b964a42546542", "rental_uris": {"android": "https://dc.lft.to/lastmile_qr_scan", "ios": "https://dc.lft.to/lastmile_qr_scan"}, "name": "728b150a011a3e09395b964a42546542", "is_reserved": 0}, {"is_disabled": 0, "fusion_lon": 0.0, "fusion_lat": 0.0, "lat": 38.939634, "type": "electric_scooter", "lon": -77.03281, "bike_id": "f5ba7d1f333c94975c6e656aceed8596", "rental_uris": {"android": "https://dc.lft.to/lastmile_qr_scan", "ios": "https://dc.lft.to/lastmile_qr_scan"}, "name": "f5ba7d1f333c94975c6e656aceed8596", "is_reserved": 0}, {"is_disabled": 0, "fusion_lon": 0.0, "fusion_lat": 0.0, "lat": 38.906891333333334, "type": "electric_scooter", "lon": -77.02392583333334, "bike_id": "acba211dc675ed66f47bb466d523db0c", "rental_uris": {"android": "https://dc.lft.to/lastmile_qr_scan", "ios": "https://dc.lft.to/lastmile_qr_scan"}, "name": "acba211dc675ed66f47bb466d523db0c", "is_reserved": 0}, {"is_disabled": 0, "fusion_lon": 0.0, "fusion_lat": 0.0, "lat": 38.900011166666665, "type": "electric_scooter", "lon": -77.02316816666666, "bike_id": "8211036760a9281c1fc74d035ed3d2d9", "rental_uris": {"android": "https://dc.lft.to/lastmile_qr_scan", "ios": "https://dc.lft.to/lastmile_qr_scan"}, "name": "8211036760a9281c1fc74d035ed3d2d9", "is_reserved": 0}, {"is_disabled": 0, "fusion_lon": 0.0, "fusion_lat": 0.0, "lat": 38.921156833333335, "type": "electric_scooter", "lon": -77.03005416666667, "bike_id": "d19c2ea887f68c18d3b11e6ce731235f", "rental_uris": {"android": "https://dc.lft.to/lastmile_qr_scan", "ios": "https://dc.lft.to/lastmile_qr_scan"}, "name": "d19c2ea887f68c18d3b11e6ce731235f", "is_reserved": 0}, {"is_disabled": 0, "fusion_lon": 0.0, "fusion_lat": 0.0, "lat": 38.92749083333333, "type": "electric_scooter", "lon": -77.03271016666666, "bike_id": "55dd71b1b7ee84cef22bb0f5cc817fd8", "rental_uris": {"android": "https://dc.lft.to/lastmile_qr_scan", "ios": "https://dc.lft.to/lastmile_qr_scan"}, "name": "55dd71b1b7ee84cef22bb0f5cc817fd8", "is_reserved": 0}, {"is_disabled": 0, "fusion_lon": 0.0, "fusion_lat": 0.0, "lat": 38.905627833333334, "type": "electric_scooter", "lon": -77.00549833333334, "bike_id": "c5a504ef4af363ce5d60372d460b9cac", "rental_uris": {"android": "https://dc.lft.to/lastmile_qr_scan", "ios": "https://dc.lft.to/lastmile_qr_scan"}, "name": "c5a504ef4af363ce5d60372d460b9cac", "is_reserved": 0}, {"is_disabled": 0, "fusion_lon": 0.0, "fusion_lat": 0.0, "lat": 38.925994833333334, "type": "electric_scooter", "lon": -77.02156383333333, "bike_id": "018e25afe45139a76cca304909c5416e", "rental_uris": {"android": "https://dc.lft.to/lastmile_qr_scan", "ios": "https://dc.lft.to/lastmile_qr_scan"}, "name": "018e25afe45139a76cca304909c5416e", "is_reserved": 0}, {"is_disabled": 0, "fusion_lon": 0.0, "fusion_lat": 0.0, "lat": 38.922172, "type": "electric_scooter", "lon": -77.03460833333334, "bike_id": "26ca1af2ef234cb90d2b22ac17192661", "rental_uris": {"android": "https://dc.lft.to/lastmile_qr_scan", "ios": "https://dc.lft.to/lastmile_qr_scan"}, "name": "26ca1af2ef234cb90d2b22ac17192661", "is_reserved": 0}, {"is_disabled": 0, "fusion_lon": 0.0, "fusion_lat": 0.0, "lat": 38.903445166666664, "type": "electric_scooter", "lon": -77.038605, "bike_id": "9ae737d10054828200a3a01c97ee6116", "rental_uris": {"android": "https://dc.lft.to/lastmile_qr_scan", "ios": "https://dc.lft.to/lastmile_qr_scan"}, "name": "9ae737d10054828200a3a01c97ee6116", "is_reserved": 0}, {"is_disabled": 0, "fusion_lon": 0.0, "fusion_lat": 0.0, "lat": 38.90887333333333, "type": "electric_scooter", "lon": -77.043481, "bike_id": "0e239f416fbe69a57a7cc3cd594ae4f0", "rental_uris": {"android": "https://dc.lft.to/lastmile_qr_scan", "ios": "https://dc.lft.to/lastmile_qr_scan"}, "name": "0e239f416fbe69a57a7cc3cd594ae4f0", "is_reserved": 0}, {"is_disabled": 0, "fusion_lon": 0.0, "fusion_lat": 0.0, "lat": 38.919085333333335, "type": "electric_scooter", "lon": -77.03625366666667, "bike_id": "1a7306ab636f894399a0473a00730ade", "rental_uris": {"android": "https://dc.lft.to/lastmile_qr_scan", "ios": "https://dc.lft.to/lastmile_qr_scan"}, "name": "1a7306ab636f894399a0473a00730ade", "is_reserved": 0}, {"is_disabled": 0, "fusion_lon": 0.0, "fusion_lat": 0.0, "lat": 38.897598, "type": "electric_scooter", "lon": -77.00985966666667, "bike_id": "b73ecfc7c9c48041f16fc5e1485e046e", "rental_uris": {"android": "https://dc.lft.to/lastmile_qr_scan", "ios": "https://dc.lft.to/lastmile_qr_scan"}, "name": "b73ecfc7c9c48041f16fc5e1485e046e", "is_reserved": 0}, {"is_disabled": 0, "fusion_lon": 0.0, "fusion_lat": 0.0, "lat": 38.88737483333333, "type": "electric_scooter", "lon": -77.021607, "bike_id": "7411806b4b5631f864c03db294673873", "rental_uris": {"android": "https://dc.lft.to/lastmile_qr_scan", "ios": "https://dc.lft.to/lastmile_qr_scan"}, "name": "7411806b4b5631f864c03db294673873", "is_reserved": 0}, {"is_disabled": 0, "fusion_lon": 0.0, "fusion_lat": 0.0, "lat": 38.94214633333333, "type": "electric_scooter", "lon": -77.02503883333333, "bike_id": "24d9f5e8949f537ccafd9e23ba78794e", "rental_uris": {"android": "https://dc.lft.to/lastmile_qr_scan", "ios": "https://dc.lft.to/lastmile_qr_scan"}, "name": "24d9f5e8949f537ccafd9e23ba78794e", "is_reserved": 0}, {"is_disabled": 0, "fusion_lon": 0.0, "fusion_lat": 0.0, "lat": 38.902178166666666, "type": "electric_scooter", "lon": -77.0428005, "bike_id": "6a36cdce67bf5abaae6ba43a773d2a8d", "rental_uris": {"android": "https://dc.lft.to/lastmile_qr_scan", "ios": "https://dc.lft.to/lastmile_qr_scan"}, "name": "6a36cdce67bf5abaae6ba43a773d2a8d", "is_reserved": 0}, {"is_disabled": 0, "fusion_lon": 0.0, "fusion_lat": 0.0, "lat": 38.9275235, "type": "electric_scooter", "lon": -77.00595816666667, "bike_id": "b1f4a9ef385ab6b9497d3c8304457c04", "rental_uris": {"android": "https://dc.lft.to/lastmile_qr_scan", "ios": "https://dc.lft.to/lastmile_qr_scan"}, "name": "b1f4a9ef385ab6b9497d3c8304457c04", "is_reserved": 0}, {"is_disabled": 0, "fusion_lon": 0.0, "fusion_lat": 0.0, "lat": 38.876684833333336, "type": "electric_scooter", "lon": -77.00362966666667, "bike_id": "50e61dab596c2d8b5947a3b784b494fa", "rental_uris": {"android": "https://dc.lft.to/lastmile_qr_scan", "ios": "https://dc.lft.to/lastmile_qr_scan"}, "name": "50e61dab596c2d8b5947a3b784b494fa", "is_reserved": 0}, {"is_disabled": 0, "fusion_lon": 0.0, "fusion_lat": 0.0, "lat": 38.902550166666664, "type": "electric_scooter", "lon": -77.00198116666667, "bike_id": "7d19d4925a9ed8459d57e37d8c9d75ae", "rental_uris": {"android": "https://dc.lft.to/lastmile_qr_scan", "ios": "https://dc.lft.to/lastmile_qr_scan"}, "name": "7d19d4925a9ed8459d57e37d8c9d75ae", "is_reserved": 0}, {"is_disabled": 0, "fusion_lon": 0.0, "fusion_lat": 0.0, "lat": 38.949750333333334, "type": "electric_scooter", "lon": -77.03762933333333, "bike_id": "efd337218fa609e6dd406a7e94bf69fe", "rental_uris": {"android": "https://dc.lft.to/lastmile_qr_scan", "ios": "https://dc.lft.to/lastmile_qr_scan"}, "name": "efd337218fa609e6dd406a7e94bf69fe", "is_reserved": 0}, {"is_disabled": 0, "fusion_lon": 0.0, "fusion_lat": 0.0, "lat": 38.90398166666667, "type": "electric_scooter", "lon": -77.0402075, "bike_id": "607e693bdcb7648d6aef006eb4c0b146", "rental_uris": {"android": "https://dc.lft.to/lastmile_qr_scan", "ios": "https://dc.lft.to/lastmile_qr_scan"}, "name": "607e693bdcb7648d6aef006eb4c0b146", "is_reserved": 0}, {"is_disabled": 0, "fusion_lon": 0.0, "fusion_lat": 0.0, "lat": 39.02685433333333, "type": "electric_bike", "lon": -77.12597883333333, "bike_id": "1d6970eb60154eadd368cd002c88b22c", "rental_uris": {"android": "https://dc.lft.to/lastmile_qr_scan", "ios": "https://dc.lft.to/lastmile_qr_scan"}, "name": "1d6970eb60154eadd368cd002c88b22c", "is_reserved": 0}, {"is_disabled": 0, "fusion_lon": 0.0, "fusion_lat": 0.0, "lat": 38.90204816666667, "type": "electric_scooter", "lon": -77.051371, "bike_id": "f350a980592f0e02b957d6b2d4b6b87d", "rental_uris": {"android": "https://dc.lft.to/lastmile_qr_scan", "ios": "https://dc.lft.to/lastmile_qr_scan"}, "name": "f350a980592f0e02b957d6b2d4b6b87d", "is_reserved": 0}, {"is_disabled": 0, "fusion_lon": 0.0, "fusion_lat": 0.0, "lat": 38.917118333333335, "type": "electric_scooter", "lon": -77.09815083333334, "bike_id": "4526e138cb791cf491d717fcff50b127", "rental_uris": {"android": "https://dc.lft.to/lastmile_qr_scan", "ios": "https://dc.lft.to/lastmile_qr_scan"}, "name": "4526e138cb791cf491d717fcff50b127", "is_reserved": 0}, {"is_disabled": 0, "fusion_lon": 0.0, "fusion_lat": 0.0, "lat": 38.920203, "type": "electric_scooter", "lon": -77.03160616666666, "bike_id": "e4f51d2d7bdf4b1d30f59d4b572344e8", "rental_uris": {"android": "https://dc.lft.to/lastmile_qr_scan", "ios": "https://dc.lft.to/lastmile_qr_scan"}, "name": "e4f51d2d7bdf4b1d30f59d4b572344e8", "is_reserved": 0}, {"is_disabled": 0, "fusion_lon": 0.0, "fusion_lat": 0.0, "lat": 38.894801666666666, "type": "electric_scooter", "lon": -76.99519366666667, "bike_id": "dc2489730158b83c1bb6c92f0a6f8155", "rental_uris": {"android": "https://dc.lft.to/lastmile_qr_scan", "ios": "https://dc.lft.to/lastmile_qr_scan"}, "name": "dc2489730158b83c1bb6c92f0a6f8155", "is_reserved": 0}, {"is_disabled": 0, "fusion_lon": 0.0, "fusion_lat": 0.0, "lat": 38.923585333333335, "type": "electric_scooter", "lon": -77.0506365, "bike_id": "afad9a8edd7cee5239fd5d4ec96fc4f6", "rental_uris": {"android": "https://dc.lft.to/lastmile_qr_scan", "ios": "https://dc.lft.to/lastmile_qr_scan"}, "name": "afad9a8edd7cee5239fd5d4ec96fc4f6", "is_reserved": 0}, {"is_disabled": 0, "fusion_lon": 0.0, "fusion_lat": 0.0, "lat": 38.90735983333333, "type": "electric_scooter", "lon": -77.03447016666667, "bike_id": "6ee33d720b3017ed0fbc7de5a4347fc0", "rental_uris": {"android": "https://dc.lft.to/lastmile_qr_scan", "ios": "https://dc.lft.to/lastmile_qr_scan"}, "name": "6ee33d720b3017ed0fbc7de5a4347fc0", "is_reserved": 0}, {"is_disabled": 0, "fusion_lon": 0.0, "fusion_lat": 0.0, "lat": 38.92242483333333, "type": "electric_scooter", "lon": -77.02238866666667, "bike_id": "e489c76b788957545aa2e8dac4ff7d69", "rental_uris": {"android": "https://dc.lft.to/lastmile_qr_scan", "ios": "https://dc.lft.to/lastmile_qr_scan"}, "name": "e489c76b788957545aa2e8dac4ff7d69", "is_reserved": 0}, {"is_disabled": 0, "fusion_lon": 0.0, "fusion_lat": 0.0, "lat": 38.885214500000004, "type": "electric_scooter", "lon": -77.01582616666667, "bike_id": "1022c084e4002bd5ec4907f25f9396e0", "rental_uris": {"android": "https://dc.lft.to/lastmile_qr_scan", "ios": "https://dc.lft.to/lastmile_qr_scan"}, "name": "1022c084e4002bd5ec4907f25f9396e0", "is_reserved": 0}, {"is_disabled": 0, "fusion_lon": 0.0, "fusion_lat": 0.0, "lat": 38.9627065, "type": "electric_scooter", "lon": -77.03350233333333, "bike_id": "eb0c6db1021634937951b701914a1836", "rental_uris": {"android": "https://dc.lft.to/lastmile_qr_scan", "ios": "https://dc.lft.to/lastmile_qr_scan"}, "name": "eb0c6db1021634937951b701914a1836", "is_reserved": 0}, {"is_disabled": 0, "fusion_lon": 0.0, "fusion_lat": 0.0, "lat": 38.917108166666665, "type": "electric_scooter", "lon": -77.03205883333334, "bike_id": "352764028a881ee530edd7912fc442b9", "rental_uris": {"android": "https://dc.lft.to/lastmile_qr_scan", "ios": "https://dc.lft.to/lastmile_qr_scan"}, "name": "352764028a881ee530edd7912fc442b9", "is_reserved": 0}, {"is_disabled": 0, "fusion_lon": 0.0, "fusion_lat": 0.0, "lat": 38.91149133333333, "type": "electric_scooter", "lon": -77.087918, "bike_id": "297bae9f3d26e28ad13b07230a6b914d", "rental_uris": {"android": "https://dc.lft.to/lastmile_qr_scan", "ios": "https://dc.lft.to/lastmile_qr_scan"}, "name": "297bae9f3d26e28ad13b07230a6b914d", "is_reserved": 0}, {"is_disabled": 0, "fusion_lon": 0.0, "fusion_lat": 0.0, "lat": 38.9107515, "type": "electric_scooter", "lon": -77.02192116666667, "bike_id": "d627f86ef98f9f1ca90368ff2db2f0d4", "rental_uris": {"android": "https://dc.lft.to/lastmile_qr_scan", "ios": "https://dc.lft.to/lastmile_qr_scan"}, "name": "d627f86ef98f9f1ca90368ff2db2f0d4", "is_reserved": 0}, {"is_disabled": 0, "fusion_lon": 0.0, "fusion_lat": 0.0, "lat": 38.90439716666667, "type": "electric_scooter", "lon": -77.027081, "bike_id": "c83e5c037c97af2624e2aa337bd12cc2", "rental_uris": {"android": "https://dc.lft.to/lastmile_qr_scan", "ios": "https://dc.lft.to/lastmile_qr_scan"}, "name": "c83e5c037c97af2624e2aa337bd12cc2", "is_reserved": 0}, {"is_disabled": 0, "fusion_lon": 0.0, "fusion_lat": 0.0, "lat": 38.93310866666667, "type": "electric_scooter", "lon": -77.08202433333334, "bike_id": "03d46e838e0b47601291a337b27cd9cd", "rental_uris": {"android": "https://dc.lft.to/lastmile_qr_scan", "ios": "https://dc.lft.to/lastmile_qr_scan"}, "name": "03d46e838e0b47601291a337b27cd9cd", "is_reserved": 0}, {"is_disabled": 0, "fusion_lon": 0.0, "fusion_lat": 0.0, "lat": 38.9048025, "type": "electric_scooter", "lon": -77.02880666666667, "bike_id": "af5d5d44c088778ffc50364a897b05a1", "rental_uris": {"android": "https://dc.lft.to/lastmile_qr_scan", "ios": "https://dc.lft.to/lastmile_qr_scan"}, "name": "af5d5d44c088778ffc50364a897b05a1", "is_reserved": 0}, {"is_disabled": 0, "fusion_lon": 0.0, "fusion_lat": 0.0, "lat": 38.904162666666664, "type": "electric_scooter", "lon": -77.0436465, "bike_id": "c79dd748c73169a73023beb7195ab60f", "rental_uris": {"android": "https://dc.lft.to/lastmile_qr_scan", "ios": "https://dc.lft.to/lastmile_qr_scan"}, "name": "c79dd748c73169a73023beb7195ab60f", "is_reserved": 0}, {"is_disabled": 0, "fusion_lon": 0.0, "fusion_lat": 0.0, "lat": 38.96648883333334, "type": "electric_bike", "lon": -76.930282, "bike_id": "b6ae60ace7b19f5433e11b97b8e81f02", "rental_uris": {"android": "https://dc.lft.to/lastmile_qr_scan", "ios": "https://dc.lft.to/lastmile_qr_scan"}, "name": "b6ae60ace7b19f5433e11b97b8e81f02", "is_reserved": 0}, {"is_disabled": 0, "fusion_lon": 0.0, "fusion_lat": 0.0, "lat": 38.85802316666667, "type": "electric_bike", "lon": -76.9875695, "bike_id": "86b7c9d17680d59ea1e201c2824d4372", "rental_uris": {"android": "https://dc.lft.to/lastmile_qr_scan", "ios": "https://dc.lft.to/lastmile_qr_scan"}, "name": "86b7c9d17680d59ea1e201c2824d4372", "is_reserved": 0}, {"is_disabled": 0, "fusion_lon": 0.0, "fusion_lat": 0.0, "lat": 38.893546666666666, "type": "electric_scooter", "lon": -77.02217383333333, "bike_id": "1525c0b4c5899aefbce1f785ffbc7614", "rental_uris": {"android": "https://dc.lft.to/lastmile_qr_scan", "ios": "https://dc.lft.to/lastmile_qr_scan"}, "name": "1525c0b4c5899aefbce1f785ffbc7614", "is_reserved": 0}, {"is_disabled": 0, "fusion_lon": 0.0, "fusion_lat": 0.0, "lat": 38.920368, "type": "electric_scooter", "lon": -77.04187166666667, "bike_id": "578daaf4f4309b0da475fde40c714ec5", "rental_uris": {"android": "https://dc.lft.to/lastmile_qr_scan", "ios": "https://dc.lft.to/lastmile_qr_scan"}, "name": "578daaf4f4309b0da475fde40c714ec5", "is_reserved": 0}, {"is_disabled": 0, "fusion_lon": 0.0, "fusion_lat": 0.0, "lat": 38.9194795, "type": "electric_scooter", "lon": -77.0139185, "bike_id": "9f58f1b0902b88e93e13689d1fa6343d", "rental_uris": {"android": "https://dc.lft.to/lastmile_qr_scan", "ios": "https://dc.lft.to/lastmile_qr_scan"}, "name": "9f58f1b0902b88e93e13689d1fa6343d", "is_reserved": 0}, {"is_disabled": 0, "fusion_lon": 0.0, "fusion_lat": 0.0, "lat": 38.92533866666667, "type": "electric_scooter", "lon": -77.03552416666666, "bike_id": "3baaf76739f75238ff2518213f3ea33f", "rental_uris": {"android": "https://dc.lft.to/lastmile_qr_scan", "ios": "https://dc.lft.to/lastmile_qr_scan"}, "name": "3baaf76739f75238ff2518213f3ea33f", "is_reserved": 0}, {"is_disabled": 0, "fusion_lon": 0.0, "fusion_lat": 0.0, "lat": 38.879821166666666, "type": "electric_bike", "lon": -76.91601, "bike_id": "20f3b32b479c7cc11eaa0fc18610b82a", "rental_uris": {"android": "https://dc.lft.to/lastmile_qr_scan", "ios": "https://dc.lft.to/lastmile_qr_scan"}, "name": "20f3b32b479c7cc11eaa0fc18610b82a", "is_reserved": 0}, {"is_disabled": 0, "fusion_lon": 0.0, "fusion_lat": 0.0, "lat": 38.89629816666667, "type": "electric_scooter", "lon": -77.02961933333333, "bike_id": "acbee8c5fe7556077bd14b19c87e693e", "rental_uris": {"android": "https://dc.lft.to/lastmile_qr_scan", "ios": "https://dc.lft.to/lastmile_qr_scan"}, "name": "acbee8c5fe7556077bd14b19c87e693e", "is_reserved": 0}, {"is_disabled": 0, "fusion_lon": 0.0, "fusion_lat": 0.0, "lat": 38.916722, "type": "electric_scooter", "lon": -77.029669, "bike_id": "ebb2631987ceee45ae02b1170a5f3e93", "rental_uris": {"android": "https://dc.lft.to/lastmile_qr_scan", "ios": "https://dc.lft.to/lastmile_qr_scan"}, "name": "ebb2631987ceee45ae02b1170a5f3e93", "is_reserved": 0}, {"is_disabled": 0, "fusion_lon": 0.0, "fusion_lat": 0.0, "lat": 38.90129733333333, "type": "electric_scooter", "lon": -77.04054683333334, "bike_id": "46342454dfc811b2a4296fc1589fff69", "rental_uris": {"android": "https://dc.lft.to/lastmile_qr_scan", "ios": "https://dc.lft.to/lastmile_qr_scan"}, "name": "46342454dfc811b2a4296fc1589fff69", "is_reserved": 0}, {"is_disabled": 0, "fusion_lon": 0.0, "fusion_lat": 0.0, "lat": 38.913646, "type": "electric_bike", "lon": -77.03972883333333, "bike_id": "b6b73eacc0bf433904e0662a5b3b0978", "rental_uris": {"android": "https://dc.lft.to/lastmile_qr_scan", "ios": "https://dc.lft.to/lastmile_qr_scan"}, "name": "b6b73eacc0bf433904e0662a5b3b0978", "is_reserved": 0}, {"is_disabled": 0, "fusion_lon": 0.0, "fusion_lat": 0.0, "lat": 38.950422333333336, "type": "electric_scooter", "lon": -77.02294833333333, "bike_id": "1b91c9da25707c5b2bc76edd6785c495", "rental_uris": {"android": "https://dc.lft.to/lastmile_qr_scan", "ios": "https://dc.lft.to/lastmile_qr_scan"}, "name": "1b91c9da25707c5b2bc76edd6785c495", "is_reserved": 0}, {"is_disabled": 0, "fusion_lon": 0.0, "fusion_lat": 0.0, "lat": 38.9041615, "type": "electric_scooter", "lon": -77.0513375, "bike_id": "8f68b0edc7ec9d6f6fc76bf920b221bd", "rental_uris": {"android": "https://dc.lft.to/lastmile_qr_scan", "ios": "https://dc.lft.to/lastmile_qr_scan"}, "name": "8f68b0edc7ec9d6f6fc76bf920b221bd", "is_reserved": 0}, {"is_disabled": 0, "fusion_lon": 0.0, "fusion_lat": 0.0, "lat": 38.90749483333333, "type": "electric_scooter", "lon": -77.04671683333333, "bike_id": "d8b58627697b087dc2843977b82f23e5", "rental_uris": {"android": "https://dc.lft.to/lastmile_qr_scan", "ios": "https://dc.lft.to/lastmile_qr_scan"}, "name": "d8b58627697b087dc2843977b82f23e5", "is_reserved": 0}, {"is_disabled": 0, "fusion_lon": 0.0, "fusion_lat": 0.0, "lat": 38.921578333333336, "type": "electric_scooter", "lon": -77.03467583333334, "bike_id": "8621798a937f645fa048ee40818ae5d3", "rental_uris": {"android": "https://dc.lft.to/lastmile_qr_scan", "ios": "https://dc.lft.to/lastmile_qr_scan"}, "name": "8621798a937f645fa048ee40818ae5d3", "is_reserved": 0}, {"is_disabled": 0, "fusion_lon": 0.0, "fusion_lat": 0.0, "lat": 38.88352066666667, "type": "electric_scooter", "lon": -76.927888, "bike_id": "4fee24a33c257388232e9ad0cf83c33c", "rental_uris": {"android": "https://dc.lft.to/lastmile_qr_scan", "ios": "https://dc.lft.to/lastmile_qr_scan"}, "name": "4fee24a33c257388232e9ad0cf83c33c", "is_reserved": 0}, {"is_disabled": 0, "fusion_lon": 0.0, "fusion_lat": 0.0, "lat": 38.89256983333333, "type": "electric_scooter", "lon": -76.94159433333333, "bike_id": "74824fb9fac86abdbe4b016092c9f1f0", "rental_uris": {"android": "https://dc.lft.to/lastmile_qr_scan", "ios": "https://dc.lft.to/lastmile_qr_scan"}, "name": "74824fb9fac86abdbe4b016092c9f1f0", "is_reserved": 0}, {"is_disabled": 0, "fusion_lon": 0.0, "fusion_lat": 0.0, "lat": 38.927084, "type": "electric_scooter", "lon": -76.97211866666666, "bike_id": "2f3676f61c87ce8a78cb71ffa5e15eaf", "rental_uris": {"android": "https://dc.lft.to/lastmile_qr_scan", "ios": "https://dc.lft.to/lastmile_qr_scan"}, "name": "2f3676f61c87ce8a78cb71ffa5e15eaf", "is_reserved": 0}, {"is_disabled": 0, "fusion_lon": 0.0, "fusion_lat": 0.0, "lat": 38.913826666666665, "type": "electric_scooter", "lon": -77.02970766666667, "bike_id": "343ffd5e799e4af4c8070af32b722a5e", "rental_uris": {"android": "https://dc.lft.to/lastmile_qr_scan", "ios": "https://dc.lft.to/lastmile_qr_scan"}, "name": "343ffd5e799e4af4c8070af32b722a5e", "is_reserved": 0}, {"is_disabled": 0, "fusion_lon": 0.0, "fusion_lat": 0.0, "lat": 38.90063416666667, "type": "electric_scooter", "lon": -77.05235133333333, "bike_id": "e162e18a2d5633257f3612189444ae24", "rental_uris": {"android": "https://dc.lft.to/lastmile_qr_scan", "ios": "https://dc.lft.to/lastmile_qr_scan"}, "name": "e162e18a2d5633257f3612189444ae24", "is_reserved": 0}, {"is_disabled": 0, "fusion_lon": 0.0, "fusion_lat": 0.0, "lat": 38.90652, "type": "electric_scooter", "lon": -77.02535316666666, "bike_id": "b81bae2bcbc7e958515b3f526bafdce8", "rental_uris": {"android": "https://dc.lft.to/lastmile_qr_scan", "ios": "https://dc.lft.to/lastmile_qr_scan"}, "name": "b81bae2bcbc7e958515b3f526bafdce8", "is_reserved": 0}, {"is_disabled": 0, "fusion_lon": 0.0, "fusion_lat": 0.0, "lat": 38.909707, "type": "electric_scooter", "lon": -77.01109633333333, "bike_id": "2e83215cc879e1460c89c676cf607533", "rental_uris": {"android": "https://dc.lft.to/lastmile_qr_scan", "ios": "https://dc.lft.to/lastmile_qr_scan"}, "name": "2e83215cc879e1460c89c676cf607533", "is_reserved": 0}, {"is_disabled": 0, "fusion_lon": 0.0, "fusion_lat": 0.0, "lat": 38.912493833333336, "type": "electric_scooter", "lon": -77.022355, "bike_id": "dab2204b443c5a272973b5e17e407692", "rental_uris": {"android": "https://dc.lft.to/lastmile_qr_scan", "ios": "https://dc.lft.to/lastmile_qr_scan"}, "name": "dab2204b443c5a272973b5e17e407692", "is_reserved": 0}, {"is_disabled": 0, "fusion_lon": 0.0, "fusion_lat": 0.0, "lat": 38.9062035, "type": "electric_scooter", "lon": -77.02190133333333, "bike_id": "e2b0852510ae9630138f8513d57ee1a7", "rental_uris": {"android": "https://dc.lft.to/lastmile_qr_scan", "ios": "https://dc.lft.to/lastmile_qr_scan"}, "name": "e2b0852510ae9630138f8513d57ee1a7", "is_reserved": 0}, {"is_disabled": 0, "fusion_lon": 0.0, "fusion_lat": 0.0, "lat": 38.917086, "type": "electric_scooter", "lon": -77.028069, "bike_id": "f5e0ef1a737c482ddbb8055ea4d47f4f", "rental_uris": {"android": "https://dc.lft.to/lastmile_qr_scan", "ios": "https://dc.lft.to/lastmile_qr_scan"}, "name": "f5e0ef1a737c482ddbb8055ea4d47f4f", "is_reserved": 0}, {"is_disabled": 0, "fusion_lon": 0.0, "fusion_lat": 0.0, "lat": 38.8959585, "type": "electric_scooter", "lon": -77.02579283333333, "bike_id": "71906f408cb80734993954b7df5b00da", "rental_uris": {"android": "https://dc.lft.to/lastmile_qr_scan", "ios": "https://dc.lft.to/lastmile_qr_scan"}, "name": "71906f408cb80734993954b7df5b00da", "is_reserved": 0}, {"is_disabled": 0, "fusion_lon": 0.0, "fusion_lat": 0.0, "lat": 39.000216, "type": "electric_bike", "lon": -76.87284033333333, "bike_id": "04e1cfaa9f32e42d09aeafc46a0a5752", "rental_uris": {"android": "https://dc.lft.to/lastmile_qr_scan", "ios": "https://dc.lft.to/lastmile_qr_scan"}, "name": "04e1cfaa9f32e42d09aeafc46a0a5752", "is_reserved": 0}, {"is_disabled": 0, "fusion_lon": 0.0, "fusion_lat": 0.0, "lat": 38.828790833333336, "type": "electric_bike", "lon": -77.11219066666666, "bike_id": "604f793daaea7ec6686b0b58038e9b58", "rental_uris": {"android": "https://dc.lft.to/lastmile_qr_scan", "ios": "https://dc.lft.to/lastmile_qr_scan"}, "name": "604f793daaea7ec6686b0b58038e9b58", "is_reserved": 0}, {"is_disabled": 0, "fusion_lon": 0.0, "fusion_lat": 0.0, "lat": 38.92578266666666, "type": "electric_scooter", "lon": -77.04016916666667, "bike_id": "736db1e8b31ed899250f96f17a9a8a0a", "rental_uris": {"android": "https://dc.lft.to/lastmile_qr_scan", "ios": "https://dc.lft.to/lastmile_qr_scan"}, "name": "736db1e8b31ed899250f96f17a9a8a0a", "is_reserved": 0}, {"is_disabled": 0, "fusion_lon": 0.0, "fusion_lat": 0.0, "lat": 38.924917666666666, "type": "electric_scooter", "lon": -76.98597083333334, "bike_id": "147e5b67c667282b644a3656ffcc69a3", "rental_uris": {"android": "https://dc.lft.to/lastmile_qr_scan", "ios": "https://dc.lft.to/lastmile_qr_scan"}, "name": "147e5b67c667282b644a3656ffcc69a3", "is_reserved": 0}, {"is_disabled": 0, "fusion_lon": 0.0, "fusion_lat": 0.0, "lat": 38.895249, "type": "electric_scooter", "lon": -77.02813433333333, "bike_id": "2c90cc1f7ad4264f6c46eed69de89214", "rental_uris": {"android": "https://dc.lft.to/lastmile_qr_scan", "ios": "https://dc.lft.to/lastmile_qr_scan"}, "name": "2c90cc1f7ad4264f6c46eed69de89214", "is_reserved": 0}, {"is_disabled": 0, "fusion_lon": 0.0, "fusion_lat": 0.0, "lat": 38.9254155, "type": "electric_scooter", "lon": -77.04057883333333, "bike_id": "de7f97e4375ac39ee92c409401ac3f68", "rental_uris": {"android": "https://dc.lft.to/lastmile_qr_scan", "ios": "https://dc.lft.to/lastmile_qr_scan"}, "name": "de7f97e4375ac39ee92c409401ac3f68", "is_reserved": 0}, {"is_disabled": 0, "fusion_lon": 0.0, "fusion_lat": 0.0, "lat": 38.9138165, "type": "electric_scooter", "lon": -77.02968533333333, "bike_id": "49edaa011852a8beef5197486896650c", "rental_uris": {"android": "https://dc.lft.to/lastmile_qr_scan", "ios": "https://dc.lft.to/lastmile_qr_scan"}, "name": "49edaa011852a8beef5197486896650c", "is_reserved": 0}, {"is_disabled": 0, "fusion_lon": 0.0, "fusion_lat": 0.0, "lat": 38.893356833333335, "type": "electric_bike", "lon": -77.12406733333333, "bike_id": "691bf6b3029f337a2cf20f33bb265527", "rental_uris": {"android": "https://dc.lft.to/lastmile_qr_scan", "ios": "https://dc.lft.to/lastmile_qr_scan"}, "name": "691bf6b3029f337a2cf20f33bb265527", "is_reserved": 0}, {"is_disabled": 0, "fusion_lon": 0.0, "fusion_lat": 0.0, "lat": 38.9520135, "type": "electric_scooter", "lon": -77.027358, "bike_id": "3b5523cbad4421c25a6b62ea1ebf6821", "rental_uris": {"android": "https://dc.lft.to/lastmile_qr_scan", "ios": "https://dc.lft.to/lastmile_qr_scan"}, "name": "3b5523cbad4421c25a6b62ea1ebf6821", "is_reserved": 0}, {"is_disabled": 0, "fusion_lon": 0.0, "fusion_lat": 0.0, "lat": 38.88750833333334, "type": "electric_scooter", "lon": -77.00226316666667, "bike_id": "63fe9198fa1bf62d7256909de9912b8d", "rental_uris": {"android": "https://dc.lft.to/lastmile_qr_scan", "ios": "https://dc.lft.to/lastmile_qr_scan"}, "name": "63fe9198fa1bf62d7256909de9912b8d", "is_reserved": 0}, {"is_disabled": 0, "fusion_lon": 0.0, "fusion_lat": 0.0, "lat": 38.92459383333333, "type": "electric_scooter", "lon": -77.02697483333333, "bike_id": "647725f78cb4f1d30a9e355aedc1aa1d", "rental_uris": {"android": "https://dc.lft.to/lastmile_qr_scan", "ios": "https://dc.lft.to/lastmile_qr_scan"}, "name": "647725f78cb4f1d30a9e355aedc1aa1d", "is_reserved": 0}, {"is_disabled": 0, "fusion_lon": 0.0, "fusion_lat": 0.0, "lat": 38.898797, "type": "electric_scooter", "lon": -76.9315975, "bike_id": "062d6255ea1c6ae6909db8f50f958e23", "rental_uris": {"android": "https://dc.lft.to/lastmile_qr_scan", "ios": "https://dc.lft.to/lastmile_qr_scan"}, "name": "062d6255ea1c6ae6909db8f50f958e23", "is_reserved": 0}, {"is_disabled": 0, "fusion_lon": 0.0, "fusion_lat": 0.0, "lat": 38.952281, "type": "electric_scooter", "lon": -77.02762783333333, "bike_id": "08bb080bad00be298e8284ac3d42c415", "rental_uris": {"android": "https://dc.lft.to/lastmile_qr_scan", "ios": "https://dc.lft.to/lastmile_qr_scan"}, "name": "08bb080bad00be298e8284ac3d42c415", "is_reserved": 0}, {"is_disabled": 0, "fusion_lon": 0.0, "fusion_lat": 0.0, "lat": 38.911104, "type": "electric_scooter", "lon": -77.03830633333334, "bike_id": "1c7a2c73e2fab87a193e1788d1b400c7", "rental_uris": {"android": "https://dc.lft.to/lastmile_qr_scan", "ios": "https://dc.lft.to/lastmile_qr_scan"}, "name": "1c7a2c73e2fab87a193e1788d1b400c7", "is_reserved": 0}, {"is_disabled": 0, "fusion_lon": 0.0, "fusion_lat": 0.0, "lat": 38.90528283333333, "type": "electric_scooter", "lon": -77.05767316666666, "bike_id": "c2fc6e731546c00658291e001cd8af04", "rental_uris": {"android": "https://dc.lft.to/lastmile_qr_scan", "ios": "https://dc.lft.to/lastmile_qr_scan"}, "name": "c2fc6e731546c00658291e001cd8af04", "is_reserved": 0}, {"is_disabled": 0, "fusion_lon": 0.0, "fusion_lat": 0.0, "lat": 38.918024, "type": "electric_scooter", "lon": -77.03551516666667, "bike_id": "734221595cc3c82dc2ff77052c165a31", "rental_uris": {"android": "https://dc.lft.to/lastmile_qr_scan", "ios": "https://dc.lft.to/lastmile_qr_scan"}, "name": "734221595cc3c82dc2ff77052c165a31", "is_reserved": 0}, {"is_disabled": 0, "fusion_lon": 0.0, "fusion_lat": 0.0, "lat": 38.91707383333333, "type": "electric_scooter", "lon": -77.0365745, "bike_id": "0f8dfc309237523b7587d122a111437d", "rental_uris": {"android": "https://dc.lft.to/lastmile_qr_scan", "ios": "https://dc.lft.to/lastmile_qr_scan"}, "name": "0f8dfc309237523b7587d122a111437d", "is_reserved": 0}, {"is_disabled": 0, "fusion_lon": 0.0, "fusion_lat": 0.0, "lat": 38.860560166666666, "type": "electric_scooter", "lon": -76.98514566666667, "bike_id": "a4af6b38ff1b28fe72ad0d9036999878", "rental_uris": {"android": "https://dc.lft.to/lastmile_qr_scan", "ios": "https://dc.lft.to/lastmile_qr_scan"}, "name": "a4af6b38ff1b28fe72ad0d9036999878", "is_reserved": 0}, {"is_disabled": 0, "fusion_lon": 0.0, "fusion_lat": 0.0, "lat": 38.92878316666667, "type": "electric_scooter", "lon": -77.0413405, "bike_id": "6ccb48699415673e8fbfa2e7cb09bd2f", "rental_uris": {"android": "https://dc.lft.to/lastmile_qr_scan", "ios": "https://dc.lft.to/lastmile_qr_scan"}, "name": "6ccb48699415673e8fbfa2e7cb09bd2f", "is_reserved": 0}, {"is_disabled": 0, "fusion_lon": 0.0, "fusion_lat": 0.0, "lat": 38.92369383333333, "type": "electric_scooter", "lon": -77.05031966666667, "bike_id": "c3510f502f953a331b8651dc1aa823ce", "rental_uris": {"android": "https://dc.lft.to/lastmile_qr_scan", "ios": "https://dc.lft.to/lastmile_qr_scan"}, "name": "c3510f502f953a331b8651dc1aa823ce", "is_reserved": 0}, {"is_disabled": 0, "fusion_lon": 0.0, "fusion_lat": 0.0, "lat": 38.89564683333333, "type": "electric_bike", "lon": -77.127391, "bike_id": "4483ba92b1573340f6b3a4baa1e54e40", "rental_uris": {"android": "https://dc.lft.to/lastmile_qr_scan", "ios": "https://dc.lft.to/lastmile_qr_scan"}, "name": "4483ba92b1573340f6b3a4baa1e54e40", "is_reserved": 0}, {"is_disabled": 0, "fusion_lon": 0.0, "fusion_lat": 0.0, "lat": 38.909628166666664, "type": "electric_scooter", "lon": -77.03843466666666, "bike_id": "07680a2ffd8b60dfdad65278b6243e9c", "rental_uris": {"android": "https://dc.lft.to/lastmile_qr_scan", "ios": "https://dc.lft.to/lastmile_qr_scan"}, "name": "07680a2ffd8b60dfdad65278b6243e9c", "is_reserved": 0}, {"is_disabled": 0, "fusion_lon": 0.0, "fusion_lat": 0.0, "lat": 38.95469083333333, "type": "electric_bike", "lon": -76.99010616666666, "bike_id": "abafe3b5f3e756c24ddf13511e840707", "rental_uris": {"android": "https://dc.lft.to/lastmile_qr_scan", "ios": "https://dc.lft.to/lastmile_qr_scan"}, "name": "abafe3b5f3e756c24ddf13511e840707", "is_reserved": 0}, {"is_disabled": 0, "fusion_lon": 0.0, "fusion_lat": 0.0, "lat": 38.892301333333336, "type": "electric_scooter", "lon": -77.02181933333334, "bike_id": "726b7ea33a88af9792affa162129cb50", "rental_uris": {"android": "https://dc.lft.to/lastmile_qr_scan", "ios": "https://dc.lft.to/lastmile_qr_scan"}, "name": "726b7ea33a88af9792affa162129cb50", "is_reserved": 0}, {"is_disabled": 0, "fusion_lon": 0.0, "fusion_lat": 0.0, "lat": 38.924701166666665, "type": "electric_scooter", "lon": -77.05755766666667, "bike_id": "797c4db1e9771904e3ae8cc64fd81da4", "rental_uris": {"android": "https://dc.lft.to/lastmile_qr_scan", "ios": "https://dc.lft.to/lastmile_qr_scan"}, "name": "797c4db1e9771904e3ae8cc64fd81da4", "is_reserved": 0}, {"is_disabled": 0, "fusion_lon": 0.0, "fusion_lat": 0.0, "lat": 38.91649366666667, "type": "electric_scooter", "lon": -77.04160483333334, "bike_id": "e26035a46c8029db6f52900010d2c95d", "rental_uris": {"android": "https://dc.lft.to/lastmile_qr_scan", "ios": "https://dc.lft.to/lastmile_qr_scan"}, "name": "e26035a46c8029db6f52900010d2c95d", "is_reserved": 0}, {"is_disabled": 0, "fusion_lon": 0.0, "fusion_lat": 0.0, "lat": 38.9027845, "type": "electric_scooter", "lon": -77.04058383333333, "bike_id": "facf897b0f10f8aeccf2b79417584830", "rental_uris": {"android": "https://dc.lft.to/lastmile_qr_scan", "ios": "https://dc.lft.to/lastmile_qr_scan"}, "name": "facf897b0f10f8aeccf2b79417584830", "is_reserved": 0}, {"is_disabled": 0, "fusion_lon": 0.0, "fusion_lat": 0.0, "lat": 38.9144535, "type": "electric_scooter", "lon": -77.00881916666667, "bike_id": "b6b3c4e12543aed8b221495c8a94c35c", "rental_uris": {"android": "https://dc.lft.to/lastmile_qr_scan", "ios": "https://dc.lft.to/lastmile_qr_scan"}, "name": "b6b3c4e12543aed8b221495c8a94c35c", "is_reserved": 0}, {"is_disabled": 0, "fusion_lon": 0.0, "fusion_lat": 0.0, "lat": 38.873021, "type": "electric_scooter", "lon": -77.00162183333333, "bike_id": "3ed9f50c07f8a9f724e17ed8ccc2a119", "rental_uris": {"android": "https://dc.lft.to/lastmile_qr_scan", "ios": "https://dc.lft.to/lastmile_qr_scan"}, "name": "3ed9f50c07f8a9f724e17ed8ccc2a119", "is_reserved": 0}, {"is_disabled": 0, "fusion_lon": 0.0, "fusion_lat": 0.0, "lat": 38.86366266666667, "type": "electric_scooter", "lon": -76.99064583333333, "bike_id": "66d22d89d8808cd0451752cf62a17920", "rental_uris": {"android": "https://dc.lft.to/lastmile_qr_scan", "ios": "https://dc.lft.to/lastmile_qr_scan"}, "name": "66d22d89d8808cd0451752cf62a17920", "is_reserved": 0}, {"is_disabled": 0, "fusion_lon": 0.0, "fusion_lat": 0.0, "lat": 38.93614633333333, "type": "electric_scooter", "lon": -77.031812, "bike_id": "732add9df1aef1ede35c475d6f69dbac", "rental_uris": {"android": "https://dc.lft.to/lastmile_qr_scan", "ios": "https://dc.lft.to/lastmile_qr_scan"}, "name": "732add9df1aef1ede35c475d6f69dbac", "is_reserved": 0}, {"is_disabled": 0, "fusion_lon": 0.0, "fusion_lat": 0.0, "lat": 38.91021166666667, "type": "electric_scooter", "lon": -77.034236, "bike_id": "b62a11e94b9f2817b5de2960ed829300", "rental_uris": {"android": "https://dc.lft.to/lastmile_qr_scan", "ios": "https://dc.lft.to/lastmile_qr_scan"}, "name": "b62a11e94b9f2817b5de2960ed829300", "is_reserved": 0}, {"is_disabled": 0, "fusion_lon": 0.0, "fusion_lat": 0.0, "lat": 38.92479433333333, "type": "electric_scooter", "lon": -77.0306815, "bike_id": "55e3954f5afe99b78a5bea523f5d3285", "rental_uris": {"android": "https://dc.lft.to/lastmile_qr_scan", "ios": "https://dc.lft.to/lastmile_qr_scan"}, "name": "55e3954f5afe99b78a5bea523f5d3285", "is_reserved": 0}, {"is_disabled": 0, "fusion_lon": 0.0, "fusion_lat": 0.0, "lat": 38.9462545, "type": "electric_bike", "lon": -76.93414516666667, "bike_id": "3137017932d7878bf303cc66010961af", "rental_uris": {"android": "https://dc.lft.to/lastmile_qr_scan", "ios": "https://dc.lft.to/lastmile_qr_scan"}, "name": "3137017932d7878bf303cc66010961af", "is_reserved": 0}, {"is_disabled": 0, "fusion_lon": 0.0, "fusion_lat": 0.0, "lat": 38.869519, "type": "electric_scooter", "lon": -76.97600016666667, "bike_id": "4d026119cebe9f996189519968bec9ba", "rental_uris": {"android": "https://dc.lft.to/lastmile_qr_scan", "ios": "https://dc.lft.to/lastmile_qr_scan"}, "name": "4d026119cebe9f996189519968bec9ba", "is_reserved": 0}, {"is_disabled": 0, "fusion_lon": 0.0, "fusion_lat": 0.0, "lat": 38.90568483333333, "type": "electric_scooter", "lon": -77.01791, "bike_id": "83e5edcde2958802b20744b5d4fb349d", "rental_uris": {"android": "https://dc.lft.to/lastmile_qr_scan", "ios": "https://dc.lft.to/lastmile_qr_scan"}, "name": "83e5edcde2958802b20744b5d4fb349d", "is_reserved": 0}, {"is_disabled": 0, "fusion_lon": 0.0, "fusion_lat": 0.0, "lat": 38.89827783333333, "type": "electric_scooter", "lon": -76.94652283333333, "bike_id": "b8511c80da65824970ef422f69b533d5", "rental_uris": {"android": "https://dc.lft.to/lastmile_qr_scan", "ios": "https://dc.lft.to/lastmile_qr_scan"}, "name": "b8511c80da65824970ef422f69b533d5", "is_reserved": 0}, {"is_disabled": 0, "fusion_lon": 0.0, "fusion_lat": 0.0, "lat": 38.805347, "type": "electric_bike", "lon": -77.0402035, "bike_id": "68051ff6f67b08777259a35356631815", "rental_uris": {"android": "https://dc.lft.to/lastmile_qr_scan", "ios": "https://dc.lft.to/lastmile_qr_scan"}, "name": "68051ff6f67b08777259a35356631815", "is_reserved": 0}, {"is_disabled": 0, "fusion_lon": 0.0, "fusion_lat": 0.0, "lat": 38.91999783333333, "type": "electric_scooter", "lon": -77.0322595, "bike_id": "d9b9b713b2a7552257e1ae1825f8f233", "rental_uris": {"android": "https://dc.lft.to/lastmile_qr_scan", "ios": "https://dc.lft.to/lastmile_qr_scan"}, "name": "d9b9b713b2a7552257e1ae1825f8f233", "is_reserved": 0}, {"is_disabled": 0, "fusion_lon": 0.0, "fusion_lat": 0.0, "lat": 38.9038615, "type": "electric_scooter", "lon": -76.99006316666667, "bike_id": "3c7a28b2ef529498a65247488d001c5a", "rental_uris": {"android": "https://dc.lft.to/lastmile_qr_scan", "ios": "https://dc.lft.to/lastmile_qr_scan"}, "name": "3c7a28b2ef529498a65247488d001c5a", "is_reserved": 0}, {"is_disabled": 0, "fusion_lon": 0.0, "fusion_lat": 0.0, "lat": 38.91209516666667, "type": "electric_scooter", "lon": -77.02099116666666, "bike_id": "28e4bd420cd147d223cea92e81b08ded", "rental_uris": {"android": "https://dc.lft.to/lastmile_qr_scan", "ios": "https://dc.lft.to/lastmile_qr_scan"}, "name": "28e4bd420cd147d223cea92e81b08ded", "is_reserved": 0}, {"is_disabled": 0, "fusion_lon": 0.0, "fusion_lat": 0.0, "lat": 38.8633405, "type": "electric_bike", "lon": -76.98715716666666, "bike_id": "e8d2b00995cc947d392dd7e58a927e27", "rental_uris": {"android": "https://dc.lft.to/lastmile_qr_scan", "ios": "https://dc.lft.to/lastmile_qr_scan"}, "name": "e8d2b00995cc947d392dd7e58a927e27", "is_reserved": 0}, {"is_disabled": 0, "fusion_lon": 0.0, "fusion_lat": 0.0, "lat": 38.9193205, "type": "electric_scooter", "lon": -77.02593316666666, "bike_id": "93361ca1a87aafc30eacc44d7fc74d2a", "rental_uris": {"android": "https://dc.lft.to/lastmile_qr_scan", "ios": "https://dc.lft.to/lastmile_qr_scan"}, "name": "93361ca1a87aafc30eacc44d7fc74d2a", "is_reserved": 0}, {"is_disabled": 0, "fusion_lon": 0.0, "fusion_lat": 0.0, "lat": 38.92826383333333, "type": "electric_scooter", "lon": -77.05441366666666, "bike_id": "cb5a502fbf39f0628673f83a25ad92db", "rental_uris": {"android": "https://dc.lft.to/lastmile_qr_scan", "ios": "https://dc.lft.to/lastmile_qr_scan"}, "name": "cb5a502fbf39f0628673f83a25ad92db", "is_reserved": 0}, {"is_disabled": 0, "fusion_lon": 0.0, "fusion_lat": 0.0, "lat": 38.929657166666665, "type": "electric_scooter", "lon": -77.05499433333334, "bike_id": "630e13bf35724874b06dfe3ff8700b05", "rental_uris": {"android": "https://dc.lft.to/lastmile_qr_scan", "ios": "https://dc.lft.to/lastmile_qr_scan"}, "name": "630e13bf35724874b06dfe3ff8700b05", "is_reserved": 0}, {"is_disabled": 0, "fusion_lon": 0.0, "fusion_lat": 0.0, "lat": 38.93644233333333, "type": "electric_scooter", "lon": -77.020881, "bike_id": "5732412109e76a7df818020d91bb9dcc", "rental_uris": {"android": "https://dc.lft.to/lastmile_qr_scan", "ios": "https://dc.lft.to/lastmile_qr_scan"}, "name": "5732412109e76a7df818020d91bb9dcc", "is_reserved": 0}, {"is_disabled": 0, "fusion_lon": 0.0, "fusion_lat": 0.0, "lat": 38.91326016666667, "type": "electric_scooter", "lon": -77.03208183333334, "bike_id": "32d841c0ddc7985936fa4d9c2694d023", "rental_uris": {"android": "https://dc.lft.to/lastmile_qr_scan", "ios": "https://dc.lft.to/lastmile_qr_scan"}, "name": "32d841c0ddc7985936fa4d9c2694d023", "is_reserved": 0}, {"is_disabled": 0, "fusion_lon": 0.0, "fusion_lat": 0.0, "lat": 38.890015166666664, "type": "electric_scooter", "lon": -77.04896066666667, "bike_id": "781a0bca510a86a91f2bae9fef150cf5", "rental_uris": {"android": "https://dc.lft.to/lastmile_qr_scan", "ios": "https://dc.lft.to/lastmile_qr_scan"}, "name": "781a0bca510a86a91f2bae9fef150cf5", "is_reserved": 0}, {"is_disabled": 0, "fusion_lon": 0.0, "fusion_lat": 0.0, "lat": 38.9094345, "type": "electric_scooter", "lon": -77.055381, "bike_id": "dd2f50ab624f1f452c6d40e41e94fd21", "rental_uris": {"android": "https://dc.lft.to/lastmile_qr_scan", "ios": "https://dc.lft.to/lastmile_qr_scan"}, "name": "dd2f50ab624f1f452c6d40e41e94fd21", "is_reserved": 0}, {"is_disabled": 0, "fusion_lon": 0.0, "fusion_lat": 0.0, "lat": 38.8983125, "type": "electric_scooter", "lon": -77.03191333333334, "bike_id": "62133d19b740c3d2e3fb65e4128b5386", "rental_uris": {"android": "https://dc.lft.to/lastmile_qr_scan", "ios": "https://dc.lft.to/lastmile_qr_scan"}, "name": "62133d19b740c3d2e3fb65e4128b5386", "is_reserved": 0}, {"is_disabled": 0, "fusion_lon": 0.0, "fusion_lat": 0.0, "lat": 38.8922105, "type": "electric_scooter", "lon": -77.02220033333333, "bike_id": "43b251b32e4f7dd49121ec63ac339c99", "rental_uris": {"android": "https://dc.lft.to/lastmile_qr_scan", "ios": "https://dc.lft.to/lastmile_qr_scan"}, "name": "43b251b32e4f7dd49121ec63ac339c99", "is_reserved": 0}, {"is_disabled": 0, "fusion_lon": 0.0, "fusion_lat": 0.0, "lat": 38.9076475, "type": "electric_scooter", "lon": -76.996584, "bike_id": "677fb96ce5b077ec9379109043a8356f", "rental_uris": {"android": "https://dc.lft.to/lastmile_qr_scan", "ios": "https://dc.lft.to/lastmile_qr_scan"}, "name": "677fb96ce5b077ec9379109043a8356f", "is_reserved": 0}, {"is_disabled": 0, "fusion_lon": 0.0, "fusion_lat": 0.0, "lat": 38.91077883333333, "type": "electric_scooter", "lon": -77.04388383333334, "bike_id": "4de9136a2c73d0511a43a9fbfe602ff5", "rental_uris": {"android": "https://dc.lft.to/lastmile_qr_scan", "ios": "https://dc.lft.to/lastmile_qr_scan"}, "name": "4de9136a2c73d0511a43a9fbfe602ff5", "is_reserved": 0}, {"is_disabled": 0, "fusion_lon": 0.0, "fusion_lat": 0.0, "lat": 38.9005785, "type": "electric_scooter", "lon": -76.93475533333333, "bike_id": "0897202c3a7e668487e6a9d5b7fbaad6", "rental_uris": {"android": "https://dc.lft.to/lastmile_qr_scan", "ios": "https://dc.lft.to/lastmile_qr_scan"}, "name": "0897202c3a7e668487e6a9d5b7fbaad6", "is_reserved": 0}, {"is_disabled": 0, "fusion_lon": 0.0, "fusion_lat": 0.0, "lat": 38.90691566666667, "type": "electric_bike", "lon": -76.9525735, "bike_id": "589b1a2508e51e999128f09a6fb7a095", "rental_uris": {"android": "https://dc.lft.to/lastmile_qr_scan", "ios": "https://dc.lft.to/lastmile_qr_scan"}, "name": "589b1a2508e51e999128f09a6fb7a095", "is_reserved": 0}, {"is_disabled": 0, "fusion_lon": 0.0, "fusion_lat": 0.0, "lat": 38.917034, "type": "electric_scooter", "lon": -77.02491766666667, "bike_id": "7ac47d8b2829e487a464679f056f66f2", "rental_uris": {"android": "https://dc.lft.to/lastmile_qr_scan", "ios": "https://dc.lft.to/lastmile_qr_scan"}, "name": "7ac47d8b2829e487a464679f056f66f2", "is_reserved": 0}, {"is_disabled": 0, "fusion_lon": 0.0, "fusion_lat": 0.0, "lat": 38.917704, "type": "electric_scooter", "lon": -77.04062933333333, "bike_id": "4a0477a4ddd7f4e45b1600733ee9fb5e", "rental_uris": {"android": "https://dc.lft.to/lastmile_qr_scan", "ios": "https://dc.lft.to/lastmile_qr_scan"}, "name": "4a0477a4ddd7f4e45b1600733ee9fb5e", "is_reserved": 0}, {"is_disabled": 0, "fusion_lon": 0.0, "fusion_lat": 0.0, "lat": 38.92123683333333, "type": "electric_scooter", "lon": -76.99588133333333, "bike_id": "88cabbe0a29212fc8013cdf58323c6a6", "rental_uris": {"android": "https://dc.lft.to/lastmile_qr_scan", "ios": "https://dc.lft.to/lastmile_qr_scan"}, "name": "88cabbe0a29212fc8013cdf58323c6a6", "is_reserved": 0}, {"is_disabled": 0, "fusion_lon": 0.0, "fusion_lat": 0.0, "lat": 38.957296166666666, "type": "electric_scooter", "lon": -77.0240455, "bike_id": "d95447cebc5e5cbdbbae23b328a1bbf6", "rental_uris": {"android": "https://dc.lft.to/lastmile_qr_scan", "ios": "https://dc.lft.to/lastmile_qr_scan"}, "name": "d95447cebc5e5cbdbbae23b328a1bbf6", "is_reserved": 0}, {"is_disabled": 0, "fusion_lon": 0.0, "fusion_lat": 0.0, "lat": 38.91380916666667, "type": "electric_scooter", "lon": -77.02968766666666, "bike_id": "eaa766841e340690154f6fde12db98b5", "rental_uris": {"android": "https://dc.lft.to/lastmile_qr_scan", "ios": "https://dc.lft.to/lastmile_qr_scan"}, "name": "eaa766841e340690154f6fde12db98b5", "is_reserved": 0}, {"is_disabled": 0, "fusion_lon": 0.0, "fusion_lat": 0.0, "lat": 38.90059266666667, "type": "electric_scooter", "lon": -76.98686783333333, "bike_id": "ceccf6cc3cfa748813ee3e86631c55ed", "rental_uris": {"android": "https://dc.lft.to/lastmile_qr_scan", "ios": "https://dc.lft.to/lastmile_qr_scan"}, "name": "ceccf6cc3cfa748813ee3e86631c55ed", "is_reserved": 0}, {"is_disabled": 0, "fusion_lon": 0.0, "fusion_lat": 0.0, "lat": 38.904691, "type": "electric_scooter", "lon": -77.04878516666666, "bike_id": "76863fa6248ac0d2eeda68e744bbacab", "rental_uris": {"android": "https://dc.lft.to/lastmile_qr_scan", "ios": "https://dc.lft.to/lastmile_qr_scan"}, "name": "76863fa6248ac0d2eeda68e744bbacab", "is_reserved": 0}, {"is_disabled": 0, "fusion_lon": 0.0, "fusion_lat": 0.0, "lat": 38.91695983333334, "type": "electric_scooter", "lon": -77.042729, "bike_id": "ba8a7f650ed045d9791d457d0ece172b", "rental_uris": {"android": "https://dc.lft.to/lastmile_qr_scan", "ios": "https://dc.lft.to/lastmile_qr_scan"}, "name": "ba8a7f650ed045d9791d457d0ece172b", "is_reserved": 0}, {"is_disabled": 0, "fusion_lon": 0.0, "fusion_lat": 0.0, "lat": 38.913003333333336, "type": "electric_scooter", "lon": -77.0320095, "bike_id": "36eabdb21f76579a145a59bab4fc50e3", "rental_uris": {"android": "https://dc.lft.to/lastmile_qr_scan", "ios": "https://dc.lft.to/lastmile_qr_scan"}, "name": "36eabdb21f76579a145a59bab4fc50e3", "is_reserved": 0}, {"is_disabled": 0, "fusion_lon": 0.0, "fusion_lat": 0.0, "lat": 38.900316, "type": "electric_scooter", "lon": -77.01200133333333, "bike_id": "db23373f4fbfa5cb36e18fc66d1486a4", "rental_uris": {"android": "https://dc.lft.to/lastmile_qr_scan", "ios": "https://dc.lft.to/lastmile_qr_scan"}, "name": "db23373f4fbfa5cb36e18fc66d1486a4", "is_reserved": 0}, {"is_disabled": 0, "fusion_lon": 0.0, "fusion_lat": 0.0, "lat": 38.9254175, "type": "electric_scooter", "lon": -77.040584, "bike_id": "75755d36ed0a035717ff9c3069a7b10c", "rental_uris": {"android": "https://dc.lft.to/lastmile_qr_scan", "ios": "https://dc.lft.to/lastmile_qr_scan"}, "name": "75755d36ed0a035717ff9c3069a7b10c", "is_reserved": 0}, {"is_disabled": 0, "fusion_lon": 0.0, "fusion_lat": 0.0, "lat": 38.910480166666666, "type": "electric_scooter", "lon": -77.00750016666667, "bike_id": "1f94eb3062a5aa2e010bfda9b966d14e", "rental_uris": {"android": "https://dc.lft.to/lastmile_qr_scan", "ios": "https://dc.lft.to/lastmile_qr_scan"}, "name": "1f94eb3062a5aa2e010bfda9b966d14e", "is_reserved": 0}, {"is_disabled": 0, "fusion_lon": 0.0, "fusion_lat": 0.0, "lat": 38.96219133333334, "type": "electric_scooter", "lon": -77.02796916666667, "bike_id": "9e142de5169e8e18d868c3a109b20f3c", "rental_uris": {"android": "https://dc.lft.to/lastmile_qr_scan", "ios": "https://dc.lft.to/lastmile_qr_scan"}, "name": "9e142de5169e8e18d868c3a109b20f3c", "is_reserved": 0}, {"is_disabled": 0, "fusion_lon": 0.0, "fusion_lat": 0.0, "lat": 38.990887, "type": "electric_bike", "lon": -76.87497166666667, "bike_id": "1c14518a3cb2c3b9590a900ecf8427a8", "rental_uris": {"android": "https://dc.lft.to/lastmile_qr_scan", "ios": "https://dc.lft.to/lastmile_qr_scan"}, "name": "1c14518a3cb2c3b9590a900ecf8427a8", "is_reserved": 0}, {"is_disabled": 0, "fusion_lon": 0.0, "fusion_lat": 0.0, "lat": 38.900868333333335, "type": "electric_scooter", "lon": -77.04880283333334, "bike_id": "02af9d54ecc97f1e3d6ade4b1602df3d", "rental_uris": {"android": "https://dc.lft.to/lastmile_qr_scan", "ios": "https://dc.lft.to/lastmile_qr_scan"}, "name": "02af9d54ecc97f1e3d6ade4b1602df3d", "is_reserved": 0}, {"is_disabled": 0, "fusion_lon": 0.0, "fusion_lat": 0.0, "lat": 38.892212, "type": "electric_scooter", "lon": -77.02220816666667, "bike_id": "9a3912229aba4902ca6589afa603b9be", "rental_uris": {"android": "https://dc.lft.to/lastmile_qr_scan", "ios": "https://dc.lft.to/lastmile_qr_scan"}, "name": "9a3912229aba4902ca6589afa603b9be", "is_reserved": 0}, {"is_disabled": 0, "fusion_lon": 0.0, "fusion_lat": 0.0, "lat": 38.90794783333333, "type": "electric_scooter", "lon": -77.036644, "bike_id": "2dcb85a1b01d54d8a59e52117abe3825", "rental_uris": {"android": "https://dc.lft.to/lastmile_qr_scan", "ios": "https://dc.lft.to/lastmile_qr_scan"}, "name": "2dcb85a1b01d54d8a59e52117abe3825", "is_reserved": 0}, {"is_disabled": 0, "fusion_lon": 0.0, "fusion_lat": 0.0, "lat": 38.9265065, "type": "electric_scooter", "lon": -77.03718766666667, "bike_id": "0d6e8a9b5480ab90a6b3f47a261e4bd1", "rental_uris": {"android": "https://dc.lft.to/lastmile_qr_scan", "ios": "https://dc.lft.to/lastmile_qr_scan"}, "name": "0d6e8a9b5480ab90a6b3f47a261e4bd1", "is_reserved": 0}, {"is_disabled": 0, "fusion_lon": 0.0, "fusion_lat": 0.0, "lat": 38.91707983333333, "type": "electric_scooter", "lon": -77.02989233333334, "bike_id": "ec38e07cd39021908e4f83def6ac6d9a", "rental_uris": {"android": "https://dc.lft.to/lastmile_qr_scan", "ios": "https://dc.lft.to/lastmile_qr_scan"}, "name": "ec38e07cd39021908e4f83def6ac6d9a", "is_reserved": 0}, {"is_disabled": 0, "fusion_lon": 0.0, "fusion_lat": 0.0, "lat": 38.892221666666664, "type": "electric_scooter", "lon": -77.04016366666667, "bike_id": "3596bcc1fde40a942677b2fb27557c8c", "rental_uris": {"android": "https://dc.lft.to/lastmile_qr_scan", "ios": "https://dc.lft.to/lastmile_qr_scan"}, "name": "3596bcc1fde40a942677b2fb27557c8c", "is_reserved": 0}, {"is_disabled": 0, "fusion_lon": 0.0, "fusion_lat": 0.0, "lat": 38.876604, "type": "electric_scooter", "lon": -77.00939533333333, "bike_id": "ea00bb613b6a0a2e09eaea03f976339f", "rental_uris": {"android": "https://dc.lft.to/lastmile_qr_scan", "ios": "https://dc.lft.to/lastmile_qr_scan"}, "name": "ea00bb613b6a0a2e09eaea03f976339f", "is_reserved": 0}, {"is_disabled": 0, "fusion_lon": 0.0, "fusion_lat": 0.0, "lat": 38.95650233333333, "type": "electric_scooter", "lon": -77.03287566666667, "bike_id": "beef2bb5ae13a124822cfd09fa539d08", "rental_uris": {"android": "https://dc.lft.to/lastmile_qr_scan", "ios": "https://dc.lft.to/lastmile_qr_scan"}, "name": "beef2bb5ae13a124822cfd09fa539d08", "is_reserved": 0}, {"is_disabled": 0, "fusion_lon": 0.0, "fusion_lat": 0.0, "lat": 38.89536616666667, "type": "electric_scooter", "lon": -77.02815966666667, "bike_id": "392e7d606326a288f7aac7b294ab67d5", "rental_uris": {"android": "https://dc.lft.to/lastmile_qr_scan", "ios": "https://dc.lft.to/lastmile_qr_scan"}, "name": "392e7d606326a288f7aac7b294ab67d5", "is_reserved": 0}, {"is_disabled": 0, "fusion_lon": 0.0, "fusion_lat": 0.0, "lat": 38.896791666666665, "type": "electric_scooter", "lon": -77.05127866666666, "bike_id": "8f9564312aa43c4b29bef7068f951388", "rental_uris": {"android": "https://dc.lft.to/lastmile_qr_scan", "ios": "https://dc.lft.to/lastmile_qr_scan"}, "name": "8f9564312aa43c4b29bef7068f951388", "is_reserved": 0}, {"is_disabled": 0, "fusion_lon": 0.0, "fusion_lat": 0.0, "lat": 38.90784416666666, "type": "electric_scooter", "lon": -77.0344665, "bike_id": "c42707c6b5a2b716483946ae34739de1", "rental_uris": {"android": "https://dc.lft.to/lastmile_qr_scan", "ios": "https://dc.lft.to/lastmile_qr_scan"}, "name": "c42707c6b5a2b716483946ae34739de1", "is_reserved": 0}, {"is_disabled": 0, "fusion_lon": 0.0, "fusion_lat": 0.0, "lat": 38.909664, "type": "electric_scooter", "lon": -77.06764283333334, "bike_id": "b6ac546ff000d8bcd0f19110ff4976ca", "rental_uris": {"android": "https://dc.lft.to/lastmile_qr_scan", "ios": "https://dc.lft.to/lastmile_qr_scan"}, "name": "b6ac546ff000d8bcd0f19110ff4976ca", "is_reserved": 0}, {"is_disabled": 0, "fusion_lon": 0.0, "fusion_lat": 0.0, "lat": 38.8762495, "type": "electric_scooter", "lon": -76.96539633333333, "bike_id": "52a2adc150fde0b4938533a0540602f6", "rental_uris": {"android": "https://dc.lft.to/lastmile_qr_scan", "ios": "https://dc.lft.to/lastmile_qr_scan"}, "name": "52a2adc150fde0b4938533a0540602f6", "is_reserved": 0}, {"is_disabled": 0, "fusion_lon": 0.0, "fusion_lat": 0.0, "lat": 38.917099666666665, "type": "electric_scooter", "lon": -77.036622, "bike_id": "cef44d2fe3c6814b4cfe555d38dfaf8b", "rental_uris": {"android": "https://dc.lft.to/lastmile_qr_scan", "ios": "https://dc.lft.to/lastmile_qr_scan"}, "name": "cef44d2fe3c6814b4cfe555d38dfaf8b", "is_reserved": 0}, {"is_disabled": 0, "fusion_lon": 0.0, "fusion_lat": 0.0, "lat": 38.907355, "type": "electric_scooter", "lon": -77.03446183333334, "bike_id": "8d04a44c0100e8b11ead2585274fad0d", "rental_uris": {"android": "https://dc.lft.to/lastmile_qr_scan", "ios": "https://dc.lft.to/lastmile_qr_scan"}, "name": "8d04a44c0100e8b11ead2585274fad0d", "is_reserved": 0}, {"is_disabled": 0, "fusion_lon": 0.0, "fusion_lat": 0.0, "lat": 38.9420025, "type": "electric_scooter", "lon": -77.0258105, "bike_id": "965f96169a9d4877da795cdab0bde226", "rental_uris": {"android": "https://dc.lft.to/lastmile_qr_scan", "ios": "https://dc.lft.to/lastmile_qr_scan"}, "name": "965f96169a9d4877da795cdab0bde226", "is_reserved": 0}, {"is_disabled": 0, "fusion_lon": 0.0, "fusion_lat": 0.0, "lat": 38.919350333333334, "type": "electric_scooter", "lon": -77.02593316666666, "bike_id": "b3bef974491106d18b8140260b92e957", "rental_uris": {"android": "https://dc.lft.to/lastmile_qr_scan", "ios": "https://dc.lft.to/lastmile_qr_scan"}, "name": "b3bef974491106d18b8140260b92e957", "is_reserved": 0}, {"is_disabled": 0, "fusion_lon": 0.0, "fusion_lat": 0.0, "lat": 38.9089375, "type": "electric_scooter", "lon": -76.99855683333334, "bike_id": "f6b9bce7248447ac3aabd1391ccf2014", "rental_uris": {"android": "https://dc.lft.to/lastmile_qr_scan", "ios": "https://dc.lft.to/lastmile_qr_scan"}, "name": "f6b9bce7248447ac3aabd1391ccf2014", "is_reserved": 0}, {"is_disabled": 0, "fusion_lon": 0.0, "fusion_lat": 0.0, "lat": 38.98826533333333, "type": "electric_bike", "lon": -76.98749516666666, "bike_id": "8157a0b4fa1385616122109617d3aef1", "rental_uris": {"android": "https://dc.lft.to/lastmile_qr_scan", "ios": "https://dc.lft.to/lastmile_qr_scan"}, "name": "8157a0b4fa1385616122109617d3aef1", "is_reserved": 0}, {"is_disabled": 0, "fusion_lon": 0.0, "fusion_lat": 0.0, "lat": 38.89880483333334, "type": "electric_scooter", "lon": -76.9868415, "bike_id": "915d717615801b01c7f2776be360f50e", "rental_uris": {"android": "https://dc.lft.to/lastmile_qr_scan", "ios": "https://dc.lft.to/lastmile_qr_scan"}, "name": "915d717615801b01c7f2776be360f50e", "is_reserved": 0}, {"is_disabled": 0, "fusion_lon": 0.0, "fusion_lat": 0.0, "lat": 38.92256066666667, "type": "electric_scooter", "lon": -77.03524533333334, "bike_id": "572c93fab0b3efbd2b5533978fc579f7", "rental_uris": {"android": "https://dc.lft.to/lastmile_qr_scan", "ios": "https://dc.lft.to/lastmile_qr_scan"}, "name": "572c93fab0b3efbd2b5533978fc579f7", "is_reserved": 0}, {"is_disabled": 0, "fusion_lon": 0.0, "fusion_lat": 0.0, "lat": 38.927435833333334, "type": "electric_scooter", "lon": -77.033531, "bike_id": "90ad3096ac8cc743f4423890fec61beb", "rental_uris": {"android": "https://dc.lft.to/lastmile_qr_scan", "ios": "https://dc.lft.to/lastmile_qr_scan"}, "name": "90ad3096ac8cc743f4423890fec61beb", "is_reserved": 0}, {"is_disabled": 0, "fusion_lon": 0.0, "fusion_lat": 0.0, "lat": 38.901594833333334, "type": "electric_scooter", "lon": -77.05322416666667, "bike_id": "042062a8f8c546dc10d5d321b5172823", "rental_uris": {"android": "https://dc.lft.to/lastmile_qr_scan", "ios": "https://dc.lft.to/lastmile_qr_scan"}, "name": "042062a8f8c546dc10d5d321b5172823", "is_reserved": 0}, {"is_disabled": 0, "fusion_lon": 0.0, "fusion_lat": 0.0, "lat": 38.882745166666666, "type": "electric_scooter", "lon": -76.987796, "bike_id": "7e887435958031155423097a9aface1c", "rental_uris": {"android": "https://dc.lft.to/lastmile_qr_scan", "ios": "https://dc.lft.to/lastmile_qr_scan"}, "name": "7e887435958031155423097a9aface1c", "is_reserved": 0}, {"is_disabled": 0, "fusion_lon": 0.0, "fusion_lat": 0.0, "lat": 38.92577633333333, "type": "electric_scooter", "lon": -76.99498383333334, "bike_id": "3574310446bf4fdc710ad82dcf8f6342", "rental_uris": {"android": "https://dc.lft.to/lastmile_qr_scan", "ios": "https://dc.lft.to/lastmile_qr_scan"}, "name": "3574310446bf4fdc710ad82dcf8f6342", "is_reserved": 0}, {"is_disabled": 0, "fusion_lon": 0.0, "fusion_lat": 0.0, "lat": 38.80362216666666, "type": "electric_bike", "lon": -77.03896133333333, "bike_id": "fc5ba76b7e45a1c93475660baaded742", "rental_uris": {"android": "https://dc.lft.to/lastmile_qr_scan", "ios": "https://dc.lft.to/lastmile_qr_scan"}, "name": "fc5ba76b7e45a1c93475660baaded742", "is_reserved": 0}, {"is_disabled": 0, "fusion_lon": 0.0, "fusion_lat": 0.0, "lat": 38.93349883333333, "type": "electric_scooter", "lon": -77.03885333333334, "bike_id": "0dc0ffb139dddf7ff76378489d847226", "rental_uris": {"android": "https://dc.lft.to/lastmile_qr_scan", "ios": "https://dc.lft.to/lastmile_qr_scan"}, "name": "0dc0ffb139dddf7ff76378489d847226", "is_reserved": 0}, {"is_disabled": 0, "fusion_lon": 0.0, "fusion_lat": 0.0, "lat": 38.9249745, "type": "electric_scooter", "lon": -77.02444116666666, "bike_id": "28b118a25ac99dbd140f3fdf2fb2f2df", "rental_uris": {"android": "https://dc.lft.to/lastmile_qr_scan", "ios": "https://dc.lft.to/lastmile_qr_scan"}, "name": "28b118a25ac99dbd140f3fdf2fb2f2df", "is_reserved": 0}, {"is_disabled": 0, "fusion_lon": 0.0, "fusion_lat": 0.0, "lat": 38.8850955, "type": "electric_scooter", "lon": -77.0209235, "bike_id": "cee937ecd2ca3ce8ce51b3f0a0ede6d1", "rental_uris": {"android": "https://dc.lft.to/lastmile_qr_scan", "ios": "https://dc.lft.to/lastmile_qr_scan"}, "name": "cee937ecd2ca3ce8ce51b3f0a0ede6d1", "is_reserved": 0}, {"is_disabled": 0, "fusion_lon": 0.0, "fusion_lat": 0.0, "lat": 38.91011683333333, "type": "electric_scooter", "lon": -77.04419116666666, "bike_id": "fb6673f1449355c5b0fa3752884824e3", "rental_uris": {"android": "https://dc.lft.to/lastmile_qr_scan", "ios": "https://dc.lft.to/lastmile_qr_scan"}, "name": "fb6673f1449355c5b0fa3752884824e3", "is_reserved": 0}, {"is_disabled": 0, "fusion_lon": 0.0, "fusion_lat": 0.0, "lat": 38.897361833333335, "type": "electric_scooter", "lon": -77.04681483333333, "bike_id": "b96a6a5583823f8ac6e1ee4b8f77cbcc", "rental_uris": {"android": "https://dc.lft.to/lastmile_qr_scan", "ios": "https://dc.lft.to/lastmile_qr_scan"}, "name": "b96a6a5583823f8ac6e1ee4b8f77cbcc", "is_reserved": 0}, {"is_disabled": 0, "fusion_lon": 0.0, "fusion_lat": 0.0, "lat": 38.928485333333334, "type": "electric_scooter", "lon": -76.997753, "bike_id": "469579579110d0f4a2f75b7b003450b5", "rental_uris": {"android": "https://dc.lft.to/lastmile_qr_scan", "ios": "https://dc.lft.to/lastmile_qr_scan"}, "name": "469579579110d0f4a2f75b7b003450b5", "is_reserved": 0}, {"is_disabled": 0, "fusion_lon": 0.0, "fusion_lat": 0.0, "lat": 38.931681833333336, "type": "electric_scooter", "lon": -77.072624, "bike_id": "1f046c3a9e8a5322296d035a8b0b8999", "rental_uris": {"android": "https://dc.lft.to/lastmile_qr_scan", "ios": "https://dc.lft.to/lastmile_qr_scan"}, "name": "1f046c3a9e8a5322296d035a8b0b8999", "is_reserved": 0}, {"is_disabled": 0, "fusion_lon": 0.0, "fusion_lat": 0.0, "lat": 38.907734833333336, "type": "electric_scooter", "lon": -77.04665233333333, "bike_id": "0ac0cd1186eec01c7b9b43ddac464eb3", "rental_uris": {"android": "https://dc.lft.to/lastmile_qr_scan", "ios": "https://dc.lft.to/lastmile_qr_scan"}, "name": "0ac0cd1186eec01c7b9b43ddac464eb3", "is_reserved": 0}, {"is_disabled": 0, "fusion_lon": 0.0, "fusion_lat": 0.0, "lat": 38.92530166666667, "type": "electric_scooter", "lon": -77.03554083333333, "bike_id": "ea127de2767485e2d2535618bb53f94c", "rental_uris": {"android": "https://dc.lft.to/lastmile_qr_scan", "ios": "https://dc.lft.to/lastmile_qr_scan"}, "name": "ea127de2767485e2d2535618bb53f94c", "is_reserved": 0}, {"is_disabled": 0, "fusion_lon": 0.0, "fusion_lat": 0.0, "lat": 38.85281883333333, "type": "electric_bike", "lon": -76.98158183333334, "bike_id": "29d3fb56f372056852bcdf729d1e8dd7", "rental_uris": {"android": "https://dc.lft.to/lastmile_qr_scan", "ios": "https://dc.lft.to/lastmile_qr_scan"}, "name": "29d3fb56f372056852bcdf729d1e8dd7", "is_reserved": 0}, {"is_disabled": 0, "fusion_lon": 0.0, "fusion_lat": 0.0, "lat": 38.9047325, "type": "electric_bike", "lon": -76.92950683333333, "bike_id": "f6e32fd1a505a0c0fefe52c76b6cd4b0", "rental_uris": {"android": "https://dc.lft.to/lastmile_qr_scan", "ios": "https://dc.lft.to/lastmile_qr_scan"}, "name": "f6e32fd1a505a0c0fefe52c76b6cd4b0", "is_reserved": 0}, {"is_disabled": 0, "fusion_lon": 0.0, "fusion_lat": 0.0, "lat": 38.915924833333335, "type": "electric_scooter", "lon": -77.04025616666667, "bike_id": "5fff8250c60fd3d6ca240a6d12574f21", "rental_uris": {"android": "https://dc.lft.to/lastmile_qr_scan", "ios": "https://dc.lft.to/lastmile_qr_scan"}, "name": "5fff8250c60fd3d6ca240a6d12574f21", "is_reserved": 0}, {"is_disabled": 0, "fusion_lon": 0.0, "fusion_lat": 0.0, "lat": 38.920016833333335, "type": "electric_scooter", "lon": -77.03148016666667, "bike_id": "11728a22aed8320b801154d2c1edd3d9", "rental_uris": {"android": "https://dc.lft.to/lastmile_qr_scan", "ios": "https://dc.lft.to/lastmile_qr_scan"}, "name": "11728a22aed8320b801154d2c1edd3d9", "is_reserved": 0}, {"is_disabled": 0, "fusion_lon": 0.0, "fusion_lat": 0.0, "lat": 38.85839433333334, "type": "electric_scooter", "lon": -76.99071866666667, "bike_id": "3065325be265e8847ff0d4c46d96464d", "rental_uris": {"android": "https://dc.lft.to/lastmile_qr_scan", "ios": "https://dc.lft.to/lastmile_qr_scan"}, "name": "3065325be265e8847ff0d4c46d96464d", "is_reserved": 0}, {"is_disabled": 0, "fusion_lon": 0.0, "fusion_lat": 0.0, "lat": 38.962201666666665, "type": "electric_scooter", "lon": -77.0280265, "bike_id": "b88468616f2bef60d39d299bf14fc026", "rental_uris": {"android": "https://dc.lft.to/lastmile_qr_scan", "ios": "https://dc.lft.to/lastmile_qr_scan"}, "name": "b88468616f2bef60d39d299bf14fc026", "is_reserved": 0}, {"is_disabled": 0, "fusion_lon": 0.0, "fusion_lat": 0.0, "lat": 38.94984216666667, "type": "electric_scooter", "lon": -77.02703716666667, "bike_id": "f2cb6b18577d28a0c9db1808a9b0a693", "rental_uris": {"android": "https://dc.lft.to/lastmile_qr_scan", "ios": "https://dc.lft.to/lastmile_qr_scan"}, "name": "f2cb6b18577d28a0c9db1808a9b0a693", "is_reserved": 0}, {"is_disabled": 0, "fusion_lon": 0.0, "fusion_lat": 0.0, "lat": 38.895098833333336, "type": "electric_scooter", "lon": -77.02285683333334, "bike_id": "71be93c83ab20e4771ab5a8f6f13d981", "rental_uris": {"android": "https://dc.lft.to/lastmile_qr_scan", "ios": "https://dc.lft.to/lastmile_qr_scan"}, "name": "71be93c83ab20e4771ab5a8f6f13d981", "is_reserved": 0}, {"is_disabled": 0, "fusion_lon": 0.0, "fusion_lat": 0.0, "lat": 38.924856, "type": "electric_scooter", "lon": -77.02195383333333, "bike_id": "f898859f4c5d7a62239d35716965791a", "rental_uris": {"android": "https://dc.lft.to/lastmile_qr_scan", "ios": "https://dc.lft.to/lastmile_qr_scan"}, "name": "f898859f4c5d7a62239d35716965791a", "is_reserved": 0}, {"is_disabled": 0, "fusion_lon": 0.0, "fusion_lat": 0.0, "lat": 38.9619205, "type": "electric_scooter", "lon": -77.02782816666667, "bike_id": "2248b24f7f37670fbd541d8b955fff5a", "rental_uris": {"android": "https://dc.lft.to/lastmile_qr_scan", "ios": "https://dc.lft.to/lastmile_qr_scan"}, "name": "2248b24f7f37670fbd541d8b955fff5a", "is_reserved": 0}, {"is_disabled": 0, "fusion_lon": 0.0, "fusion_lat": 0.0, "lat": 38.87828483333333, "type": "electric_scooter", "lon": -76.96307183333333, "bike_id": "40e4e3b3c90e90b75e4524f133ad15c9", "rental_uris": {"android": "https://dc.lft.to/lastmile_qr_scan", "ios": "https://dc.lft.to/lastmile_qr_scan"}, "name": "40e4e3b3c90e90b75e4524f133ad15c9", "is_reserved": 0}, {"is_disabled": 0, "fusion_lon": 0.0, "fusion_lat": 0.0, "lat": 38.909606, "type": "electric_scooter", "lon": -77.02312183333333, "bike_id": "c5e6133120a21ca79c58bd00e5dbfe95", "rental_uris": {"android": "https://dc.lft.to/lastmile_qr_scan", "ios": "https://dc.lft.to/lastmile_qr_scan"}, "name": "c5e6133120a21ca79c58bd00e5dbfe95", "is_reserved": 0}, {"is_disabled": 0, "fusion_lon": 0.0, "fusion_lat": 0.0, "lat": 38.90250016666667, "type": "electric_scooter", "lon": -77.03475966666667, "bike_id": "5e3f7fd7562c4b7d519f9b78a81cbdfa", "rental_uris": {"android": "https://dc.lft.to/lastmile_qr_scan", "ios": "https://dc.lft.to/lastmile_qr_scan"}, "name": "5e3f7fd7562c4b7d519f9b78a81cbdfa", "is_reserved": 0}, {"is_disabled": 0, "fusion_lon": 0.0, "fusion_lat": 0.0, "lat": 38.902624, "type": "electric_scooter", "lon": -77.0175025, "bike_id": "dddf1266d91d3471ad068a63a55239d1", "rental_uris": {"android": "https://dc.lft.to/lastmile_qr_scan", "ios": "https://dc.lft.to/lastmile_qr_scan"}, "name": "dddf1266d91d3471ad068a63a55239d1", "is_reserved": 0}, {"is_disabled": 0, "fusion_lon": 0.0, "fusion_lat": 0.0, "lat": 38.860451833333336, "type": "electric_scooter", "lon": -76.98378316666667, "bike_id": "b1953ba8defcc51eb94a733484f5fd35", "rental_uris": {"android": "https://dc.lft.to/lastmile_qr_scan", "ios": "https://dc.lft.to/lastmile_qr_scan"}, "name": "b1953ba8defcc51eb94a733484f5fd35", "is_reserved": 0}, {"is_disabled": 0, "fusion_lon": 0.0, "fusion_lat": 0.0, "lat": 38.86517116666667, "type": "electric_scooter", "lon": -76.97345666666666, "bike_id": "aebe3f6525a71634aeffc5a00ffe57a2", "rental_uris": {"android": "https://dc.lft.to/lastmile_qr_scan", "ios": "https://dc.lft.to/lastmile_qr_scan"}, "name": "aebe3f6525a71634aeffc5a00ffe57a2", "is_reserved": 0}, {"is_disabled": 0, "fusion_lon": 0.0, "fusion_lat": 0.0, "lat": 38.89236233333333, "type": "electric_scooter", "lon": -77.0220655, "bike_id": "722eab8367837f479adfd021c6aca39e", "rental_uris": {"android": "https://dc.lft.to/lastmile_qr_scan", "ios": "https://dc.lft.to/lastmile_qr_scan"}, "name": "722eab8367837f479adfd021c6aca39e", "is_reserved": 0}, {"is_disabled": 0, "fusion_lon": 0.0, "fusion_lat": 0.0, "lat": 38.918321166666665, "type": "electric_scooter", "lon": -77.03941233333333, "bike_id": "55f2808e519c5b954ce9435760356c48", "rental_uris": {"android": "https://dc.lft.to/lastmile_qr_scan", "ios": "https://dc.lft.to/lastmile_qr_scan"}, "name": "55f2808e519c5b954ce9435760356c48", "is_reserved": 0}, {"is_disabled": 0, "fusion_lon": 0.0, "fusion_lat": 0.0, "lat": 38.92074733333333, "type": "electric_scooter", "lon": -77.01813016666667, "bike_id": "2acc9f6ffde2ed9ee885fef8e84b3bac", "rental_uris": {"android": "https://dc.lft.to/lastmile_qr_scan", "ios": "https://dc.lft.to/lastmile_qr_scan"}, "name": "2acc9f6ffde2ed9ee885fef8e84b3bac", "is_reserved": 0}, {"is_disabled": 0, "fusion_lon": 0.0, "fusion_lat": 0.0, "lat": 38.901245333333335, "type": "electric_scooter", "lon": -77.01744116666667, "bike_id": "c6b7f283b7fa16350ffdcb8739e8cb15", "rental_uris": {"android": "https://dc.lft.to/lastmile_qr_scan", "ios": "https://dc.lft.to/lastmile_qr_scan"}, "name": "c6b7f283b7fa16350ffdcb8739e8cb15", "is_reserved": 0}, {"is_disabled": 0, "fusion_lon": 0.0, "fusion_lat": 0.0, "lat": 38.8897365, "type": "electric_scooter", "lon": -76.98746383333334, "bike_id": "a9fd9d09fed989652871531349090dcd", "rental_uris": {"android": "https://dc.lft.to/lastmile_qr_scan", "ios": "https://dc.lft.to/lastmile_qr_scan"}, "name": "a9fd9d09fed989652871531349090dcd", "is_reserved": 0}, {"is_disabled": 0, "fusion_lon": 0.0, "fusion_lat": 0.0, "lat": 38.896596333333335, "type": "electric_bike", "lon": -77.032156, "bike_id": "275c51d9dcc86be10e11713c5d217ed5", "rental_uris": {"android": "https://dc.lft.to/lastmile_qr_scan", "ios": "https://dc.lft.to/lastmile_qr_scan"}, "name": "275c51d9dcc86be10e11713c5d217ed5", "is_reserved": 0}, {"is_disabled": 0, "fusion_lon": 0.0, "fusion_lat": 0.0, "lat": 38.89720333333333, "type": "electric_scooter", "lon": -77.03357716666666, "bike_id": "abbf52f3eaaed9f3fb7664beff9e89eb", "rental_uris": {"android": "https://dc.lft.to/lastmile_qr_scan", "ios": "https://dc.lft.to/lastmile_qr_scan"}, "name": "abbf52f3eaaed9f3fb7664beff9e89eb", "is_reserved": 0}, {"is_disabled": 0, "fusion_lon": 0.0, "fusion_lat": 0.0, "lat": 38.9013315, "type": "electric_scooter", "lon": -77.04332283333333, "bike_id": "cb52f140d9162b9582b78af101df527c", "rental_uris": {"android": "https://dc.lft.to/lastmile_qr_scan", "ios": "https://dc.lft.to/lastmile_qr_scan"}, "name": "cb52f140d9162b9582b78af101df527c", "is_reserved": 0}, {"is_disabled": 0, "fusion_lon": 0.0, "fusion_lat": 0.0, "lat": 38.89564383333333, "type": "electric_bike", "lon": -76.97617333333334, "bike_id": "3362e3d0702c756eef745545f987850c", "rental_uris": {"android": "https://dc.lft.to/lastmile_qr_scan", "ios": "https://dc.lft.to/lastmile_qr_scan"}, "name": "3362e3d0702c756eef745545f987850c", "is_reserved": 0}, {"is_disabled": 0, "fusion_lon": 0.0, "fusion_lat": 0.0, "lat": 38.8987985, "type": "electric_scooter", "lon": -76.93159183333333, "bike_id": "e2e012dc0433de049c72c75f6e2666e1", "rental_uris": {"android": "https://dc.lft.to/lastmile_qr_scan", "ios": "https://dc.lft.to/lastmile_qr_scan"}, "name": "e2e012dc0433de049c72c75f6e2666e1", "is_reserved": 0}, {"is_disabled": 0, "fusion_lon": 0.0, "fusion_lat": 0.0, "lat": 38.865856666666666, "type": "electric_scooter", "lon": -76.99045483333333, "bike_id": "1ecd48c810b1efbe13fb72013ac6ec9b", "rental_uris": {"android": "https://dc.lft.to/lastmile_qr_scan", "ios": "https://dc.lft.to/lastmile_qr_scan"}, "name": "1ecd48c810b1efbe13fb72013ac6ec9b", "is_reserved": 0}, {"is_disabled": 0, "fusion_lon": 0.0, "fusion_lat": 0.0, "lat": 38.95013316666667, "type": "electric_bike", "lon": -77.05469333333333, "bike_id": "b8d11670e466092c549390138d37b1b0", "rental_uris": {"android": "https://dc.lft.to/lastmile_qr_scan", "ios": "https://dc.lft.to/lastmile_qr_scan"}, "name": "b8d11670e466092c549390138d37b1b0", "is_reserved": 0}, {"is_disabled": 0, "fusion_lon": 0.0, "fusion_lat": 0.0, "lat": 38.89223233333333, "type": "electric_scooter", "lon": -77.04709516666667, "bike_id": "68e6d3e2363d6e63b34e542e5f017062", "rental_uris": {"android": "https://dc.lft.to/lastmile_qr_scan", "ios": "https://dc.lft.to/lastmile_qr_scan"}, "name": "68e6d3e2363d6e63b34e542e5f017062", "is_reserved": 0}, {"is_disabled": 0, "fusion_lon": 0.0, "fusion_lat": 0.0, "lat": 38.892243, "type": "electric_scooter", "lon": -77.04787133333333, "bike_id": "f7c4440a9d0f038e40a305ed106e5906", "rental_uris": {"android": "https://dc.lft.to/lastmile_qr_scan", "ios": "https://dc.lft.to/lastmile_qr_scan"}, "name": "f7c4440a9d0f038e40a305ed106e5906", "is_reserved": 0}, {"is_disabled": 0, "fusion_lon": 0.0, "fusion_lat": 0.0, "lat": 38.93276916666667, "type": "electric_scooter", "lon": -77.039759, "bike_id": "73b2c613e517f300aa44cfb3634f09d0", "rental_uris": {"android": "https://dc.lft.to/lastmile_qr_scan", "ios": "https://dc.lft.to/lastmile_qr_scan"}, "name": "73b2c613e517f300aa44cfb3634f09d0", "is_reserved": 0}, {"is_disabled": 0, "fusion_lon": 0.0, "fusion_lat": 0.0, "lat": 38.881234, "type": "electric_bike", "lon": -77.00188266666666, "bike_id": "ec76bd0a17014059c0b7fc7caeb96d28", "rental_uris": {"android": "https://dc.lft.to/lastmile_qr_scan", "ios": "https://dc.lft.to/lastmile_qr_scan"}, "name": "ec76bd0a17014059c0b7fc7caeb96d28", "is_reserved": 0}, {"is_disabled": 0, "fusion_lon": 0.0, "fusion_lat": 0.0, "lat": 38.91300833333333, "type": "electric_scooter", "lon": -77.03203916666666, "bike_id": "d2db0fe7a910c6cf9187f4a29ab76c02", "rental_uris": {"android": "https://dc.lft.to/lastmile_qr_scan", "ios": "https://dc.lft.to/lastmile_qr_scan"}, "name": "d2db0fe7a910c6cf9187f4a29ab76c02", "is_reserved": 0}, {"is_disabled": 0, "fusion_lon": 0.0, "fusion_lat": 0.0, "lat": 38.90039733333333, "type": "electric_scooter", "lon": -77.02914983333334, "bike_id": "d72550b782b41168f86f21c6d8f01dca", "rental_uris": {"android": "https://dc.lft.to/lastmile_qr_scan", "ios": "https://dc.lft.to/lastmile_qr_scan"}, "name": "d72550b782b41168f86f21c6d8f01dca", "is_reserved": 0}, {"is_disabled": 0, "fusion_lon": 0.0, "fusion_lat": 0.0, "lat": 38.890783166666665, "type": "electric_scooter", "lon": -76.93870466666667, "bike_id": "353cf169ddcd59b9c035eafd524cdf19", "rental_uris": {"android": "https://dc.lft.to/lastmile_qr_scan", "ios": "https://dc.lft.to/lastmile_qr_scan"}, "name": "353cf169ddcd59b9c035eafd524cdf19", "is_reserved": 0}, {"is_disabled": 0, "fusion_lon": 0.0, "fusion_lat": 0.0, "lat": 38.909422166666666, "type": "electric_scooter", "lon": -77.03519483333334, "bike_id": "467dfc0d510e0a935f6f33a8b15e863e", "rental_uris": {"android": "https://dc.lft.to/lastmile_qr_scan", "ios": "https://dc.lft.to/lastmile_qr_scan"}, "name": "467dfc0d510e0a935f6f33a8b15e863e", "is_reserved": 0}, {"is_disabled": 0, "fusion_lon": 0.0, "fusion_lat": 0.0, "lat": 38.9082175, "type": "electric_scooter", "lon": -77.0384665, "bike_id": "a168cecc34e1ddd46ece37a8b2349c7b", "rental_uris": {"android": "https://dc.lft.to/lastmile_qr_scan", "ios": "https://dc.lft.to/lastmile_qr_scan"}, "name": "a168cecc34e1ddd46ece37a8b2349c7b", "is_reserved": 0}, {"is_disabled": 0, "fusion_lon": 0.0, "fusion_lat": 0.0, "lat": 38.9429405, "type": "electric_scooter", "lon": -77.02176366666667, "bike_id": "3533052a686287a55db62c174d2b4891", "rental_uris": {"android": "https://dc.lft.to/lastmile_qr_scan", "ios": "https://dc.lft.to/lastmile_qr_scan"}, "name": "3533052a686287a55db62c174d2b4891", "is_reserved": 0}, {"is_disabled": 0, "fusion_lon": 0.0, "fusion_lat": 0.0, "lat": 38.867369333333336, "type": "electric_scooter", "lon": -76.98850233333333, "bike_id": "ed4b8ea4a9de7af7e18ca09f722467c1", "rental_uris": {"android": "https://dc.lft.to/lastmile_qr_scan", "ios": "https://dc.lft.to/lastmile_qr_scan"}, "name": "ed4b8ea4a9de7af7e18ca09f722467c1", "is_reserved": 0}, {"is_disabled": 0, "fusion_lon": 0.0, "fusion_lat": 0.0, "lat": 38.949788166666664, "type": "electric_scooter", "lon": -77.02703966666667, "bike_id": "e4d7b91be9cbad4c5f49789a8e4f16f7", "rental_uris": {"android": "https://dc.lft.to/lastmile_qr_scan", "ios": "https://dc.lft.to/lastmile_qr_scan"}, "name": "e4d7b91be9cbad4c5f49789a8e4f16f7", "is_reserved": 0}, {"is_disabled": 0, "fusion_lon": 0.0, "fusion_lat": 0.0, "lat": 38.90614933333333, "type": "electric_scooter", "lon": -77.03725216666666, "bike_id": "f9ebf4a48a3f91861d6a48ccd860d4ca", "rental_uris": {"android": "https://dc.lft.to/lastmile_qr_scan", "ios": "https://dc.lft.to/lastmile_qr_scan"}, "name": "f9ebf4a48a3f91861d6a48ccd860d4ca", "is_reserved": 0}, {"is_disabled": 0, "fusion_lon": 0.0, "fusion_lat": 0.0, "lat": 38.91185566666667, "type": "electric_scooter", "lon": -77.02978933333333, "bike_id": "dd18668572d8d7fd515cef1158501e78", "rental_uris": {"android": "https://dc.lft.to/lastmile_qr_scan", "ios": "https://dc.lft.to/lastmile_qr_scan"}, "name": "dd18668572d8d7fd515cef1158501e78", "is_reserved": 0}, {"is_disabled": 0, "fusion_lon": 0.0, "fusion_lat": 0.0, "lat": 38.8700835, "type": "electric_scooter", "lon": -77.013778, "bike_id": "826dfa1a19a4714d54d7240965cde5f9", "rental_uris": {"android": "https://dc.lft.to/lastmile_qr_scan", "ios": "https://dc.lft.to/lastmile_qr_scan"}, "name": "826dfa1a19a4714d54d7240965cde5f9", "is_reserved": 0}, {"is_disabled": 0, "fusion_lon": 0.0, "fusion_lat": 0.0, "lat": 38.907183, "type": "electric_scooter", "lon": -77.02547083333333, "bike_id": "661ec877860870e02ea61b4452e77910", "rental_uris": {"android": "https://dc.lft.to/lastmile_qr_scan", "ios": "https://dc.lft.to/lastmile_qr_scan"}, "name": "661ec877860870e02ea61b4452e77910", "is_reserved": 0}, {"is_disabled": 0, "fusion_lon": 0.0, "fusion_lat": 0.0, "lat": 38.897970666666666, "type": "electric_scooter", "lon": -76.93057366666666, "bike_id": "a99d3f2c7817a6fe77162df29e34b01e", "rental_uris": {"android": "https://dc.lft.to/lastmile_qr_scan", "ios": "https://dc.lft.to/lastmile_qr_scan"}, "name": "a99d3f2c7817a6fe77162df29e34b01e", "is_reserved": 0}, {"is_disabled": 0, "fusion_lon": 0.0, "fusion_lat": 0.0, "lat": 38.9354255, "type": "electric_scooter", "lon": -77.0577065, "bike_id": "d229693036182cbb910a0f4321f9bb55", "rental_uris": {"android": "https://dc.lft.to/lastmile_qr_scan", "ios": "https://dc.lft.to/lastmile_qr_scan"}, "name": "d229693036182cbb910a0f4321f9bb55", "is_reserved": 0}, {"is_disabled": 0, "fusion_lon": 0.0, "fusion_lat": 0.0, "lat": 38.921209166666664, "type": "electric_bike", "lon": -77.01213416666667, "bike_id": "9777c0848c58d8a86d48cd2e2b34a322", "rental_uris": {"android": "https://dc.lft.to/lastmile_qr_scan", "ios": "https://dc.lft.to/lastmile_qr_scan"}, "name": "9777c0848c58d8a86d48cd2e2b34a322", "is_reserved": 0}, {"is_disabled": 0, "fusion_lon": 0.0, "fusion_lat": 0.0, "lat": 38.83153316666667, "type": "electric_bike", "lon": -76.99691016666667, "bike_id": "73e0b5afc875cc092be6ee2d6224a5ac", "rental_uris": {"android": "https://dc.lft.to/lastmile_qr_scan", "ios": "https://dc.lft.to/lastmile_qr_scan"}, "name": "73e0b5afc875cc092be6ee2d6224a5ac", "is_reserved": 0}, {"is_disabled": 0, "fusion_lon": 0.0, "fusion_lat": 0.0, "lat": 38.908463833333336, "type": "electric_scooter", "lon": -77.027118, "bike_id": "9e95d2a09fc81c8bf9bdaab0792b37dd", "rental_uris": {"android": "https://dc.lft.to/lastmile_qr_scan", "ios": "https://dc.lft.to/lastmile_qr_scan"}, "name": "9e95d2a09fc81c8bf9bdaab0792b37dd", "is_reserved": 0}, {"is_disabled": 0, "fusion_lon": 0.0, "fusion_lat": 0.0, "lat": 38.917129333333335, "type": "electric_scooter", "lon": -77.023003, "bike_id": "8d8b87487e02a7ec5357751c61f7d443", "rental_uris": {"android": "https://dc.lft.to/lastmile_qr_scan", "ios": "https://dc.lft.to/lastmile_qr_scan"}, "name": "8d8b87487e02a7ec5357751c61f7d443", "is_reserved": 0}, {"is_disabled": 0, "fusion_lon": 0.0, "fusion_lat": 0.0, "lat": 38.8921985, "type": "electric_scooter", "lon": -77.047134, "bike_id": "7937ff3f2e74ed980af1acf76adbd295", "rental_uris": {"android": "https://dc.lft.to/lastmile_qr_scan", "ios": "https://dc.lft.to/lastmile_qr_scan"}, "name": "7937ff3f2e74ed980af1acf76adbd295", "is_reserved": 0}, {"is_disabled": 0, "fusion_lon": 0.0, "fusion_lat": 0.0, "lat": 38.90615866666667, "type": "electric_bike", "lon": -77.07626066666667, "bike_id": "080645622b7e27a8bc0d5580e662c69a", "rental_uris": {"android": "https://dc.lft.to/lastmile_qr_scan", "ios": "https://dc.lft.to/lastmile_qr_scan"}, "name": "080645622b7e27a8bc0d5580e662c69a", "is_reserved": 0}, {"is_disabled": 0, "fusion_lon": 0.0, "fusion_lat": 0.0, "lat": 38.9211965, "type": "electric_scooter", "lon": -77.017409, "bike_id": "ec62fc25d1e59be128fa9c8e790d6a27", "rental_uris": {"android": "https://dc.lft.to/lastmile_qr_scan", "ios": "https://dc.lft.to/lastmile_qr_scan"}, "name": "ec62fc25d1e59be128fa9c8e790d6a27", "is_reserved": 0}, {"is_disabled": 0, "fusion_lon": 0.0, "fusion_lat": 0.0, "lat": 38.9002635, "type": "electric_scooter", "lon": -77.00795666666667, "bike_id": "ca9a2ca77b782cccc33fd9792ecc8229", "rental_uris": {"android": "https://dc.lft.to/lastmile_qr_scan", "ios": "https://dc.lft.to/lastmile_qr_scan"}, "name": "ca9a2ca77b782cccc33fd9792ecc8229", "is_reserved": 0}, {"is_disabled": 0, "fusion_lon": 0.0, "fusion_lat": 0.0, "lat": 38.927100833333334, "type": "electric_scooter", "lon": -77.04060216666667, "bike_id": "2967f3dcb8152eb57ec4207e25d893b0", "rental_uris": {"android": "https://dc.lft.to/lastmile_qr_scan", "ios": "https://dc.lft.to/lastmile_qr_scan"}, "name": "2967f3dcb8152eb57ec4207e25d893b0", "is_reserved": 0}, {"is_disabled": 0, "fusion_lon": 0.0, "fusion_lat": 0.0, "lat": 38.918339, "type": "electric_scooter", "lon": -77.02403983333333, "bike_id": "7df050fe5afae083e60e4d1ab313ee74", "rental_uris": {"android": "https://dc.lft.to/lastmile_qr_scan", "ios": "https://dc.lft.to/lastmile_qr_scan"}, "name": "7df050fe5afae083e60e4d1ab313ee74", "is_reserved": 0}, {"is_disabled": 0, "fusion_lon": 0.0, "fusion_lat": 0.0, "lat": 38.9386075, "type": "electric_scooter", "lon": -77.02651566666667, "bike_id": "f43e01941e9bb03acfa18aff1a8e61b2", "rental_uris": {"android": "https://dc.lft.to/lastmile_qr_scan", "ios": "https://dc.lft.to/lastmile_qr_scan"}, "name": "f43e01941e9bb03acfa18aff1a8e61b2", "is_reserved": 0}, {"is_disabled": 0, "fusion_lon": 0.0, "fusion_lat": 0.0, "lat": 38.91733983333334, "type": "electric_scooter", "lon": -77.023088, "bike_id": "1137ea73294d5f703b954034d213ee4a", "rental_uris": {"android": "https://dc.lft.to/lastmile_qr_scan", "ios": "https://dc.lft.to/lastmile_qr_scan"}, "name": "1137ea73294d5f703b954034d213ee4a", "is_reserved": 0}, {"is_disabled": 0, "fusion_lon": 0.0, "fusion_lat": 0.0, "lat": 38.92214533333333, "type": "electric_scooter", "lon": -77.033191, "bike_id": "d73b512a615f44562ad36255eb27aeec", "rental_uris": {"android": "https://dc.lft.to/lastmile_qr_scan", "ios": "https://dc.lft.to/lastmile_qr_scan"}, "name": "d73b512a615f44562ad36255eb27aeec", "is_reserved": 0}, {"is_disabled": 0, "fusion_lon": 0.0, "fusion_lat": 0.0, "lat": 38.87896633333333, "type": "electric_scooter", "lon": -77.00708516666667, "bike_id": "d969640de2b076bd61f5c2d1a79f118f", "rental_uris": {"android": "https://dc.lft.to/lastmile_qr_scan", "ios": "https://dc.lft.to/lastmile_qr_scan"}, "name": "d969640de2b076bd61f5c2d1a79f118f", "is_reserved": 0}, {"is_disabled": 0, "fusion_lon": 0.0, "fusion_lat": 0.0, "lat": 38.910045, "type": "electric_scooter", "lon": -77.0442335, "bike_id": "4500dbddd82dfcae1b5001bc1643741f", "rental_uris": {"android": "https://dc.lft.to/lastmile_qr_scan", "ios": "https://dc.lft.to/lastmile_qr_scan"}, "name": "4500dbddd82dfcae1b5001bc1643741f", "is_reserved": 0}, {"is_disabled": 0, "fusion_lon": 0.0, "fusion_lat": 0.0, "lat": 38.91698383333333, "type": "electric_scooter", "lon": -77.036497, "bike_id": "53e1ad91df592b694db0271751150831", "rental_uris": {"android": "https://dc.lft.to/lastmile_qr_scan", "ios": "https://dc.lft.to/lastmile_qr_scan"}, "name": "53e1ad91df592b694db0271751150831", "is_reserved": 0}, {"is_disabled": 0, "fusion_lon": 0.0, "fusion_lat": 0.0, "lat": 38.909930833333334, "type": "electric_scooter", "lon": -77.0373895, "bike_id": "3de040cf4afde85cb4b2f78f6b27eab6", "rental_uris": {"android": "https://dc.lft.to/lastmile_qr_scan", "ios": "https://dc.lft.to/lastmile_qr_scan"}, "name": "3de040cf4afde85cb4b2f78f6b27eab6", "is_reserved": 0}, {"is_disabled": 0, "fusion_lon": 0.0, "fusion_lat": 0.0, "lat": 38.92419683333333, "type": "electric_scooter", "lon": -77.04251216666667, "bike_id": "809b4609c30429a4a703c3103bcdefd5", "rental_uris": {"android": "https://dc.lft.to/lastmile_qr_scan", "ios": "https://dc.lft.to/lastmile_qr_scan"}, "name": "809b4609c30429a4a703c3103bcdefd5", "is_reserved": 0}, {"is_disabled": 0, "fusion_lon": 0.0, "fusion_lat": 0.0, "lat": 38.94320966666667, "type": "electric_scooter", "lon": -77.08580233333333, "bike_id": "d69383db6c333b37ba05ba7a268ce571", "rental_uris": {"android": "https://dc.lft.to/lastmile_qr_scan", "ios": "https://dc.lft.to/lastmile_qr_scan"}, "name": "d69383db6c333b37ba05ba7a268ce571", "is_reserved": 0}, {"is_disabled": 0, "fusion_lon": 0.0, "fusion_lat": 0.0, "lat": 38.872864666666665, "type": "electric_scooter", "lon": -77.00986783333333, "bike_id": "71045a29e84d3e1c05237bfb9c8d8d26", "rental_uris": {"android": "https://dc.lft.to/lastmile_qr_scan", "ios": "https://dc.lft.to/lastmile_qr_scan"}, "name": "71045a29e84d3e1c05237bfb9c8d8d26", "is_reserved": 0}, {"is_disabled": 0, "fusion_lon": 0.0, "fusion_lat": 0.0, "lat": 38.89842216666667, "type": "electric_scooter", "lon": -77.03319716666667, "bike_id": "37d2b641c8d22dec087841c74673fcdb", "rental_uris": {"android": "https://dc.lft.to/lastmile_qr_scan", "ios": "https://dc.lft.to/lastmile_qr_scan"}, "name": "37d2b641c8d22dec087841c74673fcdb", "is_reserved": 0}, {"is_disabled": 0, "fusion_lon": 0.0, "fusion_lat": 0.0, "lat": 38.892745833333336, "type": "electric_scooter", "lon": -76.93724883333333, "bike_id": "3b644b90d7d8734e55321eba16348287", "rental_uris": {"android": "https://dc.lft.to/lastmile_qr_scan", "ios": "https://dc.lft.to/lastmile_qr_scan"}, "name": "3b644b90d7d8734e55321eba16348287", "is_reserved": 0}, {"is_disabled": 0, "fusion_lon": 0.0, "fusion_lat": 0.0, "lat": 38.89561116666667, "type": "electric_scooter", "lon": -77.00892933333333, "bike_id": "383762fee3ba1ef9271b8441c6550d7b", "rental_uris": {"android": "https://dc.lft.to/lastmile_qr_scan", "ios": "https://dc.lft.to/lastmile_qr_scan"}, "name": "383762fee3ba1ef9271b8441c6550d7b", "is_reserved": 0}, {"is_disabled": 0, "fusion_lon": 0.0, "fusion_lat": 0.0, "lat": 38.91246916666667, "type": "electric_scooter", "lon": -77.04168866666667, "bike_id": "c64c3b8a816993b7979a0a8e2ea53886", "rental_uris": {"android": "https://dc.lft.to/lastmile_qr_scan", "ios": "https://dc.lft.to/lastmile_qr_scan"}, "name": "c64c3b8a816993b7979a0a8e2ea53886", "is_reserved": 0}, {"is_disabled": 0, "fusion_lon": 0.0, "fusion_lat": 0.0, "lat": 38.910858166666664, "type": "electric_scooter", "lon": -77.024009, "bike_id": "ab6ca462d5870b05f2cb2a196ef4c4b0", "rental_uris": {"android": "https://dc.lft.to/lastmile_qr_scan", "ios": "https://dc.lft.to/lastmile_qr_scan"}, "name": "ab6ca462d5870b05f2cb2a196ef4c4b0", "is_reserved": 0}, {"is_disabled": 0, "fusion_lon": 0.0, "fusion_lat": 0.0, "lat": 38.9166405, "type": "electric_scooter", "lon": -77.02713466666667, "bike_id": "8a90edcc826366aa5b3b40b7e9b2d7cc", "rental_uris": {"android": "https://dc.lft.to/lastmile_qr_scan", "ios": "https://dc.lft.to/lastmile_qr_scan"}, "name": "8a90edcc826366aa5b3b40b7e9b2d7cc", "is_reserved": 0}, {"is_disabled": 0, "fusion_lon": 0.0, "fusion_lat": 0.0, "lat": 38.905616333333334, "type": "electric_scooter", "lon": -77.04045, "bike_id": "f3497a1bda5114d39b36a7969dd42fd3", "rental_uris": {"android": "https://dc.lft.to/lastmile_qr_scan", "ios": "https://dc.lft.to/lastmile_qr_scan"}, "name": "f3497a1bda5114d39b36a7969dd42fd3", "is_reserved": 0}, {"is_disabled": 0, "fusion_lon": 0.0, "fusion_lat": 0.0, "lat": 38.90664266666667, "type": "electric_scooter", "lon": -77.0713145, "bike_id": "9ee24e3bf0f14442c02ec86a9833a0a3", "rental_uris": {"android": "https://dc.lft.to/lastmile_qr_scan", "ios": "https://dc.lft.to/lastmile_qr_scan"}, "name": "9ee24e3bf0f14442c02ec86a9833a0a3", "is_reserved": 0}, {"is_disabled": 0, "fusion_lon": 0.0, "fusion_lat": 0.0, "lat": 38.91711033333333, "type": "electric_scooter", "lon": -77.02804033333334, "bike_id": "c9aca8487de03eb2e0b3e37bfcd6f94d", "rental_uris": {"android": "https://dc.lft.to/lastmile_qr_scan", "ios": "https://dc.lft.to/lastmile_qr_scan"}, "name": "c9aca8487de03eb2e0b3e37bfcd6f94d", "is_reserved": 0}, {"is_disabled": 0, "fusion_lon": 0.0, "fusion_lat": 0.0, "lat": 38.892209666666666, "type": "electric_scooter", "lon": -77.02836716666667, "bike_id": "be52f5ed2cb9076a1eb9f12cd362856f", "rental_uris": {"android": "https://dc.lft.to/lastmile_qr_scan", "ios": "https://dc.lft.to/lastmile_qr_scan"}, "name": "be52f5ed2cb9076a1eb9f12cd362856f", "is_reserved": 0}, {"is_disabled": 0, "fusion_lon": 0.0, "fusion_lat": 0.0, "lat": 38.903944833333334, "type": "electric_scooter", "lon": -77.03951766666667, "bike_id": "cbae23d3f3713684978f15cdae2eedac", "rental_uris": {"android": "https://dc.lft.to/lastmile_qr_scan", "ios": "https://dc.lft.to/lastmile_qr_scan"}, "name": "cbae23d3f3713684978f15cdae2eedac", "is_reserved": 0}, {"is_disabled": 0, "fusion_lon": 0.0, "fusion_lat": 0.0, "lat": 38.906740666666664, "type": "electric_scooter", "lon": -77.02722233333333, "bike_id": "31e43b748d30b9bf379a1775a4087203", "rental_uris": {"android": "https://dc.lft.to/lastmile_qr_scan", "ios": "https://dc.lft.to/lastmile_qr_scan"}, "name": "31e43b748d30b9bf379a1775a4087203", "is_reserved": 0}, {"is_disabled": 0, "fusion_lon": 0.0, "fusion_lat": 0.0, "lat": 38.848869666666666, "type": "electric_scooter", "lon": -77.0052285, "bike_id": "516408a9cc6b438e641d066fd5293798", "rental_uris": {"android": "https://dc.lft.to/lastmile_qr_scan", "ios": "https://dc.lft.to/lastmile_qr_scan"}, "name": "516408a9cc6b438e641d066fd5293798", "is_reserved": 0}, {"is_disabled": 0, "fusion_lon": 0.0, "fusion_lat": 0.0, "lat": 38.8854145, "type": "electric_scooter", "lon": -77.00576016666666, "bike_id": "8aaee3a0ab8a2ba538517a7cfb78702f", "rental_uris": {"android": "https://dc.lft.to/lastmile_qr_scan", "ios": "https://dc.lft.to/lastmile_qr_scan"}, "name": "8aaee3a0ab8a2ba538517a7cfb78702f", "is_reserved": 0}, {"is_disabled": 0, "fusion_lon": 0.0, "fusion_lat": 0.0, "lat": 38.91414966666667, "type": "electric_scooter", "lon": -77.04532066666667, "bike_id": "1ecc8fd180c90e23bcca9157b3a19142", "rental_uris": {"android": "https://dc.lft.to/lastmile_qr_scan", "ios": "https://dc.lft.to/lastmile_qr_scan"}, "name": "1ecc8fd180c90e23bcca9157b3a19142", "is_reserved": 0}, {"is_disabled": 0, "fusion_lon": 0.0, "fusion_lat": 0.0, "lat": 38.8953705, "type": "electric_scooter", "lon": -77.02925916666666, "bike_id": "77059ba4d79753188f3d7dfec53033a6", "rental_uris": {"android": "https://dc.lft.to/lastmile_qr_scan", "ios": "https://dc.lft.to/lastmile_qr_scan"}, "name": "77059ba4d79753188f3d7dfec53033a6", "is_reserved": 0}, {"is_disabled": 0, "fusion_lon": 0.0, "fusion_lat": 0.0, "lat": 38.8624855, "type": "electric_scooter", "lon": -76.99504966666666, "bike_id": "7129608d5a8849d72d36948b4791d439", "rental_uris": {"android": "https://dc.lft.to/lastmile_qr_scan", "ios": "https://dc.lft.to/lastmile_qr_scan"}, "name": "7129608d5a8849d72d36948b4791d439", "is_reserved": 0}, {"is_disabled": 0, "fusion_lon": 0.0, "fusion_lat": 0.0, "lat": 38.96817516666667, "type": "electric_scooter", "lon": -77.0089125, "bike_id": "8e24ac933795bdc320fbfe1c1d916ceb", "rental_uris": {"android": "https://dc.lft.to/lastmile_qr_scan", "ios": "https://dc.lft.to/lastmile_qr_scan"}, "name": "8e24ac933795bdc320fbfe1c1d916ceb", "is_reserved": 0}, {"is_disabled": 0, "fusion_lon": 0.0, "fusion_lat": 0.0, "lat": 38.907902666666665, "type": "electric_scooter", "lon": -77.04500816666666, "bike_id": "6b540271f8c8d32a57b2c4d61bf6b1d8", "rental_uris": {"android": "https://dc.lft.to/lastmile_qr_scan", "ios": "https://dc.lft.to/lastmile_qr_scan"}, "name": "6b540271f8c8d32a57b2c4d61bf6b1d8", "is_reserved": 0}, {"is_disabled": 0, "fusion_lon": 0.0, "fusion_lat": 0.0, "lat": 38.90391733333333, "type": "electric_scooter", "lon": -77.00475566666667, "bike_id": "688507dffcd907457cce77617c295b8b", "rental_uris": {"android": "https://dc.lft.to/lastmile_qr_scan", "ios": "https://dc.lft.to/lastmile_qr_scan"}, "name": "688507dffcd907457cce77617c295b8b", "is_reserved": 0}, {"is_disabled": 0, "fusion_lon": 0.0, "fusion_lat": 0.0, "lat": 38.89722033333334, "type": "electric_bike", "lon": -76.90545816666666, "bike_id": "3cd8d3d042bbb64fd32ddd33ae61bd70", "rental_uris": {"android": "https://dc.lft.to/lastmile_qr_scan", "ios": "https://dc.lft.to/lastmile_qr_scan"}, "name": "3cd8d3d042bbb64fd32ddd33ae61bd70", "is_reserved": 0}, {"is_disabled": 0, "fusion_lon": 0.0, "fusion_lat": 0.0, "lat": 38.88631483333333, "type": "electric_bike", "lon": -77.09242133333333, "bike_id": "e82985259cff586554efba49be5a7bc4", "rental_uris": {"android": "https://dc.lft.to/lastmile_qr_scan", "ios": "https://dc.lft.to/lastmile_qr_scan"}, "name": "e82985259cff586554efba49be5a7bc4", "is_reserved": 0},