{"data": {"bikes": [{"is_reserved": 0, "type": "electric_bike", "bike_id": "b72b20abd890681836a736720d06659c", "lat": 38.932101333333335, "lon": -77.02347733333333, "rental_uris": {"android": "https://dc.lft.to/lastmile_qr_scan", "ios": "https://dc.lft.to/lastmile_qr_scan"}, "is_disabled": 0, "fusion_lat": 0.0, "name": "b72b20abd890681836a736720d06659c", "fusion_lon": 0.0}, {"is_reserved": 0, "type": "electric_scooter", "bike_id": "2b98e01690690f9f9c2943d6feac0b22", "lat": 38.87339466666667, "lon": -76.99169066666667, "rental_uris": {"android": "https://dc.lft.to/lastmile_qr_scan", "ios": "https://dc.lft.to/lastmile_qr_scan"}, "is_disabled": 0, "fusion_lat": 0.0, "name": "2b98e01690690f9f9c2943d6feac0b22", "fusion_lon": 0.0}, {"is_reserved": 0, "type": "electric_scooter", "bike_id": "f44172b834211abc628e5a4d59191a5c", "lat": 38.89683866666667, "lon": -77.01208983333333, "rental_uris": {"android": "https://dc.lft.to/lastmile_qr_scan", "ios": "https://dc.lft.to/lastmile_qr_scan"}, "is_disabled": 0, "fusion_lat": 0.0, "name": "f44172b834211abc628e5a4d59191a5c", "fusion_lon": 0.0}, {"is_reserved": 0, "type": "electric_scooter", "bike_id": "310a8bed868a5ae7d5843048e336ca0d", "lat": 38.92184366666667, "lon": -77.042323, "rental_uris": {"android": "https://dc.lft.to/lastmile_qr_scan", "ios": "https://dc.lft.to/lastmile_qr_scan"}, "is_disabled": 0, "fusion_lat": 0.0, "name": "310a8bed868a5ae7d5843048e336ca0d", "fusion_lon": 0.0}, {"is_reserved": 0, "type": "electric_scooter", "bike_id": "9df198063dad8e32a89293767ab770ab", "lat": 38.916867833333335, "lon": -77.0363785, "rental_uris": {"android": "https://dc.lft.to/lastmile_qr_scan", "ios": "https://dc.lft.to/lastmile_qr_scan"}, "is_disabled": 0, "fusion_lat": 0.0, "name": "9df198063dad8e32a89293767ab770ab", "fusion_lon": 0.0}, {"is_reserved": 0, "type": "electric_scooter", "bike_id": "676fb3d399d92d4a7995a86497f2abce", "lat": 38.89239283333333, "lon": -77.04893983333334, "rental_uris": {"android": "https://dc.lft.to/lastmile_qr_scan", "ios": "https://dc.lft.to/lastmile_qr_scan"}, "is_disabled": 0, "fusion_lat": 0.0, "name": "676fb3d399d92d4a7995a86497f2abce", "fusion_lon": 0.0}, {"is_reserved": 0, "type": "electric_scooter", "bike_id": "10c4644c1785a2ec370042204d606136", "lat": 38.925498, "lon": -76.99953283333333, "rental_uris": {"android": "https://dc.lft.to/lastmile_qr_scan", "ios": "https://dc.lft.to/lastmile_qr_scan"}, "is_disabled": 0, "fusion_lat": 0.0, "name": "10c4644c1785a2ec370042204d606136", "fusion_lon": 0.0}, {"is_reserved": 0, "type": "electric_scooter", "bike_id": "da1f09654bcdaa90390c7155e07a0b95", "lat": 38.90382133333333, "lon": -77.0314445, "rental_uris": {"android": "https://dc.lft.to/lastmile_qr_scan", "ios": "https://dc.lft.to/lastmile_qr_scan"}, "is_disabled": 0, "fusion_lat": 0.0, "name": "da1f09654bcdaa90390c7155e07a0b95", "fusion_lon": 0.0}, {"is_reserved": 0, "type": "electric_bike", "bike_id": "f2bf7153fa6e5ec892c9b858d1971a2d", "lat": 38.94473683333333, "lon": -76.9869135, "rental_uris": {"android": "https://dc.lft.to/lastmile_qr_scan", "ios": "https://dc.lft.to/lastmile_qr_scan"}, "is_disabled": 0, "fusion_lat": 0.0, "name": "f2bf7153fa6e5ec892c9b858d1971a2d", "fusion_lon": 0.0}, {"is_reserved": 0, "type": "electric_scooter", "bike_id": "63289015a9612c302de3243e8b54b3cb", "lat": 38.9227365, "lon": -77.042802, "rental_uris": {"android": "https://dc.lft.to/lastmile_qr_scan", "ios": "https://dc.lft.to/lastmile_qr_scan"}, "is_disabled": 0, "fusion_lat": 0.0, "name": "63289015a9612c302de3243e8b54b3cb", "fusion_lon": 0.0}, {"is_reserved": 0, "type": "electric_scooter", "bike_id": "ee337041253dfab5eeb9882467ded815", "lat": 38.9096255, "lon": -77.024388, "rental_uris": {"android": "https://dc.lft.to/lastmile_qr_scan", "ios": "https://dc.lft.to/lastmile_qr_scan"}, "is_disabled": 0, "fusion_lat": 0.0, "name": "ee337041253dfab5eeb9882467ded815", "fusion_lon": 0.0}, {"is_reserved": 0, "type": "electric_scooter", "bike_id": "c8e396bb07abf37a4f1eb93aa169f6f2", "lat": 38.91047366666667, "lon": -77.033387, "rental_uris": {"android": "https://dc.lft.to/lastmile_qr_scan", "ios": "https://dc.lft.to/lastmile_qr_scan"}, "is_disabled": 0, "fusion_lat": 0.0, "name": "c8e396bb07abf37a4f1eb93aa169f6f2", "fusion_lon": 0.0}, {"is_reserved": 0, "type": "electric_scooter", "bike_id": "3b3534b955db096bf9786e748514e7d9", "lat": 38.925704833333334, "lon": -76.99485, "rental_uris": {"android": "https://dc.lft.to/lastmile_qr_scan", "ios": "https://dc.lft.to/lastmile_qr_scan"}, "is_disabled": 0, "fusion_lat": 0.0, "name": "3b3534b955db096bf9786e748514e7d9", "fusion_lon": 0.0}, {"is_reserved": 0, "type": "electric_scooter", "bike_id": "d7df72e4355dbeb4fd973a9fd3eff3f3", "lat": 38.91919166666667, "lon": -77.04806733333334, "rental_uris": {"android": "https://dc.lft.to/lastmile_qr_scan", "ios": "https://dc.lft.to/lastmile_qr_scan"}, "is_disabled": 0, "fusion_lat": 0.0, "name": "d7df72e4355dbeb4fd973a9fd3eff3f3", "fusion_lon": 0.0}, {"is_reserved": 0, "type": "electric_scooter", "bike_id": "eee89f893e55a7789d7c7a29fbce1e3f", "lat": 38.931265833333335, "lon": -77.02299966666666, "rental_uris": {"android": "https://dc.lft.to/lastmile_qr_scan", "ios": "https://dc.lft.to/lastmile_qr_scan"}, "is_disabled": 0, "fusion_lat": 0.0, "name": "eee89f893e55a7789d7c7a29fbce1e3f", "fusion_lon": 0.0}, {"is_reserved": 0, "type": "electric_scooter", "bike_id": "7ed923ccbafd630b2a88960031f1950a", "lat": 38.897355, "lon": -77.022089, "rental_uris": {"android": "https://dc.lft.to/lastmile_qr_scan", "ios": "https://dc.lft.to/lastmile_qr_scan"}, "is_disabled": 0, "fusion_lat": 0.0, "name": "7ed923ccbafd630b2a88960031f1950a", "fusion_lon": 0.0}, {"is_reserved": 0, "type": "electric_bike", "bike_id": "22f4d016c00de234205d303c96538390", "lat": 38.8811735, "lon": -77.02655116666666, "rental_uris": {"android": "https://dc.lft.to/lastmile_qr_scan", "ios": "https://dc.lft.to/lastmile_qr_scan"}, "is_disabled": 0, "fusion_lat": 0.0, "name": "22f4d016c00de234205d303c96538390", "fusion_lon": 0.0}, {"is_reserved": 0, "type": "electric_scooter", "bike_id": "2c3fa087b864f14fe0e0ebf34ac5da43", "lat": 38.96027733333333, "lon": -77.07152816666667, "rental_uris": {"android": "https://dc.lft.to/lastmile_qr_scan", "ios": "https://dc.lft.to/lastmile_qr_scan"}, "is_disabled": 0, "fusion_lat": 0.0, "name": "2c3fa087b864f14fe0e0ebf34ac5da43", "fusion_lon": 0.0}, {"is_reserved": 0, "type": "electric_bike", "bike_id": "eeaf378564ed941adbc171c614a37670", "lat": 38.802566, "lon": -77.12171166666667, "rental_uris": {"android": "https://dc.lft.to/lastmile_qr_scan", "ios": "https://dc.lft.to/lastmile_qr_scan"}, "is_disabled": 0, "fusion_lat": 0.0, "name": "eeaf378564ed941adbc171c614a37670", "fusion_lon": 0.0}, {"is_reserved": 0, "type": "electric_scooter", "bike_id": "d02babd7ba32543b275dd42178bf212a", "lat": 38.92150983333333, "lon": -77.03350816666666, "rental_uris": {"android": "https://dc.lft.to/lastmile_qr_scan", "ios": "https://dc.lft.to/lastmile_qr_scan"}, "is_disabled": 0, "fusion_lat": 0.0, "name": "d02babd7ba32543b275dd42178bf212a", "fusion_lon": 0.0}, {"is_reserved": 0, "type": "electric_scooter", "bike_id": "02e5b261a4a43d955335b439f1e6b5b9", "lat": 38.92606583333333, "lon": -77.0570525, "rental_uris": {"android": "https://dc.lft.to/lastmile_qr_scan", "ios": "https://dc.lft.to/lastmile_qr_scan"}, "is_disabled": 0, "fusion_lat": 0.0, "name": "02e5b261a4a43d955335b439f1e6b5b9", "fusion_lon": 0.0}, {"is_reserved": 0, "type": "electric_scooter", "bike_id": "725cdadcb406a1c741847b3b686714da", "lat": 38.918062166666665, "lon": -77.0330415, "rental_uris": {"android": "https://dc.lft.to/lastmile_qr_scan", "ios": "https://dc.lft.to/lastmile_qr_scan"}, "is_disabled": 0, "fusion_lat": 0.0, "name": "725cdadcb406a1c741847b3b686714da", "fusion_lon": 0.0}, {"is_reserved": 0, "type": "electric_bike", "bike_id": "7e32097ff0703c82370f0e498358e5dd", "lat": 38.925999166666664, "lon": -77.02434133333334, "rental_uris": {"android": "https://dc.lft.to/lastmile_qr_scan", "ios": "https://dc.lft.to/lastmile_qr_scan"}, "is_disabled": 0, "fusion_lat": 0.0, "name": "7e32097ff0703c82370f0e498358e5dd", "fusion_lon": 0.0}, {"is_reserved": 0, "type": "electric_bike", "bike_id": "3d1f477f08c5dc4cb396c7dca6db0845", "lat": 38.903159, "lon": -77.05210116666667, "rental_uris": {"android": "https://dc.lft.to/lastmile_qr_scan", "ios": "https://dc.lft.to/lastmile_qr_scan"}, "is_disabled": 0, "fusion_lat": 0.0, "name": "3d1f477f08c5dc4cb396c7dca6db0845", "fusion_lon": 0.0}, {"is_reserved": 0, "type": "electric_scooter", "bike_id": "9a8dc8cf7a65e63f3ee063404aec23c4", "lat": 38.89967466666667, "lon": -77.01607983333334, "rental_uris": {"android": "https://dc.lft.to/lastmile_qr_scan", "ios": "https://dc.lft.to/lastmile_qr_scan"}, "is_disabled": 0, "fusion_lat": 0.0, "name": "9a8dc8cf7a65e63f3ee063404aec23c4", "fusion_lon": 0.0}, {"is_reserved": 0, "type": "electric_scooter", "bike_id": "141cf58d7ba3a6b45342c8d19cc8adeb", "lat": 38.89225666666667, "lon": -77.04330966666667, "rental_uris": {"android": "https://dc.lft.to/lastmile_qr_scan", "ios": "https://dc.lft.to/lastmile_qr_scan"}, "is_disabled": 0, "fusion_lat": 0.0, "name": "141cf58d7ba3a6b45342c8d19cc8adeb", "fusion_lon": 0.0}, {"is_reserved": 0, "type": "electric_scooter", "bike_id": "eec4717ead3f93de83055ca98ddef58b", "lat": 38.87920666666667, "lon": -77.00578983333334, "rental_uris": {"android": "https://dc.lft.to/lastmile_qr_scan", "ios": "https://dc.lft.to/lastmile_qr_scan"}, "is_disabled": 0, "fusion_lat": 0.0, "name": "eec4717ead3f93de83055ca98ddef58b", "fusion_lon": 0.0}, {"is_reserved": 0, "type": "electric_scooter", "bike_id": "23642b71c152388777fb5d5ab0a964f1", "lat": 38.956266666666664, "lon": -77.02779483333333, "rental_uris": {"android": "https://dc.lft.to/lastmile_qr_scan", "ios": "https://dc.lft.to/lastmile_qr_scan"}, "is_disabled": 0, "fusion_lat": 0.0, "name": "23642b71c152388777fb5d5ab0a964f1", "fusion_lon": 0.0}, {"is_reserved": 0, "type": "electric_scooter", "bike_id": "dba5332b37868c59d3e2ec01a96dbdfe", "lat": 38.914548, "lon": -77.00212583333334, "rental_uris": {"android": "https://dc.lft.to/lastmile_qr_scan", "ios": "https://dc.lft.to/lastmile_qr_scan"}, "is_disabled": 0, "fusion_lat": 0.0, "name": "dba5332b37868c59d3e2ec01a96dbdfe", "fusion_lon": 0.0}, {"is_reserved": 0, "type": "electric_scooter", "bike_id": "052612d1ec9fe3eb6c0a3fbcb861cd61", "lat": 38.924482, "lon": -77.04394083333334, "rental_uris": {"android": "https://dc.lft.to/lastmile_qr_scan", "ios": "https://dc.lft.to/lastmile_qr_scan"}, "is_disabled": 0, "fusion_lat": 0.0, "name": "052612d1ec9fe3eb6c0a3fbcb861cd61", "fusion_lon": 0.0}, {"is_reserved": 0, "type": "electric_scooter", "bike_id": "1794441287da9a264f2aca335556dc80", "lat": 38.905544666666664, "lon": -77.027149, "rental_uris": {"android": "https://dc.lft.to/lastmile_qr_scan", "ios": "https://dc.lft.to/lastmile_qr_scan"}, "is_disabled": 0, "fusion_lat": 0.0, "name": "1794441287da9a264f2aca335556dc80", "fusion_lon": 0.0}, {"is_reserved": 0, "type": "electric_scooter", "bike_id": "e15ad267879e5992495fdc76695848e6", "lat": 38.898418, "lon": -77.0293615, "rental_uris": {"android": "https://dc.lft.to/lastmile_qr_scan", "ios": "https://dc.lft.to/lastmile_qr_scan"}, "is_disabled": 0, "fusion_lat": 0.0, "name": "e15ad267879e5992495fdc76695848e6", "fusion_lon": 0.0}, {"is_reserved": 0, "type": "electric_scooter", "bike_id": "7e11f005712eb003b8532ec09c97ab42", "lat": 38.908688166666664, "lon": -77.02364883333334, "rental_uris": {"android": "https://dc.lft.to/lastmile_qr_scan", "ios": "https://dc.lft.to/lastmile_qr_scan"}, "is_disabled": 0, "fusion_lat": 0.0, "name": "7e11f005712eb003b8532ec09c97ab42", "fusion_lon": 0.0}, {"is_reserved": 0, "type": "electric_scooter", "bike_id": "75e5b444edf0c28b58b6fdc1fb9e9212", "lat": 38.91553433333333, "lon": -77.03303283333334, "rental_uris": {"android": "https://dc.lft.to/lastmile_qr_scan", "ios": "https://dc.lft.to/lastmile_qr_scan"}, "is_disabled": 0, "fusion_lat": 0.0, "name": "75e5b444edf0c28b58b6fdc1fb9e9212", "fusion_lon": 0.0}, {"is_reserved": 0, "type": "electric_scooter", "bike_id": "888090af23273f69f9474248b15125e2", "lat": 38.8815295, "lon": -76.994966, "rental_uris": {"android": "https://dc.lft.to/lastmile_qr_scan", "ios": "https://dc.lft.to/lastmile_qr_scan"}, "is_disabled": 0, "fusion_lat": 0.0, "name": "888090af23273f69f9474248b15125e2", "fusion_lon": 0.0}, {"is_reserved": 0, "type": "electric_scooter", "bike_id": "145baf20d9f8497bc3b8c6f903c4d0ae", "lat": 38.88973816666667, "lon": -76.99935016666667, "rental_uris": {"android": "https://dc.lft.to/lastmile_qr_scan", "ios": "https://dc.lft.to/lastmile_qr_scan"}, "is_disabled": 0, "fusion_lat": 0.0, "name": "145baf20d9f8497bc3b8c6f903c4d0ae", "fusion_lon": 0.0}, {"is_reserved": 0, "type": "electric_scooter", "bike_id": "159b87c6e48ac17172c459803b981376", "lat": 38.89998816666667, "lon": -76.9983805, "rental_uris": {"android": "https://dc.lft.to/lastmile_qr_scan", "ios": "https://dc.lft.to/lastmile_qr_scan"}, "is_disabled": 0, "fusion_lat": 0.0, "name": "159b87c6e48ac17172c459803b981376", "fusion_lon": 0.0}, {"is_reserved": 0, "type": "electric_scooter", "bike_id": "9bacdc2593f427430640fa2f894a3f53", "lat": 38.89942583333333, "lon": -77.03203316666666, "rental_uris": {"android": "https://dc.lft.to/lastmile_qr_scan", "ios": "https://dc.lft.to/lastmile_qr_scan"}, "is_disabled": 0, "fusion_lat": 0.0, "name": "9bacdc2593f427430640fa2f894a3f53", "fusion_lon": 0.0}, {"is_reserved": 0, "type": "electric_scooter", "bike_id": "5acfdf18afb4886af60be8a34f05414c", "lat": 38.937528, "lon": -77.02829783333334, "rental_uris": {"android": "https://dc.lft.to/lastmile_qr_scan", "ios": "https://dc.lft.to/lastmile_qr_scan"}, "is_disabled": 0, "fusion_lat": 0.0, "name": "5acfdf18afb4886af60be8a34f05414c", "fusion_lon": 0.0}, {"is_reserved": 0, "type": "electric_scooter", "bike_id": "10d16df6135a77dc42bd1b252b8306c5", "lat": 38.89223783333333, "lon": -77.04446666666666, "rental_uris": {"android": "https://dc.lft.to/lastmile_qr_scan", "ios": "https://dc.lft.to/lastmile_qr_scan"}, "is_disabled": 0, "fusion_lat": 0.0, "name": "10d16df6135a77dc42bd1b252b8306c5", "fusion_lon": 0.0}, {"is_reserved": 0, "type": "electric_scooter", "bike_id": "5662f298434adf180bf5ce51f0be7120", "lat": 38.90367416666667, "lon": -76.98489166666667, "rental_uris": {"android": "https://dc.lft.to/lastmile_qr_scan", "ios": "https://dc.lft.to/lastmile_qr_scan"}, "is_disabled": 0, "fusion_lat": 0.0, "name": "5662f298434adf180bf5ce51f0be7120", "fusion_lon": 0.0}, {"is_reserved": 0, "type": "electric_scooter", "bike_id": "a01b10035b3c357668530bda2218fa8c", "lat": 38.905692, "lon": -77.00783466666667, "rental_uris": {"android": "https://dc.lft.to/lastmile_qr_scan", "ios": "https://dc.lft.to/lastmile_qr_scan"}, "is_disabled": 0, "fusion_lat": 0.0, "name": "a01b10035b3c357668530bda2218fa8c", "fusion_lon": 0.0}, {"is_reserved": 0, "type": "electric_scooter", "bike_id": "d5962b542ebfcee51aba0ccf913a6206", "lat": 38.89490116666666, "lon": -77.02155016666667, "rental_uris": {"android": "https://dc.lft.to/lastmile_qr_scan", "ios": "https://dc.lft.to/lastmile_qr_scan"}, "is_disabled": 0, "fusion_lat": 0.0, "name": "d5962b542ebfcee51aba0ccf913a6206", "fusion_lon": 0.0}, {"is_reserved": 0, "type": "electric_scooter", "bike_id": "cc09cccb648ad856e701c7417c0abd6a", "lat": 38.915433666666665, "lon": -77.0446195, "rental_uris": {"android": "https://dc.lft.to/lastmile_qr_scan", "ios": "https://dc.lft.to/lastmile_qr_scan"}, "is_disabled": 0, "fusion_lat": 0.0, "name": "cc09cccb648ad856e701c7417c0abd6a", "fusion_lon": 0.0}, {"is_reserved": 0, "type": "electric_scooter", "bike_id": "d05c87f169ecb85d59f93782d9fa7acc", "lat": 38.877396, "lon": -77.01884766666667, "rental_uris": {"android": "https://dc.lft.to/lastmile_qr_scan", "ios": "https://dc.lft.to/lastmile_qr_scan"}, "is_disabled": 0, "fusion_lat": 0.0, "name": "d05c87f169ecb85d59f93782d9fa7acc", "fusion_lon": 0.0}, {"is_reserved": 0, "type": "electric_scooter", "bike_id": "b80baa125e880c0214883fec772a9887", "lat": 38.905623, "lon": -77.028152, "rental_uris": {"android": "https://dc.lft.to/lastmile_qr_scan", "ios": "https://dc.lft.to/lastmile_qr_scan"}, "is_disabled": 0, "fusion_lat": 0.0, "name": "b80baa125e880c0214883fec772a9887", "fusion_lon": 0.0}, {"is_reserved": 0, "type": "electric_bike", "bike_id": "5df1de8fe64ce7bc31b5b3d3f66024c7", "lat": 39.094477166666664, "lon": -77.13462016666666, "rental_uris": {"android": "https://dc.lft.to/lastmile_qr_scan", "ios": "https://dc.lft.to/lastmile_qr_scan"}, "is_disabled": 0, "fusion_lat": 0.0, "name": "5df1de8fe64ce7bc31b5b3d3f66024c7", "fusion_lon": 0.0}, {"is_reserved": 0, "type": "electric_scooter", "bike_id": "c4acb2c20e56c5231a05d6ea108c7ce7", "lat": 38.90536133333333, "lon": -77.061516, "rental_uris": {"android": "https://dc.lft.to/lastmile_qr_scan", "ios": "https://dc.lft.to/lastmile_qr_scan"}, "is_disabled": 0, "fusion_lat": 0.0, "name": "c4acb2c20e56c5231a05d6ea108c7ce7", "fusion_lon": 0.0}, {"is_reserved": 0, "type": "electric_scooter", "bike_id": "47a8590d446fb9067da8264ee151d7d4", "lat": 38.919193166666666, "lon": -77.03113516666667, "rental_uris": {"android": "https://dc.lft.to/lastmile_qr_scan", "ios": "https://dc.lft.to/lastmile_qr_scan"}, "is_disabled": 0, "fusion_lat": 0.0, "name": "47a8590d446fb9067da8264ee151d7d4", "fusion_lon": 0.0}, {"is_reserved": 0, "type": "electric_scooter", "bike_id": "233aaccf4790468f50880e96bf1c08a8", "lat": 38.92790183333334, "lon": -77.03599466666667, "rental_uris": {"android": "https://dc.lft.to/lastmile_qr_scan", "ios": "https://dc.lft.to/lastmile_qr_scan"}, "is_disabled": 0, "fusion_lat": 0.0, "name": "233aaccf4790468f50880e96bf1c08a8", "fusion_lon": 0.0}, {"is_reserved": 0, "type": "electric_scooter", "bike_id": "e96934407a3e3b0e8f7e06bcc234dfa1", "lat": 38.93024466666667, "lon": -77.037878, "rental_uris": {"android": "https://dc.lft.to/lastmile_qr_scan", "ios": "https://dc.lft.to/lastmile_qr_scan"}, "is_disabled": 0, "fusion_lat": 0.0, "name": "e96934407a3e3b0e8f7e06bcc234dfa1", "fusion_lon": 0.0}, {"is_reserved": 0, "type": "electric_scooter", "bike_id": "2c154736bf1ce72564adc2c82f54a165", "lat": 38.8645065, "lon": -76.991206, "rental_uris": {"android": "https://dc.lft.to/lastmile_qr_scan", "ios": "https://dc.lft.to/lastmile_qr_scan"}, "is_disabled": 0, "fusion_lat": 0.0, "name": "2c154736bf1ce72564adc2c82f54a165", "fusion_lon": 0.0}, {"is_reserved": 0, "type": "electric_scooter", "bike_id": "c94344f7271563c12c22e3ca3ddaba1f", "lat": 38.927437, "lon": -77.069576, "rental_uris": {"android": "https://dc.lft.to/lastmile_qr_scan", "ios": "https://dc.lft.to/lastmile_qr_scan"}, "is_disabled": 0, "fusion_lat": 0.0, "name": "c94344f7271563c12c22e3ca3ddaba1f", "fusion_lon": 0.0}, {"is_reserved": 0, "type": "electric_scooter", "bike_id": "6120d74298a930304b927d8940e0b4aa", "lat": 38.923715333333334, "lon": -77.08051633333334, "rental_uris": {"android": "https://dc.lft.to/lastmile_qr_scan", "ios": "https://dc.lft.to/lastmile_qr_scan"}, "is_disabled": 0, "fusion_lat": 0.0, "name": "6120d74298a930304b927d8940e0b4aa", "fusion_lon": 0.0}, {"is_reserved": 0, "type": "electric_scooter", "bike_id": "7c40c9898bd41088a44a1a2e54f111c2", "lat": 38.9372825, "lon": -77.032624, "rental_uris": {"android": "https://dc.lft.to/lastmile_qr_scan", "ios": "https://dc.lft.to/lastmile_qr_scan"}, "is_disabled": 0, "fusion_lat": 0.0, "name": "7c40c9898bd41088a44a1a2e54f111c2", "fusion_lon": 0.0}, {"is_reserved": 0, "type": "electric_scooter", "bike_id": "4019f0f35046e3fe8690161a222766af", "lat": 38.92121083333333, "lon": -77.022278, "rental_uris": {"android": "https://dc.lft.to/lastmile_qr_scan", "ios": "https://dc.lft.to/lastmile_qr_scan"}, "is_disabled": 0, "fusion_lat": 0.0, "name": "4019f0f35046e3fe8690161a222766af", "fusion_lon": 0.0}, {"is_reserved": 0, "type": "electric_scooter", "bike_id": "1e6a0c5b99f16b00befcaf43c575bf97", "lat": 38.936391, "lon": -77.06002766666667, "rental_uris": {"android": "https://dc.lft.to/lastmile_qr_scan", "ios": "https://dc.lft.to/lastmile_qr_scan"}, "is_disabled": 0, "fusion_lat": 0.0, "name": "1e6a0c5b99f16b00befcaf43c575bf97", "fusion_lon": 0.0}, {"is_reserved": 0, "type": "electric_scooter", "bike_id": "846094d1fb84ce044048e15ca0f325ed", "lat": 38.97297116666667, "lon": -77.036235, "rental_uris": {"android": "https://dc.lft.to/lastmile_qr_scan", "ios": "https://dc.lft.to/lastmile_qr_scan"}, "is_disabled": 0, "fusion_lat": 0.0, "name": "846094d1fb84ce044048e15ca0f325ed", "fusion_lon": 0.0}, {"is_reserved": 0, "type": "electric_scooter", "bike_id": "a71a20f36512709612f3f155967fd063", "lat": 38.91927466666667, "lon": -77.019754, "rental_uris": {"android": "https://dc.lft.to/lastmile_qr_scan", "ios": "https://dc.lft.to/lastmile_qr_scan"}, "is_disabled": 0, "fusion_lat": 0.0, "name": "a71a20f36512709612f3f155967fd063", "fusion_lon": 0.0}, {"is_reserved": 0, "type": "electric_scooter", "bike_id": "eb54f881ef01a8a10cd4632935f2c9c3", "lat": 38.912570833333334, "lon": -77.032329, "rental_uris": {"android": "https://dc.lft.to/lastmile_qr_scan", "ios": "https://dc.lft.to/lastmile_qr_scan"}, "is_disabled": 0, "fusion_lat": 0.0, "name": "eb54f881ef01a8a10cd4632935f2c9c3", "fusion_lon": 0.0}, {"is_reserved": 0, "type": "electric_scooter", "bike_id": "0aeea183b35db13c07d281f5b31d41f5", "lat": 38.8762995, "lon": -77.00254983333333, "rental_uris": {"android": "https://dc.lft.to/lastmile_qr_scan", "ios": "https://dc.lft.to/lastmile_qr_scan"}, "is_disabled": 0, "fusion_lat": 0.0, "name": "0aeea183b35db13c07d281f5b31d41f5", "fusion_lon": 0.0}, {"is_reserved": 0, "type": "electric_scooter", "bike_id": "0a48fc9d0cf46da44b82b3f4e9f0d298", "lat": 38.892518, "lon": -76.94132816666666, "rental_uris": {"android": "https://dc.lft.to/lastmile_qr_scan", "ios": "https://dc.lft.to/lastmile_qr_scan"}, "is_disabled": 0, "fusion_lat": 0.0, "name": "0a48fc9d0cf46da44b82b3f4e9f0d298", "fusion_lon": 0.0}, {"is_reserved": 0, "type": "electric_scooter", "bike_id": "07c6063518f1e973ffaf019be9051b96", "lat": 38.89713316666667, "lon": -77.0079695, "rental_uris": {"android": "https://dc.lft.to/lastmile_qr_scan", "ios": "https://dc.lft.to/lastmile_qr_scan"}, "is_disabled": 0, "fusion_lat": 0.0, "name": "07c6063518f1e973ffaf019be9051b96", "fusion_lon": 0.0}, {"is_reserved": 0, "type": "electric_scooter", "bike_id": "151921755683bfad186cb5bf66c5f1d8", "lat": 38.91559566666667, "lon": -77.02116216666667, "rental_uris": {"android": "https://dc.lft.to/lastmile_qr_scan", "ios": "https://dc.lft.to/lastmile_qr_scan"}, "is_disabled": 0, "fusion_lat": 0.0, "name": "151921755683bfad186cb5bf66c5f1d8", "fusion_lon": 0.0}, {"is_reserved": 0, "type": "electric_scooter", "bike_id": "1805632b7c718731ce25e6c0ed5add04", "lat": 38.91412533333333, "lon": -77.03992783333334, "rental_uris": {"android": "https://dc.lft.to/lastmile_qr_scan", "ios": "https://dc.lft.to/lastmile_qr_scan"}, "is_disabled": 0, "fusion_lat": 0.0, "name": "1805632b7c718731ce25e6c0ed5add04", "fusion_lon": 0.0}, {"is_reserved": 0, "type": "electric_scooter", "bike_id": "db59c1c9fe69cdf50021378e9a841ec1", "lat": 38.931867, "lon": -77.02352483333334, "rental_uris": {"android": "https://dc.lft.to/lastmile_qr_scan", "ios": "https://dc.lft.to/lastmile_qr_scan"}, "is_disabled": 0, "fusion_lat": 0.0, "name": "db59c1c9fe69cdf50021378e9a841ec1", "fusion_lon": 0.0}, {"is_reserved": 0, "type": "electric_scooter", "bike_id": "9ac3ed48836f88c9885a1d9fcd5e2a90", "lat": 38.92697616666667, "lon": -77.0206915, "rental_uris": {"android": "https://dc.lft.to/lastmile_qr_scan", "ios": "https://dc.lft.to/lastmile_qr_scan"}, "is_disabled": 0, "fusion_lat": 0.0, "name": "9ac3ed48836f88c9885a1d9fcd5e2a90", "fusion_lon": 0.0}, {"is_reserved": 0, "type": "electric_scooter", "bike_id": "5b040ffce0e339e7afba667d1b8217c4", "lat": 38.93662966666667, "lon": -77.05500733333334, "rental_uris": {"android": "https://dc.lft.to/lastmile_qr_scan", "ios": "https://dc.lft.to/lastmile_qr_scan"}, "is_disabled": 0, "fusion_lat": 0.0, "name": "5b040ffce0e339e7afba667d1b8217c4", "fusion_lon": 0.0}, {"is_reserved": 0, "type": "electric_scooter", "bike_id": "aba20adadcc68251e7c49fe6bac28377", "lat": 38.876292166666666, "lon": -77.01225266666667, "rental_uris": {"android": "https://dc.lft.to/lastmile_qr_scan", "ios": "https://dc.lft.to/lastmile_qr_scan"}, "is_disabled": 0, "fusion_lat": 0.0, "name": "aba20adadcc68251e7c49fe6bac28377", "fusion_lon": 0.0}, {"is_reserved": 0, "type": "electric_scooter", "bike_id": "c930020065bd8c7ea5a579fbe96a9bc8", "lat": 38.90146516666667, "lon": -77.031935, "rental_uris": {"android": "https://dc.lft.to/lastmile_qr_scan", "ios": "https://dc.lft.to/lastmile_qr_scan"}, "is_disabled": 0, "fusion_lat": 0.0, "name": "c930020065bd8c7ea5a579fbe96a9bc8", "fusion_lon": 0.0}, {"is_reserved": 0, "type": "electric_bike", "bike_id": "e699f48709a9220681ba783140c4a0bc", "lat": 38.838119, "lon": -77.09524183333333, "rental_uris": {"android": "https://dc.lft.to/lastmile_qr_scan", "ios": "https://dc.lft.to/lastmile_qr_scan"}, "is_disabled": 0, "fusion_lat": 0.0, "name": "e699f48709a9220681ba783140c4a0bc", "fusion_lon": 0.0}, {"is_reserved": 0, "type": "electric_scooter", "bike_id": "7fdaed97110f9bdb0bbbb4d2dbdca6e7", "lat": 38.91704583333333, "lon": -77.03895, "rental_uris": {"android": "https://dc.lft.to/lastmile_qr_scan", "ios": "https://dc.lft.to/lastmile_qr_scan"}, "is_disabled": 0, "fusion_lat": 0.0, "name": "7fdaed97110f9bdb0bbbb4d2dbdca6e7", "fusion_lon": 0.0}, {"is_reserved": 0, "type": "electric_scooter", "bike_id": "ef1dfb3ffef77f59e8bbfb28475d5932", "lat": 38.932025, "lon": -76.996143, "rental_uris": {"android": "https://dc.lft.to/lastmile_qr_scan", "ios": "https://dc.lft.to/lastmile_qr_scan"}, "is_disabled": 0, "fusion_lat": 0.0, "name": "ef1dfb3ffef77f59e8bbfb28475d5932", "fusion_lon": 0.0}, {"is_reserved": 0, "type": "electric_scooter", "bike_id": "b6da218ce4d69e3ae231411b86465454", "lat": 38.901407666666664, "lon": -77.031922, "rental_uris": {"android": "https://dc.lft.to/lastmile_qr_scan", "ios": "https://dc.lft.to/lastmile_qr_scan"}, "is_disabled": 0, "fusion_lat": 0.0, "name": "b6da218ce4d69e3ae231411b86465454", "fusion_lon": 0.0}, {"is_reserved": 0, "type": "electric_scooter", "bike_id": "04699ff1c4fef68b07703985d64187f8", "lat": 38.919364333333334, "lon": -77.04175633333334, "rental_uris": {"android": "https://dc.lft.to/lastmile_qr_scan", "ios": "https://dc.lft.to/lastmile_qr_scan"}, "is_disabled": 0, "fusion_lat": 0.0, "name": "04699ff1c4fef68b07703985d64187f8", "fusion_lon": 0.0}, {"is_reserved": 0, "type": "electric_scooter", "bike_id": "d3cb5f44cc78ddc5a1d1e87ef70d661e", "lat": 38.8956955, "lon": -77.03157183333333, "rental_uris": {"android": "https://dc.lft.to/lastmile_qr_scan", "ios": "https://dc.lft.to/lastmile_qr_scan"}, "is_disabled": 0, "fusion_lat": 0.0, "name": "d3cb5f44cc78ddc5a1d1e87ef70d661e", "fusion_lon": 0.0}, {"is_reserved": 0, "type": "electric_scooter", "bike_id": "c1b1ab87bff420c0694f1b4061c2c66b", "lat": 38.9405215, "lon": -77.0249275, "rental_uris": {"android": "https://dc.lft.to/lastmile_qr_scan", "ios": "https://dc.lft.to/lastmile_qr_scan"}, "is_disabled": 0, "fusion_lat": 0.0, "name": "c1b1ab87bff420c0694f1b4061c2c66b", "fusion_lon": 0.0}, {"is_reserved": 0, "type": "electric_bike", "bike_id": "64f9ff0ec9d6dcf58dec080063984302", "lat": 38.84031516666667, "lon": -76.97623316666666, "rental_uris": {"android": "https://dc.lft.to/lastmile_qr_scan", "ios": "https://dc.lft.to/lastmile_qr_scan"}, "is_disabled": 0, "fusion_lat": 0.0, "name": "64f9ff0ec9d6dcf58dec080063984302", "fusion_lon": 0.0}, {"is_reserved": 0, "type": "electric_scooter", "bike_id": "6d3d24cd239fac71affdbe930c99620b", "lat": 38.9159405, "lon": -77.02087783333333, "rental_uris": {"android": "https://dc.lft.to/lastmile_qr_scan", "ios": "https://dc.lft.to/lastmile_qr_scan"}, "is_disabled": 0, "fusion_lat": 0.0, "name": "6d3d24cd239fac71affdbe930c99620b", "fusion_lon": 0.0}, {"is_reserved": 0, "type": "electric_scooter", "bike_id": "81c1fea3fa22003eca6a67b9bad03278", "lat": 38.935060666666665, "lon": -77.02006333333334, "rental_uris": {"android": "https://dc.lft.to/lastmile_qr_scan", "ios": "https://dc.lft.to/lastmile_qr_scan"}, "is_disabled": 0, "fusion_lat": 0.0, "name": "81c1fea3fa22003eca6a67b9bad03278", "fusion_lon": 0.0}, {"is_reserved": 0, "type": "electric_scooter", "bike_id": "2ecd308a3a17f9a8ede9c55d434ba166", "lat": 38.8715925, "lon": -77.01353033333334, "rental_uris": {"android": "https://dc.lft.to/lastmile_qr_scan", "ios": "https://dc.lft.to/lastmile_qr_scan"}, "is_disabled": 0, "fusion_lat": 0.0, "name": "2ecd308a3a17f9a8ede9c55d434ba166", "fusion_lon": 0.0}, {"is_reserved": 0, "type": "electric_scooter", "bike_id": "cc086f66fd11621f2ae99eed2061850c", "lat": 38.89605983333333, "lon": -76.983169, "rental_uris": {"android": "https://dc.lft.to/lastmile_qr_scan", "ios": "https://dc.lft.to/lastmile_qr_scan"}, "is_disabled": 0, "fusion_lat": 0.0, "name": "cc086f66fd11621f2ae99eed2061850c", "fusion_lon": 0.0}, {"is_reserved": 0, "type": "electric_scooter", "bike_id": "a144a7243e593f290a9d05adbca7b6f4", "lat": 38.892159666666664, "lon": -77.03188983333334, "rental_uris": {"android": "https://dc.lft.to/lastmile_qr_scan", "ios": "https://dc.lft.to/lastmile_qr_scan"}, "is_disabled": 0, "fusion_lat": 0.0, "name": "a144a7243e593f290a9d05adbca7b6f4", "fusion_lon": 0.0}, {"is_reserved": 0, "type": "electric_bike", "bike_id": "777477b60a0c9998cbef7b320dba8cb9", "lat": 38.98178583333333, "lon": -76.9820805, "rental_uris": {"android": "https://dc.lft.to/lastmile_qr_scan", "ios": "https://dc.lft.to/lastmile_qr_scan"}, "is_disabled": 0, "fusion_lat": 0.0, "name": "777477b60a0c9998cbef7b320dba8cb9", "fusion_lon": 0.0}, {"is_reserved": 0, "type": "electric_scooter", "bike_id": "f0c87105b329b23eb770a4f510abcc51", "lat": 38.9165295, "lon": -77.03167, "rental_uris": {"android": "https://dc.lft.to/lastmile_qr_scan", "ios": "https://dc.lft.to/lastmile_qr_scan"}, "is_disabled": 0, "fusion_lat": 0.0, "name": "f0c87105b329b23eb770a4f510abcc51", "fusion_lon": 0.0}, {"is_reserved": 0, "type": "electric_scooter", "bike_id": "a9b9abb1b3b0896b4ff2157fb5a6682c", "lat": 38.921653166666665, "lon": -77.03641016666667, "rental_uris": {"android": "https://dc.lft.to/lastmile_qr_scan", "ios": "https://dc.lft.to/lastmile_qr_scan"}, "is_disabled": 0, "fusion_lat": 0.0, "name": "a9b9abb1b3b0896b4ff2157fb5a6682c", "fusion_lon": 0.0}, {"is_reserved": 0, "type": "electric_scooter", "bike_id": "bdf259eb188dff0eeb51d402caf29dff", "lat": 38.91832216666667, "lon": -77.023097, "rental_uris": {"android": "https://dc.lft.to/lastmile_qr_scan", "ios": "https://dc.lft.to/lastmile_qr_scan"}, "is_disabled": 0, "fusion_lat": 0.0, "name": "bdf259eb188dff0eeb51d402caf29dff", "fusion_lon": 0.0}, {"is_reserved": 0, "type": "electric_scooter", "bike_id": "f5d86aafc37b280f6ba723ea01e1d936", "lat": 38.94439216666667, "lon": -77.0291085, "rental_uris": {"android": "https://dc.lft.to/lastmile_qr_scan", "ios": "https://dc.lft.to/lastmile_qr_scan"}, "is_disabled": 0, "fusion_lat": 0.0, "name": "f5d86aafc37b280f6ba723ea01e1d936", "fusion_lon": 0.0}, {"is_reserved": 0, "type": "electric_scooter", "bike_id": "e9b575055d21fd995bc01765c582decf", "lat": 38.89849133333333, "lon": -76.927473, "rental_uris": {"android": "https://dc.lft.to/lastmile_qr_scan", "ios": "https://dc.lft.to/lastmile_qr_scan"}, "is_disabled": 0, "fusion_lat": 0.0, "name": "e9b575055d21fd995bc01765c582decf", "fusion_lon": 0.0}, {"is_reserved": 0, "type": "electric_scooter", "bike_id": "82289b069d8b1f92b0fe7392e7d16e26", "lat": 38.93690516666667, "lon": -77.0271245, "rental_uris": {"android": "https://dc.lft.to/lastmile_qr_scan", "ios": "https://dc.lft.to/lastmile_qr_scan"}, "is_disabled": 0, "fusion_lat": 0.0, "name": "82289b069d8b1f92b0fe7392e7d16e26", "fusion_lon": 0.0}, {"is_reserved": 0, "type": "electric_scooter", "bike_id": "6c2165f8cfd003c0614973364bb3f8bb", "lat": 38.899879166666665, "lon": -76.99481916666667, "rental_uris": {"android": "https://dc.lft.to/lastmile_qr_scan", "ios": "https://dc.lft.to/lastmile_qr_scan"}, "is_disabled": 0, "fusion_lat": 0.0, "name": "6c2165f8cfd003c0614973364bb3f8bb", "fusion_lon": 0.0}, {"is_reserved": 0, "type": "electric_scooter", "bike_id": "14c92fd50dca70a3b6276b2cbb9bbb0d", "lat": 38.925640333333334, "lon": -76.96999583333333, "rental_uris": {"android": "https://dc.lft.to/lastmile_qr_scan", "ios": "https://dc.lft.to/lastmile_qr_scan"}, "is_disabled": 0, "fusion_lat": 0.0, "name": "14c92fd50dca70a3b6276b2cbb9bbb0d", "fusion_lon": 0.0}, {"is_reserved": 0, "type": "electric_scooter", "bike_id": "2d9589bb5975ce5abd2e133806a4c7ff", "lat": 38.892233, "lon": -77.016071, "rental_uris": {"android": "https://dc.lft.to/lastmile_qr_scan", "ios": "https://dc.lft.to/lastmile_qr_scan"}, "is_disabled": 0, "fusion_lat": 0.0, "name": "2d9589bb5975ce5abd2e133806a4c7ff", "fusion_lon": 0.0}, {"is_reserved": 0, "type": "electric_scooter", "bike_id": "f83788d80fa549d26c5439da4d493c89", "lat": 38.92403516666667, "lon": -76.95152233333333, "rental_uris": {"android": "https://dc.lft.to/lastmile_qr_scan", "ios": "https://dc.lft.to/lastmile_qr_scan"}, "is_disabled": 0, "fusion_lat": 0.0, "name": "f83788d80fa549d26c5439da4d493c89", "fusion_lon": 0.0}, {"is_reserved": 0, "type": "electric_scooter", "bike_id": "e7ed64b0d4a697d88299338951b21ffd", "lat": 38.89888533333333, "lon": -77.01599833333333, "rental_uris": {"android": "https://dc.lft.to/lastmile_qr_scan", "ios": "https://dc.lft.to/lastmile_qr_scan"}, "is_disabled": 0, "fusion_lat": 0.0, "name": "e7ed64b0d4a697d88299338951b21ffd", "fusion_lon": 0.0}, {"is_reserved": 0, "type": "electric_scooter", "bike_id": "631ee961d01b03ecfb3818064a0bc7e5", "lat": 38.899830333333334, "lon": -77.02890733333334, "rental_uris": {"android": "https://dc.lft.to/lastmile_qr_scan", "ios": "https://dc.lft.to/lastmile_qr_scan"}, "is_disabled": 0, "fusion_lat": 0.0, "name": "631ee961d01b03ecfb3818064a0bc7e5", "fusion_lon": 0.0}, {"is_reserved": 0, "type": "electric_scooter", "bike_id": "387c833a2c8441b987a3e27a496fe58e", "lat": 38.92799083333333, "lon": -77.03629383333333, "rental_uris": {"android": "https://dc.lft.to/lastmile_qr_scan", "ios": "https://dc.lft.to/lastmile_qr_scan"}, "is_disabled": 0, "fusion_lat": 0.0, "name": "387c833a2c8441b987a3e27a496fe58e", "fusion_lon": 0.0}, {"is_reserved": 0, "type": "electric_scooter", "bike_id": "16c66c2937d8987ab52b17085e04a305", "lat": 38.897454333333336, "lon": -77.01756666666667, "rental_uris": {"android": "https://dc.lft.to/lastmile_qr_scan", "ios": "https://dc.lft.to/lastmile_qr_scan"}, "is_disabled": 0, "fusion_lat": 0.0, "name": "16c66c2937d8987ab52b17085e04a305", "fusion_lon": 0.0}, {"is_reserved": 0, "type": "electric_scooter", "bike_id": "1dd94511629fbb634e8530f011fcea80", "lat": 38.89883916666667, "lon": -77.0487755, "rental_uris": {"android": "https://dc.lft.to/lastmile_qr_scan", "ios": "https://dc.lft.to/lastmile_qr_scan"}, "is_disabled": 0, "fusion_lat": 0.0, "name": "1dd94511629fbb634e8530f011fcea80", "fusion_lon": 0.0}, {"is_reserved": 0, "type": "electric_scooter", "bike_id": "48ceaea8d347948d489eebb3660c8624", "lat": 38.900387333333335, "lon": -76.99030916666666, "rental_uris": {"android": "https://dc.lft.to/lastmile_qr_scan", "ios": "https://dc.lft.to/lastmile_qr_scan"}, "is_disabled": 0, "fusion_lat": 0.0, "name": "48ceaea8d347948d489eebb3660c8624", "fusion_lon": 0.0}, {"is_reserved": 0, "type": "electric_scooter", "bike_id": "a56ff33e3dfaa4a3d411adaeb18853ed", "lat": 38.91267033333333, "lon": -77.03383233333334, "rental_uris": {"android": "https://dc.lft.to/lastmile_qr_scan", "ios": "https://dc.lft.to/lastmile_qr_scan"}, "is_disabled": 0, "fusion_lat": 0.0, "name": "a56ff33e3dfaa4a3d411adaeb18853ed", "fusion_lon": 0.0}, {"is_reserved": 0, "type": "electric_bike", "bike_id": "3be059cc9f4141e51ee23be49f0d9139", "lat": 38.8992485, "lon": -76.9796125, "rental_uris": {"android": "https://dc.lft.to/lastmile_qr_scan", "ios": "https://dc.lft.to/lastmile_qr_scan"}, "is_disabled": 0, "fusion_lat": 0.0, "name": "3be059cc9f4141e51ee23be49f0d9139", "fusion_lon": 0.0}, {"is_reserved": 0, "type": "electric_scooter", "bike_id": "0ba86e007434f4d8b813efd0a7802bad", "lat": 38.887369666666665, "lon": -77.03176216666667, "rental_uris": {"android": "https://dc.lft.to/lastmile_qr_scan", "ios": "https://dc.lft.to/lastmile_qr_scan"}, "is_disabled": 0, "fusion_lat": 0.0, "name": "0ba86e007434f4d8b813efd0a7802bad", "fusion_lon": 0.0}, {"is_reserved": 0, "type": "electric_scooter", "bike_id": "ef177fba73db531b7c5a0d87eb116d58", "lat": 38.877615, "lon": -76.99424566666667, "rental_uris": {"android": "https://dc.lft.to/lastmile_qr_scan", "ios": "https://dc.lft.to/lastmile_qr_scan"}, "is_disabled": 0, "fusion_lat": 0.0, "name": "ef177fba73db531b7c5a0d87eb116d58", "fusion_lon": 0.0}, {"is_reserved": 0, "type": "electric_scooter", "bike_id": "ce34a499ae8ff3483f0ce9af1e443efb", "lat": 38.91989933333333, "lon": -77.0287675, "rental_uris": {"android": "https://dc.lft.to/lastmile_qr_scan", "ios": "https://dc.lft.to/lastmile_qr_scan"}, "is_disabled": 0, "fusion_lat": 0.0, "name": "ce34a499ae8ff3483f0ce9af1e443efb", "fusion_lon": 0.0}, {"is_reserved": 0, "type": "electric_bike", "bike_id": "1a60249e319ce7f40cfae36d56657c2a", "lat": 38.91133383333333, "lon": -77.06574516666667, "rental_uris": {"android": "https://dc.lft.to/lastmile_qr_scan", "ios": "https://dc.lft.to/lastmile_qr_scan"}, "is_disabled": 0, "fusion_lat": 0.0, "name": "1a60249e319ce7f40cfae36d56657c2a", "fusion_lon": 0.0}, {"is_reserved": 0, "type": "electric_scooter", "bike_id": "5f1927e18b37547a7406694cb696ed4d", "lat": 38.910000833333335, "lon": -77.04008883333333, "rental_uris": {"android": "https://dc.lft.to/lastmile_qr_scan", "ios": "https://dc.lft.to/lastmile_qr_scan"}, "is_disabled": 0, "fusion_lat": 0.0, "name": "5f1927e18b37547a7406694cb696ed4d", "fusion_lon": 0.0}, {"is_reserved": 0, "type": "electric_scooter", "bike_id": "8edfa147c4bae19da5ffe8a62e6eb5fe", "lat": 38.90068633333333, "lon": -76.92743833333333, "rental_uris": {"android": "https://dc.lft.to/lastmile_qr_scan", "ios": "https://dc.lft.to/lastmile_qr_scan"}, "is_disabled": 0, "fusion_lat": 0.0, "name": "8edfa147c4bae19da5ffe8a62e6eb5fe", "fusion_lon": 0.0}, {"is_reserved": 0, "type": "electric_scooter", "bike_id": "feed95d1541a5aed4e2a8e18bceab422", "lat": 38.94243866666667, "lon": -77.03584216666667, "rental_uris": {"android": "https://dc.lft.to/lastmile_qr_scan", "ios": "https://dc.lft.to/lastmile_qr_scan"}, "is_disabled": 0, "fusion_lat": 0.0, "name": "feed95d1541a5aed4e2a8e18bceab422", "fusion_lon": 0.0}, {"is_reserved": 0, "type": "electric_scooter", "bike_id": "19febaf4283760b92e981d6208c3753f", "lat": 38.9312, "lon": -77.02081933333334, "rental_uris": {"android": "https://dc.lft.to/lastmile_qr_scan", "ios": "https://dc.lft.to/lastmile_qr_scan"}, "is_disabled": 0, "fusion_lat": 0.0, "name": "19febaf4283760b92e981d6208c3753f", "fusion_lon": 0.0}, {"is_reserved": 0, "type": "electric_scooter", "bike_id": "ce13cc6461d75f81df38a622e2c647cd", "lat": 38.90407533333333, "lon": -77.04322616666667, "rental_uris": {"android": "https://dc.lft.to/lastmile_qr_scan", "ios": "https://dc.lft.to/lastmile_qr_scan"}, "is_disabled": 0, "fusion_lat": 0.0, "name": "ce13cc6461d75f81df38a622e2c647cd", "fusion_lon": 0.0}, {"is_reserved": 0, "type": "electric_scooter", "bike_id": "061a0ae52677970ffc560171ea9ada18", "lat": 38.94078483333333, "lon": -77.03330166666667, "rental_uris": {"android": "https://dc.lft.to/lastmile_qr_scan", "ios": "https://dc.lft.to/lastmile_qr_scan"}, "is_disabled": 0, "fusion_lat": 0.0, "name": "061a0ae52677970ffc560171ea9ada18", "fusion_lon": 0.0}, {"is_reserved": 0, "type": "electric_scooter", "bike_id": "da2e1ac553b8e7460575e2321d4ebf04", "lat": 38.88397366666667, "lon": -76.98979933333334, "rental_uris": {"android": "https://dc.lft.to/lastmile_qr_scan", "ios": "https://dc.lft.to/lastmile_qr_scan"}, "is_disabled": 0, "fusion_lat": 0.0, "name": "da2e1ac553b8e7460575e2321d4ebf04", "fusion_lon": 0.0}, {"is_reserved": 0, "type": "electric_scooter", "bike_id": "7e06bad8de01b01c1a2ab5aa2a21f77f", "lat": 38.89886933333333, "lon": -76.93174366666666, "rental_uris": {"android": "https://dc.lft.to/lastmile_qr_scan", "ios": "https://dc.lft.to/lastmile_qr_scan"}, "is_disabled": 0, "fusion_lat": 0.0, "name": "7e06bad8de01b01c1a2ab5aa2a21f77f", "fusion_lon": 0.0}, {"is_reserved": 0, "type": "electric_scooter", "bike_id": "0ef07991fcbac01cce7bc27c262bf395", "lat": 38.913766833333334, "lon": -77.000468, "rental_uris": {"android": "https://dc.lft.to/lastmile_qr_scan", "ios": "https://dc.lft.to/lastmile_qr_scan"}, "is_disabled": 0, "fusion_lat": 0.0, "name": "0ef07991fcbac01cce7bc27c262bf395", "fusion_lon": 0.0}, {"is_reserved": 0, "type": "electric_scooter", "bike_id": "986412f2a3d71cedabdedf60b380006f", "lat": 38.90979566666667, "lon": -77.03842133333333, "rental_uris": {"android": "https://dc.lft.to/lastmile_qr_scan", "ios": "https://dc.lft.to/lastmile_qr_scan"}, "is_disabled": 0, "fusion_lat": 0.0, "name": "986412f2a3d71cedabdedf60b380006f", "fusion_lon": 0.0}, {"is_reserved": 0, "type": "electric_scooter", "bike_id": "c6a04d3c9c5f3118fc83cbc2cfa43f8a", "lat": 38.926533666666664, "lon": -77.040601, "rental_uris": {"android": "https://dc.lft.to/lastmile_qr_scan", "ios": "https://dc.lft.to/lastmile_qr_scan"}, "is_disabled": 0, "fusion_lat": 0.0, "name": "c6a04d3c9c5f3118fc83cbc2cfa43f8a", "fusion_lon": 0.0}, {"is_reserved": 0, "type": "electric_scooter", "bike_id": "59d5d7570950717ba2593d8e8eab9c32", "lat": 38.920817, "lon": -77.076919, "rental_uris": {"android": "https://dc.lft.to/lastmile_qr_scan", "ios": "https://dc.lft.to/lastmile_qr_scan"}, "is_disabled": 0, "fusion_lat": 0.0, "name": "59d5d7570950717ba2593d8e8eab9c32", "fusion_lon": 0.0}, {"is_reserved": 0, "type": "electric_scooter", "bike_id": "f35a16c4072fe10e8b1f4eb64bec1b7b", "lat": 38.897421333333334, "lon": -76.99769216666667, "rental_uris": {"android": "https://dc.lft.to/lastmile_qr_scan", "ios": "https://dc.lft.to/lastmile_qr_scan"}, "is_disabled": 0, "fusion_lat": 0.0, "name": "f35a16c4072fe10e8b1f4eb64bec1b7b", "fusion_lon": 0.0}, {"is_reserved": 0, "type": "electric_bike", "bike_id": "3869963ce10d2120c7a0ed12741e7ecc", "lat": 38.946637833333334, "lon": -76.99332, "rental_uris": {"android": "https://dc.lft.to/lastmile_qr_scan", "ios": "https://dc.lft.to/lastmile_qr_scan"}, "is_disabled": 0, "fusion_lat": 0.0, "name": "3869963ce10d2120c7a0ed12741e7ecc", "fusion_lon": 0.0}, {"is_reserved": 0, "type": "electric_scooter", "bike_id": "579c3fa137b6d03b4fc6365f0ee5634f", "lat": 38.90449816666667, "lon": -77.02904316666667, "rental_uris": {"android": "https://dc.lft.to/lastmile_qr_scan", "ios": "https://dc.lft.to/lastmile_qr_scan"}, "is_disabled": 0, "fusion_lat": 0.0, "name": "579c3fa137b6d03b4fc6365f0ee5634f", "fusion_lon": 0.0}, {"is_reserved": 0, "type": "electric_scooter", "bike_id": "be3eb173f4c14e27aa98467438cd85b5", "lat": 38.913825333333335, "lon": -77.04600083333334, "rental_uris": {"android": "https://dc.lft.to/lastmile_qr_scan", "ios": "https://dc.lft.to/lastmile_qr_scan"}, "is_disabled": 0, "fusion_lat": 0.0, "name": "be3eb173f4c14e27aa98467438cd85b5", "fusion_lon": 0.0}, {"is_reserved": 0, "type": "electric_scooter", "bike_id": "2061ed6e4ef334e52fff71370a06a750", "lat": 38.90727966666667, "lon": -77.00705633333334, "rental_uris": {"android": "https://dc.lft.to/lastmile_qr_scan", "ios": "https://dc.lft.to/lastmile_qr_scan"}, "is_disabled": 0, "fusion_lat": 0.0, "name": "2061ed6e4ef334e52fff71370a06a750", "fusion_lon": 0.0}, {"is_reserved": 0, "type": "electric_scooter", "bike_id": "11d4127fe7eae01440820f38b5a53edc", "lat": 38.8873935, "lon": -77.01350133333334, "rental_uris": {"android": "https://dc.lft.to/lastmile_qr_scan", "ios": "https://dc.lft.to/lastmile_qr_scan"}, "is_disabled": 0, "fusion_lat": 0.0, "name": "11d4127fe7eae01440820f38b5a53edc", "fusion_lon": 0.0}, {"is_reserved": 0, "type": "electric_scooter", "bike_id": "7dfae25d62247c34fa0322f46af95eab", "lat": 38.9001855, "lon": -77.02365533333334, "rental_uris": {"android": "https://dc.lft.to/lastmile_qr_scan", "ios": "https://dc.lft.to/lastmile_qr_scan"}, "is_disabled": 0, "fusion_lat": 0.0, "name": "7dfae25d62247c34fa0322f46af95eab", "fusion_lon": 0.0}, {"is_reserved": 0, "type": "electric_scooter", "bike_id": "742d4d10697139aefd58d473adf41cdd", "lat": 38.90476733333333, "lon": -77.00722433333334, "rental_uris": {"android": "https://dc.lft.to/lastmile_qr_scan", "ios": "https://dc.lft.to/lastmile_qr_scan"}, "is_disabled": 0, "fusion_lat": 0.0, "name": "742d4d10697139aefd58d473adf41cdd", "fusion_lon": 0.0}, {"is_reserved": 0, "type": "electric_bike", "bike_id": "939ab0dff76875cd657e6d32b9a4ab24", "lat": 38.9613365, "lon": -77.02981966666667, "rental_uris": {"android": "https://dc.lft.to/lastmile_qr_scan", "ios": "https://dc.lft.to/lastmile_qr_scan"}, "is_disabled": 0, "fusion_lat": 0.0, "name": "939ab0dff76875cd657e6d32b9a4ab24", "fusion_lon": 0.0}, {"is_reserved": 0, "type": "electric_bike", "bike_id": "2e47038a0af8b922afbd845ac605cdbf", "lat": 38.946675666666664, "lon": -77.00773666666667, "rental_uris": {"android": "https://dc.lft.to/lastmile_qr_scan", "ios": "https://dc.lft.to/lastmile_qr_scan"}, "is_disabled": 0, "fusion_lat": 0.0, "name": "2e47038a0af8b922afbd845ac605cdbf", "fusion_lon": 0.0}, {"is_reserved": 0, "type": "electric_scooter", "bike_id": "832ad0962eab5b9a5b632cb8ba947fd2", "lat": 38.898799, "lon": -76.98838133333334, "rental_uris": {"android": "https://dc.lft.to/lastmile_qr_scan", "ios": "https://dc.lft.to/lastmile_qr_scan"}, "is_disabled": 0, "fusion_lat": 0.0, "name": "832ad0962eab5b9a5b632cb8ba947fd2", "fusion_lon": 0.0}, {"is_reserved": 0, "type": "electric_scooter", "bike_id": "da12597bf346082971c898bd460e7085", "lat": 38.92284166666666, "lon": -77.04288616666666, "rental_uris": {"android": "https://dc.lft.to/lastmile_qr_scan", "ios": "https://dc.lft.to/lastmile_qr_scan"}, "is_disabled": 0, "fusion_lat": 0.0, "name": "da12597bf346082971c898bd460e7085", "fusion_lon": 0.0}, {"is_reserved": 0, "type": "electric_scooter", "bike_id": "73b55f4183e8e024555eff4b6552e12c", "lat": 38.8936, "lon": -76.98679033333333, "rental_uris": {"android": "https://dc.lft.to/lastmile_qr_scan", "ios": "https://dc.lft.to/lastmile_qr_scan"}, "is_disabled": 0, "fusion_lat": 0.0, "name": "73b55f4183e8e024555eff4b6552e12c", "fusion_lon": 0.0}, {"is_reserved": 0, "type": "electric_scooter", "bike_id": "a49e111ea4c5bc2340994e53a2dda93d", "lat": 38.934960833333335, "lon": -77.044544, "rental_uris": {"android": "https://dc.lft.to/lastmile_qr_scan", "ios": "https://dc.lft.to/lastmile_qr_scan"}, "is_disabled": 0, "fusion_lat": 0.0, "name": "a49e111ea4c5bc2340994e53a2dda93d", "fusion_lon": 0.0}, {"is_reserved": 0, "type": "electric_scooter", "bike_id": "660453c6b736c2fffad4ef5b77497bac", "lat": 38.91560416666667, "lon": -77.04280733333333, "rental_uris": {"android": "https://dc.lft.to/lastmile_qr_scan", "ios": "https://dc.lft.to/lastmile_qr_scan"}, "is_disabled": 0, "fusion_lat": 0.0, "name": "660453c6b736c2fffad4ef5b77497bac", "fusion_lon": 0.0}, {"is_reserved": 0, "type": "electric_scooter", "bike_id": "29df23da81e85b1c30ee2a6b01ccf964", "lat": 38.8949015, "lon": -76.92794216666667, "rental_uris": {"android": "https://dc.lft.to/lastmile_qr_scan", "ios": "https://dc.lft.to/lastmile_qr_scan"}, "is_disabled": 0, "fusion_lat": 0.0, "name": "29df23da81e85b1c30ee2a6b01ccf964", "fusion_lon": 0.0}, {"is_reserved": 0, "type": "electric_scooter", "bike_id": "7b515a7c44823ccaae832b3d98616286", "lat": 38.89870916666667, "lon": -76.946397, "rental_uris": {"android": "https://dc.lft.to/lastmile_qr_scan", "ios": "https://dc.lft.to/lastmile_qr_scan"}, "is_disabled": 0, "fusion_lat": 0.0, "name": "7b515a7c44823ccaae832b3d98616286", "fusion_lon": 0.0}, {"is_reserved": 0, "type": "electric_scooter", "bike_id": "1572f78cad338b5af694fb9808a016e4", "lat": 38.989888666666666, "lon": -77.033604, "rental_uris": {"android": "https://dc.lft.to/lastmile_qr_scan", "ios": "https://dc.lft.to/lastmile_qr_scan"}, "is_disabled": 0, "fusion_lat": 0.0, "name": "1572f78cad338b5af694fb9808a016e4", "fusion_lon": 0.0}, {"is_reserved": 0, "type": "electric_scooter", "bike_id": "5789441acdc29c1b6670183dc7c4673e", "lat": 38.9175435, "lon": -77.0476835, "rental_uris": {"android": "https://dc.lft.to/lastmile_qr_scan", "ios": "https://dc.lft.to/lastmile_qr_scan"}, "is_disabled": 0, "fusion_lat": 0.0, "name": "5789441acdc29c1b6670183dc7c4673e", "fusion_lon": 0.0}, {"is_reserved": 0, "type": "electric_scooter", "bike_id": "d1730b4199c4ad7512803ea93dccbdc0", "lat": 38.92062966666667, "lon": -77.02360083333333, "rental_uris": {"android": "https://dc.lft.to/lastmile_qr_scan", "ios": "https://dc.lft.to/lastmile_qr_scan"}, "is_disabled": 0, "fusion_lat": 0.0, "name": "d1730b4199c4ad7512803ea93dccbdc0", "fusion_lon": 0.0}, {"is_reserved": 0, "type": "electric_scooter", "bike_id": "ca0504c427200d4841e7bfa91d5f8248", "lat": 38.905288166666665, "lon": -77.06787783333333, "rental_uris": {"android": "https://dc.lft.to/lastmile_qr_scan", "ios": "https://dc.lft.to/lastmile_qr_scan"}, "is_disabled": 0, "fusion_lat": 0.0, "name": "ca0504c427200d4841e7bfa91d5f8248", "fusion_lon": 0.0}, {"is_reserved": 0, "type": "electric_scooter", "bike_id": "4c3e2043041d0c9e020d71b26404b2f3", "lat": 38.905824333333335, "lon": -77.03655483333333, "rental_uris": {"android": "https://dc.lft.to/lastmile_qr_scan", "ios": "https://dc.lft.to/lastmile_qr_scan"}, "is_disabled": 0, "fusion_lat": 0.0, "name": "4c3e2043041d0c9e020d71b26404b2f3", "fusion_lon": 0.0}, {"is_reserved": 0, "type": "electric_scooter", "bike_id": "ef6324e75980aeb944bb42f8864eea3d", "lat": 38.90732916666666, "lon": -77.03312316666667, "rental_uris": {"android": "https://dc.lft.to/lastmile_qr_scan", "ios": "https://dc.lft.to/lastmile_qr_scan"}, "is_disabled": 0, "fusion_lat": 0.0, "name": "ef6324e75980aeb944bb42f8864eea3d", "fusion_lon": 0.0}, {"is_reserved": 0, "type": "electric_scooter", "bike_id": "f73f06fcef3e4280f44a097fbe098d8c", "lat": 38.92765983333334, "lon": -77.027816, "rental_uris": {"android": "https://dc.lft.to/lastmile_qr_scan", "ios": "https://dc.lft.to/lastmile_qr_scan"}, "is_disabled": 0, "fusion_lat": 0.0, "name": "f73f06fcef3e4280f44a097fbe098d8c", "fusion_lon": 0.0}, {"is_reserved": 0, "type": "electric_scooter", "bike_id": "06cf2c54b4d413c6246faee054d92abf", "lat": 38.935315, "lon": -77.0341385, "rental_uris": {"android": "https://dc.lft.to/lastmile_qr_scan", "ios": "https://dc.lft.to/lastmile_qr_scan"}, "is_disabled": 0, "fusion_lat": 0.0, "name": "06cf2c54b4d413c6246faee054d92abf", "fusion_lon": 0.0}, {"is_reserved": 0, "type": "electric_scooter", "bike_id": "bcc208425655a404bb4b0caf82b45e87", "lat": 38.84327316666667, "lon": -76.99735566666666, "rental_uris": {"android": "https://dc.lft.to/lastmile_qr_scan", "ios": "https://dc.lft.to/lastmile_qr_scan"}, "is_disabled": 0, "fusion_lat": 0.0, "name": "bcc208425655a404bb4b0caf82b45e87", "fusion_lon": 0.0}, {"is_reserved": 0, "type": "electric_scooter", "bike_id": "11d451458e93fd858a6b08acb05656b2", "lat": 38.924507166666665, "lon": -77.03283016666667, "rental_uris": {"android": "https://dc.lft.to/lastmile_qr_scan", "ios": "https://dc.lft.to/lastmile_qr_scan"}, "is_disabled": 0, "fusion_lat": 0.0, "name": "11d451458e93fd858a6b08acb05656b2", "fusion_lon": 0.0}, {"is_reserved": 0, "type": "electric_scooter", "bike_id": "bc77af860b57f121a6988d42a2273b5f", "lat": 38.928244, "lon": -77.02260533333333, "rental_uris": {"android": "https://dc.lft.to/lastmile_qr_scan", "ios": "https://dc.lft.to/lastmile_qr_scan"}, "is_disabled": 0, "fusion_lat": 0.0, "name": "bc77af860b57f121a6988d42a2273b5f", "fusion_lon": 0.0}, {"is_reserved": 0, "type": "electric_scooter", "bike_id": "fe589d5f06e9451e1279bc99dde601b1", "lat": 38.905591333333334, "lon": -77.039937, "rental_uris": {"android": "https://dc.lft.to/lastmile_qr_scan", "ios": "https://dc.lft.to/lastmile_qr_scan"}, "is_disabled": 0, "fusion_lat": 0.0, "name": "fe589d5f06e9451e1279bc99dde601b1", "fusion_lon": 0.0}, {"is_reserved": 0, "type": "electric_scooter", "bike_id": "8d85b520130cb1fdae685a8e8ed78c7b", "lat": 38.913932833333334, "lon": -77.01992783333333, "rental_uris": {"android": "https://dc.lft.to/lastmile_qr_scan", "ios": "https://dc.lft.to/lastmile_qr_scan"}, "is_disabled": 0, "fusion_lat": 0.0, "name": "8d85b520130cb1fdae685a8e8ed78c7b", "fusion_lon": 0.0}, {"is_reserved": 0, "type": "electric_scooter", "bike_id": "0cfedeba45f6d9d159caffe8f266cdcb", "lat": 38.91645066666667, "lon": -77.0477855, "rental_uris": {"android": "https://dc.lft.to/lastmile_qr_scan", "ios": "https://dc.lft.to/lastmile_qr_scan"}, "is_disabled": 0, "fusion_lat": 0.0, "name": "0cfedeba45f6d9d159caffe8f266cdcb", "fusion_lon": 0.0}, {"is_reserved": 0, "type": "electric_scooter", "bike_id": "3eba2e95989cfb0ed3c90c28a0ef0d1c", "lat": 38.88410016666667, "lon": -77.0304245, "rental_uris": {"android": "https://dc.lft.to/lastmile_qr_scan", "ios": "https://dc.lft.to/lastmile_qr_scan"}, "is_disabled": 0, "fusion_lat": 0.0, "name": "3eba2e95989cfb0ed3c90c28a0ef0d1c", "fusion_lon": 0.0}, {"is_reserved": 0, "type": "electric_scooter", "bike_id": "b3dfb2a25501b5244b33ef57f23a7ce8", "lat": 38.916943, "lon": -77.0251365, "rental_uris": {"android": "https://dc.lft.to/lastmile_qr_scan", "ios": "https://dc.lft.to/lastmile_qr_scan"}, "is_disabled": 0, "fusion_lat": 0.0, "name": "b3dfb2a25501b5244b33ef57f23a7ce8", "fusion_lon": 0.0}, {"is_reserved": 0, "type": "electric_scooter", "bike_id": "6a65e918c60ae7ba90d1a6fc552f119c", "lat": 38.9295545, "lon": -77.00409633333334, "rental_uris": {"android": "https://dc.lft.to/lastmile_qr_scan", "ios": "https://dc.lft.to/lastmile_qr_scan"}, "is_disabled": 0, "fusion_lat": 0.0, "name": "6a65e918c60ae7ba90d1a6fc552f119c", "fusion_lon": 0.0}, {"is_reserved": 0, "type": "electric_scooter", "bike_id": "0109e716f3d74e771e2ae0b7bdb28767", "lat": 38.915474, "lon": -77.02301033333333, "rental_uris": {"android": "https://dc.lft.to/lastmile_qr_scan", "ios": "https://dc.lft.to/lastmile_qr_scan"}, "is_disabled": 0, "fusion_lat": 0.0, "name": "0109e716f3d74e771e2ae0b7bdb28767", "fusion_lon": 0.0}, {"is_reserved": 0, "type": "electric_scooter", "bike_id": "dad7effbc1673f49621b623be82e0d56", "lat": 38.90377066666667, "lon": -77.03135016666667, "rental_uris": {"android": "https://dc.lft.to/lastmile_qr_scan", "ios": "https://dc.lft.to/lastmile_qr_scan"}, "is_disabled": 0, "fusion_lat": 0.0, "name": "dad7effbc1673f49621b623be82e0d56", "fusion_lon": 0.0}, {"is_reserved": 0, "type": "electric_bike", "bike_id": "6d4ff59f6456e385e1c01df8ce42e632", "lat": 38.8879095, "lon": -76.923393, "rental_uris": {"android": "https://dc.lft.to/lastmile_qr_scan", "ios": "https://dc.lft.to/lastmile_qr_scan"}, "is_disabled": 0, "fusion_lat": 0.0, "name": "6d4ff59f6456e385e1c01df8ce42e632", "fusion_lon": 0.0}, {"is_reserved": 0, "type": "electric_scooter", "bike_id": "d62fe2ef3ebc74d1a1289e9a27a97c8c", "lat": 38.89604833333333, "lon": -77.0468605, "rental_uris": {"android": "https://dc.lft.to/lastmile_qr_scan", "ios": "https://dc.lft.to/lastmile_qr_scan"}, "is_disabled": 0, "fusion_lat": 0.0, "name": "d62fe2ef3ebc74d1a1289e9a27a97c8c", "fusion_lon": 0.0}, {"is_reserved": 0, "type": "electric_scooter", "bike_id": "e18a4888f594726fab9b30f97242cd5b", "lat": 38.9147905, "lon": -77.0126475, "rental_uris": {"android": "https://dc.lft.to/lastmile_qr_scan", "ios": "https://dc.lft.to/lastmile_qr_scan"}, "is_disabled": 0, "fusion_lat": 0.0, "name": "e18a4888f594726fab9b30f97242cd5b", "fusion_lon": 0.0}, {"is_reserved": 0, "type": "electric_scooter", "bike_id": "eaf111bf1d0dd804f8f1df5b4c5d15fc", "lat": 38.90828033333333, "lon": -77.020058, "rental_uris": {"android": "https://dc.lft.to/lastmile_qr_scan", "ios": "https://dc.lft.to/lastmile_qr_scan"}, "is_disabled": 0, "fusion_lat": 0.0, "name": "eaf111bf1d0dd804f8f1df5b4c5d15fc", "fusion_lon": 0.0}, {"is_reserved": 0, "type": "electric_scooter", "bike_id": "57dd1d8e3193c096f5cdec200b84e697", "lat": 38.897315666666664, "lon": -77.05473366666666, "rental_uris": {"android": "https://dc.lft.to/lastmile_qr_scan", "ios": "https://dc.lft.to/lastmile_qr_scan"}, "is_disabled": 0, "fusion_lat": 0.0, "name": "57dd1d8e3193c096f5cdec200b84e697", "fusion_lon": 0.0}, {"is_reserved": 0, "type": "electric_scooter", "bike_id": "dc2beb6e28d3edb9323815cd2da5a41e", "lat": 38.892246666666665, "lon": -77.04445183333333, "rental_uris": {"android": "https://dc.lft.to/lastmile_qr_scan", "ios": "https://dc.lft.to/lastmile_qr_scan"}, "is_disabled": 0, "fusion_lat": 0.0, "name": "dc2beb6e28d3edb9323815cd2da5a41e", "fusion_lon": 0.0}, {"is_reserved": 0, "type": "electric_scooter", "bike_id": "6f876b3638b1c9a2786a2d2d86252c9c", "lat": 38.902417166666666, "lon": -77.05902016666667, "rental_uris": {"android": "https://dc.lft.to/lastmile_qr_scan", "ios": "https://dc.lft.to/lastmile_qr_scan"}, "is_disabled": 0, "fusion_lat": 0.0, "name": "6f876b3638b1c9a2786a2d2d86252c9c", "fusion_lon": 0.0}, {"is_reserved": 0, "type": "electric_scooter", "bike_id": "971385721373320c58eaf49d911b640b", "lat": 38.90636766666667, "lon": -77.0416145, "rental_uris": {"android": "https://dc.lft.to/lastmile_qr_scan", "ios": "https://dc.lft.to/lastmile_qr_scan"}, "is_disabled": 0, "fusion_lat": 0.0, "name": "971385721373320c58eaf49d911b640b", "fusion_lon": 0.0}, {"is_reserved": 0, "type": "electric_scooter", "bike_id": "7571b4e7dcdcb3240167a0270e5866cb", "lat": 38.900695166666665, "lon": -77.04532116666667, "rental_uris": {"android": "https://dc.lft.to/lastmile_qr_scan", "ios": "https://dc.lft.to/lastmile_qr_scan"}, "is_disabled": 0, "fusion_lat": 0.0, "name": "7571b4e7dcdcb3240167a0270e5866cb", "fusion_lon": 0.0}, {"is_reserved": 0, "type": "electric_scooter", "bike_id": "c0980e52520d1668eee8492e6e01e837", "lat": 38.91488283333333, "lon": -77.01855633333334, "rental_uris": {"android": "https://dc.lft.to/lastmile_qr_scan", "ios": "https://dc.lft.to/lastmile_qr_scan"}, "is_disabled": 0, "fusion_lat": 0.0, "name": "c0980e52520d1668eee8492e6e01e837", "fusion_lon": 0.0}, {"is_reserved": 0, "type": "electric_scooter", "bike_id": "a97273017afbf07fd7a43e1de2879e9d", "lat": 38.91332583333333, "lon": -77.048023, "rental_uris": {"android": "https://dc.lft.to/lastmile_qr_scan", "ios": "https://dc.lft.to/lastmile_qr_scan"}, "is_disabled": 0, "fusion_lat": 0.0, "name": "a97273017afbf07fd7a43e1de2879e9d", "fusion_lon": 0.0}, {"is_reserved": 0, "type": "electric_scooter", "bike_id": "b761a112509ea03978d7611e2aae004e", "lat": 38.91761183333333, "lon": -77.011599, "rental_uris": {"android": "https://dc.lft.to/lastmile_qr_scan", "ios": "https://dc.lft.to/lastmile_qr_scan"}, "is_disabled": 0, "fusion_lat": 0.0, "name": "b761a112509ea03978d7611e2aae004e", "fusion_lon": 0.0}, {"is_reserved": 0, "type": "electric_scooter", "bike_id": "0fb7739aaab2a1d0f7900121b2bb84b9", "lat": 38.9204475, "lon": -77.02575416666667, "rental_uris": {"android": "https://dc.lft.to/lastmile_qr_scan", "ios": "https://dc.lft.to/lastmile_qr_scan"}, "is_disabled": 0, "fusion_lat": 0.0, "name": "0fb7739aaab2a1d0f7900121b2bb84b9", "fusion_lon": 0.0}, {"is_reserved": 0, "type": "electric_scooter", "bike_id": "4636a72c3eaa8f9053e4265d7c98c2ab", "lat": 38.9180055, "lon": -77.0415505, "rental_uris": {"android": "https://dc.lft.to/lastmile_qr_scan", "ios": "https://dc.lft.to/lastmile_qr_scan"}, "is_disabled": 0, "fusion_lat": 0.0, "name": "4636a72c3eaa8f9053e4265d7c98c2ab", "fusion_lon": 0.0}, {"is_reserved": 0, "type": "electric_scooter", "bike_id": "87fc3d9cecf8218e55e9ff33c0f40d0b", "lat": 38.919873333333335, "lon": -76.97309583333333, "rental_uris": {"android": "https://dc.lft.to/lastmile_qr_scan", "ios": "https://dc.lft.to/lastmile_qr_scan"}, "is_disabled": 0, "fusion_lat": 0.0, "name": "87fc3d9cecf8218e55e9ff33c0f40d0b", "fusion_lon": 0.0}, {"is_reserved": 0, "type": "electric_scooter", "bike_id": "7f95e9baea7b58da29ea4a74931eee85", "lat": 38.923945333333336, "lon": -77.05052516666667, "rental_uris": {"android": "https://dc.lft.to/lastmile_qr_scan", "ios": "https://dc.lft.to/lastmile_qr_scan"}, "is_disabled": 0, "fusion_lat": 0.0, "name": "7f95e9baea7b58da29ea4a74931eee85", "fusion_lon": 0.0}, {"is_reserved": 0, "type": "electric_scooter", "bike_id": "db9a635ef1cc4965dddf48e8de882fbd", "lat": 38.89639666666667, "lon": -77.01138983333334, "rental_uris": {"android": "https://dc.lft.to/lastmile_qr_scan", "ios": "https://dc.lft.to/lastmile_qr_scan"}, "is_disabled": 0, "fusion_lat": 0.0, "name": "db9a635ef1cc4965dddf48e8de882fbd", "fusion_lon": 0.0}, {"is_reserved": 0, "type": "electric_scooter", "bike_id": "305e6bfb2c6fa751b25f47f86fd7d521", "lat": 38.905645166666666, "lon": -77.01569166666667, "rental_uris": {"android": "https://dc.lft.to/lastmile_qr_scan", "ios": "https://dc.lft.to/lastmile_qr_scan"}, "is_disabled": 0, "fusion_lat": 0.0, "name": "305e6bfb2c6fa751b25f47f86fd7d521", "fusion_lon": 0.0}, {"is_reserved": 0, "type": "electric_scooter", "bike_id": "cdd6e22bb46ce8da5cde973c944078ac", "lat": 38.895328166666665, "lon": -77.039797, "rental_uris": {"android": "https://dc.lft.to/lastmile_qr_scan", "ios": "https://dc.lft.to/lastmile_qr_scan"}, "is_disabled": 0, "fusion_lat": 0.0, "name": "cdd6e22bb46ce8da5cde973c944078ac", "fusion_lon": 0.0}, {"is_reserved": 0, "type": "electric_scooter", "bike_id": "4e9c8c9b484df7eded94d9291b659500", "lat": 38.90962433333333, "lon": -77.022192, "rental_uris": {"android": "https://dc.lft.to/lastmile_qr_scan", "ios": "https://dc.lft.to/lastmile_qr_scan"}, "is_disabled": 0, "fusion_lat": 0.0, "name": "4e9c8c9b484df7eded94d9291b659500", "fusion_lon": 0.0}, {"is_reserved": 0, "type": "electric_scooter", "bike_id": "cd73751d3e127381658a9bdc45ae96c9", "lat": 38.915597166666664, "lon": -77.0100015, "rental_uris": {"android": "https://dc.lft.to/lastmile_qr_scan", "ios": "https://dc.lft.to/lastmile_qr_scan"}, "is_disabled": 0, "fusion_lat": 0.0, "name": "cd73751d3e127381658a9bdc45ae96c9", "fusion_lon": 0.0}, {"is_reserved": 0, "type": "electric_scooter", "bike_id": "98ab1fc71b1143f883bfe2b8d5773fe9", "lat": 38.89481333333333, "lon": -77.05007366666666, "rental_uris": {"android": "https://dc.lft.to/lastmile_qr_scan", "ios": "https://dc.lft.to/lastmile_qr_scan"}, "is_disabled": 0, "fusion_lat": 0.0, "name": "98ab1fc71b1143f883bfe2b8d5773fe9", "fusion_lon": 0.0}, {"is_reserved": 0, "type": "electric_bike", "bike_id": "940154a9e4dfcf928e3c26d7040591b6", "lat": 38.94262783333333, "lon": -76.990711, "rental_uris": {"android": "https://dc.lft.to/lastmile_qr_scan", "ios": "https://dc.lft.to/lastmile_qr_scan"}, "is_disabled": 0, "fusion_lat": 0.0, "name": "940154a9e4dfcf928e3c26d7040591b6", "fusion_lon": 0.0}, {"is_reserved": 0, "type": "electric_scooter", "bike_id": "2fad456ae4df6758433ca1fc0b1ce957", "lat": 38.921066833333335, "lon": -77.04696266666667, "rental_uris": {"android": "https://dc.lft.to/lastmile_qr_scan", "ios": "https://dc.lft.to/lastmile_qr_scan"}, "is_disabled": 0, "fusion_lat": 0.0, "name": "2fad456ae4df6758433ca1fc0b1ce957", "fusion_lon": 0.0}, {"is_reserved": 0, "type": "electric_scooter", "bike_id": "d98893e9e9d5f8c7c2ddc3f74137bdc6", "lat": 38.952454833333334, "lon": -77.0091745, "rental_uris": {"android": "https://dc.lft.to/lastmile_qr_scan", "ios": "https://dc.lft.to/lastmile_qr_scan"}, "is_disabled": 0, "fusion_lat": 0.0, "name": "d98893e9e9d5f8c7c2ddc3f74137bdc6", "fusion_lon": 0.0}, {"is_reserved": 0, "type": "electric_scooter", "bike_id": "b075d6f0c7e5e4fafe7d38191dcc6967", "lat": 38.895332333333336, "lon": -76.97894766666667, "rental_uris": {"android": "https://dc.lft.to/lastmile_qr_scan", "ios": "https://dc.lft.to/lastmile_qr_scan"}, "is_disabled": 0, "fusion_lat": 0.0, "name": "b075d6f0c7e5e4fafe7d38191dcc6967", "fusion_lon": 0.0}, {"is_reserved": 0, "type": "electric_scooter", "bike_id": "788ec44d8be4cb38d5b92f63b4c98b6c", "lat": 38.943262, "lon": -77.01259183333333, "rental_uris": {"android": "https://dc.lft.to/lastmile_qr_scan", "ios": "https://dc.lft.to/lastmile_qr_scan"}, "is_disabled": 0, "fusion_lat": 0.0, "name": "788ec44d8be4cb38d5b92f63b4c98b6c", "fusion_lon": 0.0}, {"is_reserved": 0, "type": "electric_scooter", "bike_id": "fb2ee8ad4cf9fead16a7fd57897d387c", "lat": 38.924032, "lon": -77.04266083333333, "rental_uris": {"android": "https://dc.lft.to/lastmile_qr_scan", "ios": "https://dc.lft.to/lastmile_qr_scan"}, "is_disabled": 0, "fusion_lat": 0.0, "name": "fb2ee8ad4cf9fead16a7fd57897d387c", "fusion_lon": 0.0}, {"is_reserved": 0, "type": "electric_scooter", "bike_id": "6361aac238faa0726ef6964927bbc9b5", "lat": 38.88610883333333, "lon": -77.01975666666667, "rental_uris": {"android": "https://dc.lft.to/lastmile_qr_scan", "ios": "https://dc.lft.to/lastmile_qr_scan"}, "is_disabled": 0, "fusion_lat": 0.0, "name": "6361aac238faa0726ef6964927bbc9b5", "fusion_lon": 0.0}, {"is_reserved": 0, "type": "electric_scooter", "bike_id": "02a527cb02b0271021a07beb0ba4c24a", "lat": 38.87642533333333, "lon": -77.005767, "rental_uris": {"android": "https://dc.lft.to/lastmile_qr_scan", "ios": "https://dc.lft.to/lastmile_qr_scan"}, "is_disabled": 0, "fusion_lat": 0.0, "name": "02a527cb02b0271021a07beb0ba4c24a", "fusion_lon": 0.0}, {"is_reserved": 0, "type": "electric_scooter", "bike_id": "f9d6d09a0b15474967359bfbcea5a1bc", "lat": 38.9089785, "lon": -76.99620783333333, "rental_uris": {"android": "https://dc.lft.to/lastmile_qr_scan", "ios": "https://dc.lft.to/lastmile_qr_scan"}, "is_disabled": 0, "fusion_lat": 0.0, "name": "f9d6d09a0b15474967359bfbcea5a1bc", "fusion_lon": 0.0}, {"is_reserved": 0, "type": "electric_scooter", "bike_id": "f1d80b7a3901c18e3f6c5875da8d3c68", "lat": 38.93040883333333, "lon": -77.05536816666667, "rental_uris": {"android": "https://dc.lft.to/lastmile_qr_scan", "ios": "https://dc.lft.to/lastmile_qr_scan"}, "is_disabled": 0, "fusion_lat": 0.0, "name": "f1d80b7a3901c18e3f6c5875da8d3c68", "fusion_lon": 0.0}, {"is_reserved": 0, "type": "electric_scooter", "bike_id": "3493829ebad2fb5f292f463e322de5f3", "lat": 38.928261, "lon": -77.05413166666666, "rental_uris": {"android": "https://dc.lft.to/lastmile_qr_scan", "ios": "https://dc.lft.to/lastmile_qr_scan"}, "is_disabled": 0, "fusion_lat": 0.0, "name": "3493829ebad2fb5f292f463e322de5f3", "fusion_lon": 0.0}, {"is_reserved": 0, "type": "electric_scooter", "bike_id": "ad430a1f011b0ff09f7062d805aeb74f", "lat": 38.92631033333333, "lon": -77.04254466666667, "rental_uris": {"android": "https://dc.lft.to/lastmile_qr_scan", "ios": "https://dc.lft.to/lastmile_qr_scan"}, "is_disabled": 0, "fusion_lat": 0.0, "name": "ad430a1f011b0ff09f7062d805aeb74f", "fusion_lon": 0.0}, {"is_reserved": 0, "type": "electric_scooter", "bike_id": "8233546ce9a301cba04e05d9e3975515", "lat": 38.90256933333333, "lon": -77.01911316666667, "rental_uris": {"android": "https://dc.lft.to/lastmile_qr_scan", "ios": "https://dc.lft.to/lastmile_qr_scan"}, "is_disabled": 0, "fusion_lat": 0.0, "name": "8233546ce9a301cba04e05d9e3975515", "fusion_lon": 0.0}, {"is_reserved": 0, "type": "electric_scooter", "bike_id": "876b2b96ec6c5bb9fc515aa660642191", "lat": 38.9751705, "lon": -77.01740266666667, "rental_uris": {"android": "https://dc.lft.to/lastmile_qr_scan", "ios": "https://dc.lft.to/lastmile_qr_scan"}, "is_disabled": 0, "fusion_lat": 0.0, "name": "876b2b96ec6c5bb9fc515aa660642191", "fusion_lon": 0.0}, {"is_reserved": 0, "type": "electric_scooter", "bike_id": "c8e741af31cf0b73c0b46daac1b68315", "lat": 38.8729875, "lon": -77.015595, "rental_uris": {"android": "https://dc.lft.to/lastmile_qr_scan", "ios": "https://dc.lft.to/lastmile_qr_scan"}, "is_disabled": 0, "fusion_lat": 0.0, "name": "c8e741af31cf0b73c0b46daac1b68315", "fusion_lon": 0.0}, {"is_reserved": 0, "type": "electric_scooter", "bike_id": "b2ecd691290353ed2f862609f3974ff7", "lat": 38.8878275, "lon": -76.977108, "rental_uris": {"android": "https://dc.lft.to/lastmile_qr_scan", "ios": "https://dc.lft.to/lastmile_qr_scan"}, "is_disabled": 0, "fusion_lat": 0.0, "name": "b2ecd691290353ed2f862609f3974ff7", "fusion_lon": 0.0}, {"is_reserved": 0, "type": "electric_scooter", "bike_id": "b29570d15bd0368c65fe313343a905a5", "lat": 38.92465083333333, "lon": -77.0395815, "rental_uris": {"android": "https://dc.lft.to/lastmile_qr_scan", "ios": "https://dc.lft.to/lastmile_qr_scan"}, "is_disabled": 0, "fusion_lat": 0.0, "name": "b29570d15bd0368c65fe313343a905a5", "fusion_lon": 0.0}, {"is_reserved": 0, "type": "electric_scooter", "bike_id": "cf782739f21a96c6ea2069ab3bdc7bc7", "lat": 38.917496, "lon": -77.04156483333334, "rental_uris": {"android": "https://dc.lft.to/lastmile_qr_scan", "ios": "https://dc.lft.to/lastmile_qr_scan"}, "is_disabled": 0, "fusion_lat": 0.0, "name": "cf782739f21a96c6ea2069ab3bdc7bc7", "fusion_lon": 0.0}, {"is_reserved": 0, "type": "electric_scooter", "bike_id": "401850b3719c59676d07650b85f38f36", "lat": 38.88609266666667, "lon": -76.99652816666666, "rental_uris": {"android": "https://dc.lft.to/lastmile_qr_scan", "ios": "https://dc.lft.to/lastmile_qr_scan"}, "is_disabled": 0, "fusion_lat": 0.0, "name": "401850b3719c59676d07650b85f38f36", "fusion_lon": 0.0}, {"is_reserved": 0, "type": "electric_scooter", "bike_id": "773eac1d3fdd94c17c764925bd8bbf1a", "lat": 38.920975, "lon": -77.03163866666667, "rental_uris": {"android": "https://dc.lft.to/lastmile_qr_scan", "ios": "https://dc.lft.to/lastmile_qr_scan"}, "is_disabled": 0, "fusion_lat": 0.0, "name": "773eac1d3fdd94c17c764925bd8bbf1a", "fusion_lon": 0.0}, {"is_reserved": 0, "type": "electric_scooter", "bike_id": "b424ed1c8a89dc0ef6557c38a08c4953", "lat": 38.907667000000004, "lon": -77.0422825, "rental_uris": {"android": "https://dc.lft.to/lastmile_qr_scan", "ios": "https://dc.lft.to/lastmile_qr_scan"}, "is_disabled": 0, "fusion_lat": 0.0, "name": "b424ed1c8a89dc0ef6557c38a08c4953", "fusion_lon": 0.0}, {"is_reserved": 0, "type": "electric_scooter", "bike_id": "f283d136c689ea30da5978bac99d03bf", "lat": 38.917618833333336, "lon": -77.00453883333333, "rental_uris": {"android": "https://dc.lft.to/lastmile_qr_scan", "ios": "https://dc.lft.to/lastmile_qr_scan"}, "is_disabled": 0, "fusion_lat": 0.0, "name": "f283d136c689ea30da5978bac99d03bf", "fusion_lon": 0.0}, {"is_reserved": 0, "type": "electric_scooter", "bike_id": "40f29384c504d15255133159fe7f4012", "lat": 38.93331033333333, "lon": -77.029059, "rental_uris": {"android": "https://dc.lft.to/lastmile_qr_scan", "ios": "https://dc.lft.to/lastmile_qr_scan"}, "is_disabled": 0, "fusion_lat": 0.0, "name": "40f29384c504d15255133159fe7f4012", "fusion_lon": 0.0}, {"is_reserved": 0, "type": "electric_scooter", "bike_id": "c3e3432ea436d2649ab4be1ffa67f3fd", "lat": 38.876624666666665, "lon": -77.00756266666667, "rental_uris": {"android": "https://dc.lft.to/lastmile_qr_scan", "ios": "https://dc.lft.to/lastmile_qr_scan"}, "is_disabled": 0, "fusion_lat": 0.0, "name": "c3e3432ea436d2649ab4be1ffa67f3fd", "fusion_lon": 0.0}, {"is_reserved": 0, "type": "electric_bike", "bike_id": "461b0829f38fc9b46c4c2866330c8cb4", "lat": 38.92132516666667, "lon": -77.004002, "rental_uris": {"android": "https://dc.lft.to/lastmile_qr_scan", "ios": "https://dc.lft.to/lastmile_qr_scan"}, "is_disabled": 0, "fusion_lat": 0.0, "name": "461b0829f38fc9b46c4c2866330c8cb4", "fusion_lon": 0.0}, {"is_reserved": 0, "type": "electric_scooter", "bike_id": "055c582ede8c7fa420ae20c13efa1d5a", "lat": 38.94976033333333, "lon": -77.0244785, "rental_uris": {"android": "https://dc.lft.to/lastmile_qr_scan", "ios": "https://dc.lft.to/lastmile_qr_scan"}, "is_disabled": 0, "fusion_lat": 0.0, "name": "055c582ede8c7fa420ae20c13efa1d5a", "fusion_lon": 0.0}, {"is_reserved": 0, "type": "electric_scooter", "bike_id": "11c05095679620b494a09f9d86ba7514", "lat": 38.9331, "lon": -76.99601266666667, "rental_uris": {"android": "https://dc.lft.to/lastmile_qr_scan", "ios": "https://dc.lft.to/lastmile_qr_scan"}, "is_disabled": 0, "fusion_lat": 0.0, "name": "11c05095679620b494a09f9d86ba7514", "fusion_lon": 0.0}, {"is_reserved": 0, "type": "electric_scooter", "bike_id": "840cede1fd67ea62adb4629d5400116b", "lat": 38.909508, "lon": -77.03212283333333, "rental_uris": {"android": "https://dc.lft.to/lastmile_qr_scan", "ios": "https://dc.lft.to/lastmile_qr_scan"}, "is_disabled": 0, "fusion_lat": 0.0, "name": "840cede1fd67ea62adb4629d5400116b", "fusion_lon": 0.0}, {"is_reserved": 0, "type": "electric_scooter", "bike_id": "5641457838ddea64c3f34ee78ba6d5af", "lat": 38.900657833333334, "lon": -77.04877, "rental_uris": {"android": "https://dc.lft.to/lastmile_qr_scan", "ios": "https://dc.lft.to/lastmile_qr_scan"}, "is_disabled": 0, "fusion_lat": 0.0, "name": "5641457838ddea64c3f34ee78ba6d5af", "fusion_lon": 0.0}, {"is_reserved": 0, "type": "electric_bike", "bike_id": "33e188cc6c40ff20e8afa03605328cbc", "lat": 38.871734833333335, "lon": -77.00683216666667, "rental_uris": {"android": "https://dc.lft.to/lastmile_qr_scan", "ios": "https://dc.lft.to/lastmile_qr_scan"}, "is_disabled": 0, "fusion_lat": 0.0, "name": "33e188cc6c40ff20e8afa03605328cbc", "fusion_lon": 0.0}, {"is_reserved": 0, "type": "electric_scooter", "bike_id": "3bc18a1dba51963085c6af9f57ca7d2e", "lat": 38.905266, "lon": -77.05997983333333, "rental_uris": {"android": "https://dc.lft.to/lastmile_qr_scan", "ios": "https://dc.lft.to/lastmile_qr_scan"}, "is_disabled": 0, "fusion_lat": 0.0, "name": "3bc18a1dba51963085c6af9f57ca7d2e", "fusion_lon": 0.0}, {"is_reserved": 0, "type": "electric_scooter", "bike_id": "79b10c94d3eb17a5c7165af041b00309", "lat": 38.92588583333333, "lon": -77.04401366666667, "rental_uris": {"android": "https://dc.lft.to/lastmile_qr_scan", "ios": "https://dc.lft.to/lastmile_qr_scan"}, "is_disabled": 0, "fusion_lat": 0.0, "name": "79b10c94d3eb17a5c7165af041b00309", "fusion_lon": 0.0}, {"is_reserved": 0, "type": "electric_scooter", "bike_id": "b1d92d05d91479f141ebc275a78c6903", "lat": 38.898274666666666, "lon": -77.0242175, "rental_uris": {"android": "https://dc.lft.to/lastmile_qr_scan", "ios": "https://dc.lft.to/lastmile_qr_scan"}, "is_disabled": 0, "fusion_lat": 0.0, "name": "b1d92d05d91479f141ebc275a78c6903", "fusion_lon": 0.0}, {"is_reserved": 0, "type": "electric_scooter", "bike_id": "c34dc5c737286dd3c118bccab1616a5b", "lat": 38.90804883333333, "lon": -77.03672016666667, "rental_uris": {"android": "https://dc.lft.to/lastmile_qr_scan", "ios": "https://dc.lft.to/lastmile_qr_scan"}, "is_disabled": 0, "fusion_lat": 0.0, "name": "c34dc5c737286dd3c118bccab1616a5b", "fusion_lon": 0.0}, {"is_reserved": 0, "type": "electric_scooter", "bike_id": "653045bf44ac6f4ce36a717b43937abd", "lat": 38.885088333333336, "lon": -77.01116033333334, "rental_uris": {"android": "https://dc.lft.to/lastmile_qr_scan", "ios": "https://dc.lft.to/lastmile_qr_scan"}, "is_disabled": 0, "fusion_lat": 0.0, "name": "653045bf44ac6f4ce36a717b43937abd", "fusion_lon": 0.0}, {"is_reserved": 0, "type": "electric_scooter", "bike_id": "fcfb78bc28ca5371b5bf08b89db5fc52", "lat": 38.8859815, "lon": -77.0040185, "rental_uris": {"android": "https://dc.lft.to/lastmile_qr_scan", "ios": "https://dc.lft.to/lastmile_qr_scan"}, "is_disabled": 0, "fusion_lat": 0.0, "name": "fcfb78bc28ca5371b5bf08b89db5fc52", "fusion_lon": 0.0}, {"is_reserved": 0, "type": "electric_scooter", "bike_id": "52a265bc06c5cbc6867ac2bce92ebae8", "lat": 38.941813333333336, "lon": -77.0248805, "rental_uris": {"android": "https://dc.lft.to/lastmile_qr_scan", "ios": "https://dc.lft.to/lastmile_qr_scan"}, "is_disabled": 0, "fusion_lat": 0.0, "name": "52a265bc06c5cbc6867ac2bce92ebae8", "fusion_lon": 0.0}, {"is_reserved": 0, "type": "electric_scooter", "bike_id": "c8ae7606b21bd3df21bfc8536f247191", "lat": 38.92700083333333, "lon": -77.02412866666667, "rental_uris": {"android": "https://dc.lft.to/lastmile_qr_scan", "ios": "https://dc.lft.to/lastmile_qr_scan"}, "is_disabled": 0, "fusion_lat": 0.0, "name": "c8ae7606b21bd3df21bfc8536f247191", "fusion_lon": 0.0}, {"is_reserved": 0, "type": "electric_scooter", "bike_id": "677cbaf751f4dce97bcf8e82f253836d", "lat": 38.89735483333333, "lon": -77.026775, "rental_uris": {"android": "https://dc.lft.to/lastmile_qr_scan", "ios": "https://dc.lft.to/lastmile_qr_scan"}, "is_disabled": 0, "fusion_lat": 0.0, "name": "677cbaf751f4dce97bcf8e82f253836d", "fusion_lon": 0.0}, {"is_reserved": 0, "type": "electric_scooter", "bike_id": "4a5b151e9108b6f4525f87ee1b446aa7", "lat": 38.914072166666664, "lon": -77.02832983333333, "rental_uris": {"android": "https://dc.lft.to/lastmile_qr_scan", "ios": "https://dc.lft.to/lastmile_qr_scan"}, "is_disabled": 0, "fusion_lat": 0.0, "name": "4a5b151e9108b6f4525f87ee1b446aa7", "fusion_lon": 0.0}, {"is_reserved": 0, "type": "electric_scooter", "bike_id": "354acc9c2b8b535597fad7d48ddb5335", "lat": 38.90829866666667, "lon": -76.98713066666667, "rental_uris": {"android": "https://dc.lft.to/lastmile_qr_scan", "ios": "https://dc.lft.to/lastmile_qr_scan"}, "is_disabled": 0, "fusion_lat": 0.0, "name": "354acc9c2b8b535597fad7d48ddb5335", "fusion_lon": 0.0}, {"is_reserved": 0, "type": "electric_bike", "bike_id": "ec2e45279d9167c24a91b3efc4836399", "lat": 38.843293333333335, "lon": -76.997454, "rental_uris": {"android": "https://dc.lft.to/lastmile_qr_scan", "ios": "https://dc.lft.to/lastmile_qr_scan"}, "is_disabled": 0, "fusion_lat": 0.0, "name": "ec2e45279d9167c24a91b3efc4836399", "fusion_lon": 0.0}, {"is_reserved": 0, "type": "electric_scooter", "bike_id": "e6aa3b9289de2bb1201f0b40ed9e444c", "lat": 38.91810483333333, "lon": -77.024434, "rental_uris": {"android": "https://dc.lft.to/lastmile_qr_scan", "ios": "https://dc.lft.to/lastmile_qr_scan"}, "is_disabled": 0, "fusion_lat": 0.0, "name": "e6aa3b9289de2bb1201f0b40ed9e444c", "fusion_lon": 0.0}, {"is_reserved": 0, "type": "electric_scooter", "bike_id": "d5c61757d098e8838987d01df02f766e", "lat": 38.9129515, "lon": -76.98471583333334, "rental_uris": {"android": "https://dc.lft.to/lastmile_qr_scan", "ios": "https://dc.lft.to/lastmile_qr_scan"}, "is_disabled": 0, "fusion_lat": 0.0, "name": "d5c61757d098e8838987d01df02f766e", "fusion_lon": 0.0}, {"is_reserved": 0, "type": "electric_bike", "bike_id": "aedf9c506b5e5ee9e9d2d5e8a6fdc05a", "lat": 38.9910295, "lon": -76.88153066666666, "rental_uris": {"android": "https://dc.lft.to/lastmile_qr_scan", "ios": "https://dc.lft.to/lastmile_qr_scan"}, "is_disabled": 0, "fusion_lat": 0.0, "name": "aedf9c506b5e5ee9e9d2d5e8a6fdc05a", "fusion_lon": 0.0}, {"is_reserved": 0, "type": "electric_bike", "bike_id": "968a02611326bc594d725b46e66e9dd6", "lat": 38.9054185, "lon": -77.04168583333333, "rental_uris": {"android": "https://dc.lft.to/lastmile_qr_scan", "ios": "https://dc.lft.to/lastmile_qr_scan"}, "is_disabled": 0, "fusion_lat": 0.0, "name": "968a02611326bc594d725b46e66e9dd6", "fusion_lon": 0.0}, {"is_reserved": 0, "type": "electric_bike", "bike_id": "47630ccf19755f30224ed9490dcf7b26", "lat": 38.845338, "lon": -77.07639216666666, "rental_uris": {"android": "https://dc.lft.to/lastmile_qr_scan", "ios": "https://dc.lft.to/lastmile_qr_scan"}, "is_disabled": 0, "fusion_lat": 0.0, "name": "47630ccf19755f30224ed9490dcf7b26", "fusion_lon": 0.0}, {"is_reserved": 0, "type": "electric_scooter", "bike_id": "0fec098b6cc523234195f4fcf0fe033c", "lat": 38.926898, "lon": -77.0258625, "rental_uris": {"android": "https://dc.lft.to/lastmile_qr_scan", "ios": "https://dc.lft.to/lastmile_qr_scan"}, "is_disabled": 0, "fusion_lat": 0.0, "name": "0fec098b6cc523234195f4fcf0fe033c", "fusion_lon": 0.0}, {"is_reserved": 0, "type": "electric_scooter", "bike_id": "da15961061cbbf77d316a594c76d6c4a", "lat": 38.920586666666665, "lon": -77.02376816666667, "rental_uris": {"android": "https://dc.lft.to/lastmile_qr_scan", "ios": "https://dc.lft.to/lastmile_qr_scan"}, "is_disabled": 0, "fusion_lat": 0.0, "name": "da15961061cbbf77d316a594c76d6c4a", "fusion_lon": 0.0}, {"is_reserved": 0, "type": "electric_bike", "bike_id": "627b503a4e0bed32b346818a30c76d7b", "lat": 38.9415645, "lon": -77.00196166666667, "rental_uris": {"android": "https://dc.lft.to/lastmile_qr_scan", "ios": "https://dc.lft.to/lastmile_qr_scan"}, "is_disabled": 0, "fusion_lat": 0.0, "name": "627b503a4e0bed32b346818a30c76d7b", "fusion_lon": 0.0}, {"is_reserved": 0, "type": "electric_scooter", "bike_id": "0def03474a0c9c92468d01a84d1b56f2", "lat": 38.90063466666667, "lon": -77.048715, "rental_uris": {"android": "https://dc.lft.to/lastmile_qr_scan", "ios": "https://dc.lft.to/lastmile_qr_scan"}, "is_disabled": 0, "fusion_lat": 0.0, "name": "0def03474a0c9c92468d01a84d1b56f2", "fusion_lon": 0.0}, {"is_reserved": 0, "type": "electric_scooter", "bike_id": "829bad24442f1f8cd11b3f97d3f8a2e1", "lat": 38.92333133333333, "lon": -77.03655833333333, "rental_uris": {"android": "https://dc.lft.to/lastmile_qr_scan", "ios": "https://dc.lft.to/lastmile_qr_scan"}, "is_disabled": 0, "fusion_lat": 0.0, "name": "829bad24442f1f8cd11b3f97d3f8a2e1", "fusion_lon": 0.0}, {"is_reserved": 0, "type": "electric_scooter", "bike_id": "4baada4e418614566027b9d1de69b0c9", "lat": 38.9260045, "lon": -77.02489133333333, "rental_uris": {"android": "https://dc.lft.to/lastmile_qr_scan", "ios": "https://dc.lft.to/lastmile_qr_scan"}, "is_disabled": 0, "fusion_lat": 0.0, "name": "4baada4e418614566027b9d1de69b0c9", "fusion_lon": 0.0}, {"is_reserved": 0, "type": "electric_scooter", "bike_id": "e8b698991a26489011c113255788bf4b", "lat": 38.8996745, "lon": -76.99031433333333, "rental_uris": {"android": "https://dc.lft.to/lastmile_qr_scan", "ios": "https://dc.lft.to/lastmile_qr_scan"}, "is_disabled": 0, "fusion_lat": 0.0, "name": "e8b698991a26489011c113255788bf4b", "fusion_lon": 0.0}, {"is_reserved": 0, "type": "electric_scooter", "bike_id": "a71c13acca0e7bd0789013fdd943d036", "lat": 38.9095765, "lon": -77.0439965, "rental_uris": {"android": "https://dc.lft.to/lastmile_qr_scan", "ios": "https://dc.lft.to/lastmile_qr_scan"}, "is_disabled": 0, "fusion_lat": 0.0, "name": "a71c13acca0e7bd0789013fdd943d036", "fusion_lon": 0.0}, {"is_reserved": 0, "type": "electric_scooter", "bike_id": "0316513a4e9eb1fb754e0dfdb766dd3e", "lat": 38.93893666666666, "lon": -77.032663, "rental_uris": {"android": "https://dc.lft.to/lastmile_qr_scan", "ios": "https://dc.lft.to/lastmile_qr_scan"}, "is_disabled": 0, "fusion_lat": 0.0, "name": "0316513a4e9eb1fb754e0dfdb766dd3e", "fusion_lon": 0.0}, {"is_reserved": 0, "type": "electric_scooter", "bike_id": "e42c67626b624e098aa36ef3ceba937b", "lat": 38.91759066666667, "lon": -77.01499516666667, "rental_uris": {"android": "https://dc.lft.to/lastmile_qr_scan", "ios": "https://dc.lft.to/lastmile_qr_scan"}, "is_disabled": 0, "fusion_lat": 0.0, "name": "e42c67626b624e098aa36ef3ceba937b", "fusion_lon": 0.0}, {"is_reserved": 0, "type": "electric_scooter", "bike_id": "5f68315309445bcec1a95fc71b43dff6", "lat": 38.914133166666666, "lon": -77.04041083333334, "rental_uris": {"android": "https://dc.lft.to/lastmile_qr_scan", "ios": "https://dc.lft.to/lastmile_qr_scan"}, "is_disabled": 0, "fusion_lat": 0.0, "name": "5f68315309445bcec1a95fc71b43dff6", "fusion_lon": 0.0}, {"is_reserved": 0, "type": "electric_scooter", "bike_id": "d923d0b9835bf6764c32452329ef3401", "lat": 38.94659083333333, "lon": -77.03283466666667, "rental_uris": {"android": "https://dc.lft.to/lastmile_qr_scan", "ios": "https://dc.lft.to/lastmile_qr_scan"}, "is_disabled": 0, "fusion_lat": 0.0, "name": "d923d0b9835bf6764c32452329ef3401", "fusion_lon": 0.0}, {"is_reserved": 0, "type": "electric_scooter", "bike_id": "f6bb581c5742e8cd74209f3234e4ed0b", "lat": 38.852243, "lon": -76.994236, "rental_uris": {"android": "https://dc.lft.to/lastmile_qr_scan", "ios": "https://dc.lft.to/lastmile_qr_scan"}, "is_disabled": 0, "fusion_lat": 0.0, "name": "f6bb581c5742e8cd74209f3234e4ed0b", "fusion_lon": 0.0}, {"is_reserved": 0, "type": "electric_scooter", "bike_id": "b79a977ac242952f46f114f742476763", "lat": 38.90284716666667, "lon": -77.00210666666666, "rental_uris": {"android": "https://dc.lft.to/lastmile_qr_scan", "ios": "https://dc.lft.to/lastmile_qr_scan"}, "is_disabled": 0, "fusion_lat": 0.0, "name": "b79a977ac242952f46f114f742476763", "fusion_lon": 0.0}, {"is_reserved": 0, "type": "electric_scooter", "bike_id": "6e50c8d0ceee71f1c3830e7bb9c81967", "lat": 38.906123, "lon": -77.00923183333333, "rental_uris": {"android": "https://dc.lft.to/lastmile_qr_scan", "ios": "https://dc.lft.to/lastmile_qr_scan"}, "is_disabled": 0, "fusion_lat": 0.0, "name": "6e50c8d0ceee71f1c3830e7bb9c81967", "fusion_lon": 0.0}, {"is_reserved": 0, "type": "electric_scooter", "bike_id": "910dc53f3f276f115669805ac5c09f51", "lat": 38.8842065, "lon": -77.00002733333334, "rental_uris": {"android": "https://dc.lft.to/lastmile_qr_scan", "ios": "https://dc.lft.to/lastmile_qr_scan"}, "is_disabled": 0, "fusion_lat": 0.0, "name": "910dc53f3f276f115669805ac5c09f51", "fusion_lon": 0.0}, {"is_reserved": 0, "type": "electric_scooter", "bike_id": "8184c108d3f9ca8a7e4b713d07aa0c7b", "lat": 38.90845733333333, "lon": -77.06342433333333, "rental_uris": {"android": "https://dc.lft.to/lastmile_qr_scan", "ios": "https://dc.lft.to/lastmile_qr_scan"}, "is_disabled": 0, "fusion_lat": 0.0, "name": "8184c108d3f9ca8a7e4b713d07aa0c7b", "fusion_lon": 0.0}, {"is_reserved": 0, "type": "electric_scooter", "bike_id": "6219cd4531f77c657fcbf951daab0a4d", "lat": 38.90040066666667, "lon": -76.99159933333334, "rental_uris": {"android": "https://dc.lft.to/lastmile_qr_scan", "ios": "https://dc.lft.to/lastmile_qr_scan"}, "is_disabled": 0, "fusion_lat": 0.0, "name": "6219cd4531f77c657fcbf951daab0a4d", "fusion_lon": 0.0}, {"is_reserved": 0, "type": "electric_scooter", "bike_id": "0a30145311b163af1539894ad1ef81ff", "lat": 38.899099, "lon": -76.9336295, "rental_uris": {"android": "https://dc.lft.to/lastmile_qr_scan", "ios": "https://dc.lft.to/lastmile_qr_scan"}, "is_disabled": 0, "fusion_lat": 0.0, "name": "0a30145311b163af1539894ad1ef81ff", "fusion_lon": 0.0}, {"is_reserved": 0, "type": "electric_bike", "bike_id": "588846f73cbe4a8be31a9dea29cc3369", "lat": 38.9585145, "lon": -76.9860775, "rental_uris": {"android": "https://dc.lft.to/lastmile_qr_scan", "ios": "https://dc.lft.to/lastmile_qr_scan"}, "is_disabled": 0, "fusion_lat": 0.0, "name": "588846f73cbe4a8be31a9dea29cc3369", "fusion_lon": 0.0}, {"is_reserved": 0, "type": "electric_scooter", "bike_id": "7a12fd5bda61efd8ae4f731b766af6c6", "lat": 38.91138266666667, "lon": -77.02407616666666, "rental_uris": {"android": "https://dc.lft.to/lastmile_qr_scan", "ios": "https://dc.lft.to/lastmile_qr_scan"}, "is_disabled": 0, "fusion_lat": 0.0, "name": "7a12fd5bda61efd8ae4f731b766af6c6", "fusion_lon": 0.0}, {"is_reserved": 0, "type": "electric_scooter", "bike_id": "69bb87e42af09e044e994bc95a0c1497", "lat": 38.88757783333333, "lon": -76.996144, "rental_uris": {"android": "https://dc.lft.to/lastmile_qr_scan", "ios": "https://dc.lft.to/lastmile_qr_scan"}, "is_disabled": 0, "fusion_lat": 0.0, "name": "69bb87e42af09e044e994bc95a0c1497", "fusion_lon": 0.0}, {"is_reserved": 0, "type": "electric_scooter", "bike_id": "deb7bf4486993b7a3b389bfe80d0cb82", "lat": 38.94180083333333, "lon": -77.025661, "rental_uris": {"android": "https://dc.lft.to/lastmile_qr_scan", "ios": "https://dc.lft.to/lastmile_qr_scan"}, "is_disabled": 0, "fusion_lat": 0.0, "name": "deb7bf4486993b7a3b389bfe80d0cb82", "fusion_lon": 0.0}, {"is_reserved": 0, "type": "electric_scooter", "bike_id": "d9411456132c37c74ea65d9fec0cae90", "lat": 38.924281, "lon": -77.01938416666667, "rental_uris": {"android": "https://dc.lft.to/lastmile_qr_scan", "ios": "https://dc.lft.to/lastmile_qr_scan"}, "is_disabled": 0, "fusion_lat": 0.0, "name": "d9411456132c37c74ea65d9fec0cae90", "fusion_lon": 0.0}, {"is_reserved": 0, "type": "electric_bike", "bike_id": "485063dba07db1fb8181d314de9d8c6a", "lat": 38.92113716666667, "lon": -76.98878116666667, "rental_uris": {"android": "https://dc.lft.to/lastmile_qr_scan", "ios": "https://dc.lft.to/lastmile_qr_scan"}, "is_disabled": 0, "fusion_lat": 0.0, "name": "485063dba07db1fb8181d314de9d8c6a", "fusion_lon": 0.0}, {"is_reserved": 0, "type": "electric_scooter", "bike_id": "bda3de0aea03bc3d268848dd1bd504fc", "lat": 38.897074333333336, "lon": -77.02707233333334, "rental_uris": {"android": "https://dc.lft.to/lastmile_qr_scan", "ios": "https://dc.lft.to/lastmile_qr_scan"}, "is_disabled": 0, "fusion_lat": 0.0, "name": "bda3de0aea03bc3d268848dd1bd504fc", "fusion_lon": 0.0}, {"is_reserved": 0, "type": "electric_scooter", "bike_id": "575b6e5a24169907372b1a3a2ea8cdf7", "lat": 38.907574833333335, "lon": -77.00765966666667, "rental_uris": {"android": "https://dc.lft.to/lastmile_qr_scan", "ios": "https://dc.lft.to/lastmile_qr_scan"}, "is_disabled": 0, "fusion_lat": 0.0, "name": "575b6e5a24169907372b1a3a2ea8cdf7", "fusion_lon": 0.0}, {"is_reserved": 0, "type": "electric_scooter", "bike_id": "f79731d6fb1e69d0b3fb87c833dcaa10", "lat": 38.91480766666667, "lon": -76.98413916666667, "rental_uris": {"android": "https://dc.lft.to/lastmile_qr_scan", "ios": "https://dc.lft.to/lastmile_qr_scan"}, "is_disabled": 0, "fusion_lat": 0.0, "name": "f79731d6fb1e69d0b3fb87c833dcaa10", "fusion_lon": 0.0}, {"is_reserved": 0, "type": "electric_scooter", "bike_id": "3efff8cfc59344ac233d4b5a84e6b142", "lat": 38.92435833333333, "lon": -77.02035, "rental_uris": {"android": "https://dc.lft.to/lastmile_qr_scan", "ios": "https://dc.lft.to/lastmile_qr_scan"}, "is_disabled": 0, "fusion_lat": 0.0, "name": "3efff8cfc59344ac233d4b5a84e6b142", "fusion_lon": 0.0}, {"is_reserved": 0, "type": "electric_bike", "bike_id": "281f61aa59b4a0ddc0e64a90e93cafaf", "lat": 38.83298333333333, "lon": -77.0841035, "rental_uris": {"android": "https://dc.lft.to/lastmile_qr_scan", "ios": "https://dc.lft.to/lastmile_qr_scan"}, "is_disabled": 0, "fusion_lat": 0.0, "name": "281f61aa59b4a0ddc0e64a90e93cafaf", "fusion_lon": 0.0}, {"is_reserved": 0, "type": "electric_scooter", "bike_id": "206d59b211592e8a66e56e4dd5f5993b", "lat": 38.8661675, "lon": -76.982051, "rental_uris": {"android": "https://dc.lft.to/lastmile_qr_scan", "ios": "https://dc.lft.to/lastmile_qr_scan"}, "is_disabled": 0, "fusion_lat": 0.0, "name": "206d59b211592e8a66e56e4dd5f5993b", "fusion_lon": 0.0}, {"is_reserved": 0, "type": "electric_scooter", "bike_id": "dad2c3ef152926259821d486b27ea4f1", "lat": 38.884358166666665, "lon": -76.95767683333334, "rental_uris": {"android": "https://dc.lft.to/lastmile_qr_scan", "ios": "https://dc.lft.to/lastmile_qr_scan"}, "is_disabled": 0, "fusion_lat": 0.0, "name": "dad2c3ef152926259821d486b27ea4f1", "fusion_lon": 0.0}, {"is_reserved": 0, "type": "electric_scooter", "bike_id": "a4a89c9584edc0605c6b6c8f1f7abff9", "lat": 38.91564266666666, "lon": -77.03089683333333, "rental_uris": {"android": "https://dc.lft.to/lastmile_qr_scan", "ios": "https://dc.lft.to/lastmile_qr_scan"}, "is_disabled": 0, "fusion_lat": 0.0, "name": "a4a89c9584edc0605c6b6c8f1f7abff9", "fusion_lon": 0.0}, {"is_reserved": 0, "type": "electric_scooter", "bike_id": "72fd0814367a6efc524b260584d0ef30", "lat": 38.9352615, "lon": -77.01936983333333, "rental_uris": {"android": "https://dc.lft.to/lastmile_qr_scan", "ios": "https://dc.lft.to/lastmile_qr_scan"}, "is_disabled": 0, "fusion_lat": 0.0, "name": "72fd0814367a6efc524b260584d0ef30", "fusion_lon": 0.0}, {"is_reserved": 0, "type": "electric_scooter", "bike_id": "c0affce1c20696d41955f41fbc5e41b2", "lat": 38.92835433333333, "lon": -77.0060365, "rental_uris": {"android": "https://dc.lft.to/lastmile_qr_scan", "ios": "https://dc.lft.to/lastmile_qr_scan"}, "is_disabled": 0, "fusion_lat": 0.0, "name": "c0affce1c20696d41955f41fbc5e41b2", "fusion_lon": 0.0}, {"is_reserved": 0, "type": "electric_scooter", "bike_id": "62babc88b753078d752b0bdbb0679f79", "lat": 38.897491, "lon": -77.00772966666666, "rental_uris": {"android": "https://dc.lft.to/lastmile_qr_scan", "ios": "https://dc.lft.to/lastmile_qr_scan"}, "is_disabled": 0, "fusion_lat": 0.0, "name": "62babc88b753078d752b0bdbb0679f79", "fusion_lon": 0.0}, {"is_reserved": 0, "type": "electric_scooter", "bike_id": "9c68e3d75c8a89a02e31968e978afd65", "lat": 38.931200833333335, "lon": -77.0209935, "rental_uris": {"android": "https://dc.lft.to/lastmile_qr_scan", "ios": "https://dc.lft.to/lastmile_qr_scan"}, "is_disabled": 0, "fusion_lat": 0.0, "name": "9c68e3d75c8a89a02e31968e978afd65", "fusion_lon": 0.0}, {"is_reserved": 0, "type": "electric_scooter", "bike_id": "25615a6a9a1031d26e37b2e0d6561549", "lat": 38.926027500000004, "lon": -77.021549, "rental_uris": {"android": "https://dc.lft.to/lastmile_qr_scan", "ios": "https://dc.lft.to/lastmile_qr_scan"}, "is_disabled": 0, "fusion_lat": 0.0, "name": "25615a6a9a1031d26e37b2e0d6561549", "fusion_lon": 0.0}, {"is_reserved": 0, "type": "electric_scooter", "bike_id": "d80237fffa987ea8ea36ca1149c4f563", "lat": 38.88608116666666, "lon": -76.9881795, "rental_uris": {"android": "https://dc.lft.to/lastmile_qr_scan", "ios": "https://dc.lft.to/lastmile_qr_scan"}, "is_disabled": 0, "fusion_lat": 0.0, "name": "d80237fffa987ea8ea36ca1149c4f563", "fusion_lon": 0.0}, {"is_reserved": 0, "type": "electric_scooter", "bike_id": "78193894fd14e63a3ce94f8d66203649", "lat": 38.91693133333333, "lon": -77.0293035, "rental_uris": {"android": "https://dc.lft.to/lastmile_qr_scan", "ios": "https://dc.lft.to/lastmile_qr_scan"}, "is_disabled": 0, "fusion_lat": 0.0, "name": "78193894fd14e63a3ce94f8d66203649", "fusion_lon": 0.0}, {"is_reserved": 0, "type": "electric_scooter", "bike_id": "2bf11340c472ef537352c118ad4aaaad", "lat": 38.905018166666665, "lon": -77.03240066666666, "rental_uris": {"android": "https://dc.lft.to/lastmile_qr_scan", "ios": "https://dc.lft.to/lastmile_qr_scan"}, "is_disabled": 0, "fusion_lat": 0.0, "name": "2bf11340c472ef537352c118ad4aaaad", "fusion_lon": 0.0}, {"is_reserved": 0, "type": "electric_scooter", "bike_id": "4abe43fdc2ad8c4d003bbaa4d3025b87", "lat": 38.90945716666667, "lon": -77.036621, "rental_uris": {"android": "https://dc.lft.to/lastmile_qr_scan", "ios": "https://dc.lft.to/lastmile_qr_scan"}, "is_disabled": 0, "fusion_lat": 0.0, "name": "4abe43fdc2ad8c4d003bbaa4d3025b87", "fusion_lon": 0.0}, {"is_reserved": 0, "type": "electric_bike", "bike_id": "692a4899b08452780ef7fd6135caad18", "lat": 38.95954533333333, "lon": -77.01982566666666, "rental_uris": {"android": "https://dc.lft.to/lastmile_qr_scan", "ios": "https://dc.lft.to/lastmile_qr_scan"}, "is_disabled": 0, "fusion_lat": 0.0, "name": "692a4899b08452780ef7fd6135caad18", "fusion_lon": 0.0}, {"is_reserved": 0, "type": "electric_scooter", "bike_id": "c17dc1b16114bd0580ab1af869b8f255", "lat": 38.928881, "lon": -77.025849, "rental_uris": {"android": "https://dc.lft.to/lastmile_qr_scan", "ios": "https://dc.lft.to/lastmile_qr_scan"}, "is_disabled": 0, "fusion_lat": 0.0, "name": "c17dc1b16114bd0580ab1af869b8f255", "fusion_lon": 0.0}, {"is_reserved": 0, "type": "electric_scooter", "bike_id": "84fe6ca0e036fdf26cbf2d0791813294", "lat": 38.89609133333333, "lon": -77.04686283333334, "rental_uris": {"android": "https://dc.lft.to/lastmile_qr_scan", "ios": "https://dc.lft.to/lastmile_qr_scan"}, "is_disabled": 0, "fusion_lat": 0.0, "name": "84fe6ca0e036fdf26cbf2d0791813294", "fusion_lon": 0.0}, {"is_reserved": 0, "type": "electric_scooter", "bike_id": "a3dba28fcf6553e4272dd6ef98f82de1", "lat": 38.960289833333334, "lon": -77.02428566666667, "rental_uris": {"android": "https://dc.lft.to/lastmile_qr_scan", "ios": "https://dc.lft.to/lastmile_qr_scan"}, "is_disabled": 0, "fusion_lat": 0.0, "name": "a3dba28fcf6553e4272dd6ef98f82de1", "fusion_lon": 0.0}, {"is_reserved": 0, "type": "electric_scooter", "bike_id": "b06df35694392ecf11ad64d7679b7749", "lat": 38.89728216666666, "lon": -76.9469825, "rental_uris": {"android": "https://dc.lft.to/lastmile_qr_scan", "ios": "https://dc.lft.to/lastmile_qr_scan"}, "is_disabled": 0, "fusion_lat": 0.0, "name": "b06df35694392ecf11ad64d7679b7749", "fusion_lon": 0.0}, {"is_reserved": 0, "type": "electric_scooter", "bike_id": "9be59fb2964eda3d0ef2b8b49ba4476c", "lat": 38.91421416666667, "lon": -77.041507, "rental_uris": {"android": "https://dc.lft.to/lastmile_qr_scan", "ios": "https://dc.lft.to/lastmile_qr_scan"}, "is_disabled": 0, "fusion_lat": 0.0, "name": "9be59fb2964eda3d0ef2b8b49ba4476c", "fusion_lon": 0.0}, {"is_reserved": 0, "type": "electric_scooter", "bike_id": "ca56524a889e6585b6aa4faddcc43338", "lat": 38.896029, "lon": -77.0259125, "rental_uris": {"android": "https://dc.lft.to/lastmile_qr_scan", "ios": "https://dc.lft.to/lastmile_qr_scan"}, "is_disabled": 0, "fusion_lat": 0.0, "name": "ca56524a889e6585b6aa4faddcc43338", "fusion_lon": 0.0}, {"is_reserved": 0, "type": "electric_bike", "bike_id": "d6274df1e0992fd8c0012adfb19a1623", "lat": 38.90724083333333, "lon": -77.00028566666667, "rental_uris": {"android": "https://dc.lft.to/lastmile_qr_scan", "ios": "https://dc.lft.to/lastmile_qr_scan"}, "is_disabled": 0, "fusion_lat": 0.0, "name": "d6274df1e0992fd8c0012adfb19a1623", "fusion_lon": 0.0}, {"is_reserved": 0, "type": "electric_scooter", "bike_id": "ae02adafef7b5d596b52d5c6eef49079", "lat": 38.9201875, "lon": -77.02951466666667, "rental_uris": {"android": "https://dc.lft.to/lastmile_qr_scan", "ios": "https://dc.lft.to/lastmile_qr_scan"}, "is_disabled": 0, "fusion_lat": 0.0, "name": "ae02adafef7b5d596b52d5c6eef49079", "fusion_lon": 0.0}, {"is_reserved": 0, "type": "electric_scooter", "bike_id": "8e70096c13bae2460489c734adabfbae", "lat": 38.92419916666667, "lon": -77.02004683333334, "rental_uris": {"android": "https://dc.lft.to/lastmile_qr_scan", "ios": "https://dc.lft.to/lastmile_qr_scan"}, "is_disabled": 0, "fusion_lat": 0.0, "name": "8e70096c13bae2460489c734adabfbae", "fusion_lon": 0.0}, {"is_reserved": 0, "type": "electric_scooter", "bike_id": "a18b81a14740b5407ff623d07fb8c6bf", "lat": 38.91097933333333, "lon": -77.0506325, "rental_uris": {"android": "https://dc.lft.to/lastmile_qr_scan", "ios": "https://dc.lft.to/lastmile_qr_scan"}, "is_disabled": 0, "fusion_lat": 0.0, "name": "a18b81a14740b5407ff623d07fb8c6bf", "fusion_lon": 0.0}, {"is_reserved": 0, "type": "electric_scooter", "bike_id": "6a1ddc947ffe6c578a7c26848aa2d80e", "lat": 38.92770933333333, "lon": -77.02759383333333, "rental_uris": {"android": "https://dc.lft.to/lastmile_qr_scan", "ios": "https://dc.lft.to/lastmile_qr_scan"}, "is_disabled": 0, "fusion_lat": 0.0, "name": "6a1ddc947ffe6c578a7c26848aa2d80e", "fusion_lon": 0.0}, {"is_reserved": 0, "type": "electric_scooter", "bike_id": "4d2245370c129a3408e8ea466d9db39b", "lat": 38.90550283333334, "lon": -77.04156216666667, "rental_uris": {"android": "https://dc.lft.to/lastmile_qr_scan", "ios": "https://dc.lft.to/lastmile_qr_scan"}, "is_disabled": 0, "fusion_lat": 0.0, "name": "4d2245370c129a3408e8ea466d9db39b", "fusion_lon": 0.0}, {"is_reserved": 0, "type": "electric_scooter", "bike_id": "6883815de138155957e262faf31dda0c", "lat": 38.90204283333333, "lon": -77.02165166666667, "rental_uris": {"android": "https://dc.lft.to/lastmile_qr_scan", "ios": "https://dc.lft.to/lastmile_qr_scan"}, "is_disabled": 0, "fusion_lat": 0.0, "name": "6883815de138155957e262faf31dda0c", "fusion_lon": 0.0}, {"is_reserved": 0, "type": "electric_scooter", "bike_id": "d3d2c71cb8e5bd5f6959f0c8b9800496", "lat": 38.92259966666667, "lon": -77.04301883333333, "rental_uris": {"android": "https://dc.lft.to/lastmile_qr_scan", "ios": "https://dc.lft.to/lastmile_qr_scan"}, "is_disabled": 0, "fusion_lat": 0.0, "name": "d3d2c71cb8e5bd5f6959f0c8b9800496", "fusion_lon": 0.0}, {"is_reserved": 0, "type": "electric_scooter", "bike_id": "6184d972d35fab6df9aefc0fda7ace99", "lat": 38.896507, "lon": -77.0261785, "rental_uris": {"android": "https://dc.lft.to/lastmile_qr_scan", "ios": "https://dc.lft.to/lastmile_qr_scan"}, "is_disabled": 0, "fusion_lat": 0.0, "name": "6184d972d35fab6df9aefc0fda7ace99", "fusion_lon": 0.0}, {"is_reserved": 0, "type": "electric_scooter", "bike_id": "803f95d07b31fd647c929c2f6cf583cd", "lat": 38.898449166666666, "lon": -77.0278605, "rental_uris": {"android": "https://dc.lft.to/lastmile_qr_scan", "ios": "https://dc.lft.to/lastmile_qr_scan"}, "is_disabled": 0, "fusion_lat": 0.0, "name": "803f95d07b31fd647c929c2f6cf583cd", "fusion_lon": 0.0},