{"data": {"bikes": [{"is_disabled": 0, "rental_uris": {"android": "https://dc.lft.to/lastmile_qr_scan", "ios": "https://dc.lft.to/lastmile_qr_scan"}, "is_reserved": 0, "name": "d9aab8c0b74952fd1d800c0d55096407", "lon": -77.02959666666666, "type": "electric_scooter", "bike_id": "d9aab8c0b74952fd1d800c0d55096407", "fusion_lon": 0.0, "lat": 38.92146066666667, "fusion_lat": 0.0}, {"is_disabled": 0, "rental_uris": {"android": "https://dc.lft.to/lastmile_qr_scan", "ios": "https://dc.lft.to/lastmile_qr_scan"}, "is_reserved": 0, "name": "221a0b4f50a81fd407c2b02b0b4f087e", "lon": -76.92671783333333, "type": "electric_scooter", "bike_id": "221a0b4f50a81fd407c2b02b0b4f087e", "fusion_lon": 0.0, "lat": 38.88525816666667, "fusion_lat": 0.0}, {"is_disabled": 0, "rental_uris": {"android": "https://dc.lft.to/lastmile_qr_scan", "ios": "https://dc.lft.to/lastmile_qr_scan"}, "is_reserved": 0, "name": "9c52394ca410041d141b0119cfb4b716", "lon": -77.02494816666666, "type": "electric_scooter", "bike_id": "9c52394ca410041d141b0119cfb4b716", "fusion_lon": 0.0, "lat": 38.91807466666667, "fusion_lat": 0.0}, {"is_disabled": 0, "rental_uris": {"android": "https://dc.lft.to/lastmile_qr_scan", "ios": "https://dc.lft.to/lastmile_qr_scan"}, "is_reserved": 0, "name": "aa2801446b9f01b20b51a3091055e4cb", "lon": -77.02662716666667, "type": "electric_scooter", "bike_id": "aa2801446b9f01b20b51a3091055e4cb", "fusion_lon": 0.0, "lat": 38.921797, "fusion_lat": 0.0}, {"is_disabled": 0, "rental_uris": {"android": "https://dc.lft.to/lastmile_qr_scan", "ios": "https://dc.lft.to/lastmile_qr_scan"}, "is_reserved": 0, "name": "1021624820a152757a610552b1e8d112", "lon": -77.03809916666667, "type": "electric_scooter", "bike_id": "1021624820a152757a610552b1e8d112", "fusion_lon": 0.0, "lat": 38.93228283333333, "fusion_lat": 0.0}, {"is_disabled": 0, "rental_uris": {"android": "https://dc.lft.to/lastmile_qr_scan", "ios": "https://dc.lft.to/lastmile_qr_scan"}, "is_reserved": 0, "name": "9c6e461c2bae32eabafad5524c998aa5", "lon": -76.985886, "type": "electric_scooter", "bike_id": "9c6e461c2bae32eabafad5524c998aa5", "fusion_lon": 0.0, "lat": 38.860582, "fusion_lat": 0.0}, {"is_disabled": 0, "rental_uris": {"android": "https://dc.lft.to/lastmile_qr_scan", "ios": "https://dc.lft.to/lastmile_qr_scan"}, "is_reserved": 0, "name": "2fadb05f3b4424d0ad0f54fc25efc522", "lon": -77.04617166666667, "type": "electric_scooter", "bike_id": "2fadb05f3b4424d0ad0f54fc25efc522", "fusion_lon": 0.0, "lat": 38.923183, "fusion_lat": 0.0}, {"is_disabled": 0, "rental_uris": {"android": "https://dc.lft.to/lastmile_qr_scan", "ios": "https://dc.lft.to/lastmile_qr_scan"}, "is_reserved": 0, "name": "f8596936414d9b68643324d26af2377a", "lon": -77.03853833333334, "type": "electric_scooter", "bike_id": "f8596936414d9b68643324d26af2377a", "fusion_lon": 0.0, "lat": 38.90393433333333, "fusion_lat": 0.0}, {"is_disabled": 0, "rental_uris": {"android": "https://dc.lft.to/lastmile_qr_scan", "ios": "https://dc.lft.to/lastmile_qr_scan"}, "is_reserved": 0, "name": "1ec230c43956f27f734435c3ad810f02", "lon": -77.039434, "type": "electric_scooter", "bike_id": "1ec230c43956f27f734435c3ad810f02", "fusion_lon": 0.0, "lat": 38.91572583333333, "fusion_lat": 0.0}, {"is_disabled": 0, "rental_uris": {"android": "https://dc.lft.to/lastmile_qr_scan", "ios": "https://dc.lft.to/lastmile_qr_scan"}, "is_reserved": 0, "name": "f86317d2b088014ece43c930f595c17e", "lon": -77.04211683333334, "type": "electric_scooter", "bike_id": "f86317d2b088014ece43c930f595c17e", "fusion_lon": 0.0, "lat": 38.91704516666667, "fusion_lat": 0.0}, {"is_disabled": 0, "rental_uris": {"android": "https://dc.lft.to/lastmile_qr_scan", "ios": "https://dc.lft.to/lastmile_qr_scan"}, "is_reserved": 0, "name": "f75121293e860d62da8aa0a9962e1e78", "lon": -77.03191666666666, "type": "electric_scooter", "bike_id": "f75121293e860d62da8aa0a9962e1e78", "fusion_lon": 0.0, "lat": 38.92290533333333, "fusion_lat": 0.0}, {"is_disabled": 0, "rental_uris": {"android": "https://dc.lft.to/lastmile_qr_scan", "ios": "https://dc.lft.to/lastmile_qr_scan"}, "is_reserved": 0, "name": "0cf9ff64b6ac91e1868c7deb7b259550", "lon": -77.0226885, "type": "electric_scooter", "bike_id": "0cf9ff64b6ac91e1868c7deb7b259550", "fusion_lon": 0.0, "lat": 38.927391, "fusion_lat": 0.0}, {"is_disabled": 0, "rental_uris": {"android": "https://dc.lft.to/lastmile_qr_scan", "ios": "https://dc.lft.to/lastmile_qr_scan"}, "is_reserved": 0, "name": "4544b91d89676f04ae27fae8915d97b6", "lon": -76.98714166666667, "type": "electric_scooter", "bike_id": "4544b91d89676f04ae27fae8915d97b6", "fusion_lon": 0.0, "lat": 38.86700033333334, "fusion_lat": 0.0}, {"is_disabled": 0, "rental_uris": {"android": "https://dc.lft.to/lastmile_qr_scan", "ios": "https://dc.lft.to/lastmile_qr_scan"}, "is_reserved": 0, "name": "352ed243e23ad2729af4c9093b9c6308", "lon": -76.98869833333333, "type": "electric_scooter", "bike_id": "352ed243e23ad2729af4c9093b9c6308", "fusion_lon": 0.0, "lat": 38.892164, "fusion_lat": 0.0}, {"is_disabled": 0, "rental_uris": {"android": "https://dc.lft.to/lastmile_qr_scan", "ios": "https://dc.lft.to/lastmile_qr_scan"}, "is_reserved": 0, "name": "02f50ce3d7fef72fed789bc2f796546b", "lon": -77.0266405, "type": "electric_scooter", "bike_id": "02f50ce3d7fef72fed789bc2f796546b", "fusion_lon": 0.0, "lat": 38.89616183333333, "fusion_lat": 0.0}, {"is_disabled": 0, "rental_uris": {"android": "https://dc.lft.to/lastmile_qr_scan", "ios": "https://dc.lft.to/lastmile_qr_scan"}, "is_reserved": 0, "name": "6b0c625c0287b7ee4e6bdde7570e92f7", "lon": -77.03768433333333, "type": "electric_bike", "bike_id": "6b0c625c0287b7ee4e6bdde7570e92f7", "fusion_lon": 0.0, "lat": 38.929458, "fusion_lat": 0.0}, {"is_disabled": 0, "rental_uris": {"android": "https://dc.lft.to/lastmile_qr_scan", "ios": "https://dc.lft.to/lastmile_qr_scan"}, "is_reserved": 0, "name": "b8837b7e6dfe33973e402f20ffaede49", "lon": -77.0320965, "type": "electric_scooter", "bike_id": "b8837b7e6dfe33973e402f20ffaede49", "fusion_lon": 0.0, "lat": 38.92574916666667, "fusion_lat": 0.0}, {"is_disabled": 0, "rental_uris": {"android": "https://dc.lft.to/lastmile_qr_scan", "ios": "https://dc.lft.to/lastmile_qr_scan"}, "is_reserved": 0, "name": "3c7271a7fca7f68ee72d4dab2ca0396d", "lon": -77.02952233333333, "type": "electric_scooter", "bike_id": "3c7271a7fca7f68ee72d4dab2ca0396d", "fusion_lon": 0.0, "lat": 38.9177435, "fusion_lat": 0.0}, {"is_disabled": 0, "rental_uris": {"android": "https://dc.lft.to/lastmile_qr_scan", "ios": "https://dc.lft.to/lastmile_qr_scan"}, "is_reserved": 0, "name": "b72ed3a54f89f8c74cad183efcaec45c", "lon": -77.04030933333334, "type": "electric_scooter", "bike_id": "b72ed3a54f89f8c74cad183efcaec45c", "fusion_lon": 0.0, "lat": 38.91706083333333, "fusion_lat": 0.0}, {"is_disabled": 0, "rental_uris": {"android": "https://dc.lft.to/lastmile_qr_scan", "ios": "https://dc.lft.to/lastmile_qr_scan"}, "is_reserved": 0, "name": "4834c685537864f388fb820083f583f6", "lon": -77.04537716666667, "type": "electric_scooter", "bike_id": "4834c685537864f388fb820083f583f6", "fusion_lon": 0.0, "lat": 38.906705333333335, "fusion_lat": 0.0}, {"is_disabled": 0, "rental_uris": {"android": "https://dc.lft.to/lastmile_qr_scan", "ios": "https://dc.lft.to/lastmile_qr_scan"}, "is_reserved": 0, "name": "56c14dc92dc654478c9417f168e7795c", "lon": -77.02154, "type": "electric_scooter", "bike_id": "56c14dc92dc654478c9417f168e7795c", "fusion_lon": 0.0, "lat": 38.92603066666667, "fusion_lat": 0.0}, {"is_disabled": 0, "rental_uris": {"android": "https://dc.lft.to/lastmile_qr_scan", "ios": "https://dc.lft.to/lastmile_qr_scan"}, "is_reserved": 0, "name": "c7782e03261ffd90fb947118caea4f06", "lon": -76.99568183333334, "type": "electric_bike", "bike_id": "c7782e03261ffd90fb947118caea4f06", "fusion_lon": 0.0, "lat": 39.0078695, "fusion_lat": 0.0}, {"is_disabled": 0, "rental_uris": {"android": "https://dc.lft.to/lastmile_qr_scan", "ios": "https://dc.lft.to/lastmile_qr_scan"}, "is_reserved": 0, "name": "7da63e8268bd4cf2c4360990575ead2f", "lon": -77.02227683333334, "type": "electric_scooter", "bike_id": "7da63e8268bd4cf2c4360990575ead2f", "fusion_lon": 0.0, "lat": 38.90559916666667, "fusion_lat": 0.0}, {"is_disabled": 0, "rental_uris": {"android": "https://dc.lft.to/lastmile_qr_scan", "ios": "https://dc.lft.to/lastmile_qr_scan"}, "is_reserved": 0, "name": "35514fb47ba3c78c5cf6a37d513b45e7", "lon": -77.02920266666666, "type": "electric_scooter", "bike_id": "35514fb47ba3c78c5cf6a37d513b45e7", "fusion_lon": 0.0, "lat": 38.910328666666665, "fusion_lat": 0.0}, {"is_disabled": 0, "rental_uris": {"android": "https://dc.lft.to/lastmile_qr_scan", "ios": "https://dc.lft.to/lastmile_qr_scan"}, "is_reserved": 0, "name": "522add564f03d6fbbafd90193f064eb9", "lon": -77.044524, "type": "electric_scooter", "bike_id": "522add564f03d6fbbafd90193f064eb9", "fusion_lon": 0.0, "lat": 38.91864533333333, "fusion_lat": 0.0}, {"is_disabled": 0, "rental_uris": {"android": "https://dc.lft.to/lastmile_qr_scan", "ios": "https://dc.lft.to/lastmile_qr_scan"}, "is_reserved": 0, "name": "e8468c80b252489d3c17f94d23789562", "lon": -77.00086983333334, "type": "electric_scooter", "bike_id": "e8468c80b252489d3c17f94d23789562", "fusion_lon": 0.0, "lat": 38.9255095, "fusion_lat": 0.0}, {"is_disabled": 0, "rental_uris": {"android": "https://dc.lft.to/lastmile_qr_scan", "ios": "https://dc.lft.to/lastmile_qr_scan"}, "is_reserved": 0, "name": "64573870807767e6abb2ad6d58c2e73c", "lon": -77.01286916666666, "type": "electric_scooter", "bike_id": "64573870807767e6abb2ad6d58c2e73c", "fusion_lon": 0.0, "lat": 38.92020816666667, "fusion_lat": 0.0}, {"is_disabled": 0, "rental_uris": {"android": "https://dc.lft.to/lastmile_qr_scan", "ios": "https://dc.lft.to/lastmile_qr_scan"}, "is_reserved": 0, "name": "9cdfb74d7f44db0123be4b5eb6c0aa61", "lon": -77.03841616666666, "type": "electric_scooter", "bike_id": "9cdfb74d7f44db0123be4b5eb6c0aa61", "fusion_lon": 0.0, "lat": 38.90929466666667, "fusion_lat": 0.0}, {"is_disabled": 0, "rental_uris": {"android": "https://dc.lft.to/lastmile_qr_scan", "ios": "https://dc.lft.to/lastmile_qr_scan"}, "is_reserved": 0, "name": "00d8a79b50a9abd253248cf18b30e668", "lon": -77.05095733333333, "type": "electric_scooter", "bike_id": "00d8a79b50a9abd253248cf18b30e668", "fusion_lon": 0.0, "lat": 38.9233885, "fusion_lat": 0.0}, {"is_disabled": 0, "rental_uris": {"android": "https://dc.lft.to/lastmile_qr_scan", "ios": "https://dc.lft.to/lastmile_qr_scan"}, "is_reserved": 0, "name": "90d71e16e239f88820b1f5a75506082c", "lon": -77.02378, "type": "electric_scooter", "bike_id": "90d71e16e239f88820b1f5a75506082c", "fusion_lon": 0.0, "lat": 38.907048, "fusion_lat": 0.0}, {"is_disabled": 0, "rental_uris": {"android": "https://dc.lft.to/lastmile_qr_scan", "ios": "https://dc.lft.to/lastmile_qr_scan"}, "is_reserved": 0, "name": "2d4e83539a43cb5c2a3f0a75abb2b647", "lon": -76.9733085, "type": "electric_bike", "bike_id": "2d4e83539a43cb5c2a3f0a75abb2b647", "fusion_lon": 0.0, "lat": 38.850646833333336, "fusion_lat": 0.0}, {"is_disabled": 0, "rental_uris": {"android": "https://dc.lft.to/lastmile_qr_scan", "ios": "https://dc.lft.to/lastmile_qr_scan"}, "is_reserved": 0, "name": "a1bb23fdc7dabcdce723ed23a166c0b9", "lon": -77.02378866666666, "type": "electric_scooter", "bike_id": "a1bb23fdc7dabcdce723ed23a166c0b9", "fusion_lon": 0.0, "lat": 38.93146133333333, "fusion_lat": 0.0}, {"is_disabled": 0, "rental_uris": {"android": "https://dc.lft.to/lastmile_qr_scan", "ios": "https://dc.lft.to/lastmile_qr_scan"}, "is_reserved": 0, "name": "c5f7afd7940c1533a4df98d04e53c6d4", "lon": -77.02144216666667, "type": "electric_bike", "bike_id": "c5f7afd7940c1533a4df98d04e53c6d4", "fusion_lon": 0.0, "lat": 38.947947666666664, "fusion_lat": 0.0}, {"is_disabled": 0, "rental_uris": {"android": "https://dc.lft.to/lastmile_qr_scan", "ios": "https://dc.lft.to/lastmile_qr_scan"}, "is_reserved": 0, "name": "ae61cf1327a715efd90258e79958db10", "lon": -77.02489866666667, "type": "electric_scooter", "bike_id": "ae61cf1327a715efd90258e79958db10", "fusion_lon": 0.0, "lat": 38.91626, "fusion_lat": 0.0}, {"is_disabled": 0, "rental_uris": {"android": "https://dc.lft.to/lastmile_qr_scan", "ios": "https://dc.lft.to/lastmile_qr_scan"}, "is_reserved": 0, "name": "2b0310f16083c9ec3830fc335de59887", "lon": -77.04345883333333, "type": "electric_scooter", "bike_id": "2b0310f16083c9ec3830fc335de59887", "fusion_lon": 0.0, "lat": 38.90513033333333, "fusion_lat": 0.0}, {"is_disabled": 0, "rental_uris": {"android": "https://dc.lft.to/lastmile_qr_scan", "ios": "https://dc.lft.to/lastmile_qr_scan"}, "is_reserved": 0, "name": "4b13cc566d22c51f76a99321cec406ab", "lon": -77.03608016666666, "type": "electric_scooter", "bike_id": "4b13cc566d22c51f76a99321cec406ab", "fusion_lon": 0.0, "lat": 38.93148683333333, "fusion_lat": 0.0}, {"is_disabled": 0, "rental_uris": {"android": "https://dc.lft.to/lastmile_qr_scan", "ios": "https://dc.lft.to/lastmile_qr_scan"}, "is_reserved": 0, "name": "580c340d026e9e0caaff8be2429ce0a0", "lon": -77.03524333333333, "type": "electric_scooter", "bike_id": "580c340d026e9e0caaff8be2429ce0a0", "fusion_lon": 0.0, "lat": 38.92256066666667, "fusion_lat": 0.0}, {"is_disabled": 0, "rental_uris": {"android": "https://dc.lft.to/lastmile_qr_scan", "ios": "https://dc.lft.to/lastmile_qr_scan"}, "is_reserved": 0, "name": "4f4d590c19caa518896d05449c1f8b75", "lon": -77.03970483333333, "type": "electric_scooter", "bike_id": "4f4d590c19caa518896d05449c1f8b75", "fusion_lon": 0.0, "lat": 38.899601, "fusion_lat": 0.0}, {"is_disabled": 0, "rental_uris": {"android": "https://dc.lft.to/lastmile_qr_scan", "ios": "https://dc.lft.to/lastmile_qr_scan"}, "is_reserved": 0, "name": "cfbe18467f581dab70fb7069b7f29eae", "lon": -77.04028783333334, "type": "electric_scooter", "bike_id": "cfbe18467f581dab70fb7069b7f29eae", "fusion_lon": 0.0, "lat": 38.922037333333336, "fusion_lat": 0.0}, {"is_disabled": 0, "rental_uris": {"android": "https://dc.lft.to/lastmile_qr_scan", "ios": "https://dc.lft.to/lastmile_qr_scan"}, "is_reserved": 0, "name": "e575a95472d710d3454896261d314594", "lon": -76.9482465, "type": "electric_scooter", "bike_id": "e575a95472d710d3454896261d314594", "fusion_lon": 0.0, "lat": 38.88512466666667, "fusion_lat": 0.0}, {"is_disabled": 0, "rental_uris": {"android": "https://dc.lft.to/lastmile_qr_scan", "ios": "https://dc.lft.to/lastmile_qr_scan"}, "is_reserved": 0, "name": "605ec4379865c2abeaff149e41f052d8", "lon": -77.03869433333334, "type": "electric_scooter", "bike_id": "605ec4379865c2abeaff149e41f052d8", "fusion_lon": 0.0, "lat": 38.91562783333333, "fusion_lat": 0.0}, {"is_disabled": 0, "rental_uris": {"android": "https://dc.lft.to/lastmile_qr_scan", "ios": "https://dc.lft.to/lastmile_qr_scan"}, "is_reserved": 0, "name": "3668184947ddab602ec6176f6867cbd5", "lon": -76.97873666666666, "type": "electric_scooter", "bike_id": "3668184947ddab602ec6176f6867cbd5", "fusion_lon": 0.0, "lat": 38.927200666666664, "fusion_lat": 0.0}, {"is_disabled": 0, "rental_uris": {"android": "https://dc.lft.to/lastmile_qr_scan", "ios": "https://dc.lft.to/lastmile_qr_scan"}, "is_reserved": 0, "name": "dd2d9682653aac883fe9fb50ffa4c5ae", "lon": -76.97508266666667, "type": "electric_bike", "bike_id": "dd2d9682653aac883fe9fb50ffa4c5ae", "fusion_lon": 0.0, "lat": 38.903099166666664, "fusion_lat": 0.0}, {"is_disabled": 0, "rental_uris": {"android": "https://dc.lft.to/lastmile_qr_scan", "ios": "https://dc.lft.to/lastmile_qr_scan"}, "is_reserved": 0, "name": "b72b497eb65031a8ad44f5843347c5e7", "lon": -77.01222816666667, "type": "electric_scooter", "bike_id": "b72b497eb65031a8ad44f5843347c5e7", "fusion_lon": 0.0, "lat": 38.885796, "fusion_lat": 0.0}, {"is_disabled": 0, "rental_uris": {"android": "https://dc.lft.to/lastmile_qr_scan", "ios": "https://dc.lft.to/lastmile_qr_scan"}, "is_reserved": 0, "name": "d5e5b339590b859ef40bdc3cc7d3a2bf", "lon": -77.03318183333333, "type": "electric_scooter", "bike_id": "d5e5b339590b859ef40bdc3cc7d3a2bf", "fusion_lon": 0.0, "lat": 38.898349, "fusion_lat": 0.0}, {"is_disabled": 0, "rental_uris": {"android": "https://dc.lft.to/lastmile_qr_scan", "ios": "https://dc.lft.to/lastmile_qr_scan"}, "is_reserved": 0, "name": "e14754cac7178b49e4560c6b6546f158", "lon": -77.022901, "type": "electric_scooter", "bike_id": "e14754cac7178b49e4560c6b6546f158", "fusion_lon": 0.0, "lat": 38.916155, "fusion_lat": 0.0}, {"is_disabled": 0, "rental_uris": {"android": "https://dc.lft.to/lastmile_qr_scan", "ios": "https://dc.lft.to/lastmile_qr_scan"}, "is_reserved": 0, "name": "1efa30d49a57bf95ffd5c98a296b61e9", "lon": -77.0234365, "type": "electric_scooter", "bike_id": "1efa30d49a57bf95ffd5c98a296b61e9", "fusion_lon": 0.0, "lat": 38.915966166666664, "fusion_lat": 0.0}, {"is_disabled": 0, "rental_uris": {"android": "https://dc.lft.to/lastmile_qr_scan", "ios": "https://dc.lft.to/lastmile_qr_scan"}, "is_reserved": 0, "name": "d070c45cb1f58ccb7f9c834d38488fe5", "lon": -77.04565983333333, "type": "electric_scooter", "bike_id": "d070c45cb1f58ccb7f9c834d38488fe5", "fusion_lon": 0.0, "lat": 38.91780816666667, "fusion_lat": 0.0}, {"is_disabled": 0, "rental_uris": {"android": "https://dc.lft.to/lastmile_qr_scan", "ios": "https://dc.lft.to/lastmile_qr_scan"}, "is_reserved": 0, "name": "4f94871b03162713d5175581d958984d", "lon": -77.0543915, "type": "electric_scooter", "bike_id": "4f94871b03162713d5175581d958984d", "fusion_lon": 0.0, "lat": 38.89603616666667, "fusion_lat": 0.0}, {"is_disabled": 0, "rental_uris": {"android": "https://dc.lft.to/lastmile_qr_scan", "ios": "https://dc.lft.to/lastmile_qr_scan"}, "is_reserved": 0, "name": "f110b639e65d10dd4bb4ec1172504f11", "lon": -77.03659783333333, "type": "electric_scooter", "bike_id": "f110b639e65d10dd4bb4ec1172504f11", "fusion_lon": 0.0, "lat": 38.912420166666664, "fusion_lat": 0.0}, {"is_disabled": 0, "rental_uris": {"android": "https://dc.lft.to/lastmile_qr_scan", "ios": "https://dc.lft.to/lastmile_qr_scan"}, "is_reserved": 0, "name": "c5296636d7189a656649c8b2450aa95c", "lon": -77.041841, "type": "electric_scooter", "bike_id": "c5296636d7189a656649c8b2450aa95c", "fusion_lon": 0.0, "lat": 38.914074166666666, "fusion_lat": 0.0}, {"is_disabled": 0, "rental_uris": {"android": "https://dc.lft.to/lastmile_qr_scan", "ios": "https://dc.lft.to/lastmile_qr_scan"}, "is_reserved": 0, "name": "5aab090e0d06044fa77a465fc3c538fb", "lon": -77.10442566666667, "type": "electric_bike", "bike_id": "5aab090e0d06044fa77a465fc3c538fb", "fusion_lon": 0.0, "lat": 39.02866183333333, "fusion_lat": 0.0}, {"is_disabled": 0, "rental_uris": {"android": "https://dc.lft.to/lastmile_qr_scan", "ios": "https://dc.lft.to/lastmile_qr_scan"}, "is_reserved": 0, "name": "2a17ef25718aa7ab3222ca18ee743ec4", "lon": -77.04663883333333, "type": "electric_scooter", "bike_id": "2a17ef25718aa7ab3222ca18ee743ec4", "fusion_lon": 0.0, "lat": 38.9057355, "fusion_lat": 0.0}, {"is_disabled": 0, "rental_uris": {"android": "https://dc.lft.to/lastmile_qr_scan", "ios": "https://dc.lft.to/lastmile_qr_scan"}, "is_reserved": 0, "name": "fff1470ba6782d5d4d0d62892b23e2a4", "lon": -77.00864666666666, "type": "electric_scooter", "bike_id": "fff1470ba6782d5d4d0d62892b23e2a4", "fusion_lon": 0.0, "lat": 38.90657016666667, "fusion_lat": 0.0}, {"is_disabled": 0, "rental_uris": {"android": "https://dc.lft.to/lastmile_qr_scan", "ios": "https://dc.lft.to/lastmile_qr_scan"}, "is_reserved": 0, "name": "8b774204db6309704883775177d0cc91", "lon": -77.03765733333333, "type": "electric_scooter", "bike_id": "8b774204db6309704883775177d0cc91", "fusion_lon": 0.0, "lat": 38.9169465, "fusion_lat": 0.0}, {"is_disabled": 0, "rental_uris": {"android": "https://dc.lft.to/lastmile_qr_scan", "ios": "https://dc.lft.to/lastmile_qr_scan"}, "is_reserved": 0, "name": "a758eae4043bf97509a35ac4f7ee0d46", "lon": -76.98092683333333, "type": "electric_scooter", "bike_id": "a758eae4043bf97509a35ac4f7ee0d46", "fusion_lon": 0.0, "lat": 38.857177666666665, "fusion_lat": 0.0}, {"is_disabled": 0, "rental_uris": {"android": "https://dc.lft.to/lastmile_qr_scan", "ios": "https://dc.lft.to/lastmile_qr_scan"}, "is_reserved": 0, "name": "0e286c7ac1251c7704e1f5db6f3e194d", "lon": -77.03261133333334, "type": "electric_scooter", "bike_id": "0e286c7ac1251c7704e1f5db6f3e194d", "fusion_lon": 0.0, "lat": 38.91841766666667, "fusion_lat": 0.0}, {"is_disabled": 0, "rental_uris": {"android": "https://dc.lft.to/lastmile_qr_scan", "ios": "https://dc.lft.to/lastmile_qr_scan"}, "is_reserved": 0, "name": "a03e6e284449412065260b64f72e8a44", "lon": -77.04329683333333, "type": "electric_scooter", "bike_id": "a03e6e284449412065260b64f72e8a44", "fusion_lon": 0.0, "lat": 38.89658883333333, "fusion_lat": 0.0}, {"is_disabled": 0, "rental_uris": {"android": "https://dc.lft.to/lastmile_qr_scan", "ios": "https://dc.lft.to/lastmile_qr_scan"}, "is_reserved": 0, "name": "5ab256a237d0c1010d3565e8759df760", "lon": -77.01582416666666, "type": "electric_bike", "bike_id": "5ab256a237d0c1010d3565e8759df760", "fusion_lon": 0.0, "lat": 39.0463515, "fusion_lat": 0.0}, {"is_disabled": 0, "rental_uris": {"android": "https://dc.lft.to/lastmile_qr_scan", "ios": "https://dc.lft.to/lastmile_qr_scan"}, "is_reserved": 0, "name": "44acef49ab9db7891b90dfa18345ad65", "lon": -77.02474433333333, "type": "electric_scooter", "bike_id": "44acef49ab9db7891b90dfa18345ad65", "fusion_lon": 0.0, "lat": 38.93919133333333, "fusion_lat": 0.0}, {"is_disabled": 0, "rental_uris": {"android": "https://dc.lft.to/lastmile_qr_scan", "ios": "https://dc.lft.to/lastmile_qr_scan"}, "is_reserved": 0, "name": "9b28d3b5cf68496689189c6f350146ab", "lon": -76.96916366666666, "type": "electric_scooter", "bike_id": "9b28d3b5cf68496689189c6f350146ab", "fusion_lon": 0.0, "lat": 38.85527583333333, "fusion_lat": 0.0}, {"is_disabled": 0, "rental_uris": {"android": "https://dc.lft.to/lastmile_qr_scan", "ios": "https://dc.lft.to/lastmile_qr_scan"}, "is_reserved": 0, "name": "9a10a5f64ec85c75df562399e2760bbe", "lon": -76.9851855, "type": "electric_scooter", "bike_id": "9a10a5f64ec85c75df562399e2760bbe", "fusion_lon": 0.0, "lat": 38.8600435, "fusion_lat": 0.0}, {"is_disabled": 0, "rental_uris": {"android": "https://dc.lft.to/lastmile_qr_scan", "ios": "https://dc.lft.to/lastmile_qr_scan"}, "is_reserved": 0, "name": "b6b10665cafa5d865f3ecb9d04fde498", "lon": -77.035478, "type": "electric_scooter", "bike_id": "b6b10665cafa5d865f3ecb9d04fde498", "fusion_lon": 0.0, "lat": 38.90729316666667, "fusion_lat": 0.0}, {"is_disabled": 0, "rental_uris": {"android": "https://dc.lft.to/lastmile_qr_scan", "ios": "https://dc.lft.to/lastmile_qr_scan"}, "is_reserved": 0, "name": "d732ce1b0445aee6f0c6d8c599df9e6c", "lon": -77.1829725, "type": "electric_bike", "bike_id": "d732ce1b0445aee6f0c6d8c599df9e6c", "fusion_lon": 0.0, "lat": 38.883454666666665, "fusion_lat": 0.0}, {"is_disabled": 0, "rental_uris": {"android": "https://dc.lft.to/lastmile_qr_scan", "ios": "https://dc.lft.to/lastmile_qr_scan"}, "is_reserved": 0, "name": "018f0b991357e957dc215d5035dbdf7e", "lon": -76.931136, "type": "electric_scooter", "bike_id": "018f0b991357e957dc215d5035dbdf7e", "fusion_lon": 0.0, "lat": 38.880178666666666, "fusion_lat": 0.0}, {"is_disabled": 0, "rental_uris": {"android": "https://dc.lft.to/lastmile_qr_scan", "ios": "https://dc.lft.to/lastmile_qr_scan"}, "is_reserved": 0, "name": "454e03bb1666356f6de116921346dc82", "lon": -77.05928966666667, "type": "electric_scooter", "bike_id": "454e03bb1666356f6de116921346dc82", "fusion_lon": 0.0, "lat": 38.936667166666666, "fusion_lat": 0.0}, {"is_disabled": 0, "rental_uris": {"android": "https://dc.lft.to/lastmile_qr_scan", "ios": "https://dc.lft.to/lastmile_qr_scan"}, "is_reserved": 0, "name": "ea9d8fdee5ac5ee4def8446ed265deb9", "lon": -77.0283235, "type": "electric_scooter", "bike_id": "ea9d8fdee5ac5ee4def8446ed265deb9", "fusion_lon": 0.0, "lat": 38.895362666666664, "fusion_lat": 0.0}, {"is_disabled": 0, "rental_uris": {"android": "https://dc.lft.to/lastmile_qr_scan", "ios": "https://dc.lft.to/lastmile_qr_scan"}, "is_reserved": 0, "name": "5a94f6eb7178d1e252fef7674c7abd37", "lon": -77.01211616666667, "type": "electric_scooter", "bike_id": "5a94f6eb7178d1e252fef7674c7abd37", "fusion_lon": 0.0, "lat": 38.91821183333333, "fusion_lat": 0.0}, {"is_disabled": 0, "rental_uris": {"android": "https://dc.lft.to/lastmile_qr_scan", "ios": "https://dc.lft.to/lastmile_qr_scan"}, "is_reserved": 0, "name": "d68aa257b815a66ba397fc292f2e355a", "lon": -77.0169805, "type": "electric_scooter", "bike_id": "d68aa257b815a66ba397fc292f2e355a", "fusion_lon": 0.0, "lat": 38.974960833333334, "fusion_lat": 0.0}, {"is_disabled": 0, "rental_uris": {"android": "https://dc.lft.to/lastmile_qr_scan", "ios": "https://dc.lft.to/lastmile_qr_scan"}, "is_reserved": 0, "name": "4c72bf36b7b706f3f25e83a09011095c", "lon": -77.05095433333334, "type": "electric_scooter", "bike_id": "4c72bf36b7b706f3f25e83a09011095c", "fusion_lon": 0.0, "lat": 38.92343983333333, "fusion_lat": 0.0}, {"is_disabled": 0, "rental_uris": {"android": "https://dc.lft.to/lastmile_qr_scan", "ios": "https://dc.lft.to/lastmile_qr_scan"}, "is_reserved": 0, "name": "92dea3da164c7e2aed7fb0ce8c05dca8", "lon": -77.02390183333333, "type": "electric_scooter", "bike_id": "92dea3da164c7e2aed7fb0ce8c05dca8", "fusion_lon": 0.0, "lat": 38.908653666666666, "fusion_lat": 0.0}, {"is_disabled": 0, "rental_uris": {"android": "https://dc.lft.to/lastmile_qr_scan", "ios": "https://dc.lft.to/lastmile_qr_scan"}, "is_reserved": 0, "name": "4566c79197bc54023341ecbb9466e293", "lon": -77.01534733333334, "type": "electric_scooter", "bike_id": "4566c79197bc54023341ecbb9466e293", "fusion_lon": 0.0, "lat": 38.88488516666666, "fusion_lat": 0.0}, {"is_disabled": 0, "rental_uris": {"android": "https://dc.lft.to/lastmile_qr_scan", "ios": "https://dc.lft.to/lastmile_qr_scan"}, "is_reserved": 0, "name": "103772d3c208e235814f7c86a9396ecf", "lon": -77.042396, "type": "electric_scooter", "bike_id": "103772d3c208e235814f7c86a9396ecf", "fusion_lon": 0.0, "lat": 38.919253499999996, "fusion_lat": 0.0}, {"is_disabled": 0, "rental_uris": {"android": "https://dc.lft.to/lastmile_qr_scan", "ios": "https://dc.lft.to/lastmile_qr_scan"}, "is_reserved": 0, "name": "71944ca40c6ca2aef0b6dd43f44a40b8", "lon": -77.0188775, "type": "electric_scooter", "bike_id": "71944ca40c6ca2aef0b6dd43f44a40b8", "fusion_lon": 0.0, "lat": 38.900527, "fusion_lat": 0.0}, {"is_disabled": 0, "rental_uris": {"android": "https://dc.lft.to/lastmile_qr_scan", "ios": "https://dc.lft.to/lastmile_qr_scan"}, "is_reserved": 0, "name": "1c6f8bb2d4fa7d388cddeab6bd1b9405", "lon": -77.03203433333333, "type": "electric_scooter", "bike_id": "1c6f8bb2d4fa7d388cddeab6bd1b9405", "fusion_lon": 0.0, "lat": 38.91677716666667, "fusion_lat": 0.0}, {"is_disabled": 0, "rental_uris": {"android": "https://dc.lft.to/lastmile_qr_scan", "ios": "https://dc.lft.to/lastmile_qr_scan"}, "is_reserved": 0, "name": "b488cad12d670c8ce8c9aaf4287a2426", "lon": -77.038077, "type": "electric_scooter", "bike_id": "b488cad12d670c8ce8c9aaf4287a2426", "fusion_lon": 0.0, "lat": 38.9155275, "fusion_lat": 0.0}, {"is_disabled": 0, "rental_uris": {"android": "https://dc.lft.to/lastmile_qr_scan", "ios": "https://dc.lft.to/lastmile_qr_scan"}, "is_reserved": 0, "name": "a3c540fda856cfffb9a8d109d75d6f54", "lon": -77.04171766666667, "type": "electric_scooter", "bike_id": "a3c540fda856cfffb9a8d109d75d6f54", "fusion_lon": 0.0, "lat": 38.91354666666667, "fusion_lat": 0.0}, {"is_disabled": 0, "rental_uris": {"android": "https://dc.lft.to/lastmile_qr_scan", "ios": "https://dc.lft.to/lastmile_qr_scan"}, "is_reserved": 0, "name": "ac09314a2700f48c314924e0cde3e46a", "lon": -77.0342195, "type": "electric_scooter", "bike_id": "ac09314a2700f48c314924e0cde3e46a", "fusion_lon": 0.0, "lat": 38.91195483333333, "fusion_lat": 0.0}, {"is_disabled": 0, "rental_uris": {"android": "https://dc.lft.to/lastmile_qr_scan", "ios": "https://dc.lft.to/lastmile_qr_scan"}, "is_reserved": 0, "name": "65619dfe6b6e4a8f41947e2460ca1d8a", "lon": -76.996452, "type": "electric_scooter", "bike_id": "65619dfe6b6e4a8f41947e2460ca1d8a", "fusion_lon": 0.0, "lat": 38.887197666666665, "fusion_lat": 0.0}, {"is_disabled": 0, "rental_uris": {"android": "https://dc.lft.to/lastmile_qr_scan", "ios": "https://dc.lft.to/lastmile_qr_scan"}, "is_reserved": 0, "name": "6c0ad554de39ea5aefc6e1e54d26bc44", "lon": -77.03867366666667, "type": "electric_scooter", "bike_id": "6c0ad554de39ea5aefc6e1e54d26bc44", "fusion_lon": 0.0, "lat": 38.91687783333333, "fusion_lat": 0.0}, {"is_disabled": 0, "rental_uris": {"android": "https://dc.lft.to/lastmile_qr_scan", "ios": "https://dc.lft.to/lastmile_qr_scan"}, "is_reserved": 0, "name": "4b5f9ffaca177c00add8b663fd586458", "lon": -77.0175095, "type": "electric_scooter", "bike_id": "4b5f9ffaca177c00add8b663fd586458", "fusion_lon": 0.0, "lat": 38.90384366666667, "fusion_lat": 0.0}, {"is_disabled": 0, "rental_uris": {"android": "https://dc.lft.to/lastmile_qr_scan", "ios": "https://dc.lft.to/lastmile_qr_scan"}, "is_reserved": 0, "name": "d692321e98e99df24d07ccafdcb3c99d", "lon": -77.03254966666667, "type": "electric_scooter", "bike_id": "d692321e98e99df24d07ccafdcb3c99d", "fusion_lon": 0.0, "lat": 38.9045105, "fusion_lat": 0.0}, {"is_disabled": 0, "rental_uris": {"android": "https://dc.lft.to/lastmile_qr_scan", "ios": "https://dc.lft.to/lastmile_qr_scan"}, "is_reserved": 0, "name": "6311a76f873af1950884b94a30ac90e9", "lon": -77.05785916666666, "type": "electric_scooter", "bike_id": "6311a76f873af1950884b94a30ac90e9", "fusion_lon": 0.0, "lat": 38.90514, "fusion_lat": 0.0}, {"is_disabled": 0, "rental_uris": {"android": "https://dc.lft.to/lastmile_qr_scan", "ios": "https://dc.lft.to/lastmile_qr_scan"}, "is_reserved": 0, "name": "f2ec4713b7864db15f13e45218d023e5", "lon": -77.0574705, "type": "electric_scooter", "bike_id": "f2ec4713b7864db15f13e45218d023e5", "fusion_lon": 0.0, "lat": 38.933528333333335, "fusion_lat": 0.0}, {"is_disabled": 0, "rental_uris": {"android": "https://dc.lft.to/lastmile_qr_scan", "ios": "https://dc.lft.to/lastmile_qr_scan"}, "is_reserved": 0, "name": "2fef137451ef6a7ab79cf465d5cc8c23", "lon": -77.03174283333334, "type": "electric_scooter", "bike_id": "2fef137451ef6a7ab79cf465d5cc8c23", "fusion_lon": 0.0, "lat": 38.91421716666667, "fusion_lat": 0.0}, {"is_disabled": 0, "rental_uris": {"android": "https://dc.lft.to/lastmile_qr_scan", "ios": "https://dc.lft.to/lastmile_qr_scan"}, "is_reserved": 0, "name": "8f95babb3ce9580fcbe513c1b2b8e5ff", "lon": -77.0406085, "type": "electric_scooter", "bike_id": "8f95babb3ce9580fcbe513c1b2b8e5ff", "fusion_lon": 0.0, "lat": 38.90604416666667, "fusion_lat": 0.0}, {"is_disabled": 0, "rental_uris": {"android": "https://dc.lft.to/lastmile_qr_scan", "ios": "https://dc.lft.to/lastmile_qr_scan"}, "is_reserved": 0, "name": "008c21e30c19610bad6e801d4276ffb5", "lon": -77.0384695, "type": "electric_scooter", "bike_id": "008c21e30c19610bad6e801d4276ffb5", "fusion_lon": 0.0, "lat": 38.901356666666665, "fusion_lat": 0.0}, {"is_disabled": 0, "rental_uris": {"android": "https://dc.lft.to/lastmile_qr_scan", "ios": "https://dc.lft.to/lastmile_qr_scan"}, "is_reserved": 0, "name": "49c9b01c591d081e867a123760ac2ddb", "lon": -77.00893766666667, "type": "electric_scooter", "bike_id": "49c9b01c591d081e867a123760ac2ddb", "fusion_lon": 0.0, "lat": 38.89543, "fusion_lat": 0.0}, {"is_disabled": 0, "rental_uris": {"android": "https://dc.lft.to/lastmile_qr_scan", "ios": "https://dc.lft.to/lastmile_qr_scan"}, "is_reserved": 0, "name": "8b00b50a1111195009ab19751f6b9f17", "lon": -77.03398516666667, "type": "electric_scooter", "bike_id": "8b00b50a1111195009ab19751f6b9f17", "fusion_lon": 0.0, "lat": 38.919684333333336, "fusion_lat": 0.0}, {"is_disabled": 0, "rental_uris": {"android": "https://dc.lft.to/lastmile_qr_scan", "ios": "https://dc.lft.to/lastmile_qr_scan"}, "is_reserved": 0, "name": "f89a45e577d24e6822bbd3c2d1c06cbd", "lon": -77.06098766666666, "type": "electric_scooter", "bike_id": "f89a45e577d24e6822bbd3c2d1c06cbd", "fusion_lon": 0.0, "lat": 38.943679833333334, "fusion_lat": 0.0}, {"is_disabled": 0, "rental_uris": {"android": "https://dc.lft.to/lastmile_qr_scan", "ios": "https://dc.lft.to/lastmile_qr_scan"}, "is_reserved": 0, "name": "69547b233564d50efe281512a3dd5ec4", "lon": -77.04670066666667, "type": "electric_scooter", "bike_id": "69547b233564d50efe281512a3dd5ec4", "fusion_lon": 0.0, "lat": 38.907419833333336, "fusion_lat": 0.0}, {"is_disabled": 0, "rental_uris": {"android": "https://dc.lft.to/lastmile_qr_scan", "ios": "https://dc.lft.to/lastmile_qr_scan"}, "is_reserved": 0, "name": "060e74bda585571ecbce45c962db963f", "lon": -76.9916495, "type": "electric_bike", "bike_id": "060e74bda585571ecbce45c962db963f", "fusion_lon": 0.0, "lat": 38.972607333333336, "fusion_lat": 0.0}, {"is_disabled": 0, "rental_uris": {"android": "https://dc.lft.to/lastmile_qr_scan", "ios": "https://dc.lft.to/lastmile_qr_scan"}, "is_reserved": 0, "name": "691b45b78d7a5faee42bcb0091466845", "lon": -77.06168966666667, "type": "electric_bike", "bike_id": "691b45b78d7a5faee42bcb0091466845", "fusion_lon": 0.0, "lat": 38.81271566666667, "fusion_lat": 0.0}, {"is_disabled": 0, "rental_uris": {"android": "https://dc.lft.to/lastmile_qr_scan", "ios": "https://dc.lft.to/lastmile_qr_scan"}, "is_reserved": 0, "name": "5911a345c86dbc948a831245742a118d", "lon": -77.02407016666666, "type": "electric_scooter", "bike_id": "5911a345c86dbc948a831245742a118d", "fusion_lon": 0.0, "lat": 38.9168345, "fusion_lat": 0.0}, {"is_disabled": 0, "rental_uris": {"android": "https://dc.lft.to/lastmile_qr_scan", "ios": "https://dc.lft.to/lastmile_qr_scan"}, "is_reserved": 0, "name": "717eb9819a04c7b2e67011b5ca3cfa4a", "lon": -77.07902983333334, "type": "electric_bike", "bike_id": "717eb9819a04c7b2e67011b5ca3cfa4a", "fusion_lon": 0.0, "lat": 38.8393195, "fusion_lat": 0.0}, {"is_disabled": 0, "rental_uris": {"android": "https://dc.lft.to/lastmile_qr_scan", "ios": "https://dc.lft.to/lastmile_qr_scan"}, "is_reserved": 0, "name": "e1d4b44f72e744e55f9afbf18aebe691", "lon": -77.01755366666667, "type": "electric_scooter", "bike_id": "e1d4b44f72e744e55f9afbf18aebe691", "fusion_lon": 0.0, "lat": 38.91353133333333, "fusion_lat": 0.0}, {"is_disabled": 0, "rental_uris": {"android": "https://dc.lft.to/lastmile_qr_scan", "ios": "https://dc.lft.to/lastmile_qr_scan"}, "is_reserved": 0, "name": "5aa89111af30218edd00ca2abce2aebc", "lon": -77.00119566666666, "type": "electric_scooter", "bike_id": "5aa89111af30218edd00ca2abce2aebc", "fusion_lon": 0.0, "lat": 38.91249083333334, "fusion_lat": 0.0}, {"is_disabled": 0, "rental_uris": {"android": "https://dc.lft.to/lastmile_qr_scan", "ios": "https://dc.lft.to/lastmile_qr_scan"}, "is_reserved": 0, "name": "84fb9636413dea62bd1e030a1d3de804", "lon": -77.01618716666667, "type": "electric_scooter", "bike_id": "84fb9636413dea62bd1e030a1d3de804", "fusion_lon": 0.0, "lat": 38.89856983333333, "fusion_lat": 0.0}, {"is_disabled": 0, "rental_uris": {"android": "https://dc.lft.to/lastmile_qr_scan", "ios": "https://dc.lft.to/lastmile_qr_scan"}, "is_reserved": 0, "name": "38cb0bbb3ef6a12e1147b6b7660fec38", "lon": -77.02818516666666, "type": "electric_scooter", "bike_id": "38cb0bbb3ef6a12e1147b6b7660fec38", "fusion_lon": 0.0, "lat": 38.917689333333335, "fusion_lat": 0.0}, {"is_disabled": 0, "rental_uris": {"android": "https://dc.lft.to/lastmile_qr_scan", "ios": "https://dc.lft.to/lastmile_qr_scan"}, "is_reserved": 0, "name": "f36d26b930bfc7011557798fc86eb9eb", "lon": -77.01010283333333, "type": "electric_scooter", "bike_id": "f36d26b930bfc7011557798fc86eb9eb", "fusion_lon": 0.0, "lat": 38.879682, "fusion_lat": 0.0}, {"is_disabled": 0, "rental_uris": {"android": "https://dc.lft.to/lastmile_qr_scan", "ios": "https://dc.lft.to/lastmile_qr_scan"}, "is_reserved": 0, "name": "6d81dc3537dcaa60f671444f9f85b56c", "lon": -76.99485133333333, "type": "electric_scooter", "bike_id": "6d81dc3537dcaa60f671444f9f85b56c", "fusion_lon": 0.0, "lat": 38.932278833333335, "fusion_lat": 0.0}, {"is_disabled": 0, "rental_uris": {"android": "https://dc.lft.to/lastmile_qr_scan", "ios": "https://dc.lft.to/lastmile_qr_scan"}, "is_reserved": 0, "name": "8764ea54c0e6a46e5047b84120d0cda1", "lon": -77.03436783333333, "type": "electric_scooter", "bike_id": "8764ea54c0e6a46e5047b84120d0cda1", "fusion_lon": 0.0, "lat": 38.918094333333336, "fusion_lat": 0.0}, {"is_disabled": 0, "rental_uris": {"android": "https://dc.lft.to/lastmile_qr_scan", "ios": "https://dc.lft.to/lastmile_qr_scan"}, "is_reserved": 0, "name": "4cf6c5ba141948dec89f1b6938c6ca8e", "lon": -77.03474016666667, "type": "electric_scooter", "bike_id": "4cf6c5ba141948dec89f1b6938c6ca8e", "fusion_lon": 0.0, "lat": 38.9074815, "fusion_lat": 0.0}, {"is_disabled": 0, "rental_uris": {"android": "https://dc.lft.to/lastmile_qr_scan", "ios": "https://dc.lft.to/lastmile_qr_scan"}, "is_reserved": 0, "name": "e7650b67b574e2dd7f3650259e28a753", "lon": -77.043648, "type": "electric_scooter", "bike_id": "e7650b67b574e2dd7f3650259e28a753", "fusion_lon": 0.0, "lat": 38.92238183333333, "fusion_lat": 0.0}, {"is_disabled": 0, "rental_uris": {"android": "https://dc.lft.to/lastmile_qr_scan", "ios": "https://dc.lft.to/lastmile_qr_scan"}, "is_reserved": 0, "name": "b60a65c091032f2ccdfaffb2e1ec2636", "lon": -77.03347983333333, "type": "electric_scooter", "bike_id": "b60a65c091032f2ccdfaffb2e1ec2636", "fusion_lon": 0.0, "lat": 38.89232333333333, "fusion_lat": 0.0}, {"is_disabled": 0, "rental_uris": {"android": "https://dc.lft.to/lastmile_qr_scan", "ios": "https://dc.lft.to/lastmile_qr_scan"}, "is_reserved": 0, "name": "cddc7f4eb1668664cfbcaa20c1022b61", "lon": -77.02837166666667, "type": "electric_scooter", "bike_id": "cddc7f4eb1668664cfbcaa20c1022b61", "fusion_lon": 0.0, "lat": 38.931900166666665, "fusion_lat": 0.0}, {"is_disabled": 0, "rental_uris": {"android": "https://dc.lft.to/lastmile_qr_scan", "ios": "https://dc.lft.to/lastmile_qr_scan"}, "is_reserved": 0, "name": "c6a7c5d409513ca47450d2db88d63e28", "lon": -76.98582116666667, "type": "electric_scooter", "bike_id": "c6a7c5d409513ca47450d2db88d63e28", "fusion_lon": 0.0, "lat": 38.9103685, "fusion_lat": 0.0}, {"is_disabled": 0, "rental_uris": {"android": "https://dc.lft.to/lastmile_qr_scan", "ios": "https://dc.lft.to/lastmile_qr_scan"}, "is_reserved": 0, "name": "392a9cf0e36f800fc804de3b13cbeaf8", "lon": -77.0119365, "type": "electric_scooter", "bike_id": "392a9cf0e36f800fc804de3b13cbeaf8", "fusion_lon": 0.0, "lat": 38.9002685, "fusion_lat": 0.0}, {"is_disabled": 0, "rental_uris": {"android": "https://dc.lft.to/lastmile_qr_scan", "ios": "https://dc.lft.to/lastmile_qr_scan"}, "is_reserved": 0, "name": "072f43638896ac2f5c9bbac1eade1c58", "lon": -77.03483016666667, "type": "electric_scooter", "bike_id": "072f43638896ac2f5c9bbac1eade1c58", "fusion_lon": 0.0, "lat": 38.907318, "fusion_lat": 0.0}, {"is_disabled": 0, "rental_uris": {"android": "https://dc.lft.to/lastmile_qr_scan", "ios": "https://dc.lft.to/lastmile_qr_scan"}, "is_reserved": 0, "name": "ac5d46c6973e1106e9d161d7ef9ccc52", "lon": -77.019018, "type": "electric_scooter", "bike_id": "ac5d46c6973e1106e9d161d7ef9ccc52", "fusion_lon": 0.0, "lat": 38.903609, "fusion_lat": 0.0}, {"is_disabled": 0, "rental_uris": {"android": "https://dc.lft.to/lastmile_qr_scan", "ios": "https://dc.lft.to/lastmile_qr_scan"}, "is_reserved": 0, "name": "d463f69d2bc2c7459d1a09ba7851d944", "lon": -77.03855233333333, "type": "electric_scooter", "bike_id": "d463f69d2bc2c7459d1a09ba7851d944", "fusion_lon": 0.0, "lat": 38.9183915, "fusion_lat": 0.0}, {"is_disabled": 0, "rental_uris": {"android": "https://dc.lft.to/lastmile_qr_scan", "ios": "https://dc.lft.to/lastmile_qr_scan"}, "is_reserved": 0, "name": "139fc843ccee0433e691071d2fce221c", "lon": -77.05057016666666, "type": "electric_scooter", "bike_id": "139fc843ccee0433e691071d2fce221c", "fusion_lon": 0.0, "lat": 38.916391833333336, "fusion_lat": 0.0}, {"is_disabled": 0, "rental_uris": {"android": "https://dc.lft.to/lastmile_qr_scan", "ios": "https://dc.lft.to/lastmile_qr_scan"}, "is_reserved": 0, "name": "017ab75519b5a9a618f1130bd84f3aa0", "lon": -76.98951466666666, "type": "electric_scooter", "bike_id": "017ab75519b5a9a618f1130bd84f3aa0", "fusion_lon": 0.0, "lat": 38.843962, "fusion_lat": 0.0}, {"is_disabled": 0, "rental_uris": {"android": "https://dc.lft.to/lastmile_qr_scan", "ios": "https://dc.lft.to/lastmile_qr_scan"}, "is_reserved": 0, "name": "f4fd1bf095c8f14307e5cebca5375c1b", "lon": -77.02185633333333, "type": "electric_scooter", "bike_id": "f4fd1bf095c8f14307e5cebca5375c1b", "fusion_lon": 0.0, "lat": 38.921010333333335, "fusion_lat": 0.0}, {"is_disabled": 0, "rental_uris": {"android": "https://dc.lft.to/lastmile_qr_scan", "ios": "https://dc.lft.to/lastmile_qr_scan"}, "is_reserved": 0, "name": "f56a967a1b368b24bffecce2e675017e", "lon": -77.041729, "type": "electric_scooter", "bike_id": "f56a967a1b368b24bffecce2e675017e", "fusion_lon": 0.0, "lat": 38.915476, "fusion_lat": 0.0}, {"is_disabled": 0, "rental_uris": {"android": "https://dc.lft.to/lastmile_qr_scan", "ios": "https://dc.lft.to/lastmile_qr_scan"}, "is_reserved": 0, "name": "fcf1f0eeaced1e56a48c85fbf641e389", "lon": -77.09098566666667, "type": "electric_scooter", "bike_id": "fcf1f0eeaced1e56a48c85fbf641e389", "fusion_lon": 0.0, "lat": 38.95638016666667, "fusion_lat": 0.0}, {"is_disabled": 0, "rental_uris": {"android": "https://dc.lft.to/lastmile_qr_scan", "ios": "https://dc.lft.to/lastmile_qr_scan"}, "is_reserved": 0, "name": "83d0ad29503c0f49714908eaf7be894a", "lon": -77.032121, "type": "electric_scooter", "bike_id": "83d0ad29503c0f49714908eaf7be894a", "fusion_lon": 0.0, "lat": 38.92578666666667, "fusion_lat": 0.0}, {"is_disabled": 0, "rental_uris": {"android": "https://dc.lft.to/lastmile_qr_scan", "ios": "https://dc.lft.to/lastmile_qr_scan"}, "is_reserved": 0, "name": "59a8ce38ac1bba931207854ed628b0f4", "lon": -77.041721, "type": "electric_scooter", "bike_id": "59a8ce38ac1bba931207854ed628b0f4", "fusion_lon": 0.0, "lat": 38.911953833333335, "fusion_lat": 0.0}, {"is_disabled": 0, "rental_uris": {"android": "https://dc.lft.to/lastmile_qr_scan", "ios": "https://dc.lft.to/lastmile_qr_scan"}, "is_reserved": 0, "name": "c75c349bae928c8d1a0330c24dc0eecf", "lon": -77.00928933333333, "type": "electric_scooter", "bike_id": "c75c349bae928c8d1a0330c24dc0eecf", "fusion_lon": 0.0, "lat": 38.87114, "fusion_lat": 0.0}, {"is_disabled": 0, "rental_uris": {"android": "https://dc.lft.to/lastmile_qr_scan", "ios": "https://dc.lft.to/lastmile_qr_scan"}, "is_reserved": 0, "name": "b6c3ce2be6ac8da9b1f20ae06bfcf80c", "lon": -76.9722705, "type": "electric_scooter", "bike_id": "b6c3ce2be6ac8da9b1f20ae06bfcf80c", "fusion_lon": 0.0, "lat": 38.85454933333333, "fusion_lat": 0.0}, {"is_disabled": 0, "rental_uris": {"android": "https://dc.lft.to/lastmile_qr_scan", "ios": "https://dc.lft.to/lastmile_qr_scan"}, "is_reserved": 0, "name": "dbbce70ae94b3051372d35bbe6285a9f", "lon": -76.99942233333333, "type": "electric_scooter", "bike_id": "dbbce70ae94b3051372d35bbe6285a9f", "fusion_lon": 0.0, "lat": 38.900493, "fusion_lat": 0.0}, {"is_disabled": 0, "rental_uris": {"android": "https://dc.lft.to/lastmile_qr_scan", "ios": "https://dc.lft.to/lastmile_qr_scan"}, "is_reserved": 0, "name": "0da0d1bc96783acac026d1ba6ebb2287", "lon": -77.009133, "type": "electric_scooter", "bike_id": "0da0d1bc96783acac026d1ba6ebb2287", "fusion_lon": 0.0, "lat": 38.898389, "fusion_lat": 0.0}, {"is_disabled": 0, "rental_uris": {"android": "https://dc.lft.to/lastmile_qr_scan", "ios": "https://dc.lft.to/lastmile_qr_scan"}, "is_reserved": 0, "name": "f643f93fac59ce358462070bb8fcc2ba", "lon": -77.01138366666666, "type": "electric_scooter", "bike_id": "f643f93fac59ce358462070bb8fcc2ba", "fusion_lon": 0.0, "lat": 38.90961033333333, "fusion_lat": 0.0}, {"is_disabled": 0, "rental_uris": {"android": "https://dc.lft.to/lastmile_qr_scan", "ios": "https://dc.lft.to/lastmile_qr_scan"}, "is_reserved": 0, "name": "71afb8efe02a20665d91cd35ae7c56be", "lon": -77.03855216666666, "type": "electric_scooter", "bike_id": "71afb8efe02a20665d91cd35ae7c56be", "fusion_lon": 0.0, "lat": 38.91837016666667, "fusion_lat": 0.0}, {"is_disabled": 0, "rental_uris": {"android": "https://dc.lft.to/lastmile_qr_scan", "ios": "https://dc.lft.to/lastmile_qr_scan"}, "is_reserved": 0, "name": "ce740792dd79637b700379f9b18f0912", "lon": -77.04370133333333, "type": "electric_scooter", "bike_id": "ce740792dd79637b700379f9b18f0912", "fusion_lon": 0.0, "lat": 38.92571083333333, "fusion_lat": 0.0}, {"is_disabled": 0, "rental_uris": {"android": "https://dc.lft.to/lastmile_qr_scan", "ios": "https://dc.lft.to/lastmile_qr_scan"}, "is_reserved": 0, "name": "230a1ef88acaf27c16374babae8df768", "lon": -77.023717, "type": "electric_scooter", "bike_id": "230a1ef88acaf27c16374babae8df768", "fusion_lon": 0.0, "lat": 38.90198633333333, "fusion_lat": 0.0}, {"is_disabled": 0, "rental_uris": {"android": "https://dc.lft.to/lastmile_qr_scan", "ios": "https://dc.lft.to/lastmile_qr_scan"}, "is_reserved": 0, "name": "fb1b9ee90f08d9a8d018c68906d13ef5", "lon": -77.01756366666666, "type": "electric_scooter", "bike_id": "fb1b9ee90f08d9a8d018c68906d13ef5", "fusion_lon": 0.0, "lat": 38.877199166666664, "fusion_lat": 0.0}, {"is_disabled": 0, "rental_uris": {"android": "https://dc.lft.to/lastmile_qr_scan", "ios": "https://dc.lft.to/lastmile_qr_scan"}, "is_reserved": 0, "name": "10b2cb21342b0a6cd1f5561cc157eb80", "lon": -77.03263633333333, "type": "electric_scooter", "bike_id": "10b2cb21342b0a6cd1f5561cc157eb80", "fusion_lon": 0.0, "lat": 38.93523883333334, "fusion_lat": 0.0}, {"is_disabled": 0, "rental_uris": {"android": "https://dc.lft.to/lastmile_qr_scan", "ios": "https://dc.lft.to/lastmile_qr_scan"}, "is_reserved": 0, "name": "e7c786e78dd1cd2e67d4a54276e84ebd", "lon": -76.91592983333334, "type": "electric_bike", "bike_id": "e7c786e78dd1cd2e67d4a54276e84ebd", "fusion_lon": 0.0, "lat": 38.8800995, "fusion_lat": 0.0}, {"is_disabled": 0, "rental_uris": {"android": "https://dc.lft.to/lastmile_qr_scan", "ios": "https://dc.lft.to/lastmile_qr_scan"}, "is_reserved": 0, "name": "e172835a5167acee14ffd814f4576886", "lon": -76.948954, "type": "electric_scooter", "bike_id": "e172835a5167acee14ffd814f4576886", "fusion_lon": 0.0, "lat": 38.895308, "fusion_lat": 0.0}, {"is_disabled": 0, "rental_uris": {"android": "https://dc.lft.to/lastmile_qr_scan", "ios": "https://dc.lft.to/lastmile_qr_scan"}, "is_reserved": 0, "name": "e3ccea697ff571319ac9ec99dc69e896", "lon": -77.01937816666667, "type": "electric_scooter", "bike_id": "e3ccea697ff571319ac9ec99dc69e896", "fusion_lon": 0.0, "lat": 38.947018666666665, "fusion_lat": 0.0}, {"is_disabled": 0, "rental_uris": {"android": "https://dc.lft.to/lastmile_qr_scan", "ios": "https://dc.lft.to/lastmile_qr_scan"}, "is_reserved": 0, "name": "c55c360c73dfdabc153e943048fc859a", "lon": -77.03444866666666, "type": "electric_scooter", "bike_id": "c55c360c73dfdabc153e943048fc859a", "fusion_lon": 0.0, "lat": 38.91499316666667, "fusion_lat": 0.0}, {"is_disabled": 0, "rental_uris": {"android": "https://dc.lft.to/lastmile_qr_scan", "ios": "https://dc.lft.to/lastmile_qr_scan"}, "is_reserved": 0, "name": "6392b1b511908bc551e246ea7ed627a7", "lon": -77.04026016666667, "type": "electric_scooter", "bike_id": "6392b1b511908bc551e246ea7ed627a7", "fusion_lon": 0.0, "lat": 38.92413366666667, "fusion_lat": 0.0}, {"is_disabled": 0, "rental_uris": {"android": "https://dc.lft.to/lastmile_qr_scan", "ios": "https://dc.lft.to/lastmile_qr_scan"}, "is_reserved": 0, "name": "d907df259f573d1cb558a01996b170cc", "lon": -77.00332816666666, "type": "electric_scooter", "bike_id": "d907df259f573d1cb558a01996b170cc", "fusion_lon": 0.0, "lat": 38.88315166666667, "fusion_lat": 0.0}, {"is_disabled": 0, "rental_uris": {"android": "https://dc.lft.to/lastmile_qr_scan", "ios": "https://dc.lft.to/lastmile_qr_scan"}, "is_reserved": 0, "name": "8a5ebfbee809b55e95ab57b8e934fd8a", "lon": -76.97894416666666, "type": "electric_bike", "bike_id": "8a5ebfbee809b55e95ab57b8e934fd8a", "fusion_lon": 0.0, "lat": 38.854863333333334, "fusion_lat": 0.0}, {"is_disabled": 0, "rental_uris": {"android": "https://dc.lft.to/lastmile_qr_scan", "ios": "https://dc.lft.to/lastmile_qr_scan"}, "is_reserved": 0, "name": "a0ffbb56fea29144061326cbf7966284", "lon": -76.90816816666667, "type": "electric_bike", "bike_id": "a0ffbb56fea29144061326cbf7966284", "fusion_lon": 0.0, "lat": 38.99451666666667, "fusion_lat": 0.0}, {"is_disabled": 0, "rental_uris": {"android": "https://dc.lft.to/lastmile_qr_scan", "ios": "https://dc.lft.to/lastmile_qr_scan"}, "is_reserved": 0, "name": "eac259f87e376cab200bb789f31cac4f", "lon": -77.03637133333334, "type": "electric_scooter", "bike_id": "eac259f87e376cab200bb789f31cac4f", "fusion_lon": 0.0, "lat": 38.902835333333336, "fusion_lat": 0.0}, {"is_disabled": 0, "rental_uris": {"android": "https://dc.lft.to/lastmile_qr_scan", "ios": "https://dc.lft.to/lastmile_qr_scan"}, "is_reserved": 0, "name": "90d811016d9ecfc9aa634736f4ad4871", "lon": -77.03744416666666, "type": "electric_scooter", "bike_id": "90d811016d9ecfc9aa634736f4ad4871", "fusion_lon": 0.0, "lat": 38.91195116666667, "fusion_lat": 0.0}, {"is_disabled": 0, "rental_uris": {"android": "https://dc.lft.to/lastmile_qr_scan", "ios": "https://dc.lft.to/lastmile_qr_scan"}, "is_reserved": 0, "name": "d1d78563b1ccbb42085661af472c9957", "lon": -77.01656, "type": "electric_scooter", "bike_id": "d1d78563b1ccbb42085661af472c9957", "fusion_lon": 0.0, "lat": 38.8834135, "fusion_lat": 0.0}, {"is_disabled": 0, "rental_uris": {"android": "https://dc.lft.to/lastmile_qr_scan", "ios": "https://dc.lft.to/lastmile_qr_scan"}, "is_reserved": 0, "name": "204a1bd29f5ba600d356474059d68c69", "lon": -77.02713016666667, "type": "electric_scooter", "bike_id": "204a1bd29f5ba600d356474059d68c69", "fusion_lon": 0.0, "lat": 38.8998335, "fusion_lat": 0.0}, {"is_disabled": 0, "rental_uris": {"android": "https://dc.lft.to/lastmile_qr_scan", "ios": "https://dc.lft.to/lastmile_qr_scan"}, "is_reserved": 0, "name": "928fc20a3d6901b675a1d70f0b757ffc", "lon": -77.0321155, "type": "electric_scooter", "bike_id": "928fc20a3d6901b675a1d70f0b757ffc", "fusion_lon": 0.0, "lat": 38.920099, "fusion_lat": 0.0}, {"is_disabled": 0, "rental_uris": {"android": "https://dc.lft.to/lastmile_qr_scan", "ios": "https://dc.lft.to/lastmile_qr_scan"}, "is_reserved": 0, "name": "df357211fd539d1c0003775b1624b949", "lon": -76.998578, "type": "electric_scooter", "bike_id": "df357211fd539d1c0003775b1624b949", "fusion_lon": 0.0, "lat": 38.900235, "fusion_lat": 0.0}, {"is_disabled": 0, "rental_uris": {"android": "https://dc.lft.to/lastmile_qr_scan", "ios": "https://dc.lft.to/lastmile_qr_scan"}, "is_reserved": 0, "name": "8fdd00871008856edeab59ee99d62452", "lon": -77.007652, "type": "electric_scooter", "bike_id": "8fdd00871008856edeab59ee99d62452", "fusion_lon": 0.0, "lat": 38.8711315, "fusion_lat": 0.0}, {"is_disabled": 0, "rental_uris": {"android": "https://dc.lft.to/lastmile_qr_scan", "ios": "https://dc.lft.to/lastmile_qr_scan"}, "is_reserved": 0, "name": "a5a94beb94942eba230ffd5c72bf44bf", "lon": -76.99530466666667, "type": "electric_scooter", "bike_id": "a5a94beb94942eba230ffd5c72bf44bf", "fusion_lon": 0.0, "lat": 38.862511166666664, "fusion_lat": 0.0}, {"is_disabled": 0, "rental_uris": {"android": "https://dc.lft.to/lastmile_qr_scan", "ios": "https://dc.lft.to/lastmile_qr_scan"}, "is_reserved": 0, "name": "fee6d782d54b85ddba88392d73cbdca8", "lon": -76.98336533333334, "type": "electric_scooter", "bike_id": "fee6d782d54b85ddba88392d73cbdca8", "fusion_lon": 0.0, "lat": 38.912748, "fusion_lat": 0.0}, {"is_disabled": 0, "rental_uris": {"android": "https://dc.lft.to/lastmile_qr_scan", "ios": "https://dc.lft.to/lastmile_qr_scan"}, "is_reserved": 0, "name": "0cc606568378349b739d50fccf40963d", "lon": -77.05096, "type": "electric_scooter", "bike_id": "0cc606568378349b739d50fccf40963d", "fusion_lon": 0.0, "lat": 38.92343616666667, "fusion_lat": 0.0}, {"is_disabled": 0, "rental_uris": {"android": "https://dc.lft.to/lastmile_qr_scan", "ios": "https://dc.lft.to/lastmile_qr_scan"}, "is_reserved": 0, "name": "b4967bacb275e46968de4453ddf227cb", "lon": -77.02305083333333, "type": "electric_scooter", "bike_id": "b4967bacb275e46968de4453ddf227cb", "fusion_lon": 0.0, "lat": 38.91790966666667, "fusion_lat": 0.0}, {"is_disabled": 0, "rental_uris": {"android": "https://dc.lft.to/lastmile_qr_scan", "ios": "https://dc.lft.to/lastmile_qr_scan"}, "is_reserved": 0, "name": "e85bbcea1a2601af89a336edd558bce3", "lon": -77.02168, "type": "electric_scooter", "bike_id": "e85bbcea1a2601af89a336edd558bce3", "fusion_lon": 0.0, "lat": 38.942941, "fusion_lat": 0.0}, {"is_disabled": 0, "rental_uris": {"android": "https://dc.lft.to/lastmile_qr_scan", "ios": "https://dc.lft.to/lastmile_qr_scan"}, "is_reserved": 0, "name": "f3ab363b9dbd202a032f61bb4f083f25", "lon": -77.0248825, "type": "electric_scooter", "bike_id": "f3ab363b9dbd202a032f61bb4f083f25", "fusion_lon": 0.0, "lat": 38.884888333333336, "fusion_lat": 0.0}, {"is_disabled": 0, "rental_uris": {"android": "https://dc.lft.to/lastmile_qr_scan", "ios": "https://dc.lft.to/lastmile_qr_scan"}, "is_reserved": 0, "name": "1e8a814ea89f7d4923a861a6a9939e48", "lon": -77.0331095, "type": "electric_scooter", "bike_id": "1e8a814ea89f7d4923a861a6a9939e48", "fusion_lon": 0.0, "lat": 38.91626733333333, "fusion_lat": 0.0}, {"is_disabled": 0, "rental_uris": {"android": "https://dc.lft.to/lastmile_qr_scan", "ios": "https://dc.lft.to/lastmile_qr_scan"}, "is_reserved": 0, "name": "f7cdbed03f4ddcb9ab5cf50d38302e40", "lon": -77.06619283333333, "type": "electric_scooter", "bike_id": "f7cdbed03f4ddcb9ab5cf50d38302e40", "fusion_lon": 0.0, "lat": 38.907471666666666, "fusion_lat": 0.0}, {"is_disabled": 0, "rental_uris": {"android": "https://dc.lft.to/lastmile_qr_scan", "ios": "https://dc.lft.to/lastmile_qr_scan"}, "is_reserved": 0, "name": "483e997e6beca93bf4b0453949b0434c", "lon": -76.98793066666667, "type": "electric_bike", "bike_id": "483e997e6beca93bf4b0453949b0434c", "fusion_lon": 0.0, "lat": 38.922079333333336, "fusion_lat": 0.0}, {"is_disabled": 0, "rental_uris": {"android": "https://dc.lft.to/lastmile_qr_scan", "ios": "https://dc.lft.to/lastmile_qr_scan"}, "is_reserved": 0, "name": "aec9ba61b9647d0ef54982bdc60ef581", "lon": -77.00057366666667, "type": "electric_scooter", "bike_id": "aec9ba61b9647d0ef54982bdc60ef581", "fusion_lon": 0.0, "lat": 38.92075883333333, "fusion_lat": 0.0}, {"is_disabled": 0, "rental_uris": {"android": "https://dc.lft.to/lastmile_qr_scan", "ios": "https://dc.lft.to/lastmile_qr_scan"}, "is_reserved": 0, "name": "cc60f62f22c280c6aedd9846b861a9a0", "lon": -77.0320045, "type": "electric_bike", "bike_id": "cc60f62f22c280c6aedd9846b861a9a0", "fusion_lon": 0.0, "lat": 38.923632, "fusion_lat": 0.0}, {"is_disabled": 0, "rental_uris": {"android": "https://dc.lft.to/lastmile_qr_scan", "ios": "https://dc.lft.to/lastmile_qr_scan"}, "is_reserved": 0, "name": "4d4f99bd5b9c8f8cd21066a555a21a66", "lon": -77.051202, "type": "electric_scooter", "bike_id": "4d4f99bd5b9c8f8cd21066a555a21a66", "fusion_lon": 0.0, "lat": 38.923411333333334, "fusion_lat": 0.0}, {"is_disabled": 0, "rental_uris": {"android": "https://dc.lft.to/lastmile_qr_scan", "ios": "https://dc.lft.to/lastmile_qr_scan"}, "is_reserved": 0, "name": "161a9134281306d17ba88a12bcaaa1a1", "lon": -77.132337, "type": "electric_bike", "bike_id": "161a9134281306d17ba88a12bcaaa1a1", "fusion_lon": 0.0, "lat": 38.86976083333333, "fusion_lat": 0.0}, {"is_disabled": 0, "rental_uris": {"android": "https://dc.lft.to/lastmile_qr_scan", "ios": "https://dc.lft.to/lastmile_qr_scan"}, "is_reserved": 0, "name": "5376ab810bebddfd2a9beab67e49cc2e", "lon": -77.00362366666667, "type": "electric_scooter", "bike_id": "5376ab810bebddfd2a9beab67e49cc2e", "fusion_lon": 0.0, "lat": 38.877544666666665, "fusion_lat": 0.0}, {"is_disabled": 0, "rental_uris": {"android": "https://dc.lft.to/lastmile_qr_scan", "ios": "https://dc.lft.to/lastmile_qr_scan"}, "is_reserved": 0, "name": "6c16d66718ae253d3690b17ea2f26f5d", "lon": -76.99613366666667, "type": "electric_scooter", "bike_id": "6c16d66718ae253d3690b17ea2f26f5d", "fusion_lon": 0.0, "lat": 38.90030083333333, "fusion_lat": 0.0}, {"is_disabled": 0, "rental_uris": {"android": "https://dc.lft.to/lastmile_qr_scan", "ios": "https://dc.lft.to/lastmile_qr_scan"}, "is_reserved": 0, "name": "5d44d5d7fec879de6568f1de887ce53f", "lon": -77.0055245, "type": "electric_scooter", "bike_id": "5d44d5d7fec879de6568f1de887ce53f", "fusion_lon": 0.0, "lat": 38.87894633333333, "fusion_lat": 0.0}, {"is_disabled": 0, "rental_uris": {"android": "https://dc.lft.to/lastmile_qr_scan", "ios": "https://dc.lft.to/lastmile_qr_scan"}, "is_reserved": 0, "name": "e1b2d3297a7f9872e9761d494ca0cce2", "lon": -77.02494033333333, "type": "electric_scooter", "bike_id": "e1b2d3297a7f9872e9761d494ca0cce2", "fusion_lon": 0.0, "lat": 38.9180805, "fusion_lat": 0.0}, {"is_disabled": 0, "rental_uris": {"android": "https://dc.lft.to/lastmile_qr_scan", "ios": "https://dc.lft.to/lastmile_qr_scan"}, "is_reserved": 0, "name": "e0e1cc28f4920309a083b026efe3e828", "lon": -77.02958433333333, "type": "electric_scooter", "bike_id": "e0e1cc28f4920309a083b026efe3e828", "fusion_lon": 0.0, "lat": 38.904575, "fusion_lat": 0.0}, {"is_disabled": 0, "rental_uris": {"android": "https://dc.lft.to/lastmile_qr_scan", "ios": "https://dc.lft.to/lastmile_qr_scan"}, "is_reserved": 0, "name": "5e3920fedeb109bbd073f37aba2cca81", "lon": -77.02725616666666, "type": "electric_scooter", "bike_id": "5e3920fedeb109bbd073f37aba2cca81", "fusion_lon": 0.0, "lat": 38.909609833333334, "fusion_lat": 0.0}, {"is_disabled": 0, "rental_uris": {"android": "https://dc.lft.to/lastmile_qr_scan", "ios": "https://dc.lft.to/lastmile_qr_scan"}, "is_reserved": 0, "name": "032cb2fcf3ff5031643705051551c78d", "lon": -77.0466375, "type": "electric_scooter", "bike_id": "032cb2fcf3ff5031643705051551c78d", "fusion_lon": 0.0, "lat": 38.9117715, "fusion_lat": 0.0}, {"is_disabled": 0, "rental_uris": {"android": "https://dc.lft.to/lastmile_qr_scan", "ios": "https://dc.lft.to/lastmile_qr_scan"}, "is_reserved": 0, "name": "1959ddf68f7eb2fa9c0bf8f1b1c0629d", "lon": -76.99164083333334, "type": "electric_scooter", "bike_id": "1959ddf68f7eb2fa9c0bf8f1b1c0629d", "fusion_lon": 0.0, "lat": 38.88142216666667, "fusion_lat": 0.0}, {"is_disabled": 0, "rental_uris": {"android": "https://dc.lft.to/lastmile_qr_scan", "ios": "https://dc.lft.to/lastmile_qr_scan"}, "is_reserved": 0, "name": "0a3d1bd382063f0294af889c212b43a5", "lon": -77.0154705, "type": "electric_scooter", "bike_id": "0a3d1bd382063f0294af889c212b43a5", "fusion_lon": 0.0, "lat": 38.887713, "fusion_lat": 0.0}, {"is_disabled": 0, "rental_uris": {"android": "https://dc.lft.to/lastmile_qr_scan", "ios": "https://dc.lft.to/lastmile_qr_scan"}, "is_reserved": 0, "name": "0c7806fb2f738d2c7c3a356545484311", "lon": -77.04663766666667, "type": "electric_scooter", "bike_id": "0c7806fb2f738d2c7c3a356545484311", "fusion_lon": 0.0, "lat": 38.905763, "fusion_lat": 0.0}, {"is_disabled": 0, "rental_uris": {"android": "https://dc.lft.to/lastmile_qr_scan", "ios": "https://dc.lft.to/lastmile_qr_scan"}, "is_reserved": 0, "name": "77c3dc3bcbe10eba47617ec8d96aef70", "lon": -76.96562433333334, "type": "electric_scooter", "bike_id": "77c3dc3bcbe10eba47617ec8d96aef70", "fusion_lon": 0.0, "lat": 38.9186755, "fusion_lat": 0.0}, {"is_disabled": 0, "rental_uris": {"android": "https://dc.lft.to/lastmile_qr_scan", "ios": "https://dc.lft.to/lastmile_qr_scan"}, "is_reserved": 0, "name": "f6146d17582793aaa41d375e9cd725a2", "lon": -77.0402245, "type": "electric_scooter", "bike_id": "f6146d17582793aaa41d375e9cd725a2", "fusion_lon": 0.0, "lat": 38.918022, "fusion_lat": 0.0}, {"is_disabled": 0, "rental_uris": {"android": "https://dc.lft.to/lastmile_qr_scan", "ios": "https://dc.lft.to/lastmile_qr_scan"}, "is_reserved": 0, "name": "ab767eef5c21deafc514a38e298a3258", "lon": -76.93349283333333, "type": "electric_scooter", "bike_id": "ab767eef5c21deafc514a38e298a3258", "fusion_lon": 0.0, "lat": 38.899068166666666, "fusion_lat": 0.0}, {"is_disabled": 0, "rental_uris": {"android": "https://dc.lft.to/lastmile_qr_scan", "ios": "https://dc.lft.to/lastmile_qr_scan"}, "is_reserved": 0, "name": "634160851e7a5adf626da050ad1f5e51", "lon": -77.04062133333333, "type": "electric_scooter", "bike_id": "634160851e7a5adf626da050ad1f5e51", "fusion_lon": 0.0, "lat": 38.91039683333333, "fusion_lat": 0.0}, {"is_disabled": 0, "rental_uris": {"android": "https://dc.lft.to/lastmile_qr_scan", "ios": "https://dc.lft.to/lastmile_qr_scan"}, "is_reserved": 0, "name": "df61b57cc177236efd26769a0338b537", "lon": -77.02791633333334, "type": "electric_scooter", "bike_id": "df61b57cc177236efd26769a0338b537", "fusion_lon": 0.0, "lat": 38.961323666666665, "fusion_lat": 0.0}, {"is_disabled": 0, "rental_uris": {"android": "https://dc.lft.to/lastmile_qr_scan", "ios": "https://dc.lft.to/lastmile_qr_scan"}, "is_reserved": 0, "name": "54af611f2a708f03305662fbe3e2d973", "lon": -76.93185833333334, "type": "electric_scooter", "bike_id": "54af611f2a708f03305662fbe3e2d973", "fusion_lon": 0.0, "lat": 38.89875633333333, "fusion_lat": 0.0}, {"is_disabled": 0, "rental_uris": {"android": "https://dc.lft.to/lastmile_qr_scan", "ios": "https://dc.lft.to/lastmile_qr_scan"}, "is_reserved": 0, "name": "37bb082c078a5ddf7282c8922f6faf61", "lon": -77.03860783333333, "type": "electric_scooter", "bike_id": "37bb082c078a5ddf7282c8922f6faf61", "fusion_lon": 0.0, "lat": 38.90789816666667, "fusion_lat": 0.0}, {"is_disabled": 0, "rental_uris": {"android": "https://dc.lft.to/lastmile_qr_scan", "ios": "https://dc.lft.to/lastmile_qr_scan"}, "is_reserved": 0, "name": "292a491996d70592e7ffb2cf89b4afd1", "lon": -77.05711616666666, "type": "electric_scooter", "bike_id": "292a491996d70592e7ffb2cf89b4afd1", "fusion_lon": 0.0, "lat": 38.926223666666665, "fusion_lat": 0.0}, {"is_disabled": 0, "rental_uris": {"android": "https://dc.lft.to/lastmile_qr_scan", "ios": "https://dc.lft.to/lastmile_qr_scan"}, "is_reserved": 0, "name": "3098cecb94e012b7d8c57b62bf7d8f42", "lon": -77.01984666666667, "type": "electric_scooter", "bike_id": "3098cecb94e012b7d8c57b62bf7d8f42", "fusion_lon": 0.0, "lat": 38.911925833333335, "fusion_lat": 0.0}, {"is_disabled": 0, "rental_uris": {"android": "https://dc.lft.to/lastmile_qr_scan", "ios": "https://dc.lft.to/lastmile_qr_scan"}, "is_reserved": 0, "name": "146601e521c67082cd7adcb68a9f42df", "lon": -77.02388783333333, "type": "electric_scooter", "bike_id": "146601e521c67082cd7adcb68a9f42df", "fusion_lon": 0.0, "lat": 38.905825666666665, "fusion_lat": 0.0}, {"is_disabled": 0, "rental_uris": {"android": "https://dc.lft.to/lastmile_qr_scan", "ios": "https://dc.lft.to/lastmile_qr_scan"}, "is_reserved": 0, "name": "ac60b5b30400016d6091a6f0db1f59b9", "lon": -76.95677333333333, "type": "electric_scooter", "bike_id": "ac60b5b30400016d6091a6f0db1f59b9", "fusion_lon": 0.0, "lat": 38.887669333333335, "fusion_lat": 0.0}, {"is_disabled": 0, "rental_uris": {"android": "https://dc.lft.to/lastmile_qr_scan", "ios": "https://dc.lft.to/lastmile_qr_scan"}, "is_reserved": 0, "name": "0e82d84d20efffb6bb8ddb343b215d71", "lon": -76.98149666666667, "type": "electric_bike", "bike_id": "0e82d84d20efffb6bb8ddb343b215d71", "fusion_lon": 0.0, "lat": 38.959711166666665, "fusion_lat": 0.0}, {"is_disabled": 0, "rental_uris": {"android": "https://dc.lft.to/lastmile_qr_scan", "ios": "https://dc.lft.to/lastmile_qr_scan"}, "is_reserved": 0, "name": "b36c61cd19c5d7f871286931efcf070c", "lon": -77.024628, "type": "electric_bike", "bike_id": "b36c61cd19c5d7f871286931efcf070c", "fusion_lon": 0.0, "lat": 38.9557375, "fusion_lat": 0.0}, {"is_disabled": 0, "rental_uris": {"android": "https://dc.lft.to/lastmile_qr_scan", "ios": "https://dc.lft.to/lastmile_qr_scan"}, "is_reserved": 0, "name": "81eae7825c381f859fe7f7839b2b6a0c", "lon": -77.04152283333333, "type": "electric_scooter", "bike_id": "81eae7825c381f859fe7f7839b2b6a0c", "fusion_lon": 0.0, "lat": 38.91264616666667, "fusion_lat": 0.0}, {"is_disabled": 0, "rental_uris": {"android": "https://dc.lft.to/lastmile_qr_scan", "ios": "https://dc.lft.to/lastmile_qr_scan"}, "is_reserved": 0, "name": "a419a4e9a14b97d55ea1175876c79edb", "lon": -77.02385416666667, "type": "electric_scooter", "bike_id": "a419a4e9a14b97d55ea1175876c79edb", "fusion_lon": 0.0, "lat": 38.90709433333333, "fusion_lat": 0.0}, {"is_disabled": 0, "rental_uris": {"android": "https://dc.lft.to/lastmile_qr_scan", "ios": "https://dc.lft.to/lastmile_qr_scan"}, "is_reserved": 0, "name": "92ecfc877b20ac2937db3f27e67186c2", "lon": -77.03179916666667, "type": "electric_scooter", "bike_id": "92ecfc877b20ac2937db3f27e67186c2", "fusion_lon": 0.0, "lat": 38.9192545, "fusion_lat": 0.0}, {"is_disabled": 0, "rental_uris": {"android": "https://dc.lft.to/lastmile_qr_scan", "ios": "https://dc.lft.to/lastmile_qr_scan"}, "is_reserved": 0, "name": "85724a0c7bf7eeceda18159b6afe7651", "lon": -77.031493, "type": "electric_scooter", "bike_id": "85724a0c7bf7eeceda18159b6afe7651", "fusion_lon": 0.0, "lat": 38.92721316666667, "fusion_lat": 0.0}, {"is_disabled": 0, "rental_uris": {"android": "https://dc.lft.to/lastmile_qr_scan", "ios": "https://dc.lft.to/lastmile_qr_scan"}, "is_reserved": 0, "name": "c704615745bf4d4236d86d9f13bd6f79", "lon": -76.9877895, "type": "electric_scooter", "bike_id": "c704615745bf4d4236d86d9f13bd6f79", "fusion_lon": 0.0, "lat": 38.89824733333333, "fusion_lat": 0.0}, {"is_disabled": 0, "rental_uris": {"android": "https://dc.lft.to/lastmile_qr_scan", "ios": "https://dc.lft.to/lastmile_qr_scan"}, "is_reserved": 0, "name": "2535f285ecdb39880765962c933856f2", "lon": -77.04181966666667, "type": "electric_scooter", "bike_id": "2535f285ecdb39880765962c933856f2", "fusion_lon": 0.0, "lat": 38.892312, "fusion_lat": 0.0}, {"is_disabled": 0, "rental_uris": {"android": "https://dc.lft.to/lastmile_qr_scan", "ios": "https://dc.lft.to/lastmile_qr_scan"}, "is_reserved": 0, "name": "8a72a3a67b1c28acdac1a71cf0dfd8f4", "lon": -76.98186583333333, "type": "electric_bike", "bike_id": "8a72a3a67b1c28acdac1a71cf0dfd8f4", "fusion_lon": 0.0, "lat": 38.984979333333335, "fusion_lat": 0.0}, {"is_disabled": 0, "rental_uris": {"android": "https://dc.lft.to/lastmile_qr_scan", "ios": "https://dc.lft.to/lastmile_qr_scan"}, "is_reserved": 0, "name": "98aabc205b61bca98cfc4209369010f7", "lon": -77.03410066666666, "type": "electric_scooter", "bike_id": "98aabc205b61bca98cfc4209369010f7", "fusion_lon": 0.0, "lat": 38.9192275, "fusion_lat": 0.0}, {"is_disabled": 0, "rental_uris": {"android": "https://dc.lft.to/lastmile_qr_scan", "ios": "https://dc.lft.to/lastmile_qr_scan"}, "is_reserved": 0, "name": "57538bb12310896faf396d8f546d17d9", "lon": -77.03958816666666, "type": "electric_scooter", "bike_id": "57538bb12310896faf396d8f546d17d9", "fusion_lon": 0.0, "lat": 38.8990325, "fusion_lat": 0.0}, {"is_disabled": 0, "rental_uris": {"android": "https://dc.lft.to/lastmile_qr_scan", "ios": "https://dc.lft.to/lastmile_qr_scan"}, "is_reserved": 0, "name": "c6549c35c8fa710a1a6c764df88e45c2", "lon": -77.04397083333333, "type": "electric_scooter", "bike_id": "c6549c35c8fa710a1a6c764df88e45c2", "fusion_lon": 0.0, "lat": 38.902876, "fusion_lat": 0.0}, {"is_disabled": 0, "rental_uris": {"android": "https://dc.lft.to/lastmile_qr_scan", "ios": "https://dc.lft.to/lastmile_qr_scan"}, "is_reserved": 0, "name": "9df4f73dc5f9988251a3d85a386ab833", "lon": -77.03759483333333, "type": "electric_scooter", "bike_id": "9df4f73dc5f9988251a3d85a386ab833", "fusion_lon": 0.0, "lat": 38.9291255, "fusion_lat": 0.0}, {"is_disabled": 0, "rental_uris": {"android": "https://dc.lft.to/lastmile_qr_scan", "ios": "https://dc.lft.to/lastmile_qr_scan"}, "is_reserved": 0, "name": "d5fe5ba30e153c918d5e7920e53f4780", "lon": -76.98765083333333, "type": "electric_bike", "bike_id": "d5fe5ba30e153c918d5e7920e53f4780", "fusion_lon": 0.0, "lat": 38.85783333333333, "fusion_lat": 0.0}, {"is_disabled": 0, "rental_uris": {"android": "https://dc.lft.to/lastmile_qr_scan", "ios": "https://dc.lft.to/lastmile_qr_scan"}, "is_reserved": 0, "name": "341e28b791221daa26e7b18efd3dc1c7", "lon": -76.98369333333333, "type": "electric_scooter", "bike_id": "341e28b791221daa26e7b18efd3dc1c7", "fusion_lon": 0.0, "lat": 38.895255166666665, "fusion_lat": 0.0}, {"is_disabled": 0, "rental_uris": {"android": "https://dc.lft.to/lastmile_qr_scan", "ios": "https://dc.lft.to/lastmile_qr_scan"}, "is_reserved": 0, "name": "935fb8626f0c1ae38b256997c5a91679", "lon": -77.03497283333333, "type": "electric_scooter", "bike_id": "935fb8626f0c1ae38b256997c5a91679", "fusion_lon": 0.0, "lat": 38.9169045, "fusion_lat": 0.0}, {"is_disabled": 0, "rental_uris": {"android": "https://dc.lft.to/lastmile_qr_scan", "ios": "https://dc.lft.to/lastmile_qr_scan"}, "is_reserved": 0, "name": "0b7af87b40b7dc3ee4aac3bc4809c3d4", "lon": -76.98806683333333, "type": "electric_scooter", "bike_id": "0b7af87b40b7dc3ee4aac3bc4809c3d4", "fusion_lon": 0.0, "lat": 38.900045666666664, "fusion_lat": 0.0}, {"is_disabled": 0, "rental_uris": {"android": "https://dc.lft.to/lastmile_qr_scan", "ios": "https://dc.lft.to/lastmile_qr_scan"}, "is_reserved": 0, "name": "0d17513a6d89e3e681c4dd701de49473", "lon": -77.032047, "type": "electric_scooter", "bike_id": "0d17513a6d89e3e681c4dd701de49473", "fusion_lon": 0.0, "lat": 38.93963433333333, "fusion_lat": 0.0}, {"is_disabled": 0, "rental_uris": {"android": "https://dc.lft.to/lastmile_qr_scan", "ios": "https://dc.lft.to/lastmile_qr_scan"}, "is_reserved": 0, "name": "72d87ec38bfab239ac14756bd50c2382", "lon": -77.03103183333333, "type": "electric_scooter", "bike_id": "72d87ec38bfab239ac14756bd50c2382", "fusion_lon": 0.0, "lat": 38.92576233333333, "fusion_lat": 0.0}, {"is_disabled": 0, "rental_uris": {"android": "https://dc.lft.to/lastmile_qr_scan", "ios": "https://dc.lft.to/lastmile_qr_scan"}, "is_reserved": 0, "name": "3264d5e1bac53868a3722194f7e557c9", "lon": -77.04441983333334, "type": "electric_scooter", "bike_id": "3264d5e1bac53868a3722194f7e557c9", "fusion_lon": 0.0, "lat": 38.9125415, "fusion_lat": 0.0}, {"is_disabled": 0, "rental_uris": {"android": "https://dc.lft.to/lastmile_qr_scan", "ios": "https://dc.lft.to/lastmile_qr_scan"}, "is_reserved": 0, "name": "9728c4de59e67ed6b5b0b10324d1cb09", "lon": -77.03317683333333, "type": "electric_scooter", "bike_id": "9728c4de59e67ed6b5b0b10324d1cb09", "fusion_lon": 0.0, "lat": 38.914130166666666, "fusion_lat": 0.0}, {"is_disabled": 0, "rental_uris": {"android": "https://dc.lft.to/lastmile_qr_scan", "ios": "https://dc.lft.to/lastmile_qr_scan"}, "is_reserved": 0, "name": "8eb40925a54649b886560759c4257e2d", "lon": -77.0071215, "type": "electric_scooter", "bike_id": "8eb40925a54649b886560759c4257e2d", "fusion_lon": 0.0, "lat": 38.88489883333333, "fusion_lat": 0.0}, {"is_disabled": 0, "rental_uris": {"android": "https://dc.lft.to/lastmile_qr_scan", "ios": "https://dc.lft.to/lastmile_qr_scan"}, "is_reserved": 0, "name": "705d644565babbc3247679999e3f4d3c", "lon": -77.01496166666666, "type": "electric_scooter", "bike_id": "705d644565babbc3247679999e3f4d3c", "fusion_lon": 0.0, "lat": 38.95648766666667, "fusion_lat": 0.0}, {"is_disabled": 0, "rental_uris": {"android": "https://dc.lft.to/lastmile_qr_scan", "ios": "https://dc.lft.to/lastmile_qr_scan"}, "is_reserved": 0, "name": "89268bc8982379bc7bd1bcfe9f7a0594", "lon": -77.01771166666667, "type": "electric_scooter", "bike_id": "89268bc8982379bc7bd1bcfe9f7a0594", "fusion_lon": 0.0, "lat": 38.9027865, "fusion_lat": 0.0}, {"is_disabled": 0, "rental_uris": {"android": "https://dc.lft.to/lastmile_qr_scan", "ios": "https://dc.lft.to/lastmile_qr_scan"}, "is_reserved": 0, "name": "0820609bd5e680b9585b078b47600c20", "lon": -77.01394816666667, "type": "electric_scooter", "bike_id": "0820609bd5e680b9585b078b47600c20", "fusion_lon": 0.0, "lat": 38.88029216666666, "fusion_lat": 0.0}, {"is_disabled": 0, "rental_uris": {"android": "https://dc.lft.to/lastmile_qr_scan", "ios": "https://dc.lft.to/lastmile_qr_scan"}, "is_reserved": 0, "name": "59dd8ccb6af2da9ba914003d0264e628", "lon": -77.1068315, "type": "electric_bike", "bike_id": "59dd8ccb6af2da9ba914003d0264e628", "fusion_lon": 0.0, "lat": 38.935804, "fusion_lat": 0.0}, {"is_disabled": 0, "rental_uris": {"android": "https://dc.lft.to/lastmile_qr_scan", "ios": "https://dc.lft.to/lastmile_qr_scan"}, "is_reserved": 0, "name": "0d3e09c8ee7e00caa40b2d31a32042d0", "lon": -76.98661216666666, "type": "electric_scooter", "bike_id": "0d3e09c8ee7e00caa40b2d31a32042d0", "fusion_lon": 0.0, "lat": 38.901482666666666, "fusion_lat": 0.0}, {"is_disabled": 0, "rental_uris": {"android": "https://dc.lft.to/lastmile_qr_scan", "ios": "https://dc.lft.to/lastmile_qr_scan"}, "is_reserved": 0, "name": "6d3eba8b91227573ac88dee88dcfa59d", "lon": -77.02716116666667, "type": "electric_scooter", "bike_id": "6d3eba8b91227573ac88dee88dcfa59d", "fusion_lon": 0.0, "lat": 38.906017, "fusion_lat": 0.0}, {"is_disabled": 0, "rental_uris": {"android": "https://dc.lft.to/lastmile_qr_scan", "ios": "https://dc.lft.to/lastmile_qr_scan"}, "is_reserved": 0, "name": "b80bdc6a56614088a9f5a011e4b2078b", "lon": -77.02012233333333, "type": "electric_scooter", "bike_id": "b80bdc6a56614088a9f5a011e4b2078b", "fusion_lon": 0.0, "lat": 38.89265983333333, "fusion_lat": 0.0}, {"is_disabled": 0, "rental_uris": {"android": "https://dc.lft.to/lastmile_qr_scan", "ios": "https://dc.lft.to/lastmile_qr_scan"}, "is_reserved": 0, "name": "6db8472cd5cc46470717091dbe63b20e", "lon": -77.00591133333333, "type": "electric_scooter", "bike_id": "6db8472cd5cc46470717091dbe63b20e", "fusion_lon": 0.0, "lat": 38.905809166666664, "fusion_lat": 0.0}, {"is_disabled": 0, "rental_uris": {"android": "https://dc.lft.to/lastmile_qr_scan", "ios": "https://dc.lft.to/lastmile_qr_scan"}, "is_reserved": 0, "name": "01a0e87e49996cbd70432a34f4f4c7fe", "lon": -77.00589766666667, "type": "electric_scooter", "bike_id": "01a0e87e49996cbd70432a34f4f4c7fe", "fusion_lon": 0.0, "lat": 38.91178566666667, "fusion_lat": 0.0}, {"is_disabled": 0, "rental_uris": {"android": "https://dc.lft.to/lastmile_qr_scan", "ios": "https://dc.lft.to/lastmile_qr_scan"}, "is_reserved": 0, "name": "70cfac2311b8231697e67ce017c3b593", "lon": -77.019493, "type": "electric_scooter", "bike_id": "70cfac2311b8231697e67ce017c3b593", "fusion_lon": 0.0, "lat": 38.9224905, "fusion_lat": 0.0}, {"is_disabled": 0, "rental_uris": {"android": "https://dc.lft.to/lastmile_qr_scan", "ios": "https://dc.lft.to/lastmile_qr_scan"}, "is_reserved": 0, "name": "b2be735f5e75bc0436ed3df2be5ed494", "lon": -77.02168166666667, "type": "electric_scooter", "bike_id": "b2be735f5e75bc0436ed3df2be5ed494", "fusion_lon": 0.0, "lat": 38.89497983333333, "fusion_lat": 0.0}, {"is_disabled": 0, "rental_uris": {"android": "https://dc.lft.to/lastmile_qr_scan", "ios": "https://dc.lft.to/lastmile_qr_scan"}, "is_reserved": 0, "name": "d00299ba4c8012eda52814f174dd1d80", "lon": -77.04344633333334, "type": "electric_scooter", "bike_id": "d00299ba4c8012eda52814f174dd1d80", "fusion_lon": 0.0, "lat": 38.92172266666667, "fusion_lat": 0.0}, {"is_disabled": 0, "rental_uris": {"android": "https://dc.lft.to/lastmile_qr_scan", "ios": "https://dc.lft.to/lastmile_qr_scan"}, "is_reserved": 0, "name": "d1aca0b193eda92495be531a26a5cd7e", "lon": -76.99488466666666, "type": "electric_scooter", "bike_id": "d1aca0b193eda92495be531a26a5cd7e", "fusion_lon": 0.0, "lat": 38.862375, "fusion_lat": 0.0}, {"is_disabled": 0, "rental_uris": {"android": "https://dc.lft.to/lastmile_qr_scan", "ios": "https://dc.lft.to/lastmile_qr_scan"}, "is_reserved": 0, "name": "aac4c0d927c852a75951812be6954bc1", "lon": -77.0316975, "type": "electric_scooter", "bike_id": "aac4c0d927c852a75951812be6954bc1", "fusion_lon": 0.0, "lat": 38.89180116666667, "fusion_lat": 0.0}, {"is_disabled": 0, "rental_uris": {"android": "https://dc.lft.to/lastmile_qr_scan", "ios": "https://dc.lft.to/lastmile_qr_scan"}, "is_reserved": 0, "name": "65ef63d87db632eb4977953320655605", "lon": -77.027771, "type": "electric_scooter", "bike_id": "65ef63d87db632eb4977953320655605", "fusion_lon": 0.0, "lat": 38.91018283333333, "fusion_lat": 0.0}, {"is_disabled": 0, "rental_uris": {"android": "https://dc.lft.to/lastmile_qr_scan", "ios": "https://dc.lft.to/lastmile_qr_scan"}, "is_reserved": 0, "name": "36f58c1a5a5a60b1877377967b5320ad", "lon": -76.98621366666667, "type": "electric_scooter", "bike_id": "36f58c1a5a5a60b1877377967b5320ad", "fusion_lon": 0.0, "lat": 38.8829285, "fusion_lat": 0.0}, {"is_disabled": 0, "rental_uris": {"android": "https://dc.lft.to/lastmile_qr_scan", "ios": "https://dc.lft.to/lastmile_qr_scan"}, "is_reserved": 0, "name": "a0824de82931b59d63d3787dd79d8cb0", "lon": -77.034655, "type": "electric_scooter", "bike_id": "a0824de82931b59d63d3787dd79d8cb0", "fusion_lon": 0.0, "lat": 38.9215615, "fusion_lat": 0.0}, {"is_disabled": 0, "rental_uris": {"android": "https://dc.lft.to/lastmile_qr_scan", "ios": "https://dc.lft.to/lastmile_qr_scan"}, "is_reserved": 0, "name": "37ee4b4ebf3633feba057aaf41456a4c", "lon": -77.0326725, "type": "electric_scooter", "bike_id": "37ee4b4ebf3633feba057aaf41456a4c", "fusion_lon": 0.0, "lat": 38.90720066666667, "fusion_lat": 0.0}, {"is_disabled": 0, "rental_uris": {"android": "https://dc.lft.to/lastmile_qr_scan", "ios": "https://dc.lft.to/lastmile_qr_scan"}, "is_reserved": 0, "name": "e1a8dbf27f2bcbb740f22f34d3923e9c", "lon": -77.00203266666666, "type": "electric_scooter", "bike_id": "e1a8dbf27f2bcbb740f22f34d3923e9c", "fusion_lon": 0.0, "lat": 38.9024025, "fusion_lat": 0.0}, {"is_disabled": 0, "rental_uris": {"android": "https://dc.lft.to/lastmile_qr_scan", "ios": "https://dc.lft.to/lastmile_qr_scan"}, "is_reserved": 0, "name": "bffd175d6ef25033c8bc7319a7a65142", "lon": -77.049965, "type": "electric_scooter", "bike_id": "bffd175d6ef25033c8bc7319a7a65142", "fusion_lon": 0.0, "lat": 38.8923215, "fusion_lat": 0.0}, {"is_disabled": 0, "rental_uris": {"android": "https://dc.lft.to/lastmile_qr_scan", "ios": "https://dc.lft.to/lastmile_qr_scan"}, "is_reserved": 0, "name": "22b39b3af58e87486db46d2ac479d17d", "lon": -77.021594, "type": "electric_scooter", "bike_id": "22b39b3af58e87486db46d2ac479d17d", "fusion_lon": 0.0, "lat": 38.926138333333334, "fusion_lat": 0.0}, {"is_disabled": 0, "rental_uris": {"android": "https://dc.lft.to/lastmile_qr_scan", "ios": "https://dc.lft.to/lastmile_qr_scan"}, "is_reserved": 0, "name": "aaa12ea17e74f154e1cb3bb50ef1c65e", "lon": -77.12738366666666, "type": "electric_bike", "bike_id": "aaa12ea17e74f154e1cb3bb50ef1c65e", "fusion_lon": 0.0, "lat": 38.888236166666665, "fusion_lat": 0.0}, {"is_disabled": 0, "rental_uris": {"android": "https://dc.lft.to/lastmile_qr_scan", "ios": "https://dc.lft.to/lastmile_qr_scan"}, "is_reserved": 0, "name": "a047a4484b1ce5b766c75f93277ae99f", "lon": -77.06899733333333, "type": "electric_scooter", "bike_id": "a047a4484b1ce5b766c75f93277ae99f", "fusion_lon": 0.0, "lat": 38.907886500000004, "fusion_lat": 0.0}, {"is_disabled": 0, "rental_uris": {"android": "https://dc.lft.to/lastmile_qr_scan", "ios": "https://dc.lft.to/lastmile_qr_scan"}, "is_reserved": 0, "name": "0a4d4815333324d150d28500462d6924", "lon": -76.986197, "type": "electric_scooter", "bike_id": "0a4d4815333324d150d28500462d6924", "fusion_lon": 0.0, "lat": 38.9034815, "fusion_lat": 0.0}, {"is_disabled": 0, "rental_uris": {"android": "https://dc.lft.to/lastmile_qr_scan", "ios": "https://dc.lft.to/lastmile_qr_scan"}, "is_reserved": 0, "name": "b61772a7b20518f3f119861975e0fe99", "lon": -77.037294, "type": "electric_scooter", "bike_id": "b61772a7b20518f3f119861975e0fe99", "fusion_lon": 0.0, "lat": 38.911327166666666, "fusion_lat": 0.0}, {"is_disabled": 0, "rental_uris": {"android": "https://dc.lft.to/lastmile_qr_scan", "ios": "https://dc.lft.to/lastmile_qr_scan"}, "is_reserved": 0, "name": "8847109b10ff1807a59788f4de236660", "lon": -77.0052145, "type": "electric_scooter", "bike_id": "8847109b10ff1807a59788f4de236660", "fusion_lon": 0.0, "lat": 38.87708116666667, "fusion_lat": 0.0}, {"is_disabled": 0, "rental_uris": {"android": "https://dc.lft.to/lastmile_qr_scan", "ios": "https://dc.lft.to/lastmile_qr_scan"}, "is_reserved": 0, "name": "2caa51c453c2664157d3f2edccdfc196", "lon": -77.0318535, "type": "electric_scooter", "bike_id": "2caa51c453c2664157d3f2edccdfc196", "fusion_lon": 0.0, "lat": 38.91004, "fusion_lat": 0.0}, {"is_disabled": 0, "rental_uris": {"android": "https://dc.lft.to/lastmile_qr_scan", "ios": "https://dc.lft.to/lastmile_qr_scan"}, "is_reserved": 0, "name": "77bf26fe3c8dfdd05fa818b9998fa060", "lon": -77.03179366666667, "type": "electric_scooter", "bike_id": "77bf26fe3c8dfdd05fa818b9998fa060", "fusion_lon": 0.0, "lat": 38.919137, "fusion_lat": 0.0}, {"is_disabled": 0, "rental_uris": {"android": "https://dc.lft.to/lastmile_qr_scan", "ios": "https://dc.lft.to/lastmile_qr_scan"}, "is_reserved": 0, "name": "526857801efbcc63e0cae5608af301b6", "lon": -77.03452033333333, "type": "electric_scooter", "bike_id": "526857801efbcc63e0cae5608af301b6", "fusion_lon": 0.0, "lat": 38.92540866666667, "fusion_lat": 0.0}, {"is_disabled": 0, "rental_uris": {"android": "https://dc.lft.to/lastmile_qr_scan", "ios": "https://dc.lft.to/lastmile_qr_scan"}, "is_reserved": 0, "name": "a20d7aba1911fbd5206f149c7f35a55b", "lon": -77.0006525, "type": "electric_scooter", "bike_id": "a20d7aba1911fbd5206f149c7f35a55b", "fusion_lon": 0.0, "lat": 38.90050316666667, "fusion_lat": 0.0}, {"is_disabled": 0, "rental_uris": {"android": "https://dc.lft.to/lastmile_qr_scan", "ios": "https://dc.lft.to/lastmile_qr_scan"}, "is_reserved": 0, "name": "f292cb97f85f3d5bc4f6ab43198e08bc", "lon": -76.93186533333333, "type": "electric_scooter", "bike_id": "f292cb97f85f3d5bc4f6ab43198e08bc", "fusion_lon": 0.0, "lat": 38.898762833333336, "fusion_lat": 0.0}, {"is_disabled": 0, "rental_uris": {"android": "https://dc.lft.to/lastmile_qr_scan", "ios": "https://dc.lft.to/lastmile_qr_scan"}, "is_reserved": 0, "name": "c9e3f77bd90c54572d43b321486659d7", "lon": -77.05479383333333, "type": "electric_scooter", "bike_id": "c9e3f77bd90c54572d43b321486659d7", "fusion_lon": 0.0, "lat": 38.904425833333335, "fusion_lat": 0.0}, {"is_disabled": 0, "rental_uris": {"android": "https://dc.lft.to/lastmile_qr_scan", "ios": "https://dc.lft.to/lastmile_qr_scan"}, "is_reserved": 0, "name": "ffc2830716ecbc1736411b15e01d5486", "lon": -77.02226383333333, "type": "electric_scooter", "bike_id": "ffc2830716ecbc1736411b15e01d5486", "fusion_lon": 0.0, "lat": 38.89221466666667, "fusion_lat": 0.0}, {"is_disabled": 0, "rental_uris": {"android": "https://dc.lft.to/lastmile_qr_scan", "ios": "https://dc.lft.to/lastmile_qr_scan"}, "is_reserved": 0, "name": "cadf00c4bd33393b4453936b20bd8ae2", "lon": -76.9352435, "type": "electric_scooter", "bike_id": "cadf00c4bd33393b4453936b20bd8ae2", "fusion_lon": 0.0, "lat": 38.87897066666667, "fusion_lat": 0.0}, {"is_disabled": 0, "rental_uris": {"android": "https://dc.lft.to/lastmile_qr_scan", "ios": "https://dc.lft.to/lastmile_qr_scan"}, "is_reserved": 0, "name": "c48a16a4a7db6754cae29c4708364a74", "lon": -77.02498816666666, "type": "electric_bike", "bike_id": "c48a16a4a7db6754cae29c4708364a74", "fusion_lon": 0.0, "lat": 38.974121833333335, "fusion_lat": 0.0}, {"is_disabled": 0, "rental_uris": {"android": "https://dc.lft.to/lastmile_qr_scan", "ios": "https://dc.lft.to/lastmile_qr_scan"}, "is_reserved": 0, "name": "8321b5fda8380c059240591027338b39", "lon": -77.0388085, "type": "electric_scooter", "bike_id": "8321b5fda8380c059240591027338b39", "fusion_lon": 0.0, "lat": 38.915620833333335, "fusion_lat": 0.0}, {"is_disabled": 0, "rental_uris": {"android": "https://dc.lft.to/lastmile_qr_scan", "ios": "https://dc.lft.to/lastmile_qr_scan"}, "is_reserved": 0, "name": "acae592499a9a367abe01532bc6e1c0a", "lon": -76.93357666666667, "type": "electric_scooter", "bike_id": "acae592499a9a367abe01532bc6e1c0a", "fusion_lon": 0.0, "lat": 38.9019995, "fusion_lat": 0.0}, {"is_disabled": 0, "rental_uris": {"android": "https://dc.lft.to/lastmile_qr_scan", "ios": "https://dc.lft.to/lastmile_qr_scan"}, "is_reserved": 0, "name": "5b17c84d9dcc8be7e700243df8b19e10", "lon": -76.99076266666667, "type": "electric_scooter", "bike_id": "5b17c84d9dcc8be7e700243df8b19e10", "fusion_lon": 0.0, "lat": 38.904218166666666, "fusion_lat": 0.0}, {"is_disabled": 0, "rental_uris": {"android": "https://dc.lft.to/lastmile_qr_scan", "ios": "https://dc.lft.to/lastmile_qr_scan"}, "is_reserved": 0, "name": "d2b89aed32c0fd37ed81e7d244cc80c6", "lon": -77.03782716666667, "type": "electric_bike", "bike_id": "d2b89aed32c0fd37ed81e7d244cc80c6", "fusion_lon": 0.0, "lat": 38.996794, "fusion_lat": 0.0}, {"is_disabled": 0, "rental_uris": {"android": "https://dc.lft.to/lastmile_qr_scan", "ios": "https://dc.lft.to/lastmile_qr_scan"}, "is_reserved": 0, "name": "237be6cb4b35eb4a0ebfce6925150c75", "lon": -77.09831316666667, "type": "electric_bike", "bike_id": "237be6cb4b35eb4a0ebfce6925150c75", "fusion_lon": 0.0, "lat": 38.8578395, "fusion_lat": 0.0}, {"is_disabled": 0, "rental_uris": {"android": "https://dc.lft.to/lastmile_qr_scan", "ios": "https://dc.lft.to/lastmile_qr_scan"}, "is_reserved": 0, "name": "89ff26d06f7449eea771317e2c0a01e9", "lon": -77.00199833333333, "type": "electric_scooter", "bike_id": "89ff26d06f7449eea771317e2c0a01e9", "fusion_lon": 0.0, "lat": 38.9024205, "fusion_lat": 0.0}, {"is_disabled": 0, "rental_uris": {"android": "https://dc.lft.to/lastmile_qr_scan", "ios": "https://dc.lft.to/lastmile_qr_scan"}, "is_reserved": 0, "name": "924cab90d2c243459e238849b1a625e3", "lon": -77.03095716666667, "type": "electric_scooter", "bike_id": "924cab90d2c243459e238849b1a625e3", "fusion_lon": 0.0, "lat": 38.92856716666667, "fusion_lat": 0.0}, {"is_disabled": 0, "rental_uris": {"android": "https://dc.lft.to/lastmile_qr_scan", "ios": "https://dc.lft.to/lastmile_qr_scan"}, "is_reserved": 0, "name": "4020cb49d877b83e42468258655798a1", "lon": -77.01875416666667, "type": "electric_scooter", "bike_id": "4020cb49d877b83e42468258655798a1", "fusion_lon": 0.0, "lat": 38.90039566666667, "fusion_lat": 0.0}, {"is_disabled": 0, "rental_uris": {"android": "https://dc.lft.to/lastmile_qr_scan", "ios": "https://dc.lft.to/lastmile_qr_scan"}, "is_reserved": 0, "name": "00017042b74bb52ec20a32b2f271b786", "lon": -77.04828883333333, "type": "electric_scooter", "bike_id": "00017042b74bb52ec20a32b2f271b786", "fusion_lon": 0.0, "lat": 38.9046775, "fusion_lat": 0.0}, {"is_disabled": 0, "rental_uris": {"android": "https://dc.lft.to/lastmile_qr_scan", "ios": "https://dc.lft.to/lastmile_qr_scan"}, "is_reserved": 0, "name": "2202e18fb604e0fa1e3376c7e472fb2f", "lon": -77.02127616666667, "type": "electric_scooter", "bike_id": "2202e18fb604e0fa1e3376c7e472fb2f", "fusion_lon": 0.0, "lat": 38.8874775, "fusion_lat": 0.0}, {"is_disabled": 0, "rental_uris": {"android": "https://dc.lft.to/lastmile_qr_scan", "ios": "https://dc.lft.to/lastmile_qr_scan"}, "is_reserved": 0, "name": "83da1d38cf31b0ef3ca8e48a7960259a", "lon": -77.0351185, "type": "electric_scooter", "bike_id": "83da1d38cf31b0ef3ca8e48a7960259a", "fusion_lon": 0.0, "lat": 38.9359115, "fusion_lat": 0.0}, {"is_disabled": 0, "rental_uris": {"android": "https://dc.lft.to/lastmile_qr_scan", "ios": "https://dc.lft.to/lastmile_qr_scan"}, "is_reserved": 0, "name": "3fb4da61e2199163b2fcb99569f13664", "lon": -77.02971483333333, "type": "electric_scooter", "bike_id": "3fb4da61e2199163b2fcb99569f13664", "fusion_lon": 0.0, "lat": 38.907715833333334, "fusion_lat": 0.0}, {"is_disabled": 0, "rental_uris": {"android": "https://dc.lft.to/lastmile_qr_scan", "ios": "https://dc.lft.to/lastmile_qr_scan"}, "is_reserved": 0, "name": "dc5f7bc5807d49ae573ce559e157b88c", "lon": -76.9654605, "type": "electric_scooter", "bike_id": "dc5f7bc5807d49ae573ce559e157b88c", "fusion_lon": 0.0, "lat": 38.91873183333333, "fusion_lat": 0.0}, {"is_disabled": 0, "rental_uris": {"android": "https://dc.lft.to/lastmile_qr_scan", "ios": "https://dc.lft.to/lastmile_qr_scan"}, "is_reserved": 0, "name": "56df4107623e880291d50b721c884e2b", "lon": -77.02921716666667, "type": "electric_scooter", "bike_id": "56df4107623e880291d50b721c884e2b", "fusion_lon": 0.0, "lat": 38.938758666666665, "fusion_lat": 0.0}, {"is_disabled": 0, "rental_uris": {"android": "https://dc.lft.to/lastmile_qr_scan", "ios": "https://dc.lft.to/lastmile_qr_scan"}, "is_reserved": 0, "name": "e62e216ed84d8663bce5968c783f9b51", "lon": -77.0455655, "type": "electric_scooter", "bike_id": "e62e216ed84d8663bce5968c783f9b51", "fusion_lon": 0.0, "lat": 38.91944016666667, "fusion_lat": 0.0}, {"is_disabled": 0, "rental_uris": {"android": "https://dc.lft.to/lastmile_qr_scan", "ios": "https://dc.lft.to/lastmile_qr_scan"}, "is_reserved": 0, "name": "ca0310a02c42cb6c97a851269a23a1cf", "lon": -77.043209, "type": "electric_scooter", "bike_id": "ca0310a02c42cb6c97a851269a23a1cf", "fusion_lon": 0.0, "lat": 38.90868866666667, "fusion_lat": 0.0}, {"is_disabled": 0, "rental_uris": {"android": "https://dc.lft.to/lastmile_qr_scan", "ios": "https://dc.lft.to/lastmile_qr_scan"}, "is_reserved": 0, "name": "761a972a9bd4726a90cf0c7e6125cbde", "lon": -77.03962666666666, "type": "electric_scooter", "bike_id": "761a972a9bd4726a90cf0c7e6125cbde", "fusion_lon": 0.0, "lat": 38.931512833333336, "fusion_lat": 0.0}, {"is_disabled": 0, "rental_uris": {"android": "https://dc.lft.to/lastmile_qr_scan", "ios": "https://dc.lft.to/lastmile_qr_scan"}, "is_reserved": 0, "name": "e734dbc258ae905a12517e536c0206f1", "lon": -77.0157925, "type": "electric_scooter", "bike_id": "e734dbc258ae905a12517e536c0206f1", "fusion_lon": 0.0, "lat": 38.876624666666665, "fusion_lat": 0.0}, {"is_disabled": 0, "rental_uris": {"android": "https://dc.lft.to/lastmile_qr_scan", "ios": "https://dc.lft.to/lastmile_qr_scan"}, "is_reserved": 0, "name": "289c6706b55dd23113fa6e355906c05b", "lon": -77.059751, "type": "electric_scooter", "bike_id": "289c6706b55dd23113fa6e355906c05b", "fusion_lon": 0.0, "lat": 38.9052575, "fusion_lat": 0.0}, {"is_disabled": 0, "rental_uris": {"android": "https://dc.lft.to/lastmile_qr_scan", "ios": "https://dc.lft.to/lastmile_qr_scan"}, "is_reserved": 0, "name": "7d1b6907e978376018558f2ba15e93ac", "lon": -76.93413783333334, "type": "electric_bike", "bike_id": "7d1b6907e978376018558f2ba15e93ac", "fusion_lon": 0.0, "lat": 38.946244, "fusion_lat": 0.0}, {"is_disabled": 0, "rental_uris": {"android": "https://dc.lft.to/lastmile_qr_scan", "ios": "https://dc.lft.to/lastmile_qr_scan"}, "is_reserved": 0, "name": "734dce6f28ac2d503e6249cba11a57e6", "lon": -77.03733633333333, "type": "electric_scooter", "bike_id": "734dce6f28ac2d503e6249cba11a57e6", "fusion_lon": 0.0, "lat": 38.909759, "fusion_lat": 0.0}, {"is_disabled": 0, "rental_uris": {"android": "https://dc.lft.to/lastmile_qr_scan", "ios": "https://dc.lft.to/lastmile_qr_scan"}, "is_reserved": 0, "name": "5384c3521e5630c32f95f4e5ef7d9089", "lon": -77.02845883333333, "type": "electric_scooter", "bike_id": "5384c3521e5630c32f95f4e5ef7d9089", "fusion_lon": 0.0, "lat": 38.93413266666667, "fusion_lat": 0.0}, {"is_disabled": 0, "rental_uris": {"android": "https://dc.lft.to/lastmile_qr_scan", "ios": "https://dc.lft.to/lastmile_qr_scan"}, "is_reserved": 0, "name": "160c0b5884384fded36333b4fb4fe441", "lon": -77.01255883333333, "type": "electric_scooter", "bike_id": "160c0b5884384fded36333b4fb4fe441", "fusion_lon": 0.0, "lat": 38.876295999999996, "fusion_lat": 0.0}, {"is_disabled": 0, "rental_uris": {"android": "https://dc.lft.to/lastmile_qr_scan", "ios": "https://dc.lft.to/lastmile_qr_scan"}, "is_reserved": 0, "name": "a021ded7da4b91bc25d1a13d9dac2dfb", "lon": -77.02931466666666, "type": "electric_scooter", "bike_id": "a021ded7da4b91bc25d1a13d9dac2dfb", "fusion_lon": 0.0, "lat": 38.882178, "fusion_lat": 0.0}, {"is_disabled": 0, "rental_uris": {"android": "https://dc.lft.to/lastmile_qr_scan", "ios": "https://dc.lft.to/lastmile_qr_scan"}, "is_reserved": 0, "name": "aff1ff604b0adcf805bc3b472c75b16b", "lon": -77.038594, "type": "electric_scooter", "bike_id": "aff1ff604b0adcf805bc3b472c75b16b", "fusion_lon": 0.0, "lat": 38.917151833333335, "fusion_lat": 0.0}, {"is_disabled": 0, "rental_uris": {"android": "https://dc.lft.to/lastmile_qr_scan", "ios": "https://dc.lft.to/lastmile_qr_scan"}, "is_reserved": 0, "name": "43085ffde5a39351c4526da91fd521ce", "lon": -77.04189233333334, "type": "electric_scooter", "bike_id": "43085ffde5a39351c4526da91fd521ce", "fusion_lon": 0.0, "lat": 38.916705666666665, "fusion_lat": 0.0}, {"is_disabled": 0, "rental_uris": {"android": "https://dc.lft.to/lastmile_qr_scan", "ios": "https://dc.lft.to/lastmile_qr_scan"}, "is_reserved": 0, "name": "25f0c87137ae72a3904e82fb5bf69bf4", "lon": -77.04320233333333, "type": "electric_bike", "bike_id": "25f0c87137ae72a3904e82fb5bf69bf4", "fusion_lon": 0.0, "lat": 38.8312585, "fusion_lat": 0.0}, {"is_disabled": 0, "rental_uris": {"android": "https://dc.lft.to/lastmile_qr_scan", "ios": "https://dc.lft.to/lastmile_qr_scan"}, "is_reserved": 0, "name": "65049be156b321c5ffbb960383618e7f", "lon": -77.02941516666667, "type": "electric_scooter", "bike_id": "65049be156b321c5ffbb960383618e7f", "fusion_lon": 0.0, "lat": 38.9171465, "fusion_lat": 0.0}, {"is_disabled": 0, "rental_uris": {"android": "https://dc.lft.to/lastmile_qr_scan", "ios": "https://dc.lft.to/lastmile_qr_scan"}, "is_reserved": 0, "name": "cc16bb069fd462de6a67f4b64d8ecd1e", "lon": -77.03447583333333, "type": "electric_scooter", "bike_id": "cc16bb069fd462de6a67f4b64d8ecd1e", "fusion_lon": 0.0, "lat": 38.906602666666664, "fusion_lat": 0.0}, {"is_disabled": 0, "rental_uris": {"android": "https://dc.lft.to/lastmile_qr_scan", "ios": "https://dc.lft.to/lastmile_qr_scan"}, "is_reserved": 0, "name": "d0fd9285b50c2000e2679d3efb45b5db", "lon": -77.03999833333333, "type": "electric_scooter", "bike_id": "d0fd9285b50c2000e2679d3efb45b5db", "fusion_lon": 0.0, "lat": 38.918108, "fusion_lat": 0.0}, {"is_disabled": 0, "rental_uris": {"android": "https://dc.lft.to/lastmile_qr_scan", "ios": "https://dc.lft.to/lastmile_qr_scan"}, "is_reserved": 0, "name": "00e5f0c136f352ab100db71af39c0e9a", "lon": -77.0319705, "type": "electric_scooter", "bike_id": "00e5f0c136f352ab100db71af39c0e9a", "fusion_lon": 0.0, "lat": 38.90653533333333, "fusion_lat": 0.0}, {"is_disabled": 0, "rental_uris": {"android": "https://dc.lft.to/lastmile_qr_scan", "ios": "https://dc.lft.to/lastmile_qr_scan"}, "is_reserved": 0, "name": "feb78aeaa3edc6b7f938bcad8d3ca0f6", "lon": -77.02968283333334, "type": "electric_scooter", "bike_id": "feb78aeaa3edc6b7f938bcad8d3ca0f6", "fusion_lon": 0.0, "lat": 38.89838666666667, "fusion_lat": 0.0}, {"is_disabled": 0, "rental_uris": {"android": "https://dc.lft.to/lastmile_qr_scan", "ios": "https://dc.lft.to/lastmile_qr_scan"}, "is_reserved": 0, "name": "b541558b63500e30059bd8310a9a4996", "lon": -76.98850816666666, "type": "electric_scooter", "bike_id": "b541558b63500e30059bd8310a9a4996", "fusion_lon": 0.0, "lat": 38.885845333333336, "fusion_lat": 0.0}, {"is_disabled": 0, "rental_uris": {"android": "https://dc.lft.to/lastmile_qr_scan", "ios": "https://dc.lft.to/lastmile_qr_scan"}, "is_reserved": 0, "name": "3e17e8feab688bc2d8681eeaf5492b62", "lon": -77.02687033333333, "type": "electric_scooter", "bike_id": "3e17e8feab688bc2d8681eeaf5492b62", "fusion_lon": 0.0, "lat": 38.902365, "fusion_lat": 0.0}, {"is_disabled": 0, "rental_uris": {"android": "https://dc.lft.to/lastmile_qr_scan", "ios": "https://dc.lft.to/lastmile_qr_scan"}, "is_reserved": 0, "name": "fa0834482727fbde198de9f9b9080246", "lon": -77.01298316666667, "type": "electric_scooter", "bike_id": "fa0834482727fbde198de9f9b9080246", "fusion_lon": 0.0, "lat": 38.8998665, "fusion_lat": 0.0}, {"is_disabled": 0, "rental_uris": {"android": "https://dc.lft.to/lastmile_qr_scan", "ios": "https://dc.lft.to/lastmile_qr_scan"}, "is_reserved": 0, "name": "2c7a876eddee9a2a46ef0d0fab737f10", "lon": -76.9652215, "type": "electric_scooter", "bike_id": "2c7a876eddee9a2a46ef0d0fab737f10", "fusion_lon": 0.0, "lat": 38.85078583333333, "fusion_lat": 0.0}, {"is_disabled": 0, "rental_uris": {"android": "https://dc.lft.to/lastmile_qr_scan", "ios": "https://dc.lft.to/lastmile_qr_scan"}, "is_reserved": 0, "name": "4c2bd00dd8eaec1fb5031c092026f0ae", "lon": -77.03812916666666, "type": "electric_scooter", "bike_id": "4c2bd00dd8eaec1fb5031c092026f0ae", "fusion_lon": 0.0, "lat": 38.90971533333333, "fusion_lat": 0.0}, {"is_disabled": 0, "rental_uris": {"android": "https://dc.lft.to/lastmile_qr_scan", "ios": "https://dc.lft.to/lastmile_qr_scan"}, "is_reserved": 0, "name": "30ad2f4674ed95b0521aa5581f7d5245", "lon": -77.00755683333334, "type": "electric_scooter", "bike_id": "30ad2f4674ed95b0521aa5581f7d5245", "fusion_lon": 0.0, "lat": 38.9102665, "fusion_lat": 0.0}, {"is_disabled": 0, "rental_uris": {"android": "https://dc.lft.to/lastmile_qr_scan", "ios": "https://dc.lft.to/lastmile_qr_scan"}, "is_reserved": 0, "name": "1d4981747203b97a41da3550f9f07678", "lon": -77.00862483333333, "type": "electric_bike", "bike_id": "1d4981747203b97a41da3550f9f07678", "fusion_lon": 0.0, "lat": 38.827303666666666, "fusion_lat": 0.0}, {"is_disabled": 0, "rental_uris": {"android": "https://dc.lft.to/lastmile_qr_scan", "ios": "https://dc.lft.to/lastmile_qr_scan"}, "is_reserved": 0, "name": "26f820f1652da55609accd27d0c1cc7f", "lon": -77.02690783333334, "type": "electric_scooter", "bike_id": "26f820f1652da55609accd27d0c1cc7f", "fusion_lon": 0.0, "lat": 38.911333, "fusion_lat": 0.0}, {"is_disabled": 0, "rental_uris": {"android": "https://dc.lft.to/lastmile_qr_scan", "ios": "https://dc.lft.to/lastmile_qr_scan"}, "is_reserved": 0, "name": "83098a1d9995fce9bd88001c075dcd48", "lon": -76.98337816666667, "type": "electric_scooter", "bike_id": "83098a1d9995fce9bd88001c075dcd48", "fusion_lon": 0.0, "lat": 38.8955005, "fusion_lat": 0.0}, {"is_disabled": 0, "rental_uris": {"android": "https://dc.lft.to/lastmile_qr_scan", "ios": "https://dc.lft.to/lastmile_qr_scan"}, "is_reserved": 0, "name": "d8167f29b137ccf280dbe69ee77f4fed", "lon": -77.01748416666666, "type": "electric_scooter", "bike_id": "d8167f29b137ccf280dbe69ee77f4fed", "fusion_lon": 0.0, "lat": 38.87719166666667, "fusion_lat": 0.0}, {"is_disabled": 0, "rental_uris": {"android": "https://dc.lft.to/lastmile_qr_scan", "ios": "https://dc.lft.to/lastmile_qr_scan"}, "is_reserved": 0, "name": "ccc0d135884c59a345f576896fe20d5f", "lon": -77.04152466666666, "type": "electric_scooter", "bike_id": "ccc0d135884c59a345f576896fe20d5f", "fusion_lon": 0.0, "lat": 38.90153266666667, "fusion_lat": 0.0}, {"is_disabled": 0, "rental_uris": {"android": "https://dc.lft.to/lastmile_qr_scan", "ios": "https://dc.lft.to/lastmile_qr_scan"}, "is_reserved": 0, "name": "88f0b2eb193c55d3554deeb431d77827", "lon": -77.05329483333334, "type": "electric_scooter", "bike_id": "88f0b2eb193c55d3554deeb431d77827", "fusion_lon": 0.0, "lat": 38.9231375, "fusion_lat": 0.0}, {"is_disabled": 0, "rental_uris": {"android": "https://dc.lft.to/lastmile_qr_scan", "ios": "https://dc.lft.to/lastmile_qr_scan"}, "is_reserved": 0, "name": "f20782ae0aea3905be7b0acd6bbbfc99", "lon": -77.005962, "type": "electric_scooter", "bike_id": "f20782ae0aea3905be7b0acd6bbbfc99", "fusion_lon": 0.0, "lat": 38.87658883333334, "fusion_lat": 0.0}, {"is_disabled": 0, "rental_uris": {"android": "https://dc.lft.to/lastmile_qr_scan", "ios": "https://dc.lft.to/lastmile_qr_scan"}, "is_reserved": 0, "name": "2beaad0714935b3fb57813bd3bd480e1", "lon": -77.026695, "type": "electric_scooter", "bike_id": "2beaad0714935b3fb57813bd3bd480e1", "fusion_lon": 0.0, "lat": 38.912705833333334, "fusion_lat": 0.0}, {"is_disabled": 0, "rental_uris": {"android": "https://dc.lft.to/lastmile_qr_scan", "ios": "https://dc.lft.to/lastmile_qr_scan"}, "is_reserved": 0, "name": "dbd1bbcb35c78fa31f1be1b66965517e", "lon": -76.95463083333334, "type": "electric_bike", "bike_id": "dbd1bbcb35c78fa31f1be1b66965517e", "fusion_lon": 0.0, "lat": 38.93566416666667, "fusion_lat": 0.0}, {"is_disabled": 0, "rental_uris": {"android": "https://dc.lft.to/lastmile_qr_scan", "ios": "https://dc.lft.to/lastmile_qr_scan"}, "is_reserved": 0, "name": "5f9a33b3b79b8c2eeeca971140405898", "lon": -77.03489, "type": "electric_scooter", "bike_id": "5f9a33b3b79b8c2eeeca971140405898", "fusion_lon": 0.0, "lat": 38.9079475, "fusion_lat": 0.0}, {"is_disabled": 0, "rental_uris": {"android": "https://dc.lft.to/lastmile_qr_scan", "ios": "https://dc.lft.to/lastmile_qr_scan"},