{"data": {"bikes": [{"type": "electric_scooter", "name": "dec6dd8861433ade8e99276ff7ca6599", "lat": 38.9166645, "fusion_lat": 0.0, "bike_id": "dec6dd8861433ade8e99276ff7ca6599", "is_reserved": 0, "lon": -77.0270555, "is_disabled": 0, "fusion_lon": 0.0, "rental_uris": {"android": "https://dc.lft.to/lastmile_qr_scan", "ios": "https://dc.lft.to/lastmile_qr_scan"}}, {"type": "electric_scooter", "name": "f6a1fc050c1a412ee51be23ff4f5cbef", "lat": 38.967417166666664, "fusion_lat": 0.0, "bike_id": "f6a1fc050c1a412ee51be23ff4f5cbef", "is_reserved": 0, "lon": -77.008635, "is_disabled": 0, "fusion_lon": 0.0, "rental_uris": {"android": "https://dc.lft.to/lastmile_qr_scan", "ios": "https://dc.lft.to/lastmile_qr_scan"}}, {"type": "electric_scooter", "name": "cdfcff9adfd9ca7aac6d104500d4fcda", "lat": 38.90280333333333, "fusion_lat": 0.0, "bike_id": "cdfcff9adfd9ca7aac6d104500d4fcda", "is_reserved": 0, "lon": -77.0399355, "is_disabled": 0, "fusion_lon": 0.0, "rental_uris": {"android": "https://dc.lft.to/lastmile_qr_scan", "ios": "https://dc.lft.to/lastmile_qr_scan"}}, {"type": "electric_bike", "name": "5dbbf02308f307e1f6c507c8929f473e", "lat": 38.85509066666667, "fusion_lat": 0.0, "bike_id": "5dbbf02308f307e1f6c507c8929f473e", "is_reserved": 0, "lon": -77.120385, "is_disabled": 0, "fusion_lon": 0.0, "rental_uris": {"android": "https://dc.lft.to/lastmile_qr_scan", "ios": "https://dc.lft.to/lastmile_qr_scan"}}, {"type": "electric_scooter", "name": "b5ddbdb9c71172fe035649f451690f95", "lat": 38.9255185, "fusion_lat": 0.0, "bike_id": "b5ddbdb9c71172fe035649f451690f95", "is_reserved": 0, "lon": -77.03807466666666, "is_disabled": 0, "fusion_lon": 0.0, "rental_uris": {"android": "https://dc.lft.to/lastmile_qr_scan", "ios": "https://dc.lft.to/lastmile_qr_scan"}}, {"type": "electric_scooter", "name": "02a258cebd96c7f7687fc34dc49331a5", "lat": 38.919216166666665, "fusion_lat": 0.0, "bike_id": "02a258cebd96c7f7687fc34dc49331a5", "is_reserved": 0, "lon": -77.0320835, "is_disabled": 0, "fusion_lon": 0.0, "rental_uris": {"android": "https://dc.lft.to/lastmile_qr_scan", "ios": "https://dc.lft.to/lastmile_qr_scan"}}, {"type": "electric_bike", "name": "13d914de63ac49e4170a1ea0e6db1e5b", "lat": 38.85786233333333, "fusion_lat": 0.0, "bike_id": "13d914de63ac49e4170a1ea0e6db1e5b", "is_reserved": 0, "lon": -77.1202245, "is_disabled": 0, "fusion_lon": 0.0, "rental_uris": {"android": "https://dc.lft.to/lastmile_qr_scan", "ios": "https://dc.lft.to/lastmile_qr_scan"}}, {"type": "electric_bike", "name": "58db64f526a4eecd608e347e93f20059", "lat": 38.8552885, "fusion_lat": 0.0, "bike_id": "58db64f526a4eecd608e347e93f20059", "is_reserved": 0, "lon": -77.1140455, "is_disabled": 0, "fusion_lon": 0.0, "rental_uris": {"android": "https://dc.lft.to/lastmile_qr_scan", "ios": "https://dc.lft.to/lastmile_qr_scan"}}, {"type": "electric_scooter", "name": "7ddcbde412078682c3d69f02e5e91112", "lat": 38.89820366666667, "fusion_lat": 0.0, "bike_id": "7ddcbde412078682c3d69f02e5e91112", "is_reserved": 0, "lon": -77.03315083333334, "is_disabled": 0, "fusion_lon": 0.0, "rental_uris": {"android": "https://dc.lft.to/lastmile_qr_scan", "ios": "https://dc.lft.to/lastmile_qr_scan"}}, {"type": "electric_scooter", "name": "70b36d66546666259aa4d7e423af753b", "lat": 38.8920675, "fusion_lat": 0.0, "bike_id": "70b36d66546666259aa4d7e423af753b", "is_reserved": 0, "lon": -76.956949, "is_disabled": 0, "fusion_lon": 0.0, "rental_uris": {"android": "https://dc.lft.to/lastmile_qr_scan", "ios": "https://dc.lft.to/lastmile_qr_scan"}}, {"type": "electric_scooter", "name": "ee00c29694745c72f69a99d4649aedd8", "lat": 38.91351233333334, "fusion_lat": 0.0, "bike_id": "ee00c29694745c72f69a99d4649aedd8", "is_reserved": 0, "lon": -77.044016, "is_disabled": 0, "fusion_lon": 0.0, "rental_uris": {"android": "https://dc.lft.to/lastmile_qr_scan", "ios": "https://dc.lft.to/lastmile_qr_scan"}}, {"type": "electric_scooter", "name": "1fd2d211c8e11c4fc903ebcde6003b01", "lat": 38.940688, "fusion_lat": 0.0, "bike_id": "1fd2d211c8e11c4fc903ebcde6003b01", "is_reserved": 0, "lon": -76.99938633333333, "is_disabled": 0, "fusion_lon": 0.0, "rental_uris": {"android": "https://dc.lft.to/lastmile_qr_scan", "ios": "https://dc.lft.to/lastmile_qr_scan"}}, {"type": "electric_scooter", "name": "a0b31b872c23bd39171d28e0babd287b", "lat": 38.92048583333333, "fusion_lat": 0.0, "bike_id": "a0b31b872c23bd39171d28e0babd287b", "is_reserved": 0, "lon": -77.02573566666666, "is_disabled": 0, "fusion_lon": 0.0, "rental_uris": {"android": "https://dc.lft.to/lastmile_qr_scan", "ios": "https://dc.lft.to/lastmile_qr_scan"}}, {"type": "electric_bike", "name": "ff602af8d3bc56259a848ab85c196133", "lat": 38.992253833333336, "fusion_lat": 0.0, "bike_id": "ff602af8d3bc56259a848ab85c196133", "is_reserved": 0, "lon": -76.94421216666667, "is_disabled": 0, "fusion_lon": 0.0, "rental_uris": {"android": "https://dc.lft.to/lastmile_qr_scan", "ios": "https://dc.lft.to/lastmile_qr_scan"}}, {"type": "electric_scooter", "name": "bea6c85605d5f04e403e8826078dd186", "lat": 38.8956925, "fusion_lat": 0.0, "bike_id": "bea6c85605d5f04e403e8826078dd186", "is_reserved": 0, "lon": -77.0256335, "is_disabled": 0, "fusion_lon": 0.0, "rental_uris": {"android": "https://dc.lft.to/lastmile_qr_scan", "ios": "https://dc.lft.to/lastmile_qr_scan"}}, {"type": "electric_scooter", "name": "386e97ab40735b30bba712cdeb50b852", "lat": 38.92140766666667, "fusion_lat": 0.0, "bike_id": "386e97ab40735b30bba712cdeb50b852", "is_reserved": 0, "lon": -77.01168233333334, "is_disabled": 0, "fusion_lon": 0.0, "rental_uris": {"android": "https://dc.lft.to/lastmile_qr_scan", "ios": "https://dc.lft.to/lastmile_qr_scan"}}, {"type": "electric_scooter", "name": "9a8cb869d6bcf8a4eb6dc06e10096aef", "lat": 38.8767165, "fusion_lat": 0.0, "bike_id": "9a8cb869d6bcf8a4eb6dc06e10096aef", "is_reserved": 0, "lon": -77.00238183333333, "is_disabled": 0, "fusion_lon": 0.0, "rental_uris": {"android": "https://dc.lft.to/lastmile_qr_scan", "ios": "https://dc.lft.to/lastmile_qr_scan"}}, {"type": "electric_scooter", "name": "8723fe944d9facd510710ccfef54ab60", "lat": 38.900348, "fusion_lat": 0.0, "bike_id": "8723fe944d9facd510710ccfef54ab60", "is_reserved": 0, "lon": -77.01165683333333, "is_disabled": 0, "fusion_lon": 0.0, "rental_uris": {"android": "https://dc.lft.to/lastmile_qr_scan", "ios": "https://dc.lft.to/lastmile_qr_scan"}}, {"type": "electric_scooter", "name": "05cca815f97461a8aea83ed81201a283", "lat": 38.905799333333334, "fusion_lat": 0.0, "bike_id": "05cca815f97461a8aea83ed81201a283", "is_reserved": 0, "lon": -77.02207233333333, "is_disabled": 0, "fusion_lon": 0.0, "rental_uris": {"android": "https://dc.lft.to/lastmile_qr_scan", "ios": "https://dc.lft.to/lastmile_qr_scan"}}, {"type": "electric_scooter", "name": "51e56868eb5c616f7f78f90be90a1d16", "lat": 38.9419295, "fusion_lat": 0.0, "bike_id": "51e56868eb5c616f7f78f90be90a1d16", "is_reserved": 0, "lon": -77.03840683333334, "is_disabled": 0, "fusion_lon": 0.0, "rental_uris": {"android": "https://dc.lft.to/lastmile_qr_scan", "ios": "https://dc.lft.to/lastmile_qr_scan"}}, {"type": "electric_scooter", "name": "1b9152b6c5fb0f2b07d15f3064699296", "lat": 38.92248583333333, "fusion_lat": 0.0, "bike_id": "1b9152b6c5fb0f2b07d15f3064699296", "is_reserved": 0, "lon": -77.01947733333333, "is_disabled": 0, "fusion_lon": 0.0, "rental_uris": {"android": "https://dc.lft.to/lastmile_qr_scan", "ios": "https://dc.lft.to/lastmile_qr_scan"}}, {"type": "electric_scooter", "name": "8343c98aba04916c505c63d9069d8e2f", "lat": 38.926858333333335, "fusion_lat": 0.0, "bike_id": "8343c98aba04916c505c63d9069d8e2f", "is_reserved": 0, "lon": -77.01545866666666, "is_disabled": 0, "fusion_lon": 0.0, "rental_uris": {"android": "https://dc.lft.to/lastmile_qr_scan", "ios": "https://dc.lft.to/lastmile_qr_scan"}}, {"type": "electric_scooter", "name": "1a551583ea50113adac8d290bca99519", "lat": 38.902656666666665, "fusion_lat": 0.0, "bike_id": "1a551583ea50113adac8d290bca99519", "is_reserved": 0, "lon": -77.02739966666667, "is_disabled": 0, "fusion_lon": 0.0, "rental_uris": {"android": "https://dc.lft.to/lastmile_qr_scan", "ios": "https://dc.lft.to/lastmile_qr_scan"}}, {"type": "electric_scooter", "name": "36e5d9c44384b1074b2d8457fd8039c2", "lat": 38.90285166666666, "fusion_lat": 0.0, "bike_id": "36e5d9c44384b1074b2d8457fd8039c2", "is_reserved": 0, "lon": -77.03849016666666, "is_disabled": 0, "fusion_lon": 0.0, "rental_uris": {"android": "https://dc.lft.to/lastmile_qr_scan", "ios": "https://dc.lft.to/lastmile_qr_scan"}}, {"type": "electric_scooter", "name": "62d9aed9b2125ef3d4cf5cda653887b1", "lat": 38.908692, "fusion_lat": 0.0, "bike_id": "62d9aed9b2125ef3d4cf5cda653887b1", "is_reserved": 0, "lon": -77.0473415, "is_disabled": 0, "fusion_lon": 0.0, "rental_uris": {"android": "https://dc.lft.to/lastmile_qr_scan", "ios": "https://dc.lft.to/lastmile_qr_scan"}}, {"type": "electric_scooter", "name": "22aaa1a266b086f01ea4e5b6790a2867", "lat": 38.89359533333333, "fusion_lat": 0.0, "bike_id": "22aaa1a266b086f01ea4e5b6790a2867", "is_reserved": 0, "lon": -77.02844783333333, "is_disabled": 0, "fusion_lon": 0.0, "rental_uris": {"android": "https://dc.lft.to/lastmile_qr_scan", "ios": "https://dc.lft.to/lastmile_qr_scan"}}, {"type": "electric_scooter", "name": "6eaad593723040f0f1a52d6bd2ce5b02", "lat": 38.9025795, "fusion_lat": 0.0, "bike_id": "6eaad593723040f0f1a52d6bd2ce5b02", "is_reserved": 0, "lon": -77.0081755, "is_disabled": 0, "fusion_lon": 0.0, "rental_uris": {"android": "https://dc.lft.to/lastmile_qr_scan", "ios": "https://dc.lft.to/lastmile_qr_scan"}}, {"type": "electric_scooter", "name": "7d081a85da3010668e73f86ee2184be0", "lat": 38.921809333333336, "fusion_lat": 0.0, "bike_id": "7d081a85da3010668e73f86ee2184be0", "is_reserved": 0, "lon": -77.0469745, "is_disabled": 0, "fusion_lon": 0.0, "rental_uris": {"android": "https://dc.lft.to/lastmile_qr_scan", "ios": "https://dc.lft.to/lastmile_qr_scan"}}, {"type": "electric_scooter", "name": "3912a0219e16d913b4730f03e434cd97", "lat": 38.90495883333333, "fusion_lat": 0.0, "bike_id": "3912a0219e16d913b4730f03e434cd97", "is_reserved": 0, "lon": -77.040645, "is_disabled": 0, "fusion_lon": 0.0, "rental_uris": {"android": "https://dc.lft.to/lastmile_qr_scan", "ios": "https://dc.lft.to/lastmile_qr_scan"}}, {"type": "electric_scooter", "name": "2af2188e2b007da3a73dec38b3c80684", "lat": 38.8999125, "fusion_lat": 0.0, "bike_id": "2af2188e2b007da3a73dec38b3c80684", "is_reserved": 0, "lon": -77.0273075, "is_disabled": 0, "fusion_lon": 0.0, "rental_uris": {"android": "https://dc.lft.to/lastmile_qr_scan", "ios": "https://dc.lft.to/lastmile_qr_scan"}}, {"type": "electric_scooter", "name": "6d64e322526541f228b38ca0debec4ff", "lat": 38.922908166666666, "fusion_lat": 0.0, "bike_id": "6d64e322526541f228b38ca0debec4ff", "is_reserved": 0, "lon": -77.03678816666667, "is_disabled": 0, "fusion_lon": 0.0, "rental_uris": {"android": "https://dc.lft.to/lastmile_qr_scan", "ios": "https://dc.lft.to/lastmile_qr_scan"}}, {"type": "electric_scooter", "name": "47fe2c5a4aec32b646bdfa6f3d568d0f", "lat": 38.9368775, "fusion_lat": 0.0, "bike_id": "47fe2c5a4aec32b646bdfa6f3d568d0f", "is_reserved": 0, "lon": -77.0328405, "is_disabled": 0, "fusion_lon": 0.0, "rental_uris": {"android": "https://dc.lft.to/lastmile_qr_scan", "ios": "https://dc.lft.to/lastmile_qr_scan"}}, {"type": "electric_scooter", "name": "014fdf541dfd92d61827d7848b2a5398", "lat": 38.92602816666667, "fusion_lat": 0.0, "bike_id": "014fdf541dfd92d61827d7848b2a5398", "is_reserved": 0, "lon": -77.02152116666667, "is_disabled": 0, "fusion_lon": 0.0, "rental_uris": {"android": "https://dc.lft.to/lastmile_qr_scan", "ios": "https://dc.lft.to/lastmile_qr_scan"}}, {"type": "electric_scooter", "name": "613a45cd8531899c1631fda68123bac8", "lat": 38.86504883333333, "fusion_lat": 0.0, "bike_id": "613a45cd8531899c1631fda68123bac8", "is_reserved": 0, "lon": -76.9900085, "is_disabled": 0, "fusion_lon": 0.0, "rental_uris": {"android": "https://dc.lft.to/lastmile_qr_scan", "ios": "https://dc.lft.to/lastmile_qr_scan"}}, {"type": "electric_scooter", "name": "522e3b5d27bc8362aa6622a5f66801ee", "lat": 38.90036633333333, "fusion_lat": 0.0, "bike_id": "522e3b5d27bc8362aa6622a5f66801ee", "is_reserved": 0, "lon": -76.988259, "is_disabled": 0, "fusion_lon": 0.0, "rental_uris": {"android": "https://dc.lft.to/lastmile_qr_scan", "ios": "https://dc.lft.to/lastmile_qr_scan"}}, {"type": "electric_scooter", "name": "9bf6333c3c558691b417ed470e9c12a2", "lat": 38.903740666666664, "fusion_lat": 0.0, "bike_id": "9bf6333c3c558691b417ed470e9c12a2", "is_reserved": 0, "lon": -77.03193, "is_disabled": 0, "fusion_lon": 0.0, "rental_uris": {"android": "https://dc.lft.to/lastmile_qr_scan", "ios": "https://dc.lft.to/lastmile_qr_scan"}}, {"type": "electric_bike", "name": "c387cce6ba1a5ade994c4afd91cb794d", "lat": 38.8852045, "fusion_lat": 0.0, "bike_id": "c387cce6ba1a5ade994c4afd91cb794d", "is_reserved": 0, "lon": -76.95156616666667, "is_disabled": 0, "fusion_lon": 0.0, "rental_uris": {"android": "https://dc.lft.to/lastmile_qr_scan", "ios": "https://dc.lft.to/lastmile_qr_scan"}}, {"type": "electric_scooter", "name": "81976673ea309158aec881c3533e9850", "lat": 38.883018666666665, "fusion_lat": 0.0, "bike_id": "81976673ea309158aec881c3533e9850", "is_reserved": 0, "lon": -76.94851033333333, "is_disabled": 0, "fusion_lon": 0.0, "rental_uris": {"android": "https://dc.lft.to/lastmile_qr_scan", "ios": "https://dc.lft.to/lastmile_qr_scan"}}, {"type": "electric_scooter", "name": "cfde4635f441007ffd3cf899d30da132", "lat": 38.892496333333334, "fusion_lat": 0.0, "bike_id": "cfde4635f441007ffd3cf899d30da132", "is_reserved": 0, "lon": -77.03191166666667, "is_disabled": 0, "fusion_lon": 0.0, "rental_uris": {"android": "https://dc.lft.to/lastmile_qr_scan", "ios": "https://dc.lft.to/lastmile_qr_scan"}}, {"type": "electric_scooter", "name": "9990910af2c24d62812184ad1a1a55e5", "lat": 38.9094695, "fusion_lat": 0.0, "bike_id": "9990910af2c24d62812184ad1a1a55e5", "is_reserved": 0, "lon": -77.04652716666666, "is_disabled": 0, "fusion_lon": 0.0, "rental_uris": {"android": "https://dc.lft.to/lastmile_qr_scan", "ios": "https://dc.lft.to/lastmile_qr_scan"}}, {"type": "electric_scooter", "name": "22745c50e9adda6fea36f02771aaaf77", "lat": 38.8923495, "fusion_lat": 0.0, "bike_id": "22745c50e9adda6fea36f02771aaaf77", "is_reserved": 0, "lon": -77.04161733333333, "is_disabled": 0, "fusion_lon": 0.0, "rental_uris": {"android": "https://dc.lft.to/lastmile_qr_scan", "ios": "https://dc.lft.to/lastmile_qr_scan"}}, {"type": "electric_scooter", "name": "df3a2b4fc455555d1801184d3ea27dca", "lat": 38.896180333333334, "fusion_lat": 0.0, "bike_id": "df3a2b4fc455555d1801184d3ea27dca", "is_reserved": 0, "lon": -76.94770383333334, "is_disabled": 0, "fusion_lon": 0.0, "rental_uris": {"android": "https://dc.lft.to/lastmile_qr_scan", "ios": "https://dc.lft.to/lastmile_qr_scan"}}, {"type": "electric_scooter", "name": "da4e3ea32de7d28a6deab941087af3f2", "lat": 38.9168145, "fusion_lat": 0.0, "bike_id": "da4e3ea32de7d28a6deab941087af3f2", "is_reserved": 0, "lon": -77.01576333333334, "is_disabled": 0, "fusion_lon": 0.0, "rental_uris": {"android": "https://dc.lft.to/lastmile_qr_scan", "ios": "https://dc.lft.to/lastmile_qr_scan"}}, {"type": "electric_bike", "name": "e82c6f20265950bf9a00cb6737249c8c", "lat": 38.8564935, "fusion_lat": 0.0, "bike_id": "e82c6f20265950bf9a00cb6737249c8c", "is_reserved": 0, "lon": -77.0853015, "is_disabled": 0, "fusion_lon": 0.0, "rental_uris": {"android": "https://dc.lft.to/lastmile_qr_scan", "ios": "https://dc.lft.to/lastmile_qr_scan"}}, {"type": "electric_scooter", "name": "a3bcab911a70249a8389dc3dc72f6c5d", "lat": 38.90808533333333, "fusion_lat": 0.0, "bike_id": "a3bcab911a70249a8389dc3dc72f6c5d", "is_reserved": 0, "lon": -77.039502, "is_disabled": 0, "fusion_lon": 0.0, "rental_uris": {"android": "https://dc.lft.to/lastmile_qr_scan", "ios": "https://dc.lft.to/lastmile_qr_scan"}}, {"type": "electric_scooter", "name": "6e47f67588c0dc955a6d50cf69ae8296", "lat": 38.887450333333334, "fusion_lat": 0.0, "bike_id": "6e47f67588c0dc955a6d50cf69ae8296", "is_reserved": 0, "lon": -77.0179685, "is_disabled": 0, "fusion_lon": 0.0, "rental_uris": {"android": "https://dc.lft.to/lastmile_qr_scan", "ios": "https://dc.lft.to/lastmile_qr_scan"}}, {"type": "electric_scooter", "name": "6bf9337ba212fd6d9d14962b12749541", "lat": 38.885641, "fusion_lat": 0.0, "bike_id": "6bf9337ba212fd6d9d14962b12749541", "is_reserved": 0, "lon": -76.99625366666666, "is_disabled": 0, "fusion_lon": 0.0, "rental_uris": {"android": "https://dc.lft.to/lastmile_qr_scan", "ios": "https://dc.lft.to/lastmile_qr_scan"}}, {"type": "electric_scooter", "name": "2aacc6424e762a190a38d9ca1f7b5d3f", "lat": 38.903346666666664, "fusion_lat": 0.0, "bike_id": "2aacc6424e762a190a38d9ca1f7b5d3f", "is_reserved": 0, "lon": -77.05906983333334, "is_disabled": 0, "fusion_lon": 0.0, "rental_uris": {"android": "https://dc.lft.to/lastmile_qr_scan", "ios": "https://dc.lft.to/lastmile_qr_scan"}}, {"type": "electric_scooter", "name": "06525e30d0075fc59a2716559101fb14", "lat": 38.922501833333335, "fusion_lat": 0.0, "bike_id": "06525e30d0075fc59a2716559101fb14", "is_reserved": 0, "lon": -76.98083516666667, "is_disabled": 0, "fusion_lon": 0.0, "rental_uris": {"android": "https://dc.lft.to/lastmile_qr_scan", "ios": "https://dc.lft.to/lastmile_qr_scan"}}, {"type": "electric_scooter", "name": "7afecf7e1b3b4b37288619f1ef531341", "lat": 38.912688, "fusion_lat": 0.0, "bike_id": "7afecf7e1b3b4b37288619f1ef531341", "is_reserved": 0, "lon": -77.028764, "is_disabled": 0, "fusion_lon": 0.0, "rental_uris": {"android": "https://dc.lft.to/lastmile_qr_scan", "ios": "https://dc.lft.to/lastmile_qr_scan"}}, {"type": "electric_scooter", "name": "4ab439fe4a3aa988fdabd56eeb65d82f", "lat": 38.85687183333334, "fusion_lat": 0.0, "bike_id": "4ab439fe4a3aa988fdabd56eeb65d82f", "is_reserved": 0, "lon": -76.9959895, "is_disabled": 0, "fusion_lon": 0.0, "rental_uris": {"android": "https://dc.lft.to/lastmile_qr_scan", "ios": "https://dc.lft.to/lastmile_qr_scan"}}, {"type": "electric_scooter", "name": "88921e434e9e10a431f02acd5637f4f1", "lat": 38.90979566666667, "fusion_lat": 0.0, "bike_id": "88921e434e9e10a431f02acd5637f4f1", "is_reserved": 0, "lon": -76.995007, "is_disabled": 0, "fusion_lon": 0.0, "rental_uris": {"android": "https://dc.lft.to/lastmile_qr_scan", "ios": "https://dc.lft.to/lastmile_qr_scan"}}, {"type": "electric_bike", "name": "89a8c8d685acaed3c89f41ddf592c13c", "lat": 38.83418533333333, "fusion_lat": 0.0, "bike_id": "89a8c8d685acaed3c89f41ddf592c13c", "is_reserved": 0, "lon": -77.003579, "is_disabled": 0, "fusion_lon": 0.0, "rental_uris": {"android": "https://dc.lft.to/lastmile_qr_scan", "ios": "https://dc.lft.to/lastmile_qr_scan"}}, {"type": "electric_scooter", "name": "4c60c1c10b9ded0b494b02f2e838df50", "lat": 38.9111185, "fusion_lat": 0.0, "bike_id": "4c60c1c10b9ded0b494b02f2e838df50", "is_reserved": 0, "lon": -77.0382825, "is_disabled": 0, "fusion_lon": 0.0, "rental_uris": {"android": "https://dc.lft.to/lastmile_qr_scan", "ios": "https://dc.lft.to/lastmile_qr_scan"}}, {"type": "electric_scooter", "name": "cba4bc4b1562ff2af267076ea606fcb7", "lat": 38.912275666666666, "fusion_lat": 0.0, "bike_id": "cba4bc4b1562ff2af267076ea606fcb7", "is_reserved": 0, "lon": -77.03182866666667, "is_disabled": 0, "fusion_lon": 0.0, "rental_uris": {"android": "https://dc.lft.to/lastmile_qr_scan", "ios": "https://dc.lft.to/lastmile_qr_scan"}}, {"type": "electric_scooter", "name": "050696b58b870a0b271934611b842765", "lat": 38.91169283333333, "fusion_lat": 0.0, "bike_id": "050696b58b870a0b271934611b842765", "is_reserved": 0, "lon": -77.01980483333334, "is_disabled": 0, "fusion_lon": 0.0, "rental_uris": {"android": "https://dc.lft.to/lastmile_qr_scan", "ios": "https://dc.lft.to/lastmile_qr_scan"}}, {"type": "electric_scooter", "name": "d33d138e6a17c58a991a2b72687da415", "lat": 38.922565666666664, "fusion_lat": 0.0, "bike_id": "d33d138e6a17c58a991a2b72687da415", "is_reserved": 0, "lon": -77.00920066666667, "is_disabled": 0, "fusion_lon": 0.0, "rental_uris": {"android": "https://dc.lft.to/lastmile_qr_scan", "ios": "https://dc.lft.to/lastmile_qr_scan"}}, {"type": "electric_bike", "name": "dbf7122211ab5199f9a377761ca1eaa9", "lat": 38.90034383333333, "fusion_lat": 0.0, "bike_id": "dbf7122211ab5199f9a377761ca1eaa9", "is_reserved": 0, "lon": -76.97221033333334, "is_disabled": 0, "fusion_lon": 0.0, "rental_uris": {"android": "https://dc.lft.to/lastmile_qr_scan", "ios": "https://dc.lft.to/lastmile_qr_scan"}}, {"type": "electric_scooter", "name": "2e752fc2a784163be83774c86787a71e", "lat": 38.89732883333333, "fusion_lat": 0.0, "bike_id": "2e752fc2a784163be83774c86787a71e", "is_reserved": 0, "lon": -77.00371733333333, "is_disabled": 0, "fusion_lon": 0.0, "rental_uris": {"android": "https://dc.lft.to/lastmile_qr_scan", "ios": "https://dc.lft.to/lastmile_qr_scan"}}, {"type": "electric_scooter", "name": "becd6bf9500954bcb323a1b3832db1bf", "lat": 38.905661, "fusion_lat": 0.0, "bike_id": "becd6bf9500954bcb323a1b3832db1bf", "is_reserved": 0, "lon": -77.03443483333334, "is_disabled": 0, "fusion_lon": 0.0, "rental_uris": {"android": "https://dc.lft.to/lastmile_qr_scan", "ios": "https://dc.lft.to/lastmile_qr_scan"}}, {"type": "electric_scooter", "name": "a9f911d378ab87eacc084d083c47de2d", "lat": 38.924854833333335, "fusion_lat": 0.0, "bike_id": "a9f911d378ab87eacc084d083c47de2d", "is_reserved": 0, "lon": -77.0214115, "is_disabled": 0, "fusion_lon": 0.0, "rental_uris": {"android": "https://dc.lft.to/lastmile_qr_scan", "ios": "https://dc.lft.to/lastmile_qr_scan"}}, {"type": "electric_scooter", "name": "8c2e5cf45cb2996a9eca9a82cac82e98", "lat": 38.87701533333333, "fusion_lat": 0.0, "bike_id": "8c2e5cf45cb2996a9eca9a82cac82e98", "is_reserved": 0, "lon": -77.00419916666667, "is_disabled": 0, "fusion_lon": 0.0, "rental_uris": {"android": "https://dc.lft.to/lastmile_qr_scan", "ios": "https://dc.lft.to/lastmile_qr_scan"}}, {"type": "electric_scooter", "name": "e8e87b73b934cc52142504bb569ca3bd", "lat": 38.9076955, "fusion_lat": 0.0, "bike_id": "e8e87b73b934cc52142504bb569ca3bd", "is_reserved": 0, "lon": -77.03857216666667, "is_disabled": 0, "fusion_lon": 0.0, "rental_uris": {"android": "https://dc.lft.to/lastmile_qr_scan", "ios": "https://dc.lft.to/lastmile_qr_scan"}}, {"type": "electric_scooter", "name": "76a08a10bdd5791a7f629a0006f57f2c", "lat": 38.90037183333333, "fusion_lat": 0.0, "bike_id": "76a08a10bdd5791a7f629a0006f57f2c", "is_reserved": 0, "lon": -77.03504616666666, "is_disabled": 0, "fusion_lon": 0.0, "rental_uris": {"android": "https://dc.lft.to/lastmile_qr_scan", "ios": "https://dc.lft.to/lastmile_qr_scan"}}, {"type": "electric_scooter", "name": "4de1400ffbfbc721245481e9994e2193", "lat": 38.8982775, "fusion_lat": 0.0, "bike_id": "4de1400ffbfbc721245481e9994e2193", "is_reserved": 0, "lon": -76.94651483333334, "is_disabled": 0, "fusion_lon": 0.0, "rental_uris": {"android": "https://dc.lft.to/lastmile_qr_scan", "ios": "https://dc.lft.to/lastmile_qr_scan"}}, {"type": "electric_scooter", "name": "c61288ef93b01c1211a9414956e834ef", "lat": 38.898344333333334, "fusion_lat": 0.0, "bike_id": "c61288ef93b01c1211a9414956e834ef", "is_reserved": 0, "lon": -77.0289415, "is_disabled": 0, "fusion_lon": 0.0, "rental_uris": {"android": "https://dc.lft.to/lastmile_qr_scan", "ios": "https://dc.lft.to/lastmile_qr_scan"}}, {"type": "electric_scooter", "name": "97192de3c0626c0007c8400620043c7d", "lat": 38.920327666666665, "fusion_lat": 0.0, "bike_id": "97192de3c0626c0007c8400620043c7d", "is_reserved": 0, "lon": -77.01773833333333, "is_disabled": 0, "fusion_lon": 0.0, "rental_uris": {"android": "https://dc.lft.to/lastmile_qr_scan", "ios": "https://dc.lft.to/lastmile_qr_scan"}}, {"type": "electric_scooter", "name": "302857d440033eca391623402ef5da83", "lat": 38.89527416666667, "fusion_lat": 0.0, "bike_id": "302857d440033eca391623402ef5da83", "is_reserved": 0, "lon": -77.00212766666667, "is_disabled": 0, "fusion_lon": 0.0, "rental_uris": {"android": "https://dc.lft.to/lastmile_qr_scan", "ios": "https://dc.lft.to/lastmile_qr_scan"}}, {"type": "electric_scooter", "name": "18434e7fa262367606c667fa61e0a61f", "lat": 38.911103, "fusion_lat": 0.0, "bike_id": "18434e7fa262367606c667fa61e0a61f", "is_reserved": 0, "lon": -77.043528, "is_disabled": 0, "fusion_lon": 0.0, "rental_uris": {"android": "https://dc.lft.to/lastmile_qr_scan", "ios": "https://dc.lft.to/lastmile_qr_scan"}}, {"type": "electric_scooter", "name": "61f9c9c4305419b952697537af74cb83", "lat": 38.921826, "fusion_lat": 0.0, "bike_id": "61f9c9c4305419b952697537af74cb83", "is_reserved": 0, "lon": -77.04691083333333, "is_disabled": 0, "fusion_lon": 0.0, "rental_uris": {"android": "https://dc.lft.to/lastmile_qr_scan", "ios": "https://dc.lft.to/lastmile_qr_scan"}}, {"type": "electric_scooter", "name": "321f75b5744cf26553b855265fa455a7", "lat": 38.925291, "fusion_lat": 0.0, "bike_id": "321f75b5744cf26553b855265fa455a7", "is_reserved": 0, "lon": -77.035135, "is_disabled": 0, "fusion_lon": 0.0, "rental_uris": {"android": "https://dc.lft.to/lastmile_qr_scan", "ios": "https://dc.lft.to/lastmile_qr_scan"}}, {"type": "electric_scooter", "name": "2b97fa0541175067ed6c685540cb0f53", "lat": 38.9064115, "fusion_lat": 0.0, "bike_id": "2b97fa0541175067ed6c685540cb0f53", "is_reserved": 0, "lon": -77.04264066666667, "is_disabled": 0, "fusion_lon": 0.0, "rental_uris": {"android": "https://dc.lft.to/lastmile_qr_scan", "ios": "https://dc.lft.to/lastmile_qr_scan"}}, {"type": "electric_scooter", "name": "4a78cf36485c31413eff762e943bb08f", "lat": 38.908566, "fusion_lat": 0.0, "bike_id": "4a78cf36485c31413eff762e943bb08f", "is_reserved": 0, "lon": -77.0298985, "is_disabled": 0, "fusion_lon": 0.0, "rental_uris": {"android": "https://dc.lft.to/lastmile_qr_scan", "ios": "https://dc.lft.to/lastmile_qr_scan"}}, {"type": "electric_bike", "name": "2f72ac0d21754d9ef1b06281ee60da8f", "lat": 38.833672666666665, "fusion_lat": 0.0, "bike_id": "2f72ac0d21754d9ef1b06281ee60da8f", "is_reserved": 0, "lon": -77.003039, "is_disabled": 0, "fusion_lon": 0.0, "rental_uris": {"android": "https://dc.lft.to/lastmile_qr_scan", "ios": "https://dc.lft.to/lastmile_qr_scan"}}, {"type": "electric_scooter", "name": "428c66c4918b3398d1637224f0430396", "lat": 38.913592333333334, "fusion_lat": 0.0, "bike_id": "428c66c4918b3398d1637224f0430396", "is_reserved": 0, "lon": -77.04567383333334, "is_disabled": 0, "fusion_lon": 0.0, "rental_uris": {"android": "https://dc.lft.to/lastmile_qr_scan", "ios": "https://dc.lft.to/lastmile_qr_scan"}}, {"type": "electric_scooter", "name": "41e53ff1aebeaa72b4645caa12556b63", "lat": 38.91709866666667, "fusion_lat": 0.0, "bike_id": "41e53ff1aebeaa72b4645caa12556b63", "is_reserved": 0, "lon": -77.029074, "is_disabled": 0, "fusion_lon": 0.0, "rental_uris": {"android": "https://dc.lft.to/lastmile_qr_scan", "ios": "https://dc.lft.to/lastmile_qr_scan"}}, {"type": "electric_scooter", "name": "abe9fa6405958d42f7902c3a537b79ff", "lat": 38.900393333333334, "fusion_lat": 0.0, "bike_id": "abe9fa6405958d42f7902c3a537b79ff", "is_reserved": 0, "lon": -77.04344283333333, "is_disabled": 0, "fusion_lon": 0.0, "rental_uris": {"android": "https://dc.lft.to/lastmile_qr_scan", "ios": "https://dc.lft.to/lastmile_qr_scan"}}, {"type": "electric_scooter", "name": "e3120dc442b262c386b36eabe6578ebf", "lat": 38.91676566666667, "fusion_lat": 0.0, "bike_id": "e3120dc442b262c386b36eabe6578ebf", "is_reserved": 0, "lon": -77.032107, "is_disabled": 0, "fusion_lon": 0.0, "rental_uris": {"android": "https://dc.lft.to/lastmile_qr_scan", "ios": "https://dc.lft.to/lastmile_qr_scan"}}, {"type": "electric_scooter", "name": "4dd81d1b7aa114cc481ff7ad579f517b", "lat": 38.90653016666667, "fusion_lat": 0.0, "bike_id": "4dd81d1b7aa114cc481ff7ad579f517b", "is_reserved": 0, "lon": -77.03899883333334, "is_disabled": 0, "fusion_lon": 0.0, "rental_uris": {"android": "https://dc.lft.to/lastmile_qr_scan", "ios": "https://dc.lft.to/lastmile_qr_scan"}}, {"type": "electric_scooter", "name": "54e86b698df23900481e2fe8a6a9b93c", "lat": 38.90375483333333, "fusion_lat": 0.0, "bike_id": "54e86b698df23900481e2fe8a6a9b93c", "is_reserved": 0, "lon": -77.0368385, "is_disabled": 0, "fusion_lon": 0.0, "rental_uris": {"android": "https://dc.lft.to/lastmile_qr_scan", "ios": "https://dc.lft.to/lastmile_qr_scan"}}, {"type": "electric_scooter", "name": "c39d23c6408df504a41d9c1bac4ba47a", "lat": 38.911093, "fusion_lat": 0.0, "bike_id": "c39d23c6408df504a41d9c1bac4ba47a", "is_reserved": 0, "lon": -77.03829483333334, "is_disabled": 0, "fusion_lon": 0.0, "rental_uris": {"android": "https://dc.lft.to/lastmile_qr_scan", "ios": "https://dc.lft.to/lastmile_qr_scan"}}, {"type": "electric_scooter", "name": "962269dbcbe36503e7ec17c1c261c5dc", "lat": 38.90159083333333, "fusion_lat": 0.0, "bike_id": "962269dbcbe36503e7ec17c1c261c5dc", "is_reserved": 0, "lon": -77.02217066666667, "is_disabled": 0, "fusion_lon": 0.0, "rental_uris": {"android": "https://dc.lft.to/lastmile_qr_scan", "ios": "https://dc.lft.to/lastmile_qr_scan"}}, {"type": "electric_scooter", "name": "fd22a4752af63fcfdec30e036132ace9", "lat": 38.87173283333333, "fusion_lat": 0.0, "bike_id": "fd22a4752af63fcfdec30e036132ace9", "is_reserved": 0, "lon": -77.00681733333333, "is_disabled": 0, "fusion_lon": 0.0, "rental_uris": {"android": "https://dc.lft.to/lastmile_qr_scan", "ios": "https://dc.lft.to/lastmile_qr_scan"}}, {"type": "electric_scooter", "name": "53e1d10e370d9d6924e327d06dcf3f5b", "lat": 38.90581616666667, "fusion_lat": 0.0, "bike_id": "53e1d10e370d9d6924e327d06dcf3f5b", "is_reserved": 0, "lon": -77.00692716666667, "is_disabled": 0, "fusion_lon": 0.0, "rental_uris": {"android": "https://dc.lft.to/lastmile_qr_scan", "ios": "https://dc.lft.to/lastmile_qr_scan"}}, {"type": "electric_bike", "name": "6c47c31e2f2cfa47cf933e82e0925ccf", "lat": 39.010775833333334, "fusion_lat": 0.0, "bike_id": "6c47c31e2f2cfa47cf933e82e0925ccf", "is_reserved": 0, "lon": -76.91065333333333, "is_disabled": 0, "fusion_lon": 0.0, "rental_uris": {"android": "https://dc.lft.to/lastmile_qr_scan", "ios": "https://dc.lft.to/lastmile_qr_scan"}}, {"type": "electric_scooter", "name": "6a33cf04db1a32f2c26d8e4eb9ad17d8", "lat": 38.90981883333333, "fusion_lat": 0.0, "bike_id": "6a33cf04db1a32f2c26d8e4eb9ad17d8", "is_reserved": 0, "lon": -77.0442815, "is_disabled": 0, "fusion_lon": 0.0, "rental_uris": {"android": "https://dc.lft.to/lastmile_qr_scan", "ios": "https://dc.lft.to/lastmile_qr_scan"}}, {"type": "electric_scooter", "name": "ce5bad2064aa41565bd13c5cce1dbe5f", "lat": 38.893444833333334, "fusion_lat": 0.0, "bike_id": "ce5bad2064aa41565bd13c5cce1dbe5f", "is_reserved": 0, "lon": -76.93970016666667, "is_disabled": 0, "fusion_lon": 0.0, "rental_uris": {"android": "https://dc.lft.to/lastmile_qr_scan", "ios": "https://dc.lft.to/lastmile_qr_scan"}}, {"type": "electric_scooter", "name": "249d6a448abae3cb873226d202cd7cdc", "lat": 38.911096666666666, "fusion_lat": 0.0, "bike_id": "249d6a448abae3cb873226d202cd7cdc", "is_reserved": 0, "lon": -77.03826916666667, "is_disabled": 0, "fusion_lon": 0.0, "rental_uris": {"android": "https://dc.lft.to/lastmile_qr_scan", "ios": "https://dc.lft.to/lastmile_qr_scan"}}, {"type": "electric_scooter", "name": "9eb12d387fcaae6592632860784315ae", "lat": 38.922728, "fusion_lat": 0.0, "bike_id": "9eb12d387fcaae6592632860784315ae", "is_reserved": 0, "lon": -77.0340685, "is_disabled": 0, "fusion_lon": 0.0, "rental_uris": {"android": "https://dc.lft.to/lastmile_qr_scan", "ios": "https://dc.lft.to/lastmile_qr_scan"}}, {"type": "electric_scooter", "name": "bf061cc806f819c1a1736bafcaab4bda", "lat": 38.90258583333333, "fusion_lat": 0.0, "bike_id": "bf061cc806f819c1a1736bafcaab4bda", "is_reserved": 0, "lon": -77.03938533333333, "is_disabled": 0, "fusion_lon": 0.0, "rental_uris": {"android": "https://dc.lft.to/lastmile_qr_scan", "ios": "https://dc.lft.to/lastmile_qr_scan"}}, {"type": "electric_scooter", "name": "2276a3101c4b1cb4b44e6f9438c72dbb", "lat": 38.90725966666667, "fusion_lat": 0.0, "bike_id": "2276a3101c4b1cb4b44e6f9438c72dbb", "is_reserved": 0, "lon": -77.02365483333334, "is_disabled": 0, "fusion_lon": 0.0, "rental_uris": {"android": "https://dc.lft.to/lastmile_qr_scan", "ios": "https://dc.lft.to/lastmile_qr_scan"}}, {"type": "electric_scooter", "name": "254d42fde5134ccc08a3c2c4123db120", "lat": 38.902424, "fusion_lat": 0.0, "bike_id": "254d42fde5134ccc08a3c2c4123db120", "is_reserved": 0, "lon": -77.03955533333334, "is_disabled": 0, "fusion_lon": 0.0, "rental_uris": {"android": "https://dc.lft.to/lastmile_qr_scan", "ios": "https://dc.lft.to/lastmile_qr_scan"}}, {"type": "electric_scooter", "name": "2500dcf80111b01152e0e0bb2c2ae7f3", "lat": 38.911082666666665, "fusion_lat": 0.0, "bike_id": "2500dcf80111b01152e0e0bb2c2ae7f3", "is_reserved": 0, "lon": -77.042262, "is_disabled": 0, "fusion_lon": 0.0, "rental_uris": {"android": "https://dc.lft.to/lastmile_qr_scan", "ios": "https://dc.lft.to/lastmile_qr_scan"}}, {"type": "electric_scooter", "name": "ae7470b64fcd7d2f525ae2603f1e5f1b", "lat": 38.932768333333335, "fusion_lat": 0.0, "bike_id": "ae7470b64fcd7d2f525ae2603f1e5f1b", "is_reserved": 0, "lon": -77.03859033333333, "is_disabled": 0, "fusion_lon": 0.0, "rental_uris": {"android": "https://dc.lft.to/lastmile_qr_scan", "ios": "https://dc.lft.to/lastmile_qr_scan"}}, {"type": "electric_scooter", "name": "53f59e3121a5c9417f9e3e1a88dbd8b7", "lat": 38.94441833333333, "fusion_lat": 0.0, "bike_id": "53f59e3121a5c9417f9e3e1a88dbd8b7", "is_reserved": 0, "lon": -77.064095, "is_disabled": 0, "fusion_lon": 0.0, "rental_uris": {"android": "https://dc.lft.to/lastmile_qr_scan", "ios": "https://dc.lft.to/lastmile_qr_scan"}}, {"type": "electric_scooter", "name": "cd4ac4d6fb00d1b2b43bf0d381ddb427", "lat": 38.89482683333333, "fusion_lat": 0.0, "bike_id": "cd4ac4d6fb00d1b2b43bf0d381ddb427", "is_reserved": 0, "lon": -77.02037366666667, "is_disabled": 0, "fusion_lon": 0.0, "rental_uris": {"android": "https://dc.lft.to/lastmile_qr_scan", "ios": "https://dc.lft.to/lastmile_qr_scan"}}, {"type": "electric_scooter", "name": "d5577b87e4fdda9914a7e0ab4dd364c4", "lat": 38.921182333333334, "fusion_lat": 0.0, "bike_id": "d5577b87e4fdda9914a7e0ab4dd364c4", "is_reserved": 0, "lon": -77.02087983333334, "is_disabled": 0, "fusion_lon": 0.0, "rental_uris": {"android": "https://dc.lft.to/lastmile_qr_scan", "ios": "https://dc.lft.to/lastmile_qr_scan"}}, {"type": "electric_scooter", "name": "bd82523e01e3c0f228ad5c9fbb0976c9", "lat": 38.9171955, "fusion_lat": 0.0, "bike_id": "bd82523e01e3c0f228ad5c9fbb0976c9", "is_reserved": 0, "lon": -77.06834216666667, "is_disabled": 0, "fusion_lon": 0.0, "rental_uris": {"android": "https://dc.lft.to/lastmile_qr_scan", "ios": "https://dc.lft.to/lastmile_qr_scan"}}, {"type": "electric_scooter", "name": "e2c5383e512d1b96b6135e01dbebb10b", "lat": 38.90976666666667, "fusion_lat": 0.0, "bike_id": "e2c5383e512d1b96b6135e01dbebb10b", "is_reserved": 0, "lon": -77.03432666666667, "is_disabled": 0, "fusion_lon": 0.0, "rental_uris": {"android": "https://dc.lft.to/lastmile_qr_scan", "ios": "https://dc.lft.to/lastmile_qr_scan"}}, {"type": "electric_scooter", "name": "4739c4f1f934cae3266059573f65696a", "lat": 38.875729, "fusion_lat": 0.0, "bike_id": "4739c4f1f934cae3266059573f65696a", "is_reserved": 0, "lon": -77.0059705, "is_disabled": 0, "fusion_lon": 0.0, "rental_uris": {"android": "https://dc.lft.to/lastmile_qr_scan", "ios": "https://dc.lft.to/lastmile_qr_scan"}}, {"type": "electric_scooter", "name": "b990a274d7958dbcc5099d696aea47af", "lat": 38.899496, "fusion_lat": 0.0, "bike_id": "b990a274d7958dbcc5099d696aea47af", "is_reserved": 0, "lon": -77.03213483333333, "is_disabled": 0, "fusion_lon": 0.0, "rental_uris": {"android": "https://dc.lft.to/lastmile_qr_scan", "ios": "https://dc.lft.to/lastmile_qr_scan"}}, {"type": "electric_scooter", "name": "f0719c5e2eacb041070ca0effebb9740", "lat": 38.918257833333335, "fusion_lat": 0.0, "bike_id": "f0719c5e2eacb041070ca0effebb9740", "is_reserved": 0, "lon": -77.027023, "is_disabled": 0, "fusion_lon": 0.0, "rental_uris": {"android": "https://dc.lft.to/lastmile_qr_scan", "ios": "https://dc.lft.to/lastmile_qr_scan"}}, {"type": "electric_scooter", "name": "0cbdf26e4c93aea675637d3d891a7405", "lat": 38.917327, "fusion_lat": 0.0, "bike_id": "0cbdf26e4c93aea675637d3d891a7405", "is_reserved": 0, "lon": -77.04175133333334, "is_disabled": 0, "fusion_lon": 0.0, "rental_uris": {"android": "https://dc.lft.to/lastmile_qr_scan", "ios": "https://dc.lft.to/lastmile_qr_scan"}}, {"type": "electric_scooter", "name": "27cbc317e79bf0e01ab80014caa04e99", "lat": 38.93881583333334, "fusion_lat": 0.0, "bike_id": "27cbc317e79bf0e01ab80014caa04e99", "is_reserved": 0, "lon": -77.032638, "is_disabled": 0, "fusion_lon": 0.0, "rental_uris": {"android": "https://dc.lft.to/lastmile_qr_scan", "ios": "https://dc.lft.to/lastmile_qr_scan"}}, {"type": "electric_scooter", "name": "e25e3df6a5ef24c2a5e34f224626cc29", "lat": 38.91113416666666, "fusion_lat": 0.0, "bike_id": "e25e3df6a5ef24c2a5e34f224626cc29", "is_reserved": 0, "lon": -77.04502416666666, "is_disabled": 0, "fusion_lon": 0.0, "rental_uris": {"android": "https://dc.lft.to/lastmile_qr_scan", "ios": "https://dc.lft.to/lastmile_qr_scan"}}, {"type": "electric_bike", "name": "0bb248b6143f3141904e8a73a92bc34b", "lat": 38.99781316666667, "fusion_lat": 0.0, "bike_id": "0bb248b6143f3141904e8a73a92bc34b", "is_reserved": 0, "lon": -77.00763633333334, "is_disabled": 0, "fusion_lon": 0.0, "rental_uris": {"android": "https://dc.lft.to/lastmile_qr_scan", "ios": "https://dc.lft.to/lastmile_qr_scan"}}, {"type": "electric_scooter", "name": "429210f39f425078fcb1a99a2d8f9493", "lat": 38.908415, "fusion_lat": 0.0, "bike_id": "429210f39f425078fcb1a99a2d8f9493", "is_reserved": 0, "lon": -77.04013016666667, "is_disabled": 0, "fusion_lon": 0.0, "rental_uris": {"android": "https://dc.lft.to/lastmile_qr_scan", "ios": "https://dc.lft.to/lastmile_qr_scan"}}, {"type": "electric_scooter", "name": "bf586605c905b1d861506568b7900687", "lat": 38.91869416666667, "fusion_lat": 0.0, "bike_id": "bf586605c905b1d861506568b7900687", "is_reserved": 0, "lon": -77.03675916666667, "is_disabled": 0, "fusion_lon": 0.0, "rental_uris": {"android": "https://dc.lft.to/lastmile_qr_scan", "ios": "https://dc.lft.to/lastmile_qr_scan"}}, {"type": "electric_scooter", "name": "0e83f867bdc517a13c75fc281852d5a3", "lat": 38.9098905, "fusion_lat": 0.0, "bike_id": "0e83f867bdc517a13c75fc281852d5a3", "is_reserved": 0, "lon": -77.0320605, "is_disabled": 0, "fusion_lon": 0.0, "rental_uris": {"android": "https://dc.lft.to/lastmile_qr_scan", "ios": "https://dc.lft.to/lastmile_qr_scan"}}, {"type": "electric_scooter", "name": "3212c5155638c9ae923df23bb6cf79f5", "lat": 38.876987, "fusion_lat": 0.0, "bike_id": "3212c5155638c9ae923df23bb6cf79f5", "is_reserved": 0, "lon": -77.01763233333334, "is_disabled": 0, "fusion_lon": 0.0, "rental_uris": {"android": "https://dc.lft.to/lastmile_qr_scan", "ios": "https://dc.lft.to/lastmile_qr_scan"}}, {"type": "electric_scooter", "name": "3a6fef17540a7dac83ceff4536882c78", "lat": 38.918488333333336, "fusion_lat": 0.0, "bike_id": "3a6fef17540a7dac83ceff4536882c78", "is_reserved": 0, "lon": -77.06192633333333, "is_disabled": 0, "fusion_lon": 0.0, "rental_uris": {"android": "https://dc.lft.to/lastmile_qr_scan", "ios": "https://dc.lft.to/lastmile_qr_scan"}}, {"type": "electric_scooter", "name": "71f22a7d5f6608cf4215f9c1382284e2", "lat": 38.9078115, "fusion_lat": 0.0, "bike_id": "71f22a7d5f6608cf4215f9c1382284e2", "is_reserved": 0, "lon": -77.040037, "is_disabled": 0, "fusion_lon": 0.0, "rental_uris": {"android": "https://dc.lft.to/lastmile_qr_scan", "ios": "https://dc.lft.to/lastmile_qr_scan"}}, {"type": "electric_scooter", "name": "303e2b10958faf5c659190219467ec04", "lat": 38.9445945, "fusion_lat": 0.0, "bike_id": "303e2b10958faf5c659190219467ec04", "is_reserved": 0, "lon": -77.023419, "is_disabled": 0, "fusion_lon": 0.0, "rental_uris": {"android": "https://dc.lft.to/lastmile_qr_scan", "ios": "https://dc.lft.to/lastmile_qr_scan"}}, {"type": "electric_scooter", "name": "3b2ce47937f73cd000e8c1cd476fe4a9", "lat": 38.899831666666664, "fusion_lat": 0.0, "bike_id": "3b2ce47937f73cd000e8c1cd476fe4a9", "is_reserved": 0, "lon": -77.02226583333334, "is_disabled": 0, "fusion_lon": 0.0, "rental_uris": {"android": "https://dc.lft.to/lastmile_qr_scan", "ios": "https://dc.lft.to/lastmile_qr_scan"}}, {"type": "electric_scooter", "name": "5ea237b0afe2a033694fac05e5941d9f", "lat": 38.95265166666667, "fusion_lat": 0.0, "bike_id": "5ea237b0afe2a033694fac05e5941d9f", "is_reserved": 0, "lon": -77.00201266666667, "is_disabled": 0, "fusion_lon": 0.0, "rental_uris": {"android": "https://dc.lft.to/lastmile_qr_scan", "ios": "https://dc.lft.to/lastmile_qr_scan"}}, {"type": "electric_bike", "name": "b366097a864fe533b3ac5f475709b3b7", "lat": 38.9415575, "fusion_lat": 0.0, "bike_id": "b366097a864fe533b3ac5f475709b3b7", "is_reserved": 0, "lon": -77.00193866666666, "is_disabled": 0, "fusion_lon": 0.0, "rental_uris": {"android": "https://dc.lft.to/lastmile_qr_scan", "ios": "https://dc.lft.to/lastmile_qr_scan"}}, {"type": "electric_scooter", "name": "618a92c0cda6d3de54435fd4efd59d5e", "lat": 38.910838166666665, "fusion_lat": 0.0, "bike_id": "618a92c0cda6d3de54435fd4efd59d5e", "is_reserved": 0, "lon": -77.05051733333333, "is_disabled": 0, "fusion_lon": 0.0, "rental_uris": {"android": "https://dc.lft.to/lastmile_qr_scan", "ios": "https://dc.lft.to/lastmile_qr_scan"}}, {"type": "electric_scooter", "name": "924b648aa9c3e304f48dea1e1186038a", "lat": 38.92090566666667, "fusion_lat": 0.0, "bike_id": "924b648aa9c3e304f48dea1e1186038a", "is_reserved": 0, "lon": -77.02040533333333, "is_disabled": 0, "fusion_lon": 0.0, "rental_uris": {"android": "https://dc.lft.to/lastmile_qr_scan", "ios": "https://dc.lft.to/lastmile_qr_scan"}}, {"type": "electric_scooter", "name": "2cf2f68c6f165306e99d9ec310266c14", "lat": 38.866913833333335, "fusion_lat": 0.0, "bike_id": "2cf2f68c6f165306e99d9ec310266c14", "is_reserved": 0, "lon": -76.98541766666666, "is_disabled": 0, "fusion_lon": 0.0, "rental_uris": {"android": "https://dc.lft.to/lastmile_qr_scan", "ios": "https://dc.lft.to/lastmile_qr_scan"}}, {"type": "electric_scooter", "name": "8b0dae36ae78cacb669cc88200f93d15", "lat": 38.90412116666667, "fusion_lat": 0.0, "bike_id": "8b0dae36ae78cacb669cc88200f93d15", "is_reserved": 0, "lon": -77.04362, "is_disabled": 0, "fusion_lon": 0.0, "rental_uris": {"android": "https://dc.lft.to/lastmile_qr_scan", "ios": "https://dc.lft.to/lastmile_qr_scan"}}, {"type": "electric_scooter", "name": "ac641d0fd7ac93ad6eb763057ba119e9", "lat": 38.892299666666666, "fusion_lat": 0.0, "bike_id": "ac641d0fd7ac93ad6eb763057ba119e9", "is_reserved": 0, "lon": -77.0321055, "is_disabled": 0, "fusion_lon": 0.0, "rental_uris": {"android": "https://dc.lft.to/lastmile_qr_scan", "ios": "https://dc.lft.to/lastmile_qr_scan"}}, {"type": "electric_scooter", "name": "6b4da92faf95d1e9fb1630f91f0131fa", "lat": 38.91108283333333, "fusion_lat": 0.0, "bike_id": "6b4da92faf95d1e9fb1630f91f0131fa", "is_reserved": 0, "lon": -77.0325435, "is_disabled": 0, "fusion_lon": 0.0, "rental_uris": {"android": "https://dc.lft.to/lastmile_qr_scan", "ios": "https://dc.lft.to/lastmile_qr_scan"}}, {"type": "electric_scooter", "name": "85fbe55c5627ff61601cd8d78fff5f98", "lat": 38.898453, "fusion_lat": 0.0, "bike_id": "85fbe55c5627ff61601cd8d78fff5f98", "is_reserved": 0, "lon": -77.02874433333334, "is_disabled": 0, "fusion_lon": 0.0, "rental_uris": {"android": "https://dc.lft.to/lastmile_qr_scan", "ios": "https://dc.lft.to/lastmile_qr_scan"}}, {"type": "electric_scooter", "name": "a1a6899b07f64adb52e43ce68a204a7f", "lat": 38.944408833333334, "fusion_lat": 0.0, "bike_id": "a1a6899b07f64adb52e43ce68a204a7f", "is_reserved": 0, "lon": -77.063507, "is_disabled": 0, "fusion_lon": 0.0, "rental_uris": {"android": "https://dc.lft.to/lastmile_qr_scan", "ios": "https://dc.lft.to/lastmile_qr_scan"}}, {"type": "electric_scooter", "name": "ef73549ae2b8c16415ae0b5f7b844d87", "lat": 38.8847105, "fusion_lat": 0.0, "bike_id": "ef73549ae2b8c16415ae0b5f7b844d87", "is_reserved": 0, "lon": -77.01532433333334, "is_disabled": 0, "fusion_lon": 0.0, "rental_uris": {"android": "https://dc.lft.to/lastmile_qr_scan", "ios": "https://dc.lft.to/lastmile_qr_scan"}}, {"type": "electric_scooter", "name": "bd71f9c3dc2ed47f1c7bc851383ac7ce", "lat": 38.885026333333336, "fusion_lat": 0.0, "bike_id": "bd71f9c3dc2ed47f1c7bc851383ac7ce", "is_reserved": 0, "lon": -77.0218245, "is_disabled": 0, "fusion_lon": 0.0, "rental_uris": {"android": "https://dc.lft.to/lastmile_qr_scan", "ios": "https://dc.lft.to/lastmile_qr_scan"}}, {"type": "electric_scooter", "name": "70f871c964e73dc5912f79a4e032148b", "lat": 38.92363066666667, "fusion_lat": 0.0, "bike_id": "70f871c964e73dc5912f79a4e032148b", "is_reserved": 0, "lon": -77.05030216666667, "is_disabled": 0, "fusion_lon": 0.0, "rental_uris": {"android": "https://dc.lft.to/lastmile_qr_scan", "ios": "https://dc.lft.to/lastmile_qr_scan"}}, {"type": "electric_scooter", "name": "fae33dc45e166d8f417813b7999eaef6", "lat": 38.882919666666666, "fusion_lat": 0.0, "bike_id": "fae33dc45e166d8f417813b7999eaef6", "is_reserved": 0, "lon": -76.98351933333333, "is_disabled": 0, "fusion_lon": 0.0, "rental_uris": {"android": "https://dc.lft.to/lastmile_qr_scan", "ios": "https://dc.lft.to/lastmile_qr_scan"}}, {"type": "electric_scooter", "name": "3589f971ccf73eba8d6958226c38a1db", "lat": 38.895995, "fusion_lat": 0.0, "bike_id": "3589f971ccf73eba8d6958226c38a1db", "is_reserved": 0, "lon": -77.014068, "is_disabled": 0, "fusion_lon": 0.0, "rental_uris": {"android": "https://dc.lft.to/lastmile_qr_scan", "ios": "https://dc.lft.to/lastmile_qr_scan"}}, {"type": "electric_scooter", "name": "67af21557d7d72452bf2ce14293f8419", "lat": 38.936456, "fusion_lat": 0.0, "bike_id": "67af21557d7d72452bf2ce14293f8419", "is_reserved": 0, "lon": -77.06009983333334, "is_disabled": 0, "fusion_lon": 0.0, "rental_uris": {"android": "https://dc.lft.to/lastmile_qr_scan", "ios": "https://dc.lft.to/lastmile_qr_scan"}}, {"type": "electric_scooter", "name": "ccfe5b4f8f5633da31bd56c632321ee6", "lat": 38.9236935, "fusion_lat": 0.0, "bike_id": "ccfe5b4f8f5633da31bd56c632321ee6", "is_reserved": 0, "lon": -77.0190065, "is_disabled": 0, "fusion_lon": 0.0, "rental_uris": {"android": "https://dc.lft.to/lastmile_qr_scan", "ios": "https://dc.lft.to/lastmile_qr_scan"}}, {"type": "electric_bike", "name": "698be3bb3a5301e79c7580828d37ea71", "lat": 39.00385816666667, "fusion_lat": 0.0, "bike_id": "698be3bb3a5301e79c7580828d37ea71", "is_reserved": 0, "lon": -77.01287766666667, "is_disabled": 0, "fusion_lon": 0.0, "rental_uris": {"android": "https://dc.lft.to/lastmile_qr_scan", "ios": "https://dc.lft.to/lastmile_qr_scan"}}, {"type": "electric_scooter", "name": "28fc86c01953db014a9aa0def9d019bd", "lat": 38.92673466666667, "fusion_lat": 0.0, "bike_id": "28fc86c01953db014a9aa0def9d019bd", "is_reserved": 0, "lon": -77.01557133333333, "is_disabled": 0, "fusion_lon": 0.0, "rental_uris": {"android": "https://dc.lft.to/lastmile_qr_scan", "ios": "https://dc.lft.to/lastmile_qr_scan"}}, {"type": "electric_scooter", "name": "f540bcf4aa6d669821241d925b758226", "lat": 38.92639666666667, "fusion_lat": 0.0, "bike_id": "f540bcf4aa6d669821241d925b758226", "is_reserved": 0, "lon": -77.02708516666667, "is_disabled": 0, "fusion_lon": 0.0, "rental_uris": {"android": "https://dc.lft.to/lastmile_qr_scan", "ios": "https://dc.lft.to/lastmile_qr_scan"}}, {"type": "electric_scooter", "name": "33129463ef3a38447a8951262a3a653a", "lat": 38.887328833333335, "fusion_lat": 0.0, "bike_id": "33129463ef3a38447a8951262a3a653a", "is_reserved": 0, "lon": -77.02582466666667, "is_disabled": 0, "fusion_lon": 0.0, "rental_uris": {"android": "https://dc.lft.to/lastmile_qr_scan", "ios": "https://dc.lft.to/lastmile_qr_scan"}}, {"type": "electric_scooter", "name": "c81a0ee80e8a53186443cba0c0376f14", "lat": 38.923776, "fusion_lat": 0.0, "bike_id": "c81a0ee80e8a53186443cba0c0376f14", "is_reserved": 0, "lon": -77.02713983333334, "is_disabled": 0, "fusion_lon": 0.0, "rental_uris": {"android": "https://dc.lft.to/lastmile_qr_scan", "ios": "https://dc.lft.to/lastmile_qr_scan"}}, {"type": "electric_scooter", "name": "1836e6484e4e126c41fde7f731c6cb00", "lat": 38.88742383333334, "fusion_lat": 0.0, "bike_id": "1836e6484e4e126c41fde7f731c6cb00", "is_reserved": 0, "lon": -77.02230583333333, "is_disabled": 0, "fusion_lon": 0.0, "rental_uris": {"android": "https://dc.lft.to/lastmile_qr_scan", "ios": "https://dc.lft.to/lastmile_qr_scan"}}, {"type": "electric_scooter", "name": "05e85142780e169711f3c968bf8999e9", "lat": 38.9243385, "fusion_lat": 0.0, "bike_id": "05e85142780e169711f3c968bf8999e9", "is_reserved": 0, "lon": -77.04248416666667, "is_disabled": 0, "fusion_lon": 0.0, "rental_uris": {"android": "https://dc.lft.to/lastmile_qr_scan", "ios": "https://dc.lft.to/lastmile_qr_scan"}}, {"type": "electric_scooter", "name": "db70a8ee8c070ca8bc0d2cfd7324dd64", "lat": 38.90852983333333, "fusion_lat": 0.0, "bike_id": "db70a8ee8c070ca8bc0d2cfd7324dd64", "is_reserved": 0, "lon": -77.03928183333333, "is_disabled": 0, "fusion_lon": 0.0, "rental_uris": {"android": "https://dc.lft.to/lastmile_qr_scan", "ios": "https://dc.lft.to/lastmile_qr_scan"}}, {"type": "electric_scooter", "name": "4aaea616b1dc590ab6376d1ffc719dbd", "lat": 38.874852833333335, "fusion_lat": 0.0, "bike_id": "4aaea616b1dc590ab6376d1ffc719dbd", "is_reserved": 0, "lon": -77.00600066666667, "is_disabled": 0, "fusion_lon": 0.0, "rental_uris": {"android": "https://dc.lft.to/lastmile_qr_scan", "ios": "https://dc.lft.to/lastmile_qr_scan"}}, {"type": "electric_scooter", "name": "7ed3e5eb84df77d789446dfc0588c222", "lat": 38.898192333333334, "fusion_lat": 0.0, "bike_id": "7ed3e5eb84df77d789446dfc0588c222", "is_reserved": 0, "lon": -77.0314815, "is_disabled": 0, "fusion_lon": 0.0, "rental_uris": {"android": "https://dc.lft.to/lastmile_qr_scan", "ios": "https://dc.lft.to/lastmile_qr_scan"}}, {"type": "electric_scooter", "name": "e26b3e1de7cf77544c77c1c1058fe1b1", "lat": 38.905213, "fusion_lat": 0.0, "bike_id": "e26b3e1de7cf77544c77c1c1058fe1b1", "is_reserved": 0, "lon": -77.0312205, "is_disabled": 0, "fusion_lon": 0.0, "rental_uris": {"android": "https://dc.lft.to/lastmile_qr_scan", "ios": "https://dc.lft.to/lastmile_qr_scan"}}, {"type": "electric_scooter", "name": "0b168b5a78e0a0502328fb1e09dfea50", "lat": 38.916367666666666, "fusion_lat": 0.0, "bike_id": "0b168b5a78e0a0502328fb1e09dfea50", "is_reserved": 0, "lon": -77.02551116666666, "is_disabled": 0, "fusion_lon": 0.0, "rental_uris": {"android": "https://dc.lft.to/lastmile_qr_scan", "ios": "https://dc.lft.to/lastmile_qr_scan"}}, {"type": "electric_bike", "name": "16f7244aa4f93c10d987951c3ea9a1c3", "lat": 38.896167166666665, "fusion_lat": 0.0, "bike_id": "16f7244aa4f93c10d987951c3ea9a1c3", "is_reserved": 0, "lon": -76.90731933333333, "is_disabled": 0, "fusion_lon": 0.0, "rental_uris": {"android": "https://dc.lft.to/lastmile_qr_scan", "ios": "https://dc.lft.to/lastmile_qr_scan"}}, {"type": "electric_bike", "name": "aed1a002a1a16549544f80339e986d3d", "lat": 38.8461165, "fusion_lat": 0.0, "bike_id": "aed1a002a1a16549544f80339e986d3d", "is_reserved": 0, "lon": -76.969101, "is_disabled": 0, "fusion_lon": 0.0, "rental_uris": {"android": "https://dc.lft.to/lastmile_qr_scan", "ios": "https://dc.lft.to/lastmile_qr_scan"}}, {"type": "electric_scooter", "name": "0718396b000634a1efd7c3ee12c042d0", "lat": 38.91682466666666, "fusion_lat": 0.0, "bike_id": "0718396b000634a1efd7c3ee12c042d0", "is_reserved": 0, "lon": -77.0376425, "is_disabled": 0, "fusion_lon": 0.0, "rental_uris": {"android": "https://dc.lft.to/lastmile_qr_scan", "ios": "https://dc.lft.to/lastmile_qr_scan"}}, {"type": "electric_scooter", "name": "1b0c647b5bd57d5c44a4817ddcd3c8c8", "lat": 38.918817833333335, "fusion_lat": 0.0, "bike_id": "1b0c647b5bd57d5c44a4817ddcd3c8c8", "is_reserved": 0, "lon": -77.02190966666667, "is_disabled": 0, "fusion_lon": 0.0, "rental_uris": {"android": "https://dc.lft.to/lastmile_qr_scan", "ios": "https://dc.lft.to/lastmile_qr_scan"}}, {"type": "electric_scooter", "name": "a8621a03db9d38fb7110a7c729bb323c", "lat": 38.92502566666667, "fusion_lat": 0.0, "bike_id": "a8621a03db9d38fb7110a7c729bb323c", "is_reserved": 0, "lon": -77.0575745, "is_disabled": 0, "fusion_lon": 0.0, "rental_uris": {"android": "https://dc.lft.to/lastmile_qr_scan", "ios": "https://dc.lft.to/lastmile_qr_scan"}}, {"type": "electric_scooter", "name": "929ec56c5504c9b7f29bfeaf8ad1dba7", "lat": 38.91908, "fusion_lat": 0.0, "bike_id": "929ec56c5504c9b7f29bfeaf8ad1dba7", "is_reserved": 0, "lon": -77.0311015, "is_disabled": 0, "fusion_lon": 0.0, "rental_uris": {"android": "https://dc.lft.to/lastmile_qr_scan", "ios": "https://dc.lft.to/lastmile_qr_scan"}}, {"type": "electric_bike", "name": "076179bc03ceb0f1feb8f04f138747dc", "lat": 38.89043366666667, "fusion_lat": 0.0, "bike_id": "076179bc03ceb0f1feb8f04f138747dc", "is_reserved": 0, "lon": -76.9374945, "is_disabled": 0, "fusion_lon": 0.0, "rental_uris": {"android": "https://dc.lft.to/lastmile_qr_scan", "ios": "https://dc.lft.to/lastmile_qr_scan"}}, {"type": "electric_bike", "name": "94096e8aae607adb990c864a8c211625", "lat": 38.87426966666666, "fusion_lat": 0.0, "bike_id": "94096e8aae607adb990c864a8c211625", "is_reserved": 0, "lon": -77.08561666666667, "is_disabled": 0, "fusion_lon": 0.0, "rental_uris": {"android": "https://dc.lft.to/lastmile_qr_scan", "ios": "https://dc.lft.to/lastmile_qr_scan"}}, {"type": "electric_bike", "name": "54ad58185dbfd49edb0a40bd2f77f2f2", "lat": 38.87555283333333, "fusion_lat": 0.0, "bike_id": "54ad58185dbfd49edb0a40bd2f77f2f2", "is_reserved": 0, "lon": -77.106933, "is_disabled": 0, "fusion_lon": 0.0, "rental_uris": {"android": "https://dc.lft.to/lastmile_qr_scan", "ios": "https://dc.lft.to/lastmile_qr_scan"}}, {"type": "electric_bike", "name": "927a73981103f8cafeeca061dd51e558", "lat": 38.874934, "fusion_lat": 0.0, "bike_id": "927a73981103f8cafeeca061dd51e558", "is_reserved": 0, "lon": -77.2112225, "is_disabled": 0, "fusion_lon": 0.0, "rental_uris": {"android": "https://dc.lft.to/lastmile_qr_scan", "ios": "https://dc.lft.to/lastmile_qr_scan"}}, {"type": "electric_scooter", "name": "fc89b104ad43b44b790530de4e2b8c5a", "lat": 38.897518833333336, "fusion_lat": 0.0, "bike_id": "fc89b104ad43b44b790530de4e2b8c5a", "is_reserved": 0, "lon": -77.03340916666667, "is_disabled": 0, "fusion_lon": 0.0, "rental_uris": {"android": "https://dc.lft.to/lastmile_qr_scan", "ios": "https://dc.lft.to/lastmile_qr_scan"}}, {"type": "electric_bike", "name": "f4e5420709bfb442c49f133ca84c59bc", "lat": 38.898144, "fusion_lat": 0.0, "bike_id": "f4e5420709bfb442c49f133ca84c59bc", "is_reserved": 0, "lon": -76.99053483333333, "is_disabled": 0, "fusion_lon": 0.0, "rental_uris": {"android": "https://dc.lft.to/lastmile_qr_scan", "ios": "https://dc.lft.to/lastmile_qr_scan"}}, {"type": "electric_scooter", "name": "67c3c2e3b31a7695d24620fb63543395", "lat": 38.91102716666666, "fusion_lat": 0.0, "bike_id": "67c3c2e3b31a7695d24620fb63543395", "is_reserved": 0, "lon": -77.043965, "is_disabled": 0, "fusion_lon": 0.0, "rental_uris": {"android": "https://dc.lft.to/lastmile_qr_scan", "ios": "https://dc.lft.to/lastmile_qr_scan"}}, {"type": "electric_scooter", "name": "021d2f75b0997385e77069949562abd5", "lat": 38.9165095, "fusion_lat": 0.0, "bike_id": "021d2f75b0997385e77069949562abd5", "is_reserved": 0, "lon": -77.03639266666667, "is_disabled": 0, "fusion_lon": 0.0, "rental_uris": {"android": "https://dc.lft.to/lastmile_qr_scan", "ios": "https://dc.lft.to/lastmile_qr_scan"}}, {"type": "electric_scooter", "name": "92f1db0d550024af14744306ff157f15", "lat": 38.91707533333334, "fusion_lat": 0.0, "bike_id": "92f1db0d550024af14744306ff157f15", "is_reserved": 0, "lon": -77.038609, "is_disabled": 0, "fusion_lon": 0.0, "rental_uris": {"android": "https://dc.lft.to/lastmile_qr_scan", "ios": "https://dc.lft.to/lastmile_qr_scan"}}, {"type": "electric_scooter", "name": "4d512716cbccdf6fda10154b3adee454", "lat": 38.93923016666667, "fusion_lat": 0.0, "bike_id": "4d512716cbccdf6fda10154b3adee454", "is_reserved": 0, "lon": -77.03661766666667, "is_disabled": 0, "fusion_lon": 0.0, "rental_uris": {"android": "https://dc.lft.to/lastmile_qr_scan", "ios": "https://dc.lft.to/lastmile_qr_scan"}}, {"type": "electric_bike", "name": "959d81c0df57ae91e996e3a01355e3ef", "lat": 38.940485333333335, "fusion_lat": 0.0, "bike_id": "959d81c0df57ae91e996e3a01355e3ef", "is_reserved": 0, "lon": -76.9041985, "is_disabled": 0, "fusion_lon": 0.0, "rental_uris": {"android": "https://dc.lft.to/lastmile_qr_scan", "ios": "https://dc.lft.to/lastmile_qr_scan"}}, {"type": "electric_scooter", "name": "7da3251429323c11f430fd53878d0434", "lat": 38.92437, "fusion_lat": 0.0, "bike_id": "7da3251429323c11f430fd53878d0434", "is_reserved": 0, "lon": -77.02024933333334, "is_disabled": 0, "fusion_lon": 0.0, "rental_uris": {"android": "https://dc.lft.to/lastmile_qr_scan", "ios": "https://dc.lft.to/lastmile_qr_scan"}}, {"type": "electric_scooter", "name": "3bed40bf6449b6c9ae51a9b6392a4904", "lat": 38.896768333333334, "fusion_lat": 0.0, "bike_id": "3bed40bf6449b6c9ae51a9b6392a4904", "is_reserved": 0, "lon": -77.02385933333333, "is_disabled": 0, "fusion_lon": 0.0, "rental_uris": {"android": "https://dc.lft.to/lastmile_qr_scan", "ios": "https://dc.lft.to/lastmile_qr_scan"}}, {"type": "electric_scooter", "name": "e2f89d0dbe5137b360fc477e46d7411d", "lat": 38.892439833333334, "fusion_lat": 0.0, "bike_id": "e2f89d0dbe5137b360fc477e46d7411d", "is_reserved": 0, "lon": -77.03954233333333, "is_disabled": 0, "fusion_lon": 0.0, "rental_uris": {"android": "https://dc.lft.to/lastmile_qr_scan", "ios": "https://dc.lft.to/lastmile_qr_scan"}}, {"type": "electric_scooter", "name": "42a3fe9612d13419fed5e42d2199618e", "lat": 38.90125916666667, "fusion_lat": 0.0, "bike_id": "42a3fe9612d13419fed5e42d2199618e", "is_reserved": 0, "lon": -77.0347625, "is_disabled": 0, "fusion_lon": 0.0, "rental_uris": {"android": "https://dc.lft.to/lastmile_qr_scan", "ios": "https://dc.lft.to/lastmile_qr_scan"}}, {"type": "electric_scooter", "name": "910dc51aa49de75f8e1e1a583418b883", "lat": 38.9233, "fusion_lat": 0.0, "bike_id": "910dc51aa49de75f8e1e1a583418b883", "is_reserved": 0, "lon": -77.05347283333333, "is_disabled": 0, "fusion_lon": 0.0, "rental_uris": {"android": "https://dc.lft.to/lastmile_qr_scan", "ios": "https://dc.lft.to/lastmile_qr_scan"}}, {"type": "electric_scooter", "name": "6d83c48e72d9fcc4096fe2d5c21c867c", "lat": 38.879184333333335, "fusion_lat": 0.0, "bike_id": "6d83c48e72d9fcc4096fe2d5c21c867c", "is_reserved": 0, "lon": -77.005257, "is_disabled": 0, "fusion_lon": 0.0, "rental_uris": {"android": "https://dc.lft.to/lastmile_qr_scan", "ios": "https://dc.lft.to/lastmile_qr_scan"}}, {"type": "electric_scooter", "name": "3e75f8f947ecb4244069d86a208ace21", "lat": 38.932985, "fusion_lat": 0.0, "bike_id": "3e75f8f947ecb4244069d86a208ace21", "is_reserved": 0, "lon": -77.0398765, "is_disabled": 0, "fusion_lon": 0.0, "rental_uris": {"android": "https://dc.lft.to/lastmile_qr_scan", "ios": "https://dc.lft.to/lastmile_qr_scan"}}, {"type": "electric_bike", "name": "b2b859cc2197b7742fd214ec31d73167", "lat": 38.896925833333334, "fusion_lat": 0.0, "bike_id": "b2b859cc2197b7742fd214ec31d73167", "is_reserved": 0, "lon": -77.02410966666666, "is_disabled": 0, "fusion_lon": 0.0, "rental_uris": {"android": "https://dc.lft.to/lastmile_qr_scan", "ios": "https://dc.lft.to/lastmile_qr_scan"}}, {"type": "electric_scooter", "name": "f723a9e938287d2506aa3eac8aba6387", "lat": 38.92040866666667, "fusion_lat": 0.0, "bike_id": "f723a9e938287d2506aa3eac8aba6387", "is_reserved": 0, "lon": -77.031078, "is_disabled": 0, "fusion_lon": 0.0, "rental_uris": {"android": "https://dc.lft.to/lastmile_qr_scan", "ios": "https://dc.lft.to/lastmile_qr_scan"}}, {"type": "electric_scooter", "name": "140a21bdce96d63a912e25c0fa5e70d0", "lat": 38.903305, "fusion_lat": 0.0, "bike_id": "140a21bdce96d63a912e25c0fa5e70d0", "is_reserved": 0, "lon": -77.038297, "is_disabled": 0, "fusion_lon": 0.0, "rental_uris": {"android": "https://dc.lft.to/lastmile_qr_scan", "ios": "https://dc.lft.to/lastmile_qr_scan"}}, {"type": "electric_scooter", "name": "95c292911eec4128090e5c1a8afb0de9", "lat": 38.886626666666665, "fusion_lat": 0.0, "bike_id": "95c292911eec4128090e5c1a8afb0de9", "is_reserved": 0, "lon": -77.0338595, "is_disabled": 0, "fusion_lon": 0.0, "rental_uris": {"android": "https://dc.lft.to/lastmile_qr_scan", "ios": "https://dc.lft.to/lastmile_qr_scan"}}, {"type": "electric_scooter", "name": "ba9817a80c5d7dd8a700274dfaddfa2d", "lat": 38.905455, "fusion_lat": 0.0, "bike_id": "ba9817a80c5d7dd8a700274dfaddfa2d", "is_reserved": 0, "lon": -77.032431, "is_disabled": 0, "fusion_lon": 0.0, "rental_uris": {"android": "https://dc.lft.to/lastmile_qr_scan", "ios": "https://dc.lft.to/lastmile_qr_scan"}}, {"type": "electric_scooter", "name": "94560afe7fd2ad2897a101a2cc78f3eb", "lat": 38.895330666666666, "fusion_lat": 0.0, "bike_id": "94560afe7fd2ad2897a101a2cc78f3eb", "is_reserved": 0, "lon": -77.03156233333333, "is_disabled": 0, "fusion_lon": 0.0, "rental_uris": {"android": "https://dc.lft.to/lastmile_qr_scan", "ios": "https://dc.lft.to/lastmile_qr_scan"}}, {"type": "electric_scooter", "name": "7f40182c2f7e7cdb804177cb4af0c249", "lat": 38.924414, "fusion_lat": 0.0, "bike_id": "7f40182c2f7e7cdb804177cb4af0c249", "is_reserved": 0, "lon": -77.021489, "is_disabled": 0, "fusion_lon": 0.0, "rental_uris": {"android": "https://dc.lft.to/lastmile_qr_scan", "ios": "https://dc.lft.to/lastmile_qr_scan"}}, {"type": "electric_bike", "name": "0ec1674528f7b508d2aef8c6877d4763", "lat": 38.94818683333333, "fusion_lat": 0.0, "bike_id": "0ec1674528f7b508d2aef8c6877d4763", "is_reserved": 0, "lon": -77.0297495, "is_disabled": 0, "fusion_lon": 0.0, "rental_uris": {"android": "https://dc.lft.to/lastmile_qr_scan", "ios": "https://dc.lft.to/lastmile_qr_scan"}}, {"type": "electric_scooter", "name": "bd588253d463fb1af0429ddcff86a432", "lat": 38.855928666666664, "fusion_lat": 0.0, "bike_id": "bd588253d463fb1af0429ddcff86a432", "is_reserved": 0, "lon": -76.96662233333333, "is_disabled": 0, "fusion_lon": 0.0, "rental_uris": {"android": "https://dc.lft.to/lastmile_qr_scan", "ios": "https://dc.lft.to/lastmile_qr_scan"}}, {"type": "electric_scooter", "name": "70089f1e538a9f54612a2351cb8da8a7", "lat": 38.915557666666665, "fusion_lat": 0.0, "bike_id": "70089f1e538a9f54612a2351cb8da8a7", "is_reserved": 0, "lon": -77.03172566666667, "is_disabled": 0, "fusion_lon": 0.0, "rental_uris": {"android": "https://dc.lft.to/lastmile_qr_scan", "ios": "https://dc.lft.to/lastmile_qr_scan"}}, {"type": "electric_scooter", "name": "eb641ccc19d55fb2656a787c647648d7", "lat": 38.92365933333333, "fusion_lat": 0.0, "bike_id": "eb641ccc19d55fb2656a787c647648d7", "is_reserved": 0, "lon": -77.050284, "is_disabled": 0, "fusion_lon": 0.0, "rental_uris": {"android": "https://dc.lft.to/lastmile_qr_scan", "ios": "https://dc.lft.to/lastmile_qr_scan"}}, {"type": "electric_scooter", "name": "3adc363196363d73b23f4f0ae4544089", "lat": 38.8970795, "fusion_lat": 0.0, "bike_id": "3adc363196363d73b23f4f0ae4544089", "is_reserved": 0, "lon": -77.0228995, "is_disabled": 0, "fusion_lon": 0.0, "rental_uris": {"android": "https://dc.lft.to/lastmile_qr_scan", "ios": "https://dc.lft.to/lastmile_qr_scan"}}, {"type": "electric_scooter", "name": "d07a99a98202a00a8be9c0001f1efaef", "lat": 38.924819, "fusion_lat": 0.0, "bike_id": "d07a99a98202a00a8be9c0001f1efaef", "is_reserved": 0, "lon": -77.022647, "is_disabled": 0, "fusion_lon": 0.0, "rental_uris": {"android": "https://dc.lft.to/lastmile_qr_scan", "ios": "https://dc.lft.to/lastmile_qr_scan"}}, {"type": "electric_scooter", "name": "9cea924213ce09ff61118372eeca805e", "lat": 38.902797, "fusion_lat": 0.0, "bike_id": "9cea924213ce09ff61118372eeca805e", "is_reserved": 0, "lon": -77.04443283333333, "is_disabled": 0, "fusion_lon": 0.0, "rental_uris": {"android": "https://dc.lft.to/lastmile_qr_scan", "ios": "https://dc.lft.to/lastmile_qr_scan"}}, {"type": "electric_bike", "name": "a1722055915a71563b26546ab6ab2481", "lat": 38.844708, "fusion_lat": 0.0, "bike_id": "a1722055915a71563b26546ab6ab2481", "is_reserved": 0, "lon": -76.97854183333334, "is_disabled": 0, "fusion_lon": 0.0, "rental_uris": {"android": "https://dc.lft.to/lastmile_qr_scan", "ios": "https://dc.lft.to/lastmile_qr_scan"}}, {"type": "electric_scooter", "name": "5c124e779b187790f2ac34f905c602fa", "lat": 38.9056965, "fusion_lat": 0.0, "bike_id": "5c124e779b187790f2ac34f905c602fa", "is_reserved": 0, "lon": -77.00567783333334, "is_disabled": 0, "fusion_lon": 0.0, "rental_uris": {"android": "https://dc.lft.to/lastmile_qr_scan", "ios": "https://dc.lft.to/lastmile_qr_scan"}}, {"type": "electric_scooter", "name": "9c517d17ed5cf8f5e7418d8a7cd7a02b", "lat": 38.9318645, "fusion_lat": 0.0, "bike_id": "9c517d17ed5cf8f5e7418d8a7cd7a02b", "is_reserved": 0, "lon": -77.04298466666667, "is_disabled": 0, "fusion_lon": 0.0, "rental_uris": {"android": "https://dc.lft.to/lastmile_qr_scan", "ios": "https://dc.lft.to/lastmile_qr_scan"}}, {"type": "electric_scooter", "name": "f3eaf6423e32d823ccd7c7619ba416a2", "lat": 38.8989345, "fusion_lat": 0.0, "bike_id": "f3eaf6423e32d823ccd7c7619ba416a2", "is_reserved": 0, "lon": -77.0328785, "is_disabled": 0, "fusion_lon": 0.0, "rental_uris": {"android": "https://dc.lft.to/lastmile_qr_scan", "ios": "https://dc.lft.to/lastmile_qr_scan"}}, {"type": "electric_scooter", "name": "82f746401e5b0b86d77cdb659491ab2d", "lat": 38.9019815, "fusion_lat": 0.0, "bike_id": "82f746401e5b0b86d77cdb659491ab2d", "is_reserved": 0, "lon": -76.98198616666667, "is_disabled": 0, "fusion_lon": 0.0, "rental_uris": {"android": "https://dc.lft.to/lastmile_qr_scan", "ios": "https://dc.lft.to/lastmile_qr_scan"}}, {"type": "electric_scooter", "name": "0053987b66339108fa5472ce7dbf481d", "lat": 38.941252166666665, "fusion_lat": 0.0, "bike_id": "0053987b66339108fa5472ce7dbf481d", "is_reserved": 0, "lon": -77.01547666666667, "is_disabled": 0, "fusion_lon": 0.0, "rental_uris": {"android": "https://dc.lft.to/lastmile_qr_scan", "ios": "https://dc.lft.to/lastmile_qr_scan"}}, {"type": "electric_scooter", "name": "77b038e9652aace6cde642e51be27e47", "lat": 38.96038633333333, "fusion_lat": 0.0, "bike_id": "77b038e9652aace6cde642e51be27e47", "is_reserved": 0, "lon": -77.02794983333334, "is_disabled": 0, "fusion_lon": 0.0, "rental_uris": {"android": "https://dc.lft.to/lastmile_qr_scan", "ios": "https://dc.lft.to/lastmile_qr_scan"}}, {"type": "electric_scooter", "name": "d361eaa288706bc46a6f6032fb3c17f4", "lat": 38.9041765, "fusion_lat": 0.0, "bike_id": "d361eaa288706bc46a6f6032fb3c17f4", "is_reserved": 0, "lon": -77.0060485, "is_disabled": 0, "fusion_lon": 0.0, "rental_uris": {"android": "https://dc.lft.to/lastmile_qr_scan", "ios": "https://dc.lft.to/lastmile_qr_scan"}}, {"type": "electric_scooter", "name": "9bbc6d5c8e942c7a2c8377206318a8b5", "lat": 38.896638, "fusion_lat": 0.0, "bike_id": "9bbc6d5c8e942c7a2c8377206318a8b5", "is_reserved": 0, "lon": -77.018737, "is_disabled": 0, "fusion_lon": 0.0, "rental_uris": {"android": "https://dc.lft.to/lastmile_qr_scan", "ios": "https://dc.lft.to/lastmile_qr_scan"}}, {"type": "electric_scooter", "name": "14f176b9feba0e6ed19a1cb6a7c34130", "lat": 38.914073, "fusion_lat": 0.0, "bike_id": "14f176b9feba0e6ed19a1cb6a7c34130", "is_reserved": 0, "lon": -77.01559733333333, "is_disabled": 0, "fusion_lon": 0.0, "rental_uris": {"android": "https://dc.lft.to/lastmile_qr_scan", "ios": "https://dc.lft.to/lastmile_qr_scan"}}, {"type": "electric_scooter", "name": "8ac2938b6fbb9937cf74f58e9f9b9a95", "lat": 38.91301383333333, "fusion_lat": 0.0, "bike_id": "8ac2938b6fbb9937cf74f58e9f9b9a95", "is_reserved": 0, "lon": -77.04867233333333, "is_disabled": 0, "fusion_lon": 0.0, "rental_uris": {"android": "https://dc.lft.to/lastmile_qr_scan", "ios": "https://dc.lft.to/lastmile_qr_scan"}}, {"type": "electric_scooter", "name": "f3877a5c6bce560d49dfb27477c7381a", "lat": 38.89082666666667, "fusion_lat": 0.0, "bike_id": "f3877a5c6bce560d49dfb27477c7381a", "is_reserved": 0, "lon": -76.98821616666666, "is_disabled": 0, "fusion_lon": 0.0, "rental_uris": {"android": "https://dc.lft.to/lastmile_qr_scan", "ios": "https://dc.lft.to/lastmile_qr_scan"}}, {"type": "electric_scooter", "name": "337b3e0c68110da07b5bfb3519defbc1", "lat": 38.86505866666667, "fusion_lat": 0.0, "bike_id": "337b3e0c68110da07b5bfb3519defbc1", "is_reserved": 0, "lon": -76.98999366666666, "is_disabled": 0, "fusion_lon": 0.0, "rental_uris": {"android": "https://dc.lft.to/lastmile_qr_scan", "ios": "https://dc.lft.to/lastmile_qr_scan"}}, {"type": "electric_scooter", "name": "efe2bf2f71ae4e56e9593c2c770d55ea", "lat": 38.8845255, "fusion_lat": 0.0, "bike_id": "efe2bf2f71ae4e56e9593c2c770d55ea", "is_reserved": 0, "lon": -76.95096033333333, "is_disabled": 0, "fusion_lon": 0.0, "rental_uris": {"android": "https://dc.lft.to/lastmile_qr_scan", "ios": "https://dc.lft.to/lastmile_qr_scan"}}, {"type": "electric_scooter", "name": "1537324931903d8ab91ff43346778ecf", "lat": 38.8983765, "fusion_lat": 0.0, "bike_id": "1537324931903d8ab91ff43346778ecf", "is_reserved": 0, "lon": -77.007395, "is_disabled": 0, "fusion_lon": 0.0, "rental_uris": {"android": "https://dc.lft.to/lastmile_qr_scan", "ios": "https://dc.lft.to/lastmile_qr_scan"}}, {"type": "electric_scooter", "name": "0cefea9298637bfe84efcf4751efeebb", "lat": 38.9077215, "fusion_lat": 0.0, "bike_id": "0cefea9298637bfe84efcf4751efeebb", "is_reserved": 0, "lon": -77.0375075, "is_disabled": 0, "fusion_lon": 0.0, "rental_uris": {"android": "https://dc.lft.to/lastmile_qr_scan", "ios": "https://dc.lft.to/lastmile_qr_scan"}}, {"type": "electric_scooter", "name": "45f5c22a63628e8b135d34a9beae49dc", "lat": 38.907812, "fusion_lat": 0.0, "bike_id": "45f5c22a63628e8b135d34a9beae49dc", "is_reserved": 0, "lon": -77.0466705, "is_disabled": 0, "fusion_lon": 0.0, "rental_uris": {"android": "https://dc.lft.to/lastmile_qr_scan", "ios": "https://dc.lft.to/lastmile_qr_scan"}}, {"type": "electric_scooter", "name": "d19a8de952af9a378abcea17206eb872", "lat": 38.916932833333334, "fusion_lat": 0.0, "bike_id": "d19a8de952af9a378abcea17206eb872", "is_reserved": 0, "lon": -77.04339566666667, "is_disabled": 0, "fusion_lon": 0.0, "rental_uris": {"android": "https://dc.lft.to/lastmile_qr_scan", "ios": "https://dc.lft.to/lastmile_qr_scan"}}, {"type": "electric_scooter", "name": "b4a59f45c6a2d93b5a5a773eabd30cb6", "lat": 38.90231283333333, "fusion_lat": 0.0, "bike_id": "b4a59f45c6a2d93b5a5a773eabd30cb6", "is_reserved": 0, "lon": -77.0268485, "is_disabled": 0, "fusion_lon": 0.0, "rental_uris": {"android": "https://dc.lft.to/lastmile_qr_scan", "ios": "https://dc.lft.to/lastmile_qr_scan"}}, {"type": "electric_scooter", "name": "e6c7da4cbf9fa8f94cb54005b44a06a3", "lat": 38.92471366666667, "fusion_lat": 0.0, "bike_id": "e6c7da4cbf9fa8f94cb54005b44a06a3", "is_reserved": 0, "lon": -77.03546816666666, "is_disabled": 0, "fusion_lon": 0.0, "rental_uris": {"android": "https://dc.lft.to/lastmile_qr_scan", "ios": "https://dc.lft.to/lastmile_qr_scan"}}, {"type": "electric_scooter", "name": "1ed0bd1c16ff98d55bf8935283a2ca69", "lat": 38.9247015, "fusion_lat": 0.0, "bike_id": "1ed0bd1c16ff98d55bf8935283a2ca69", "is_reserved": 0, "lon": -77.02201883333333, "is_disabled": 0, "fusion_lon": 0.0, "rental_uris": {"android": "https://dc.lft.to/lastmile_qr_scan", "ios": "https://dc.lft.to/lastmile_qr_scan"}}, {"type": "electric_scooter", "name": "c36459917db9cd16f3d39c4d0a19d75d", "lat": 38.92939616666666, "fusion_lat": 0.0, "bike_id": "c36459917db9cd16f3d39c4d0a19d75d", "is_reserved": 0, "lon": -77.00575983333333, "is_disabled": 0, "fusion_lon": 0.0, "rental_uris": {"android": "https://dc.lft.to/lastmile_qr_scan", "ios": "https://dc.lft.to/lastmile_qr_scan"}}, {"type": "electric_scooter", "name": "8cb1ce1752b2d33b821ec7d4b16b8b65", "lat": 38.88431816666667, "fusion_lat": 0.0, "bike_id": "8cb1ce1752b2d33b821ec7d4b16b8b65", "is_reserved": 0, "lon": -76.95752, "is_disabled": 0, "fusion_lon": 0.0, "rental_uris": {"android": "https://dc.lft.to/lastmile_qr_scan", "ios": "https://dc.lft.to/lastmile_qr_scan"}}, {"type": "electric_scooter", "name": "0a6f778a0e55a8457a428d4bb7f0267d", "lat": 38.900291833333334, "fusion_lat": 0.0, "bike_id": "0a6f778a0e55a8457a428d4bb7f0267d", "is_reserved": 0, "lon": -77.03213633333333, "is_disabled": 0, "fusion_lon": 0.0, "rental_uris": {"android": "https://dc.lft.to/lastmile_qr_scan", "ios": "https://dc.lft.to/lastmile_qr_scan"}}, {"type": "electric_scooter", "name": "6d7556ec38f1ad9f33876e3746fad06f", "lat": 38.9309805, "fusion_lat": 0.0, "bike_id": "6d7556ec38f1ad9f33876e3746fad06f", "is_reserved": 0, "lon": -77.02448416666667, "is_disabled": 0, "fusion_lon": 0.0, "rental_uris": {"android": "https://dc.lft.to/lastmile_qr_scan", "ios": "https://dc.lft.to/lastmile_qr_scan"}}, {"type": "electric_scooter", "name": "6c074eafc6eb5ffef1af27768d393c56", "lat": 38.923997666666665, "fusion_lat": 0.0, "bike_id": "6c074eafc6eb5ffef1af27768d393c56", "is_reserved": 0, "lon": -77.02559416666666, "is_disabled": 0, "fusion_lon": 0.0, "rental_uris": {"android": "https://dc.lft.to/lastmile_qr_scan", "ios": "https://dc.lft.to/lastmile_qr_scan"}}, {"type": "electric_bike", "name": "c69e0bef8d7772f49863e89fc84d5097", "lat": 38.9646195, "fusion_lat": 0.0, "bike_id": "c69e0bef8d7772f49863e89fc84d5097", "is_reserved": 0, "lon": -77.0086565, "is_disabled": 0, "fusion_lon": 0.0, "rental_uris": {"android": "https://dc.lft.to/lastmile_qr_scan", "ios": "https://dc.lft.to/lastmile_qr_scan"}}, {"type": "electric_scooter", "name": "1f32f8364d115d9dc6889a4b9c1484c1", "lat": 38.915994, "fusion_lat": 0.0, "bike_id": "1f32f8364d115d9dc6889a4b9c1484c1", "is_reserved": 0, "lon": -77.03835, "is_disabled": 0, "fusion_lon": 0.0, "rental_uris": {"android": "https://dc.lft.to/lastmile_qr_scan", "ios": "https://dc.lft.to/lastmile_qr_scan"}}, {"type": "electric_scooter", "name": "5a8c2e4ece1b8f4c7135e44795936334", "lat": 38.909603, "fusion_lat": 0.0, "bike_id": "5a8c2e4ece1b8f4c7135e44795936334", "is_reserved": 0, "lon": -77.04754283333334, "is_disabled": 0, "fusion_lon": 0.0, "rental_uris": {"android": "https://dc.lft.to/lastmile_qr_scan", "ios": "https://dc.lft.to/lastmile_qr_scan"}}, {"type": "electric_scooter", "name": "483333627e46f15db38eb25d417287f5", "lat": 38.905833666666666, "fusion_lat": 0.0, "bike_id": "483333627e46f15db38eb25d417287f5", "is_reserved": 0, "lon": -77.04009116666667, "is_disabled": 0, "fusion_lon": 0.0, "rental_uris": {"android": "https://dc.lft.to/lastmile_qr_scan", "ios": "https://dc.lft.to/lastmile_qr_scan"}}, {"type": "electric_scooter", "name": "2f409d492bb515f604f118c1fc2bf392", "lat": 38.898291, "fusion_lat": 0.0, "bike_id": "2f409d492bb515f604f118c1fc2bf392", "is_reserved": 0, "lon": -76.94653033333333, "is_disabled": 0, "fusion_lon": 0.0, "rental_uris": {"android": "https://dc.lft.to/lastmile_qr_scan", "ios": "https://dc.lft.to/lastmile_qr_scan"}}, {"type": "electric_scooter", "name": "b378dcea09411ccb5ee79356cf3beae2", "lat": 38.92815016666667, "fusion_lat": 0.0, "bike_id": "b378dcea09411ccb5ee79356cf3beae2", "is_reserved": 0, "lon": -77.03267366666667, "is_disabled": 0, "fusion_lon": 0.0, "rental_uris": {"android": "https://dc.lft.to/lastmile_qr_scan", "ios": "https://dc.lft.to/lastmile_qr_scan"}}, {"type": "electric_scooter", "name": "3529efa42a3992031e3f069688707755", "lat": 38.924620833333336, "fusion_lat": 0.0, "bike_id": "3529efa42a3992031e3f069688707755", "is_reserved": 0, "lon": -77.02154566666667, "is_disabled": 0, "fusion_lon": 0.0, "rental_uris": {"android": "https://dc.lft.to/lastmile_qr_scan", "ios": "https://dc.lft.to/lastmile_qr_scan"}}, {"type": "electric_scooter", "name": "6adeeb45f5ef49e4f587d0b757a8f652", "lat": 38.9315505, "fusion_lat": 0.0, "bike_id": "6adeeb45f5ef49e4f587d0b757a8f652", "is_reserved": 0, "lon": -77.036143, "is_disabled": 0, "fusion_lon": 0.0, "rental_uris": {"android": "https://dc.lft.to/lastmile_qr_scan", "ios": "https://dc.lft.to/lastmile_qr_scan"}}, {"type": "electric_scooter", "name": "cc9021d2083438fcf3a0ea2d754a2d37", "lat": 38.92411716666667, "fusion_lat": 0.0, "bike_id": "cc9021d2083438fcf3a0ea2d754a2d37", "is_reserved": 0, "lon": -77.01942833333334, "is_disabled": 0, "fusion_lon": 0.0, "rental_uris": {"android": "https://dc.lft.to/lastmile_qr_scan", "ios": "https://dc.lft.to/lastmile_qr_scan"}}, {"type": "electric_scooter", "name": "35e9477d45ea1264ecf38df63fc84bbc", "lat": 38.879216166666666, "fusion_lat": 0.0, "bike_id": "35e9477d45ea1264ecf38df63fc84bbc", "is_reserved": 0, "lon": -77.01699916666666, "is_disabled": 0, "fusion_lon": 0.0, "rental_uris": {"android": "https://dc.lft.to/lastmile_qr_scan", "ios": "https://dc.lft.to/lastmile_qr_scan"}}, {"type": "electric_scooter", "name": "fccf68bdcc4f0681e370cfa2c95d89be", "lat": 38.89221633333333, "fusion_lat": 0.0, "bike_id": "fccf68bdcc4f0681e370cfa2c95d89be", "is_reserved": 0, "lon": -77.04689166666667, "is_disabled": 0, "fusion_lon": 0.0, "rental_uris": {"android": "https://dc.lft.to/lastmile_qr_scan", "ios": "https://dc.lft.to/lastmile_qr_scan"}}, {"type": "electric_scooter", "name": "4c56220a444a30ec60372a483affd55f", "lat": 38.903624666666666, "fusion_lat": 0.0, "bike_id": "4c56220a444a30ec60372a483affd55f", "is_reserved": 0, "lon": -77.03436733333334, "is_disabled": 0, "fusion_lon": 0.0, "rental_uris": {"android": "https://dc.lft.to/lastmile_qr_scan", "ios": "https://dc.lft.to/lastmile_qr_scan"}}, {"type": "electric_scooter", "name": "4c8ccc2289f836742dee8857d8925c59", "lat": 38.89557083333333, "fusion_lat": 0.0, "bike_id": "4c8ccc2289f836742dee8857d8925c59", "is_reserved": 0, "lon": -77.04670083333333, "is_disabled": 0, "fusion_lon": 0.0, "rental_uris": {"android": "https://dc.lft.to/lastmile_qr_scan", "ios": "https://dc.lft.to/lastmile_qr_scan"}}, {"type": "electric_scooter", "name": "b97a7b4be157601c6de9e63204484758", "lat": 38.8517515, "fusion_lat": 0.0, "bike_id": "b97a7b4be157601c6de9e63204484758", "is_reserved": 0, "lon": -76.9958135, "is_disabled": 0, "fusion_lon": 0.0, "rental_uris": {"android": "https://dc.lft.to/lastmile_qr_scan", "ios": "https://dc.lft.to/lastmile_qr_scan"}}, {"type": "electric_scooter", "name": "9d15a0fe3d5bb06cba541dd6a9137b90", "lat": 38.89734833333333, "fusion_lat": 0.0, "bike_id": "9d15a0fe3d5bb06cba541dd6a9137b90", "is_reserved": 0, "lon": -77.00367633333333, "is_disabled": 0, "fusion_lon": 0.0, "rental_uris": {"android": "https://dc.lft.to/lastmile_qr_scan", "ios": "https://dc.lft.to/lastmile_qr_scan"}}, {"type": "electric_scooter", "name": "4298264e7c08862af7a81da268c24018", "lat": 38.90777716666667, "fusion_lat": 0.0, "bike_id": "4298264e7c08862af7a81da268c24018", "is_reserved": 0, "lon": -77.001419, "is_disabled": 0, "fusion_lon": 0.0, "rental_uris": {"android": "https://dc.lft.to/lastmile_qr_scan", "ios": "https://dc.lft.to/lastmile_qr_scan"}}, {"type": "electric_scooter", "name": "d7a205eb47ddf51dd5ed6c9374b3c319", "lat": 38.866301666666665, "fusion_lat": 0.0, "bike_id": "d7a205eb47ddf51dd5ed6c9374b3c319", "is_reserved": 0, "lon": -76.98719316666667, "is_disabled": 0, "fusion_lon": 0.0, "rental_uris": {"android": "https://dc.lft.to/lastmile_qr_scan", "ios": "https://dc.lft.to/lastmile_qr_scan"}}, {"type": "electric_scooter", "name": "2b61be9005c7f50b3a7743003562a5ef", "lat": 38.876838166666666, "fusion_lat": 0.0, "bike_id": "2b61be9005c7f50b3a7743003562a5ef", "is_reserved": 0, "lon": -77.01754916666667, "is_disabled": 0, "fusion_lon": 0.0, "rental_uris": {"android": "https://dc.lft.to/lastmile_qr_scan", "ios": "https://dc.lft.to/lastmile_qr_scan"}}, {"type": "electric_scooter", "name": "b7198ffa18bf43b1c3a8003b36daaf08", "lat": 38.92258483333333, "fusion_lat": 0.0, "bike_id": "b7198ffa18bf43b1c3a8003b36daaf08", "is_reserved": 0, "lon": -77.03863433333333, "is_disabled": 0, "fusion_lon": 0.0, "rental_uris": {"android": "https://dc.lft.to/lastmile_qr_scan", "ios": "https://dc.lft.to/lastmile_qr_scan"}}, {"type": "electric_scooter", "name": "8bdd582673a01e4e514ac9de63cd24c1", "lat": 38.903040833333336, "fusion_lat": 0.0, "bike_id": "8bdd582673a01e4e514ac9de63cd24c1", "is_reserved": 0, "lon": -77.02361616666667, "is_disabled": 0, "fusion_lon": 0.0, "rental_uris": {"android": "https://dc.lft.to/lastmile_qr_scan", "ios": "https://dc.lft.to/lastmile_qr_scan"}}, {"type": "electric_scooter", "name": "d26bbab8d44702968b244f55824e84c1", "lat": 38.9155585, "fusion_lat": 0.0, "bike_id": "d26bbab8d44702968b244f55824e84c1", "is_reserved": 0, "lon": -77.0317825, "is_disabled": 0, "fusion_lon": 0.0, "rental_uris": {"android": "https://dc.lft.to/lastmile_qr_scan", "ios": "https://dc.lft.to/lastmile_qr_scan"}}, {"type": "electric_bike", "name": "31e6637bbe72623693bae4bd99908294", "lat": 38.984612166666665, "fusion_lat": 0.0, "bike_id": "31e6637bbe72623693bae4bd99908294", "is_reserved": 0, "lon": -76.97055233333333, "is_disabled": 0, "fusion_lon": 0.0, "rental_uris": {"android": "https://dc.lft.to/lastmile_qr_scan", "ios": "https://dc.lft.to/lastmile_qr_scan"}}, {"type": "electric_scooter", "name": "4a9bcf82c2d147711a20a22f9c7d2cf3", "lat": 38.9056885, "fusion_lat": 0.0, "bike_id": "4a9bcf82c2d147711a20a22f9c7d2cf3", "is_reserved": 0, "lon": -77.0039495, "is_disabled": 0, "fusion_lon": 0.0, "rental_uris": {"android": "https://dc.lft.to/lastmile_qr_scan", "ios": "https://dc.lft.to/lastmile_qr_scan"}}, {"type": "electric_scooter", "name": "a3eff2965b869a29417562cfc29778bb", "lat": 38.910045333333336, "fusion_lat": 0.0, "bike_id": "a3eff2965b869a29417562cfc29778bb", "is_reserved": 0, "lon": -77.03660383333333, "is_disabled": 0, "fusion_lon": 0.0, "rental_uris": {"android": "https://dc.lft.to/lastmile_qr_scan", "ios": "https://dc.lft.to/lastmile_qr_scan"}}, {"type": "electric_bike", "name": "9523248d0389456e46e965cf64f6a6c9", "lat": 38.90953866666667, "fusion_lat": 0.0, "bike_id": "9523248d0389456e46e965cf64f6a6c9", "is_reserved": 0, "lon": -76.99893216666666, "is_disabled": 0, "fusion_lon": 0.0, "rental_uris": {"android": "https://dc.lft.to/lastmile_qr_scan", "ios": "https://dc.lft.to/lastmile_qr_scan"}}, {"type": "electric_scooter", "name": "8f4f6aaeecc61f1c56489d6aeeb26f98", "lat": 38.92514666666667, "fusion_lat": 0.0, "bike_id": "8f4f6aaeecc61f1c56489d6aeeb26f98", "is_reserved": 0, "lon": -77.02142983333333, "is_disabled": 0, "fusion_lon": 0.0, "rental_uris": {"android": "https://dc.lft.to/lastmile_qr_scan", "ios": "https://dc.lft.to/lastmile_qr_scan"}}, {"type": "electric_scooter", "name": "2bbdadca2e31c49783db67ab63fc673d", "lat": 38.904012, "fusion_lat": 0.0, "bike_id": "2bbdadca2e31c49783db67ab63fc673d", "is_reserved": 0, "lon": -77.043614, "is_disabled": 0, "fusion_lon": 0.0, "rental_uris": {"android": "https://dc.lft.to/lastmile_qr_scan", "ios": "https://dc.lft.to/lastmile_qr_scan"}}, {"type": "electric_scooter", "name": "7a70d415f03e8b3faad926dac4518123", "lat": 38.91052583333333, "fusion_lat": 0.0, "bike_id": "7a70d415f03e8b3faad926dac4518123", "is_reserved": 0, "lon": -77.0323225, "is_disabled": 0, "fusion_lon": 0.0, "rental_uris": {"android": "https://dc.lft.to/lastmile_qr_scan", "ios": "https://dc.lft.to/lastmile_qr_scan"}}, {"type": "electric_scooter", "name": "c17b40cc09f9ea35a9016c28b2fab82b", "lat": 38.92957033333333, "fusion_lat": 0.0, "bike_id": "c17b40cc09f9ea35a9016c28b2fab82b", "is_reserved": 0, "lon": -77.02786783333333, "is_disabled": 0, "fusion_lon": 0.0, "rental_uris": {"android": "https://dc.lft.to/lastmile_qr_scan", "ios": "https://dc.lft.to/lastmile_qr_scan"}}, {"type": "electric_scooter", "name": "d9aba4c008dadf7b7f8a0e19249d5bcc", "lat": 38.93697733333333, "fusion_lat": 0.0, "bike_id": "d9aba4c008dadf7b7f8a0e19249d5bcc", "is_reserved": 0, "lon": -77.05597616666667, "is_disabled": 0, "fusion_lon": 0.0, "rental_uris": {"android": "https://dc.lft.to/lastmile_qr_scan", "ios": "https://dc.lft.to/lastmile_qr_scan"}}, {"type": "electric_scooter", "name": "76b84abbf68ec07c25f0e2b30cacc178", "lat": 38.9197245, "fusion_lat": 0.0, "bike_id": "76b84abbf68ec07c25f0e2b30cacc178", "is_reserved": 0, "lon": -77.02402366666666, "is_disabled": 0, "fusion_lon": 0.0, "rental_uris": {"android": "https://dc.lft.to/lastmile_qr_scan", "ios": "https://dc.lft.to/lastmile_qr_scan"}}, {"type": "electric_scooter", "name": "87157c5615909deb85d2ddb64337c085", "lat": 38.883108666666665, "fusion_lat": 0.0, "bike_id": "87157c5615909deb85d2ddb64337c085", "is_reserved": 0, "lon": -77.01763616666666, "is_disabled": 0, "fusion_lon": 0.0, "rental_uris": {"android": "https://dc.lft.to/lastmile_qr_scan", "ios": "https://dc.lft.to/lastmile_qr_scan"}}, {"type": "electric_scooter", "name": "5cd28a5ceff33c246300be4ddb429f55", "lat": 38.89887366666667, "fusion_lat": 0.0, "bike_id": "5cd28a5ceff33c246300be4ddb429f55", "is_reserved": 0, "lon": -77.00904133333333, "is_disabled": 0, "fusion_lon": 0.0, "rental_uris": {"android": "https://dc.lft.to/lastmile_qr_scan", "ios": "https://dc.lft.to/lastmile_qr_scan"}}, {"type": "electric_scooter", "name": "dd7e30220f1d0b584515dc843410be1b", "lat": 38.940862, "fusion_lat": 0.0, "bike_id": "dd7e30220f1d0b584515dc843410be1b", "is_reserved": 0, "lon": -77.03273966666667, "is_disabled": 0, "fusion_lon": 0.0, "rental_uris": {"android": "https://dc.lft.to/lastmile_qr_scan", "ios": "https://dc.lft.to/lastmile_qr_scan"}}, {"type": "electric_scooter", "name": "43bc1bcd97b0fa30147a594adb1e75da", "lat": 38.90139383333333, "fusion_lat": 0.0, "bike_id": "43bc1bcd97b0fa30147a594adb1e75da", "is_reserved": 0, "lon": -77.035577, "is_disabled": 0, "fusion_lon": 0.0, "rental_uris": {"android": "https://dc.lft.to/lastmile_qr_scan", "ios": "https://dc.lft.to/lastmile_qr_scan"}}, {"type": "electric_scooter", "name": "1c08bb00ae87ce04f9b2e5a8aaf6d239", "lat": 38.89753116666667, "fusion_lat": 0.0, "bike_id": "1c08bb00ae87ce04f9b2e5a8aaf6d239", "is_reserved": 0, "lon": -77.05152, "is_disabled": 0, "fusion_lon": 0.0, "rental_uris": {"android": "https://dc.lft.to/lastmile_qr_scan", "ios": "https://dc.lft.to/lastmile_qr_scan"}}, {"type": "electric_scooter", "name": "d7480243893da81457f135854c6ff4f7", "lat": 38.866828, "fusion_lat": 0.0, "bike_id": "d7480243893da81457f135854c6ff4f7", "is_reserved": 0, "lon": -76.98570366666667, "is_disabled": 0, "fusion_lon": 0.0, "rental_uris": {"android": "https://dc.lft.to/lastmile_qr_scan", "ios": "https://dc.lft.to/lastmile_qr_scan"}}, {"type": "electric_scooter", "name": "66723c081c7885b892c2bd386c5ecb3f", "lat": 38.9019105, "fusion_lat": 0.0, "bike_id": "66723c081c7885b892c2bd386c5ecb3f", "is_reserved": 0, "lon": -77.02064716666666, "is_disabled": 0, "fusion_lon": 0.0, "rental_uris": {"android": "https://dc.lft.to/lastmile_qr_scan", "ios": "https://dc.lft.to/lastmile_qr_scan"}}, {"type": "electric_scooter", "name": "14de455478810189e8e962a30a89595c", "lat": 38.89744183333333, "fusion_lat": 0.0, "bike_id": "14de455478810189e8e962a30a89595c", "is_reserved": 0, "lon": -76.979677, "is_disabled": 0, "fusion_lon": 0.0, "rental_uris": {"android": "https://dc.lft.to/lastmile_qr_scan", "ios": "https://dc.lft.to/lastmile_qr_scan"}}, {"type": "electric_scooter", "name": "507e1942538dd9dc576a446a32753928", "lat": 38.923649166666664, "fusion_lat": 0.0, "bike_id": "507e1942538dd9dc576a446a32753928", "is_reserved": 0, "lon": -77.05132933333333, "is_disabled": 0, "fusion_lon": 0.0, "rental_uris": {"android": "https://dc.lft.to/lastmile_qr_scan", "ios": "https://dc.lft.to/lastmile_qr_scan"}}, {"type": "electric_scooter", "name": "ecd3b560e10787a3bb668b102eb1ad80", "lat": 38.910630833333336, "fusion_lat": 0.0, "bike_id": "ecd3b560e10787a3bb668b102eb1ad80", "is_reserved": 0, "lon": -77.04241183333333, "is_disabled": 0, "fusion_lon": 0.0, "rental_uris": {"android": "https://dc.lft.to/lastmile_qr_scan", "ios": "https://dc.lft.to/lastmile_qr_scan"}}, {"type": "electric_scooter", "name": "98d85f09b22df24fbdd561cb84ae706d", "lat": 38.8964135, "fusion_lat": 0.0, "bike_id": "98d85f09b22df24fbdd561cb84ae706d", "is_reserved": 0, "lon": -77.00914683333333, "is_disabled": 0, "fusion_lon": 0.0, "rental_uris": {"android": "https://dc.lft.to/lastmile_qr_scan", "ios": "https://dc.lft.to/lastmile_qr_scan"}}, {"type": "electric_scooter", "name": "31d9a5a80eb30a0e24eed7a421a1e752", "lat": 38.916801666666665, "fusion_lat": 0.0, "bike_id": "31d9a5a80eb30a0e24eed7a421a1e752", "is_reserved": 0, "lon": -77.03686583333334, "is_disabled": 0, "fusion_lon": 0.0, "rental_uris": {"android": "https://dc.lft.to/lastmile_qr_scan", "ios": "https://dc.lft.to/lastmile_qr_scan"}}, {"type": "electric_scooter", "name": "56c6e207f707383ddbf1ca0d3e08e52a", "lat": 38.89221283333333, "fusion_lat": 0.0, "bike_id": "56c6e207f707383ddbf1ca0d3e08e52a", "is_reserved": 0, "lon": -77.04513183333333, "is_disabled": 0, "fusion_lon": 0.0, "rental_uris": {"android": "https://dc.lft.to/lastmile_qr_scan", "ios": "https://dc.lft.to/lastmile_qr_scan"}}, {"type": "electric_scooter", "name": "79d6eb3b0bf48e02c15a78a1d82acf77", "lat": 38.88493066666667, "fusion_lat": 0.0, "bike_id": "79d6eb3b0bf48e02c15a78a1d82acf77", "is_reserved": 0, "lon": -77.007265, "is_disabled": 0, "fusion_lon": 0.0, "rental_uris": {"android": "https://dc.lft.to/lastmile_qr_scan", "ios": "https://dc.lft.to/lastmile_qr_scan"}}, {"type": "electric_scooter", "name": "a26ab3a349963f6ce8331697cd108723", "lat": 38.955850166666664, "fusion_lat": 0.0, "bike_id": "a26ab3a349963f6ce8331697cd108723", "is_reserved": 0, "lon": -77.07017466666667, "is_disabled": 0, "fusion_lon": 0.0, "rental_uris": {"android": "https://dc.lft.to/lastmile_qr_scan", "ios": "https://dc.lft.to/lastmile_qr_scan"}}, {"type": "electric_scooter", "name": "109083f7544035c2431c936dc0227e03", "lat": 38.902048, "fusion_lat": 0.0, "bike_id": "109083f7544035c2431c936dc0227e03", "is_reserved": 0, "lon": -77.021622, "is_disabled": 0, "fusion_lon": 0.0, "rental_uris": {"android": "https://dc.lft.to/lastmile_qr_scan", "ios": "https://dc.lft.to/lastmile_qr_scan"}}, {"type": "electric_scooter", "name": "96aa51a54896870d8593b1365b2710c5", "lat": 38.91553716666667, "fusion_lat": 0.0, "bike_id": "96aa51a54896870d8593b1365b2710c5", "is_reserved": 0, "lon": -77.009717, "is_disabled": 0, "fusion_lon": 0.0, "rental_uris": {"android": "https://dc.lft.to/lastmile_qr_scan", "ios": "https://dc.lft.to/lastmile_qr_scan"}}, {"type": "electric_scooter", "name": "e79e98f45bf09fea22b02dd889a2d949", "lat": 38.91139066666667, "fusion_lat": 0.0, "bike_id": "e79e98f45bf09fea22b02dd889a2d949", "is_reserved": 0, "lon": -77.02197066666666, "is_disabled": 0, "fusion_lon": 0.0, "rental_uris": {"android": "https://dc.lft.to/lastmile_qr_scan", "ios": "https://dc.lft.to/lastmile_qr_scan"}}, {"type": "electric_scooter", "name": "714c54798611fd561963297504a1b45d", "lat": 38.88729583333333, "fusion_lat": 0.0, "bike_id": "714c54798611fd561963297504a1b45d", "is_reserved": 0, "lon": -77.025828, "is_disabled": 0, "fusion_lon": 0.0, "rental_uris": {"android": "https://dc.lft.to/lastmile_qr_scan", "ios": "https://dc.lft.to/lastmile_qr_scan"}}, {"type": "electric_scooter", "name": "7405bc4957f2e5104f72c16eabea9521", "lat": 38.9014275, "fusion_lat": 0.0, "bike_id": "7405bc4957f2e5104f72c16eabea9521", "is_reserved": 0, "lon": -76.99801483333333, "is_disabled": 0, "fusion_lon": 0.0, "rental_uris": {"android": "https://dc.lft.to/lastmile_qr_scan", "ios": "https://dc.lft.to/lastmile_qr_scan"}}, {"type": "electric_scooter", "name": "3a2b48d6316b7b2198894d56a559d2ad", "lat": 38.88600316666667, "fusion_lat": 0.0, "bike_id": "3a2b48d6316b7b2198894d56a559d2ad", "is_reserved": 0, "lon": -76.9559145, "is_disabled": 0, "fusion_lon": 0.0, "rental_uris": {"android": "https://dc.lft.to/lastmile_qr_scan", "ios": "https://dc.lft.to/lastmile_qr_scan"}}, {"type": "electric_scooter", "name": "e72ea7a46e1386b3e015dbf2892a6c87", "lat": 38.90277366666667, "fusion_lat": 0.0, "bike_id": "e72ea7a46e1386b3e015dbf2892a6c87", "is_reserved": 0, "lon": -77.02273066666666, "is_disabled": 0, "fusion_lon": 0.0, "rental_uris": {"android": "https://dc.lft.to/lastmile_qr_scan", "ios": "https://dc.lft.to/lastmile_qr_scan"}}, {"type": "electric_scooter", "name": "3a98d0b45c72171aef467f616890e7f5", "lat": 38.892223, "fusion_lat": 0.0, "bike_id": "3a98d0b45c72171aef467f616890e7f5", "is_reserved": 0, "lon": -77.0469005, "is_disabled": 0, "fusion_lon": 0.0, "rental_uris": {"android": "https://dc.lft.to/lastmile_qr_scan", "ios": "https://dc.lft.to/lastmile_qr_scan"}}, {"type": "electric_scooter", "name": "853d6e3285d3a9c9d684f1f2d1fa9e4a", "lat": 38.921233666666666, "fusion_lat": 0.0, "bike_id": "853d6e3285d3a9c9d684f1f2d1fa9e4a", "is_reserved": 0, "lon": -77.01911133333333, "is_disabled": 0, "fusion_lon": 0.0, "rental_uris": {"android": "https://dc.lft.to/lastmile_qr_scan", "ios": "https://dc.lft.to/lastmile_qr_scan"}}, {"type": "electric_scooter", "name": "ea61f23559d6d61691c8c41c9d4ebfbd", "lat": 38.938647333333336, "fusion_lat": 0.0, "bike_id": "ea61f23559d6d61691c8c41c9d4ebfbd", "is_reserved": 0, "lon": -77.02488283333334, "is_disabled": 0, "fusion_lon": 0.0, "rental_uris": {"android": "https://dc.lft.to/lastmile_qr_scan", "ios": "https://dc.lft.to/lastmile_qr_scan"}}, {"type": "electric_scooter", "name": "6f78a374153b97dd4f1354943082079d", "lat": 38.881846833333334, "fusion_lat": 0.0, "bike_id": "6f78a374153b97dd4f1354943082079d", "is_reserved": 0, "lon": -76.95890366666667, "is_disabled": 0, "fusion_lon": 0.0, "rental_uris": {"android": "https://dc.lft.to/lastmile_qr_scan", "ios": "https://dc.lft.to/lastmile_qr_scan"}}, {"type": "electric_scooter", "name": "6225b382a0746205f94d7edee2bf12f0", "lat": 38.8972625, "fusion_lat": 0.0, "bike_id": "6225b382a0746205f94d7edee2bf12f0", "is_reserved": 0, "lon": -77.02662183333334, "is_disabled": 0, "fusion_lon": 0.0, "rental_uris": {"android": "https://dc.lft.to/lastmile_qr_scan", "ios": "https://dc.lft.to/lastmile_qr_scan"}}, {"type": "electric_scooter", "name": "d6aca1d027f3ef060cb7ed0232712a9f", "lat": 38.931855166666665, "fusion_lat": 0.0, "bike_id": "d6aca1d027f3ef060cb7ed0232712a9f", "is_reserved": 0, "lon": -77.04297666666666, "is_disabled": 0, "fusion_lon": 0.0, "rental_uris": {"android": "https://dc.lft.to/lastmile_qr_scan", "ios": "https://dc.lft.to/lastmile_qr_scan"}}, {"type": "electric_scooter", "name": "be916725332e2c02031b4b4925ba9dd7", "lat": 38.86261666666667, "fusion_lat": 0.0, "bike_id": "be916725332e2c02031b4b4925ba9dd7", "is_reserved": 0, "lon": -76.9926695, "is_disabled": 0, "fusion_lon": 0.0, "rental_uris": {"android": "https://dc.lft.to/lastmile_qr_scan", "ios": "https://dc.lft.to/lastmile_qr_scan"}}, {"type": "electric_scooter", "name": "0f938d46754eb2af748cd28bf0b3a345", "lat": 38.89523066666667, "fusion_lat": 0.0, "bike_id": "0f938d46754eb2af748cd28bf0b3a345", "is_reserved": 0, "lon": -77.0447835, "is_disabled": 0, "fusion_lon": 0.0, "rental_uris": {"android": "https://dc.lft.to/lastmile_qr_scan", "ios": "https://dc.lft.to/lastmile_qr_scan"}}, {"type": "electric_scooter", "name": "c64fa5874a652186040fc6d07a857180", "lat": 38.892314999999996, "fusion_lat": 0.0, "bike_id": "c64fa5874a652186040fc6d07a857180", "is_reserved": 0, "lon": -77.050004, "is_disabled": 0, "fusion_lon": 0.0, "rental_uris": {"android": "https://dc.lft.to/lastmile_qr_scan", "ios": "https://dc.lft.to/lastmile_qr_scan"}}, {"type": "electric_scooter", "name": "4210c3ccd8486941fb0752162a20a310", "lat": 38.9051525, "fusion_lat": 0.0, "bike_id": "4210c3ccd8486941fb0752162a20a310", "is_reserved": 0, "lon": -77.04473983333334, "is_disabled": 0, "fusion_lon": 0.0, "rental_uris": {"android": "https://dc.lft.to/lastmile_qr_scan", "ios": "https://dc.lft.to/lastmile_qr_scan"}}, {"type": "electric_scooter", "name": "a8a086fc6983914a90c2ab14ea8984fe", "lat": 38.93587216666667, "fusion_lat": 0.0, "bike_id": "a8a086fc6983914a90c2ab14ea8984fe", "is_reserved": 0, "lon": -77.0381545, "is_disabled": 0, "fusion_lon": 0.0, "rental_uris": {"android": "https://dc.lft.to/lastmile_qr_scan", "ios": "https://dc.lft.to/lastmile_qr_scan"}}, {"type": "electric_scooter", "name": "237830dac5b36fd17e2f3c07145f3b62", "lat": 38.90443666666667, "fusion_lat": 0.0, "bike_id": "237830dac5b36fd17e2f3c07145f3b62", "is_reserved": 0, "lon": -77.04376066666667, "is_disabled": 0, "fusion_lon": 0.0, "rental_uris": {"android": "https://dc.lft.to/lastmile_qr_scan", "ios": "https://dc.lft.to/lastmile_qr_scan"}}, {"type": "electric_scooter", "name": "e48cf20ba048da7c7df4386572558240", "lat": 38.900027, "fusion_lat": 0.0, "bike_id": "e48cf20ba048da7c7df4386572558240", "is_reserved": 0, "lon": -76.99352916666666, "is_disabled": 0, "fusion_lon": 0.0, "rental_uris": {"android": "https://dc.lft.to/lastmile_qr_scan", "ios": "https://dc.lft.to/lastmile_qr_scan"}}, {"type": "electric_scooter", "name": "bf6ae9b1e0b7955f500c5bc96507820c", "lat": 38.926139, "fusion_lat": 0.0, "bike_id": "bf6ae9b1e0b7955f500c5bc96507820c", "is_reserved": 0, "lon": -77.021604, "is_disabled": 0, "fusion_lon": 0.0, "rental_uris": {"android": "https://dc.lft.to/lastmile_qr_scan", "ios": "https://dc.lft.to/lastmile_qr_scan"}}, {"type": "electric_scooter", "name": "e73522176835993f759bcf2f55a32c6f", "lat": 38.90727566666666, "fusion_lat": 0.0, "bike_id": "e73522176835993f759bcf2f55a32c6f", "is_reserved": 0, "lon": -77.0296065, "is_disabled": 0, "fusion_lon": 0.0, "rental_uris": {"android": "https://dc.lft.to/lastmile_qr_scan", "ios": "https://dc.lft.to/lastmile_qr_scan"}}, {"type": "electric_scooter", "name": "d457e3413e5a0c8562e4365f70705783", "lat": 38.905318, "fusion_lat": 0.0, "bike_id": "d457e3413e5a0c8562e4365f70705783", "is_reserved": 0, "lon": -76.99634616666667, "is_disabled": 0, "fusion_lon": 0.0, "rental_uris": {"android": "https://dc.lft.to/lastmile_qr_scan", "ios": "https://dc.lft.to/lastmile_qr_scan"}}, {"type": "electric_scooter", "name": "c47decefaee21eee26022a0699d90095", "lat": 38.901413166666664, "fusion_lat": 0.0, "bike_id": "c47decefaee21eee26022a0699d90095", "is_reserved": 0, "lon": -77.035621, "is_disabled": 0, "fusion_lon": 0.0, "rental_uris": {"android": "https://dc.lft.to/lastmile_qr_scan", "ios": "https://dc.lft.to/lastmile_qr_scan"}}, {"type": "electric_scooter", "name": "d721f689c3081ddcdb891443bfd4bcae", "lat": 38.92150866666667, "fusion_lat": 0.0, "bike_id": "d721f689c3081ddcdb891443bfd4bcae", "is_reserved": 0, "lon": -77.034956, "is_disabled": 0, "fusion_lon": 0.0, "rental_uris": {"android": "https://dc.lft.to/lastmile_qr_scan", "ios": "https://dc.lft.to/lastmile_qr_scan"}}, {"type": "electric_scooter", "name": "9a44ed2a61c1a9011e20d65e6b3f51b0", "lat": 38.92077316666666, "fusion_lat": 0.0, "bike_id": "9a44ed2a61c1a9011e20d65e6b3f51b0", "is_reserved": 0, "lon": -77.02473016666667, "is_disabled": 0, "fusion_lon": 0.0, "rental_uris": {"android": "https://dc.lft.to/lastmile_qr_scan", "ios": "https://dc.lft.to/lastmile_qr_scan"}}, {"type": "electric_scooter", "name": "dc91b0f1ba6f3a21b448c4b0cc91f119", "lat": 38.905807333333335, "fusion_lat": 0.0, "bike_id": "dc91b0f1ba6f3a21b448c4b0cc91f119", "is_reserved": 0, "lon": -77.04094333333333, "is_disabled": 0, "fusion_lon": 0.0, "rental_uris": {"android": "https://dc.lft.to/lastmile_qr_scan", "ios": "https://dc.lft.to/lastmile_qr_scan"}}, {"type": "electric_scooter", "name": "171d0b00506c053d31114aef380f7a96", "lat": 38.908705166666664, "fusion_lat": 0.0, "bike_id": "171d0b00506c053d31114aef380f7a96", "is_reserved": 0, "lon": -76.93337183333334, "is_disabled": 0, "fusion_lon": 0.0, "rental_uris": {"android": "https://dc.lft.to/lastmile_qr_scan", "ios": "https://dc.lft.to/lastmile_qr_scan"}}, {"type": "electric_scooter", "name": "5dbb8872a03ac6b2a4aaeded0235cd01", "lat": 38.927726166666666, "fusion_lat": 0.0, "bike_id": "5dbb8872a03ac6b2a4aaeded0235cd01", "is_reserved": 0, "lon": -77.02736033333333, "is_disabled": 0, "fusion_lon": 0.0, "rental_uris": {"android": "https://dc.lft.to/lastmile_qr_scan", "ios": "https://dc.lft.to/lastmile_qr_scan"}},