{"data": {"bikes": [{"is_disabled": 0, "fusion_lon": 0.0, "fusion_lat": 0.0, "lat": 38.9002835, "type": "electric_scooter", "lon": -76.99867233333333, "bike_id": "467564ec5b1851ceec9f4a25b20fafca", "rental_uris": {"android": "https://dc.lft.to/lastmile_qr_scan", "ios": "https://dc.lft.to/lastmile_qr_scan"}, "name": "467564ec5b1851ceec9f4a25b20fafca", "is_reserved": 0}, {"is_disabled": 0, "fusion_lon": 0.0, "fusion_lat": 0.0, "lat": 38.9038425, "type": "electric_scooter", "lon": -77.04867416666667, "bike_id": "4943627ddf30c566edff5c3b06ce501d", "rental_uris": {"android": "https://dc.lft.to/lastmile_qr_scan", "ios": "https://dc.lft.to/lastmile_qr_scan"}, "name": "4943627ddf30c566edff5c3b06ce501d", "is_reserved": 0}, {"is_disabled": 0, "fusion_lon": 0.0, "fusion_lat": 0.0, "lat": 38.898363333333336, "type": "electric_scooter", "lon": -76.946338, "bike_id": "1e9e1d38ac9134ae3997b2926bf8522a", "rental_uris": {"android": "https://dc.lft.to/lastmile_qr_scan", "ios": "https://dc.lft.to/lastmile_qr_scan"}, "name": "1e9e1d38ac9134ae3997b2926bf8522a", "is_reserved": 0}, {"is_disabled": 0, "fusion_lon": 0.0, "fusion_lat": 0.0, "lat": 38.91069366666667, "type": "electric_scooter", "lon": -77.04416633333334, "bike_id": "9d49a7fa05a7cd81da70a0a0eb0b981b", "rental_uris": {"android": "https://dc.lft.to/lastmile_qr_scan", "ios": "https://dc.lft.to/lastmile_qr_scan"}, "name": "9d49a7fa05a7cd81da70a0a0eb0b981b", "is_reserved": 0}, {"is_disabled": 0, "fusion_lon": 0.0, "fusion_lat": 0.0, "lat": 38.92753666666667, "type": "electric_scooter", "lon": -77.0328095, "bike_id": "a7677c0c3a69bd3fa12a2cd0a4a4266f", "rental_uris": {"android": "https://dc.lft.to/lastmile_qr_scan", "ios": "https://dc.lft.to/lastmile_qr_scan"}, "name": "a7677c0c3a69bd3fa12a2cd0a4a4266f", "is_reserved": 0}, {"is_disabled": 0, "fusion_lon": 0.0, "fusion_lat": 0.0, "lat": 38.907532333333336, "type": "electric_scooter", "lon": -77.038383, "bike_id": "d217b8178bf25e7c70920042436d45a9", "rental_uris": {"android": "https://dc.lft.to/lastmile_qr_scan", "ios": "https://dc.lft.to/lastmile_qr_scan"}, "name": "d217b8178bf25e7c70920042436d45a9", "is_reserved": 0}, {"is_disabled": 0, "fusion_lon": 0.0, "fusion_lat": 0.0, "lat": 38.899444, "type": "electric_scooter", "lon": -77.0546535, "bike_id": "b1c16b886e4c0ce2aa44ba37a31175f8", "rental_uris": {"android": "https://dc.lft.to/lastmile_qr_scan", "ios": "https://dc.lft.to/lastmile_qr_scan"}, "name": "b1c16b886e4c0ce2aa44ba37a31175f8", "is_reserved": 0}, {"is_disabled": 0, "fusion_lon": 0.0, "fusion_lat": 0.0, "lat": 38.92528633333333, "type": "electric_scooter", "lon": -77.0441945, "bike_id": "a2f1e4bbc733d9e65eb4010946cd227b", "rental_uris": {"android": "https://dc.lft.to/lastmile_qr_scan", "ios": "https://dc.lft.to/lastmile_qr_scan"}, "name": "a2f1e4bbc733d9e65eb4010946cd227b", "is_reserved": 0}, {"is_disabled": 0, "fusion_lon": 0.0, "fusion_lat": 0.0, "lat": 38.935246666666664, "type": "electric_scooter", "lon": -77.03255866666667, "bike_id": "4f1dcc5b4643aa5b47e172acfabd26ff", "rental_uris": {"android": "https://dc.lft.to/lastmile_qr_scan", "ios": "https://dc.lft.to/lastmile_qr_scan"}, "name": "4f1dcc5b4643aa5b47e172acfabd26ff", "is_reserved": 0}, {"is_disabled": 0, "fusion_lon": 0.0, "fusion_lat": 0.0, "lat": 38.89535766666667, "type": "electric_scooter", "lon": -77.041244, "bike_id": "f5f3dc56a77555f20c07b4d44664d51b", "rental_uris": {"android": "https://dc.lft.to/lastmile_qr_scan", "ios": "https://dc.lft.to/lastmile_qr_scan"}, "name": "f5f3dc56a77555f20c07b4d44664d51b", "is_reserved": 0}, {"is_disabled": 0, "fusion_lon": 0.0, "fusion_lat": 0.0, "lat": 38.905451666666664, "type": "electric_scooter", "lon": -77.00538783333333, "bike_id": "4e8ba629e2c9b7a7fdb38c8f4ac93742", "rental_uris": {"android": "https://dc.lft.to/lastmile_qr_scan", "ios": "https://dc.lft.to/lastmile_qr_scan"}, "name": "4e8ba629e2c9b7a7fdb38c8f4ac93742", "is_reserved": 0}, {"is_disabled": 0, "fusion_lon": 0.0, "fusion_lat": 0.0, "lat": 38.89681733333333, "type": "electric_scooter", "lon": -77.00496016666666, "bike_id": "5431955c9e1f3cac20b29d2b2350e34c", "rental_uris": {"android": "https://dc.lft.to/lastmile_qr_scan", "ios": "https://dc.lft.to/lastmile_qr_scan"}, "name": "5431955c9e1f3cac20b29d2b2350e34c", "is_reserved": 0}, {"is_disabled": 0, "fusion_lon": 0.0, "fusion_lat": 0.0, "lat": 38.9162625, "type": "electric_scooter", "lon": -77.040238, "bike_id": "87e21b615e3d9fadd58b204547481ccb", "rental_uris": {"android": "https://dc.lft.to/lastmile_qr_scan", "ios": "https://dc.lft.to/lastmile_qr_scan"}, "name": "87e21b615e3d9fadd58b204547481ccb", "is_reserved": 0}, {"is_disabled": 0, "fusion_lon": 0.0, "fusion_lat": 0.0, "lat": 38.86973066666667, "type": "electric_bike", "lon": -77.13231333333333, "bike_id": "d6d38dfc063264e6278f71019b06789d", "rental_uris": {"android": "https://dc.lft.to/lastmile_qr_scan", "ios": "https://dc.lft.to/lastmile_qr_scan"}, "name": "d6d38dfc063264e6278f71019b06789d", "is_reserved": 0}, {"is_disabled": 0, "fusion_lon": 0.0, "fusion_lat": 0.0, "lat": 38.916272166666666, "type": "electric_scooter", "lon": -77.0331135, "bike_id": "900d10b50b4ec9e81e349ad66ef040d2", "rental_uris": {"android": "https://dc.lft.to/lastmile_qr_scan", "ios": "https://dc.lft.to/lastmile_qr_scan"}, "name": "900d10b50b4ec9e81e349ad66ef040d2", "is_reserved": 0}, {"is_disabled": 0, "fusion_lon": 0.0, "fusion_lat": 0.0, "lat": 38.91914533333333, "type": "electric_scooter", "lon": -77.03178366666667, "bike_id": "fcdd4c65105c3ca6fa9bbd9236cf08a1", "rental_uris": {"android": "https://dc.lft.to/lastmile_qr_scan", "ios": "https://dc.lft.to/lastmile_qr_scan"}, "name": "fcdd4c65105c3ca6fa9bbd9236cf08a1", "is_reserved": 0}, {"is_disabled": 0, "fusion_lon": 0.0, "fusion_lat": 0.0, "lat": 38.88491333333333, "type": "electric_scooter", "lon": -77.02488083333333, "bike_id": "a70b53642d7e7abe620feafb734f97cb", "rental_uris": {"android": "https://dc.lft.to/lastmile_qr_scan", "ios": "https://dc.lft.to/lastmile_qr_scan"}, "name": "a70b53642d7e7abe620feafb734f97cb", "is_reserved": 0}, {"is_disabled": 0, "fusion_lon": 0.0, "fusion_lat": 0.0, "lat": 38.93230466666667, "type": "electric_scooter", "lon": -76.99935316666667, "bike_id": "c2fc14215d047ae527e53a41ba138f4a", "rental_uris": {"android": "https://dc.lft.to/lastmile_qr_scan", "ios": "https://dc.lft.to/lastmile_qr_scan"}, "name": "c2fc14215d047ae527e53a41ba138f4a", "is_reserved": 0}, {"is_disabled": 0, "fusion_lon": 0.0, "fusion_lat": 0.0, "lat": 38.89448983333333, "type": "electric_scooter", "lon": -77.0265255, "bike_id": "9ba8273114302d855c33679cae797610", "rental_uris": {"android": "https://dc.lft.to/lastmile_qr_scan", "ios": "https://dc.lft.to/lastmile_qr_scan"}, "name": "9ba8273114302d855c33679cae797610", "is_reserved": 0}, {"is_disabled": 0, "fusion_lon": 0.0, "fusion_lat": 0.0, "lat": 38.916880666666664, "type": "electric_scooter", "lon": -77.0298965, "bike_id": "e1bec962dad86013e7e496e3e13620f7", "rental_uris": {"android": "https://dc.lft.to/lastmile_qr_scan", "ios": "https://dc.lft.to/lastmile_qr_scan"}, "name": "e1bec962dad86013e7e496e3e13620f7", "is_reserved": 0}, {"is_disabled": 0, "fusion_lon": 0.0, "fusion_lat": 0.0, "lat": 38.920712, "type": "electric_scooter", "lon": -77.00058033333333, "bike_id": "e238af956788ec5da782ea892d136d28", "rental_uris": {"android": "https://dc.lft.to/lastmile_qr_scan", "ios": "https://dc.lft.to/lastmile_qr_scan"}, "name": "e238af956788ec5da782ea892d136d28", "is_reserved": 0}, {"is_disabled": 0, "fusion_lon": 0.0, "fusion_lat": 0.0, "lat": 38.931406833333334, "type": "electric_scooter", "lon": -77.04246083333334, "bike_id": "5a8a2a020db50ce7ce6ffbd8d2098ab1", "rental_uris": {"android": "https://dc.lft.to/lastmile_qr_scan", "ios": "https://dc.lft.to/lastmile_qr_scan"}, "name": "5a8a2a020db50ce7ce6ffbd8d2098ab1", "is_reserved": 0}, {"is_disabled": 0, "fusion_lon": 0.0, "fusion_lat": 0.0, "lat": 38.89608316666666, "type": "electric_scooter", "lon": -77.012007, "bike_id": "6c7a0efa96ee01ef9bca1bb006b5893b", "rental_uris": {"android": "https://dc.lft.to/lastmile_qr_scan", "ios": "https://dc.lft.to/lastmile_qr_scan"}, "name": "6c7a0efa96ee01ef9bca1bb006b5893b", "is_reserved": 0}, {"is_disabled": 0, "fusion_lon": 0.0, "fusion_lat": 0.0, "lat": 38.897400833333336, "type": "electric_scooter", "lon": -77.00341766666666, "bike_id": "76d5b8b831fe7eb7cc7f381965d81245", "rental_uris": {"android": "https://dc.lft.to/lastmile_qr_scan", "ios": "https://dc.lft.to/lastmile_qr_scan"}, "name": "76d5b8b831fe7eb7cc7f381965d81245", "is_reserved": 0}, {"is_disabled": 0, "fusion_lon": 0.0, "fusion_lat": 0.0, "lat": 38.8936045, "type": "electric_scooter", "lon": -76.94019683333333, "bike_id": "b3a6af3644a092e7e58731e61b369db6", "rental_uris": {"android": "https://dc.lft.to/lastmile_qr_scan", "ios": "https://dc.lft.to/lastmile_qr_scan"}, "name": "b3a6af3644a092e7e58731e61b369db6", "is_reserved": 0}, {"is_disabled": 0, "fusion_lon": 0.0, "fusion_lat": 0.0, "lat": 38.91094866666667, "type": "electric_scooter", "lon": -77.03188066666667, "bike_id": "87993a3791079dac846e3881b088c0b4", "rental_uris": {"android": "https://dc.lft.to/lastmile_qr_scan", "ios": "https://dc.lft.to/lastmile_qr_scan"}, "name": "87993a3791079dac846e3881b088c0b4", "is_reserved": 0}, {"is_disabled": 0, "fusion_lon": 0.0, "fusion_lat": 0.0, "lat": 38.89198783333333, "type": "electric_scooter", "lon": -77.03175333333333, "bike_id": "34f93f193f80bcb6e90c71adbb8a13b3", "rental_uris": {"android": "https://dc.lft.to/lastmile_qr_scan", "ios": "https://dc.lft.to/lastmile_qr_scan"}, "name": "34f93f193f80bcb6e90c71adbb8a13b3", "is_reserved": 0}, {"is_disabled": 0, "fusion_lon": 0.0, "fusion_lat": 0.0, "lat": 38.91006483333334, "type": "electric_scooter", "lon": -76.99399033333333, "bike_id": "7b3492da7be9ecbde7d79201952ab1b0", "rental_uris": {"android": "https://dc.lft.to/lastmile_qr_scan", "ios": "https://dc.lft.to/lastmile_qr_scan"}, "name": "7b3492da7be9ecbde7d79201952ab1b0", "is_reserved": 0}, {"is_disabled": 0, "fusion_lon": 0.0, "fusion_lat": 0.0, "lat": 38.874810333333336, "type": "electric_bike", "lon": -76.96524016666666, "bike_id": "c4ef0640e52e12f1d543593716e861cd", "rental_uris": {"android": "https://dc.lft.to/lastmile_qr_scan", "ios": "https://dc.lft.to/lastmile_qr_scan"}, "name": "c4ef0640e52e12f1d543593716e861cd", "is_reserved": 0}, {"is_disabled": 0, "fusion_lon": 0.0, "fusion_lat": 0.0, "lat": 38.92108266666666, "type": "electric_scooter", "lon": -77.04216416666667, "bike_id": "b9ddfd479832db08f0480a99c4024b02", "rental_uris": {"android": "https://dc.lft.to/lastmile_qr_scan", "ios": "https://dc.lft.to/lastmile_qr_scan"}, "name": "b9ddfd479832db08f0480a99c4024b02", "is_reserved": 0}, {"is_disabled": 0, "fusion_lon": 0.0, "fusion_lat": 0.0, "lat": 38.914136166666665, "type": "electric_scooter", "lon": -77.04180183333334, "bike_id": "e23641692aa666a87f8f6dcf29f2e823", "rental_uris": {"android": "https://dc.lft.to/lastmile_qr_scan", "ios": "https://dc.lft.to/lastmile_qr_scan"}, "name": "e23641692aa666a87f8f6dcf29f2e823", "is_reserved": 0}, {"is_disabled": 0, "fusion_lon": 0.0, "fusion_lat": 0.0, "lat": 38.91011816666666, "type": "electric_scooter", "lon": -76.99388333333333, "bike_id": "544757a79607fda9f42f22985d93caeb", "rental_uris": {"android": "https://dc.lft.to/lastmile_qr_scan", "ios": "https://dc.lft.to/lastmile_qr_scan"}, "name": "544757a79607fda9f42f22985d93caeb", "is_reserved": 0}, {"is_disabled": 0, "fusion_lon": 0.0, "fusion_lat": 0.0, "lat": 38.93758583333333, "type": "electric_scooter", "lon": -77.02496183333334, "bike_id": "465c8ec792b98f6b58d79ef7bc62b57d", "rental_uris": {"android": "https://dc.lft.to/lastmile_qr_scan", "ios": "https://dc.lft.to/lastmile_qr_scan"}, "name": "465c8ec792b98f6b58d79ef7bc62b57d", "is_reserved": 0}, {"is_disabled": 0, "fusion_lon": 0.0, "fusion_lat": 0.0, "lat": 38.927397, "type": "electric_scooter", "lon": -77.0120275, "bike_id": "9b608e35c2774a1d1490dd624d793a27", "rental_uris": {"android": "https://dc.lft.to/lastmile_qr_scan", "ios": "https://dc.lft.to/lastmile_qr_scan"}, "name": "9b608e35c2774a1d1490dd624d793a27", "is_reserved": 0}, {"is_disabled": 0, "fusion_lon": 0.0, "fusion_lat": 0.0, "lat": 38.908635833333335, "type": "electric_scooter", "lon": -77.02686866666667, "bike_id": "d097f05c6670b8e35c361c914c465e99", "rental_uris": {"android": "https://dc.lft.to/lastmile_qr_scan", "ios": "https://dc.lft.to/lastmile_qr_scan"}, "name": "d097f05c6670b8e35c361c914c465e99", "is_reserved": 0}, {"is_disabled": 0, "fusion_lon": 0.0, "fusion_lat": 0.0, "lat": 38.90528483333333, "type": "electric_scooter", "lon": -77.05704366666667, "bike_id": "a9cf33abdae151c8c1768a9e3a980e0b", "rental_uris": {"android": "https://dc.lft.to/lastmile_qr_scan", "ios": "https://dc.lft.to/lastmile_qr_scan"}, "name": "a9cf33abdae151c8c1768a9e3a980e0b", "is_reserved": 0}, {"is_disabled": 0, "fusion_lon": 0.0, "fusion_lat": 0.0, "lat": 38.84431166666667, "type": "electric_scooter", "lon": -76.997801, "bike_id": "775065cb5062e03b1ec49fc221232a17", "rental_uris": {"android": "https://dc.lft.to/lastmile_qr_scan", "ios": "https://dc.lft.to/lastmile_qr_scan"}, "name": "775065cb5062e03b1ec49fc221232a17", "is_reserved": 0}, {"is_disabled": 0, "fusion_lon": 0.0, "fusion_lat": 0.0, "lat": 38.93248883333333, "type": "electric_scooter", "lon": -77.03277016666667, "bike_id": "2253c400b8accac299344f271507312b", "rental_uris": {"android": "https://dc.lft.to/lastmile_qr_scan", "ios": "https://dc.lft.to/lastmile_qr_scan"}, "name": "2253c400b8accac299344f271507312b", "is_reserved": 0}, {"is_disabled": 0, "fusion_lon": 0.0, "fusion_lat": 0.0, "lat": 38.8856955, "type": "electric_scooter", "lon": -77.01543566666666, "bike_id": "a4a36480536a0397c35d76893b2cf522", "rental_uris": {"android": "https://dc.lft.to/lastmile_qr_scan", "ios": "https://dc.lft.to/lastmile_qr_scan"}, "name": "a4a36480536a0397c35d76893b2cf522", "is_reserved": 0}, {"is_disabled": 0, "fusion_lon": 0.0, "fusion_lat": 0.0, "lat": 38.92474033333333, "type": "electric_scooter", "lon": -77.0306275, "bike_id": "3f8d923a01d0f7822bcf36de0549dae0", "rental_uris": {"android": "https://dc.lft.to/lastmile_qr_scan", "ios": "https://dc.lft.to/lastmile_qr_scan"}, "name": "3f8d923a01d0f7822bcf36de0549dae0", "is_reserved": 0}, {"is_disabled": 0, "fusion_lon": 0.0, "fusion_lat": 0.0, "lat": 38.957770333333336, "type": "electric_bike", "lon": -76.9409655, "bike_id": "4715fd3268c315f5e8956d0e732671ad", "rental_uris": {"android": "https://dc.lft.to/lastmile_qr_scan", "ios": "https://dc.lft.to/lastmile_qr_scan"}, "name": "4715fd3268c315f5e8956d0e732671ad", "is_reserved": 0}, {"is_disabled": 0, "fusion_lon": 0.0, "fusion_lat": 0.0, "lat": 38.925804, "type": "electric_scooter", "lon": -77.03211333333333, "bike_id": "be6c847d0fbad346fafe97d0cc559602", "rental_uris": {"android": "https://dc.lft.to/lastmile_qr_scan", "ios": "https://dc.lft.to/lastmile_qr_scan"}, "name": "be6c847d0fbad346fafe97d0cc559602", "is_reserved": 0}, {"is_disabled": 0, "fusion_lon": 0.0, "fusion_lat": 0.0, "lat": 38.91516416666666, "type": "electric_scooter", "lon": -77.04597933333334, "bike_id": "bd4fa2acba0e56c01826dfb296548de6", "rental_uris": {"android": "https://dc.lft.to/lastmile_qr_scan", "ios": "https://dc.lft.to/lastmile_qr_scan"}, "name": "bd4fa2acba0e56c01826dfb296548de6", "is_reserved": 0}, {"is_disabled": 0, "fusion_lon": 0.0, "fusion_lat": 0.0, "lat": 38.906873833333336, "type": "electric_bike", "lon": -76.951937, "bike_id": "259dda3f84379ae36e9eb4d94ddcd097", "rental_uris": {"android": "https://dc.lft.to/lastmile_qr_scan", "ios": "https://dc.lft.to/lastmile_qr_scan"}, "name": "259dda3f84379ae36e9eb4d94ddcd097", "is_reserved": 0}, {"is_disabled": 0, "fusion_lon": 0.0, "fusion_lat": 0.0, "lat": 38.89002516666667, "type": "electric_scooter", "lon": -76.9373575, "bike_id": "935e63c3ad29f7f370cf88adb2ae4b24", "rental_uris": {"android": "https://dc.lft.to/lastmile_qr_scan", "ios": "https://dc.lft.to/lastmile_qr_scan"}, "name": "935e63c3ad29f7f370cf88adb2ae4b24", "is_reserved": 0}, {"is_disabled": 0, "fusion_lon": 0.0, "fusion_lat": 0.0, "lat": 38.89383216666667, "type": "electric_scooter", "lon": -76.94995116666666, "bike_id": "0c55334e05a9d01d0741fe7134a41e14", "rental_uris": {"android": "https://dc.lft.to/lastmile_qr_scan", "ios": "https://dc.lft.to/lastmile_qr_scan"}, "name": "0c55334e05a9d01d0741fe7134a41e14", "is_reserved": 0}, {"is_disabled": 0, "fusion_lon": 0.0, "fusion_lat": 0.0, "lat": 38.927322, "type": "electric_scooter", "lon": -77.02242633333333, "bike_id": "ef6e2ca3ae68bba73641b6b8c409e5ee", "rental_uris": {"android": "https://dc.lft.to/lastmile_qr_scan", "ios": "https://dc.lft.to/lastmile_qr_scan"}, "name": "ef6e2ca3ae68bba73641b6b8c409e5ee", "is_reserved": 0}, {"is_disabled": 0, "fusion_lon": 0.0, "fusion_lat": 0.0, "lat": 38.89390066666667, "type": "electric_scooter", "lon": -77.03199683333334, "bike_id": "300f753b39700ae4e41589269b0d4cd5", "rental_uris": {"android": "https://dc.lft.to/lastmile_qr_scan", "ios": "https://dc.lft.to/lastmile_qr_scan"}, "name": "300f753b39700ae4e41589269b0d4cd5", "is_reserved": 0}, {"is_disabled": 0, "fusion_lon": 0.0, "fusion_lat": 0.0, "lat": 38.928146166666664, "type": "electric_scooter", "lon": -77.01399383333333, "bike_id": "c7e21ebf2238ed83e6077f91b251442c", "rental_uris": {"android": "https://dc.lft.to/lastmile_qr_scan", "ios": "https://dc.lft.to/lastmile_qr_scan"}, "name": "c7e21ebf2238ed83e6077f91b251442c", "is_reserved": 0}, {"is_disabled": 0, "fusion_lon": 0.0, "fusion_lat": 0.0, "lat": 38.918466, "type": "electric_scooter", "lon": -77.02524916666667, "bike_id": "937eb807bba1cd5163a86ee2f60c10e5", "rental_uris": {"android": "https://dc.lft.to/lastmile_qr_scan", "ios": "https://dc.lft.to/lastmile_qr_scan"}, "name": "937eb807bba1cd5163a86ee2f60c10e5", "is_reserved": 0}, {"is_disabled": 0, "fusion_lon": 0.0, "fusion_lat": 0.0, "lat": 38.907183333333336, "type": "electric_scooter", "lon": -77.00381116666667, "bike_id": "84a372e4ab5ebf90a160af93d659dc72", "rental_uris": {"android": "https://dc.lft.to/lastmile_qr_scan", "ios": "https://dc.lft.to/lastmile_qr_scan"}, "name": "84a372e4ab5ebf90a160af93d659dc72", "is_reserved": 0}, {"is_disabled": 0, "fusion_lon": 0.0, "fusion_lat": 0.0, "lat": 38.85433916666667, "type": "electric_bike", "lon": -76.90968016666666, "bike_id": "ff29ad75a4ea805644b6672620dcd93e", "rental_uris": {"android": "https://dc.lft.to/lastmile_qr_scan", "ios": "https://dc.lft.to/lastmile_qr_scan"}, "name": "ff29ad75a4ea805644b6672620dcd93e", "is_reserved": 0}, {"is_disabled": 0, "fusion_lon": 0.0, "fusion_lat": 0.0, "lat": 38.89967766666667, "type": "electric_scooter", "lon": -77.04186933333334, "bike_id": "e5295a473928480bb7f1f2ce943e07cc", "rental_uris": {"android": "https://dc.lft.to/lastmile_qr_scan", "ios": "https://dc.lft.to/lastmile_qr_scan"}, "name": "e5295a473928480bb7f1f2ce943e07cc", "is_reserved": 0}, {"is_disabled": 0, "fusion_lon": 0.0, "fusion_lat": 0.0, "lat": 38.900837833333334, "type": "electric_scooter", "lon": -77.05000333333334, "bike_id": "0785b76837d0b096e9504ee2d6c01ed5", "rental_uris": {"android": "https://dc.lft.to/lastmile_qr_scan", "ios": "https://dc.lft.to/lastmile_qr_scan"}, "name": "0785b76837d0b096e9504ee2d6c01ed5", "is_reserved": 0}, {"is_disabled": 0, "fusion_lon": 0.0, "fusion_lat": 0.0, "lat": 38.86127333333334, "type": "electric_scooter", "lon": -76.98552566666666, "bike_id": "1a229643b490438810e6d717d78046e9", "rental_uris": {"android": "https://dc.lft.to/lastmile_qr_scan", "ios": "https://dc.lft.to/lastmile_qr_scan"}, "name": "1a229643b490438810e6d717d78046e9", "is_reserved": 0}, {"is_disabled": 0, "fusion_lon": 0.0, "fusion_lat": 0.0, "lat": 38.930186, "type": "electric_scooter", "lon": -77.03804166666667, "bike_id": "bdb8658aa3e106c03ce4ed20a3ee7aaa", "rental_uris": {"android": "https://dc.lft.to/lastmile_qr_scan", "ios": "https://dc.lft.to/lastmile_qr_scan"}, "name": "bdb8658aa3e106c03ce4ed20a3ee7aaa", "is_reserved": 0}, {"is_disabled": 0, "fusion_lon": 0.0, "fusion_lat": 0.0, "lat": 38.905747166666664, "type": "electric_scooter", "lon": -77.02197433333333, "bike_id": "b0bbaa0842a146ef8008de285f687f43", "rental_uris": {"android": "https://dc.lft.to/lastmile_qr_scan", "ios": "https://dc.lft.to/lastmile_qr_scan"}, "name": "b0bbaa0842a146ef8008de285f687f43", "is_reserved": 0}, {"is_disabled": 0, "fusion_lon": 0.0, "fusion_lat": 0.0, "lat": 38.87406083333333, "type": "electric_scooter", "lon": -77.00203216666667, "bike_id": "6ffa75e068e03eb82631d19456d13998", "rental_uris": {"android": "https://dc.lft.to/lastmile_qr_scan", "ios": "https://dc.lft.to/lastmile_qr_scan"}, "name": "6ffa75e068e03eb82631d19456d13998", "is_reserved": 0}, {"is_disabled": 0, "fusion_lon": 0.0, "fusion_lat": 0.0, "lat": 38.88794216666667, "type": "electric_scooter", "lon": -76.933566, "bike_id": "621bf935438255cbb14dfdd7652fc769", "rental_uris": {"android": "https://dc.lft.to/lastmile_qr_scan", "ios": "https://dc.lft.to/lastmile_qr_scan"}, "name": "621bf935438255cbb14dfdd7652fc769", "is_reserved": 0}, {"is_disabled": 0, "fusion_lon": 0.0, "fusion_lat": 0.0, "lat": 38.902646, "type": "electric_scooter", "lon": -77.03835383333333, "bike_id": "58457133024ad11cc9782da1d106593c", "rental_uris": {"android": "https://dc.lft.to/lastmile_qr_scan", "ios": "https://dc.lft.to/lastmile_qr_scan"}, "name": "58457133024ad11cc9782da1d106593c", "is_reserved": 0}, {"is_disabled": 0, "fusion_lon": 0.0, "fusion_lat": 0.0, "lat": 38.9317165, "type": "electric_scooter", "lon": -77.036401, "bike_id": "22134cab6e3a5895f4a0c151a5fd8bc2", "rental_uris": {"android": "https://dc.lft.to/lastmile_qr_scan", "ios": "https://dc.lft.to/lastmile_qr_scan"}, "name": "22134cab6e3a5895f4a0c151a5fd8bc2", "is_reserved": 0}, {"is_disabled": 0, "fusion_lon": 0.0, "fusion_lat": 0.0, "lat": 38.84618416666667, "type": "electric_scooter", "lon": -76.99633116666666, "bike_id": "c7893b68157787b4b2dcc90b5a3bf123", "rental_uris": {"android": "https://dc.lft.to/lastmile_qr_scan", "ios": "https://dc.lft.to/lastmile_qr_scan"}, "name": "c7893b68157787b4b2dcc90b5a3bf123", "is_reserved": 0}, {"is_disabled": 0, "fusion_lon": 0.0, "fusion_lat": 0.0, "lat": 38.945749, "type": "electric_bike", "lon": -76.9877705, "bike_id": "bf73dced77351621a666277fa4be620a", "rental_uris": {"android": "https://dc.lft.to/lastmile_qr_scan", "ios": "https://dc.lft.to/lastmile_qr_scan"}, "name": "bf73dced77351621a666277fa4be620a", "is_reserved": 0}, {"is_disabled": 0, "fusion_lon": 0.0, "fusion_lat": 0.0, "lat": 38.90451916666667, "type": "electric_scooter", "lon": -77.03473983333333, "bike_id": "a12dd82b79d56ae6c7556348c25bca15", "rental_uris": {"android": "https://dc.lft.to/lastmile_qr_scan", "ios": "https://dc.lft.to/lastmile_qr_scan"}, "name": "a12dd82b79d56ae6c7556348c25bca15", "is_reserved": 0}, {"is_disabled": 0, "fusion_lon": 0.0, "fusion_lat": 0.0, "lat": 38.936400666666664, "type": "electric_bike", "lon": -76.95454866666667, "bike_id": "56e9bd92482f62be5890dae715909da5", "rental_uris": {"android": "https://dc.lft.to/lastmile_qr_scan", "ios": "https://dc.lft.to/lastmile_qr_scan"}, "name": "56e9bd92482f62be5890dae715909da5", "is_reserved": 0}, {"is_disabled": 0, "fusion_lon": 0.0, "fusion_lat": 0.0, "lat": 38.892197833333334, "type": "electric_scooter", "lon": -77.031855, "bike_id": "2f166526ff6efe10c79599e5ef779e97", "rental_uris": {"android": "https://dc.lft.to/lastmile_qr_scan", "ios": "https://dc.lft.to/lastmile_qr_scan"}, "name": "2f166526ff6efe10c79599e5ef779e97", "is_reserved": 0}, {"is_disabled": 0, "fusion_lon": 0.0, "fusion_lat": 0.0, "lat": 38.9260935, "type": "electric_scooter", "lon": -77.0216755, "bike_id": "ec7d784986af9829efd30d1c458d4b39", "rental_uris": {"android": "https://dc.lft.to/lastmile_qr_scan", "ios": "https://dc.lft.to/lastmile_qr_scan"}, "name": "ec7d784986af9829efd30d1c458d4b39", "is_reserved": 0}, {"is_disabled": 0, "fusion_lon": 0.0, "fusion_lat": 0.0, "lat": 38.91578416666667, "type": "electric_scooter", "lon": -77.05010683333333, "bike_id": "e6bb9b946f2306e6ff3cff88e1fff7a1", "rental_uris": {"android": "https://dc.lft.to/lastmile_qr_scan", "ios": "https://dc.lft.to/lastmile_qr_scan"}, "name": "e6bb9b946f2306e6ff3cff88e1fff7a1", "is_reserved": 0}, {"is_disabled": 0, "fusion_lon": 0.0, "fusion_lat": 0.0, "lat": 38.90477666666666, "type": "electric_scooter", "lon": -77.03554616666666, "bike_id": "31fcd9b98ccf16d7632a62832ae6b9b8", "rental_uris": {"android": "https://dc.lft.to/lastmile_qr_scan", "ios": "https://dc.lft.to/lastmile_qr_scan"}, "name": "31fcd9b98ccf16d7632a62832ae6b9b8", "is_reserved": 0}, {"is_disabled": 0, "fusion_lon": 0.0, "fusion_lat": 0.0, "lat": 38.9101565, "type": "electric_scooter", "lon": -77.03860466666667, "bike_id": "f44227190a7286138264d11a71107c15", "rental_uris": {"android": "https://dc.lft.to/lastmile_qr_scan", "ios": "https://dc.lft.to/lastmile_qr_scan"}, "name": "f44227190a7286138264d11a71107c15", "is_reserved": 0}, {"is_disabled": 0, "fusion_lon": 0.0, "fusion_lat": 0.0, "lat": 38.9168955, "type": "electric_scooter", "lon": -77.037711, "bike_id": "a17b501fb88eb4c4b3f1441c9d1dd851", "rental_uris": {"android": "https://dc.lft.to/lastmile_qr_scan", "ios": "https://dc.lft.to/lastmile_qr_scan"}, "name": "a17b501fb88eb4c4b3f1441c9d1dd851", "is_reserved": 0}, {"is_disabled": 0, "fusion_lon": 0.0, "fusion_lat": 0.0, "lat": 38.900607666666666, "type": "electric_scooter", "lon": -77.048888, "bike_id": "0c3b6ce3645574c74a9340df66a1d4be", "rental_uris": {"android": "https://dc.lft.to/lastmile_qr_scan", "ios": "https://dc.lft.to/lastmile_qr_scan"}, "name": "0c3b6ce3645574c74a9340df66a1d4be", "is_reserved": 0}, {"is_disabled": 0, "fusion_lon": 0.0, "fusion_lat": 0.0, "lat": 38.89227966666667, "type": "electric_scooter", "lon": -77.02587433333333, "bike_id": "0a8c851e86a7d805dc88d418ab22dfc6", "rental_uris": {"android": "https://dc.lft.to/lastmile_qr_scan", "ios": "https://dc.lft.to/lastmile_qr_scan"}, "name": "0a8c851e86a7d805dc88d418ab22dfc6", "is_reserved": 0}, {"is_disabled": 0, "fusion_lon": 0.0, "fusion_lat": 0.0, "lat": 38.900161833333335, "type": "electric_scooter", "lon": -76.988221, "bike_id": "1dca63ee13ef44f33767ec45101d1fe5", "rental_uris": {"android": "https://dc.lft.to/lastmile_qr_scan", "ios": "https://dc.lft.to/lastmile_qr_scan"}, "name": "1dca63ee13ef44f33767ec45101d1fe5", "is_reserved": 0}, {"is_disabled": 0, "fusion_lon": 0.0, "fusion_lat": 0.0, "lat": 38.90789316666667, "type": "electric_scooter", "lon": -77.04985033333334, "bike_id": "b915c2ad38e2af3a487742fa710ac9d2", "rental_uris": {"android": "https://dc.lft.to/lastmile_qr_scan", "ios": "https://dc.lft.to/lastmile_qr_scan"}, "name": "b915c2ad38e2af3a487742fa710ac9d2", "is_reserved": 0}, {"is_disabled": 0, "fusion_lon": 0.0, "fusion_lat": 0.0, "lat": 38.919968, "type": "electric_scooter", "lon": -77.0327555, "bike_id": "9284f8c246fd27e359f1e9dd08cde88d", "rental_uris": {"android": "https://dc.lft.to/lastmile_qr_scan", "ios": "https://dc.lft.to/lastmile_qr_scan"}, "name": "9284f8c246fd27e359f1e9dd08cde88d", "is_reserved": 0}, {"is_disabled": 0, "fusion_lon": 0.0, "fusion_lat": 0.0, "lat": 38.921350333333336, "type": "electric_bike", "lon": -76.97532583333333, "bike_id": "624ec2a9a0c0d5672390c29f71264193", "rental_uris": {"android": "https://dc.lft.to/lastmile_qr_scan", "ios": "https://dc.lft.to/lastmile_qr_scan"}, "name": "624ec2a9a0c0d5672390c29f71264193", "is_reserved": 0}, {"is_disabled": 0, "fusion_lon": 0.0, "fusion_lat": 0.0, "lat": 38.87624116666667, "type": "electric_scooter", "lon": -76.96527716666667, "bike_id": "2d43db2b98590e4cc5a0cda5d57ad09d", "rental_uris": {"android": "https://dc.lft.to/lastmile_qr_scan", "ios": "https://dc.lft.to/lastmile_qr_scan"}, "name": "2d43db2b98590e4cc5a0cda5d57ad09d", "is_reserved": 0}, {"is_disabled": 0, "fusion_lon": 0.0, "fusion_lat": 0.0, "lat": 38.90559366666667, "type": "electric_scooter", "lon": -77.036372, "bike_id": "ba2de55e2b891d743b17b487d12173b0", "rental_uris": {"android": "https://dc.lft.to/lastmile_qr_scan", "ios": "https://dc.lft.to/lastmile_qr_scan"}, "name": "ba2de55e2b891d743b17b487d12173b0", "is_reserved": 0}, {"is_disabled": 0, "fusion_lon": 0.0, "fusion_lat": 0.0, "lat": 38.909767333333335, "type": "electric_bike", "lon": -76.997099, "bike_id": "e58813ec941914b1d5cd16b928c8ac18", "rental_uris": {"android": "https://dc.lft.to/lastmile_qr_scan", "ios": "https://dc.lft.to/lastmile_qr_scan"}, "name": "e58813ec941914b1d5cd16b928c8ac18", "is_reserved": 0}, {"is_disabled": 0, "fusion_lon": 0.0, "fusion_lat": 0.0, "lat": 38.918609333333336, "type": "electric_scooter", "lon": -77.04467933333333, "bike_id": "37abbe340689f4454b98e287c9adcc4c", "rental_uris": {"android": "https://dc.lft.to/lastmile_qr_scan", "ios": "https://dc.lft.to/lastmile_qr_scan"}, "name": "37abbe340689f4454b98e287c9adcc4c", "is_reserved": 0}, {"is_disabled": 0, "fusion_lon": 0.0, "fusion_lat": 0.0, "lat": 38.89944466666667, "type": "electric_bike", "lon": -77.03376583333333, "bike_id": "b134e11a86077f0bedabb8c0a5eca4c2", "rental_uris": {"android": "https://dc.lft.to/lastmile_qr_scan", "ios": "https://dc.lft.to/lastmile_qr_scan"}, "name": "b134e11a86077f0bedabb8c0a5eca4c2", "is_reserved": 0}, {"is_disabled": 0, "fusion_lon": 0.0, "fusion_lat": 0.0, "lat": 38.925766833333334, "type": "electric_scooter", "lon": -76.99492866666667, "bike_id": "58b8b26ea0c74ee3395ca5304e963d63", "rental_uris": {"android": "https://dc.lft.to/lastmile_qr_scan", "ios": "https://dc.lft.to/lastmile_qr_scan"}, "name": "58b8b26ea0c74ee3395ca5304e963d63", "is_reserved": 0}, {"is_disabled": 0, "fusion_lon": 0.0, "fusion_lat": 0.0, "lat": 38.919924333333334, "type": "electric_scooter", "lon": -77.02540283333333, "bike_id": "f9d0a88b284bc7e3eb8e59fb07b659e2", "rental_uris": {"android": "https://dc.lft.to/lastmile_qr_scan", "ios": "https://dc.lft.to/lastmile_qr_scan"}, "name": "f9d0a88b284bc7e3eb8e59fb07b659e2", "is_reserved": 0}, {"is_disabled": 0, "fusion_lon": 0.0, "fusion_lat": 0.0, "lat": 38.907621, "type": "electric_scooter", "lon": -77.02811983333334, "bike_id": "0334b0dbee382b577be3cae6f5faf15c", "rental_uris": {"android": "https://dc.lft.to/lastmile_qr_scan", "ios": "https://dc.lft.to/lastmile_qr_scan"}, "name": "0334b0dbee382b577be3cae6f5faf15c", "is_reserved": 0}, {"is_disabled": 0, "fusion_lon": 0.0, "fusion_lat": 0.0, "lat": 38.86355116666667, "type": "electric_scooter", "lon": -76.99052133333333, "bike_id": "bf6a9d41f40175c1a2c5244b907e0da4", "rental_uris": {"android": "https://dc.lft.to/lastmile_qr_scan", "ios": "https://dc.lft.to/lastmile_qr_scan"}, "name": "bf6a9d41f40175c1a2c5244b907e0da4", "is_reserved": 0}, {"is_disabled": 0, "fusion_lon": 0.0, "fusion_lat": 0.0, "lat": 38.898978666666665, "type": "electric_scooter", "lon": -76.99018116666667, "bike_id": "1a8013eebd054f79d7b958edff98f529", "rental_uris": {"android": "https://dc.lft.to/lastmile_qr_scan", "ios": "https://dc.lft.to/lastmile_qr_scan"}, "name": "1a8013eebd054f79d7b958edff98f529", "is_reserved": 0}, {"is_disabled": 0, "fusion_lon": 0.0, "fusion_lat": 0.0, "lat": 38.89984066666667, "type": "electric_scooter", "lon": -77.02041566666666, "bike_id": "995062b44f8b857b9d485f4cc680930e", "rental_uris": {"android": "https://dc.lft.to/lastmile_qr_scan", "ios": "https://dc.lft.to/lastmile_qr_scan"}, "name": "995062b44f8b857b9d485f4cc680930e", "is_reserved": 0}, {"is_disabled": 0, "fusion_lon": 0.0, "fusion_lat": 0.0, "lat": 38.8947015, "type": "electric_scooter", "lon": -76.99414016666667, "bike_id": "dbf2a52760caafa2de4e3ede89ae0312", "rental_uris": {"android": "https://dc.lft.to/lastmile_qr_scan", "ios": "https://dc.lft.to/lastmile_qr_scan"}, "name": "dbf2a52760caafa2de4e3ede89ae0312", "is_reserved": 0}, {"is_disabled": 0, "fusion_lon": 0.0, "fusion_lat": 0.0, "lat": 38.899610833333334, "type": "electric_scooter", "lon": -77.04784766666667, "bike_id": "93534cc5b4b974cf3f44debe970a51fe", "rental_uris": {"android": "https://dc.lft.to/lastmile_qr_scan", "ios": "https://dc.lft.to/lastmile_qr_scan"}, "name": "93534cc5b4b974cf3f44debe970a51fe", "is_reserved": 0}, {"is_disabled": 0, "fusion_lon": 0.0, "fusion_lat": 0.0, "lat": 38.921676833333336, "type": "electric_scooter", "lon": -76.993942, "bike_id": "bd5c067e08e92c647b443af05e9c1a4a", "rental_uris": {"android": "https://dc.lft.to/lastmile_qr_scan", "ios": "https://dc.lft.to/lastmile_qr_scan"}, "name": "bd5c067e08e92c647b443af05e9c1a4a", "is_reserved": 0}, {"is_disabled": 0, "fusion_lon": 0.0, "fusion_lat": 0.0, "lat": 38.90271283333333, "type": "electric_scooter", "lon": -77.03432016666666, "bike_id": "475fa0b705ec9a5a053cc8936666e027", "rental_uris": {"android": "https://dc.lft.to/lastmile_qr_scan", "ios": "https://dc.lft.to/lastmile_qr_scan"}, "name": "475fa0b705ec9a5a053cc8936666e027", "is_reserved": 0}, {"is_disabled": 0, "fusion_lon": 0.0, "fusion_lat": 0.0, "lat": 38.9257685, "type": "electric_scooter", "lon": -76.99494983333334, "bike_id": "ed72ce99322386f8000b50e1525732d7", "rental_uris": {"android": "https://dc.lft.to/lastmile_qr_scan", "ios": "https://dc.lft.to/lastmile_qr_scan"}, "name": "ed72ce99322386f8000b50e1525732d7", "is_reserved": 0}, {"is_disabled": 0, "fusion_lon": 0.0, "fusion_lat": 0.0, "lat": 38.90638783333333, "type": "electric_scooter", "lon": -77.00590133333333, "bike_id": "6a6f14296b6e7778a4f35a55d36c4039", "rental_uris": {"android": "https://dc.lft.to/lastmile_qr_scan", "ios": "https://dc.lft.to/lastmile_qr_scan"}, "name": "6a6f14296b6e7778a4f35a55d36c4039", "is_reserved": 0}, {"is_disabled": 0, "fusion_lon": 0.0, "fusion_lat": 0.0, "lat": 38.89995366666667, "type": "electric_scooter", "lon": -76.92232133333333, "bike_id": "95eecf7327021f4c183df3473a2833a1", "rental_uris": {"android": "https://dc.lft.to/lastmile_qr_scan", "ios": "https://dc.lft.to/lastmile_qr_scan"}, "name": "95eecf7327021f4c183df3473a2833a1", "is_reserved": 0}, {"is_disabled": 0, "fusion_lon": 0.0, "fusion_lat": 0.0, "lat": 38.918012833333336, "type": "electric_scooter", "lon": -77.04033783333334, "bike_id": "b6596aae2231ec5f997bfaed0a0976c2", "rental_uris": {"android": "https://dc.lft.to/lastmile_qr_scan", "ios": "https://dc.lft.to/lastmile_qr_scan"}, "name": "b6596aae2231ec5f997bfaed0a0976c2", "is_reserved": 0}, {"is_disabled": 0, "fusion_lon": 0.0, "fusion_lat": 0.0, "lat": 38.8993205, "type": "electric_scooter", "lon": -77.04027766666667, "bike_id": "9218955c377bbf1b5da0e136fac440ce", "rental_uris": {"android": "https://dc.lft.to/lastmile_qr_scan", "ios": "https://dc.lft.to/lastmile_qr_scan"}, "name": "9218955c377bbf1b5da0e136fac440ce", "is_reserved": 0}, {"is_disabled": 0, "fusion_lon": 0.0, "fusion_lat": 0.0, "lat": 38.882973166666666, "type": "electric_scooter", "lon": -76.9428655, "bike_id": "a2a245c6b5ab7ad82e80c83878ee3b38", "rental_uris": {"android": "https://dc.lft.to/lastmile_qr_scan", "ios": "https://dc.lft.to/lastmile_qr_scan"}, "name": "a2a245c6b5ab7ad82e80c83878ee3b38", "is_reserved": 0}, {"is_disabled": 0, "fusion_lon": 0.0, "fusion_lat": 0.0, "lat": 38.91038133333333, "type": "electric_scooter", "lon": -77.04342933333334, "bike_id": "8006cfe24cc5b86b53dfb1dd2a288666", "rental_uris": {"android": "https://dc.lft.to/lastmile_qr_scan", "ios": "https://dc.lft.to/lastmile_qr_scan"}, "name": "8006cfe24cc5b86b53dfb1dd2a288666", "is_reserved": 0}, {"is_disabled": 0, "fusion_lon": 0.0, "fusion_lat": 0.0, "lat": 38.903766833333336, "type": "electric_scooter", "lon": -77.0332715, "bike_id": "e0c58bc46cdf96dad396e963c8de973b", "rental_uris": {"android": "https://dc.lft.to/lastmile_qr_scan", "ios": "https://dc.lft.to/lastmile_qr_scan"}, "name": "e0c58bc46cdf96dad396e963c8de973b", "is_reserved": 0}, {"is_disabled": 0, "fusion_lon": 0.0, "fusion_lat": 0.0, "lat": 38.899748833333334, "type": "electric_scooter", "lon": -77.04173333333334, "bike_id": "1f0bfa3029b2fa2f785e9ac4b250b371", "rental_uris": {"android": "https://dc.lft.to/lastmile_qr_scan", "ios": "https://dc.lft.to/lastmile_qr_scan"}, "name": "1f0bfa3029b2fa2f785e9ac4b250b371", "is_reserved": 0}, {"is_disabled": 0, "fusion_lon": 0.0, "fusion_lat": 0.0, "lat": 38.930148833333334, "type": "electric_scooter", "lon": -77.05547883333334, "bike_id": "d65fbe85937965282901e561f5bd4912", "rental_uris": {"android": "https://dc.lft.to/lastmile_qr_scan", "ios": "https://dc.lft.to/lastmile_qr_scan"}, "name": "d65fbe85937965282901e561f5bd4912", "is_reserved": 0}, {"is_disabled": 0, "fusion_lon": 0.0, "fusion_lat": 0.0, "lat": 38.9179125, "type": "electric_scooter", "lon": -77.03192383333334, "bike_id": "8685c62057096af67e03f8d83c871aa4", "rental_uris": {"android": "https://dc.lft.to/lastmile_qr_scan", "ios": "https://dc.lft.to/lastmile_qr_scan"}, "name": "8685c62057096af67e03f8d83c871aa4", "is_reserved": 0}, {"is_disabled": 0, "fusion_lon": 0.0, "fusion_lat": 0.0, "lat": 38.93085166666667, "type": "electric_scooter", "lon": -77.027915, "bike_id": "01a5fb2ca80f10416c21ce9d63fee718", "rental_uris": {"android": "https://dc.lft.to/lastmile_qr_scan", "ios": "https://dc.lft.to/lastmile_qr_scan"}, "name": "01a5fb2ca80f10416c21ce9d63fee718", "is_reserved": 0}, {"is_disabled": 0, "fusion_lon": 0.0, "fusion_lat": 0.0, "lat": 38.90537966666667, "type": "electric_scooter", "lon": -77.00711833333334, "bike_id": "a3a4e90a82bf61ee017a8432a964de9e", "rental_uris": {"android": "https://dc.lft.to/lastmile_qr_scan", "ios": "https://dc.lft.to/lastmile_qr_scan"}, "name": "a3a4e90a82bf61ee017a8432a964de9e", "is_reserved": 0}, {"is_disabled": 0, "fusion_lon": 0.0, "fusion_lat": 0.0, "lat": 38.932876666666665, "type": "electric_scooter", "lon": -77.02448583333333, "bike_id": "08c6942394f24214fd0c1a6e10a16e39", "rental_uris": {"android": "https://dc.lft.to/lastmile_qr_scan", "ios": "https://dc.lft.to/lastmile_qr_scan"}, "name": "08c6942394f24214fd0c1a6e10a16e39", "is_reserved": 0}, {"is_disabled": 0, "fusion_lon": 0.0, "fusion_lat": 0.0, "lat": 38.867051333333336, "type": "electric_scooter", "lon": -76.98730633333334, "bike_id": "ed6d497474138a6d5d272b9ce5798030", "rental_uris": {"android": "https://dc.lft.to/lastmile_qr_scan", "ios": "https://dc.lft.to/lastmile_qr_scan"}, "name": "ed6d497474138a6d5d272b9ce5798030", "is_reserved": 0}, {"is_disabled": 0, "fusion_lon": 0.0, "fusion_lat": 0.0, "lat": 38.90863866666667, "type": "electric_scooter", "lon": -77.044767, "bike_id": "4bc3fb5a48aac960b9d8f0c7585f5c75", "rental_uris": {"android": "https://dc.lft.to/lastmile_qr_scan", "ios": "https://dc.lft.to/lastmile_qr_scan"}, "name": "4bc3fb5a48aac960b9d8f0c7585f5c75", "is_reserved": 0}, {"is_disabled": 0, "fusion_lon": 0.0, "fusion_lat": 0.0, "lat": 38.906363166666665, "type": "electric_scooter", "lon": -77.03878366666666, "bike_id": "6d383b30e446056ca46c442d3a42211a", "rental_uris": {"android": "https://dc.lft.to/lastmile_qr_scan", "ios": "https://dc.lft.to/lastmile_qr_scan"}, "name": "6d383b30e446056ca46c442d3a42211a", "is_reserved": 0}, {"is_disabled": 0, "fusion_lon": 0.0, "fusion_lat": 0.0, "lat": 38.898335333333335, "type": "electric_scooter", "lon": -77.0219185, "bike_id": "72e9ade50770fda2e3423831e377eb02", "rental_uris": {"android": "https://dc.lft.to/lastmile_qr_scan", "ios": "https://dc.lft.to/lastmile_qr_scan"}, "name": "72e9ade50770fda2e3423831e377eb02", "is_reserved": 0}, {"is_disabled": 0, "fusion_lon": 0.0, "fusion_lat": 0.0, "lat": 38.956104333333336, "type": "electric_scooter", "lon": -77.027593, "bike_id": "8256c031ac122a4412cf6258983e3b91", "rental_uris": {"android": "https://dc.lft.to/lastmile_qr_scan", "ios": "https://dc.lft.to/lastmile_qr_scan"}, "name": "8256c031ac122a4412cf6258983e3b91", "is_reserved": 0}, {"is_disabled": 0, "fusion_lon": 0.0, "fusion_lat": 0.0, "lat": 38.92431916666666, "type": "electric_bike", "lon": -76.90758, "bike_id": "4a1ede258b93e6a7925b95d63677f3fc", "rental_uris": {"android": "https://dc.lft.to/lastmile_qr_scan", "ios": "https://dc.lft.to/lastmile_qr_scan"}, "name": "4a1ede258b93e6a7925b95d63677f3fc", "is_reserved": 0}, {"is_disabled": 0, "fusion_lon": 0.0, "fusion_lat": 0.0, "lat": 38.91535966666667, "type": "electric_scooter", "lon": -77.03209233333334, "bike_id": "3acc432974305c596355e0e168672944", "rental_uris": {"android": "https://dc.lft.to/lastmile_qr_scan", "ios": "https://dc.lft.to/lastmile_qr_scan"}, "name": "3acc432974305c596355e0e168672944", "is_reserved": 0}, {"is_disabled": 0, "fusion_lon": 0.0, "fusion_lat": 0.0, "lat": 38.90344916666667, "type": "electric_scooter", "lon": -77.02581283333333, "bike_id": "75c8686a92f4302905ccc0a1f1dfffdb", "rental_uris": {"android": "https://dc.lft.to/lastmile_qr_scan", "ios": "https://dc.lft.to/lastmile_qr_scan"}, "name": "75c8686a92f4302905ccc0a1f1dfffdb", "is_reserved": 0}, {"is_disabled": 0, "fusion_lon": 0.0, "fusion_lat": 0.0, "lat": 38.9221755, "type": "electric_scooter", "lon": -77.03319916666666, "bike_id": "27c122e2b567cbaf635cb7a40b148497", "rental_uris": {"android": "https://dc.lft.to/lastmile_qr_scan", "ios": "https://dc.lft.to/lastmile_qr_scan"}, "name": "27c122e2b567cbaf635cb7a40b148497", "is_reserved": 0}, {"is_disabled": 0, "fusion_lon": 0.0, "fusion_lat": 0.0, "lat": 38.89524516666667, "type": "electric_scooter", "lon": -77.0241345, "bike_id": "c4dff9c9282b4abcdc7988e74a2a66fc", "rental_uris": {"android": "https://dc.lft.to/lastmile_qr_scan", "ios": "https://dc.lft.to/lastmile_qr_scan"}, "name": "c4dff9c9282b4abcdc7988e74a2a66fc", "is_reserved": 0}, {"is_disabled": 0, "fusion_lon": 0.0, "fusion_lat": 0.0, "lat": 38.917108, "type": "electric_scooter", "lon": -77.02617433333333, "bike_id": "9e55fe280c5d858666e7257a68835642", "rental_uris": {"android": "https://dc.lft.to/lastmile_qr_scan", "ios": "https://dc.lft.to/lastmile_qr_scan"}, "name": "9e55fe280c5d858666e7257a68835642", "is_reserved": 0}, {"is_disabled": 0, "fusion_lon": 0.0, "fusion_lat": 0.0, "lat": 38.906981333333334, "type": "electric_scooter", "lon": -77.06296316666666, "bike_id": "d23725b5212f94c981774301dcbcf8d5", "rental_uris": {"android": "https://dc.lft.to/lastmile_qr_scan", "ios": "https://dc.lft.to/lastmile_qr_scan"}, "name": "d23725b5212f94c981774301dcbcf8d5", "is_reserved": 0}, {"is_disabled": 0, "fusion_lon": 0.0, "fusion_lat": 0.0, "lat": 38.89974466666666, "type": "electric_scooter", "lon": -77.04186666666666, "bike_id": "e3099b0e1a042a7126844f2a39a71413", "rental_uris": {"android": "https://dc.lft.to/lastmile_qr_scan", "ios": "https://dc.lft.to/lastmile_qr_scan"}, "name": "e3099b0e1a042a7126844f2a39a71413", "is_reserved": 0}, {"is_disabled": 0, "fusion_lon": 0.0, "fusion_lat": 0.0, "lat": 38.91442466666667, "type": "electric_scooter", "lon": -77.00894466666666, "bike_id": "106cea55f19c7211b20a39eb1d688e2e", "rental_uris": {"android": "https://dc.lft.to/lastmile_qr_scan", "ios": "https://dc.lft.to/lastmile_qr_scan"}, "name": "106cea55f19c7211b20a39eb1d688e2e", "is_reserved": 0}, {"is_disabled": 0, "fusion_lon": 0.0, "fusion_lat": 0.0, "lat": 38.915785, "type": "electric_scooter", "lon": -77.04678483333333, "bike_id": "87531964ff86328aa0adf2db292c6952", "rental_uris": {"android": "https://dc.lft.to/lastmile_qr_scan", "ios": "https://dc.lft.to/lastmile_qr_scan"}, "name": "87531964ff86328aa0adf2db292c6952", "is_reserved": 0}, {"is_disabled": 0, "fusion_lon": 0.0, "fusion_lat": 0.0, "lat": 38.91961333333333, "type": "electric_scooter", "lon": -77.04155516666667, "bike_id": "b4b7e72f922782ec261259d79fa1abd9", "rental_uris": {"android": "https://dc.lft.to/lastmile_qr_scan", "ios": "https://dc.lft.to/lastmile_qr_scan"}, "name": "b4b7e72f922782ec261259d79fa1abd9", "is_reserved": 0}, {"is_disabled": 0, "fusion_lon": 0.0, "fusion_lat": 0.0, "lat": 38.90966916666667, "type": "electric_scooter", "lon": -77.021769, "bike_id": "3c7270aa274da5e8b131f53f6c987f25", "rental_uris": {"android": "https://dc.lft.to/lastmile_qr_scan", "ios": "https://dc.lft.to/lastmile_qr_scan"}, "name": "3c7270aa274da5e8b131f53f6c987f25", "is_reserved": 0}, {"is_disabled": 0, "fusion_lon": 0.0, "fusion_lat": 0.0, "lat": 38.86855633333333, "type": "electric_bike", "lon": -76.91655433333334, "bike_id": "fc0cc0410d625cfc1de8e63bea89949d", "rental_uris": {"android": "https://dc.lft.to/lastmile_qr_scan", "ios": "https://dc.lft.to/lastmile_qr_scan"}, "name": "fc0cc0410d625cfc1de8e63bea89949d", "is_reserved": 0}, {"is_disabled": 0, "fusion_lon": 0.0, "fusion_lat": 0.0, "lat": 38.91420033333333, "type": "electric_scooter", "lon": -77.0390555, "bike_id": "0306e8a0d65031f0c7788d4d588709fd", "rental_uris": {"android": "https://dc.lft.to/lastmile_qr_scan", "ios": "https://dc.lft.to/lastmile_qr_scan"}, "name": "0306e8a0d65031f0c7788d4d588709fd", "is_reserved": 0}, {"is_disabled": 0, "fusion_lon": 0.0, "fusion_lat": 0.0, "lat": 38.93191133333333, "type": "electric_bike", "lon": -77.22939016666666, "bike_id": "003e847efc7ae099ee98c1695b5b1899", "rental_uris": {"android": "https://dc.lft.to/lastmile_qr_scan", "ios": "https://dc.lft.to/lastmile_qr_scan"}, "name": "003e847efc7ae099ee98c1695b5b1899", "is_reserved": 0}, {"is_disabled": 0, "fusion_lon": 0.0, "fusion_lat": 0.0, "lat": 38.885008, "type": "electric_scooter", "lon": -77.00566316666666, "bike_id": "b9f808f0b7641aed6ce0036b8182b5cf", "rental_uris": {"android": "https://dc.lft.to/lastmile_qr_scan", "ios": "https://dc.lft.to/lastmile_qr_scan"}, "name": "b9f808f0b7641aed6ce0036b8182b5cf", "is_reserved": 0}, {"is_disabled": 0, "fusion_lon": 0.0, "fusion_lat": 0.0, "lat": 38.917496, "type": "electric_scooter", "lon": -77.0249085, "bike_id": "b5d7dcee69beabf3916bbd645ca6764a", "rental_uris": {"android": "https://dc.lft.to/lastmile_qr_scan", "ios": "https://dc.lft.to/lastmile_qr_scan"}, "name": "b5d7dcee69beabf3916bbd645ca6764a", "is_reserved": 0}, {"is_disabled": 0, "fusion_lon": 0.0, "fusion_lat": 0.0, "lat": 38.99255483333334, "type": "electric_bike", "lon": -77.049961, "bike_id": "1d60ee09eac978f16474f9e9f369b035", "rental_uris": {"android": "https://dc.lft.to/lastmile_qr_scan", "ios": "https://dc.lft.to/lastmile_qr_scan"}, "name": "1d60ee09eac978f16474f9e9f369b035", "is_reserved": 0}, {"is_disabled": 0, "fusion_lon": 0.0, "fusion_lat": 0.0, "lat": 38.91115283333333, "type": "electric_scooter", "lon": -77.02238516666667, "bike_id": "d7d3f47811bfd2c4800f8088b13c5b75", "rental_uris": {"android": "https://dc.lft.to/lastmile_qr_scan", "ios": "https://dc.lft.to/lastmile_qr_scan"}, "name": "d7d3f47811bfd2c4800f8088b13c5b75", "is_reserved": 0}, {"is_disabled": 0, "fusion_lon": 0.0, "fusion_lat": 0.0, "lat": 38.92193016666667, "type": "electric_scooter", "lon": -76.99694516666666, "bike_id": "ca5c4eb755bba025c717e0862e4e0c8a", "rental_uris": {"android": "https://dc.lft.to/lastmile_qr_scan", "ios": "https://dc.lft.to/lastmile_qr_scan"}, "name": "ca5c4eb755bba025c717e0862e4e0c8a", "is_reserved": 0}, {"is_disabled": 0, "fusion_lon": 0.0, "fusion_lat": 0.0, "lat": 38.941936166666665, "type": "electric_scooter", "lon": -77.02575933333334, "bike_id": "9bd5bfb88c0044ac021033a4e7500d38", "rental_uris": {"android": "https://dc.lft.to/lastmile_qr_scan", "ios": "https://dc.lft.to/lastmile_qr_scan"}, "name": "9bd5bfb88c0044ac021033a4e7500d38", "is_reserved": 0}, {"is_disabled": 0, "fusion_lon": 0.0, "fusion_lat": 0.0, "lat": 38.9307915, "type": "electric_scooter", "lon": -77.02793216666667, "bike_id": "c3528fb1489afb0e0c3ed67358d79bcf", "rental_uris": {"android": "https://dc.lft.to/lastmile_qr_scan", "ios": "https://dc.lft.to/lastmile_qr_scan"}, "name": "c3528fb1489afb0e0c3ed67358d79bcf", "is_reserved": 0}, {"is_disabled": 0, "fusion_lon": 0.0, "fusion_lat": 0.0, "lat": 38.91473933333333, "type": "electric_scooter", "lon": -77.00343133333334, "bike_id": "6eaea71731c302c4c9b91f6fcf6e29d6", "rental_uris": {"android": "https://dc.lft.to/lastmile_qr_scan", "ios": "https://dc.lft.to/lastmile_qr_scan"}, "name": "6eaea71731c302c4c9b91f6fcf6e29d6", "is_reserved": 0}, {"is_disabled": 0, "fusion_lon": 0.0, "fusion_lat": 0.0, "lat": 39.01036366666667, "type": "electric_bike", "lon": -76.91119266666666, "bike_id": "ab4b774954d17620aff45048640ab169", "rental_uris": {"android": "https://dc.lft.to/lastmile_qr_scan", "ios": "https://dc.lft.to/lastmile_qr_scan"}, "name": "ab4b774954d17620aff45048640ab169", "is_reserved": 0}, {"is_disabled": 0, "fusion_lon": 0.0, "fusion_lat": 0.0, "lat": 38.90473733333333, "type": "electric_scooter", "lon": -77.04866416666667, "bike_id": "411c132a23ae8e2f06dc85e0fa604431", "rental_uris": {"android": "https://dc.lft.to/lastmile_qr_scan", "ios": "https://dc.lft.to/lastmile_qr_scan"}, "name": "411c132a23ae8e2f06dc85e0fa604431", "is_reserved": 0}, {"is_disabled": 0, "fusion_lon": 0.0, "fusion_lat": 0.0, "lat": 38.875744833333336, "type": "electric_scooter", "lon": -77.00589133333334, "bike_id": "bf0e7c27a13ab83c45a2e0b9ec1502bc", "rental_uris": {"android": "https://dc.lft.to/lastmile_qr_scan", "ios": "https://dc.lft.to/lastmile_qr_scan"}, "name": "bf0e7c27a13ab83c45a2e0b9ec1502bc", "is_reserved": 0}, {"is_disabled": 0, "fusion_lon": 0.0, "fusion_lat": 0.0, "lat": 38.90403766666667, "type": "electric_scooter", "lon": -76.99059266666667, "bike_id": "aa66200feb6368aca322cc30e9dfcab8", "rental_uris": {"android": "https://dc.lft.to/lastmile_qr_scan", "ios": "https://dc.lft.to/lastmile_qr_scan"}, "name": "aa66200feb6368aca322cc30e9dfcab8", "is_reserved": 0}, {"is_disabled": 0, "fusion_lon": 0.0, "fusion_lat": 0.0, "lat": 38.91408166666667, "type": "electric_scooter", "lon": -77.0417525, "bike_id": "357f1d4371e2b3ec5d78727bd6428178", "rental_uris": {"android": "https://dc.lft.to/lastmile_qr_scan", "ios": "https://dc.lft.to/lastmile_qr_scan"}, "name": "357f1d4371e2b3ec5d78727bd6428178", "is_reserved": 0}, {"is_disabled": 0, "fusion_lon": 0.0, "fusion_lat": 0.0, "lat": 38.891930333333335, "type": "electric_scooter", "lon": -77.0029375, "bike_id": "b6721023557f96ab534247aec6544b09", "rental_uris": {"android": "https://dc.lft.to/lastmile_qr_scan", "ios": "https://dc.lft.to/lastmile_qr_scan"}, "name": "b6721023557f96ab534247aec6544b09", "is_reserved": 0}, {"is_disabled": 0, "fusion_lon": 0.0, "fusion_lat": 0.0, "lat": 38.901048333333335, "type": "electric_scooter", "lon": -77.05982416666667, "bike_id": "b4b58de6924bf72c5f7d13e4da3e7b90", "rental_uris": {"android": "https://dc.lft.to/lastmile_qr_scan", "ios": "https://dc.lft.to/lastmile_qr_scan"}, "name": "b4b58de6924bf72c5f7d13e4da3e7b90", "is_reserved": 0}, {"is_disabled": 0, "fusion_lon": 0.0, "fusion_lat": 0.0, "lat": 38.91932933333333, "type": "electric_bike", "lon": -76.9750195, "bike_id": "a50002541e55f6043d9202dca9ff0eb3", "rental_uris": {"android": "https://dc.lft.to/lastmile_qr_scan", "ios": "https://dc.lft.to/lastmile_qr_scan"}, "name": "a50002541e55f6043d9202dca9ff0eb3", "is_reserved": 0}, {"is_disabled": 0, "fusion_lon": 0.0, "fusion_lat": 0.0, "lat": 38.904820666666666, "type": "electric_scooter", "lon": -77.05142316666667, "bike_id": "f8bd4abf2cb215b90e6bceb5e2bb96ff", "rental_uris": {"android": "https://dc.lft.to/lastmile_qr_scan", "ios": "https://dc.lft.to/lastmile_qr_scan"}, "name": "f8bd4abf2cb215b90e6bceb5e2bb96ff", "is_reserved": 0}, {"is_disabled": 0, "fusion_lon": 0.0, "fusion_lat": 0.0, "lat": 38.9014275, "type": "electric_scooter", "lon": -77.00074533333333, "bike_id": "b4b7da9010f9ca6a9f0d9a8d10740f19", "rental_uris": {"android": "https://dc.lft.to/lastmile_qr_scan", "ios": "https://dc.lft.to/lastmile_qr_scan"}, "name": "b4b7da9010f9ca6a9f0d9a8d10740f19", "is_reserved": 0}, {"is_disabled": 0, "fusion_lon": 0.0, "fusion_lat": 0.0, "lat": 38.900326, "type": "electric_scooter", "lon": -76.996392, "bike_id": "e17f535ee7ef32de9480dd00a2e91a13", "rental_uris": {"android": "https://dc.lft.to/lastmile_qr_scan", "ios": "https://dc.lft.to/lastmile_qr_scan"}, "name": "e17f535ee7ef32de9480dd00a2e91a13", "is_reserved": 0}, {"is_disabled": 0, "fusion_lon": 0.0, "fusion_lat": 0.0, "lat": 38.91740983333333, "type": "electric_scooter", "lon": -77.04173133333333, "bike_id": "af6096164c456d871ec8e999323d6076", "rental_uris": {"android": "https://dc.lft.to/lastmile_qr_scan", "ios": "https://dc.lft.to/lastmile_qr_scan"}, "name": "af6096164c456d871ec8e999323d6076", "is_reserved": 0}, {"is_disabled": 0, "fusion_lon": 0.0, "fusion_lat": 0.0, "lat": 38.943027, "type": "electric_scooter", "lon": -77.0276205, "bike_id": "485bc29b0a1a4432c8eb8e83b4117504", "rental_uris": {"android": "https://dc.lft.to/lastmile_qr_scan", "ios": "https://dc.lft.to/lastmile_qr_scan"}, "name": "485bc29b0a1a4432c8eb8e83b4117504", "is_reserved": 0}, {"is_disabled": 0, "fusion_lon": 0.0, "fusion_lat": 0.0, "lat": 38.895232, "type": "electric_scooter", "lon": -76.94892983333334, "bike_id": "937dc612210593951f634daf1dcd6ae2", "rental_uris": {"android": "https://dc.lft.to/lastmile_qr_scan", "ios": "https://dc.lft.to/lastmile_qr_scan"}, "name": "937dc612210593951f634daf1dcd6ae2", "is_reserved": 0}, {"is_disabled": 0, "fusion_lon": 0.0, "fusion_lat": 0.0, "lat": 38.90252566666667, "type": "electric_scooter", "lon": -77.02147866666667, "bike_id": "6e781a1f26c09c7de70bfca6a9365105", "rental_uris": {"android": "https://dc.lft.to/lastmile_qr_scan", "ios": "https://dc.lft.to/lastmile_qr_scan"}, "name": "6e781a1f26c09c7de70bfca6a9365105", "is_reserved": 0}, {"is_disabled": 0, "fusion_lon": 0.0, "fusion_lat": 0.0, "lat": 38.910971, "type": "electric_scooter", "lon": -77.0449405, "bike_id": "793ed0e398cd464bd2bd00ac85aa7ff0", "rental_uris": {"android": "https://dc.lft.to/lastmile_qr_scan", "ios": "https://dc.lft.to/lastmile_qr_scan"}, "name": "793ed0e398cd464bd2bd00ac85aa7ff0", "is_reserved": 0}, {"is_disabled": 0, "fusion_lon": 0.0, "fusion_lat": 0.0, "lat": 38.93918083333333, "type": "electric_scooter", "lon": -77.024833, "bike_id": "e1f85883a4ca4b87a8bbd3ff38ea5487", "rental_uris": {"android": "https://dc.lft.to/lastmile_qr_scan", "ios": "https://dc.lft.to/lastmile_qr_scan"}, "name": "e1f85883a4ca4b87a8bbd3ff38ea5487", "is_reserved": 0}, {"is_disabled": 0, "fusion_lon": 0.0, "fusion_lat": 0.0, "lat": 38.90247266666667, "type": "electric_scooter", "lon": -77.03100066666667, "bike_id": "0b53379a4f2e1d45704fe622a1af6067", "rental_uris": {"android": "https://dc.lft.to/lastmile_qr_scan", "ios": "https://dc.lft.to/lastmile_qr_scan"}, "name": "0b53379a4f2e1d45704fe622a1af6067", "is_reserved": 0}, {"is_disabled": 0, "fusion_lon": 0.0, "fusion_lat": 0.0, "lat": 38.8990815, "type": "electric_scooter", "lon": -77.04170866666666, "bike_id": "94433255d78819f3d6c4b0b8ac5029c1", "rental_uris": {"android": "https://dc.lft.to/lastmile_qr_scan", "ios": "https://dc.lft.to/lastmile_qr_scan"}, "name": "94433255d78819f3d6c4b0b8ac5029c1", "is_reserved": 0}, {"is_disabled": 0, "fusion_lon": 0.0, "fusion_lat": 0.0, "lat": 38.885008166666665, "type": "electric_scooter", "lon": -77.00562816666667, "bike_id": "551bfd6da5fceda360d5d10f94f1aab3", "rental_uris": {"android": "https://dc.lft.to/lastmile_qr_scan", "ios": "https://dc.lft.to/lastmile_qr_scan"}, "name": "551bfd6da5fceda360d5d10f94f1aab3", "is_reserved": 0}, {"is_disabled": 0, "fusion_lon": 0.0, "fusion_lat": 0.0, "lat": 38.912674333333335, "type": "electric_scooter", "lon": -77.0222175, "bike_id": "e3c35797bedb2c3f588a8e7e4d6ff1dc", "rental_uris": {"android": "https://dc.lft.to/lastmile_qr_scan", "ios": "https://dc.lft.to/lastmile_qr_scan"}, "name": "e3c35797bedb2c3f588a8e7e4d6ff1dc", "is_reserved": 0}, {"is_disabled": 0, "fusion_lon": 0.0, "fusion_lat": 0.0, "lat": 39.003795833333335, "type": "electric_bike", "lon": -77.012875, "bike_id": "97195ca1b8e84436b356c4530d26f713", "rental_uris": {"android": "https://dc.lft.to/lastmile_qr_scan", "ios": "https://dc.lft.to/lastmile_qr_scan"}, "name": "97195ca1b8e84436b356c4530d26f713", "is_reserved": 0}, {"is_disabled": 0, "fusion_lon": 0.0, "fusion_lat": 0.0, "lat": 38.918190833333334, "type": "electric_scooter", "lon": -77.03175166666666, "bike_id": "c14b64ae0265a66f047295e65577fce7", "rental_uris": {"android": "https://dc.lft.to/lastmile_qr_scan", "ios": "https://dc.lft.to/lastmile_qr_scan"}, "name": "c14b64ae0265a66f047295e65577fce7", "is_reserved": 0}, {"is_disabled": 0, "fusion_lon": 0.0, "fusion_lat": 0.0, "lat": 38.905667, "type": "electric_scooter", "lon": -77.023782, "bike_id": "1c1a3c3b63f8f0b681b8cf86888325d5", "rental_uris": {"android": "https://dc.lft.to/lastmile_qr_scan", "ios": "https://dc.lft.to/lastmile_qr_scan"}, "name": "1c1a3c3b63f8f0b681b8cf86888325d5", "is_reserved": 0}, {"is_disabled": 0, "fusion_lon": 0.0, "fusion_lat": 0.0, "lat": 38.916926833333335, "type": "electric_scooter", "lon": -77.03391816666667, "bike_id": "9d089aa2e77b743e78033d4f676b074a", "rental_uris": {"android": "https://dc.lft.to/lastmile_qr_scan", "ios": "https://dc.lft.to/lastmile_qr_scan"}, "name": "9d089aa2e77b743e78033d4f676b074a", "is_reserved": 0}, {"is_disabled": 0, "fusion_lon": 0.0, "fusion_lat": 0.0, "lat": 38.91985783333333, "type": "electric_scooter", "lon": -76.973152, "bike_id": "e4a32a10414d68fed9fb520d298b2594", "rental_uris": {"android": "https://dc.lft.to/lastmile_qr_scan", "ios": "https://dc.lft.to/lastmile_qr_scan"}, "name": "e4a32a10414d68fed9fb520d298b2594", "is_reserved": 0}, {"is_disabled": 0, "fusion_lon": 0.0, "fusion_lat": 0.0, "lat": 38.86708433333333, "type": "electric_scooter", "lon": -76.98730133333333, "bike_id": "a4b4b53c9e1d6e149b4f285a768a7a86", "rental_uris": {"android": "https://dc.lft.to/lastmile_qr_scan", "ios": "https://dc.lft.to/lastmile_qr_scan"}, "name": "a4b4b53c9e1d6e149b4f285a768a7a86", "is_reserved": 0}, {"is_disabled": 0, "fusion_lon": 0.0, "fusion_lat": 0.0, "lat": 38.930585666666666, "type": "electric_scooter", "lon": -77.0297665, "bike_id": "25a02bfa4a53494384e02d7cb5db62dd", "rental_uris": {"android": "https://dc.lft.to/lastmile_qr_scan", "ios": "https://dc.lft.to/lastmile_qr_scan"}, "name": "25a02bfa4a53494384e02d7cb5db62dd", "is_reserved": 0}, {"is_disabled": 0, "fusion_lon": 0.0, "fusion_lat": 0.0, "lat": 38.923059, "type": "electric_scooter", "lon": -77.039159, "bike_id": "c3f9de50eb082bb2952be64acb52ade6", "rental_uris": {"android": "https://dc.lft.to/lastmile_qr_scan", "ios": "https://dc.lft.to/lastmile_qr_scan"}, "name": "c3f9de50eb082bb2952be64acb52ade6", "is_reserved": 0}, {"is_disabled": 0, "fusion_lon": 0.0, "fusion_lat": 0.0, "lat": 38.90857366666667, "type": "electric_scooter", "lon": -77.02283816666667, "bike_id": "f670c60e43417d14e31c9b4b509d9c48", "rental_uris": {"android": "https://dc.lft.to/lastmile_qr_scan", "ios": "https://dc.lft.to/lastmile_qr_scan"}, "name": "f670c60e43417d14e31c9b4b509d9c48", "is_reserved": 0}, {"is_disabled": 0, "fusion_lon": 0.0, "fusion_lat": 0.0, "lat": 38.925152, "type": "electric_scooter", "lon": -77.02363066666666, "bike_id": "2c678e0e21b03da5bede5362b82c48b5", "rental_uris": {"android": "https://dc.lft.to/lastmile_qr_scan", "ios": "https://dc.lft.to/lastmile_qr_scan"}, "name": "2c678e0e21b03da5bede5362b82c48b5", "is_reserved": 0}, {"is_disabled": 0, "fusion_lon": 0.0, "fusion_lat": 0.0, "lat": 38.910456833333335, "type": "electric_scooter", "lon": -77.04347516666667, "bike_id": "e0935d65c8361e1627b0e51f83b77e03", "rental_uris": {"android": "https://dc.lft.to/lastmile_qr_scan", "ios": "https://dc.lft.to/lastmile_qr_scan"}, "name": "e0935d65c8361e1627b0e51f83b77e03", "is_reserved": 0}, {"is_disabled": 0, "fusion_lon": 0.0, "fusion_lat": 0.0, "lat": 38.90678616666667, "type": "electric_scooter", "lon": -77.009144, "bike_id": "56a05494533d43f604348d85033c99ba", "rental_uris": {"android": "https://dc.lft.to/lastmile_qr_scan", "ios": "https://dc.lft.to/lastmile_qr_scan"}, "name": "56a05494533d43f604348d85033c99ba", "is_reserved": 0}, {"is_disabled": 0, "fusion_lon": 0.0, "fusion_lat": 0.0, "lat": 38.921663333333335, "type": "electric_scooter", "lon": -76.99391983333334, "bike_id": "93165f796d9ffa01c37fadc2f86dfcf1", "rental_uris": {"android": "https://dc.lft.to/lastmile_qr_scan", "ios": "https://dc.lft.to/lastmile_qr_scan"}, "name": "93165f796d9ffa01c37fadc2f86dfcf1", "is_reserved": 0}, {"is_disabled": 0, "fusion_lon": 0.0, "fusion_lat": 0.0, "lat": 38.89523283333333, "type": "electric_scooter", "lon": -77.00338416666666, "bike_id": "06d8ec0f06aa95aabc22887b7879166e", "rental_uris": {"android": "https://dc.lft.to/lastmile_qr_scan", "ios": "https://dc.lft.to/lastmile_qr_scan"}, "name": "06d8ec0f06aa95aabc22887b7879166e", "is_reserved": 0}, {"is_disabled": 0, "fusion_lon": 0.0, "fusion_lat": 0.0, "lat": 38.89508216666667, "type": "electric_scooter", "lon": -76.94885983333333, "bike_id": "df252b86ea1ca35a61fb83b4af67228a", "rental_uris": {"android": "https://dc.lft.to/lastmile_qr_scan", "ios": "https://dc.lft.to/lastmile_qr_scan"}, "name": "df252b86ea1ca35a61fb83b4af67228a", "is_reserved": 0}, {"is_disabled": 0, "fusion_lon": 0.0, "fusion_lat": 0.0, "lat": 38.880833333333335, "type": "electric_scooter", "lon": -77.0257255, "bike_id": "be57c11239525b77d988030aee96910f", "rental_uris": {"android": "https://dc.lft.to/lastmile_qr_scan", "ios": "https://dc.lft.to/lastmile_qr_scan"}, "name": "be57c11239525b77d988030aee96910f", "is_reserved": 0}, {"is_disabled": 0, "fusion_lon": 0.0, "fusion_lat": 0.0, "lat": 38.8948415, "type": "electric_scooter", "lon": -77.020117, "bike_id": "2a3dcd624ccc88004d2fd6d5f065f745", "rental_uris": {"android": "https://dc.lft.to/lastmile_qr_scan", "ios": "https://dc.lft.to/lastmile_qr_scan"}, "name": "2a3dcd624ccc88004d2fd6d5f065f745", "is_reserved": 0}, {"is_disabled": 0, "fusion_lon": 0.0, "fusion_lat": 0.0, "lat": 38.90162733333333, "type": "electric_bike", "lon": -77.03942133333334, "bike_id": "a5066c62aee33752a05d95256589c18b", "rental_uris": {"android": "https://dc.lft.to/lastmile_qr_scan", "ios": "https://dc.lft.to/lastmile_qr_scan"}, "name": "a5066c62aee33752a05d95256589c18b", "is_reserved": 0}, {"is_disabled": 0, "fusion_lon": 0.0, "fusion_lat": 0.0, "lat": 38.94196983333333, "type": "electric_scooter", "lon": -77.01830483333333, "bike_id": "aaae831559ca34dfe03ba9ef91a83be0", "rental_uris": {"android": "https://dc.lft.to/lastmile_qr_scan", "ios": "https://dc.lft.to/lastmile_qr_scan"}, "name": "aaae831559ca34dfe03ba9ef91a83be0", "is_reserved": 0}, {"is_disabled": 0, "fusion_lon": 0.0, "fusion_lat": 0.0, "lat": 38.89743583333333, "type": "electric_scooter", "lon": -77.01598516666667, "bike_id": "f2acef44491bae8fb5d756a263bb15f2", "rental_uris": {"android": "https://dc.lft.to/lastmile_qr_scan", "ios": "https://dc.lft.to/lastmile_qr_scan"}, "name": "f2acef44491bae8fb5d756a263bb15f2", "is_reserved": 0}, {"is_disabled": 0, "fusion_lon": 0.0, "fusion_lat": 0.0, "lat": 38.93189916666667, "type": "electric_scooter", "lon": -77.02836433333333, "bike_id": "8b6b248693c02d29d3a262eebc6a3cef", "rental_uris": {"android": "https://dc.lft.to/lastmile_qr_scan", "ios": "https://dc.lft.to/lastmile_qr_scan"}, "name": "8b6b248693c02d29d3a262eebc6a3cef", "is_reserved": 0}, {"is_disabled": 0, "fusion_lon": 0.0, "fusion_lat": 0.0, "lat": 38.92238116666667, "type": "electric_scooter", "lon": -77.027863, "bike_id": "d40aabd10b6f2ddb5ce7de3f69a7d677", "rental_uris": {"android": "https://dc.lft.to/lastmile_qr_scan", "ios": "https://dc.lft.to/lastmile_qr_scan"}, "name": "d40aabd10b6f2ddb5ce7de3f69a7d677", "is_reserved": 0}, {"is_disabled": 0, "fusion_lon": 0.0, "fusion_lat": 0.0, "lat": 38.90923, "type": "electric_scooter", "lon": -76.9921135, "bike_id": "b34da336035cf5124c623c2f3be0978b", "rental_uris": {"android": "https://dc.lft.to/lastmile_qr_scan", "ios": "https://dc.lft.to/lastmile_qr_scan"}, "name": "b34da336035cf5124c623c2f3be0978b", "is_reserved": 0}, {"is_disabled": 0, "fusion_lon": 0.0, "fusion_lat": 0.0, "lat": 38.897808833333336, "type": "electric_scooter", "lon": -76.97097566666666, "bike_id": "98d0f5fadcb349ce2179a0c7cdd62e6b", "rental_uris": {"android": "https://dc.lft.to/lastmile_qr_scan", "ios": "https://dc.lft.to/lastmile_qr_scan"}, "name": "98d0f5fadcb349ce2179a0c7cdd62e6b", "is_reserved": 0}, {"is_disabled": 0, "fusion_lon": 0.0, "fusion_lat": 0.0, "lat": 38.90086933333333, "type": "electric_scooter", "lon": -77.03924433333333, "bike_id": "95f962484601083634213a388206d309", "rental_uris": {"android": "https://dc.lft.to/lastmile_qr_scan", "ios": "https://dc.lft.to/lastmile_qr_scan"}, "name": "95f962484601083634213a388206d309", "is_reserved": 0}, {"is_disabled": 0, "fusion_lon": 0.0, "fusion_lat": 0.0, "lat": 38.944410833333336, "type": "electric_scooter", "lon": -77.06062733333333, "bike_id": "8a2e984fcd5cb2069b796b83573643a3", "rental_uris": {"android": "https://dc.lft.to/lastmile_qr_scan", "ios": "https://dc.lft.to/lastmile_qr_scan"}, "name": "8a2e984fcd5cb2069b796b83573643a3", "is_reserved": 0}, {"is_disabled": 0, "fusion_lon": 0.0, "fusion_lat": 0.0, "lat": 38.910561666666666, "type": "electric_scooter", "lon": -77.02185016666667, "bike_id": "c845c5101cb70d75c891943e2a63f48f", "rental_uris": {"android": "https://dc.lft.to/lastmile_qr_scan", "ios": "https://dc.lft.to/lastmile_qr_scan"}, "name": "c845c5101cb70d75c891943e2a63f48f", "is_reserved": 0}, {"is_disabled": 0, "fusion_lon": 0.0, "fusion_lat": 0.0, "lat": 38.90705966666667, "type": "electric_scooter", "lon": -77.02389516666666, "bike_id": "4f510373f89388847d0267a77e4e0c07", "rental_uris": {"android": "https://dc.lft.to/lastmile_qr_scan", "ios": "https://dc.lft.to/lastmile_qr_scan"}, "name": "4f510373f89388847d0267a77e4e0c07", "is_reserved": 0}, {"is_disabled": 0, "fusion_lon": 0.0, "fusion_lat": 0.0, "lat": 38.90515883333333, "type": "electric_scooter", "lon": -77.047482, "bike_id": "0a6b7ae77bd326fa6a3793c43e08cd2b", "rental_uris": {"android": "https://dc.lft.to/lastmile_qr_scan", "ios": "https://dc.lft.to/lastmile_qr_scan"}, "name": "0a6b7ae77bd326fa6a3793c43e08cd2b", "is_reserved": 0}, {"is_disabled": 0, "fusion_lon": 0.0, "fusion_lat": 0.0, "lat": 38.91637033333333, "type": "electric_scooter", "lon": -77.05056583333334, "bike_id": "db43a4010fcd1c25bcc96a0f1551330d", "rental_uris": {"android": "https://dc.lft.to/lastmile_qr_scan", "ios": "https://dc.lft.to/lastmile_qr_scan"}, "name": "db43a4010fcd1c25bcc96a0f1551330d", "is_reserved": 0}, {"is_disabled": 0, "fusion_lon": 0.0, "fusion_lat": 0.0, "lat": 38.932477166666665, "type": "electric_scooter", "lon": -77.03281183333333, "bike_id": "7259bb41f40ff04aacd1d5538d495778", "rental_uris": {"android": "https://dc.lft.to/lastmile_qr_scan", "ios": "https://dc.lft.to/lastmile_qr_scan"}, "name": "7259bb41f40ff04aacd1d5538d495778", "is_reserved": 0}, {"is_disabled": 0, "fusion_lon": 0.0, "fusion_lat": 0.0, "lat": 38.901793, "type": "electric_scooter", "lon": -76.92827466666667, "bike_id": "0c9dc6383df4f4342388275bbd4be435", "rental_uris": {"android": "https://dc.lft.to/lastmile_qr_scan", "ios": "https://dc.lft.to/lastmile_qr_scan"}, "name": "0c9dc6383df4f4342388275bbd4be435", "is_reserved": 0}, {"is_disabled": 0, "fusion_lon": 0.0, "fusion_lat": 0.0, "lat": 38.90533166666667, "type": "electric_scooter", "lon": -77.029703, "bike_id": "6254738938a43a72289b6a86658eb619", "rental_uris": {"android": "https://dc.lft.to/lastmile_qr_scan", "ios": "https://dc.lft.to/lastmile_qr_scan"}, "name": "6254738938a43a72289b6a86658eb619", "is_reserved": 0}, {"is_disabled": 0, "fusion_lon": 0.0, "fusion_lat": 0.0, "lat": 38.905222333333334, "type": "electric_scooter", "lon": -77.04747166666667, "bike_id": "089ae6d436bc3c18508b5008ca990580", "rental_uris": {"android": "https://dc.lft.to/lastmile_qr_scan", "ios": "https://dc.lft.to/lastmile_qr_scan"}, "name": "089ae6d436bc3c18508b5008ca990580", "is_reserved": 0}, {"is_disabled": 0, "fusion_lon": 0.0, "fusion_lat": 0.0, "lat": 38.91254383333333, "type": "electric_scooter", "lon": -77.0326885, "bike_id": "c422ef87698a6cfdeb3a98ae68d6bbe2", "rental_uris": {"android": "https://dc.lft.to/lastmile_qr_scan", "ios": "https://dc.lft.to/lastmile_qr_scan"}, "name": "c422ef87698a6cfdeb3a98ae68d6bbe2", "is_reserved": 0}, {"is_disabled": 0, "fusion_lon": 0.0, "fusion_lat": 0.0, "lat": 38.915625166666665, "type": "electric_scooter", "lon": -77.03275833333333, "bike_id": "341244705ddedbd375e4320fbd629e7b", "rental_uris": {"android": "https://dc.lft.to/lastmile_qr_scan", "ios": "https://dc.lft.to/lastmile_qr_scan"}, "name": "341244705ddedbd375e4320fbd629e7b", "is_reserved": 0}, {"is_disabled": 0, "fusion_lon": 0.0, "fusion_lat": 0.0, "lat": 38.90236316666667, "type": "electric_scooter", "lon": -77.00197833333333, "bike_id": "8f7216caa8193d532a432ecb4195f6c9", "rental_uris": {"android": "https://dc.lft.to/lastmile_qr_scan", "ios": "https://dc.lft.to/lastmile_qr_scan"}, "name": "8f7216caa8193d532a432ecb4195f6c9", "is_reserved": 0}, {"is_disabled": 0, "fusion_lon": 0.0, "fusion_lat": 0.0, "lat": 38.90541233333333, "type": "electric_scooter", "lon": -77.0294785, "bike_id": "876fcfc5b9b625dcfb1242af9a9aba7e", "rental_uris": {"android": "https://dc.lft.to/lastmile_qr_scan", "ios": "https://dc.lft.to/lastmile_qr_scan"}, "name": "876fcfc5b9b625dcfb1242af9a9aba7e", "is_reserved": 0}, {"is_disabled": 0, "fusion_lon": 0.0, "fusion_lat": 0.0, "lat": 38.8850395, "type": "electric_scooter", "lon": -77.00563916666667, "bike_id": "08fd9577b92cf8ea40e9c315adaab40a", "rental_uris": {"android": "https://dc.lft.to/lastmile_qr_scan", "ios": "https://dc.lft.to/lastmile_qr_scan"}, "name": "08fd9577b92cf8ea40e9c315adaab40a", "is_reserved": 0}, {"is_disabled": 0, "fusion_lon": 0.0, "fusion_lat": 0.0, "lat": 38.91783, "type": "electric_scooter", "lon": -77.02297116666666, "bike_id": "9e4c15dcd4ba75272894712b8cb4353b", "rental_uris": {"android": "https://dc.lft.to/lastmile_qr_scan", "ios": "https://dc.lft.to/lastmile_qr_scan"}, "name": "9e4c15dcd4ba75272894712b8cb4353b", "is_reserved": 0}, {"is_disabled": 0, "fusion_lon": 0.0, "fusion_lat": 0.0, "lat": 38.89967033333333, "type": "electric_scooter", "lon": -77.0461515, "bike_id": "24aa125b8419f2d2cb237ead5ff7b9e6", "rental_uris": {"android": "https://dc.lft.to/lastmile_qr_scan", "ios": "https://dc.lft.to/lastmile_qr_scan"}, "name": "24aa125b8419f2d2cb237ead5ff7b9e6", "is_reserved": 0}, {"is_disabled": 0, "fusion_lon": 0.0, "fusion_lat": 0.0, "lat": 38.89712766666667, "type": "electric_scooter", "lon": -77.00795366666667, "bike_id": "33fb01eb628926cef7d738727430595a", "rental_uris": {"android": "https://dc.lft.to/lastmile_qr_scan", "ios": "https://dc.lft.to/lastmile_qr_scan"}, "name": "33fb01eb628926cef7d738727430595a", "is_reserved": 0}, {"is_disabled": 0, "fusion_lon": 0.0, "fusion_lat": 0.0, "lat": 38.861103166666666, "type": "electric_scooter", "lon": -76.98372116666667, "bike_id": "c27851fcb54222a471a50e09feb078c4", "rental_uris": {"android": "https://dc.lft.to/lastmile_qr_scan", "ios": "https://dc.lft.to/lastmile_qr_scan"}, "name": "c27851fcb54222a471a50e09feb078c4", "is_reserved": 0}, {"is_disabled": 0, "fusion_lon": 0.0, "fusion_lat": 0.0, "lat": 38.896179333333336, "type": "electric_scooter", "lon": -76.99636316666667, "bike_id": "733412a12e9f5bb9a793b37126c34bac", "rental_uris": {"android": "https://dc.lft.to/lastmile_qr_scan", "ios": "https://dc.lft.to/lastmile_qr_scan"}, "name": "733412a12e9f5bb9a793b37126c34bac", "is_reserved": 0}, {"is_disabled": 0, "fusion_lon": 0.0, "fusion_lat": 0.0, "lat": 38.92073466666667, "type": "electric_scooter", "lon": -77.02513833333333, "bike_id": "b04d32b5dfb22007d84de57ad2b6f2c0", "rental_uris": {"android": "https://dc.lft.to/lastmile_qr_scan", "ios": "https://dc.lft.to/lastmile_qr_scan"}, "name": "b04d32b5dfb22007d84de57ad2b6f2c0", "is_reserved": 0}, {"is_disabled": 0, "fusion_lon": 0.0, "fusion_lat": 0.0, "lat": 38.9187305, "type": "electric_bike", "lon": -76.96123433333334, "bike_id": "d37324757d9759f943195a03c92bc4dd", "rental_uris": {"android": "https://dc.lft.to/lastmile_qr_scan", "ios": "https://dc.lft.to/lastmile_qr_scan"}, "name": "d37324757d9759f943195a03c92bc4dd", "is_reserved": 0}, {"is_disabled": 0, "fusion_lon": 0.0, "fusion_lat": 0.0, "lat": 38.922489666666664, "type": "electric_scooter", "lon": -77.030853, "bike_id": "8f9cf0f20e33b43f182a71ffdd9c614f", "rental_uris": {"android": "https://dc.lft.to/lastmile_qr_scan", "ios": "https://dc.lft.to/lastmile_qr_scan"}, "name": "8f9cf0f20e33b43f182a71ffdd9c614f", "is_reserved": 0}, {"is_disabled": 0, "fusion_lon": 0.0, "fusion_lat": 0.0, "lat": 38.935362166666664, "type": "electric_scooter", "lon": -77.07296, "bike_id": "e5f64d259a96a3355b3ea97a47fa4299", "rental_uris": {"android": "https://dc.lft.to/lastmile_qr_scan", "ios": "https://dc.lft.to/lastmile_qr_scan"}, "name": "e5f64d259a96a3355b3ea97a47fa4299", "is_reserved": 0}, {"is_disabled": 0, "fusion_lon": 0.0, "fusion_lat": 0.0, "lat": 38.90325566666667, "type": "electric_scooter", "lon": -77.038459, "bike_id": "e56e425e1f0f488ba32dbc73964f4324", "rental_uris": {"android": "https://dc.lft.to/lastmile_qr_scan", "ios": "https://dc.lft.to/lastmile_qr_scan"}, "name": "e56e425e1f0f488ba32dbc73964f4324", "is_reserved": 0}, {"is_disabled": 0, "fusion_lon": 0.0, "fusion_lat": 0.0, "lat": 38.896892666666666, "type": "electric_scooter", "lon": -77.05024966666667, "bike_id": "01bf6e755bc6d585976367322c88759e", "rental_uris": {"android": "https://dc.lft.to/lastmile_qr_scan", "ios": "https://dc.lft.to/lastmile_qr_scan"}, "name": "01bf6e755bc6d585976367322c88759e", "is_reserved": 0}, {"is_disabled": 0, "fusion_lon": 0.0, "fusion_lat": 0.0, "lat": 38.912462833333336, "type": "electric_scooter", "lon": -77.02229933333334, "bike_id": "fde917e6af03907bee90ad9423f360ad", "rental_uris": {"android": "https://dc.lft.to/lastmile_qr_scan", "ios": "https://dc.lft.to/lastmile_qr_scan"}, "name": "fde917e6af03907bee90ad9423f360ad", "is_reserved": 0}, {"is_disabled": 0, "fusion_lon": 0.0, "fusion_lat": 0.0, "lat": 38.9056735, "type": "electric_bike", "lon": -77.0170685, "bike_id": "7950efc33eaeaeb07f9ee9a919bb9faa", "rental_uris": {"android": "https://dc.lft.to/lastmile_qr_scan", "ios": "https://dc.lft.to/lastmile_qr_scan"}, "name": "7950efc33eaeaeb07f9ee9a919bb9faa", "is_reserved": 0}, {"is_disabled": 0, "fusion_lon": 0.0, "fusion_lat": 0.0, "lat": 38.9225445, "type": "electric_scooter", "lon": -77.04126866666667, "bike_id": "37647e818380fdb68a432891bfa9a4dd", "rental_uris": {"android": "https://dc.lft.to/lastmile_qr_scan", "ios": "https://dc.lft.to/lastmile_qr_scan"}, "name": "37647e818380fdb68a432891bfa9a4dd", "is_reserved": 0}, {"is_disabled": 0, "fusion_lon": 0.0, "fusion_lat": 0.0, "lat": 38.951208333333334, "type": "electric_scooter", "lon": -77.01398266666666, "bike_id": "81dbe7845c6fe788401b0354804ca59e", "rental_uris": {"android": "https://dc.lft.to/lastmile_qr_scan", "ios": "https://dc.lft.to/lastmile_qr_scan"}, "name": "81dbe7845c6fe788401b0354804ca59e", "is_reserved": 0}, {"is_disabled": 0, "fusion_lon": 0.0, "fusion_lat": 0.0, "lat": 38.908620666666664, "type": "electric_scooter", "lon": -77.02688783333333, "bike_id": "07e081e62a31fe7f7153e9b00b33c7d6", "rental_uris": {"android": "https://dc.lft.to/lastmile_qr_scan", "ios": "https://dc.lft.to/lastmile_qr_scan"}, "name": "07e081e62a31fe7f7153e9b00b33c7d6", "is_reserved": 0}, {"is_disabled": 0, "fusion_lon": 0.0, "fusion_lat": 0.0, "lat": 38.89890833333333, "type": "electric_scooter", "lon": -77.0391765, "bike_id": "3a17eba55442dd66061dc1c50bf1be3c", "rental_uris": {"android": "https://dc.lft.to/lastmile_qr_scan", "ios": "https://dc.lft.to/lastmile_qr_scan"}, "name": "3a17eba55442dd66061dc1c50bf1be3c", "is_reserved": 0}, {"is_disabled": 0, "fusion_lon": 0.0, "fusion_lat": 0.0, "lat": 38.9988845, "type": "electric_bike", "lon": -77.028805, "bike_id": "d11f2741369a200f7854da366f595c67", "rental_uris": {"android": "https://dc.lft.to/lastmile_qr_scan", "ios": "https://dc.lft.to/lastmile_qr_scan"}, "name": "d11f2741369a200f7854da366f595c67", "is_reserved": 0}, {"is_disabled": 0, "fusion_lon": 0.0, "fusion_lat": 0.0, "lat": 38.8450465, "type": "electric_bike", "lon": -76.97210733333333, "bike_id": "eb33aac8e1d470117bdafa2d846b2f41", "rental_uris": {"android": "https://dc.lft.to/lastmile_qr_scan", "ios": "https://dc.lft.to/lastmile_qr_scan"}, "name": "eb33aac8e1d470117bdafa2d846b2f41", "is_reserved": 0}, {"is_disabled": 0, "fusion_lon": 0.0, "fusion_lat": 0.0, "lat": 38.92610483333333, "type": "electric_scooter", "lon": -77.02161533333333, "bike_id": "93ea70c0802a92e61aebf33e15ac3442", "rental_uris": {"android": "https://dc.lft.to/lastmile_qr_scan", "ios": "https://dc.lft.to/lastmile_qr_scan"}, "name": "93ea70c0802a92e61aebf33e15ac3442", "is_reserved": 0}, {"is_disabled": 0, "fusion_lon": 0.0, "fusion_lat": 0.0, "lat": 38.898223, "type": "electric_scooter", "lon": -77.033493, "bike_id": "d70daeb74938a7b53cfc92873985f981", "rental_uris": {"android": "https://dc.lft.to/lastmile_qr_scan", "ios": "https://dc.lft.to/lastmile_qr_scan"}, "name": "d70daeb74938a7b53cfc92873985f981", "is_reserved": 0}, {"is_disabled": 0, "fusion_lon": 0.0, "fusion_lat": 0.0, "lat": 38.89204766666667, "type": "electric_scooter", "lon": -76.98807016666666, "bike_id": "6827cf0a8cb0b54fd3fbf1cda433e26f", "rental_uris": {"android": "https://dc.lft.to/lastmile_qr_scan", "ios": "https://dc.lft.to/lastmile_qr_scan"}, "name": "6827cf0a8cb0b54fd3fbf1cda433e26f", "is_reserved": 0}, {"is_disabled": 0, "fusion_lon": 0.0, "fusion_lat": 0.0, "lat": 38.90515466666667, "type": "electric_scooter", "lon": -77.048898, "bike_id": "b704ad397b3ebeca9d89f72adcc9f6f5", "rental_uris": {"android": "https://dc.lft.to/lastmile_qr_scan", "ios": "https://dc.lft.to/lastmile_qr_scan"}, "name": "b704ad397b3ebeca9d89f72adcc9f6f5", "is_reserved": 0}, {"is_disabled": 0, "fusion_lon": 0.0, "fusion_lat": 0.0, "lat": 38.914742833333335, "type": "electric_scooter", "lon": -77.03464633333333, "bike_id": "55085ab1d11886fd305adb8447017773", "rental_uris": {"android": "https://dc.lft.to/lastmile_qr_scan", "ios": "https://dc.lft.to/lastmile_qr_scan"}, "name": "55085ab1d11886fd305adb8447017773", "is_reserved": 0}, {"is_disabled": 0, "fusion_lon": 0.0, "fusion_lat": 0.0, "lat": 38.86510366666667, "type": "electric_scooter", "lon": -76.99005, "bike_id": "e73f690cf81f4f843cc00123ff3f4ac2", "rental_uris": {"android": "https://dc.lft.to/lastmile_qr_scan", "ios": "https://dc.lft.to/lastmile_qr_scan"}, "name": "e73f690cf81f4f843cc00123ff3f4ac2", "is_reserved": 0}, {"is_disabled": 0, "fusion_lon": 0.0, "fusion_lat": 0.0, "lat": 38.893764166666664, "type": "electric_scooter", "lon": -77.04789016666666, "bike_id": "4348e411806eee320c584e943f04f337", "rental_uris": {"android": "https://dc.lft.to/lastmile_qr_scan", "ios": "https://dc.lft.to/lastmile_qr_scan"}, "name": "4348e411806eee320c584e943f04f337", "is_reserved": 0}, {"is_disabled": 0, "fusion_lon": 0.0, "fusion_lat": 0.0, "lat": 38.9132725, "type": "electric_scooter", "lon": -77.03256216666666, "bike_id": "e9c16d4e619fc98563a47912ee1474aa", "rental_uris": {"android": "https://dc.lft.to/lastmile_qr_scan", "ios": "https://dc.lft.to/lastmile_qr_scan"}, "name": "e9c16d4e619fc98563a47912ee1474aa", "is_reserved": 0}, {"is_disabled": 0, "fusion_lon": 0.0, "fusion_lat": 0.0, "lat": 38.88403016666667, "type": "electric_scooter", "lon": -76.95411083333333, "bike_id": "408a834decf956c3cc66edccbffa6841", "rental_uris": {"android": "https://dc.lft.to/lastmile_qr_scan", "ios": "https://dc.lft.to/lastmile_qr_scan"}, "name": "408a834decf956c3cc66edccbffa6841", "is_reserved": 0}, {"is_disabled": 0, "fusion_lon": 0.0, "fusion_lat": 0.0, "lat": 38.86672266666667, "type": "electric_scooter", "lon": -76.988853, "bike_id": "6c58c437fe4a2258be388073beee68bc", "rental_uris": {"android": "https://dc.lft.to/lastmile_qr_scan", "ios": "https://dc.lft.to/lastmile_qr_scan"}, "name": "6c58c437fe4a2258be388073beee68bc", "is_reserved": 0}, {"is_disabled": 0, "fusion_lon": 0.0, "fusion_lat": 0.0, "lat": 38.91790133333333, "type": "electric_scooter", "lon": -77.03453233333333, "bike_id": "3584b4396e2aec00d1772f7d8f6f570d", "rental_uris": {"android": "https://dc.lft.to/lastmile_qr_scan", "ios": "https://dc.lft.to/lastmile_qr_scan"}, "name": "3584b4396e2aec00d1772f7d8f6f570d", "is_reserved": 0}, {"is_disabled": 0, "fusion_lon": 0.0, "fusion_lat": 0.0, "lat": 39.08834483333333, "type": "electric_bike", "lon": -77.17802183333333, "bike_id": "7597c3605f093b367483cafd696bac7e", "rental_uris": {"android": "https://dc.lft.to/lastmile_qr_scan", "ios": "https://dc.lft.to/lastmile_qr_scan"}, "name": "7597c3605f093b367483cafd696bac7e", "is_reserved": 0}, {"is_disabled": 0, "fusion_lon": 0.0, "fusion_lat": 0.0, "lat": 38.901077, "type": "electric_scooter", "lon": -77.049942, "bike_id": "3053c10710c7493a4127d7c9ff16f421", "rental_uris": {"android": "https://dc.lft.to/lastmile_qr_scan", "ios": "https://dc.lft.to/lastmile_qr_scan"}, "name": "3053c10710c7493a4127d7c9ff16f421", "is_reserved": 0}, {"is_disabled": 0, "fusion_lon": 0.0, "fusion_lat": 0.0, "lat": 38.93191266666667, "type": "electric_scooter", "lon": -77.028367, "bike_id": "4a1b788a53f8af62562be3dffb1ee317", "rental_uris": {"android": "https://dc.lft.to/lastmile_qr_scan", "ios": "https://dc.lft.to/lastmile_qr_scan"}, "name": "4a1b788a53f8af62562be3dffb1ee317", "is_reserved": 0}, {"is_disabled": 0, "fusion_lon": 0.0, "fusion_lat": 0.0, "lat": 38.88674366666667, "type": "electric_scooter", "lon": -77.00069283333333, "bike_id": "deb5b3f422c0c3f703de85ba7f3b0d39", "rental_uris": {"android": "https://dc.lft.to/lastmile_qr_scan", "ios": "https://dc.lft.to/lastmile_qr_scan"}, "name": "deb5b3f422c0c3f703de85ba7f3b0d39", "is_reserved": 0}, {"is_disabled": 0, "fusion_lon": 0.0, "fusion_lat": 0.0, "lat": 38.8876035, "type": "electric_scooter", "lon": -76.95671633333333, "bike_id": "317a8604484a892eab5940a2266437c9", "rental_uris": {"android": "https://dc.lft.to/lastmile_qr_scan", "ios": "https://dc.lft.to/lastmile_qr_scan"}, "name": "317a8604484a892eab5940a2266437c9", "is_reserved": 0}, {"is_disabled": 0, "fusion_lon": 0.0, "fusion_lat": 0.0, "lat": 38.90417216666667, "type": "electric_scooter", "lon": -76.98513416666667, "bike_id": "ffb0c1850dd8f9c5b3b8862ad8b33aa4", "rental_uris": {"android": "https://dc.lft.to/lastmile_qr_scan", "ios": "https://dc.lft.to/lastmile_qr_scan"}, "name": "ffb0c1850dd8f9c5b3b8862ad8b33aa4", "is_reserved": 0}, {"is_disabled": 0, "fusion_lon": 0.0, "fusion_lat": 0.0, "lat": 38.952776166666666, "type": "electric_scooter", "lon": -77.06847783333333, "bike_id": "4fa6f9c9449a348741347794c61d382f", "rental_uris": {"android": "https://dc.lft.to/lastmile_qr_scan", "ios": "https://dc.lft.to/lastmile_qr_scan"}, "name": "4fa6f9c9449a348741347794c61d382f", "is_reserved": 0}, {"is_disabled": 0, "fusion_lon": 0.0, "fusion_lat": 0.0, "lat": 38.959579166666664, "type": "electric_bike", "lon": -76.9816095, "bike_id": "e87ecced331694926e37859adf9cd27d", "rental_uris": {"android": "https://dc.lft.to/lastmile_qr_scan", "ios": "https://dc.lft.to/lastmile_qr_scan"}, "name": "e87ecced331694926e37859adf9cd27d", "is_reserved": 0}, {"is_disabled": 0, "fusion_lon": 0.0, "fusion_lat": 0.0, "lat": 38.90275183333333, "type": "electric_scooter", "lon": -77.01968, "bike_id": "05305757f26d83275aea66d896408424", "rental_uris": {"android": "https://dc.lft.to/lastmile_qr_scan", "ios": "https://dc.lft.to/lastmile_qr_scan"}, "name": "05305757f26d83275aea66d896408424", "is_reserved": 0}, {"is_disabled": 0, "fusion_lon": 0.0, "fusion_lat": 0.0, "lat": 38.898725666666664, "type": "electric_scooter", "lon": -76.93186416666667, "bike_id": "e98cb18254f23e4b49ba2dd504f3355c", "rental_uris": {"android": "https://dc.lft.to/lastmile_qr_scan", "ios": "https://dc.lft.to/lastmile_qr_scan"}, "name": "e98cb18254f23e4b49ba2dd504f3355c", "is_reserved": 0}, {"is_disabled": 0, "fusion_lon": 0.0, "fusion_lat": 0.0, "lat": 38.887286333333336, "type": "electric_scooter", "lon": -77.02830483333334, "bike_id": "7cd3a79b93cef208b5bfee49e988cbaa", "rental_uris": {"android": "https://dc.lft.to/lastmile_qr_scan", "ios": "https://dc.lft.to/lastmile_qr_scan"}, "name": "7cd3a79b93cef208b5bfee49e988cbaa", "is_reserved": 0}, {"is_disabled": 0, "fusion_lon": 0.0, "fusion_lat": 0.0, "lat": 38.9104195, "type": "electric_scooter", "lon": -77.04056016666667, "bike_id": "fc432bded4e53867bbe4817348058b09", "rental_uris": {"android": "https://dc.lft.to/lastmile_qr_scan", "ios": "https://dc.lft.to/lastmile_qr_scan"}, "name": "fc432bded4e53867bbe4817348058b09", "is_reserved": 0}, {"is_disabled": 0, "fusion_lon": 0.0, "fusion_lat": 0.0, "lat": 38.92622083333333, "type": "electric_scooter", "lon": -77.057072, "bike_id": "9fca0fd1df8de3309831614677825fc4", "rental_uris": {"android": "https://dc.lft.to/lastmile_qr_scan", "ios": "https://dc.lft.to/lastmile_qr_scan"}, "name": "9fca0fd1df8de3309831614677825fc4", "is_reserved": 0}, {"is_disabled": 0, "fusion_lon": 0.0, "fusion_lat": 0.0, "lat": 38.88658733333333, "type": "electric_bike", "lon": -77.1623775, "bike_id": "92a220edb171807f0a38f98d26504a17", "rental_uris": {"android": "https://dc.lft.to/lastmile_qr_scan", "ios": "https://dc.lft.to/lastmile_qr_scan"}, "name": "92a220edb171807f0a38f98d26504a17", "is_reserved": 0}, {"is_disabled": 0, "fusion_lon": 0.0, "fusion_lat": 0.0, "lat": 38.89241466666667, "type": "electric_scooter", "lon": -77.0465845, "bike_id": "8c75bf5a980f56d80c125223591328db", "rental_uris": {"android": "https://dc.lft.to/lastmile_qr_scan", "ios": "https://dc.lft.to/lastmile_qr_scan"}, "name": "8c75bf5a980f56d80c125223591328db", "is_reserved": 0}, {"is_disabled": 0, "fusion_lon": 0.0, "fusion_lat": 0.0, "lat": 38.949810166666666, "type": "electric_scooter", "lon": -77.0270275, "bike_id": "dce8f062e4cbdf1b25194fe348a4fa1a", "rental_uris": {"android": "https://dc.lft.to/lastmile_qr_scan", "ios": "https://dc.lft.to/lastmile_qr_scan"}, "name": "dce8f062e4cbdf1b25194fe348a4fa1a", "is_reserved": 0}, {"is_disabled": 0, "fusion_lon": 0.0, "fusion_lat": 0.0, "lat": 38.95310816666667, "type": "electric_scooter", "lon": -77.035993, "bike_id": "d22756a52943ce6cb68419438cf6f841", "rental_uris": {"android": "https://dc.lft.to/lastmile_qr_scan", "ios": "https://dc.lft.to/lastmile_qr_scan"}, "name": "d22756a52943ce6cb68419438cf6f841", "is_reserved": 0}, {"is_disabled": 0, "fusion_lon": 0.0, "fusion_lat": 0.0, "lat": 38.98731883333333, "type": "electric_bike", "lon": -77.027153, "bike_id": "516a7d28bb25d0ba6ce8fc0fbf03827f", "rental_uris": {"android": "https://dc.lft.to/lastmile_qr_scan", "ios": "https://dc.lft.to/lastmile_qr_scan"}, "name": "516a7d28bb25d0ba6ce8fc0fbf03827f", "is_reserved": 0}, {"is_disabled": 0, "fusion_lon": 0.0, "fusion_lat": 0.0, "lat": 38.89789583333334, "type": "electric_scooter", "lon": -76.9305015, "bike_id": "adb35993d1d074f395441a32cdd39d2f", "rental_uris": {"android": "https://dc.lft.to/lastmile_qr_scan", "ios": "https://dc.lft.to/lastmile_qr_scan"}, "name": "adb35993d1d074f395441a32cdd39d2f", "is_reserved": 0}, {"is_disabled": 0, "fusion_lon": 0.0, "fusion_lat": 0.0, "lat": 38.895197833333334, "type": "electric_scooter", "lon": -77.02204233333333, "bike_id": "1569b1a0e34e38f778e33c07d75592f7", "rental_uris": {"android": "https://dc.lft.to/lastmile_qr_scan", "ios": "https://dc.lft.to/lastmile_qr_scan"}, "name": "1569b1a0e34e38f778e33c07d75592f7", "is_reserved": 0}, {"is_disabled": 0, "fusion_lon": 0.0, "fusion_lat": 0.0, "lat": 38.8944775, "type": "electric_scooter", "lon": -77.02251483333333, "bike_id": "3cb42bc06c9d90cde28f4f83ba2c58f3", "rental_uris": {"android": "https://dc.lft.to/lastmile_qr_scan", "ios": "https://dc.lft.to/lastmile_qr_scan"}, "name": "3cb42bc06c9d90cde28f4f83ba2c58f3", "is_reserved": 0}, {"is_disabled": 0, "fusion_lon": 0.0, "fusion_lat": 0.0, "lat": 38.846191833333336, "type": "electric_scooter", "lon": -76.99632316666667, "bike_id": "0727a47b0057f29f05249fa088dfc5c0", "rental_uris": {"android": "https://dc.lft.to/lastmile_qr_scan", "ios": "https://dc.lft.to/lastmile_qr_scan"}, "name": "0727a47b0057f29f05249fa088dfc5c0", "is_reserved": 0}, {"is_disabled": 0, "fusion_lon": 0.0, "fusion_lat": 0.0, "lat": 38.9183265, "type": "electric_scooter", "lon": -77.03207866666666, "bike_id": "1d83a5ad66feb1a52147796828b917d6", "rental_uris": {"android": "https://dc.lft.to/lastmile_qr_scan", "ios": "https://dc.lft.to/lastmile_qr_scan"}, "name": "1d83a5ad66feb1a52147796828b917d6", "is_reserved": 0}, {"is_disabled": 0, "fusion_lon": 0.0, "fusion_lat": 0.0, "lat": 38.909474833333334, "type": "electric_scooter", "lon": -77.02387433333334, "bike_id": "0e9215a210d9f48a98a681d22cd17898", "rental_uris": {"android": "https://dc.lft.to/lastmile_qr_scan", "ios": "https://dc.lft.to/lastmile_qr_scan"}, "name": "0e9215a210d9f48a98a681d22cd17898", "is_reserved": 0}, {"is_disabled": 0, "fusion_lon": 0.0, "fusion_lat": 0.0, "lat": 38.899386666666665, "type": "electric_scooter", "lon": -77.01503866666667, "bike_id": "92e4c48f0df68e5a3a3b8d25fae360bb", "rental_uris": {"android": "https://dc.lft.to/lastmile_qr_scan", "ios": "https://dc.lft.to/lastmile_qr_scan"}, "name": "92e4c48f0df68e5a3a3b8d25fae360bb", "is_reserved": 0}, {"is_disabled": 0, "fusion_lon": 0.0, "fusion_lat": 0.0, "lat": 38.91215233333333, "type": "electric_scooter", "lon": -77.03203183333333, "bike_id": "563c2246abed9e19f5cb129fb3261251", "rental_uris": {"android": "https://dc.lft.to/lastmile_qr_scan", "ios": "https://dc.lft.to/lastmile_qr_scan"}, "name": "563c2246abed9e19f5cb129fb3261251", "is_reserved": 0}, {"is_disabled": 0, "fusion_lon": 0.0, "fusion_lat": 0.0, "lat": 38.9084195, "type": "electric_scooter", "lon": -77.03464583333333, "bike_id": "0cf86b5935972887b6e9656d18f3d19e", "rental_uris": {"android": "https://dc.lft.to/lastmile_qr_scan", "ios": "https://dc.lft.to/lastmile_qr_scan"}, "name": "0cf86b5935972887b6e9656d18f3d19e", "is_reserved": 0}, {"is_disabled": 0, "fusion_lon": 0.0, "fusion_lat": 0.0, "lat": 38.90949533333333, "type": "electric_scooter", "lon": -77.02715016666667, "bike_id": "625dd99723067bb29fd457823bea2d1d", "rental_uris": {"android": "https://dc.lft.to/lastmile_qr_scan", "ios": "https://dc.lft.to/lastmile_qr_scan"}, "name": "625dd99723067bb29fd457823bea2d1d", "is_reserved": 0}, {"is_disabled": 0, "fusion_lon": 0.0, "fusion_lat": 0.0, "lat": 38.88501183333333, "type": "electric_scooter", "lon": -77.0207815, "bike_id": "b949ea59ea1779217a27a40a19569d32", "rental_uris": {"android": "https://dc.lft.to/lastmile_qr_scan", "ios": "https://dc.lft.to/lastmile_qr_scan"}, "name": "b949ea59ea1779217a27a40a19569d32", "is_reserved": 0}, {"is_disabled": 0, "fusion_lon": 0.0, "fusion_lat": 0.0, "lat": 38.896182333333336, "type": "electric_scooter", "lon": -77.02660666666667, "bike_id": "1556240480732a693a862861995f7276", "rental_uris": {"android": "https://dc.lft.to/lastmile_qr_scan", "ios": "https://dc.lft.to/lastmile_qr_scan"}, "name": "1556240480732a693a862861995f7276", "is_reserved": 0}, {"is_disabled": 0, "fusion_lon": 0.0, "fusion_lat": 0.0, "lat": 38.917832, "type": "electric_scooter", "lon": -76.9718015, "bike_id": "f0df6b42f624d481d3712bae5266c5b5", "rental_uris": {"android": "https://dc.lft.to/lastmile_qr_scan", "ios": "https://dc.lft.to/lastmile_qr_scan"}, "name": "f0df6b42f624d481d3712bae5266c5b5", "is_reserved": 0}, {"is_disabled": 0, "fusion_lon": 0.0, "fusion_lat": 0.0, "lat": 38.8898475, "type": "electric_scooter", "lon": -77.0033885, "bike_id": "a44285da9c25bcda6b0a2fbe14b69e16", "rental_uris": {"android": "https://dc.lft.to/lastmile_qr_scan", "ios": "https://dc.lft.to/lastmile_qr_scan"}, "name": "a44285da9c25bcda6b0a2fbe14b69e16", "is_reserved": 0}, {"is_disabled": 0, "fusion_lon": 0.0, "fusion_lat": 0.0, "lat": 38.936650666666665, "type": "electric_scooter", "lon": -77.05929233333333, "bike_id": "b8dae8b8c739764f6a85168bde9864d0", "rental_uris": {"android": "https://dc.lft.to/lastmile_qr_scan", "ios": "https://dc.lft.to/lastmile_qr_scan"}, "name": "b8dae8b8c739764f6a85168bde9864d0", "is_reserved": 0}, {"is_disabled": 0, "fusion_lon": 0.0, "fusion_lat": 0.0, "lat": 38.86463766666667, "type": "electric_scooter", "lon": -76.99615616666667, "bike_id": "9ef484fa662daf48395f67ec51331054", "rental_uris": {"android": "https://dc.lft.to/lastmile_qr_scan", "ios": "https://dc.lft.to/lastmile_qr_scan"}, "name": "9ef484fa662daf48395f67ec51331054", "is_reserved": 0}, {"is_disabled": 0, "fusion_lon": 0.0, "fusion_lat": 0.0, "lat": 38.89713583333333, "type": "electric_scooter", "lon": -77.02153566666667, "bike_id": "53e6fb15e6adffc3a69336c7c75c1bfb", "rental_uris": {"android": "https://dc.lft.to/lastmile_qr_scan", "ios": "https://dc.lft.to/lastmile_qr_scan"}, "name": "53e6fb15e6adffc3a69336c7c75c1bfb", "is_reserved": 0}, {"is_disabled": 0, "fusion_lon": 0.0, "fusion_lat": 0.0, "lat": 38.88584266666667, "type": "electric_scooter", "lon": -77.01224983333333, "bike_id": "dc63cdcb6bcf866c93a95897b12b6dd7", "rental_uris": {"android": "https://dc.lft.to/lastmile_qr_scan", "ios": "https://dc.lft.to/lastmile_qr_scan"}, "name": "dc63cdcb6bcf866c93a95897b12b6dd7", "is_reserved": 0}, {"is_disabled": 0, "fusion_lon": 0.0, "fusion_lat": 0.0, "lat": 38.903882333333335, "type": "electric_scooter", "lon": -77.038578, "bike_id": "a2ebca4476f1b5e8100d9ef86443f4f6", "rental_uris": {"android": "https://dc.lft.to/lastmile_qr_scan", "ios": "https://dc.lft.to/lastmile_qr_scan"}, "name": "a2ebca4476f1b5e8100d9ef86443f4f6", "is_reserved": 0}, {"is_disabled": 0, "fusion_lon": 0.0, "fusion_lat": 0.0, "lat": 38.89821533333333, "type": "electric_scooter", "lon": -77.03156316666667, "bike_id": "c896ef08c24feb828cc5251bfbf7ec9f", "rental_uris": {"android": "https://dc.lft.to/lastmile_qr_scan", "ios": "https://dc.lft.to/lastmile_qr_scan"}, "name": "c896ef08c24feb828cc5251bfbf7ec9f", "is_reserved": 0}, {"is_disabled": 0, "fusion_lon": 0.0, "fusion_lat": 0.0, "lat": 38.9095895, "type": "electric_scooter", "lon": -77.0458735, "bike_id": "c3c2eb19aa73e8c50bd5a06444fe432f", "rental_uris": {"android": "https://dc.lft.to/lastmile_qr_scan", "ios": "https://dc.lft.to/lastmile_qr_scan"}, "name": "c3c2eb19aa73e8c50bd5a06444fe432f", "is_reserved": 0}, {"is_disabled": 0, "fusion_lon": 0.0, "fusion_lat": 0.0, "lat": 38.93243616666667, "type": "electric_scooter", "lon": -77.02976383333333, "bike_id": "a3b29a26c81894980eaca5a7dc2ff886", "rental_uris": {"android": "https://dc.lft.to/lastmile_qr_scan", "ios": "https://dc.lft.to/lastmile_qr_scan"}, "name": "a3b29a26c81894980eaca5a7dc2ff886", "is_reserved": 0}, {"is_disabled": 0, "fusion_lon": 0.0, "fusion_lat": 0.0, "lat": 38.91577933333333, "type": "electric_scooter", "lon": -77.02000683333333, "bike_id": "5a671fd64b8742e9d5ab71b995bd6871", "rental_uris": {"android": "https://dc.lft.to/lastmile_qr_scan", "ios": "https://dc.lft.to/lastmile_qr_scan"}, "name": "5a671fd64b8742e9d5ab71b995bd6871", "is_reserved": 0}, {"is_disabled": 0, "fusion_lon": 0.0, "fusion_lat": 0.0, "lat": 38.9103775, "type": "electric_scooter", "lon": -77.03621966666667, "bike_id": "b9b60450a27f7f3075863b9962da7574", "rental_uris": {"android": "https://dc.lft.to/lastmile_qr_scan", "ios": "https://dc.lft.to/lastmile_qr_scan"}, "name": "b9b60450a27f7f3075863b9962da7574", "is_reserved": 0}, {"is_disabled": 0, "fusion_lon": 0.0, "fusion_lat": 0.0, "lat": 38.9032975, "type": "electric_bike", "lon": -76.97527133333334, "bike_id": "70be596217e2a3ad52f01c4a0c420f97", "rental_uris": {"android": "https://dc.lft.to/lastmile_qr_scan", "ios": "https://dc.lft.to/lastmile_qr_scan"}, "name": "70be596217e2a3ad52f01c4a0c420f97", "is_reserved": 0}, {"is_disabled": 0, "fusion_lon": 0.0, "fusion_lat": 0.0, "lat": 38.8858335, "type": "electric_scooter", "lon": -77.01225533333333, "bike_id": "47d56ab450c262a5c9e0bcf7e904a625", "rental_uris": {"android": "https://dc.lft.to/lastmile_qr_scan", "ios": "https://dc.lft.to/lastmile_qr_scan"}, "name": "47d56ab450c262a5c9e0bcf7e904a625", "is_reserved": 0}, {"is_disabled": 0, "fusion_lon": 0.0, "fusion_lat": 0.0, "lat": 38.934893333333335, "type": "electric_scooter", "lon": -77.0271655, "bike_id": "1998b3488b5bfa0714c6a1946a6621d7", "rental_uris": {"android": "https://dc.lft.to/lastmile_qr_scan", "ios": "https://dc.lft.to/lastmile_qr_scan"}, "name": "1998b3488b5bfa0714c6a1946a6621d7", "is_reserved": 0}, {"is_disabled": 0, "fusion_lon": 0.0, "fusion_lat": 0.0, "lat": 38.900533, "type": "electric_scooter", "lon": -77.048887, "bike_id": "6aadb76bdf12a167760c6c7fcc389dd3", "rental_uris": {"android": "https://dc.lft.to/lastmile_qr_scan", "ios": "https://dc.lft.to/lastmile_qr_scan"}, "name": "6aadb76bdf12a167760c6c7fcc389dd3", "is_reserved": 0}, {"is_disabled": 0, "fusion_lon": 0.0, "fusion_lat": 0.0, "lat": 38.91594833333333, "type": "electric_scooter", "lon": -77.02355366666667, "bike_id": "c9c39b19e301e65003db76180303497f", "rental_uris": {"android": "https://dc.lft.to/lastmile_qr_scan", "ios": "https://dc.lft.to/lastmile_qr_scan"}, "name": "c9c39b19e301e65003db76180303497f", "is_reserved": 0}, {"is_disabled": 0, "fusion_lon": 0.0, "fusion_lat": 0.0, "lat": 38.920530666666664, "type": "electric_scooter", "lon": -76.99884866666666, "bike_id": "6883d4830d1d2a98c0f807611a26206d", "rental_uris": {"android": "https://dc.lft.to/lastmile_qr_scan", "ios": "https://dc.lft.to/lastmile_qr_scan"}, "name": "6883d4830d1d2a98c0f807611a26206d", "is_reserved": 0}, {"is_disabled": 0, "fusion_lon": 0.0, "fusion_lat": 0.0, "lat": 38.895247833333336, "type": "electric_scooter", "lon": -76.94894683333334, "bike_id": "fa9c7dad44669b148fff4336534d7da5", "rental_uris": {"android": "https://dc.lft.to/lastmile_qr_scan", "ios": "https://dc.lft.to/lastmile_qr_scan"}, "name": "fa9c7dad44669b148fff4336534d7da5", "is_reserved": 0}, {"is_disabled": 0, "fusion_lon": 0.0, "fusion_lat": 0.0, "lat": 38.953102333333334, "type": "electric_scooter", "lon": -77.03599583333333, "bike_id": "15d14d49985aa0747d56f1f17703cad0", "rental_uris": {"android": "https://dc.lft.to/lastmile_qr_scan", "ios": "https://dc.lft.to/lastmile_qr_scan"}, "name": "15d14d49985aa0747d56f1f17703cad0", "is_reserved": 0}, {"is_disabled": 0, "fusion_lon": 0.0, "fusion_lat": 0.0, "lat": 38.90817033333333, "type": "electric_scooter", "lon": -77.04174066666667, "bike_id": "5a550bbf0db76ac88fa0de215fb57fd2", "rental_uris": {"android": "https://dc.lft.to/lastmile_qr_scan", "ios": "https://dc.lft.to/lastmile_qr_scan"}, "name": "5a550bbf0db76ac88fa0de215fb57fd2", "is_reserved": 0}, {"is_disabled": 0, "fusion_lon": 0.0, "fusion_lat": 0.0, "lat": 38.8764785, "type": "electric_scooter", "lon": -77.0156495, "bike_id": "58dbc62eff4c60e1e17a371802275396", "rental_uris": {"android": "https://dc.lft.to/lastmile_qr_scan", "ios": "https://dc.lft.to/lastmile_qr_scan"}, "name": "58dbc62eff4c60e1e17a371802275396", "is_reserved": 0}, {"is_disabled": 0, "fusion_lon": 0.0, "fusion_lat": 0.0, "lat": 38.93144066666667, "type": "electric_scooter", "lon": -77.03453716666667, "bike_id": "8919f4e34106cadb419e5e378e86e717", "rental_uris": {"android": "https://dc.lft.to/lastmile_qr_scan", "ios": "https://dc.lft.to/lastmile_qr_scan"}, "name": "8919f4e34106cadb419e5e378e86e717", "is_reserved": 0}, {"is_disabled": 0, "fusion_lon": 0.0, "fusion_lat": 0.0, "lat": 38.903904, "type": "electric_scooter", "lon": -77.02807233333333, "bike_id": "5b9fe07e06e79d4471026b39ef71c28f", "rental_uris": {"android": "https://dc.lft.to/lastmile_qr_scan", "ios": "https://dc.lft.to/lastmile_qr_scan"}, "name": "5b9fe07e06e79d4471026b39ef71c28f", "is_reserved": 0}, {"is_disabled": 0, "fusion_lon": 0.0, "fusion_lat": 0.0, "lat": 38.893353166666664, "type": "electric_bike", "lon": -77.12404566666666, "bike_id": "5f169a5987f13c6f3d327718c7f9abb9", "rental_uris": {"android": "https://dc.lft.to/lastmile_qr_scan", "ios": "https://dc.lft.to/lastmile_qr_scan"}, "name": "5f169a5987f13c6f3d327718c7f9abb9", "is_reserved": 0}, {"is_disabled": 0, "fusion_lon": 0.0, "fusion_lat": 0.0, "lat": 38.919147333333335, "type": "electric_scooter", "lon": -77.0213535, "bike_id": "42b33c2d9734b1bd0d95bb45017172c5", "rental_uris": {"android": "https://dc.lft.to/lastmile_qr_scan", "ios": "https://dc.lft.to/lastmile_qr_scan"}, "name": "42b33c2d9734b1bd0d95bb45017172c5", "is_reserved": 0}, {"is_disabled": 0, "fusion_lon": 0.0, "fusion_lat": 0.0, "lat": 38.899643166666664, "type": "electric_scooter", "lon": -77.046141, "bike_id": "05ff1b8edd21207a37adc9eac0723ca0", "rental_uris": {"android": "https://dc.lft.to/lastmile_qr_scan", "ios": "https://dc.lft.to/lastmile_qr_scan"}, "name": "05ff1b8edd21207a37adc9eac0723ca0", "is_reserved": 0}, {"is_disabled": 0, "fusion_lon": 0.0, "fusion_lat": 0.0, "lat": 38.901598166666666, "type": "electric_scooter", "lon": -77.02210466666666, "bike_id": "1695f663dc96301a73d4fa4230c6c421", "rental_uris": {"android": "https://dc.lft.to/lastmile_qr_scan", "ios": "https://dc.lft.to/lastmile_qr_scan"},