{"data": {"bikes": [{"bike_id": "4881912fdcb436b4d326fa0132ef7e85", "is_reserved": 0, "fusion_lon": 0.0, "lat": 38.919146, "is_disabled": 0, "name": "4881912fdcb436b4d326fa0132ef7e85", "fusion_lat": 0.0, "rental_uris": {"ios": "https://dc.lft.to/lastmile_qr_scan", "android": "https://dc.lft.to/lastmile_qr_scan"}, "lon": -77.03115766666667, "type": "electric_scooter"}, {"bike_id": "45c67bbb1d9b1808f848ca317390dc97", "is_reserved": 0, "fusion_lon": 0.0, "lat": 38.8636635, "is_disabled": 0, "name": "45c67bbb1d9b1808f848ca317390dc97", "fusion_lat": 0.0, "rental_uris": {"ios": "https://dc.lft.to/lastmile_qr_scan", "android": "https://dc.lft.to/lastmile_qr_scan"}, "lon": -76.99044416666666, "type": "electric_scooter"}, {"bike_id": "238c2d08d76225d3e34ed20abaa5e39a", "is_reserved": 0, "fusion_lon": 0.0, "lat": 38.9137255, "is_disabled": 0, "name": "238c2d08d76225d3e34ed20abaa5e39a", "fusion_lat": 0.0, "rental_uris": {"ios": "https://dc.lft.to/lastmile_qr_scan", "android": "https://dc.lft.to/lastmile_qr_scan"}, "lon": -77.00821183333333, "type": "electric_scooter"}, {"bike_id": "093778156f228aad05d8557666c82f9c", "is_reserved": 0, "fusion_lon": 0.0, "lat": 38.90370683333333, "is_disabled": 0, "name": "093778156f228aad05d8557666c82f9c", "fusion_lat": 0.0, "rental_uris": {"ios": "https://dc.lft.to/lastmile_qr_scan", "android": "https://dc.lft.to/lastmile_qr_scan"}, "lon": -77.0320995, "type": "electric_scooter"}, {"bike_id": "0f220b09bb7813f8aaf7c4063c8702f1", "is_reserved": 0, "fusion_lon": 0.0, "lat": 38.869312666666666, "is_disabled": 0, "name": "0f220b09bb7813f8aaf7c4063c8702f1", "fusion_lat": 0.0, "rental_uris": {"ios": "https://dc.lft.to/lastmile_qr_scan", "android": "https://dc.lft.to/lastmile_qr_scan"}, "lon": -76.96016983333334, "type": "electric_bike"}, {"bike_id": "79a356af0c1d98279f114c243bd3fe71", "is_reserved": 0, "fusion_lon": 0.0, "lat": 38.9126445, "is_disabled": 0, "name": "79a356af0c1d98279f114c243bd3fe71", "fusion_lat": 0.0, "rental_uris": {"ios": "https://dc.lft.to/lastmile_qr_scan", "android": "https://dc.lft.to/lastmile_qr_scan"}, "lon": -77.03622433333334, "type": "electric_scooter"}, {"bike_id": "93379b24c1484ee402a49a592be679ee", "is_reserved": 0, "fusion_lon": 0.0, "lat": 38.88583883333333, "is_disabled": 0, "name": "93379b24c1484ee402a49a592be679ee", "fusion_lat": 0.0, "rental_uris": {"ios": "https://dc.lft.to/lastmile_qr_scan", "android": "https://dc.lft.to/lastmile_qr_scan"}, "lon": -77.01776766666667, "type": "electric_scooter"}, {"bike_id": "96c929b03cc8fd73422d0cb8925cb6c2", "is_reserved": 0, "fusion_lon": 0.0, "lat": 38.951832, "is_disabled": 0, "name": "96c929b03cc8fd73422d0cb8925cb6c2", "fusion_lat": 0.0, "rental_uris": {"ios": "https://dc.lft.to/lastmile_qr_scan", "android": "https://dc.lft.to/lastmile_qr_scan"}, "lon": -76.93548566666666, "type": "electric_bike"}, {"bike_id": "4956d1c9284661acad5d4040d4a5076a", "is_reserved": 0, "fusion_lon": 0.0, "lat": 38.9008385, "is_disabled": 0, "name": "4956d1c9284661acad5d4040d4a5076a", "fusion_lat": 0.0, "rental_uris": {"ios": "https://dc.lft.to/lastmile_qr_scan", "android": "https://dc.lft.to/lastmile_qr_scan"}, "lon": -77.05045266666667, "type": "electric_scooter"}, {"bike_id": "a9d058b39e288c671ffe8e5f9860dc0a", "is_reserved": 0, "fusion_lon": 0.0, "lat": 38.90118066666667, "is_disabled": 0, "name": "a9d058b39e288c671ffe8e5f9860dc0a", "fusion_lat": 0.0, "rental_uris": {"ios": "https://dc.lft.to/lastmile_qr_scan", "android": "https://dc.lft.to/lastmile_qr_scan"}, "lon": -77.041855, "type": "electric_scooter"}, {"bike_id": "f30249e0d40ae081a68149c14e44d7d6", "is_reserved": 0, "fusion_lon": 0.0, "lat": 38.92684533333333, "is_disabled": 0, "name": "f30249e0d40ae081a68149c14e44d7d6", "fusion_lat": 0.0, "rental_uris": {"ios": "https://dc.lft.to/lastmile_qr_scan", "android": "https://dc.lft.to/lastmile_qr_scan"}, "lon": -77.0156985, "type": "electric_scooter"}, {"bike_id": "2bfd6f56b56da386b47c22345c006719", "is_reserved": 0, "fusion_lon": 0.0, "lat": 38.92928333333333, "is_disabled": 0, "name": "2bfd6f56b56da386b47c22345c006719", "fusion_lat": 0.0, "rental_uris": {"ios": "https://dc.lft.to/lastmile_qr_scan", "android": "https://dc.lft.to/lastmile_qr_scan"}, "lon": -77.03288616666667, "type": "electric_scooter"}, {"bike_id": "0847b9c0a55cdafa4780a1828535bc8a", "is_reserved": 0, "fusion_lon": 0.0, "lat": 38.92160366666667, "is_disabled": 0, "name": "0847b9c0a55cdafa4780a1828535bc8a", "fusion_lat": 0.0, "rental_uris": {"ios": "https://dc.lft.to/lastmile_qr_scan", "android": "https://dc.lft.to/lastmile_qr_scan"}, "lon": -77.04691833333334, "type": "electric_scooter"}, {"bike_id": "ca440610f0173c7dd3f89e28706871ca", "is_reserved": 0, "fusion_lon": 0.0, "lat": 38.908668666666664, "is_disabled": 0, "name": "ca440610f0173c7dd3f89e28706871ca", "fusion_lat": 0.0, "rental_uris": {"ios": "https://dc.lft.to/lastmile_qr_scan", "android": "https://dc.lft.to/lastmile_qr_scan"}, "lon": -77.03282433333334, "type": "electric_scooter"}, {"bike_id": "8802b48beb9822dcb8e0eac1c9aef235", "is_reserved": 0, "fusion_lon": 0.0, "lat": 38.90438916666667, "is_disabled": 0, "name": "8802b48beb9822dcb8e0eac1c9aef235", "fusion_lat": 0.0, "rental_uris": {"ios": "https://dc.lft.to/lastmile_qr_scan", "android": "https://dc.lft.to/lastmile_qr_scan"}, "lon": -77.06125033333333, "type": "electric_scooter"}, {"bike_id": "19410540207dc9e42c64bb3668488794", "is_reserved": 0, "fusion_lon": 0.0, "lat": 38.90524083333333, "is_disabled": 0, "name": "19410540207dc9e42c64bb3668488794", "fusion_lat": 0.0, "rental_uris": {"ios": "https://dc.lft.to/lastmile_qr_scan", "android": "https://dc.lft.to/lastmile_qr_scan"}, "lon": -77.06531566666666, "type": "electric_scooter"}, {"bike_id": "ddaebb6f4bfa2d4ca531c29f5d464064", "is_reserved": 0, "fusion_lon": 0.0, "lat": 38.84572716666667, "is_disabled": 0, "name": "ddaebb6f4bfa2d4ca531c29f5d464064", "fusion_lat": 0.0, "rental_uris": {"ios": "https://dc.lft.to/lastmile_qr_scan", "android": "https://dc.lft.to/lastmile_qr_scan"}, "lon": -77.0962675, "type": "electric_bike"}, {"bike_id": "aebe569a20d1ebc1ca17113f35959dca", "is_reserved": 0, "fusion_lon": 0.0, "lat": 38.86370316666667, "is_disabled": 0, "name": "aebe569a20d1ebc1ca17113f35959dca", "fusion_lat": 0.0, "rental_uris": {"ios": "https://dc.lft.to/lastmile_qr_scan", "android": "https://dc.lft.to/lastmile_qr_scan"}, "lon": -77.0135715, "type": "electric_scooter"}, {"bike_id": "1acaf11e81e313a502034fd2f4f8427a", "is_reserved": 0, "fusion_lon": 0.0, "lat": 38.91321133333334, "is_disabled": 0, "name": "1acaf11e81e313a502034fd2f4f8427a", "fusion_lat": 0.0, "rental_uris": {"ios": "https://dc.lft.to/lastmile_qr_scan", "android": "https://dc.lft.to/lastmile_qr_scan"}, "lon": -77.03272283333334, "type": "electric_scooter"}, {"bike_id": "839b9fff1383118fc5a9f840514cc843", "is_reserved": 0, "fusion_lon": 0.0, "lat": 38.916795666666665, "is_disabled": 0, "name": "839b9fff1383118fc5a9f840514cc843", "fusion_lat": 0.0, "rental_uris": {"ios": "https://dc.lft.to/lastmile_qr_scan", "android": "https://dc.lft.to/lastmile_qr_scan"}, "lon": -77.03683066666666, "type": "electric_scooter"}, {"bike_id": "478359ded240d5548067d3f94207745e", "is_reserved": 0, "fusion_lon": 0.0, "lat": 38.892079833333334, "is_disabled": 0, "name": "478359ded240d5548067d3f94207745e", "fusion_lat": 0.0, "rental_uris": {"ios": "https://dc.lft.to/lastmile_qr_scan", "android": "https://dc.lft.to/lastmile_qr_scan"}, "lon": -77.0259215, "type": "electric_scooter"}, {"bike_id": "f557c5e61bda68b3a596a5101bf730ab", "is_reserved": 0, "fusion_lon": 0.0, "lat": 38.921761000000004, "is_disabled": 0, "name": "f557c5e61bda68b3a596a5101bf730ab", "fusion_lat": 0.0, "rental_uris": {"ios": "https://dc.lft.to/lastmile_qr_scan", "android": "https://dc.lft.to/lastmile_qr_scan"}, "lon": -77.02543416666667, "type": "electric_scooter"}, {"bike_id": "b4f636b1a5e7ea30aed4abee35bee232", "is_reserved": 0, "fusion_lon": 0.0, "lat": 38.939825666666664, "is_disabled": 0, "name": "b4f636b1a5e7ea30aed4abee35bee232", "fusion_lat": 0.0, "rental_uris": {"ios": "https://dc.lft.to/lastmile_qr_scan", "android": "https://dc.lft.to/lastmile_qr_scan"}, "lon": -77.0288895, "type": "electric_scooter"}, {"bike_id": "e0fce604bf5131b058298dc57af79a01", "is_reserved": 0, "fusion_lon": 0.0, "lat": 38.87702983333333, "is_disabled": 0, "name": "e0fce604bf5131b058298dc57af79a01", "fusion_lat": 0.0, "rental_uris": {"ios": "https://dc.lft.to/lastmile_qr_scan", "android": "https://dc.lft.to/lastmile_qr_scan"}, "lon": -77.01727316666667, "type": "electric_scooter"}, {"bike_id": "93e1463c2058a79509d3eb40c44c9dce", "is_reserved": 0, "fusion_lon": 0.0, "lat": 38.828692333333336, "is_disabled": 0, "name": "93e1463c2058a79509d3eb40c44c9dce", "fusion_lat": 0.0, "rental_uris": {"ios": "https://dc.lft.to/lastmile_qr_scan", "android": "https://dc.lft.to/lastmile_qr_scan"}, "lon": -77.059073, "type": "electric_bike"}, {"bike_id": "5f5b4d2f4c4c17dc71e9d8275a75a457", "is_reserved": 0, "fusion_lon": 0.0, "lat": 38.93699733333333, "is_disabled": 0, "name": "5f5b4d2f4c4c17dc71e9d8275a75a457", "fusion_lat": 0.0, "rental_uris": {"ios": "https://dc.lft.to/lastmile_qr_scan", "android": "https://dc.lft.to/lastmile_qr_scan"}, "lon": -77.05945783333334, "type": "electric_scooter"}, {"bike_id": "2a4b84d57957d9b14d0cf4a6151ae197", "is_reserved": 0, "fusion_lon": 0.0, "lat": 38.90792883333334, "is_disabled": 0, "name": "2a4b84d57957d9b14d0cf4a6151ae197", "fusion_lat": 0.0, "rental_uris": {"ios": "https://dc.lft.to/lastmile_qr_scan", "android": "https://dc.lft.to/lastmile_qr_scan"}, "lon": -77.0423295, "type": "electric_scooter"}, {"bike_id": "e078827653ff354ed6e985cf36a57fff", "is_reserved": 0, "fusion_lon": 0.0, "lat": 38.92108483333333, "is_disabled": 0, "name": "e078827653ff354ed6e985cf36a57fff", "fusion_lat": 0.0, "rental_uris": {"ios": "https://dc.lft.to/lastmile_qr_scan", "android": "https://dc.lft.to/lastmile_qr_scan"}, "lon": -77.01765966666666, "type": "electric_scooter"}, {"bike_id": "364ca66296af68b68318057b07475db9", "is_reserved": 0, "fusion_lon": 0.0, "lat": 38.85958216666667, "is_disabled": 0, "name": "364ca66296af68b68318057b07475db9", "fusion_lat": 0.0, "rental_uris": {"ios": "https://dc.lft.to/lastmile_qr_scan", "android": "https://dc.lft.to/lastmile_qr_scan"}, "lon": -76.99116983333333, "type": "electric_scooter"}, {"bike_id": "46f112b9cec0e009b81110112ab0e4b8", "is_reserved": 0, "fusion_lon": 0.0, "lat": 38.90265316666667, "is_disabled": 0, "name": "46f112b9cec0e009b81110112ab0e4b8", "fusion_lat": 0.0, "rental_uris": {"ios": "https://dc.lft.to/lastmile_qr_scan", "android": "https://dc.lft.to/lastmile_qr_scan"}, "lon": -77.0306785, "type": "electric_scooter"}, {"bike_id": "107bba4b68e87dc65dbe654e06442f87", "is_reserved": 0, "fusion_lon": 0.0, "lat": 38.903808166666664, "is_disabled": 0, "name": "107bba4b68e87dc65dbe654e06442f87", "fusion_lat": 0.0, "rental_uris": {"ios": "https://dc.lft.to/lastmile_qr_scan", "android": "https://dc.lft.to/lastmile_qr_scan"}, "lon": -77.04502033333333, "type": "electric_scooter"}, {"bike_id": "04f8ccbb97f7145c0d80105109c45530", "is_reserved": 0, "fusion_lon": 0.0, "lat": 38.929390166666664, "is_disabled": 0, "name": "04f8ccbb97f7145c0d80105109c45530", "fusion_lat": 0.0, "rental_uris": {"ios": "https://dc.lft.to/lastmile_qr_scan", "android": "https://dc.lft.to/lastmile_qr_scan"}, "lon": -77.01966216666666, "type": "electric_scooter"}, {"bike_id": "4528c2f5145182a2d03ce76929f0968e", "is_reserved": 0, "fusion_lon": 0.0, "lat": 38.89244266666667, "is_disabled": 0, "name": "4528c2f5145182a2d03ce76929f0968e", "fusion_lat": 0.0, "rental_uris": {"ios": "https://dc.lft.to/lastmile_qr_scan", "android": "https://dc.lft.to/lastmile_qr_scan"}, "lon": -77.031929, "type": "electric_scooter"}, {"bike_id": "e648128598e831edeb1a6620ef2c5776", "is_reserved": 0, "fusion_lon": 0.0, "lat": 38.906716833333334, "is_disabled": 0, "name": "e648128598e831edeb1a6620ef2c5776", "fusion_lat": 0.0, "rental_uris": {"ios": "https://dc.lft.to/lastmile_qr_scan", "android": "https://dc.lft.to/lastmile_qr_scan"}, "lon": -77.04502166666667, "type": "electric_scooter"}, {"bike_id": "89c6334ff1ebe7fcf58b9775fc67a3c8", "is_reserved": 0, "fusion_lon": 0.0, "lat": 38.91775333333333, "is_disabled": 0, "name": "89c6334ff1ebe7fcf58b9775fc67a3c8", "fusion_lat": 0.0, "rental_uris": {"ios": "https://dc.lft.to/lastmile_qr_scan", "android": "https://dc.lft.to/lastmile_qr_scan"}, "lon": -77.02310616666666, "type": "electric_scooter"}, {"bike_id": "da2a8fc16495d82a94868d8807c7fe97", "is_reserved": 0, "fusion_lon": 0.0, "lat": 38.906487, "is_disabled": 0, "name": "da2a8fc16495d82a94868d8807c7fe97", "fusion_lat": 0.0, "rental_uris": {"ios": "https://dc.lft.to/lastmile_qr_scan", "android": "https://dc.lft.to/lastmile_qr_scan"}, "lon": -77.04506233333333, "type": "electric_scooter"}, {"bike_id": "583ef56ddff998b6e0f2133eb36f72fc", "is_reserved": 0, "fusion_lon": 0.0, "lat": 38.8800115, "is_disabled": 0, "name": "583ef56ddff998b6e0f2133eb36f72fc", "fusion_lat": 0.0, "rental_uris": {"ios": "https://dc.lft.to/lastmile_qr_scan", "android": "https://dc.lft.to/lastmile_qr_scan"}, "lon": -76.9159435, "type": "electric_bike"}, {"bike_id": "59b636f570e8f8cd52278fad76bc5281", "is_reserved": 0, "fusion_lon": 0.0, "lat": 38.955498666666664, "is_disabled": 0, "name": "59b636f570e8f8cd52278fad76bc5281", "fusion_lat": 0.0, "rental_uris": {"ios": "https://dc.lft.to/lastmile_qr_scan", "android": "https://dc.lft.to/lastmile_qr_scan"}, "lon": -76.94011166666667, "type": "electric_bike"}, {"bike_id": "718252238d61b35798536a1bbdfbe502", "is_reserved": 0, "fusion_lon": 0.0, "lat": 38.9057565, "is_disabled": 0, "name": "718252238d61b35798536a1bbdfbe502", "fusion_lat": 0.0, "rental_uris": {"ios": "https://dc.lft.to/lastmile_qr_scan", "android": "https://dc.lft.to/lastmile_qr_scan"}, "lon": -77.01859683333333, "type": "electric_scooter"}, {"bike_id": "982f47cab3683753c644a85cc1a68294", "is_reserved": 0, "fusion_lon": 0.0, "lat": 38.90415433333333, "is_disabled": 0, "name": "982f47cab3683753c644a85cc1a68294", "fusion_lat": 0.0, "rental_uris": {"ios": "https://dc.lft.to/lastmile_qr_scan", "android": "https://dc.lft.to/lastmile_qr_scan"}, "lon": -77.02971416666666, "type": "electric_scooter"}, {"bike_id": "d078276ac23b92b1d8e4ffa3d18fc932", "is_reserved": 0, "fusion_lon": 0.0, "lat": 38.908065666666666, "is_disabled": 0, "name": "d078276ac23b92b1d8e4ffa3d18fc932", "fusion_lat": 0.0, "rental_uris": {"ios": "https://dc.lft.to/lastmile_qr_scan", "android": "https://dc.lft.to/lastmile_qr_scan"}, "lon": -77.03630433333333, "type": "electric_scooter"}, {"bike_id": "efcedd72e1eb7b7cfda4c3a24955d47b", "is_reserved": 0, "fusion_lon": 0.0, "lat": 38.92350233333333, "is_disabled": 0, "name": "efcedd72e1eb7b7cfda4c3a24955d47b", "fusion_lat": 0.0, "rental_uris": {"ios": "https://dc.lft.to/lastmile_qr_scan", "android": "https://dc.lft.to/lastmile_qr_scan"}, "lon": -77.04149416666667, "type": "electric_scooter"}, {"bike_id": "605c0b575d9478a35f1c29af1a0b7197", "is_reserved": 0, "fusion_lon": 0.0, "lat": 38.9120385, "is_disabled": 0, "name": "605c0b575d9478a35f1c29af1a0b7197", "fusion_lat": 0.0, "rental_uris": {"ios": "https://dc.lft.to/lastmile_qr_scan", "android": "https://dc.lft.to/lastmile_qr_scan"}, "lon": -77.04878033333334, "type": "electric_scooter"}, {"bike_id": "22d4a3fa728e3b19dfdd1a0b13ebf2ff", "is_reserved": 0, "fusion_lon": 0.0, "lat": 38.9028905, "is_disabled": 0, "name": "22d4a3fa728e3b19dfdd1a0b13ebf2ff", "fusion_lat": 0.0, "rental_uris": {"ios": "https://dc.lft.to/lastmile_qr_scan", "android": "https://dc.lft.to/lastmile_qr_scan"}, "lon": -77.036692, "type": "electric_scooter"}, {"bike_id": "2b185e8aa5761c33a85c246f745ad518", "is_reserved": 0, "fusion_lon": 0.0, "lat": 38.824425833333336, "is_disabled": 0, "name": "2b185e8aa5761c33a85c246f745ad518", "fusion_lat": 0.0, "rental_uris": {"ios": "https://dc.lft.to/lastmile_qr_scan", "android": "https://dc.lft.to/lastmile_qr_scan"}, "lon": -77.0704755, "type": "electric_bike"}, {"bike_id": "22cc631c74306cc012c14f89cf8f49a5", "is_reserved": 0, "fusion_lon": 0.0, "lat": 38.88385916666667, "is_disabled": 0, "name": "22cc631c74306cc012c14f89cf8f49a5", "fusion_lat": 0.0, "rental_uris": {"ios": "https://dc.lft.to/lastmile_qr_scan", "android": "https://dc.lft.to/lastmile_qr_scan"}, "lon": -76.94923083333333, "type": "electric_scooter"}, {"bike_id": "05e8b975672052fb85c985459e152127", "is_reserved": 0, "fusion_lon": 0.0, "lat": 38.90897066666667, "is_disabled": 0, "name": "05e8b975672052fb85c985459e152127", "fusion_lat": 0.0, "rental_uris": {"ios": "https://dc.lft.to/lastmile_qr_scan", "android": "https://dc.lft.to/lastmile_qr_scan"}, "lon": -77.08622683333333, "type": "electric_scooter"}, {"bike_id": "99c6d59d64f7c43bd929a26bd9655ea6", "is_reserved": 0, "fusion_lon": 0.0, "lat": 38.918563166666665, "is_disabled": 0, "name": "99c6d59d64f7c43bd929a26bd9655ea6", "fusion_lat": 0.0, "rental_uris": {"ios": "https://dc.lft.to/lastmile_qr_scan", "android": "https://dc.lft.to/lastmile_qr_scan"}, "lon": -76.96091916666667, "type": "electric_bike"}, {"bike_id": "b9b207c93bd1b4bc4b814a4f077fbc20", "is_reserved": 0, "fusion_lon": 0.0, "lat": 38.919842833333334, "is_disabled": 0, "name": "b9b207c93bd1b4bc4b814a4f077fbc20", "fusion_lat": 0.0, "rental_uris": {"ios": "https://dc.lft.to/lastmile_qr_scan", "android": "https://dc.lft.to/lastmile_qr_scan"}, "lon": -76.97306733333333, "type": "electric_scooter"}, {"bike_id": "2bd5ae3ea468f825b8694b21310e6415", "is_reserved": 0, "fusion_lon": 0.0, "lat": 38.8876155, "is_disabled": 0, "name": "2bd5ae3ea468f825b8694b21310e6415", "fusion_lat": 0.0, "rental_uris": {"ios": "https://dc.lft.to/lastmile_qr_scan", "android": "https://dc.lft.to/lastmile_qr_scan"}, "lon": -77.03141233333334, "type": "electric_scooter"}, {"bike_id": "b279db9046ed35a8beeb262c02eda2b1", "is_reserved": 0, "fusion_lon": 0.0, "lat": 38.902469333333336, "is_disabled": 0, "name": "b279db9046ed35a8beeb262c02eda2b1", "fusion_lat": 0.0, "rental_uris": {"ios": "https://dc.lft.to/lastmile_qr_scan", "android": "https://dc.lft.to/lastmile_qr_scan"}, "lon": -77.0281755, "type": "electric_scooter"}, {"bike_id": "7b6783502421ae62328924fb7784cebf", "is_reserved": 0, "fusion_lon": 0.0, "lat": 38.93532783333333, "is_disabled": 0, "name": "7b6783502421ae62328924fb7784cebf", "fusion_lat": 0.0, "rental_uris": {"ios": "https://dc.lft.to/lastmile_qr_scan", "android": "https://dc.lft.to/lastmile_qr_scan"}, "lon": -77.02349866666667, "type": "electric_scooter"}, {"bike_id": "82aa5aa20c38a5d1544aa52af37f3c22", "is_reserved": 0, "fusion_lon": 0.0, "lat": 38.883667, "is_disabled": 0, "name": "82aa5aa20c38a5d1544aa52af37f3c22", "fusion_lat": 0.0, "rental_uris": {"ios": "https://dc.lft.to/lastmile_qr_scan", "android": "https://dc.lft.to/lastmile_qr_scan"}, "lon": -76.99526966666667, "type": "electric_scooter"}, {"bike_id": "7fa550b59f34144a32a1847feb2f2196", "is_reserved": 0, "fusion_lon": 0.0, "lat": 38.912537666666665, "is_disabled": 0, "name": "7fa550b59f34144a32a1847feb2f2196", "fusion_lat": 0.0, "rental_uris": {"ios": "https://dc.lft.to/lastmile_qr_scan", "android": "https://dc.lft.to/lastmile_qr_scan"}, "lon": -77.01205283333333, "type": "electric_scooter"}, {"bike_id": "60ab350e98bce64d937c59039a7d8ad8", "is_reserved": 0, "fusion_lon": 0.0, "lat": 38.953814666666666, "is_disabled": 0, "name": "60ab350e98bce64d937c59039a7d8ad8", "fusion_lat": 0.0, "rental_uris": {"ios": "https://dc.lft.to/lastmile_qr_scan", "android": "https://dc.lft.to/lastmile_qr_scan"}, "lon": -76.99915366666667, "type": "electric_scooter"}, {"bike_id": "d4281f6467325b8ad5a9dc4f80b4c459", "is_reserved": 0, "fusion_lon": 0.0, "lat": 38.896085666666664, "is_disabled": 0, "name": "d4281f6467325b8ad5a9dc4f80b4c459", "fusion_lat": 0.0, "rental_uris": {"ios": "https://dc.lft.to/lastmile_qr_scan", "android": "https://dc.lft.to/lastmile_qr_scan"}, "lon": -77.04540983333334, "type": "electric_scooter"}, {"bike_id": "317c4fc84b329234a597f0f8f358cda2", "is_reserved": 0, "fusion_lon": 0.0, "lat": 38.896253333333334, "is_disabled": 0, "name": "317c4fc84b329234a597f0f8f358cda2", "fusion_lat": 0.0, "rental_uris": {"ios": "https://dc.lft.to/lastmile_qr_scan", "android": "https://dc.lft.to/lastmile_qr_scan"}, "lon": -76.98568033333333, "type": "electric_scooter"}, {"bike_id": "3d7626b9b1ec291eee00205ae88b43a2", "is_reserved": 0, "fusion_lon": 0.0, "lat": 38.8849755, "is_disabled": 0, "name": "3d7626b9b1ec291eee00205ae88b43a2", "fusion_lat": 0.0, "rental_uris": {"ios": "https://dc.lft.to/lastmile_qr_scan", "android": "https://dc.lft.to/lastmile_qr_scan"}, "lon": -77.00728533333333, "type": "electric_scooter"}, {"bike_id": "7923cb59bed540bc32a81df287dbd493", "is_reserved": 0, "fusion_lon": 0.0, "lat": 38.88741733333333, "is_disabled": 0, "name": "7923cb59bed540bc32a81df287dbd493", "fusion_lat": 0.0, "rental_uris": {"ios": "https://dc.lft.to/lastmile_qr_scan", "android": "https://dc.lft.to/lastmile_qr_scan"}, "lon": -77.02025216666667, "type": "electric_scooter"}, {"bike_id": "40d05ff0626b538f71bbc843135ae86c", "is_reserved": 0, "fusion_lon": 0.0, "lat": 38.882368, "is_disabled": 0, "name": "40d05ff0626b538f71bbc843135ae86c", "fusion_lat": 0.0, "rental_uris": {"ios": "https://dc.lft.to/lastmile_qr_scan", "android": "https://dc.lft.to/lastmile_qr_scan"}, "lon": -76.99083116666667, "type": "electric_scooter"}, {"bike_id": "6cf349d65ab5bbeb37e07f548da9a87a", "is_reserved": 0, "fusion_lon": 0.0, "lat": 38.90061716666666, "is_disabled": 0, "name": "6cf349d65ab5bbeb37e07f548da9a87a", "fusion_lat": 0.0, "rental_uris": {"ios": "https://dc.lft.to/lastmile_qr_scan", "android": "https://dc.lft.to/lastmile_qr_scan"}, "lon": -77.0505835, "type": "electric_scooter"}, {"bike_id": "e54ed04c419ee8a0e1c0e358f84e02bc", "is_reserved": 0, "fusion_lon": 0.0, "lat": 38.8665255, "is_disabled": 0, "name": "e54ed04c419ee8a0e1c0e358f84e02bc", "fusion_lat": 0.0, "rental_uris": {"ios": "https://dc.lft.to/lastmile_qr_scan", "android": "https://dc.lft.to/lastmile_qr_scan"}, "lon": -76.99013033333334, "type": "electric_scooter"}, {"bike_id": "59238a17f258a83c2083e4f480caf9d1", "is_reserved": 0, "fusion_lon": 0.0, "lat": 38.9010805, "is_disabled": 0, "name": "59238a17f258a83c2083e4f480caf9d1", "fusion_lat": 0.0, "rental_uris": {"ios": "https://dc.lft.to/lastmile_qr_scan", "android": "https://dc.lft.to/lastmile_qr_scan"}, "lon": -77.05165516666666, "type": "electric_scooter"}, {"bike_id": "63db4a474cebb89adbd04f0aec4f2c7a", "is_reserved": 0, "fusion_lon": 0.0, "lat": 38.90791883333333, "is_disabled": 0, "name": "63db4a474cebb89adbd04f0aec4f2c7a", "fusion_lat": 0.0, "rental_uris": {"ios": "https://dc.lft.to/lastmile_qr_scan", "android": "https://dc.lft.to/lastmile_qr_scan"}, "lon": -77.02952433333333, "type": "electric_scooter"}, {"bike_id": "29c4d98286d7ead772ab9cc81455583f", "is_reserved": 0, "fusion_lon": 0.0, "lat": 38.93079983333333, "is_disabled": 0, "name": "29c4d98286d7ead772ab9cc81455583f", "fusion_lat": 0.0, "rental_uris": {"ios": "https://dc.lft.to/lastmile_qr_scan", "android": "https://dc.lft.to/lastmile_qr_scan"}, "lon": -77.02794366666667, "type": "electric_scooter"}, {"bike_id": "88a92366a2e258a50689ee3c858220f0", "is_reserved": 0, "fusion_lon": 0.0, "lat": 38.90813266666667, "is_disabled": 0, "name": "88a92366a2e258a50689ee3c858220f0", "fusion_lat": 0.0, "rental_uris": {"ios": "https://dc.lft.to/lastmile_qr_scan", "android": "https://dc.lft.to/lastmile_qr_scan"}, "lon": -77.04346833333334, "type": "electric_scooter"}, {"bike_id": "9131498c0e1c223c396af0a2b7851151", "is_reserved": 0, "fusion_lon": 0.0, "lat": 38.89825, "is_disabled": 0, "name": "9131498c0e1c223c396af0a2b7851151", "fusion_lat": 0.0, "rental_uris": {"ios": "https://dc.lft.to/lastmile_qr_scan", "android": "https://dc.lft.to/lastmile_qr_scan"}, "lon": -76.94647866666666, "type": "electric_scooter"}, {"bike_id": "c49ad35376812778d6603796f9c69a27", "is_reserved": 0, "fusion_lon": 0.0, "lat": 38.903493833333336, "is_disabled": 0, "name": "c49ad35376812778d6603796f9c69a27", "fusion_lat": 0.0, "rental_uris": {"ios": "https://dc.lft.to/lastmile_qr_scan", "android": "https://dc.lft.to/lastmile_qr_scan"}, "lon": -77.02950166666666, "type": "electric_scooter"}, {"bike_id": "00661eaff91dd6de3382be4adae0d87b", "is_reserved": 0, "fusion_lon": 0.0, "lat": 38.938602, "is_disabled": 0, "name": "00661eaff91dd6de3382be4adae0d87b", "fusion_lat": 0.0, "rental_uris": {"ios": "https://dc.lft.to/lastmile_qr_scan", "android": "https://dc.lft.to/lastmile_qr_scan"}, "lon": -77.024681, "type": "electric_scooter"}, {"bike_id": "fd3a61526cd2b97ad2374a8cd787902b", "is_reserved": 0, "fusion_lon": 0.0, "lat": 38.83987116666667, "is_disabled": 0, "name": "fd3a61526cd2b97ad2374a8cd787902b", "fusion_lat": 0.0, "rental_uris": {"ios": "https://dc.lft.to/lastmile_qr_scan", "android": "https://dc.lft.to/lastmile_qr_scan"}, "lon": -77.00573083333333, "type": "electric_bike"}, {"bike_id": "49debf737567f2b35f7db07f0ab8458d", "is_reserved": 0, "fusion_lon": 0.0, "lat": 38.88128916666667, "is_disabled": 0, "name": "49debf737567f2b35f7db07f0ab8458d", "fusion_lat": 0.0, "rental_uris": {"ios": "https://dc.lft.to/lastmile_qr_scan", "android": "https://dc.lft.to/lastmile_qr_scan"}, "lon": -76.980933, "type": "electric_bike"}, {"bike_id": "fdd9a41870c4ad7d78343eb019fa9a3a", "is_reserved": 0, "fusion_lon": 0.0, "lat": 38.8949645, "is_disabled": 0, "name": "fdd9a41870c4ad7d78343eb019fa9a3a", "fusion_lat": 0.0, "rental_uris": {"ios": "https://dc.lft.to/lastmile_qr_scan", "android": "https://dc.lft.to/lastmile_qr_scan"}, "lon": -77.02279883333334, "type": "electric_scooter"}, {"bike_id": "78fbb8fe1572931d9f7f18f399b9de7d", "is_reserved": 0, "fusion_lon": 0.0, "lat": 38.905138, "is_disabled": 0, "name": "78fbb8fe1572931d9f7f18f399b9de7d", "fusion_lat": 0.0, "rental_uris": {"ios": "https://dc.lft.to/lastmile_qr_scan", "android": "https://dc.lft.to/lastmile_qr_scan"}, "lon": -77.06750583333333, "type": "electric_scooter"}, {"bike_id": "6d7837754998847d717f078aacba96c1", "is_reserved": 0, "fusion_lon": 0.0, "lat": 38.8844925, "is_disabled": 0, "name": "6d7837754998847d717f078aacba96c1", "fusion_lat": 0.0, "rental_uris": {"ios": "https://dc.lft.to/lastmile_qr_scan", "android": "https://dc.lft.to/lastmile_qr_scan"}, "lon": -77.00580783333334, "type": "electric_scooter"}, {"bike_id": "29e4754f2b9f263f110037e5a0a522a9", "is_reserved": 0, "fusion_lon": 0.0, "lat": 38.9661605, "is_disabled": 0, "name": "29e4754f2b9f263f110037e5a0a522a9", "fusion_lat": 0.0, "rental_uris": {"ios": "https://dc.lft.to/lastmile_qr_scan", "android": "https://dc.lft.to/lastmile_qr_scan"}, "lon": -76.94424316666667, "type": "electric_bike"}, {"bike_id": "de6fd814be0b87e90b94fcabae09776a", "is_reserved": 0, "fusion_lon": 0.0, "lat": 38.903643, "is_disabled": 0, "name": "de6fd814be0b87e90b94fcabae09776a", "fusion_lat": 0.0, "rental_uris": {"ios": "https://dc.lft.to/lastmile_qr_scan", "android": "https://dc.lft.to/lastmile_qr_scan"}, "lon": -76.98089316666666, "type": "electric_bike"}, {"bike_id": "ea18e50de3854f5b68e10e2deaf5d670", "is_reserved": 0, "fusion_lon": 0.0, "lat": 38.889943, "is_disabled": 0, "name": "ea18e50de3854f5b68e10e2deaf5d670", "fusion_lat": 0.0, "rental_uris": {"ios": "https://dc.lft.to/lastmile_qr_scan", "android": "https://dc.lft.to/lastmile_qr_scan"}, "lon": -77.00344316666667, "type": "electric_scooter"}, {"bike_id": "7d19bb642ac1ca16b6a8932fe353dbd5", "is_reserved": 0, "fusion_lon": 0.0, "lat": 38.90372466666667, "is_disabled": 0, "name": "7d19bb642ac1ca16b6a8932fe353dbd5", "fusion_lat": 0.0, "rental_uris": {"ios": "https://dc.lft.to/lastmile_qr_scan", "android": "https://dc.lft.to/lastmile_qr_scan"}, "lon": -77.03865166666667, "type": "electric_scooter"}, {"bike_id": "74c34b067508afcac2126e20c625b221", "is_reserved": 0, "fusion_lon": 0.0, "lat": 38.90526583333333, "is_disabled": 0, "name": "74c34b067508afcac2126e20c625b221", "fusion_lat": 0.0, "rental_uris": {"ios": "https://dc.lft.to/lastmile_qr_scan", "android": "https://dc.lft.to/lastmile_qr_scan"}, "lon": -77.05968316666667, "type": "electric_scooter"}, {"bike_id": "44a2616e65a2f7455978547a9ae05d1b", "is_reserved": 0, "fusion_lon": 0.0, "lat": 38.89219283333333, "is_disabled": 0, "name": "44a2616e65a2f7455978547a9ae05d1b", "fusion_lat": 0.0, "rental_uris": {"ios": "https://dc.lft.to/lastmile_qr_scan", "android": "https://dc.lft.to/lastmile_qr_scan"}, "lon": -77.0262165, "type": "electric_scooter"}, {"bike_id": "551ea88e1ea3bc7df61a6a68eb0df9f9", "is_reserved": 0, "fusion_lon": 0.0, "lat": 38.95354433333333, "is_disabled": 0, "name": "551ea88e1ea3bc7df61a6a68eb0df9f9", "fusion_lat": 0.0, "rental_uris": {"ios": "https://dc.lft.to/lastmile_qr_scan", "android": "https://dc.lft.to/lastmile_qr_scan"}, "lon": -76.98090166666667, "type": "electric_bike"}, {"bike_id": "c7e65a88c7256ed2bdc00c2dc5edd989", "is_reserved": 0, "fusion_lon": 0.0, "lat": 38.87146366666666, "is_disabled": 0, "name": "c7e65a88c7256ed2bdc00c2dc5edd989", "fusion_lat": 0.0, "rental_uris": {"ios": "https://dc.lft.to/lastmile_qr_scan", "android": "https://dc.lft.to/lastmile_qr_scan"}, "lon": -76.9366945, "type": "electric_bike"}, {"bike_id": "d0e9187d09f6baa2b05c7fb5024543fc", "is_reserved": 0, "fusion_lon": 0.0, "lat": 38.897627666666665, "is_disabled": 0, "name": "d0e9187d09f6baa2b05c7fb5024543fc", "fusion_lat": 0.0, "rental_uris": {"ios": "https://dc.lft.to/lastmile_qr_scan", "android": "https://dc.lft.to/lastmile_qr_scan"}, "lon": -77.03353766666666, "type": "electric_scooter"}, {"bike_id": "5e2dda35730b08331b493e1c67e8dcf2", "is_reserved": 0, "fusion_lon": 0.0, "lat": 38.8764965, "is_disabled": 0, "name": "5e2dda35730b08331b493e1c67e8dcf2", "fusion_lat": 0.0, "rental_uris": {"ios": "https://dc.lft.to/lastmile_qr_scan", "android": "https://dc.lft.to/lastmile_qr_scan"}, "lon": -77.000574, "type": "electric_scooter"}, {"bike_id": "53d77272b7a1eb7f083e79ed97744fce", "is_reserved": 0, "fusion_lon": 0.0, "lat": 38.942714, "is_disabled": 0, "name": "53d77272b7a1eb7f083e79ed97744fce", "fusion_lat": 0.0, "rental_uris": {"ios": "https://dc.lft.to/lastmile_qr_scan", "android": "https://dc.lft.to/lastmile_qr_scan"}, "lon": -76.98069016666666, "type": "electric_bike"}, {"bike_id": "87198ae9bbd27f0e0f84058dba97df57", "is_reserved": 0, "fusion_lon": 0.0, "lat": 38.90404816666667, "is_disabled": 0, "name": "87198ae9bbd27f0e0f84058dba97df57", "fusion_lat": 0.0, "rental_uris": {"ios": "https://dc.lft.to/lastmile_qr_scan", "android": "https://dc.lft.to/lastmile_qr_scan"}, "lon": -77.0387035, "type": "electric_scooter"}, {"bike_id": "0428dd7e8128fa80499d40bbe1e38c59", "is_reserved": 0, "fusion_lon": 0.0, "lat": 38.93861116666667, "is_disabled": 0, "name": "0428dd7e8128fa80499d40bbe1e38c59", "fusion_lat": 0.0, "rental_uris": {"ios": "https://dc.lft.to/lastmile_qr_scan", "android": "https://dc.lft.to/lastmile_qr_scan"}, "lon": -77.02651333333333, "type": "electric_scooter"}, {"bike_id": "aed5cd89021ed2d622a3e8cfb0f8d68b", "is_reserved": 0, "fusion_lon": 0.0, "lat": 38.903023166666664, "is_disabled": 0, "name": "aed5cd89021ed2d622a3e8cfb0f8d68b", "fusion_lat": 0.0, "rental_uris": {"ios": "https://dc.lft.to/lastmile_qr_scan", "android": "https://dc.lft.to/lastmile_qr_scan"}, "lon": -77.03456283333334, "type": "electric_scooter"}, {"bike_id": "c62ae84002480f4bb04fa4d05a1617ba", "is_reserved": 0, "fusion_lon": 0.0, "lat": 38.917183, "is_disabled": 0, "name": "c62ae84002480f4bb04fa4d05a1617ba", "fusion_lat": 0.0, "rental_uris": {"ios": "https://dc.lft.to/lastmile_qr_scan", "android": "https://dc.lft.to/lastmile_qr_scan"}, "lon": -77.02975616666667, "type": "electric_scooter"}, {"bike_id": "1a2a72034c260228786f998b34b80a1c", "is_reserved": 0, "fusion_lon": 0.0, "lat": 38.883141, "is_disabled": 0, "name": "1a2a72034c260228786f998b34b80a1c", "fusion_lat": 0.0, "rental_uris": {"ios": "https://dc.lft.to/lastmile_qr_scan", "android": "https://dc.lft.to/lastmile_qr_scan"}, "lon": -77.00940933333334, "type": "electric_scooter"}, {"bike_id": "68743dcb373ab8f31b72a6e5d6ada728", "is_reserved": 0, "fusion_lon": 0.0, "lat": 38.934502333333334, "is_disabled": 0, "name": "68743dcb373ab8f31b72a6e5d6ada728", "fusion_lat": 0.0, "rental_uris": {"ios": "https://dc.lft.to/lastmile_qr_scan", "android": "https://dc.lft.to/lastmile_qr_scan"}, "lon": -77.07234, "type": "electric_scooter"}, {"bike_id": "4e8237b0fe0cc905d95a764a96bda158", "is_reserved": 0, "fusion_lon": 0.0, "lat": 38.894709166666665, "is_disabled": 0, "name": "4e8237b0fe0cc905d95a764a96bda158", "fusion_lat": 0.0, "rental_uris": {"ios": "https://dc.lft.to/lastmile_qr_scan", "android": "https://dc.lft.to/lastmile_qr_scan"}, "lon": -77.01754483333333, "type": "electric_scooter"}, {"bike_id": "93fd88d71f36c34e8ba3a45bf270656d", "is_reserved": 0, "fusion_lon": 0.0, "lat": 38.89892183333333, "is_disabled": 0, "name": "93fd88d71f36c34e8ba3a45bf270656d", "fusion_lat": 0.0, "rental_uris": {"ios": "https://dc.lft.to/lastmile_qr_scan", "android": "https://dc.lft.to/lastmile_qr_scan"}, "lon": -77.0330215, "type": "electric_scooter"}, {"bike_id": "875c48a97e80adf883f56020a50bb66c", "is_reserved": 0, "fusion_lon": 0.0, "lat": 38.90555416666667, "is_disabled": 0, "name": "875c48a97e80adf883f56020a50bb66c", "fusion_lat": 0.0, "rental_uris": {"ios": "https://dc.lft.to/lastmile_qr_scan", "android": "https://dc.lft.to/lastmile_qr_scan"}, "lon": -77.03827366666667, "type": "electric_scooter"}, {"bike_id": "47142e2c310e29588f48c5e8ebb940f0", "is_reserved": 0, "fusion_lon": 0.0, "lat": 38.896101333333334, "is_disabled": 0, "name": "47142e2c310e29588f48c5e8ebb940f0", "fusion_lat": 0.0, "rental_uris": {"ios": "https://dc.lft.to/lastmile_qr_scan", "android": "https://dc.lft.to/lastmile_qr_scan"}, "lon": -77.04459383333334, "type": "electric_scooter"}, {"bike_id": "4a5a1c9eccd0838edfcc212f9e8c0f92", "is_reserved": 0, "fusion_lon": 0.0, "lat": 38.893507166666666, "is_disabled": 0, "name": "4a5a1c9eccd0838edfcc212f9e8c0f92", "fusion_lat": 0.0, "rental_uris": {"ios": "https://dc.lft.to/lastmile_qr_scan", "android": "https://dc.lft.to/lastmile_qr_scan"}, "lon": -77.00334683333334, "type": "electric_scooter"}, {"bike_id": "6cf3f3c005d470c3f775b6d4738f3bf5", "is_reserved": 0, "fusion_lon": 0.0, "lat": 38.90959683333333, "is_disabled": 0, "name": "6cf3f3c005d470c3f775b6d4738f3bf5", "fusion_lat": 0.0, "rental_uris": {"ios": "https://dc.lft.to/lastmile_qr_scan", "android": "https://dc.lft.to/lastmile_qr_scan"}, "lon": -77.02274433333334, "type": "electric_scooter"}, {"bike_id": "e04629885028e5d4fe21fb16c5fd7845", "is_reserved": 0, "fusion_lon": 0.0, "lat": 38.892507, "is_disabled": 0, "name": "e04629885028e5d4fe21fb16c5fd7845", "fusion_lat": 0.0, "rental_uris": {"ios": "https://dc.lft.to/lastmile_qr_scan", "android": "https://dc.lft.to/lastmile_qr_scan"}, "lon": -76.94334483333333, "type": "electric_scooter"}, {"bike_id": "33460f5b4deedf99243914679d8e02d4", "is_reserved": 0, "fusion_lon": 0.0, "lat": 38.8636705, "is_disabled": 0, "name": "33460f5b4deedf99243914679d8e02d4", "fusion_lat": 0.0, "rental_uris": {"ios": "https://dc.lft.to/lastmile_qr_scan", "android": "https://dc.lft.to/lastmile_qr_scan"}, "lon": -76.99046833333334, "type": "electric_scooter"}, {"bike_id": "2cf61c84201f30d9644621bbb2d5c325", "is_reserved": 0, "fusion_lon": 0.0, "lat": 38.9161725, "is_disabled": 0, "name": "2cf61c84201f30d9644621bbb2d5c325", "fusion_lat": 0.0, "rental_uris": {"ios": "https://dc.lft.to/lastmile_qr_scan", "android": "https://dc.lft.to/lastmile_qr_scan"}, "lon": -77.03643133333334, "type": "electric_scooter"}, {"bike_id": "0d086d9f7d3065d3250ab11804211ff1", "is_reserved": 0, "fusion_lon": 0.0, "lat": 38.909801, "is_disabled": 0, "name": "0d086d9f7d3065d3250ab11804211ff1", "fusion_lat": 0.0, "rental_uris": {"ios": "https://dc.lft.to/lastmile_qr_scan", "android": "https://dc.lft.to/lastmile_qr_scan"}, "lon": -77.06712283333333, "type": "electric_scooter"}, {"bike_id": "e9b17ee50a470c006fd688342913c39c", "is_reserved": 0, "fusion_lon": 0.0, "lat": 38.90635533333333, "is_disabled": 0, "name": "e9b17ee50a470c006fd688342913c39c", "fusion_lat": 0.0, "rental_uris": {"ios": "https://dc.lft.to/lastmile_qr_scan", "android": "https://dc.lft.to/lastmile_qr_scan"}, "lon": -77.00595716666666, "type": "electric_scooter"}, {"bike_id": "91e4622248250006150e1f7bb17f1456", "is_reserved": 0, "fusion_lon": 0.0, "lat": 38.931152166666664, "is_disabled": 0, "name": "91e4622248250006150e1f7bb17f1456", "fusion_lat": 0.0, "rental_uris": {"ios": "https://dc.lft.to/lastmile_qr_scan", "android": "https://dc.lft.to/lastmile_qr_scan"}, "lon": -77.0209545, "type": "electric_scooter"}, {"bike_id": "9945d38d8915505663a6723d8a7e7df2", "is_reserved": 0, "fusion_lon": 0.0, "lat": 38.908901666666665, "is_disabled": 0, "name": "9945d38d8915505663a6723d8a7e7df2", "fusion_lat": 0.0, "rental_uris": {"ios": "https://dc.lft.to/lastmile_qr_scan", "android": "https://dc.lft.to/lastmile_qr_scan"}, "lon": -77.04338133333333, "type": "electric_scooter"}, {"bike_id": "85c308c78a2882e03a47e6c727e24a13", "is_reserved": 0, "fusion_lon": 0.0, "lat": 38.89625866666667, "is_disabled": 0, "name": "85c308c78a2882e03a47e6c727e24a13", "fusion_lat": 0.0, "rental_uris": {"ios": "https://dc.lft.to/lastmile_qr_scan", "android": "https://dc.lft.to/lastmile_qr_scan"}, "lon": -77.0297745, "type": "electric_scooter"}, {"bike_id": "d778e7994c7587d755a2af2c7e3a369e", "is_reserved": 0, "fusion_lon": 0.0, "lat": 38.937115, "is_disabled": 0, "name": "d778e7994c7587d755a2af2c7e3a369e", "fusion_lat": 0.0, "rental_uris": {"ios": "https://dc.lft.to/lastmile_qr_scan", "android": "https://dc.lft.to/lastmile_qr_scan"}, "lon": -77.02395533333333, "type": "electric_scooter"}, {"bike_id": "d4b8745e86d3c20fd11e49df79c8f759", "is_reserved": 0, "fusion_lon": 0.0, "lat": 38.88329483333333, "is_disabled": 0, "name": "d4b8745e86d3c20fd11e49df79c8f759", "fusion_lat": 0.0, "rental_uris": {"ios": "https://dc.lft.to/lastmile_qr_scan", "android": "https://dc.lft.to/lastmile_qr_scan"}, "lon": -77.0176815, "type": "electric_scooter"}, {"bike_id": "748b0073c07a849166d04917ffc4d9b6", "is_reserved": 0, "fusion_lon": 0.0, "lat": 38.94326683333333, "is_disabled": 0, "name": "748b0073c07a849166d04917ffc4d9b6", "fusion_lat": 0.0, "rental_uris": {"ios": "https://dc.lft.to/lastmile_qr_scan", "android": "https://dc.lft.to/lastmile_qr_scan"}, "lon": -77.07390733333334, "type": "electric_scooter"}, {"bike_id": "99f872c244a188b99e504d5fef72e706", "is_reserved": 0, "fusion_lon": 0.0, "lat": 38.8992255, "is_disabled": 0, "name": "99f872c244a188b99e504d5fef72e706", "fusion_lat": 0.0, "rental_uris": {"ios": "https://dc.lft.to/lastmile_qr_scan", "android": "https://dc.lft.to/lastmile_qr_scan"}, "lon": -77.05421766666667, "type": "electric_scooter"}, {"bike_id": "13c952fecc026fbe5f5ea9184a5153a9", "is_reserved": 0, "fusion_lon": 0.0, "lat": 38.94611716666667, "is_disabled": 0, "name": "13c952fecc026fbe5f5ea9184a5153a9", "fusion_lat": 0.0, "rental_uris": {"ios": "https://dc.lft.to/lastmile_qr_scan", "android": "https://dc.lft.to/lastmile_qr_scan"}, "lon": -77.03510566666667, "type": "electric_scooter"}, {"bike_id": "d3b33af563909788c1af57bcb1125f72", "is_reserved": 0, "fusion_lon": 0.0, "lat": 38.902631166666666, "is_disabled": 0, "name": "d3b33af563909788c1af57bcb1125f72", "fusion_lat": 0.0, "rental_uris": {"ios": "https://dc.lft.to/lastmile_qr_scan", "android": "https://dc.lft.to/lastmile_qr_scan"}, "lon": -77.03855966666667, "type": "electric_scooter"}, {"bike_id": "8d2ade29dc4923d2822309e5029de461", "is_reserved": 0, "fusion_lon": 0.0, "lat": 38.918789833333335, "is_disabled": 0, "name": "8d2ade29dc4923d2822309e5029de461", "fusion_lat": 0.0, "rental_uris": {"ios": "https://dc.lft.to/lastmile_qr_scan", "android": "https://dc.lft.to/lastmile_qr_scan"}, "lon": -76.971556, "type": "electric_scooter"}, {"bike_id": "a149c9cc32a8807ee9cb0351dc79da0a", "is_reserved": 0, "fusion_lon": 0.0, "lat": 38.9286205, "is_disabled": 0, "name": "a149c9cc32a8807ee9cb0351dc79da0a", "fusion_lat": 0.0, "rental_uris": {"ios": "https://dc.lft.to/lastmile_qr_scan", "android": "https://dc.lft.to/lastmile_qr_scan"}, "lon": -77.013809, "type": "electric_scooter"}, {"bike_id": "523c323bd72da276c1c065724774cd46", "is_reserved": 0, "fusion_lon": 0.0, "lat": 38.89530466666667, "is_disabled": 0, "name": "523c323bd72da276c1c065724774cd46", "fusion_lat": 0.0, "rental_uris": {"ios": "https://dc.lft.to/lastmile_qr_scan", "android": "https://dc.lft.to/lastmile_qr_scan"}, "lon": -77.01903066666667, "type": "electric_scooter"}, {"bike_id": "0dd4be27b164575d4e64f22bd51d62ee", "is_reserved": 0, "fusion_lon": 0.0, "lat": 38.9200445, "is_disabled": 0, "name": "0dd4be27b164575d4e64f22bd51d62ee", "fusion_lat": 0.0, "rental_uris": {"ios": "https://dc.lft.to/lastmile_qr_scan", "android": "https://dc.lft.to/lastmile_qr_scan"}, "lon": -77.02193883333334, "type": "electric_scooter"}, {"bike_id": "1c73bf60e6ed2ecc81f6edc83b6bfc48", "is_reserved": 0, "fusion_lon": 0.0, "lat": 38.8936865, "is_disabled": 0, "name": "1c73bf60e6ed2ecc81f6edc83b6bfc48", "fusion_lat": 0.0, "rental_uris": {"ios": "https://dc.lft.to/lastmile_qr_scan", "android": "https://dc.lft.to/lastmile_qr_scan"}, "lon": -76.94964566666667, "type": "electric_scooter"}, {"bike_id": "3e82c271c01f4db6dbcbce7995cc3817", "is_reserved": 0, "fusion_lon": 0.0, "lat": 38.902626833333336, "is_disabled": 0, "name": "3e82c271c01f4db6dbcbce7995cc3817", "fusion_lat": 0.0, "rental_uris": {"ios": "https://dc.lft.to/lastmile_qr_scan", "android": "https://dc.lft.to/lastmile_qr_scan"}, "lon": -77.04333633333333, "type": "electric_scooter"}, {"bike_id": "6d1fa5e1938c5b3840a4f349c50473fe", "is_reserved": 0, "fusion_lon": 0.0, "lat": 38.89682766666667, "is_disabled": 0, "name": "6d1fa5e1938c5b3840a4f349c50473fe", "fusion_lat": 0.0, "rental_uris": {"ios": "https://dc.lft.to/lastmile_qr_scan", "android": "https://dc.lft.to/lastmile_qr_scan"}, "lon": -76.99631016666666, "type": "electric_scooter"}, {"bike_id": "2c9e0975b956bb1a3277cbe007a2cdce", "is_reserved": 0, "fusion_lon": 0.0, "lat": 38.90516616666667, "is_disabled": 0, "name": "2c9e0975b956bb1a3277cbe007a2cdce", "fusion_lat": 0.0, "rental_uris": {"ios": "https://dc.lft.to/lastmile_qr_scan", "android": "https://dc.lft.to/lastmile_qr_scan"}, "lon": -77.04349133333334, "type": "electric_scooter"}, {"bike_id": "9dda5e6da1c0062766a41549126efe51", "is_reserved": 0, "fusion_lon": 0.0, "lat": 38.892182, "is_disabled": 0, "name": "9dda5e6da1c0062766a41549126efe51", "fusion_lat": 0.0, "rental_uris": {"ios": "https://dc.lft.to/lastmile_qr_scan", "android": "https://dc.lft.to/lastmile_qr_scan"}, "lon": -77.04193816666667, "type": "electric_scooter"}, {"bike_id": "7dd0b4ee6d6469ef95f2cf63d51e946e", "is_reserved": 0, "fusion_lon": 0.0, "lat": 38.891029333333336, "is_disabled": 0, "name": "7dd0b4ee6d6469ef95f2cf63d51e946e", "fusion_lat": 0.0, "rental_uris": {"ios": "https://dc.lft.to/lastmile_qr_scan", "android": "https://dc.lft.to/lastmile_qr_scan"}, "lon": -76.9870395, "type": "electric_scooter"}, {"bike_id": "7d0b66276c9fc5948bbfdebbb9bffc35", "is_reserved": 0, "fusion_lon": 0.0, "lat": 38.90829, "is_disabled": 0, "name": "7d0b66276c9fc5948bbfdebbb9bffc35", "fusion_lat": 0.0, "rental_uris": {"ios": "https://dc.lft.to/lastmile_qr_scan", "android": "https://dc.lft.to/lastmile_qr_scan"}, "lon": -77.0394855, "type": "electric_scooter"}, {"bike_id": "c9f6d7cb8d25c451eb47efb94d87b794", "is_reserved": 0, "fusion_lon": 0.0, "lat": 38.87917516666667, "is_disabled": 0, "name": "c9f6d7cb8d25c451eb47efb94d87b794", "fusion_lat": 0.0, "rental_uris": {"ios": "https://dc.lft.to/lastmile_qr_scan", "android": "https://dc.lft.to/lastmile_qr_scan"}, "lon": -76.99506616666666, "type": "electric_scooter"}, {"bike_id": "4ebfadfec85eb3c7593324ae140cf9b1", "is_reserved": 0, "fusion_lon": 0.0, "lat": 38.9332745, "is_disabled": 0, "name": "4ebfadfec85eb3c7593324ae140cf9b1", "fusion_lat": 0.0, "rental_uris": {"ios": "https://dc.lft.to/lastmile_qr_scan", "android": "https://dc.lft.to/lastmile_qr_scan"}, "lon": -77.03285933333333, "type": "electric_scooter"}, {"bike_id": "869b20ce06076285782d2506aedd4368", "is_reserved": 0, "fusion_lon": 0.0, "lat": 38.866605666666665, "is_disabled": 0, "name": "869b20ce06076285782d2506aedd4368", "fusion_lat": 0.0, "rental_uris": {"ios": "https://dc.lft.to/lastmile_qr_scan", "android": "https://dc.lft.to/lastmile_qr_scan"}, "lon": -76.9890505, "type": "electric_scooter"}, {"bike_id": "d84b16a5526610e06ef098d96cd75990", "is_reserved": 0, "fusion_lon": 0.0, "lat": 38.896168, "is_disabled": 0, "name": "d84b16a5526610e06ef098d96cd75990", "fusion_lat": 0.0, "rental_uris": {"ios": "https://dc.lft.to/lastmile_qr_scan", "android": "https://dc.lft.to/lastmile_qr_scan"}, "lon": -77.044521, "type": "electric_scooter"}, {"bike_id": "10bfdb94094bd15d4c8ca7454f275873", "is_reserved": 0, "fusion_lon": 0.0, "lat": 38.946289166666666, "is_disabled": 0, "name": "10bfdb94094bd15d4c8ca7454f275873", "fusion_lat": 0.0, "rental_uris": {"ios": "https://dc.lft.to/lastmile_qr_scan", "android": "https://dc.lft.to/lastmile_qr_scan"}, "lon": -77.018428, "type": "electric_scooter"}, {"bike_id": "ad41d07af576ddf8787fb0404f93ce50", "is_reserved": 0, "fusion_lon": 0.0, "lat": 38.932902, "is_disabled": 0, "name": "ad41d07af576ddf8787fb0404f93ce50", "fusion_lat": 0.0, "rental_uris": {"ios": "https://dc.lft.to/lastmile_qr_scan", "android": "https://dc.lft.to/lastmile_qr_scan"}, "lon": -77.0397885, "type": "electric_scooter"}, {"bike_id": "5b46531edae0e8611f243d706d0029d2", "is_reserved": 0, "fusion_lon": 0.0, "lat": 38.838659666666665, "is_disabled": 0, "name": "5b46531edae0e8611f243d706d0029d2", "fusion_lat": 0.0, "rental_uris": {"ios": "https://dc.lft.to/lastmile_qr_scan", "android": "https://dc.lft.to/lastmile_qr_scan"}, "lon": -76.99694933333333, "type": "electric_bike"}, {"bike_id": "11c95d9f3e8d634321657240a9af2633", "is_reserved": 0, "fusion_lon": 0.0, "lat": 38.865282, "is_disabled": 0, "name": "11c95d9f3e8d634321657240a9af2633", "fusion_lat": 0.0, "rental_uris": {"ios": "https://dc.lft.to/lastmile_qr_scan", "android": "https://dc.lft.to/lastmile_qr_scan"}, "lon": -76.99031983333333, "type": "electric_scooter"}, {"bike_id": "bb955355fa0817493a3c93acfb827fd6", "is_reserved": 0, "fusion_lon": 0.0, "lat": 38.903324, "is_disabled": 0, "name": "bb955355fa0817493a3c93acfb827fd6", "fusion_lat": 0.0, "rental_uris": {"ios": "https://dc.lft.to/lastmile_qr_scan", "android": "https://dc.lft.to/lastmile_qr_scan"}, "lon": -76.97597833333333, "type": "electric_scooter"}, {"bike_id": "cb6876099b52d0504dcf43ff34630520", "is_reserved": 0, "fusion_lon": 0.0, "lat": 38.897375833333335, "is_disabled": 0, "name": "cb6876099b52d0504dcf43ff34630520", "fusion_lat": 0.0, "rental_uris": {"ios": "https://dc.lft.to/lastmile_qr_scan", "android": "https://dc.lft.to/lastmile_qr_scan"}, "lon": -76.938445, "type": "electric_scooter"}, {"bike_id": "5acc4cd1b58d4b78067af806d39d6090", "is_reserved": 0, "fusion_lon": 0.0, "lat": 38.87626483333333, "is_disabled": 0, "name": "5acc4cd1b58d4b78067af806d39d6090", "fusion_lat": 0.0, "rental_uris": {"ios": "https://dc.lft.to/lastmile_qr_scan", "android": "https://dc.lft.to/lastmile_qr_scan"}, "lon": -76.96529683333333, "type": "electric_scooter"}, {"bike_id": "ef04fa82644c58b14139038e2a14e6e5", "is_reserved": 0, "fusion_lon": 0.0, "lat": 38.90468766666667, "is_disabled": 0, "name": "ef04fa82644c58b14139038e2a14e6e5", "fusion_lat": 0.0, "rental_uris": {"ios": "https://dc.lft.to/lastmile_qr_scan", "android": "https://dc.lft.to/lastmile_qr_scan"}, "lon": -77.0297695, "type": "electric_scooter"}, {"bike_id": "6c5d161b0faa7d92b8ba5981101d7ab2", "is_reserved": 0, "fusion_lon": 0.0, "lat": 38.838123, "is_disabled": 0, "name": "6c5d161b0faa7d92b8ba5981101d7ab2", "fusion_lat": 0.0, "rental_uris": {"ios": "https://dc.lft.to/lastmile_qr_scan", "android": "https://dc.lft.to/lastmile_qr_scan"}, "lon": -77.09521516666666, "type": "electric_bike"}, {"bike_id": "fa629e048b229dee02911138961b1dee", "is_reserved": 0, "fusion_lon": 0.0, "lat": 38.90549383333333, "is_disabled": 0, "name": "fa629e048b229dee02911138961b1dee", "fusion_lat": 0.0, "rental_uris": {"ios": "https://dc.lft.to/lastmile_qr_scan", "android": "https://dc.lft.to/lastmile_qr_scan"}, "lon": -77.04749533333333, "type": "electric_scooter"}, {"bike_id": "a98b215ace9c35e374593ce3cfd76872", "is_reserved": 0, "fusion_lon": 0.0, "lat": 38.866222, "is_disabled": 0, "name": "a98b215ace9c35e374593ce3cfd76872", "fusion_lat": 0.0, "rental_uris": {"ios": "https://dc.lft.to/lastmile_qr_scan", "android": "https://dc.lft.to/lastmile_qr_scan"}, "lon": -76.98653016666667, "type": "electric_scooter"}, {"bike_id": "900a0d4b0cc8b6a3196e2692dce53337", "is_reserved": 0, "fusion_lon": 0.0, "lat": 38.844220166666666, "is_disabled": 0, "name": "900a0d4b0cc8b6a3196e2692dce53337", "fusion_lat": 0.0, "rental_uris": {"ios": "https://dc.lft.to/lastmile_qr_scan", "android": "https://dc.lft.to/lastmile_qr_scan"}, "lon": -76.99779833333334, "type": "electric_scooter"}, {"bike_id": "14ff95127c5842532752c04df3bcbcd5", "is_reserved": 0, "fusion_lon": 0.0, "lat": 38.90463033333333, "is_disabled": 0, "name": "14ff95127c5842532752c04df3bcbcd5", "fusion_lat": 0.0, "rental_uris": {"ios": "https://dc.lft.to/lastmile_qr_scan", "android": "https://dc.lft.to/lastmile_qr_scan"}, "lon": -77.03254216666667, "type": "electric_scooter"}, {"bike_id": "37cd91e00cd3c2f10eb9248d8da350f9", "is_reserved": 0, "fusion_lon": 0.0, "lat": 38.802239666666665, "is_disabled": 0, "name": "37cd91e00cd3c2f10eb9248d8da350f9", "fusion_lat": 0.0, "rental_uris": {"ios": "https://dc.lft.to/lastmile_qr_scan", "android": "https://dc.lft.to/lastmile_qr_scan"}, "lon": -77.07919966666667, "type": "electric_bike"}, {"bike_id": "68e5da4da62a8100f08695c2d7dc3aae", "is_reserved": 0, "fusion_lon": 0.0, "lat": 38.89488883333333, "is_disabled": 0, "name": "68e5da4da62a8100f08695c2d7dc3aae", "fusion_lat": 0.0, "rental_uris": {"ios": "https://dc.lft.to/lastmile_qr_scan", "android": "https://dc.lft.to/lastmile_qr_scan"}, "lon": -77.02291866666667, "type": "electric_scooter"}, {"bike_id": "424ffb722d09c556fdb681374257fc04", "is_reserved": 0, "fusion_lon": 0.0, "lat": 38.93190516666667, "is_disabled": 0, "name": "424ffb722d09c556fdb681374257fc04", "fusion_lat": 0.0, "rental_uris": {"ios": "https://dc.lft.to/lastmile_qr_scan", "android": "https://dc.lft.to/lastmile_qr_scan"}, "lon": -77.02508366666666, "type": "electric_scooter"}, {"bike_id": "c2e6596fb6656ef77db45cefbf60416d", "is_reserved": 0, "fusion_lon": 0.0, "lat": 38.90683333333333, "is_disabled": 0, "name": "c2e6596fb6656ef77db45cefbf60416d", "fusion_lat": 0.0, "rental_uris": {"ios": "https://dc.lft.to/lastmile_qr_scan", "android": "https://dc.lft.to/lastmile_qr_scan"}, "lon": -76.95186733333334, "type": "electric_bike"}, {"bike_id": "7e4f9d064f1f38565bde4d31849d6e9a", "is_reserved": 0, "fusion_lon": 0.0, "lat": 38.86506166666667, "is_disabled": 0, "name": "7e4f9d064f1f38565bde4d31849d6e9a", "fusion_lat": 0.0, "rental_uris": {"ios": "https://dc.lft.to/lastmile_qr_scan", "android": "https://dc.lft.to/lastmile_qr_scan"}, "lon": -76.98977966666666, "type": "electric_scooter"}, {"bike_id": "db6cab0cad86e0b0ee8a298e141f31c6", "is_reserved": 0, "fusion_lon": 0.0, "lat": 38.90148533333333, "is_disabled": 0, "name": "db6cab0cad86e0b0ee8a298e141f31c6", "fusion_lat": 0.0, "rental_uris": {"ios": "https://dc.lft.to/lastmile_qr_scan", "android": "https://dc.lft.to/lastmile_qr_scan"}, "lon": -77.033088, "type": "electric_scooter"}, {"bike_id": "3afa71cdb8ce4513b39d2685e8d2c024", "is_reserved": 0, "fusion_lon": 0.0, "lat": 38.88370183333333, "is_disabled": 0, "name": "3afa71cdb8ce4513b39d2685e8d2c024", "fusion_lat": 0.0, "rental_uris": {"ios": "https://dc.lft.to/lastmile_qr_scan", "android": "https://dc.lft.to/lastmile_qr_scan"}, "lon": -76.99528166666667, "type": "electric_scooter"}, {"bike_id": "a61987d91505e65471e472dd83090dfa", "is_reserved": 0, "fusion_lon": 0.0, "lat": 38.92956183333333, "is_disabled": 0, "name": "a61987d91505e65471e472dd83090dfa", "fusion_lat": 0.0, "rental_uris": {"ios": "https://dc.lft.to/lastmile_qr_scan", "android": "https://dc.lft.to/lastmile_qr_scan"}, "lon": -77.05520133333333, "type": "electric_scooter"}, {"bike_id": "778ef885d5bdf05be02f6661521dc025", "is_reserved": 0, "fusion_lon": 0.0, "lat": 38.93199583333333, "is_disabled": 0, "name": "778ef885d5bdf05be02f6661521dc025", "fusion_lat": 0.0, "rental_uris": {"ios": "https://dc.lft.to/lastmile_qr_scan", "android": "https://dc.lft.to/lastmile_qr_scan"}, "lon": -77.03878133333333, "type": "electric_scooter"}, {"bike_id": "392b550a4722faf4082e28b7655abc3c", "is_reserved": 0, "fusion_lon": 0.0, "lat": 38.910366333333336, "is_disabled": 0, "name": "392b550a4722faf4082e28b7655abc3c", "fusion_lat": 0.0, "rental_uris": {"ios": "https://dc.lft.to/lastmile_qr_scan", "android": "https://dc.lft.to/lastmile_qr_scan"}, "lon": -77.04263783333333, "type": "electric_scooter"}, {"bike_id": "4afc4920ecbdb2e1ede264cf41c45a21", "is_reserved": 0, "fusion_lon": 0.0, "lat": 38.95882066666667, "is_disabled": 0, "name": "4afc4920ecbdb2e1ede264cf41c45a21", "fusion_lat": 0.0, "rental_uris": {"ios": "https://dc.lft.to/lastmile_qr_scan", "android": "https://dc.lft.to/lastmile_qr_scan"}, "lon": -77.01031833333333, "type": "electric_bike"}, {"bike_id": "eeb489f0d225d269c627cd4319f8d108", "is_reserved": 0, "fusion_lon": 0.0, "lat": 38.863750833333334, "is_disabled": 0, "name": "eeb489f0d225d269c627cd4319f8d108", "fusion_lat": 0.0, "rental_uris": {"ios": "https://dc.lft.to/lastmile_qr_scan", "android": "https://dc.lft.to/lastmile_qr_scan"}, "lon": -76.990577, "type": "electric_scooter"}, {"bike_id": "673423219c2d6204df8407b264638b4b", "is_reserved": 0, "fusion_lon": 0.0, "lat": 38.8711225, "is_disabled": 0, "name": "673423219c2d6204df8407b264638b4b", "fusion_lat": 0.0, "rental_uris": {"ios": "https://dc.lft.to/lastmile_qr_scan", "android": "https://dc.lft.to/lastmile_qr_scan"}, "lon": -76.97749416666667, "type": "electric_scooter"}, {"bike_id": "2a122f08167e95bd4ec41faea3796f3d", "is_reserved": 0, "fusion_lon": 0.0, "lat": 38.88366366666666, "is_disabled": 0, "name": "2a122f08167e95bd4ec41faea3796f3d", "fusion_lat": 0.0, "rental_uris": {"ios": "https://dc.lft.to/lastmile_qr_scan", "android": "https://dc.lft.to/lastmile_qr_scan"}, "lon": -76.9951815, "type": "electric_scooter"}, {"bike_id": "aabaa4755931ba8dff9c06c984cb7682", "is_reserved": 0, "fusion_lon": 0.0, "lat": 38.918308833333334, "is_disabled": 0, "name": "aabaa4755931ba8dff9c06c984cb7682", "fusion_lat": 0.0, "rental_uris": {"ios": "https://dc.lft.to/lastmile_qr_scan", "android": "https://dc.lft.to/lastmile_qr_scan"}, "lon": -77.03188916666667, "type": "electric_scooter"}, {"bike_id": "53aa16e72cf8da5692d5a5ee36c6cbf2", "is_reserved": 0, "fusion_lon": 0.0, "lat": 38.89819033333333, "is_disabled": 0, "name": "53aa16e72cf8da5692d5a5ee36c6cbf2", "fusion_lat": 0.0, "rental_uris": {"ios": "https://dc.lft.to/lastmile_qr_scan", "android": "https://dc.lft.to/lastmile_qr_scan"}, "lon": -77.032632, "type": "electric_scooter"}, {"bike_id": "1cb2751d1ba1c23c519e4b123ee1f7af", "is_reserved": 0, "fusion_lon": 0.0, "lat": 38.910267166666664, "is_disabled": 0, "name": "1cb2751d1ba1c23c519e4b123ee1f7af", "fusion_lat": 0.0, "rental_uris": {"ios": "https://dc.lft.to/lastmile_qr_scan", "android": "https://dc.lft.to/lastmile_qr_scan"}, "lon": -77.03858416666667, "type": "electric_scooter"}, {"bike_id": "33d5b54d7bc35d06664a87b455b75a91", "is_reserved": 0, "fusion_lon": 0.0, "lat": 38.95653383333333, "is_disabled": 0, "name": "33d5b54d7bc35d06664a87b455b75a91", "fusion_lat": 0.0, "rental_uris": {"ios": "https://dc.lft.to/lastmile_qr_scan", "android": "https://dc.lft.to/lastmile_qr_scan"}, "lon": -77.022576, "type": "electric_scooter"}, {"bike_id": "80280811e071b0394bca54a0a2aad7e6", "is_reserved": 0, "fusion_lon": 0.0, "lat": 38.85287783333333, "is_disabled": 0, "name": "80280811e071b0394bca54a0a2aad7e6", "fusion_lat": 0.0, "rental_uris": {"ios": "https://dc.lft.to/lastmile_qr_scan", "android": "https://dc.lft.to/lastmile_qr_scan"}, "lon": -77.052768, "type": "electric_bike"}, {"bike_id": "a916a3913aafe6ddbb3310cdab60105f", "is_reserved": 0, "fusion_lon": 0.0, "lat": 38.924804333333334, "is_disabled": 0, "name": "a916a3913aafe6ddbb3310cdab60105f", "fusion_lat": 0.0, "rental_uris": {"ios": "https://dc.lft.to/lastmile_qr_scan", "android": "https://dc.lft.to/lastmile_qr_scan"}, "lon": -77.05209016666667, "type": "electric_scooter"}, {"bike_id": "8992ccebf7f3f1f40adb9131a37204ce", "is_reserved": 0, "fusion_lon": 0.0, "lat": 38.856786666666665, "is_disabled": 0, "name": "8992ccebf7f3f1f40adb9131a37204ce", "fusion_lat": 0.0, "rental_uris": {"ios": "https://dc.lft.to/lastmile_qr_scan", "android": "https://dc.lft.to/lastmile_qr_scan"}, "lon": -77.0856845, "type": "electric_bike"}, {"bike_id": "1a395d39d8a6e41db3764c265a2c7476", "is_reserved": 0, "fusion_lon": 0.0, "lat": 38.865255166666664, "is_disabled": 0, "name": "1a395d39d8a6e41db3764c265a2c7476", "fusion_lat": 0.0, "rental_uris": {"ios": "https://dc.lft.to/lastmile_qr_scan", "android": "https://dc.lft.to/lastmile_qr_scan"}, "lon": -76.99026966666666, "type": "electric_scooter"}, {"bike_id": "f329b16f2c32dfcca1f0558da5e62760", "is_reserved": 0, "fusion_lon": 0.0, "lat": 38.924755166666664, "is_disabled": 0, "name": "f329b16f2c32dfcca1f0558da5e62760", "fusion_lat": 0.0, "rental_uris": {"ios": "https://dc.lft.to/lastmile_qr_scan", "android": "https://dc.lft.to/lastmile_qr_scan"}, "lon": -77.02255216666667, "type": "electric_scooter"}, {"bike_id": "baab2a705bf07e238d8add5e11837f57", "is_reserved": 0, "fusion_lon": 0.0, "lat": 38.90524583333333, "is_disabled": 0, "name": "baab2a705bf07e238d8add5e11837f57", "fusion_lat": 0.0, "rental_uris": {"ios": "https://dc.lft.to/lastmile_qr_scan", "android": "https://dc.lft.to/lastmile_qr_scan"}, "lon": -77.06017666666666, "type": "electric_bike"}, {"bike_id": "0d0173e99419f520057f95c98cadcb1d", "is_reserved": 0, "fusion_lon": 0.0, "lat": 38.928803, "is_disabled": 0, "name": "0d0173e99419f520057f95c98cadcb1d", "fusion_lat": 0.0, "rental_uris": {"ios": "https://dc.lft.to/lastmile_qr_scan", "android": "https://dc.lft.to/lastmile_qr_scan"}, "lon": -77.0333865, "type": "electric_scooter"}, {"bike_id": "296ef38678e24c056b2428c978c8b11e", "is_reserved": 0, "fusion_lon": 0.0, "lat": 38.89529066666667, "is_disabled": 0, "name": "296ef38678e24c056b2428c978c8b11e", "fusion_lat": 0.0, "rental_uris": {"ios": "https://dc.lft.to/lastmile_qr_scan", "android": "https://dc.lft.to/lastmile_qr_scan"}, "lon": -77.03351433333333, "type": "electric_scooter"}, {"bike_id": "65068e3d6f1d398b2bd1f58ea8e71e83", "is_reserved": 0, "fusion_lon": 0.0, "lat": 38.91570683333333, "is_disabled": 0, "name": "65068e3d6f1d398b2bd1f58ea8e71e83", "fusion_lat": 0.0, "rental_uris": {"ios": "https://dc.lft.to/lastmile_qr_scan", "android": "https://dc.lft.to/lastmile_qr_scan"}, "lon": -77.04699266666667, "type": "electric_scooter"}, {"bike_id": "8acd1cfb279fa08be1384f6fe6cf2c1b", "is_reserved": 0, "fusion_lon": 0.0, "lat": 38.94515416666667, "is_disabled": 0, "name": "8acd1cfb279fa08be1384f6fe6cf2c1b", "fusion_lat": 0.0, "rental_uris": {"ios": "https://dc.lft.to/lastmile_qr_scan", "android": "https://dc.lft.to/lastmile_qr_scan"}, "lon": -77.00676716666666, "type": "electric_bike"}, {"bike_id": "db477c40a879b95b8cdf6330ff251c2c", "is_reserved": 0, "fusion_lon": 0.0, "lat": 38.9787715, "is_disabled": 0, "name": "db477c40a879b95b8cdf6330ff251c2c", "fusion_lat": 0.0, "rental_uris": {"ios": "https://dc.lft.to/lastmile_qr_scan", "android": "https://dc.lft.to/lastmile_qr_scan"}, "lon": -77.0254945, "type": "electric_scooter"}, {"bike_id": "b028719b19c96ba07dfb2e54b1ef7c7e", "is_reserved": 0, "fusion_lon": 0.0, "lat": 38.86239116666667, "is_disabled": 0, "name": "b028719b19c96ba07dfb2e54b1ef7c7e", "fusion_lat": 0.0, "rental_uris": {"ios": "https://dc.lft.to/lastmile_qr_scan", "android": "https://dc.lft.to/lastmile_qr_scan"}, "lon": -76.9949565, "type": "electric_scooter"}, {"bike_id": "d460245ae76478f336f64f635990aba9", "is_reserved": 0, "fusion_lon": 0.0, "lat": 38.924457833333335, "is_disabled": 0, "name": "d460245ae76478f336f64f635990aba9", "fusion_lat": 0.0, "rental_uris": {"ios": "https://dc.lft.to/lastmile_qr_scan", "android": "https://dc.lft.to/lastmile_qr_scan"}, "lon": -77.02032583333333, "type": "electric_scooter"}, {"bike_id": "20bf29e6c50c98e89877607cee8569a8", "is_reserved": 0, "fusion_lon": 0.0, "lat": 38.909534666666666, "is_disabled": 0, "name": "20bf29e6c50c98e89877607cee8569a8", "fusion_lat": 0.0, "rental_uris": {"ios": "https://dc.lft.to/lastmile_qr_scan", "android": "https://dc.lft.to/lastmile_qr_scan"}, "lon": -77.04252383333333, "type": "electric_scooter"}, {"bike_id": "33ecbb405276f6a83cc0a5256656f965", "is_reserved": 0, "fusion_lon": 0.0, "lat": 38.903457, "is_disabled": 0, "name": "33ecbb405276f6a83cc0a5256656f965", "fusion_lat": 0.0, "rental_uris": {"ios": "https://dc.lft.to/lastmile_qr_scan", "android": "https://dc.lft.to/lastmile_qr_scan"}, "lon": -77.04344833333333, "type": "electric_scooter"}, {"bike_id": "596c981dc176a8260ac58c957d52d431", "is_reserved": 0, "fusion_lon": 0.0, "lat": 38.902203, "is_disabled": 0, "name": "596c981dc176a8260ac58c957d52d431", "fusion_lat": 0.0, "rental_uris": {"ios": "https://dc.lft.to/lastmile_qr_scan", "android": "https://dc.lft.to/lastmile_qr_scan"}, "lon": -77.05904316666667, "type": "electric_bike"}, {"bike_id": "4c5b3a9845dd26eb61e9f273fb0a48af", "is_reserved": 0, "fusion_lon": 0.0, "lat": 38.94509016666667, "is_disabled": 0, "name": "4c5b3a9845dd26eb61e9f273fb0a48af", "fusion_lat": 0.0, "rental_uris": {"ios": "https://dc.lft.to/lastmile_qr_scan", "android": "https://dc.lft.to/lastmile_qr_scan"}, "lon": -77.0335885, "type": "electric_scooter"}, {"bike_id": "33524e5e42a7dca93285e0d041c0ce9c", "is_reserved": 0, "fusion_lon": 0.0, "lat": 38.9104665, "is_disabled": 0, "name": "33524e5e42a7dca93285e0d041c0ce9c", "fusion_lat": 0.0, "rental_uris": {"ios": "https://dc.lft.to/lastmile_qr_scan", "android": "https://dc.lft.to/lastmile_qr_scan"}, "lon": -77.01512383333333, "type": "electric_scooter"}, {"bike_id": "7e1c1140e33322915157a16567a67e22", "is_reserved": 0, "fusion_lon": 0.0, "lat": 38.9079275, "is_disabled": 0, "name": "7e1c1140e33322915157a16567a67e22", "fusion_lat": 0.0, "rental_uris": {"ios": "https://dc.lft.to/lastmile_qr_scan", "android": "https://dc.lft.to/lastmile_qr_scan"}, "lon": -77.04871483333334, "type": "electric_scooter"}, {"bike_id": "fd93a29464e5978b5254fd82da628dcc", "is_reserved": 0, "fusion_lon": 0.0, "lat": 38.889933666666664, "is_disabled": 0, "name": "fd93a29464e5978b5254fd82da628dcc", "fusion_lat": 0.0, "rental_uris": {"ios": "https://dc.lft.to/lastmile_qr_scan", "android": "https://dc.lft.to/lastmile_qr_scan"}, "lon": -76.94706983333333, "type": "electric_scooter"}, {"bike_id": "da50f2315f577313ea33c621d33d6168", "is_reserved": 0, "fusion_lon": 0.0, "lat": 38.8323445, "is_disabled": 0, "name": "da50f2315f577313ea33c621d33d6168", "fusion_lat": 0.0, "rental_uris": {"ios": "https://dc.lft.to/lastmile_qr_scan", "android": "https://dc.lft.to/lastmile_qr_scan"}, "lon": -76.94623116666666, "type": "electric_bike"}, {"bike_id": "3bd9722fe1380f037a6c024a1b394e12", "is_reserved": 0, "fusion_lon": 0.0, "lat": 38.905636333333334, "is_disabled": 0, "name": "3bd9722fe1380f037a6c024a1b394e12", "fusion_lat": 0.0, "rental_uris": {"ios": "https://dc.lft.to/lastmile_qr_scan", "android": "https://dc.lft.to/lastmile_qr_scan"}, "lon": -77.03815166666666, "type": "electric_scooter"}, {"bike_id": "e4b6907a679ebdcf2496747ebc3f73be", "is_reserved": 0, "fusion_lon": 0.0, "lat": 38.928503166666665, "is_disabled": 0, "name": "e4b6907a679ebdcf2496747ebc3f73be", "fusion_lat": 0.0, "rental_uris": {"ios": "https://dc.lft.to/lastmile_qr_scan", "android": "https://dc.lft.to/lastmile_qr_scan"}, "lon": -77.05428233333333, "type": "electric_scooter"}, {"bike_id": "7f0cd1565cf639a14d3fa3dc0a6c9a96", "is_reserved": 0, "fusion_lon": 0.0, "lat": 38.90277483333333, "is_disabled": 0, "name": "7f0cd1565cf639a14d3fa3dc0a6c9a96", "fusion_lat": 0.0, "rental_uris": {"ios": "https://dc.lft.to/lastmile_qr_scan", "android": "https://dc.lft.to/lastmile_qr_scan"}, "lon": -77.05904433333333, "type": "electric_scooter"}, {"bike_id": "28c3066dd58d022c34a4b29a9f1b1428", "is_reserved": 0, "fusion_lon": 0.0, "lat": 38.92777016666667, "is_disabled": 0, "name": "28c3066dd58d022c34a4b29a9f1b1428", "fusion_lat": 0.0, "rental_uris": {"ios": "https://dc.lft.to/lastmile_qr_scan", "android": "https://dc.lft.to/lastmile_qr_scan"}, "lon": -77.03196316666667, "type": "electric_scooter"}, {"bike_id": "d185380ed031d7ef32b5e9d2451eb042", "is_reserved": 0, "fusion_lon": 0.0, "lat": 38.92908166666667, "is_disabled": 0, "name": "d185380ed031d7ef32b5e9d2451eb042", "fusion_lat": 0.0, "rental_uris": {"ios": "https://dc.lft.to/lastmile_qr_scan", "android": "https://dc.lft.to/lastmile_qr_scan"}, "lon": -77.0317285, "type": "electric_scooter"}, {"bike_id": "b8eab02355dc0513dbbbc7c22660b58a", "is_reserved": 0, "fusion_lon": 0.0, "lat": 38.89562766666667, "is_disabled": 0, "name": "b8eab02355dc0513dbbbc7c22660b58a", "fusion_lat": 0.0, "rental_uris": {"ios": "https://dc.lft.to/lastmile_qr_scan", "android": "https://dc.lft.to/lastmile_qr_scan"}, "lon": -77.04673833333334, "type": "electric_scooter"}, {"bike_id": "f2a2453aa17df9320044026a583f761d", "is_reserved": 0, "fusion_lon": 0.0, "lat": 38.89221416666667, "is_disabled": 0, "name": "f2a2453aa17df9320044026a583f761d", "fusion_lat": 0.0, "rental_uris": {"ios": "https://dc.lft.to/lastmile_qr_scan", "android": "https://dc.lft.to/lastmile_qr_scan"}, "lon": -77.04366716666667, "type": "electric_scooter"}, {"bike_id": "c80c1dc2e77a0f2a6649b0d254d0a30b", "is_reserved": 0, "fusion_lon": 0.0, "lat": 38.8936755, "is_disabled": 0, "name": "c80c1dc2e77a0f2a6649b0d254d0a30b", "fusion_lat": 0.0, "rental_uris": {"ios": "https://dc.lft.to/lastmile_qr_scan", "android": "https://dc.lft.to/lastmile_qr_scan"}, "lon": -76.94963733333333, "type": "electric_scooter"}, {"bike_id": "ea19162ab34db01c12ad57f4513a03b9", "is_reserved": 0, "fusion_lon": 0.0, "lat": 38.90668066666667, "is_disabled": 0, "name": "ea19162ab34db01c12ad57f4513a03b9", "fusion_lat": 0.0, "rental_uris": {"ios": "https://dc.lft.to/lastmile_qr_scan", "android": "https://dc.lft.to/lastmile_qr_scan"}, "lon": -77.0488965, "type": "electric_scooter"}, {"bike_id": "8e161e7dd0dd847e6a5d869f11ec6dc2", "is_reserved": 0, "fusion_lon": 0.0, "lat": 38.89221933333334, "is_disabled": 0, "name": "8e161e7dd0dd847e6a5d869f11ec6dc2", "fusion_lat": 0.0, "rental_uris": {"ios": "https://dc.lft.to/lastmile_qr_scan", "android": "https://dc.lft.to/lastmile_qr_scan"}, "lon": -77.04191983333334, "type": "electric_scooter"}, {"bike_id": "e597a43271a0dc11f76326feb2ddfc07", "is_reserved": 0, "fusion_lon": 0.0, "lat": 38.92240733333333, "is_disabled": 0, "name": "e597a43271a0dc11f76326feb2ddfc07", "fusion_lat": 0.0, "rental_uris": {"ios": "https://dc.lft.to/lastmile_qr_scan", "android": "https://dc.lft.to/lastmile_qr_scan"}, "lon": -77.01008533333334, "type": "electric_scooter"}, {"bike_id": "825b3849bff86b00ff638a6021888b37", "is_reserved": 0, "fusion_lon": 0.0, "lat": 38.934240333333335, "is_disabled": 0, "name": "825b3849bff86b00ff638a6021888b37", "fusion_lat": 0.0, "rental_uris": {"ios": "https://dc.lft.to/lastmile_qr_scan", "android": "https://dc.lft.to/lastmile_qr_scan"}, "lon": -77.04314933333333, "type": "electric_scooter"}, {"bike_id": "fe2399671ccf2a3ea7ef26e855bd3030", "is_reserved": 0, "fusion_lon": 0.0, "lat": 38.898205833333336, "is_disabled": 0, "name": "fe2399671ccf2a3ea7ef26e855bd3030", "fusion_lat": 0.0, "rental_uris": {"ios": "https://dc.lft.to/lastmile_qr_scan", "android": "https://dc.lft.to/lastmile_qr_scan"}, "lon": -77.03297516666666, "type": "electric_scooter"}, {"bike_id": "f942f0ffabb1322f99fc3ac970e17938", "is_reserved": 0, "fusion_lon": 0.0, "lat": 38.91255616666667, "is_disabled": 0, "name": "f942f0ffabb1322f99fc3ac970e17938", "fusion_lat": 0.0, "rental_uris": {"ios": "https://dc.lft.to/lastmile_qr_scan", "android": "https://dc.lft.to/lastmile_qr_scan"}, "lon": -77.0323155, "type": "electric_scooter"}, {"bike_id": "cc0eba4538205188dd9b13c6046ca329", "is_reserved": 0, "fusion_lon": 0.0, "lat": 38.89742866666667, "is_disabled": 0, "name": "cc0eba4538205188dd9b13c6046ca329", "fusion_lat": 0.0, "rental_uris": {"ios": "https://dc.lft.to/lastmile_qr_scan", "android": "https://dc.lft.to/lastmile_qr_scan"}, "lon": -77.0086475, "type": "electric_scooter"}, {"bike_id": "f198f0dbc48581c344af3b048490286d", "is_reserved": 0, "fusion_lon": 0.0, "lat": 38.8962145, "is_disabled": 0, "name": "f198f0dbc48581c344af3b048490286d", "fusion_lat": 0.0, "rental_uris": {"ios": "https://dc.lft.to/lastmile_qr_scan", "android": "https://dc.lft.to/lastmile_qr_scan"}, "lon": -76.99849766666667, "type": "electric_scooter"}, {"bike_id": "6ac2fec44c29bc1221ac1b645732ad8a", "is_reserved": 0, "fusion_lon": 0.0, "lat": 38.891934, "is_disabled": 0, "name": "6ac2fec44c29bc1221ac1b645732ad8a", "fusion_lat": 0.0, "rental_uris": {"ios": "https://dc.lft.to/lastmile_qr_scan", "android": "https://dc.lft.to/lastmile_qr_scan"}, "lon": -77.02980966666667, "type": "electric_scooter"}, {"bike_id": "c62b72901ad1825027ad238fab4436e8", "is_reserved": 0, "fusion_lon": 0.0, "lat": 38.869046166666664, "is_disabled": 0, "name": "c62b72901ad1825027ad238fab4436e8", "fusion_lat": 0.0, "rental_uris": {"ios": "https://dc.lft.to/lastmile_qr_scan", "android": "https://dc.lft.to/lastmile_qr_scan"}, "lon": -77.13175733333334, "type": "electric_bike"}, {"bike_id": "90c2a0ce04cf83a81d336603cdb34144", "is_reserved": 0, "fusion_lon": 0.0, "lat": 38.8948645, "is_disabled": 0, "name": "90c2a0ce04cf83a81d336603cdb34144", "fusion_lat": 0.0, "rental_uris": {"ios": "https://dc.lft.to/lastmile_qr_scan", "android": "https://dc.lft.to/lastmile_qr_scan"}, "lon": -77.02290616666667, "type": "electric_scooter"}, {"bike_id": "0f9d0c187602fb9264431adcbdcc41e3", "is_reserved": 0, "fusion_lon": 0.0, "lat": 38.92882483333333, "is_disabled": 0, "name": "0f9d0c187602fb9264431adcbdcc41e3", "fusion_lat": 0.0, "rental_uris": {"ios": "https://dc.lft.to/lastmile_qr_scan", "android": "https://dc.lft.to/lastmile_qr_scan"}, "lon": -77.03368583333334, "type": "electric_scooter"}, {"bike_id": "2d64c30e785061c8d9c854cfd1ef58a1", "is_reserved": 0, "fusion_lon": 0.0, "lat": 38.904158333333335, "is_disabled": 0, "name": "2d64c30e785061c8d9c854cfd1ef58a1", "fusion_lat": 0.0, "rental_uris": {"ios": "https://dc.lft.to/lastmile_qr_scan", "android": "https://dc.lft.to/lastmile_qr_scan"}, "lon": -77.02949566666666, "type": "electric_scooter"}, {"bike_id": "1aebf8e4dc843e74085a78c3bc525621", "is_reserved": 0, "fusion_lon": 0.0, "lat": 38.8616095, "is_disabled": 0, "name": "1aebf8e4dc843e74085a78c3bc525621", "fusion_lat": 0.0, "rental_uris": {"ios": "https://dc.lft.to/lastmile_qr_scan", "android": "https://dc.lft.to/lastmile_qr_scan"}, "lon": -77.13095833333334, "type": "electric_bike"}, {"bike_id": "2baf8f73111ac7da3e215e35236ebf77", "is_reserved": 0, "fusion_lon": 0.0, "lat": 38.917586, "is_disabled": 0, "name": "2baf8f73111ac7da3e215e35236ebf77", "fusion_lat": 0.0, "rental_uris": {"ios": "https://dc.lft.to/lastmile_qr_scan", "android": "https://dc.lft.to/lastmile_qr_scan"}, "lon": -77.01606566666666, "type": "electric_scooter"}, {"bike_id": "b49355af7076e2573b175e43c0a8bc39", "is_reserved": 0, "fusion_lon": 0.0, "lat": 38.901107833333334, "is_disabled": 0, "name": "b49355af7076e2573b175e43c0a8bc39", "fusion_lat": 0.0, "rental_uris": {"ios": "https://dc.lft.to/lastmile_qr_scan", "android": "https://dc.lft.to/lastmile_qr_scan"}, "lon": -77.04410733333333, "type": "electric_scooter"}, {"bike_id": "a7ab21d6b435501ec389fda4c8f6cd6d", "is_reserved": 0, "fusion_lon": 0.0, "lat": 38.8961515, "is_disabled": 0, "name": "a7ab21d6b435501ec389fda4c8f6cd6d", "fusion_lat": 0.0, "rental_uris": {"ios": "https://dc.lft.to/lastmile_qr_scan", "android": "https://dc.lft.to/lastmile_qr_scan"}, "lon": -76.99573916666667, "type": "electric_scooter"}, {"bike_id": "607a52afa6d8b056d7d43259c0ce2746", "is_reserved": 0, "fusion_lon": 0.0, "lat": 38.895458833333336, "is_disabled": 0, "name": "607a52afa6d8b056d7d43259c0ce2746", "fusion_lat": 0.0, "rental_uris": {"ios": "https://dc.lft.to/lastmile_qr_scan", "android": "https://dc.lft.to/lastmile_qr_scan"}, "lon": -76.98071583333333, "type": "electric_scooter"}, {"bike_id": "c1919c051a60902eee20e65b9e1d3b4b", "is_reserved": 0, "fusion_lon": 0.0, "lat": 38.967596666666665, "is_disabled": 0, "name": "c1919c051a60902eee20e65b9e1d3b4b", "fusion_lat": 0.0, "rental_uris": {"ios": "https://dc.lft.to/lastmile_qr_scan", "android": "https://dc.lft.to/lastmile_qr_scan"}, "lon": -77.09166683333333, "type": "electric_bike"}, {"bike_id": "a69411b88996f426b36e6b0f7b22c92b", "is_reserved": 0, "fusion_lon": 0.0, "lat": 38.892228, "is_disabled": 0, "name": "a69411b88996f426b36e6b0f7b22c92b", "fusion_lat": 0.0, "rental_uris": {"ios": "https://dc.lft.to/lastmile_qr_scan", "android": "https://dc.lft.to/lastmile_qr_scan"}, "lon": -77.03337133333333, "type": "electric_scooter"}, {"bike_id": "0f8ff1c2c3ef48b492563d1e1b9f04a0", "is_reserved": 0, "fusion_lon": 0.0, "lat": 38.906392333333336, "is_disabled": 0, "name": "0f8ff1c2c3ef48b492563d1e1b9f04a0", "fusion_lat": 0.0, "rental_uris": {"ios": "https://dc.lft.to/lastmile_qr_scan", "android": "https://dc.lft.to/lastmile_qr_scan"}, "lon": -77.03861766666667, "type": "electric_scooter"}, {"bike_id": "330103473e1b6e91f380dae10a554e8f", "is_reserved": 0, "fusion_lon": 0.0, "lat": 38.90311616666666, "is_disabled": 0, "name": "330103473e1b6e91f380dae10a554e8f", "fusion_lat": 0.0, "rental_uris": {"ios": "https://dc.lft.to/lastmile_qr_scan", "android": "https://dc.lft.to/lastmile_qr_scan"}, "lon": -77.02574316666667, "type": "electric_scooter"}, {"bike_id": "072891748bcdf04a6fe9e628c1fdd7f7", "is_reserved": 0, "fusion_lon": 0.0, "lat": 38.913361333333334, "is_disabled": 0, "name": "072891748bcdf04a6fe9e628c1fdd7f7", "fusion_lat": 0.0, "rental_uris": {"ios": "https://dc.lft.to/lastmile_qr_scan", "android": "https://dc.lft.to/lastmile_qr_scan"}, "lon": -77.034446, "type": "electric_scooter"}, {"bike_id": "bc5c3545b33bd282d00e4e822b23016e", "is_reserved": 0, "fusion_lon": 0.0, "lat": 38.85175733333333, "is_disabled": 0, "name": "bc5c3545b33bd282d00e4e822b23016e", "fusion_lat": 0.0, "rental_uris": {"ios": "https://dc.lft.to/lastmile_qr_scan", "android": "https://dc.lft.to/lastmile_qr_scan"}, "lon": -76.99579683333333, "type": "electric_scooter"}, {"bike_id": "3a3801b84d8f88c1e6958048ea8a8d07", "is_reserved": 0, "fusion_lon": 0.0, "lat": 38.9160845, "is_disabled": 0, "name": "3a3801b84d8f88c1e6958048ea8a8d07", "fusion_lat": 0.0, "rental_uris": {"ios": "https://dc.lft.to/lastmile_qr_scan", "android": "https://dc.lft.to/lastmile_qr_scan"}, "lon": -77.04567033333333, "type": "electric_scooter"}, {"bike_id": "f80fc09a0dc1cbcef3af135ef42e59dc", "is_reserved": 0, "fusion_lon": 0.0, "lat": 38.86517883333333, "is_disabled": 0, "name": "f80fc09a0dc1cbcef3af135ef42e59dc", "fusion_lat": 0.0, "rental_uris": {"ios": "https://dc.lft.to/lastmile_qr_scan", "android": "https://dc.lft.to/lastmile_qr_scan"}, "lon": -76.99047516666667, "type": "electric_scooter"}, {"bike_id": "247fae65d13f6c0c1c70b9d292e77858", "is_reserved": 0, "fusion_lon": 0.0, "lat": 38.900897666666665, "is_disabled": 0, "name": "247fae65d13f6c0c1c70b9d292e77858", "fusion_lat": 0.0, "rental_uris": {"ios": "https://dc.lft.to/lastmile_qr_scan", "android": "https://dc.lft.to/lastmile_qr_scan"}, "lon": -77.019356, "type": "electric_scooter"}, {"bike_id": "30279b9f59f11e543083a078c6dc9207", "is_reserved": 0, "fusion_lon": 0.0, "lat": 38.89723633333333, "is_disabled": 0, "name": "30279b9f59f11e543083a078c6dc9207", "fusion_lat": 0.0, "rental_uris": {"ios": "https://dc.lft.to/lastmile_qr_scan", "android": "https://dc.lft.to/lastmile_qr_scan"}, "lon": -77.0461725, "type": "electric_scooter"}, {"bike_id": "98b5ea7566a3f7f0eca3e7a76fa86cec", "is_reserved": 0, "fusion_lon": 0.0, "lat": 38.89273466666667, "is_disabled": 0, "name": "98b5ea7566a3f7f0eca3e7a76fa86cec", "fusion_lat": 0.0, "rental_uris": {"ios": "https://dc.lft.to/lastmile_qr_scan", "android": "https://dc.lft.to/lastmile_qr_scan"}, "lon": -77.02595666666667, "type": "electric_scooter"}, {"bike_id": "5ce3b825f5ba4084f952559fb00157ab", "is_reserved": 0, "fusion_lon": 0.0, "lat": 38.9408525, "is_disabled": 0, "name": "5ce3b825f5ba4084f952559fb00157ab", "fusion_lat": 0.0, "rental_uris": {"ios": "https://dc.lft.to/lastmile_qr_scan", "android": "https://dc.lft.to/lastmile_qr_scan"}, "lon": -77.0619515, "type": "electric_scooter"}, {"bike_id": "c96b953d49419365cd94303bd712cf47", "is_reserved": 0, "fusion_lon": 0.0, "lat": 38.904749333333335, "is_disabled": 0, "name": "c96b953d49419365cd94303bd712cf47", "fusion_lat": 0.0, "rental_uris": {"ios": "https://dc.lft.to/lastmile_qr_scan", "android": "https://dc.lft.to/lastmile_qr_scan"}, "lon": -77.04665316666667, "type": "electric_scooter"}, {"bike_id": "a240401015f8fbc44c373be500189f4b", "is_reserved": 0, "fusion_lon": 0.0, "lat": 38.89221116666667, "is_disabled": 0, "name": "a240401015f8fbc44c373be500189f4b", "fusion_lat": 0.0, "rental_uris": {"ios": "https://dc.lft.to/lastmile_qr_scan", "android": "https://dc.lft.to/lastmile_qr_scan"}, "lon": -77.04867516666667, "type": "electric_scooter"}, {"bike_id": "5d054045ced79454425e9b611636ecf7", "is_reserved": 0, "fusion_lon": 0.0, "lat": 38.911899, "is_disabled": 0, "name": "5d054045ced79454425e9b611636ecf7", "fusion_lat": 0.0, "rental_uris": {"ios": "https://dc.lft.to/lastmile_qr_scan", "android": "https://dc.lft.to/lastmile_qr_scan"}, "lon": -77.01617183333333, "type": "electric_scooter"}, {"bike_id": "9ebeabeb22140db31b62a0f7a83b4d87", "is_reserved": 0, "fusion_lon": 0.0, "lat": 38.904264, "is_disabled": 0, "name": "9ebeabeb22140db31b62a0f7a83b4d87", "fusion_lat": 0.0, "rental_uris": {"ios": "https://dc.lft.to/lastmile_qr_scan", "android": "https://dc.lft.to/lastmile_qr_scan"}, "lon": -77.0434585, "type": "electric_scooter"}, {"bike_id": "bae26ef1d8417baf06383814d0163197", "is_reserved": 0, "fusion_lon": 0.0, "lat": 38.941745833333336, "is_disabled": 0, "name": "bae26ef1d8417baf06383814d0163197", "fusion_lat": 0.0, "rental_uris": {"ios": "https://dc.lft.to/lastmile_qr_scan", "android": "https://dc.lft.to/lastmile_qr_scan"}, "lon": -77.02501233333334, "type": "electric_scooter"}, {"bike_id": "4ca593060967da87041ca9d85fa41b46", "is_reserved": 0, "fusion_lon": 0.0, "lat": 38.876274333333335, "is_disabled": 0, "name": "4ca593060967da87041ca9d85fa41b46", "fusion_lat": 0.0, "rental_uris": {"ios": "https://dc.lft.to/lastmile_qr_scan", "android": "https://dc.lft.to/lastmile_qr_scan"}, "lon": -76.96522166666666, "type": "electric_scooter"}, {"bike_id": "8ed0504dec03ffbc9b62dadc0a91f935", "is_reserved": 0, "fusion_lon": 0.0, "lat": 38.9029365, "is_disabled": 0, "name": "8ed0504dec03ffbc9b62dadc0a91f935", "fusion_lat": 0.0, "rental_uris": {"ios": "https://dc.lft.to/lastmile_qr_scan", "android": "https://dc.lft.to/lastmile_qr_scan"}, "lon": -76.9985635, "type": "electric_scooter"}, {"bike_id": "3da4e7961b51bc44eb934fa415f01c53", "is_reserved": 0, "fusion_lon": 0.0, "lat": 38.89370783333333, "is_disabled": 0, "name": "3da4e7961b51bc44eb934fa415f01c53", "fusion_lat": 0.0, "rental_uris": {"ios": "https://dc.lft.to/lastmile_qr_scan", "android": "https://dc.lft.to/lastmile_qr_scan"}, "lon": -76.94962016666666, "type": "electric_scooter"}, {"bike_id": "d288ced1e22862da8c5f54c01304571d", "is_reserved": 0, "fusion_lon": 0.0, "lat": 38.878335666666665, "is_disabled": 0, "name": "d288ced1e22862da8c5f54c01304571d", "fusion_lat": 0.0, "rental_uris": {"ios": "https://dc.lft.to/lastmile_qr_scan", "android": "https://dc.lft.to/lastmile_qr_scan"}, "lon": -76.99040483333333, "type": "electric_scooter"}, {"bike_id": "a74dcfd6803748de36e531cb2728f6dd", "is_reserved": 0, "fusion_lon": 0.0, "lat": 38.90442616666667, "is_disabled": 0, "name": "a74dcfd6803748de36e531cb2728f6dd", "fusion_lat": 0.0, "rental_uris": {"ios": "https://dc.lft.to/lastmile_qr_scan", "android": "https://dc.lft.to/lastmile_qr_scan"}, "lon": -76.99620283333333, "type": "electric_scooter"}, {"bike_id": "2367a8e4fde0f4b658baaec18f8c0d35", "is_reserved": 0, "fusion_lon": 0.0, "lat": 38.922596166666665, "is_disabled": 0, "name": "2367a8e4fde0f4b658baaec18f8c0d35", "fusion_lat": 0.0, "rental_uris": {"ios": "https://dc.lft.to/lastmile_qr_scan", "android": "https://dc.lft.to/lastmile_qr_scan"}, "lon": -77.0182975, "type": "electric_scooter"}, {"bike_id": "e301e6448a5042e79126e71de198d6ed", "is_reserved": 0, "fusion_lon": 0.0, "lat": 38.902825166666666, "is_disabled": 0, "name": "e301e6448a5042e79126e71de198d6ed", "fusion_lat": 0.0, "rental_uris": {"ios": "https://dc.lft.to/lastmile_qr_scan", "android": "https://dc.lft.to/lastmile_qr_scan"}, "lon": -77.033795, "type": "electric_scooter"}, {"bike_id": "dd4b120161e05f1e9673a8da68b6aa4d", "is_reserved": 0, "fusion_lon": 0.0, "lat": 38.89218016666667, "is_disabled": 0, "name": "dd4b120161e05f1e9673a8da68b6aa4d", "fusion_lat": 0.0, "rental_uris": {"ios": "https://dc.lft.to/lastmile_qr_scan", "android": "https://dc.lft.to/lastmile_qr_scan"}, "lon": -77.04504066666667, "type": "electric_scooter"}, {"bike_id": "1d7ff4a26ef01b940daae54a10311bd2", "is_reserved": 0, "fusion_lon": 0.0, "lat": 38.84293383333333, "is_disabled": 0, "name": "1d7ff4a26ef01b940daae54a10311bd2", "fusion_lat": 0.0, "rental_uris": {"ios": "https://dc.lft.to/lastmile_qr_scan", "android": "https://dc.lft.to/lastmile_qr_scan"}, "lon": -76.99947816666666, "type": "electric_scooter"}, {"bike_id": "c101884ac7a34b20c3c060b14e8619ce", "is_reserved": 0, "fusion_lon": 0.0, "lat": 38.907764, "is_disabled": 0, "name": "c101884ac7a34b20c3c060b14e8619ce", "fusion_lat": 0.0, "rental_uris": {"ios": "https://dc.lft.to/lastmile_qr_scan", "android": "https://dc.lft.to/lastmile_qr_scan"}, "lon": -77.06927033333334, "type": "electric_scooter"}, {"bike_id": "1dfc5842bd4a69e2519b367652ca9805", "is_reserved": 0, "fusion_lon": 0.0, "lat": 38.866154333333334, "is_disabled": 0, "name": "1dfc5842bd4a69e2519b367652ca9805", "fusion_lat": 0.0, "rental_uris": {"ios": "https://dc.lft.to/lastmile_qr_scan", "android": "https://dc.lft.to/lastmile_qr_scan"}, "lon": -76.94571316666666, "type": "electric_bike"}, {"bike_id": "e14e8562fea5b9c63976146485f78c78", "is_reserved": 0, "fusion_lon": 0.0, "lat": 38.90285316666667, "is_disabled": 0, "name": "e14e8562fea5b9c63976146485f78c78", "fusion_lat": 0.0, "rental_uris": {"ios": "https://dc.lft.to/lastmile_qr_scan", "android": "https://dc.lft.to/lastmile_qr_scan"}, "lon": -76.99033666666666, "type": "electric_scooter"}, {"bike_id": "2d9580008a5587e06b8f359da13d7f30", "is_reserved": 0, "fusion_lon": 0.0, "lat": 38.903591666666664, "is_disabled": 0, "name": "2d9580008a5587e06b8f359da13d7f30", "fusion_lat": 0.0, "rental_uris": {"ios": "https://dc.lft.to/lastmile_qr_scan", "android": "https://dc.lft.to/lastmile_qr_scan"}, "lon": -77.04500083333333, "type": "electric_scooter"}, {"bike_id": "c53c1a0f9aa97a607e3086c9563c7196", "is_reserved": 0, "fusion_lon": 0.0, "lat": 38.89734766666667, "is_disabled": 0, "name": "c53c1a0f9aa97a607e3086c9563c7196", "fusion_lat": 0.0, "rental_uris": {"ios": "https://dc.lft.to/lastmile_qr_scan", "android": "https://dc.lft.to/lastmile_qr_scan"}, "lon": -77.05565383333334, "type": "electric_scooter"}, {"bike_id": "87b7db5b1ded036f59f691d7563204bf", "is_reserved": 0, "fusion_lon": 0.0, "lat": 38.888456, "is_disabled": 0, "name": "87b7db5b1ded036f59f691d7563204bf", "fusion_lat": 0.0, "rental_uris": {"ios": "https://dc.lft.to/lastmile_qr_scan", "android": "https://dc.lft.to/lastmile_qr_scan"}, "lon": -76.92678516666666, "type": "electric_scooter"}, {"bike_id": "9eb94b9cf6ccbb53a7ffc58d41cdf7c9", "is_reserved": 0, "fusion_lon": 0.0, "lat": 38.90511333333333, "is_disabled": 0, "name": "9eb94b9cf6ccbb53a7ffc58d41cdf7c9", "fusion_lat": 0.0, "rental_uris": {"ios": "https://dc.lft.to/lastmile_qr_scan", "android": "https://dc.lft.to/lastmile_qr_scan"}, "lon": -77.05687483333334, "type": "electric_bike"}, {"bike_id": "2efa6cc77637a068b7f66e55e892f4ac", "is_reserved": 0, "fusion_lon": 0.0, "lat": 38.948043166666665, "is_disabled": 0, "name": "2efa6cc77637a068b7f66e55e892f4ac", "fusion_lat": 0.0, "rental_uris": {"ios": "https://dc.lft.to/lastmile_qr_scan", "android": "https://dc.lft.to/lastmile_qr_scan"}, "lon": -77.0790705, "type": "electric_scooter"}, {"bike_id": "6efe7bb2849687f712159ee61716204c", "is_reserved": 0, "fusion_lon": 0.0, "lat": 38.88752266666667, "is_disabled": 0, "name": "6efe7bb2849687f712159ee61716204c", "fusion_lat": 0.0, "rental_uris": {"ios": "https://dc.lft.to/lastmile_qr_scan", "android": "https://dc.lft.to/lastmile_qr_scan"}, "lon": -77.03152666666666, "type": "electric_scooter"}, {"bike_id": "26350b60d820c9174c4ac4b7c70027da", "is_reserved": 0, "fusion_lon": 0.0, "lat": 38.860092, "is_disabled": 0, "name": "26350b60d820c9174c4ac4b7c70027da", "fusion_lat": 0.0, "rental_uris": {"ios": "https://dc.lft.to/lastmile_qr_scan", "android": "https://dc.lft.to/lastmile_qr_scan"}, "lon": -77.05771283333333, "type": "electric_bike"}, {"bike_id": "ce947614d357b545b035e1b4548263a1", "is_reserved": 0, "fusion_lon": 0.0, "lat": 38.930861, "is_disabled": 0, "name": "ce947614d357b545b035e1b4548263a1", "fusion_lat": 0.0, "rental_uris": {"ios": "https://dc.lft.to/lastmile_qr_scan", "android": "https://dc.lft.to/lastmile_qr_scan"}, "lon": -77.031336, "type": "electric_scooter"}, {"bike_id": "1d6d5036ab8d9f2e19da3156a7e5779b", "is_reserved": 0, "fusion_lon": 0.0, "lat": 38.9037375, "is_disabled": 0, "name": "1d6d5036ab8d9f2e19da3156a7e5779b", "fusion_lat": 0.0, "rental_uris": {"ios": "https://dc.lft.to/lastmile_qr_scan", "android": "https://dc.lft.to/lastmile_qr_scan"}, "lon": -77.04490716666666, "type": "electric_scooter"}, {"bike_id": "745bb807cf61e9a7550c9b3f17751448", "is_reserved": 0, "fusion_lon": 0.0, "lat": 38.949682333333335, "is_disabled": 0, "name": "745bb807cf61e9a7550c9b3f17751448", "fusion_lat": 0.0, "rental_uris": {"ios": "https://dc.lft.to/lastmile_qr_scan", "android": "https://dc.lft.to/lastmile_qr_scan"}, "lon": -76.97281416666667, "type": "electric_bike"}, {"bike_id": "407871526c98f92854c442dd2131ecc1", "is_reserved": 0, "fusion_lon": 0.0, "lat": 38.9049025, "is_disabled": 0, "name": "407871526c98f92854c442dd2131ecc1", "fusion_lat": 0.0, "rental_uris": {"ios": "https://dc.lft.to/lastmile_qr_scan", "android": "https://dc.lft.to/lastmile_qr_scan"}, "lon": -77.0258315, "type": "electric_scooter"}, {"bike_id": "0540b1d2fd18b166e895304ee7fbb90f", "is_reserved": 0, "fusion_lon": 0.0, "lat": 38.90077466666666, "is_disabled": 0, "name": "0540b1d2fd18b166e895304ee7fbb90f", "fusion_lat": 0.0, "rental_uris": {"ios": "https://dc.lft.to/lastmile_qr_scan", "android": "https://dc.lft.to/lastmile_qr_scan"}, "lon": -76.93860433333333, "type": "electric_scooter"}, {"bike_id": "15285f8b1619b184234bbf97838bf46a", "is_reserved": 0, "fusion_lon": 0.0, "lat": 38.89605316666667, "is_disabled": 0, "name": "15285f8b1619b184234bbf97838bf46a", "fusion_lat": 0.0, "rental_uris": {"ios": "https://dc.lft.to/lastmile_qr_scan", "android": "https://dc.lft.to/lastmile_qr_scan"}, "lon": -77.04787866666666, "type": "electric_scooter"}, {"bike_id": "8ff20b394ec0e394e63cd2a22ecf20df", "is_reserved": 0, "fusion_lon": 0.0, "lat": 38.90025833333333, "is_disabled": 0, "name": "8ff20b394ec0e394e63cd2a22ecf20df", "fusion_lat": 0.0, "rental_uris": {"ios": "https://dc.lft.to/lastmile_qr_scan", "android": "https://dc.lft.to/lastmile_qr_scan"}, "lon": -77.02207666666666, "type": "electric_scooter"}, {"bike_id": "bcaf7faf93281eaf98e5e3c82548353d", "is_reserved": 0, "fusion_lon": 0.0, "lat": 38.959293333333335, "is_disabled": 0, "name": "bcaf7faf93281eaf98e5e3c82548353d", "fusion_lat": 0.0, "rental_uris": {"ios": "https://dc.lft.to/lastmile_qr_scan", "android": "https://dc.lft.to/lastmile_qr_scan"}, "lon": -77.03120133333333, "type": "electric_scooter"}, {"bike_id": "56c6469a8d0181029daf521af5751b96", "is_reserved": 0, "fusion_lon": 0.0, "lat": 38.885016666666665, "is_disabled": 0, "name": "56c6469a8d0181029daf521af5751b96", "fusion_lat": 0.0, "rental_uris": {"ios": "https://dc.lft.to/lastmile_qr_scan", "android": "https://dc.lft.to/lastmile_qr_scan"}, "lon": -77.00567066666666, "type": "electric_scooter"}, {"bike_id": "27f8149f9d9753ebc1fb9917459c8a9d", "is_reserved": 0, "fusion_lon": 0.0, "lat": 38.9813385, "is_disabled": 0, "name": "27f8149f9d9753ebc1fb9917459c8a9d", "fusion_lat": 0.0, "rental_uris": {"ios": "https://dc.lft.to/lastmile_qr_scan", "android": "https://dc.lft.to/lastmile_qr_scan"}, "lon": -77.00766216666666, "type": "electric_bike"}, {"bike_id": "bfc94d7f4c1b9b85e19d3018a1316d0b", "is_reserved": 0, "fusion_lon": 0.0, "lat": 38.92057833333333, "is_disabled": 0, "name": "bfc94d7f4c1b9b85e19d3018a1316d0b", "fusion_lat": 0.0, "rental_uris": {"ios": "https://dc.lft.to/lastmile_qr_scan", "android": "https://dc.lft.to/lastmile_qr_scan"}, "lon": -77.02410516666667, "type": "electric_scooter"}, {"bike_id": "9f9bb3d237af14a791d2a86737da8750", "is_reserved": 0, "fusion_lon": 0.0, "lat": 38.904975666666665, "is_disabled": 0, "name": "9f9bb3d237af14a791d2a86737da8750", "fusion_lat": 0.0, "rental_uris": {"ios": "https://dc.lft.to/lastmile_qr_scan", "android": "https://dc.lft.to/lastmile_qr_scan"}, "lon": -76.9901185, "type": "electric_scooter"}, {"bike_id": "7c4c97c89a95b62eacb41b2049ca6095", "is_reserved": 0, "fusion_lon": 0.0, "lat": 38.9048805, "is_disabled": 0, "name": "7c4c97c89a95b62eacb41b2049ca6095", "fusion_lat": 0.0, "rental_uris": {"ios": "https://dc.lft.to/lastmile_qr_scan", "android": "https://dc.lft.to/lastmile_qr_scan"}, "lon": -77.04660966666667, "type": "electric_scooter"}, {"bike_id": "ebf71dbaf95bf83981c348bc51e14e90", "is_reserved": 0, "fusion_lon": 0.0, "lat": 38.91954366666667, "is_disabled": 0, "name": "ebf71dbaf95bf83981c348bc51e14e90", "fusion_lat": 0.0, "rental_uris": {"ios": "https://dc.lft.to/lastmile_qr_scan", "android": "https://dc.lft.to/lastmile_qr_scan"}, "lon": -77.01472583333333, "type": "electric_scooter"}, {"bike_id": "a33b18fcfe0f3c20c06f5d8c7f1334cd", "is_reserved": 0, "fusion_lon": 0.0, "lat": 38.904113333333335, "is_disabled": 0, "name": "a33b18fcfe0f3c20c06f5d8c7f1334cd", "fusion_lat": 0.0, "rental_uris": {"ios": "https://dc.lft.to/lastmile_qr_scan", "android": "https://dc.lft.to/lastmile_qr_scan"}, "lon": -77.03264733333333, "type": "electric_scooter"}, {"bike_id": "83c04d854f3bd9d7f2cebeab839baa09", "is_reserved": 0, "fusion_lon": 0.0, "lat": 38.920298333333335, "is_disabled": 0, "name": "83c04d854f3bd9d7f2cebeab839baa09", "fusion_lat": 0.0, "rental_uris": {"ios": "https://dc.lft.to/lastmile_qr_scan", "android": "https://dc.lft.to/lastmile_qr_scan"}, "lon": -77.03109266666667, "type": "electric_scooter"}, {"bike_id": "f3e867be87ee24f9bdd1a6b0a79fe713", "is_reserved": 0, "fusion_lon": 0.0, "lat": 38.892228833333334, "is_disabled": 0, "name": "f3e867be87ee24f9bdd1a6b0a79fe713", "fusion_lat": 0.0, "rental_uris": {"ios": "https://dc.lft.to/lastmile_qr_scan", "android": "https://dc.lft.to/lastmile_qr_scan"}, "lon": -77.046493, "type": "electric_scooter"}, {"bike_id": "98c9279d53573e991b08ebbad9b98f12", "is_reserved": 0, "fusion_lon": 0.0, "lat": 38.904433, "is_disabled": 0, "name": "98c9279d53573e991b08ebbad9b98f12", "fusion_lat": 0.0, "rental_uris": {"ios": "https://dc.lft.to/lastmile_qr_scan", "android": "https://dc.lft.to/lastmile_qr_scan"}, "lon": -77.03467316666666, "type": "electric_scooter"}, {"bike_id": "5354de0ee0c1cfa089b3828147cabb34", "is_reserved": 0, "fusion_lon": 0.0, "lat": 38.891917166666666, "is_disabled": 0, "name": "5354de0ee0c1cfa089b3828147cabb34", "fusion_lat": 0.0, "rental_uris": {"ios": "https://dc.lft.to/lastmile_qr_scan", "android": "https://dc.lft.to/lastmile_qr_scan"}, "lon": -77.0283325, "type": "electric_scooter"}, {"bike_id": "fccb2249c361d52a6c08e5d6aa661f32", "is_reserved": 0, "fusion_lon": 0.0, "lat": 38.901673833333334, "is_disabled": 0, "name": "fccb2249c361d52a6c08e5d6aa661f32", "fusion_lat": 0.0, "rental_uris": {"ios": "https://dc.lft.to/lastmile_qr_scan", "android": "https://dc.lft.to/lastmile_qr_scan"}, "lon": -77.000115, "type": "electric_scooter"}, {"bike_id": "75af4ca512d93be32bf746a013410f19", "is_reserved": 0, "fusion_lon": 0.0, "lat": 38.902414, "is_disabled": 0, "name": "75af4ca512d93be32bf746a013410f19", "fusion_lat": 0.0, "rental_uris": {"ios": "https://dc.lft.to/lastmile_qr_scan", "android": "https://dc.lft.to/lastmile_qr_scan"}, "lon": -77.002005, "type": "electric_scooter"}, {"bike_id": "fb8c6cf2cb5334752d3a86e944511f4d", "is_reserved": 0, "fusion_lon": 0.0, "lat": 38.9206205, "is_disabled": 0, "name": "fb8c6cf2cb5334752d3a86e944511f4d", "fusion_lat": 0.0, "rental_uris": {"ios": "https://dc.lft.to/lastmile_qr_scan", "android": "https://dc.lft.to/lastmile_qr_scan"}, "lon": -77.02410916666666, "type": "electric_scooter"}, {"bike_id": "41c4e54f1602dca21674f1b4d88a1f43", "is_reserved": 0, "fusion_lon": 0.0, "lat": 38.93331883333333, "is_disabled": 0, "name": "41c4e54f1602dca21674f1b4d88a1f43", "fusion_lat": 0.0, "rental_uris": {"ios": "https://dc.lft.to/lastmile_qr_scan", "android": "https://dc.lft.to/lastmile_qr_scan"}, "lon": -77.03268366666667, "type": "electric_scooter"}, {"bike_id": "040c2d84af53a9fe951289b6c9c8c711", "is_reserved": 0, "fusion_lon": 0.0, "lat": 38.9040895, "is_disabled": 0, "name": "040c2d84af53a9fe951289b6c9c8c711", "fusion_lat": 0.0, "rental_uris": {"ios": "https://dc.lft.to/lastmile_qr_scan", "android": "https://dc.lft.to/lastmile_qr_scan"}, "lon": -77.04374933333334, "type": "electric_scooter"}, {"bike_id": "774a94351cbe3eb3a948b201a730ff5e", "is_reserved": 0, "fusion_lon": 0.0, "lat": 38.88403733333333, "is_disabled": 0, "name": "774a94351cbe3eb3a948b201a730ff5e", "fusion_lat": 0.0, "rental_uris": {"ios": "https://dc.lft.to/lastmile_qr_scan", "android": "https://dc.lft.to/lastmile_qr_scan"}, "lon": -77.03028616666667, "type": "electric_scooter"}, {"bike_id": "5aca31456a55cef9fcc330477c43bf58", "is_reserved": 0, "fusion_lon": 0.0, "lat": 38.8922245, "is_disabled": 0, "name": "5aca31456a55cef9fcc330477c43bf58", "fusion_lat": 0.0, "rental_uris": {"ios": "https://dc.lft.to/lastmile_qr_scan", "android": "https://dc.lft.to/lastmile_qr_scan"}, "lon": -77.04649866666666, "type": "electric_scooter"}, {"bike_id": "6f9e5d6361b3b65aacc9acd675412fa1", "is_reserved": 0, "fusion_lon": 0.0, "lat": 38.864170333333334, "is_disabled": 0, "name": "6f9e5d6361b3b65aacc9acd675412fa1", "fusion_lat": 0.0, "rental_uris": {"ios": "https://dc.lft.to/lastmile_qr_scan", "android": "https://dc.lft.to/lastmile_qr_scan"}, "lon": -77.01344616666667, "type": "electric_scooter"}, {"bike_id": "a66185c7b0de0dc20dc7864c1927abbc", "is_reserved": 0, "fusion_lon": 0.0, "lat": 38.904479, "is_disabled": 0, "name": "a66185c7b0de0dc20dc7864c1927abbc", "fusion_lat": 0.0, "rental_uris": {"ios": "https://dc.lft.to/lastmile_qr_scan", "android": "https://dc.lft.to/lastmile_qr_scan"}, "lon": -77.05924616666667, "type": "electric_scooter"}, {"bike_id": "1601584cb7d0e4a3c13199571f8853b7", "is_reserved": 0, "fusion_lon": 0.0, "lat": 38.9053835, "is_disabled": 0, "name": "1601584cb7d0e4a3c13199571f8853b7", "fusion_lat": 0.0, "rental_uris": {"ios": "https://dc.lft.to/lastmile_qr_scan", "android": "https://dc.lft.to/lastmile_qr_scan"}, "lon": -77.05037866666666, "type": "electric_scooter"}, {"bike_id": "b611e7be49785a4d0f5c8b5711ceeb14", "is_reserved": 0, "fusion_lon": 0.0, "lat": 38.92605966666667, "is_disabled": 0, "name": "b611e7be49785a4d0f5c8b5711ceeb14", "fusion_lat": 0.0, "rental_uris": {"ios": "https://dc.lft.to/lastmile_qr_scan", "android": "https://dc.lft.to/lastmile_qr_scan"}, "lon": -77.03958283333333, "type": "electric_scooter"}, {"bike_id": "28d5835cb646bc94cd8696aa7d14374a", "is_reserved": 0, "fusion_lon": 0.0, "lat": 38.90506716666667, "is_disabled": 0, "name": "28d5835cb646bc94cd8696aa7d14374a", "fusion_lat": 0.0, "rental_uris": {"ios": "https://dc.lft.to/lastmile_qr_scan", "android": "https://dc.lft.to/lastmile_qr_scan"}, "lon": -77.060259, "type": "electric_bike"}, {"bike_id": "d6c2d3a7eb853fb48397151dc544b3b9", "is_reserved": 0, "fusion_lon": 0.0, "lat": 38.8696025, "is_disabled": 0, "name": "d6c2d3a7eb853fb48397151dc544b3b9", "fusion_lat": 0.0, "rental_uris": {"ios": "https://dc.lft.to/lastmile_qr_scan", "android": "https://dc.lft.to/lastmile_qr_scan"}, "lon": -77.013739, "type": "electric_scooter"}, {"bike_id": "18d68cec5952335dd8abd23fc979831c", "is_reserved": 0, "fusion_lon": 0.0, "lat": 38.89300683333333, "is_disabled": 0, "name": "18d68cec5952335dd8abd23fc979831c", "fusion_lat": 0.0, "rental_uris": {"ios": "https://dc.lft.to/lastmile_qr_scan", "android": "https://dc.lft.to/lastmile_qr_scan"}, "lon": -77.0123815, "type": "electric_scooter"}, {"bike_id": "67f7805b4543da8983df458cc73857e1", "is_reserved": 0, "fusion_lon": 0.0, "lat": 38.904581666666665, "is_disabled": 0, "name": "67f7805b4543da8983df458cc73857e1", "fusion_lat": 0.0, "rental_uris": {"ios": "https://dc.lft.to/lastmile_qr_scan", "android": "https://dc.lft.to/lastmile_qr_scan"}, "lon": -76.99506016666666, "type": "electric_scooter"}, {"bike_id": "74346ddf59fbd3a35f96279bb2813ceb", "is_reserved": 0, "fusion_lon": 0.0, "lat": 38.8960775, "is_disabled": 0, "name": "74346ddf59fbd3a35f96279bb2813ceb", "fusion_lat": 0.0, "rental_uris": {"ios": "https://dc.lft.to/lastmile_qr_scan", "android": "https://dc.lft.to/lastmile_qr_scan"}, "lon": -77.04505533333334, "type": "electric_scooter"}, {"bike_id": "a946f4858839264a1dff052af58293d3", "is_reserved": 0, "fusion_lon": 0.0, "lat": 38.9207475, "is_disabled": 0, "name": "a946f4858839264a1dff052af58293d3", "fusion_lat": 0.0, "rental_uris": {"ios": "https://dc.lft.to/lastmile_qr_scan", "android": "https://dc.lft.to/lastmile_qr_scan"}, "lon": -77.02392766666667, "type": "electric_scooter"}, {"bike_id": "80c758ef780b8ad36c08bb18f7d53b26", "is_reserved": 0, "fusion_lon": 0.0, "lat": 38.88654, "is_disabled": 0, "name": "80c758ef780b8ad36c08bb18f7d53b26", "fusion_lat": 0.0, "rental_uris": {"ios": "https://dc.lft.to/lastmile_qr_scan", "android": "https://dc.lft.to/lastmile_qr_scan"}, "lon": -77.03386, "type": "electric_scooter"}, {"bike_id": "60304d09fd9bd5a34866a831a1fad1f2", "is_reserved": 0, "fusion_lon": 0.0, "lat": 38.96823666666667, "is_disabled": 0, "name": "60304d09fd9bd5a34866a831a1fad1f2", "fusion_lat": 0.0, "rental_uris": {"ios": "https://dc.lft.to/lastmile_qr_scan", "android": "https://dc.lft.to/lastmile_qr_scan"}, "lon": -77.01790216666667, "type": "electric_scooter"}, {"bike_id": "b9987e44ce6b0dcaadbbcf257d9e39e0", "is_reserved": 0, "fusion_lon": 0.0, "lat": 38.92874833333333, "is_disabled": 0, "name": "b9987e44ce6b0dcaadbbcf257d9e39e0", "fusion_lat": 0.0, "rental_uris": {"ios": "https://dc.lft.to/lastmile_qr_scan", "android": "https://dc.lft.to/lastmile_qr_scan"}, "lon": -77.0404575, "type": "electric_scooter"}, {"bike_id": "eb535edb4e1efd3d23d3d46f5c7f6109", "is_reserved": 0, "fusion_lon": 0.0, "lat": 38.90032983333333, "is_disabled": 0, "name": "eb535edb4e1efd3d23d3d46f5c7f6109", "fusion_lat": 0.0, "rental_uris": {"ios": "https://dc.lft.to/lastmile_qr_scan", "android": "https://dc.lft.to/lastmile_qr_scan"}, "lon": -76.99752, "type": "electric_scooter"}, {"bike_id": "f2cb2c3e56a10358acfef1958afd2732", "is_reserved": 0, "fusion_lon": 0.0, "lat": 38.86505916666667, "is_disabled": 0, "name": "f2cb2c3e56a10358acfef1958afd2732", "fusion_lat": 0.0, "rental_uris": {"ios": "https://dc.lft.to/lastmile_qr_scan", "android": "https://dc.lft.to/lastmile_qr_scan"}, "lon": -76.9897715, "type": "electric_scooter"}, {"bike_id": "fb3b584de90d684b12ca025d4c2370ac", "is_reserved": 0, "fusion_lon": 0.0, "lat": 38.88033166666666, "is_disabled": 0, "name": "fb3b584de90d684b12ca025d4c2370ac", "fusion_lat": 0.0, "rental_uris": {"ios": "https://dc.lft.to/lastmile_qr_scan", "android": "https://dc.lft.to/lastmile_qr_scan"},