{"data": {"bikes": [{"lon": -76.99190416666667, "bike_id": "5066aa0da87c70e5c18a1505c7a940c7", "lat": 38.88269016666667, "fusion_lon": 0.0, "fusion_lat": 0.0, "type": "electric_scooter", "name": "5066aa0da87c70e5c18a1505c7a940c7", "is_disabled": 0, "rental_uris": {"ios": "https://dc.lft.to/lastmile_qr_scan", "android": "https://dc.lft.to/lastmile_qr_scan"}, "is_reserved": 0}, {"lon": -77.03222816666667, "bike_id": "7d24a5e8e1e37460c33c2801eb662e35", "lat": 38.90093866666667, "fusion_lon": 0.0, "fusion_lat": 0.0, "type": "electric_scooter", "name": "7d24a5e8e1e37460c33c2801eb662e35", "is_disabled": 0, "rental_uris": {"ios": "https://dc.lft.to/lastmile_qr_scan", "android": "https://dc.lft.to/lastmile_qr_scan"}, "is_reserved": 0}, {"lon": -77.03257233333333, "bike_id": "919436af8bc0853da6e7e2a90f631843", "lat": 38.92892416666667, "fusion_lon": 0.0, "fusion_lat": 0.0, "type": "electric_scooter", "name": "919436af8bc0853da6e7e2a90f631843", "is_disabled": 0, "rental_uris": {"ios": "https://dc.lft.to/lastmile_qr_scan", "android": "https://dc.lft.to/lastmile_qr_scan"}, "is_reserved": 0}, {"lon": -76.97532166666667, "bike_id": "fb3db350d811ced619a6dba82031c93e", "lat": 38.9033695, "fusion_lon": 0.0, "fusion_lat": 0.0, "type": "electric_bike", "name": "fb3db350d811ced619a6dba82031c93e", "is_disabled": 0, "rental_uris": {"ios": "https://dc.lft.to/lastmile_qr_scan", "android": "https://dc.lft.to/lastmile_qr_scan"}, "is_reserved": 0}, {"lon": -76.98496283333333, "bike_id": "3f477a5436c316a09467c5c5220431b5", "lat": 38.879464166666665, "fusion_lon": 0.0, "fusion_lat": 0.0, "type": "electric_bike", "name": "3f477a5436c316a09467c5c5220431b5", "is_disabled": 0, "rental_uris": {"ios": "https://dc.lft.to/lastmile_qr_scan", "android": "https://dc.lft.to/lastmile_qr_scan"}, "is_reserved": 0}, {"lon": -77.0599845, "bike_id": "1a0c92509daa88cb674b440fadde4993", "lat": 38.940846666666665, "fusion_lon": 0.0, "fusion_lat": 0.0, "type": "electric_scooter", "name": "1a0c92509daa88cb674b440fadde4993", "is_disabled": 0, "rental_uris": {"ios": "https://dc.lft.to/lastmile_qr_scan", "android": "https://dc.lft.to/lastmile_qr_scan"}, "is_reserved": 0}, {"lon": -76.98267216666666, "bike_id": "706709326af6fc61a241e862d813537e", "lat": 38.88534933333333, "fusion_lon": 0.0, "fusion_lat": 0.0, "type": "electric_scooter", "name": "706709326af6fc61a241e862d813537e", "is_disabled": 0, "rental_uris": {"ios": "https://dc.lft.to/lastmile_qr_scan", "android": "https://dc.lft.to/lastmile_qr_scan"}, "is_reserved": 0}, {"lon": -77.01506566666667, "bike_id": "67330d225c387d876c6669e523a8a85c", "lat": 38.918631, "fusion_lon": 0.0, "fusion_lat": 0.0, "type": "electric_scooter", "name": "67330d225c387d876c6669e523a8a85c", "is_disabled": 0, "rental_uris": {"ios": "https://dc.lft.to/lastmile_qr_scan", "android": "https://dc.lft.to/lastmile_qr_scan"}, "is_reserved": 0}, {"lon": -77.04455133333333, "bike_id": "9d36b49bd553a875cccfa7649b861d22", "lat": 38.90834, "fusion_lon": 0.0, "fusion_lat": 0.0, "type": "electric_scooter", "name": "9d36b49bd553a875cccfa7649b861d22", "is_disabled": 0, "rental_uris": {"ios": "https://dc.lft.to/lastmile_qr_scan", "android": "https://dc.lft.to/lastmile_qr_scan"}, "is_reserved": 0}, {"lon": -77.00214383333334, "bike_id": "affe7f29631c0e2af9e54540fbd677f1", "lat": 38.900317666666666, "fusion_lon": 0.0, "fusion_lat": 0.0, "type": "electric_scooter", "name": "affe7f29631c0e2af9e54540fbd677f1", "is_disabled": 0, "rental_uris": {"ios": "https://dc.lft.to/lastmile_qr_scan", "android": "https://dc.lft.to/lastmile_qr_scan"}, "is_reserved": 0}, {"lon": -77.0252995, "bike_id": "26a1dc3e2aebcd0d692adbdeab3b6975", "lat": 38.932902, "fusion_lon": 0.0, "fusion_lat": 0.0, "type": "electric_scooter", "name": "26a1dc3e2aebcd0d692adbdeab3b6975", "is_disabled": 0, "rental_uris": {"ios": "https://dc.lft.to/lastmile_qr_scan", "android": "https://dc.lft.to/lastmile_qr_scan"}, "is_reserved": 0}, {"lon": -76.98560866666666, "bike_id": "4e2664b665f721651234965ab521b275", "lat": 38.900075333333334, "fusion_lon": 0.0, "fusion_lat": 0.0, "type": "electric_scooter", "name": "4e2664b665f721651234965ab521b275", "is_disabled": 0, "rental_uris": {"ios": "https://dc.lft.to/lastmile_qr_scan", "android": "https://dc.lft.to/lastmile_qr_scan"}, "is_reserved": 0}, {"lon": -77.036469, "bike_id": "ae2fba3151b4ed17ebf5068b366d1892", "lat": 38.9068315, "fusion_lon": 0.0, "fusion_lat": 0.0, "type": "electric_scooter", "name": "ae2fba3151b4ed17ebf5068b366d1892", "is_disabled": 0, "rental_uris": {"ios": "https://dc.lft.to/lastmile_qr_scan", "android": "https://dc.lft.to/lastmile_qr_scan"}, "is_reserved": 0}, {"lon": -77.02545716666667, "bike_id": "71ee9af048faa823c7b8fa8a612f0cf5", "lat": 38.914234, "fusion_lon": 0.0, "fusion_lat": 0.0, "type": "electric_scooter", "name": "71ee9af048faa823c7b8fa8a612f0cf5", "is_disabled": 0, "rental_uris": {"ios": "https://dc.lft.to/lastmile_qr_scan", "android": "https://dc.lft.to/lastmile_qr_scan"}, "is_reserved": 0}, {"lon": -77.00565366666666, "bike_id": "230c62c114be6fd024c0a02b2cb17160", "lat": 38.905685, "fusion_lon": 0.0, "fusion_lat": 0.0, "type": "electric_scooter", "name": "230c62c114be6fd024c0a02b2cb17160", "is_disabled": 0, "rental_uris": {"ios": "https://dc.lft.to/lastmile_qr_scan", "android": "https://dc.lft.to/lastmile_qr_scan"}, "is_reserved": 0}, {"lon": -76.9978015, "bike_id": "527caca3145791a7c589a6812a3cc28e", "lat": 38.844321666666666, "fusion_lon": 0.0, "fusion_lat": 0.0, "type": "electric_scooter", "name": "527caca3145791a7c589a6812a3cc28e", "is_disabled": 0, "rental_uris": {"ios": "https://dc.lft.to/lastmile_qr_scan", "android": "https://dc.lft.to/lastmile_qr_scan"}, "is_reserved": 0}, {"lon": -77.02671116666667, "bike_id": "eed7c60e7b247857e13c6ec3a4c96b58", "lat": 38.910594833333334, "fusion_lon": 0.0, "fusion_lat": 0.0, "type": "electric_scooter", "name": "eed7c60e7b247857e13c6ec3a4c96b58", "is_disabled": 0, "rental_uris": {"ios": "https://dc.lft.to/lastmile_qr_scan", "android": "https://dc.lft.to/lastmile_qr_scan"}, "is_reserved": 0}, {"lon": -77.020504, "bike_id": "b3c20404dc37bf2f4502f23145d75601", "lat": 38.93278866666667, "fusion_lon": 0.0, "fusion_lat": 0.0, "type": "electric_bike", "name": "b3c20404dc37bf2f4502f23145d75601", "is_disabled": 0, "rental_uris": {"ios": "https://dc.lft.to/lastmile_qr_scan", "android": "https://dc.lft.to/lastmile_qr_scan"}, "is_reserved": 0}, {"lon": -77.038246, "bike_id": "e040c2cc187e9da91f73e901e6f823b8", "lat": 38.9079475, "fusion_lon": 0.0, "fusion_lat": 0.0, "type": "electric_scooter", "name": "e040c2cc187e9da91f73e901e6f823b8", "is_disabled": 0, "rental_uris": {"ios": "https://dc.lft.to/lastmile_qr_scan", "android": "https://dc.lft.to/lastmile_qr_scan"}, "is_reserved": 0}, {"lon": -76.98092916666667, "bike_id": "04ffb31def5a53da2cabec19c500e3a2", "lat": 38.903856, "fusion_lon": 0.0, "fusion_lat": 0.0, "type": "electric_scooter", "name": "04ffb31def5a53da2cabec19c500e3a2", "is_disabled": 0, "rental_uris": {"ios": "https://dc.lft.to/lastmile_qr_scan", "android": "https://dc.lft.to/lastmile_qr_scan"}, "is_reserved": 0}, {"lon": -77.02739266666667, "bike_id": "92014b4336fd24fdda222fbb3d7ee41e", "lat": 38.89994333333333, "fusion_lon": 0.0, "fusion_lat": 0.0, "type": "electric_scooter", "name": "92014b4336fd24fdda222fbb3d7ee41e", "is_disabled": 0, "rental_uris": {"ios": "https://dc.lft.to/lastmile_qr_scan", "android": "https://dc.lft.to/lastmile_qr_scan"}, "is_reserved": 0}, {"lon": -77.02602566666667, "bike_id": "07833f23be3d2f8cb21edd4c28414c07", "lat": 38.90006866666667, "fusion_lon": 0.0, "fusion_lat": 0.0, "type": "electric_scooter", "name": "07833f23be3d2f8cb21edd4c28414c07", "is_disabled": 0, "rental_uris": {"ios": "https://dc.lft.to/lastmile_qr_scan", "android": "https://dc.lft.to/lastmile_qr_scan"}, "is_reserved": 0}, {"lon": -77.03840033333333, "bike_id": "be89f010387d0c3440b38625acf63303", "lat": 38.909603, "fusion_lon": 0.0, "fusion_lat": 0.0, "type": "electric_scooter", "name": "be89f010387d0c3440b38625acf63303", "is_disabled": 0, "rental_uris": {"ios": "https://dc.lft.to/lastmile_qr_scan", "android": "https://dc.lft.to/lastmile_qr_scan"}, "is_reserved": 0}, {"lon": -77.01136583333333, "bike_id": "9553155cc7115e1b6b139a1087e6ed79", "lat": 38.90730216666667, "fusion_lon": 0.0, "fusion_lat": 0.0, "type": "electric_scooter", "name": "9553155cc7115e1b6b139a1087e6ed79", "is_disabled": 0, "rental_uris": {"ios": "https://dc.lft.to/lastmile_qr_scan", "android": "https://dc.lft.to/lastmile_qr_scan"}, "is_reserved": 0}, {"lon": -77.03662666666666, "bike_id": "26e090debdc598bc4fec21a94e3fe52d", "lat": 38.9283995, "fusion_lon": 0.0, "fusion_lat": 0.0, "type": "electric_scooter", "name": "26e090debdc598bc4fec21a94e3fe52d", "is_disabled": 0, "rental_uris": {"ios": "https://dc.lft.to/lastmile_qr_scan", "android": "https://dc.lft.to/lastmile_qr_scan"}, "is_reserved": 0}, {"lon": -77.02703633333333, "bike_id": "f3b1e22c17c3e285185872cae4e0ed6c", "lat": 38.90784416666666, "fusion_lon": 0.0, "fusion_lat": 0.0, "type": "electric_scooter", "name": "f3b1e22c17c3e285185872cae4e0ed6c", "is_disabled": 0, "rental_uris": {"ios": "https://dc.lft.to/lastmile_qr_scan", "android": "https://dc.lft.to/lastmile_qr_scan"}, "is_reserved": 0}, {"lon": -77.03631916666667, "bike_id": "7fa639bedba4e7742b9b5967206addfb", "lat": 38.92410183333333, "fusion_lon": 0.0, "fusion_lat": 0.0, "type": "electric_scooter", "name": "7fa639bedba4e7742b9b5967206addfb", "is_disabled": 0, "rental_uris": {"ios": "https://dc.lft.to/lastmile_qr_scan", "android": "https://dc.lft.to/lastmile_qr_scan"}, "is_reserved": 0}, {"lon": -77.0342505, "bike_id": "bc5e3bc473b2dac8688159669f238341", "lat": 38.91928816666667, "fusion_lon": 0.0, "fusion_lat": 0.0, "type": "electric_scooter", "name": "bc5e3bc473b2dac8688159669f238341", "is_disabled": 0, "rental_uris": {"ios": "https://dc.lft.to/lastmile_qr_scan", "android": "https://dc.lft.to/lastmile_qr_scan"}, "is_reserved": 0}, {"lon": -76.97239733333333, "bike_id": "56336b567dd1362ef58feacdc56be214", "lat": 38.94907833333333, "fusion_lon": 0.0, "fusion_lat": 0.0, "type": "electric_bike", "name": "56336b567dd1362ef58feacdc56be214", "is_disabled": 0, "rental_uris": {"ios": "https://dc.lft.to/lastmile_qr_scan", "android": "https://dc.lft.to/lastmile_qr_scan"}, "is_reserved": 0}, {"lon": -77.00657733333334, "bike_id": "c8ed8e7a73dcb773db16017793ff77b4", "lat": 38.944656333333334, "fusion_lon": 0.0, "fusion_lat": 0.0, "type": "electric_scooter", "name": "c8ed8e7a73dcb773db16017793ff77b4", "is_disabled": 0, "rental_uris": {"ios": "https://dc.lft.to/lastmile_qr_scan", "android": "https://dc.lft.to/lastmile_qr_scan"}, "is_reserved": 0}, {"lon": -77.02869933333334, "bike_id": "9e1c01f611a8f8ed2a99da9315e55bf3", "lat": 38.885002166666666, "fusion_lon": 0.0, "fusion_lat": 0.0, "type": "electric_scooter", "name": "9e1c01f611a8f8ed2a99da9315e55bf3", "is_disabled": 0, "rental_uris": {"ios": "https://dc.lft.to/lastmile_qr_scan", "android": "https://dc.lft.to/lastmile_qr_scan"}, "is_reserved": 0}, {"lon": -77.02925266666666, "bike_id": "db5bf008ed6e1c80670d5f9e5779614f", "lat": 38.9346695, "fusion_lon": 0.0, "fusion_lat": 0.0, "type": "electric_scooter", "name": "db5bf008ed6e1c80670d5f9e5779614f", "is_disabled": 0, "rental_uris": {"ios": "https://dc.lft.to/lastmile_qr_scan", "android": "https://dc.lft.to/lastmile_qr_scan"}, "is_reserved": 0}, {"lon": -77.00676566666667, "bike_id": "1ccaf8291f5cad864a8e9d17ae861acb", "lat": 38.90012616666667, "fusion_lon": 0.0, "fusion_lat": 0.0, "type": "electric_scooter", "name": "1ccaf8291f5cad864a8e9d17ae861acb", "is_disabled": 0, "rental_uris": {"ios": "https://dc.lft.to/lastmile_qr_scan", "android": "https://dc.lft.to/lastmile_qr_scan"}, "is_reserved": 0}, {"lon": -77.05462616666667, "bike_id": "77e595f94f773269c010cdaf6a7b32d0", "lat": 38.85550683333334, "fusion_lon": 0.0, "fusion_lat": 0.0, "type": "electric_bike", "name": "77e595f94f773269c010cdaf6a7b32d0", "is_disabled": 0, "rental_uris": {"ios": "https://dc.lft.to/lastmile_qr_scan", "android": "https://dc.lft.to/lastmile_qr_scan"}, "is_reserved": 0}, {"lon": -77.0433465, "bike_id": "60411e76391d5c7d65a4762849011787", "lat": 38.91334233333333, "fusion_lon": 0.0, "fusion_lat": 0.0, "type": "electric_scooter", "name": "60411e76391d5c7d65a4762849011787", "is_disabled": 0, "rental_uris": {"ios": "https://dc.lft.to/lastmile_qr_scan", "android": "https://dc.lft.to/lastmile_qr_scan"}, "is_reserved": 0}, {"lon": -77.01463166666667, "bike_id": "60ccb25d53fe7486f77ce37bab89472e", "lat": 38.876691666666666, "fusion_lon": 0.0, "fusion_lat": 0.0, "type": "electric_bike", "name": "60ccb25d53fe7486f77ce37bab89472e", "is_disabled": 0, "rental_uris": {"ios": "https://dc.lft.to/lastmile_qr_scan", "android": "https://dc.lft.to/lastmile_qr_scan"}, "is_reserved": 0}, {"lon": -77.12653783333333, "bike_id": "c558bab412d7d8e6dd52090e13168bc6", "lat": 38.8151555, "fusion_lon": 0.0, "fusion_lat": 0.0, "type": "electric_bike", "name": "c558bab412d7d8e6dd52090e13168bc6", "is_disabled": 0, "rental_uris": {"ios": "https://dc.lft.to/lastmile_qr_scan", "android": "https://dc.lft.to/lastmile_qr_scan"}, "is_reserved": 0}, {"lon": -77.039085, "bike_id": "f39c124fb934022e0d7f9d0c82768a7f", "lat": 38.9141835, "fusion_lon": 0.0, "fusion_lat": 0.0, "type": "electric_scooter", "name": "f39c124fb934022e0d7f9d0c82768a7f", "is_disabled": 0, "rental_uris": {"ios": "https://dc.lft.to/lastmile_qr_scan", "android": "https://dc.lft.to/lastmile_qr_scan"}, "is_reserved": 0}, {"lon": -77.0439275, "bike_id": "01d4052aa6f10dff848903bd4f7ef360", "lat": 38.923181166666666, "fusion_lon": 0.0, "fusion_lat": 0.0, "type": "electric_scooter", "name": "01d4052aa6f10dff848903bd4f7ef360", "is_disabled": 0, "rental_uris": {"ios": "https://dc.lft.to/lastmile_qr_scan", "android": "https://dc.lft.to/lastmile_qr_scan"}, "is_reserved": 0}, {"lon": -77.03251866666666, "bike_id": "a75848f53c4cc1dcb05d4414ae667c12", "lat": 38.90968433333333, "fusion_lon": 0.0, "fusion_lat": 0.0, "type": "electric_scooter", "name": "a75848f53c4cc1dcb05d4414ae667c12", "is_disabled": 0, "rental_uris": {"ios": "https://dc.lft.to/lastmile_qr_scan", "android": "https://dc.lft.to/lastmile_qr_scan"}, "is_reserved": 0}, {"lon": -77.02176983333334, "bike_id": "fcf12b90cb9d6630e3cba6cddee67151", "lat": 38.9190545, "fusion_lon": 0.0, "fusion_lat": 0.0, "type": "electric_scooter", "name": "fcf12b90cb9d6630e3cba6cddee67151", "is_disabled": 0, "rental_uris": {"ios": "https://dc.lft.to/lastmile_qr_scan", "android": "https://dc.lft.to/lastmile_qr_scan"}, "is_reserved": 0}, {"lon": -77.02850633333334, "bike_id": "bd9da5ca8736f3b9c067dabb524cf21b", "lat": 38.956299666666666, "fusion_lon": 0.0, "fusion_lat": 0.0, "type": "electric_scooter", "name": "bd9da5ca8736f3b9c067dabb524cf21b", "is_disabled": 0, "rental_uris": {"ios": "https://dc.lft.to/lastmile_qr_scan", "android": "https://dc.lft.to/lastmile_qr_scan"}, "is_reserved": 0}, {"lon": -77.04874816666667, "bike_id": "8aa8f9c1141c61d52c2ca7f534bc21a8", "lat": 38.91561133333333, "fusion_lon": 0.0, "fusion_lat": 0.0, "type": "electric_scooter", "name": "8aa8f9c1141c61d52c2ca7f534bc21a8", "is_disabled": 0, "rental_uris": {"ios": "https://dc.lft.to/lastmile_qr_scan", "android": "https://dc.lft.to/lastmile_qr_scan"}, "is_reserved": 0}, {"lon": -77.0398435, "bike_id": "e14a9eb81c89d489fc150b04c7be9805", "lat": 38.92028483333333, "fusion_lon": 0.0, "fusion_lat": 0.0, "type": "electric_scooter", "name": "e14a9eb81c89d489fc150b04c7be9805", "is_disabled": 0, "rental_uris": {"ios": "https://dc.lft.to/lastmile_qr_scan", "android": "https://dc.lft.to/lastmile_qr_scan"}, "is_reserved": 0}, {"lon": -77.080672, "bike_id": "2e48647a4018b76480cd0a99bd0097e0", "lat": 39.052817, "fusion_lon": 0.0, "fusion_lat": 0.0, "type": "electric_bike", "name": "2e48647a4018b76480cd0a99bd0097e0", "is_disabled": 0, "rental_uris": {"ios": "https://dc.lft.to/lastmile_qr_scan", "android": "https://dc.lft.to/lastmile_qr_scan"}, "is_reserved": 0}, {"lon": -76.990197, "bike_id": "8addddced3639989e9cfd1d5521953aa", "lat": 38.86646433333333, "fusion_lon": 0.0, "fusion_lat": 0.0, "type": "electric_scooter", "name": "8addddced3639989e9cfd1d5521953aa", "is_disabled": 0, "rental_uris": {"ios": "https://dc.lft.to/lastmile_qr_scan", "android": "https://dc.lft.to/lastmile_qr_scan"}, "is_reserved": 0}, {"lon": -77.04176216666667, "bike_id": "c832d273bd1f636fa34c7c982b579747", "lat": 38.906630666666665, "fusion_lon": 0.0, "fusion_lat": 0.0, "type": "electric_scooter", "name": "c832d273bd1f636fa34c7c982b579747", "is_disabled": 0, "rental_uris": {"ios": "https://dc.lft.to/lastmile_qr_scan", "android": "https://dc.lft.to/lastmile_qr_scan"}, "is_reserved": 0}, {"lon": -77.02461216666667, "bike_id": "31622f006b95f2bfaf28b8fcbfa9b793", "lat": 38.938889, "fusion_lon": 0.0, "fusion_lat": 0.0, "type": "electric_scooter", "name": "31622f006b95f2bfaf28b8fcbfa9b793", "is_disabled": 0, "rental_uris": {"ios": "https://dc.lft.to/lastmile_qr_scan", "android": "https://dc.lft.to/lastmile_qr_scan"}, "is_reserved": 0}, {"lon": -77.02065116666667, "bike_id": "45efcbc690143947e1f77179c45c2efa", "lat": 38.89733616666667, "fusion_lon": 0.0, "fusion_lat": 0.0, "type": "electric_scooter", "name": "45efcbc690143947e1f77179c45c2efa", "is_disabled": 0, "rental_uris": {"ios": "https://dc.lft.to/lastmile_qr_scan", "android": "https://dc.lft.to/lastmile_qr_scan"}, "is_reserved": 0}, {"lon": -77.02805316666667, "bike_id": "ced4b4482a28160571f33bbf2a53c671", "lat": 38.93144916666667, "fusion_lon": 0.0, "fusion_lat": 0.0, "type": "electric_scooter", "name": "ced4b4482a28160571f33bbf2a53c671", "is_disabled": 0, "rental_uris": {"ios": "https://dc.lft.to/lastmile_qr_scan", "android": "https://dc.lft.to/lastmile_qr_scan"}, "is_reserved": 0}, {"lon": -76.97477516666666, "bike_id": "bfbf2c232c427867419d7c8711e0ede4", "lat": 38.903525, "fusion_lon": 0.0, "fusion_lat": 0.0, "type": "electric_scooter", "name": "bfbf2c232c427867419d7c8711e0ede4", "is_disabled": 0, "rental_uris": {"ios": "https://dc.lft.to/lastmile_qr_scan", "android": "https://dc.lft.to/lastmile_qr_scan"}, "is_reserved": 0}, {"lon": -77.00679166666667, "bike_id": "f85c0055921317529d69e20df3aaa119", "lat": 38.90014983333333, "fusion_lon": 0.0, "fusion_lat": 0.0, "type": "electric_scooter", "name": "f85c0055921317529d69e20df3aaa119", "is_disabled": 0, "rental_uris": {"ios": "https://dc.lft.to/lastmile_qr_scan", "android": "https://dc.lft.to/lastmile_qr_scan"}, "is_reserved": 0}, {"lon": -77.03419466666666, "bike_id": "0297a40622f062c285f356f6ee1813c6", "lat": 38.906991833333336, "fusion_lon": 0.0, "fusion_lat": 0.0, "type": "electric_scooter", "name": "0297a40622f062c285f356f6ee1813c6", "is_disabled": 0, "rental_uris": {"ios": "https://dc.lft.to/lastmile_qr_scan", "android": "https://dc.lft.to/lastmile_qr_scan"}, "is_reserved": 0}, {"lon": -77.0516985, "bike_id": "f12413a43bf42f1faf49a98ba8d0b545", "lat": 38.842853166666664, "fusion_lon": 0.0, "fusion_lat": 0.0, "type": "electric_bike", "name": "f12413a43bf42f1faf49a98ba8d0b545", "is_disabled": 0, "rental_uris": {"ios": "https://dc.lft.to/lastmile_qr_scan", "android": "https://dc.lft.to/lastmile_qr_scan"}, "is_reserved": 0}, {"lon": -77.02630466666666, "bike_id": "9172440746a2758a5dcc12e12b9483f2", "lat": 38.902461833333334, "fusion_lon": 0.0, "fusion_lat": 0.0, "type": "electric_scooter", "name": "9172440746a2758a5dcc12e12b9483f2", "is_disabled": 0, "rental_uris": {"ios": "https://dc.lft.to/lastmile_qr_scan", "android": "https://dc.lft.to/lastmile_qr_scan"}, "is_reserved": 0}, {"lon": -77.03281916666667, "bike_id": "a9e3119063c009d29cc1ce7f1c905da3", "lat": 38.936447, "fusion_lon": 0.0, "fusion_lat": 0.0, "type": "electric_scooter", "name": "a9e3119063c009d29cc1ce7f1c905da3", "is_disabled": 0, "rental_uris": {"ios": "https://dc.lft.to/lastmile_qr_scan", "android": "https://dc.lft.to/lastmile_qr_scan"}, "is_reserved": 0}, {"lon": -76.99166966666667, "bike_id": "4bb3d4115683e61751738b9a54d86656", "lat": 38.909687, "fusion_lon": 0.0, "fusion_lat": 0.0, "type": "electric_scooter", "name": "4bb3d4115683e61751738b9a54d86656", "is_disabled": 0, "rental_uris": {"ios": "https://dc.lft.to/lastmile_qr_scan", "android": "https://dc.lft.to/lastmile_qr_scan"}, "is_reserved": 0}, {"lon": -77.05939366666667, "bike_id": "34ee5a8ca78452c38434aefea598b9f7", "lat": 38.91194216666667, "fusion_lon": 0.0, "fusion_lat": 0.0, "type": "electric_bike", "name": "34ee5a8ca78452c38434aefea598b9f7", "is_disabled": 0, "rental_uris": {"ios": "https://dc.lft.to/lastmile_qr_scan", "android": "https://dc.lft.to/lastmile_qr_scan"}, "is_reserved": 0}, {"lon": -77.07345166666667, "bike_id": "88468213a9b959125119c33784352ba9", "lat": 38.93502933333333, "fusion_lon": 0.0, "fusion_lat": 0.0, "type": "electric_scooter", "name": "88468213a9b959125119c33784352ba9", "is_disabled": 0, "rental_uris": {"ios": "https://dc.lft.to/lastmile_qr_scan", "android": "https://dc.lft.to/lastmile_qr_scan"}, "is_reserved": 0}, {"lon": -77.17838683333333, "bike_id": "aa20954a0eaf31db28ec3928dd39a732", "lat": 39.08856816666667, "fusion_lon": 0.0, "fusion_lat": 0.0, "type": "electric_bike", "name": "aa20954a0eaf31db28ec3928dd39a732", "is_disabled": 0, "rental_uris": {"ios": "https://dc.lft.to/lastmile_qr_scan", "android": "https://dc.lft.to/lastmile_qr_scan"}, "is_reserved": 0}, {"lon": -76.95656266666667, "bike_id": "e57fc35400b9c00e9032a758364af119", "lat": 38.89555, "fusion_lon": 0.0, "fusion_lat": 0.0, "type": "electric_scooter", "name": "e57fc35400b9c00e9032a758364af119", "is_disabled": 0, "rental_uris": {"ios": "https://dc.lft.to/lastmile_qr_scan", "android": "https://dc.lft.to/lastmile_qr_scan"}, "is_reserved": 0}, {"lon": -77.00061633333334, "bike_id": "79d7b72fe5594cc7f0c22397b813751f", "lat": 38.89660383333333, "fusion_lon": 0.0, "fusion_lat": 0.0, "type": "electric_scooter", "name": "79d7b72fe5594cc7f0c22397b813751f", "is_disabled": 0, "rental_uris": {"ios": "https://dc.lft.to/lastmile_qr_scan", "android": "https://dc.lft.to/lastmile_qr_scan"}, "is_reserved": 0}, {"lon": -77.03289516666666, "bike_id": "ecb101238e9a7b23bfae2b68fca24cf3", "lat": 38.956537, "fusion_lon": 0.0, "fusion_lat": 0.0, "type": "electric_scooter", "name": "ecb101238e9a7b23bfae2b68fca24cf3", "is_disabled": 0, "rental_uris": {"ios": "https://dc.lft.to/lastmile_qr_scan", "android": "https://dc.lft.to/lastmile_qr_scan"}, "is_reserved": 0}, {"lon": -76.97874316666666, "bike_id": "dfddd3714be866cc9ff426cf79792bee", "lat": 38.88304983333333, "fusion_lon": 0.0, "fusion_lat": 0.0, "type": "electric_scooter", "name": "dfddd3714be866cc9ff426cf79792bee", "is_disabled": 0, "rental_uris": {"ios": "https://dc.lft.to/lastmile_qr_scan", "android": "https://dc.lft.to/lastmile_qr_scan"}, "is_reserved": 0}, {"lon": -76.99604916666667, "bike_id": "fd5f3170ae2ebb0132e10393062576cf", "lat": 38.894723166666665, "fusion_lon": 0.0, "fusion_lat": 0.0, "type": "electric_scooter", "name": "fd5f3170ae2ebb0132e10393062576cf", "is_disabled": 0, "rental_uris": {"ios": "https://dc.lft.to/lastmile_qr_scan", "android": "https://dc.lft.to/lastmile_qr_scan"}, "is_reserved": 0}, {"lon": -77.04115966666667, "bike_id": "87cd1bb42fed73ce1e6b693bb444e454", "lat": 38.934683166666666, "fusion_lon": 0.0, "fusion_lat": 0.0, "type": "electric_scooter", "name": "87cd1bb42fed73ce1e6b693bb444e454", "is_disabled": 0, "rental_uris": {"ios": "https://dc.lft.to/lastmile_qr_scan", "android": "https://dc.lft.to/lastmile_qr_scan"}, "is_reserved": 0}, {"lon": -77.026531, "bike_id": "13b59fce542177ad9df2e193052e337b", "lat": 38.978144666666665, "fusion_lon": 0.0, "fusion_lat": 0.0, "type": "electric_scooter", "name": "13b59fce542177ad9df2e193052e337b", "is_disabled": 0, "rental_uris": {"ios": "https://dc.lft.to/lastmile_qr_scan", "android": "https://dc.lft.to/lastmile_qr_scan"}, "is_reserved": 0}, {"lon": -76.97709, "bike_id": "0ba9244797abfe5cb2d173ab559bf60d", "lat": 38.88778633333333, "fusion_lon": 0.0, "fusion_lat": 0.0, "type": "electric_scooter", "name": "0ba9244797abfe5cb2d173ab559bf60d", "is_disabled": 0, "rental_uris": {"ios": "https://dc.lft.to/lastmile_qr_scan", "android": "https://dc.lft.to/lastmile_qr_scan"}, "is_reserved": 0}, {"lon": -77.0877485, "bike_id": "3936613063d6d637015a6058440b1c4f", "lat": 38.839025, "fusion_lon": 0.0, "fusion_lat": 0.0, "type": "electric_bike", "name": "3936613063d6d637015a6058440b1c4f", "is_disabled": 0, "rental_uris": {"ios": "https://dc.lft.to/lastmile_qr_scan", "android": "https://dc.lft.to/lastmile_qr_scan"}, "is_reserved": 0}, {"lon": -76.97616433333333, "bike_id": "65ac81b4b3d4826f08b81f210ed3fcf5", "lat": 38.89961516666666, "fusion_lon": 0.0, "fusion_lat": 0.0, "type": "electric_scooter", "name": "65ac81b4b3d4826f08b81f210ed3fcf5", "is_disabled": 0, "rental_uris": {"ios": "https://dc.lft.to/lastmile_qr_scan", "android": "https://dc.lft.to/lastmile_qr_scan"}, "is_reserved": 0}, {"lon": -77.01356566666666, "bike_id": "cf31557da4bbe76102473731a7a8c879", "lat": 38.8971955, "fusion_lon": 0.0, "fusion_lat": 0.0, "type": "electric_scooter", "name": "cf31557da4bbe76102473731a7a8c879", "is_disabled": 0, "rental_uris": {"ios": "https://dc.lft.to/lastmile_qr_scan", "android": "https://dc.lft.to/lastmile_qr_scan"}, "is_reserved": 0}, {"lon": -77.0273145, "bike_id": "a94dea88326e1ea9d6e73066615ba252", "lat": 38.89737383333333, "fusion_lon": 0.0, "fusion_lat": 0.0, "type": "electric_scooter", "name": "a94dea88326e1ea9d6e73066615ba252", "is_disabled": 0, "rental_uris": {"ios": "https://dc.lft.to/lastmile_qr_scan", "android": "https://dc.lft.to/lastmile_qr_scan"}, "is_reserved": 0}, {"lon": -77.02846533333333, "bike_id": "0d9c8428f859de56e9191d4de686820a", "lat": 38.927621333333335, "fusion_lon": 0.0, "fusion_lat": 0.0, "type": "electric_scooter", "name": "0d9c8428f859de56e9191d4de686820a", "is_disabled": 0, "rental_uris": {"ios": "https://dc.lft.to/lastmile_qr_scan", "android": "https://dc.lft.to/lastmile_qr_scan"}, "is_reserved": 0}, {"lon": -77.045043, "bike_id": "218d801d92537cb528fe2a1c03bf6256", "lat": 38.903604666666666, "fusion_lon": 0.0, "fusion_lat": 0.0, "type": "electric_scooter", "name": "218d801d92537cb528fe2a1c03bf6256", "is_disabled": 0, "rental_uris": {"ios": "https://dc.lft.to/lastmile_qr_scan", "android": "https://dc.lft.to/lastmile_qr_scan"}, "is_reserved": 0}, {"lon": -77.00791716666667, "bike_id": "128238407e6b565d4c14221be45da522", "lat": 38.896434, "fusion_lon": 0.0, "fusion_lat": 0.0, "type": "electric_scooter", "name": "128238407e6b565d4c14221be45da522", "is_disabled": 0, "rental_uris": {"ios": "https://dc.lft.to/lastmile_qr_scan", "android": "https://dc.lft.to/lastmile_qr_scan"}, "is_reserved": 0}, {"lon": -77.03358516666667, "bike_id": "8a24e4c9a865d8f698d8c7b853d37e37", "lat": 38.93584883333333, "fusion_lon": 0.0, "fusion_lat": 0.0, "type": "electric_scooter", "name": "8a24e4c9a865d8f698d8c7b853d37e37", "is_disabled": 0, "rental_uris": {"ios": "https://dc.lft.to/lastmile_qr_scan", "android": "https://dc.lft.to/lastmile_qr_scan"}, "is_reserved": 0}, {"lon": -77.03246466666667, "bike_id": "d22d74e2cc978d20612a053700ba2f6c", "lat": 38.937752, "fusion_lon": 0.0, "fusion_lat": 0.0, "type": "electric_scooter", "name": "d22d74e2cc978d20612a053700ba2f6c", "is_disabled": 0, "rental_uris": {"ios": "https://dc.lft.to/lastmile_qr_scan", "android": "https://dc.lft.to/lastmile_qr_scan"}, "is_reserved": 0}, {"lon": -77.03405433333333, "bike_id": "448d3100f7284b7cdbdc7ecc7975716d", "lat": 38.9225745, "fusion_lon": 0.0, "fusion_lat": 0.0, "type": "electric_scooter", "name": "448d3100f7284b7cdbdc7ecc7975716d", "is_disabled": 0, "rental_uris": {"ios": "https://dc.lft.to/lastmile_qr_scan", "android": "https://dc.lft.to/lastmile_qr_scan"}, "is_reserved": 0}, {"lon": -77.01378283333334, "bike_id": "8f2d82b40da23bc56952c00401846e53", "lat": 38.915025, "fusion_lon": 0.0, "fusion_lat": 0.0, "type": "electric_scooter", "name": "8f2d82b40da23bc56952c00401846e53", "is_disabled": 0, "rental_uris": {"ios": "https://dc.lft.to/lastmile_qr_scan", "android": "https://dc.lft.to/lastmile_qr_scan"}, "is_reserved": 0}, {"lon": -77.0280535, "bike_id": "215f110aa21085d3d0a40ec11a19d4da", "lat": 38.9329975, "fusion_lon": 0.0, "fusion_lat": 0.0, "type": "electric_scooter", "name": "215f110aa21085d3d0a40ec11a19d4da", "is_disabled": 0, "rental_uris": {"ios": "https://dc.lft.to/lastmile_qr_scan", "android": "https://dc.lft.to/lastmile_qr_scan"}, "is_reserved": 0}, {"lon": -77.03931083333333, "bike_id": "94131e77df20a980d003179886861a86", "lat": 38.91571666666667, "fusion_lon": 0.0, "fusion_lat": 0.0, "type": "electric_scooter", "name": "94131e77df20a980d003179886861a86", "is_disabled": 0, "rental_uris": {"ios": "https://dc.lft.to/lastmile_qr_scan", "android": "https://dc.lft.to/lastmile_qr_scan"}, "is_reserved": 0}, {"lon": -77.032641, "bike_id": "ee700e120e6726248f979b8e0c9716a4", "lat": 38.920007166666664, "fusion_lon": 0.0, "fusion_lat": 0.0, "type": "electric_scooter", "name": "ee700e120e6726248f979b8e0c9716a4", "is_disabled": 0, "rental_uris": {"ios": "https://dc.lft.to/lastmile_qr_scan", "android": "https://dc.lft.to/lastmile_qr_scan"}, "is_reserved": 0}, {"lon": -77.006155, "bike_id": "b50ca77de9aa6fd8d37d2aea54cb2f09", "lat": 38.90627283333333, "fusion_lon": 0.0, "fusion_lat": 0.0, "type": "electric_scooter", "name": "b50ca77de9aa6fd8d37d2aea54cb2f09", "is_disabled": 0, "rental_uris": {"ios": "https://dc.lft.to/lastmile_qr_scan", "android": "https://dc.lft.to/lastmile_qr_scan"}, "is_reserved": 0}, {"lon": -77.01324733333334, "bike_id": "9c0a0829e3058ac7b275351d50e9ce6c", "lat": 38.87933233333333, "fusion_lon": 0.0, "fusion_lat": 0.0, "type": "electric_scooter", "name": "9c0a0829e3058ac7b275351d50e9ce6c", "is_disabled": 0, "rental_uris": {"ios": "https://dc.lft.to/lastmile_qr_scan", "android": "https://dc.lft.to/lastmile_qr_scan"}, "is_reserved": 0}, {"lon": -77.05534966666667, "bike_id": "2830bea963e6584234f35798501cc4a8", "lat": 38.93427833333333, "fusion_lon": 0.0, "fusion_lat": 0.0, "type": "electric_scooter", "name": "2830bea963e6584234f35798501cc4a8", "is_disabled": 0, "rental_uris": {"ios": "https://dc.lft.to/lastmile_qr_scan", "android": "https://dc.lft.to/lastmile_qr_scan"}, "is_reserved": 0}, {"lon": -77.05338966666666, "bike_id": "086d4932aa8538f1bf82e5ea26c2c110", "lat": 38.9035785, "fusion_lon": 0.0, "fusion_lat": 0.0, "type": "electric_scooter", "name": "086d4932aa8538f1bf82e5ea26c2c110", "is_disabled": 0, "rental_uris": {"ios": "https://dc.lft.to/lastmile_qr_scan", "android": "https://dc.lft.to/lastmile_qr_scan"}, "is_reserved": 0}, {"lon": -77.03507083333334, "bike_id": "63e64044539c6790fd1da763206ba456", "lat": 38.937545, "fusion_lon": 0.0, "fusion_lat": 0.0, "type": "electric_scooter", "name": "63e64044539c6790fd1da763206ba456", "is_disabled": 0, "rental_uris": {"ios": "https://dc.lft.to/lastmile_qr_scan", "android": "https://dc.lft.to/lastmile_qr_scan"}, "is_reserved": 0}, {"lon": -77.107334, "bike_id": "f24ac7290e063bf22c16a0990a8728b0", "lat": 38.85546433333333, "fusion_lon": 0.0, "fusion_lat": 0.0, "type": "electric_bike", "name": "f24ac7290e063bf22c16a0990a8728b0", "is_disabled": 0, "rental_uris": {"ios": "https://dc.lft.to/lastmile_qr_scan", "android": "https://dc.lft.to/lastmile_qr_scan"}, "is_reserved": 0}, {"lon": -77.00727533333334, "bike_id": "66200be326315d001f33abd759744fef", "lat": 38.90988566666667, "fusion_lon": 0.0, "fusion_lat": 0.0, "type": "electric_bike", "name": "66200be326315d001f33abd759744fef", "is_disabled": 0, "rental_uris": {"ios": "https://dc.lft.to/lastmile_qr_scan", "android": "https://dc.lft.to/lastmile_qr_scan"}, "is_reserved": 0}, {"lon": -76.9883805, "bike_id": "1d060e0a89f3fffa87424fed703a7022", "lat": 38.900722333333334, "fusion_lon": 0.0, "fusion_lat": 0.0, "type": "electric_scooter", "name": "1d060e0a89f3fffa87424fed703a7022", "is_disabled": 0, "rental_uris": {"ios": "https://dc.lft.to/lastmile_qr_scan", "android": "https://dc.lft.to/lastmile_qr_scan"}, "is_reserved": 0}, {"lon": -77.0845635, "bike_id": "4ba6d0ea42437147d563fdd4052e8db2", "lat": 38.848212833333335, "fusion_lon": 0.0, "fusion_lat": 0.0, "type": "electric_bike", "name": "4ba6d0ea42437147d563fdd4052e8db2", "is_disabled": 0, "rental_uris": {"ios": "https://dc.lft.to/lastmile_qr_scan", "android": "https://dc.lft.to/lastmile_qr_scan"}, "is_reserved": 0}, {"lon": -77.038413, "bike_id": "d9974ff40b475e508ed30c21dbd42653", "lat": 38.90265383333333, "fusion_lon": 0.0, "fusion_lat": 0.0, "type": "electric_scooter", "name": "d9974ff40b475e508ed30c21dbd42653", "is_disabled": 0, "rental_uris": {"ios": "https://dc.lft.to/lastmile_qr_scan", "android": "https://dc.lft.to/lastmile_qr_scan"}, "is_reserved": 0}, {"lon": -77.02419133333333, "bike_id": "1fed52551a9da9b14f22c8c855a57be5", "lat": 38.90974466666667, "fusion_lon": 0.0, "fusion_lat": 0.0, "type": "electric_scooter", "name": "1fed52551a9da9b14f22c8c855a57be5", "is_disabled": 0, "rental_uris": {"ios": "https://dc.lft.to/lastmile_qr_scan", "android": "https://dc.lft.to/lastmile_qr_scan"}, "is_reserved": 0}, {"lon": -76.99759733333333, "bike_id": "32fd1e0c4c28d92e404678dec6a25c4e", "lat": 38.901273833333335, "fusion_lon": 0.0, "fusion_lat": 0.0, "type": "electric_scooter", "name": "32fd1e0c4c28d92e404678dec6a25c4e", "is_disabled": 0, "rental_uris": {"ios": "https://dc.lft.to/lastmile_qr_scan", "android": "https://dc.lft.to/lastmile_qr_scan"}, "is_reserved": 0}, {"lon": -77.0094945, "bike_id": "80ab20e87f8f23296b6ff2c744f41667", "lat": 38.87631533333333, "fusion_lon": 0.0, "fusion_lat": 0.0, "type": "electric_scooter", "name": "80ab20e87f8f23296b6ff2c744f41667", "is_disabled": 0, "rental_uris": {"ios": "https://dc.lft.to/lastmile_qr_scan", "android": "https://dc.lft.to/lastmile_qr_scan"}, "is_reserved": 0}, {"lon": -76.9811475, "bike_id": "2b79edc5f8ef4df628d1852c225d1436", "lat": 38.90416183333333, "fusion_lon": 0.0, "fusion_lat": 0.0, "type": "electric_scooter", "name": "2b79edc5f8ef4df628d1852c225d1436", "is_disabled": 0, "rental_uris": {"ios": "https://dc.lft.to/lastmile_qr_scan", "android": "https://dc.lft.to/lastmile_qr_scan"}, "is_reserved": 0}, {"lon": -76.9902865, "bike_id": "3836173bba2b323ad8af4f08e3645281", "lat": 38.90156433333333, "fusion_lon": 0.0, "fusion_lat": 0.0, "type": "electric_scooter", "name": "3836173bba2b323ad8af4f08e3645281", "is_disabled": 0, "rental_uris": {"ios": "https://dc.lft.to/lastmile_qr_scan", "android": "https://dc.lft.to/lastmile_qr_scan"}, "is_reserved": 0}, {"lon": -77.03265516666667, "bike_id": "7b78ee113ff8cafc2b4b05d2aceaf17c", "lat": 38.91992966666667, "fusion_lon": 0.0, "fusion_lat": 0.0, "type": "electric_scooter", "name": "7b78ee113ff8cafc2b4b05d2aceaf17c", "is_disabled": 0, "rental_uris": {"ios": "https://dc.lft.to/lastmile_qr_scan", "android": "https://dc.lft.to/lastmile_qr_scan"}, "is_reserved": 0}, {"lon": -77.0035105, "bike_id": "9f986e10cbca29e7e599e66531784631", "lat": 38.89932866666667, "fusion_lon": 0.0, "fusion_lat": 0.0, "type": "electric_scooter", "name": "9f986e10cbca29e7e599e66531784631", "is_disabled": 0, "rental_uris": {"ios": "https://dc.lft.to/lastmile_qr_scan", "android": "https://dc.lft.to/lastmile_qr_scan"}, "is_reserved": 0}, {"lon": -77.05510283333334, "bike_id": "9412b88343258de4e975c3d61a85208d", "lat": 38.904399, "fusion_lon": 0.0, "fusion_lat": 0.0, "type": "electric_scooter", "name": "9412b88343258de4e975c3d61a85208d", "is_disabled": 0, "rental_uris": {"ios": "https://dc.lft.to/lastmile_qr_scan", "android": "https://dc.lft.to/lastmile_qr_scan"}, "is_reserved": 0}, {"lon": -77.05029866666666, "bike_id": "06f2c3f5c40d3d14c3fb1a4908288e13", "lat": 38.92389283333333, "fusion_lon": 0.0, "fusion_lat": 0.0, "type": "electric_scooter", "name": "06f2c3f5c40d3d14c3fb1a4908288e13", "is_disabled": 0, "rental_uris": {"ios": "https://dc.lft.to/lastmile_qr_scan", "android": "https://dc.lft.to/lastmile_qr_scan"}, "is_reserved": 0}, {"lon": -77.02956216666666, "bike_id": "9ae286c1c247a72a631c224c59ed7038", "lat": 38.921712166666666, "fusion_lon": 0.0, "fusion_lat": 0.0, "type": "electric_scooter", "name": "9ae286c1c247a72a631c224c59ed7038", "is_disabled": 0, "rental_uris": {"ios": "https://dc.lft.to/lastmile_qr_scan", "android": "https://dc.lft.to/lastmile_qr_scan"}, "is_reserved": 0}, {"lon": -77.03264266666666, "bike_id": "52a970d0206507a44eb303c8fe4b28bc", "lat": 38.941562166666664, "fusion_lon": 0.0, "fusion_lat": 0.0, "type": "electric_scooter", "name": "52a970d0206507a44eb303c8fe4b28bc", "is_disabled": 0, "rental_uris": {"ios": "https://dc.lft.to/lastmile_qr_scan", "android": "https://dc.lft.to/lastmile_qr_scan"}, "is_reserved": 0}, {"lon": -77.03670916666667, "bike_id": "cc86a406a3bc7da3d8fbbb2395affe1b", "lat": 38.916875, "fusion_lon": 0.0, "fusion_lat": 0.0, "type": "electric_scooter", "name": "cc86a406a3bc7da3d8fbbb2395affe1b", "is_disabled": 0, "rental_uris": {"ios": "https://dc.lft.to/lastmile_qr_scan", "android": "https://dc.lft.to/lastmile_qr_scan"}, "is_reserved": 0}, {"lon": -77.03469933333334, "bike_id": "54d63c7a29568d82fc7fc467fd91af53", "lat": 38.920647333333335, "fusion_lon": 0.0, "fusion_lat": 0.0, "type": "electric_scooter", "name": "54d63c7a29568d82fc7fc467fd91af53", "is_disabled": 0, "rental_uris": {"ios": "https://dc.lft.to/lastmile_qr_scan", "android": "https://dc.lft.to/lastmile_qr_scan"}, "is_reserved": 0}, {"lon": -77.01905033333334, "bike_id": "12e639a44b493ec9327ccf0ba59ae9dd", "lat": 38.88626466666667, "fusion_lon": 0.0, "fusion_lat": 0.0, "type": "electric_scooter", "name": "12e639a44b493ec9327ccf0ba59ae9dd", "is_disabled": 0, "rental_uris": {"ios": "https://dc.lft.to/lastmile_qr_scan", "android": "https://dc.lft.to/lastmile_qr_scan"}, "is_reserved": 0}, {"lon": -77.02813616666667, "bike_id": "bbc88d18350c6d6e9cc4ff0e1dbbb86c", "lat": 38.924758833333335, "fusion_lon": 0.0, "fusion_lat": 0.0, "type": "electric_scooter", "name": "bbc88d18350c6d6e9cc4ff0e1dbbb86c", "is_disabled": 0, "rental_uris": {"ios": "https://dc.lft.to/lastmile_qr_scan", "android": "https://dc.lft.to/lastmile_qr_scan"}, "is_reserved": 0}, {"lon": -77.03970383333333, "bike_id": "17370f28224693d77756a871b5779e89", "lat": 38.923198166666666, "fusion_lon": 0.0, "fusion_lat": 0.0, "type": "electric_scooter", "name": "17370f28224693d77756a871b5779e89", "is_disabled": 0, "rental_uris": {"ios": "https://dc.lft.to/lastmile_qr_scan", "android": "https://dc.lft.to/lastmile_qr_scan"}, "is_reserved": 0}, {"lon": -77.05333433333334, "bike_id": "a5b85433b579c8989229808daf43334a", "lat": 38.927171666666666, "fusion_lon": 0.0, "fusion_lat": 0.0, "type": "electric_scooter", "name": "a5b85433b579c8989229808daf43334a", "is_disabled": 0, "rental_uris": {"ios": "https://dc.lft.to/lastmile_qr_scan", "android": "https://dc.lft.to/lastmile_qr_scan"}, "is_reserved": 0}, {"lon": -77.0208995, "bike_id": "54042c44251227fb15a58458ee8802c8", "lat": 38.91551283333333, "fusion_lon": 0.0, "fusion_lat": 0.0, "type": "electric_scooter", "name": "54042c44251227fb15a58458ee8802c8", "is_disabled": 0, "rental_uris": {"ios": "https://dc.lft.to/lastmile_qr_scan", "android": "https://dc.lft.to/lastmile_qr_scan"}, "is_reserved": 0}, {"lon": -77.049467, "bike_id": "e165f371811d2490a66bb094ff3b78bf", "lat": 38.9085575, "fusion_lon": 0.0, "fusion_lat": 0.0, "type": "electric_scooter", "name": "e165f371811d2490a66bb094ff3b78bf", "is_disabled": 0, "rental_uris": {"ios": "https://dc.lft.to/lastmile_qr_scan", "android": "https://dc.lft.to/lastmile_qr_scan"}, "is_reserved": 0}, {"lon": -77.07098966666666, "bike_id": "f6154615030cb7c98732c8b9f9dea383", "lat": 38.922494, "fusion_lon": 0.0, "fusion_lat": 0.0, "type": "electric_scooter", "name": "f6154615030cb7c98732c8b9f9dea383", "is_disabled": 0, "rental_uris": {"ios": "https://dc.lft.to/lastmile_qr_scan", "android": "https://dc.lft.to/lastmile_qr_scan"}, "is_reserved": 0}, {"lon": -77.01618933333333, "bike_id": "7e32f309c50f69e6a60600eef7d2a9d7", "lat": 38.906587, "fusion_lon": 0.0, "fusion_lat": 0.0, "type": "electric_scooter", "name": "7e32f309c50f69e6a60600eef7d2a9d7", "is_disabled": 0, "rental_uris": {"ios": "https://dc.lft.to/lastmile_qr_scan", "android": "https://dc.lft.to/lastmile_qr_scan"}, "is_reserved": 0}, {"lon": -77.032812, "bike_id": "0b9f4592a2708c7c70cad60da1df3689", "lat": 38.936511, "fusion_lon": 0.0, "fusion_lat": 0.0, "type": "electric_scooter", "name": "0b9f4592a2708c7c70cad60da1df3689", "is_disabled": 0, "rental_uris": {"ios": "https://dc.lft.to/lastmile_qr_scan", "android": "https://dc.lft.to/lastmile_qr_scan"}, "is_reserved": 0}, {"lon": -77.040376, "bike_id": "d6503b67c3808c76e2d4d5f2db103f51", "lat": 38.92311566666667, "fusion_lon": 0.0, "fusion_lat": 0.0, "type": "electric_scooter", "name": "d6503b67c3808c76e2d4d5f2db103f51", "is_disabled": 0, "rental_uris": {"ios": "https://dc.lft.to/lastmile_qr_scan", "android": "https://dc.lft.to/lastmile_qr_scan"}, "is_reserved": 0}, {"lon": -77.05215333333334, "bike_id": "9fff7ab656ec06840ac74502a19f740b", "lat": 38.9156865, "fusion_lon": 0.0, "fusion_lat": 0.0, "type": "electric_scooter", "name": "9fff7ab656ec06840ac74502a19f740b", "is_disabled": 0, "rental_uris": {"ios": "https://dc.lft.to/lastmile_qr_scan", "android": "https://dc.lft.to/lastmile_qr_scan"}, "is_reserved": 0}, {"lon": -76.94129566666666, "bike_id": "7a8e9b9a11e810dabf0701959f6d04d7", "lat": 38.88614033333333, "fusion_lon": 0.0, "fusion_lat": 0.0, "type": "electric_scooter", "name": "7a8e9b9a11e810dabf0701959f6d04d7", "is_disabled": 0, "rental_uris": {"ios": "https://dc.lft.to/lastmile_qr_scan", "android": "https://dc.lft.to/lastmile_qr_scan"}, "is_reserved": 0}, {"lon": -77.04370716666666, "bike_id": "ee967f52ac107537b9dea95df68ffe71", "lat": 38.898456333333336, "fusion_lon": 0.0, "fusion_lat": 0.0, "type": "electric_scooter", "name": "ee967f52ac107537b9dea95df68ffe71", "is_disabled": 0, "rental_uris": {"ios": "https://dc.lft.to/lastmile_qr_scan", "android": "https://dc.lft.to/lastmile_qr_scan"}, "is_reserved": 0}, {"lon": -77.0235905, "bike_id": "af2854efe5a6b3ee0a6a46364e9bd765", "lat": 38.892223, "fusion_lon": 0.0, "fusion_lat": 0.0, "type": "electric_scooter", "name": "af2854efe5a6b3ee0a6a46364e9bd765", "is_disabled": 0, "rental_uris": {"ios": "https://dc.lft.to/lastmile_qr_scan", "android": "https://dc.lft.to/lastmile_qr_scan"}, "is_reserved": 0}, {"lon": -77.02242166666667, "bike_id": "48393edb87ea5654d5ad2ce5788aec5d", "lat": 38.92265066666667, "fusion_lon": 0.0, "fusion_lat": 0.0, "type": "electric_scooter", "name": "48393edb87ea5654d5ad2ce5788aec5d", "is_disabled": 0, "rental_uris": {"ios": "https://dc.lft.to/lastmile_qr_scan", "android": "https://dc.lft.to/lastmile_qr_scan"}, "is_reserved": 0}, {"lon": -77.03990333333333, "bike_id": "d6a3af6e9717f40ca94a45091a7f73e4", "lat": 38.92451783333333, "fusion_lon": 0.0, "fusion_lat": 0.0, "type": "electric_scooter", "name": "d6a3af6e9717f40ca94a45091a7f73e4", "is_disabled": 0, "rental_uris": {"ios": "https://dc.lft.to/lastmile_qr_scan", "android": "https://dc.lft.to/lastmile_qr_scan"}, "is_reserved": 0}, {"lon": -77.05028333333334, "bike_id": "488b9049c96433a4a4269f24c9a4670e", "lat": 38.89817466666667, "fusion_lon": 0.0, "fusion_lat": 0.0, "type": "electric_scooter", "name": "488b9049c96433a4a4269f24c9a4670e", "is_disabled": 0, "rental_uris": {"ios": "https://dc.lft.to/lastmile_qr_scan", "android": "https://dc.lft.to/lastmile_qr_scan"}, "is_reserved": 0}, {"lon": -77.004302, "bike_id": "5b1545e182add1ca9a4c5786b990d782", "lat": 38.913363333333336, "fusion_lon": 0.0, "fusion_lat": 0.0, "type": "electric_scooter", "name": "5b1545e182add1ca9a4c5786b990d782", "is_disabled": 0, "rental_uris": {"ios": "https://dc.lft.to/lastmile_qr_scan", "android": "https://dc.lft.to/lastmile_qr_scan"}, "is_reserved": 0}, {"lon": -77.03837483333334, "bike_id": "5d36ace2a8ad1a3d54ce5f795c615551", "lat": 38.910943, "fusion_lon": 0.0, "fusion_lat": 0.0, "type": "electric_scooter", "name": "5d36ace2a8ad1a3d54ce5f795c615551", "is_disabled": 0, "rental_uris": {"ios": "https://dc.lft.to/lastmile_qr_scan", "android": "https://dc.lft.to/lastmile_qr_scan"}, "is_reserved": 0}, {"lon": -76.98492483333334, "bike_id": "12fff457bbb3ba4436c5825e4da82e71", "lat": 38.87837066666667, "fusion_lon": 0.0, "fusion_lat": 0.0, "type": "electric_scooter", "name": "12fff457bbb3ba4436c5825e4da82e71", "is_disabled": 0, "rental_uris": {"ios": "https://dc.lft.to/lastmile_qr_scan", "android": "https://dc.lft.to/lastmile_qr_scan"}, "is_reserved": 0}, {"lon": -76.9463335, "bike_id": "2fdec2b2616a707179aa51e33afcd452", "lat": 38.8983445, "fusion_lon": 0.0, "fusion_lat": 0.0, "type": "electric_scooter", "name": "2fdec2b2616a707179aa51e33afcd452", "is_disabled": 0, "rental_uris": {"ios": "https://dc.lft.to/lastmile_qr_scan", "android": "https://dc.lft.to/lastmile_qr_scan"}, "is_reserved": 0}, {"lon": -77.03643883333334, "bike_id": "9b476dda28ca87a5ca9d7dce568651ee", "lat": 38.92351216666667, "fusion_lon": 0.0, "fusion_lat": 0.0, "type": "electric_scooter", "name": "9b476dda28ca87a5ca9d7dce568651ee", "is_disabled": 0, "rental_uris": {"ios": "https://dc.lft.to/lastmile_qr_scan", "android": "https://dc.lft.to/lastmile_qr_scan"}, "is_reserved": 0}, {"lon": -76.9950685, "bike_id": "0baa1c7c5a1064287fdb6cedb7df2c0a", "lat": 38.89766066666667, "fusion_lon": 0.0, "fusion_lat": 0.0, "type": "electric_scooter", "name": "0baa1c7c5a1064287fdb6cedb7df2c0a", "is_disabled": 0, "rental_uris": {"ios": "https://dc.lft.to/lastmile_qr_scan", "android": "https://dc.lft.to/lastmile_qr_scan"}, "is_reserved": 0}, {"lon": -77.0022895, "bike_id": "96fe7619d7d10c7126067fe89d762d74", "lat": 38.900515, "fusion_lon": 0.0, "fusion_lat": 0.0, "type": "electric_scooter", "name": "96fe7619d7d10c7126067fe89d762d74", "is_disabled": 0, "rental_uris": {"ios": "https://dc.lft.to/lastmile_qr_scan", "android": "https://dc.lft.to/lastmile_qr_scan"}, "is_reserved": 0}, {"lon": -77.04162883333333, "bike_id": "d8c3786e36b68bf9c056dd123341c989", "lat": 38.90124, "fusion_lon": 0.0, "fusion_lat": 0.0, "type": "electric_scooter", "name": "d8c3786e36b68bf9c056dd123341c989", "is_disabled": 0, "rental_uris": {"ios": "https://dc.lft.to/lastmile_qr_scan", "android": "https://dc.lft.to/lastmile_qr_scan"}, "is_reserved": 0}, {"lon": -77.017417, "bike_id": "e1971c1d7347d1901bfdaf986c1a48cf", "lat": 38.88208366666667, "fusion_lon": 0.0, "fusion_lat": 0.0, "type": "electric_scooter", "name": "e1971c1d7347d1901bfdaf986c1a48cf", "is_disabled": 0, "rental_uris": {"ios": "https://dc.lft.to/lastmile_qr_scan", "android": "https://dc.lft.to/lastmile_qr_scan"}, "is_reserved": 0}, {"lon": -77.011306, "bike_id": "f56c1f91558084eadca32bfc5e54f3a3", "lat": 38.89597966666667, "fusion_lon": 0.0, "fusion_lat": 0.0, "type": "electric_scooter", "name": "f56c1f91558084eadca32bfc5e54f3a3", "is_disabled": 0, "rental_uris": {"ios": "https://dc.lft.to/lastmile_qr_scan", "android": "https://dc.lft.to/lastmile_qr_scan"}, "is_reserved": 0}, {"lon": -77.02513166666667, "bike_id": "937709639566ad8f61e2bf87e53ee63f", "lat": 38.942106333333335, "fusion_lon": 0.0, "fusion_lat": 0.0, "type": "electric_scooter", "name": "937709639566ad8f61e2bf87e53ee63f", "is_disabled": 0, "rental_uris": {"ios": "https://dc.lft.to/lastmile_qr_scan", "android": "https://dc.lft.to/lastmile_qr_scan"}, "is_reserved": 0}, {"lon": -77.00533583333333, "bike_id": "b3e9cd065e0682c78012c29e2298f938", "lat": 38.8754815, "fusion_lon": 0.0, "fusion_lat": 0.0, "type": "electric_scooter", "name": "b3e9cd065e0682c78012c29e2298f938", "is_disabled": 0, "rental_uris": {"ios": "https://dc.lft.to/lastmile_qr_scan", "android": "https://dc.lft.to/lastmile_qr_scan"}, "is_reserved": 0}, {"lon": -76.9970555, "bike_id": "8582338f8478504be27baf07f6c0c104", "lat": 38.844331833333335, "fusion_lon": 0.0, "fusion_lat": 0.0, "type": "electric_scooter", "name": "8582338f8478504be27baf07f6c0c104", "is_disabled": 0, "rental_uris": {"ios": "https://dc.lft.to/lastmile_qr_scan", "android": "https://dc.lft.to/lastmile_qr_scan"}, "is_reserved": 0}, {"lon": -77.03660733333334, "bike_id": "81ea7874c48532e03fe67c0504c3486f", "lat": 38.91734683333333, "fusion_lon": 0.0, "fusion_lat": 0.0, "type": "electric_scooter", "name": "81ea7874c48532e03fe67c0504c3486f", "is_disabled": 0, "rental_uris": {"ios": "https://dc.lft.to/lastmile_qr_scan", "android": "https://dc.lft.to/lastmile_qr_scan"}, "is_reserved": 0}, {"lon": -77.00100433333333, "bike_id": "9a0db9f71c1b8d3f18061809805b1b9b", "lat": 38.873842, "fusion_lon": 0.0, "fusion_lat": 0.0, "type": "electric_scooter", "name": "9a0db9f71c1b8d3f18061809805b1b9b", "is_disabled": 0, "rental_uris": {"ios": "https://dc.lft.to/lastmile_qr_scan", "android": "https://dc.lft.to/lastmile_qr_scan"}, "is_reserved": 0}, {"lon": -76.98336733333333, "bike_id": "1a751f2dc600fdc119e700231749fdf6", "lat": 38.89544133333333, "fusion_lon": 0.0, "fusion_lat": 0.0, "type": "electric_scooter", "name": "1a751f2dc600fdc119e700231749fdf6", "is_disabled": 0, "rental_uris": {"ios": "https://dc.lft.to/lastmile_qr_scan", "android": "https://dc.lft.to/lastmile_qr_scan"}, "is_reserved": 0}, {"lon": -76.9788835, "bike_id": "c74247f856730448900af5dbfc890723", "lat": 38.885388, "fusion_lon": 0.0, "fusion_lat": 0.0, "type": "electric_scooter", "name": "c74247f856730448900af5dbfc890723", "is_disabled": 0, "rental_uris": {"ios": "https://dc.lft.to/lastmile_qr_scan", "android": "https://dc.lft.to/lastmile_qr_scan"}, "is_reserved": 0}, {"lon": -77.0760705, "bike_id": "593d880e03bdef9db1583e0df69db1ff", "lat": 38.92060566666667, "fusion_lon": 0.0, "fusion_lat": 0.0, "type": "electric_scooter", "name": "593d880e03bdef9db1583e0df69db1ff", "is_disabled": 0, "rental_uris": {"ios": "https://dc.lft.to/lastmile_qr_scan", "android": "https://dc.lft.to/lastmile_qr_scan"}, "is_reserved": 0}, {"lon": -77.0315875, "bike_id": "eb5f7f5d68f92bfdc4332cecb58d51e5", "lat": 38.892225, "fusion_lon": 0.0, "fusion_lat": 0.0, "type": "electric_scooter", "name": "eb5f7f5d68f92bfdc4332cecb58d51e5", "is_disabled": 0, "rental_uris": {"ios": "https://dc.lft.to/lastmile_qr_scan", "android": "https://dc.lft.to/lastmile_qr_scan"}, "is_reserved": 0}, {"lon": -77.12415066666667, "bike_id": "af7e2114e1a251fff44f7bae845ecc58", "lat": 38.877211833333334, "fusion_lon": 0.0, "fusion_lat": 0.0, "type": "electric_bike", "name": "af7e2114e1a251fff44f7bae845ecc58", "is_disabled": 0, "rental_uris": {"ios": "https://dc.lft.to/lastmile_qr_scan", "android": "https://dc.lft.to/lastmile_qr_scan"}, "is_reserved": 0}, {"lon": -77.0325955, "bike_id": "d2f4e11ae5e577b236c8b3a92979e834", "lat": 38.92773416666667, "fusion_lon": 0.0, "fusion_lat": 0.0, "type": "electric_scooter", "name": "d2f4e11ae5e577b236c8b3a92979e834", "is_disabled": 0, "rental_uris": {"ios": "https://dc.lft.to/lastmile_qr_scan", "android": "https://dc.lft.to/lastmile_qr_scan"}, "is_reserved": 0}, {"lon": -76.97603733333334, "bike_id": "724ff5f31d978779b2d2f2c334593330", "lat": 38.897538833333336, "fusion_lon": 0.0, "fusion_lat": 0.0, "type": "electric_scooter", "name": "724ff5f31d978779b2d2f2c334593330", "is_disabled": 0, "rental_uris": {"ios": "https://dc.lft.to/lastmile_qr_scan", "android": "https://dc.lft.to/lastmile_qr_scan"}, "is_reserved": 0}, {"lon": -77.060266, "bike_id": "330de112e2cf1fa9868a33865c7a7711", "lat": 38.938410166666664, "fusion_lon": 0.0, "fusion_lat": 0.0, "type": "electric_scooter", "name": "330de112e2cf1fa9868a33865c7a7711", "is_disabled": 0, "rental_uris": {"ios": "https://dc.lft.to/lastmile_qr_scan", "android": "https://dc.lft.to/lastmile_qr_scan"}, "is_reserved": 0}, {"lon": -77.04194383333333, "bike_id": "c07e677b87714d00fbabbf27b3ddd693", "lat": 38.926205333333336, "fusion_lon": 0.0, "fusion_lat": 0.0, "type": "electric_scooter", "name": "c07e677b87714d00fbabbf27b3ddd693", "is_disabled": 0, "rental_uris": {"ios": "https://dc.lft.to/lastmile_qr_scan", "android": "https://dc.lft.to/lastmile_qr_scan"}, "is_reserved": 0}, {"lon": -77.02382116666666, "bike_id": "2ee001cf0a717cd9df57236c8500f097", "lat": 38.909625, "fusion_lon": 0.0, "fusion_lat": 0.0, "type": "electric_scooter", "name": "2ee001cf0a717cd9df57236c8500f097", "is_disabled": 0, "rental_uris": {"ios": "https://dc.lft.to/lastmile_qr_scan", "android": "https://dc.lft.to/lastmile_qr_scan"}, "is_reserved": 0}, {"lon": -77.023834, "bike_id": "52ade1fdb7cfa880b0aec070ae9e49ea", "lat": 38.91833183333333, "fusion_lon": 0.0, "fusion_lat": 0.0, "type": "electric_scooter", "name": "52ade1fdb7cfa880b0aec070ae9e49ea", "is_disabled": 0, "rental_uris": {"ios": "https://dc.lft.to/lastmile_qr_scan", "android": "https://dc.lft.to/lastmile_qr_scan"}, "is_reserved": 0}, {"lon": -77.04105683333333, "bike_id": "2ae66253840e47a1cd6e9734110d9591", "lat": 38.91854166666667, "fusion_lon": 0.0, "fusion_lat": 0.0, "type": "electric_scooter", "name": "2ae66253840e47a1cd6e9734110d9591", "is_disabled": 0, "rental_uris": {"ios": "https://dc.lft.to/lastmile_qr_scan", "android": "https://dc.lft.to/lastmile_qr_scan"}, "is_reserved": 0}, {"lon": -76.93365116666666, "bike_id": "7001a26872a2098816feb28597d891fd", "lat": 38.899166, "fusion_lon": 0.0, "fusion_lat": 0.0, "type": "electric_scooter", "name": "7001a26872a2098816feb28597d891fd", "is_disabled": 0, "rental_uris": {"ios": "https://dc.lft.to/lastmile_qr_scan", "android": "https://dc.lft.to/lastmile_qr_scan"}, "is_reserved": 0}, {"lon": -77.02694583333333, "bike_id": "b818710e156bd97d927a637ae9370a11", "lat": 38.90450666666667, "fusion_lon": 0.0, "fusion_lat": 0.0, "type": "electric_scooter", "name": "b818710e156bd97d927a637ae9370a11", "is_disabled": 0, "rental_uris": {"ios": "https://dc.lft.to/lastmile_qr_scan", "android": "https://dc.lft.to/lastmile_qr_scan"}, "is_reserved": 0}, {"lon": -77.041182, "bike_id": "e08500afce9a1bab958f02fd8ccdb1e3", "lat": 38.925441666666664, "fusion_lon": 0.0, "fusion_lat": 0.0, "type": "electric_scooter", "name": "e08500afce9a1bab958f02fd8ccdb1e3", "is_disabled": 0, "rental_uris": {"ios": "https://dc.lft.to/lastmile_qr_scan", "android": "https://dc.lft.to/lastmile_qr_scan"}, "is_reserved": 0}, {"lon": -76.980924, "bike_id": "4d59a8d370000629be2a3420a6e525c6", "lat": 38.881348333333335, "fusion_lon": 0.0, "fusion_lat": 0.0, "type": "electric_bike", "name": "4d59a8d370000629be2a3420a6e525c6", "is_disabled": 0, "rental_uris": {"ios": "https://dc.lft.to/lastmile_qr_scan", "android": "https://dc.lft.to/lastmile_qr_scan"}, "is_reserved": 0}, {"lon": -76.99836783333333, "bike_id": "a3bfcba3689b014852cc09a2e4bccd2e", "lat": 38.902393000000004, "fusion_lon": 0.0, "fusion_lat": 0.0, "type": "electric_scooter", "name": "a3bfcba3689b014852cc09a2e4bccd2e", "is_disabled": 0, "rental_uris": {"ios": "https://dc.lft.to/lastmile_qr_scan", "android": "https://dc.lft.to/lastmile_qr_scan"}, "is_reserved": 0}, {"lon": -76.9317385, "bike_id": "83aecce9f2cc421f28e315eab14dfb6d", "lat": 38.898846166666665, "fusion_lon": 0.0, "fusion_lat": 0.0, "type": "electric_scooter", "name": "83aecce9f2cc421f28e315eab14dfb6d", "is_disabled": 0, "rental_uris": {"ios": "https://dc.lft.to/lastmile_qr_scan", "android": "https://dc.lft.to/lastmile_qr_scan"}, "is_reserved": 0}, {"lon": -76.99475083333333, "bike_id": "ed437d250e8966e0442c5d88e45c4bbd", "lat": 38.862192666666665, "fusion_lon": 0.0, "fusion_lat": 0.0, "type": "electric_scooter", "name": "ed437d250e8966e0442c5d88e45c4bbd", "is_disabled": 0, "rental_uris": {"ios": "https://dc.lft.to/lastmile_qr_scan", "android": "https://dc.lft.to/lastmile_qr_scan"}, "is_reserved": 0}, {"lon": -77.03480666666667, "bike_id": "1b105b5f6638e5667d2a0da7c6645e4f", "lat": 38.9287285, "fusion_lon": 0.0, "fusion_lat": 0.0, "type": "electric_scooter", "name": "1b105b5f6638e5667d2a0da7c6645e4f", "is_disabled": 0, "rental_uris": {"ios": "https://dc.lft.to/lastmile_qr_scan", "android": "https://dc.lft.to/lastmile_qr_scan"}, "is_reserved": 0}, {"lon": -77.00553116666667, "bike_id": "331a89b2f06722b3b21fb9b16e50e0a5", "lat": 38.878697333333335, "fusion_lon": 0.0, "fusion_lat": 0.0, "type": "electric_scooter", "name": "331a89b2f06722b3b21fb9b16e50e0a5", "is_disabled": 0, "rental_uris": {"ios": "https://dc.lft.to/lastmile_qr_scan", "android": "https://dc.lft.to/lastmile_qr_scan"}, "is_reserved": 0}, {"lon": -77.01722533333333, "bike_id": "3a64b2edef138c061e4faa04518006e3", "lat": 38.9149975, "fusion_lon": 0.0, "fusion_lat": 0.0, "type": "electric_scooter", "name": "3a64b2edef138c061e4faa04518006e3", "is_disabled": 0, "rental_uris": {"ios": "https://dc.lft.to/lastmile_qr_scan", "android": "https://dc.lft.to/lastmile_qr_scan"}, "is_reserved": 0}, {"lon": -77.04704466666666, "bike_id": "09f0ea3cc20affdc553847e0e631f34f", "lat": 38.922226333333334, "fusion_lon": 0.0, "fusion_lat": 0.0, "type": "electric_scooter", "name": "09f0ea3cc20affdc553847e0e631f34f", "is_disabled": 0, "rental_uris": {"ios": "https://dc.lft.to/lastmile_qr_scan", "android": "https://dc.lft.to/lastmile_qr_scan"}, "is_reserved": 0}, {"lon": -76.94978866666666, "bike_id": "86a049b374053fe3990dc1315cbbe71d", "lat": 38.89463633333333, "fusion_lon": 0.0, "fusion_lat": 0.0, "type": "electric_scooter", "name": "86a049b374053fe3990dc1315cbbe71d", "is_disabled": 0, "rental_uris": {"ios": "https://dc.lft.to/lastmile_qr_scan", "android": "https://dc.lft.to/lastmile_qr_scan"}, "is_reserved": 0}, {"lon": -77.03193833333333, "bike_id": "4be171cd40b216695f06d7ab90ad0e6c", "lat": 38.9098005, "fusion_lon": 0.0, "fusion_lat": 0.0, "type": "electric_scooter", "name": "4be171cd40b216695f06d7ab90ad0e6c", "is_disabled": 0, "rental_uris": {"ios": "https://dc.lft.to/lastmile_qr_scan", "android": "https://dc.lft.to/lastmile_qr_scan"}, "is_reserved": 0}, {"lon": -77.00530733333333, "bike_id": "479c070f0adfb7b077ed2b946a9b11cd", "lat": 38.8792795, "fusion_lon": 0.0, "fusion_lat": 0.0, "type": "electric_scooter", "name": "479c070f0adfb7b077ed2b946a9b11cd", "is_disabled": 0, "rental_uris": {"ios": "https://dc.lft.to/lastmile_qr_scan", "android": "https://dc.lft.to/lastmile_qr_scan"}, "is_reserved": 0}, {"lon": -77.0332955, "bike_id": "e310b493428a612476cd6880670660b1", "lat": 38.947151833333336, "fusion_lon": 0.0, "fusion_lat": 0.0, "type": "electric_scooter", "name": "e310b493428a612476cd6880670660b1", "is_disabled": 0, "rental_uris": {"ios": "https://dc.lft.to/lastmile_qr_scan", "android": "https://dc.lft.to/lastmile_qr_scan"}, "is_reserved": 0}, {"lon": -76.952008, "bike_id": "e712ebe0d8947bd9bf2c2589284d5cc1", "lat": 38.900115166666666, "fusion_lon": 0.0, "fusion_lat": 0.0, "type": "electric_scooter", "name": "e712ebe0d8947bd9bf2c2589284d5cc1", "is_disabled": 0, "rental_uris": {"ios": "https://dc.lft.to/lastmile_qr_scan", "android": "https://dc.lft.to/lastmile_qr_scan"}, "is_reserved": 0}, {"lon": -77.02488166666667, "bike_id": "2609fe63c2ad905302f84177a06ef696", "lat": 38.90729433333333, "fusion_lon": 0.0, "fusion_lat": 0.0, "type": "electric_scooter", "name": "2609fe63c2ad905302f84177a06ef696", "is_disabled": 0, "rental_uris": {"ios": "https://dc.lft.to/lastmile_qr_scan", "android": "https://dc.lft.to/lastmile_qr_scan"}, "is_reserved": 0}, {"lon": -77.005489, "bike_id": "5d95a161dcae94ff14c8daa0661ee2a0", "lat": 38.88754766666667, "fusion_lon": 0.0, "fusion_lat": 0.0, "type": "electric_scooter", "name": "5d95a161dcae94ff14c8daa0661ee2a0", "is_disabled": 0, "rental_uris": {"ios": "https://dc.lft.to/lastmile_qr_scan", "android": "https://dc.lft.to/lastmile_qr_scan"}, "is_reserved": 0}, {"lon": -77.04540916666667, "bike_id": "e615c0bf86f02330feddadb997034c26", "lat": 38.90955816666666, "fusion_lon": 0.0, "fusion_lat": 0.0, "type": "electric_scooter", "name": "e615c0bf86f02330feddadb997034c26", "is_disabled": 0, "rental_uris": {"ios": "https://dc.lft.to/lastmile_qr_scan", "android": "https://dc.lft.to/lastmile_qr_scan"}, "is_reserved": 0}, {"lon": -77.02578716666666, "bike_id": "c900279f0230ae70e97ebc585afb89af", "lat": 38.914097, "fusion_lon": 0.0, "fusion_lat": 0.0, "type": "electric_scooter", "name": "c900279f0230ae70e97ebc585afb89af", "is_disabled": 0, "rental_uris": {"ios": "https://dc.lft.to/lastmile_qr_scan", "android": "https://dc.lft.to/lastmile_qr_scan"}, "is_reserved": 0}, {"lon": -77.01027833333333, "bike_id": "31e5a218d19ecde464a836dcfbe725ed", "lat": 38.86672766666667, "fusion_lon": 0.0, "fusion_lat": 0.0, "type": "electric_scooter", "name": "31e5a218d19ecde464a836dcfbe725ed", "is_disabled": 0, "rental_uris": {"ios": "https://dc.lft.to/lastmile_qr_scan", "android": "https://dc.lft.to/lastmile_qr_scan"}, "is_reserved": 0}, {"lon": -77.03974716666667, "bike_id": "2dfc30679c714187310e3c0cb2ec5678", "lat": 38.92083366666667, "fusion_lon": 0.0, "fusion_lat": 0.0, "type": "electric_scooter", "name": "2dfc30679c714187310e3c0cb2ec5678", "is_disabled": 0, "rental_uris": {"ios": "https://dc.lft.to/lastmile_qr_scan", "android": "https://dc.lft.to/lastmile_qr_scan"}, "is_reserved": 0}, {"lon": -77.03477916666667, "bike_id": "a50c7b625c30ced6c7512825f53a8358", "lat": 38.90583, "fusion_lon": 0.0, "fusion_lat": 0.0, "type": "electric_scooter", "name": "a50c7b625c30ced6c7512825f53a8358", "is_disabled": 0, "rental_uris": {"ios": "https://dc.lft.to/lastmile_qr_scan", "android": "https://dc.lft.to/lastmile_qr_scan"}, "is_reserved": 0}, {"lon": -77.01105416666667, "bike_id": "5eafce3042eaaa62ca708cb580018974", "lat": 38.903464666666665, "fusion_lon": 0.0, "fusion_lat": 0.0, "type": "electric_scooter", "name": "5eafce3042eaaa62ca708cb580018974", "is_disabled": 0, "rental_uris": {"ios": "https://dc.lft.to/lastmile_qr_scan", "android": "https://dc.lft.to/lastmile_qr_scan"}, "is_reserved": 0}, {"lon": -77.003059, "bike_id": "634fdc64fabfe738a3e83a169c8cf9fa", "lat": 38.89496583333333, "fusion_lon": 0.0, "fusion_lat": 0.0, "type": "electric_scooter", "name": "634fdc64fabfe738a3e83a169c8cf9fa", "is_disabled": 0, "rental_uris": {"ios": "https://dc.lft.to/lastmile_qr_scan", "android": "https://dc.lft.to/lastmile_qr_scan"}, "is_reserved": 0}, {"lon": -77.03315016666667, "bike_id": "b202eb65b9a08123f48d45fff0b6367f", "lat": 38.9032245, "fusion_lon": 0.0, "fusion_lat": 0.0, "type": "electric_scooter", "name": "b202eb65b9a08123f48d45fff0b6367f", "is_disabled": 0, "rental_uris": {"ios": "https://dc.lft.to/lastmile_qr_scan", "android": "https://dc.lft.to/lastmile_qr_scan"}, "is_reserved": 0}, {"lon": -77.038743, "bike_id": "40fa9e54ca4f7c48a77629ac7507d3b1", "lat": 38.92515566666667, "fusion_lon": 0.0, "fusion_lat": 0.0, "type": "electric_scooter", "name": "40fa9e54ca4f7c48a77629ac7507d3b1", "is_disabled": 0, "rental_uris": {"ios": "https://dc.lft.to/lastmile_qr_scan", "android": "https://dc.lft.to/lastmile_qr_scan"}, "is_reserved": 0}, {"lon": -77.02008216666667, "bike_id": "6114f226299464d0538567c3496fcc67", "lat": 38.92413166666667, "fusion_lon": 0.0, "fusion_lat": 0.0, "type": "electric_scooter", "name": "6114f226299464d0538567c3496fcc67", "is_disabled": 0, "rental_uris": {"ios": "https://dc.lft.to/lastmile_qr_scan", "android": "https://dc.lft.to/lastmile_qr_scan"}, "is_reserved": 0}, {"lon": -77.08501666666666, "bike_id": "9608edf902efc3d6f495366fd881af9c", "lat": 38.95935266666667, "fusion_lon": 0.0, "fusion_lat": 0.0, "type": "electric_scooter", "name": "9608edf902efc3d6f495366fd881af9c", "is_disabled": 0, "rental_uris": {"ios": "https://dc.lft.to/lastmile_qr_scan", "android": "https://dc.lft.to/lastmile_qr_scan"}, "is_reserved": 0}, {"lon": -77.03036283333333, "bike_id": "399f4f0175dc93e8ccd66d7e75f9f60f", "lat": 38.87840766666667, "fusion_lon": 0.0, "fusion_lat": 0.0, "type": "electric_scooter", "name": "399f4f0175dc93e8ccd66d7e75f9f60f", "is_disabled": 0, "rental_uris": {"ios": "https://dc.lft.to/lastmile_qr_scan", "android": "https://dc.lft.to/lastmile_qr_scan"}, "is_reserved": 0}, {"lon": -77.018161, "bike_id": "f80cb3ea41a5c441f42a3ec01bc6f522", "lat": 38.923706, "fusion_lon": 0.0, "fusion_lat": 0.0, "type": "electric_scooter", "name": "f80cb3ea41a5c441f42a3ec01bc6f522", "is_disabled": 0, "rental_uris": {"ios": "https://dc.lft.to/lastmile_qr_scan", "android": "https://dc.lft.to/lastmile_qr_scan"}, "is_reserved": 0}, {"lon": -77.05093916666667, "bike_id": "29c51265607fb125a51c2aa5ea8cd717", "lat": 38.923109333333336, "fusion_lon": 0.0, "fusion_lat": 0.0, "type": "electric_scooter", "name": "29c51265607fb125a51c2aa5ea8cd717", "is_disabled": 0, "rental_uris": {"ios": "https://dc.lft.to/lastmile_qr_scan", "android": "https://dc.lft.to/lastmile_qr_scan"}, "is_reserved": 0}, {"lon": -77.0130905, "bike_id": "9a457038540f2e809a5f51a21be1ed1b", "lat": 38.9073655, "fusion_lon": 0.0, "fusion_lat": 0.0, "type": "electric_scooter", "name": "9a457038540f2e809a5f51a21be1ed1b", "is_disabled": 0, "rental_uris": {"ios": "https://dc.lft.to/lastmile_qr_scan", "android": "https://dc.lft.to/lastmile_qr_scan"}, "is_reserved": 0}, {"lon": -77.01767766666667, "bike_id": "0948ac48c004a557847348196366ad18", "lat": 38.90091266666667, "fusion_lon": 0.0, "fusion_lat": 0.0, "type": "electric_scooter", "name": "0948ac48c004a557847348196366ad18", "is_disabled": 0, "rental_uris": {"ios": "https://dc.lft.to/lastmile_qr_scan", "android": "https://dc.lft.to/lastmile_qr_scan"}, "is_reserved": 0}, {"lon": -77.0443985, "bike_id": "20b87f78f35d511514b1895106f9c834", "lat": 38.9058125, "fusion_lon": 0.0, "fusion_lat": 0.0, "type": "electric_scooter", "name": "20b87f78f35d511514b1895106f9c834", "is_disabled": 0, "rental_uris": {"ios": "https://dc.lft.to/lastmile_qr_scan", "android": "https://dc.lft.to/lastmile_qr_scan"}, "is_reserved": 0}, {"lon": -77.03250916666667, "bike_id": "a3caf8e2a741c54627ed889dc44ad3ed", "lat": 38.93728316666667, "fusion_lon": 0.0, "fusion_lat": 0.0, "type": "electric_scooter", "name": "a3caf8e2a741c54627ed889dc44ad3ed", "is_disabled": 0, "rental_uris": {"ios": "https://dc.lft.to/lastmile_qr_scan", "android": "https://dc.lft.to/lastmile_qr_scan"}, "is_reserved": 0}, {"lon": -77.00335733333333, "bike_id": "4e914af74e2eb05c12811a824d992a0e", "lat": 38.8973295, "fusion_lon": 0.0, "fusion_lat": 0.0, "type": "electric_scooter", "name": "4e914af74e2eb05c12811a824d992a0e", "is_disabled": 0, "rental_uris": {"ios": "https://dc.lft.to/lastmile_qr_scan", "android": "https://dc.lft.to/lastmile_qr_scan"}, "is_reserved": 0}, {"lon": -77.03332533333334, "bike_id": "db79c69bc4569d678c1361de4f11f00c", "lat": 38.915636, "fusion_lon": 0.0, "fusion_lat": 0.0, "type": "electric_scooter", "name": "db79c69bc4569d678c1361de4f11f00c", "is_disabled": 0, "rental_uris": {"ios": "https://dc.lft.to/lastmile_qr_scan", "android": "https://dc.lft.to/lastmile_qr_scan"}, "is_reserved": 0}, {"lon": -77.02764816666667, "bike_id": "d10bbf083e9f7fe8dfa5148a576e7083", "lat": 38.95431883333333, "fusion_lon": 0.0, "fusion_lat": 0.0, "type": "electric_scooter", "name": "d10bbf083e9f7fe8dfa5148a576e7083", "is_disabled": 0, "rental_uris": {"ios": "https://dc.lft.to/lastmile_qr_scan", "android": "https://dc.lft.to/lastmile_qr_scan"}, "is_reserved": 0}, {"lon": -77.0328755, "bike_id": "a60dca08bd6d49f39627d235db32b850", "lat": 38.94169816666667, "fusion_lon": 0.0, "fusion_lat": 0.0, "type": "electric_scooter", "name": "a60dca08bd6d49f39627d235db32b850", "is_disabled": 0, "rental_uris": {"ios": "https://dc.lft.to/lastmile_qr_scan", "android": "https://dc.lft.to/lastmile_qr_scan"}, "is_reserved": 0}, {"lon": -76.99079983333333, "bike_id": "199daf312942b7d2fd6a9777a62a9c3b", "lat": 38.862301333333335, "fusion_lon": 0.0, "fusion_lat": 0.0, "type": "electric_bike", "name": "199daf312942b7d2fd6a9777a62a9c3b", "is_disabled": 0, "rental_uris": {"ios": "https://dc.lft.to/lastmile_qr_scan", "android": "https://dc.lft.to/lastmile_qr_scan"}, "is_reserved": 0}, {"lon": -77.0773045, "bike_id": "4c29e14194d1f15c03647019cdfb04cd", "lat": 38.92261533333333, "fusion_lon": 0.0, "fusion_lat": 0.0, "type": "electric_scooter", "name": "4c29e14194d1f15c03647019cdfb04cd", "is_disabled": 0, "rental_uris": {"ios": "https://dc.lft.to/lastmile_qr_scan", "android": "https://dc.lft.to/lastmile_qr_scan"}, "is_reserved": 0}, {"lon": -76.98085816666666, "bike_id": "bdc118ff61f363a58905ac837f4fba7d", "lat": 38.90709716666667, "fusion_lon": 0.0, "fusion_lat": 0.0, "type": "electric_scooter", "name": "bdc118ff61f363a58905ac837f4fba7d", "is_disabled": 0, "rental_uris": {"ios": "https://dc.lft.to/lastmile_qr_scan", "android": "https://dc.lft.to/lastmile_qr_scan"}, "is_reserved": 0}, {"lon": -77.06829966666666, "bike_id": "7476900b0f513f4086f89776ecb71618", "lat": 38.8056945, "fusion_lon": 0.0, "fusion_lat": 0.0, "type": "electric_bike", "name": "7476900b0f513f4086f89776ecb71618", "is_disabled": 0, "rental_uris": {"ios": "https://dc.lft.to/lastmile_qr_scan", "android": "https://dc.lft.to/lastmile_qr_scan"}, "is_reserved": 0}, {"lon": -77.03444183333333, "bike_id": "a346a94b399ce29c83ef1370b64cb19a", "lat": 38.909539333333335, "fusion_lon": 0.0, "fusion_lat": 0.0, "type": "electric_scooter", "name": "a346a94b399ce29c83ef1370b64cb19a", "is_disabled": 0, "rental_uris": {"ios": "https://dc.lft.to/lastmile_qr_scan", "android": "https://dc.lft.to/lastmile_qr_scan"}, "is_reserved": 0}, {"lon": -77.03451016666666, "bike_id": "b0dc4a37f7b21938635e1fa9397a214c", "lat": 38.93435516666667, "fusion_lon": 0.0, "fusion_lat": 0.0, "type": "electric_scooter", "name": "b0dc4a37f7b21938635e1fa9397a214c", "is_disabled": 0, "rental_uris": {"ios": "https://dc.lft.to/lastmile_qr_scan", "android": "https://dc.lft.to/lastmile_qr_scan"}, "is_reserved": 0}, {"lon": -77.0296455, "bike_id": "d5d8545a74c06b2b564d3564fe0e4d1a", "lat": 38.92188616666667, "fusion_lon": 0.0, "fusion_lat": 0.0, "type": "electric_scooter", "name": "d5d8545a74c06b2b564d3564fe0e4d1a", "is_disabled": 0, "rental_uris": {"ios": "https://dc.lft.to/lastmile_qr_scan", "android": "https://dc.lft.to/lastmile_qr_scan"}, "is_reserved": 0}, {"lon": -76.99683033333334, "bike_id": "4810d1d4a44e52d1dc831e66b3e6bde5", "lat": 38.881234166666665, "fusion_lon": 0.0, "fusion_lat": 0.0, "type": "electric_scooter", "name": "4810d1d4a44e52d1dc831e66b3e6bde5", "is_disabled": 0, "rental_uris": {"ios": "https://dc.lft.to/lastmile_qr_scan", "android": "https://dc.lft.to/lastmile_qr_scan"}, "is_reserved": 0}, {"lon": -77.07574266666667, "bike_id": "c48e4abbe685ea874b92a03b63eae4ef", "lat": 38.912692666666665, "fusion_lon": 0.0, "fusion_lat": 0.0, "type": "electric_scooter", "name": "c48e4abbe685ea874b92a03b63eae4ef", "is_disabled": 0, "rental_uris": {"ios": "https://dc.lft.to/lastmile_qr_scan", "android": "https://dc.lft.to/lastmile_qr_scan"}, "is_reserved": 0}, {"lon": -77.021798, "bike_id": "fae67d812e563580c730e363933f3894", "lat": 38.9104655, "fusion_lon": 0.0, "fusion_lat": 0.0, "type": "electric_scooter", "name": "fae67d812e563580c730e363933f3894", "is_disabled": 0, "rental_uris": {"ios": "https://dc.lft.to/lastmile_qr_scan", "android": "https://dc.lft.to/lastmile_qr_scan"}, "is_reserved": 0}, {"lon": -77.012415, "bike_id": "d193f87fe7746d8a81ce50c3737cc695", "lat": 38.915731666666666, "fusion_lon": 0.0, "fusion_lat": 0.0, "type": "electric_scooter", "name": "d193f87fe7746d8a81ce50c3737cc695", "is_disabled": 0, "rental_uris": {"ios": "https://dc.lft.to/lastmile_qr_scan", "android": "https://dc.lft.to/lastmile_qr_scan"}, "is_reserved": 0}, {"lon": -77.02721266666667, "bike_id": "4391d41ab9de73eebd8789d36945067f", "lat": 38.901458, "fusion_lon": 0.0, "fusion_lat": 0.0, "type": "electric_scooter", "name": "4391d41ab9de73eebd8789d36945067f", "is_disabled": 0, "rental_uris": {"ios": "https://dc.lft.to/lastmile_qr_scan", "android": "https://dc.lft.to/lastmile_qr_scan"}, "is_reserved": 0}, {"lon": -76.919713, "bike_id": "df892c7a67fc81c3f38f3667cb3b7709", "lat": 38.90034583333333, "fusion_lon": 0.0, "fusion_lat": 0.0, "type": "electric_scooter", "name": "df892c7a67fc81c3f38f3667cb3b7709", "is_disabled": 0, "rental_uris": {"ios": "https://dc.lft.to/lastmile_qr_scan", "android": "https://dc.lft.to/lastmile_qr_scan"}, "is_reserved": 0}, {"lon": -77.0169665, "bike_id": "6664b64cc2a111c654784a1be7429b27", "lat": 38.91388083333333, "fusion_lon": 0.0, "fusion_lat": 0.0, "type": "electric_scooter", "name": "6664b64cc2a111c654784a1be7429b27", "is_disabled": 0, "rental_uris": {"ios": "https://dc.lft.to/lastmile_qr_scan", "android": "https://dc.lft.to/lastmile_qr_scan"}, "is_reserved": 0}, {"lon": -77.01176816666667, "bike_id": "5bc0511aa4f5b7006006e2f141656427", "lat": 38.9002905, "fusion_lon": 0.0, "fusion_lat": 0.0, "type": "electric_scooter", "name": "5bc0511aa4f5b7006006e2f141656427", "is_disabled": 0, "rental_uris": {"ios": "https://dc.lft.to/lastmile_qr_scan", "android": "https://dc.lft.to/lastmile_qr_scan"}, "is_reserved": 0}, {"lon": -77.034703, "bike_id": "6f80c15dacaefe071b1f81a2b8a9f35f", "lat": 38.90574466666666, "fusion_lon": 0.0, "fusion_lat": 0.0, "type": "electric_scooter", "name": "6f80c15dacaefe071b1f81a2b8a9f35f", "is_disabled": 0, "rental_uris": {"ios": "https://dc.lft.to/lastmile_qr_scan", "android": "https://dc.lft.to/lastmile_qr_scan"}, "is_reserved": 0}, {"lon": -77.03853833333334, "bike_id": "76fd51c2efd08b02b6d39844592fa3e8", "lat": 38.917485666666664, "fusion_lon": 0.0, "fusion_lat": 0.0, "type": "electric_scooter", "name": "76fd51c2efd08b02b6d39844592fa3e8", "is_disabled": 0, "rental_uris": {"ios": "https://dc.lft.to/lastmile_qr_scan", "android": "https://dc.lft.to/lastmile_qr_scan"}, "is_reserved": 0}, {"lon": -76.92201116666666, "bike_id": "e0067ca24b53c6df33644ee1da99cb98", "lat": 38.895021666666665, "fusion_lon": 0.0, "fusion_lat": 0.0, "type": "electric_bike", "name": "e0067ca24b53c6df33644ee1da99cb98", "is_disabled": 0, "rental_uris": {"ios": "https://dc.lft.to/lastmile_qr_scan", "android": "https://dc.lft.to/lastmile_qr_scan"}, "is_reserved": 0}, {"lon": -77.03859383333334, "bike_id": "67143e8bf361dccfd87f4cc379a9943b", "lat": 38.91666716666667, "fusion_lon": 0.0, "fusion_lat": 0.0, "type": "electric_scooter", "name": "67143e8bf361dccfd87f4cc379a9943b", "is_disabled": 0, "rental_uris": {"ios": "https://dc.lft.to/lastmile_qr_scan", "android": "https://dc.lft.to/lastmile_qr_scan"}, "is_reserved": 0}, {"lon": -77.00329016666667, "bike_id": "5b222dbce0edde1f44fc431cd54544e2", "lat": 38.9026745, "fusion_lon": 0.0, "fusion_lat": 0.0, "type": "electric_scooter", "name": "5b222dbce0edde1f44fc431cd54544e2", "is_disabled": 0, "rental_uris": {"ios": "https://dc.lft.to/lastmile_qr_scan", "android": "https://dc.lft.to/lastmile_qr_scan"}, "is_reserved": 0}, {"lon": -77.02470516666666, "bike_id": "4928df20c5b3cde22236ba969421ff7c", "lat": 38.9309735, "fusion_lon": 0.0, "fusion_lat": 0.0, "type": "electric_scooter", "name": "4928df20c5b3cde22236ba969421ff7c", "is_disabled": 0, "rental_uris": {"ios": "https://dc.lft.to/lastmile_qr_scan", "android": "https://dc.lft.to/lastmile_qr_scan"}, "is_reserved": 0}, {"lon": -77.00081033333333, "bike_id": "4cd6a45a8888352c46b59fd035211a80", "lat": 38.894755333333336, "fusion_lon": 0.0, "fusion_lat": 0.0, "type": "electric_scooter", "name": "4cd6a45a8888352c46b59fd035211a80", "is_disabled": 0, "rental_uris": {"ios": "https://dc.lft.to/lastmile_qr_scan", "android": "https://dc.lft.to/lastmile_qr_scan"}, "is_reserved": 0}, {"lon": -77.03189133333333, "bike_id": "b86f057b354e8706345d3041d0288916", "lat": 38.9118255, "fusion_lon": 0.0, "fusion_lat": 0.0, "type": "electric_scooter", "name": "b86f057b354e8706345d3041d0288916", "is_disabled": 0, "rental_uris": {"ios": "https://dc.lft.to/lastmile_qr_scan", "android": "https://dc.lft.to/lastmile_qr_scan"}, "is_reserved": 0}, {"lon": -77.010833, "bike_id": "2c02a905e95f38a2a19a8f90c2873444", "lat": 38.90780983333333, "fusion_lon": 0.0, "fusion_lat": 0.0, "type": "electric_scooter", "name": "2c02a905e95f38a2a19a8f90c2873444", "is_disabled": 0, "rental_uris": {"ios": "https://dc.lft.to/lastmile_qr_scan", "android": "https://dc.lft.to/lastmile_qr_scan"}, "is_reserved": 0}, {"lon": -76.99033850000001, "bike_id": "81848903fa4fb8d45a21b856d56ba5d9", "lat": 38.902866, "fusion_lon": 0.0, "fusion_lat": 0.0, "type": "electric_scooter", "name": "81848903fa4fb8d45a21b856d56ba5d9", "is_disabled": 0, "rental_uris": {"ios": "https://dc.lft.to/lastmile_qr_scan", "android": "https://dc.lft.to/lastmile_qr_scan"}, "is_reserved": 0}, {"lon": -77.0306275, "bike_id": "81ad5d1a6fb038dc154e910df7b84362", "lat": 38.909749, "fusion_lon": 0.0, "fusion_lat": 0.0, "type": "electric_scooter", "name": "81ad5d1a6fb038dc154e910df7b84362", "is_disabled": 0, "rental_uris": {"ios": "https://dc.lft.to/lastmile_qr_scan", "android": "https://dc.lft.to/lastmile_qr_scan"}, "is_reserved": 0}, {"lon": -77.03266883333333, "bike_id": "4822522ed5649de337c1d22fd243310a", "lat": 38.934514166666666, "fusion_lon": 0.0, "fusion_lat": 0.0, "type": "electric_scooter", "name": "4822522ed5649de337c1d22fd243310a", "is_disabled": 0, "rental_uris": {"ios": "https://dc.lft.to/lastmile_qr_scan", "android": "https://dc.lft.to/lastmile_qr_scan"}, "is_reserved": 0}, {"lon": -77.06397316666667, "bike_id": "6f4e03e8c1edb80eb1b497618795d64e", "lat": 38.94320066666667, "fusion_lon": 0.0, "fusion_lat": 0.0, "type": "electric_scooter", "name": "6f4e03e8c1edb80eb1b497618795d64e", "is_disabled": 0, "rental_uris": {"ios": "https://dc.lft.to/lastmile_qr_scan", "android": "https://dc.lft.to/lastmile_qr_scan"}, "is_reserved": 0}, {"lon": -77.04171983333333, "bike_id": "6484f7ef9e249b6ba80d0f602b1f1df4", "lat": 38.91937566666667, "fusion_lon": 0.0, "fusion_lat": 0.0, "type": "electric_scooter", "name": "6484f7ef9e249b6ba80d0f602b1f1df4", "is_disabled": 0, "rental_uris": {"ios": "https://dc.lft.to/lastmile_qr_scan", "android": "https://dc.lft.to/lastmile_qr_scan"}, "is_reserved": 0}, {"lon": -77.04158283333334, "bike_id": "686b305e0cb40c7e9023e22b4d0f6ef8", "lat": 38.9074815, "fusion_lon": 0.0, "fusion_lat": 0.0, "type": "electric_scooter", "name": "686b305e0cb40c7e9023e22b4d0f6ef8", "is_disabled": 0, "rental_uris": {"ios": "https://dc.lft.to/lastmile_qr_scan", "android": "https://dc.lft.to/lastmile_qr_scan"}, "is_reserved": 0}, {"lon": -76.99037816666667, "bike_id": "c1d8b8b21eb3f35cb16c0a337118535b", "lat": 38.86379983333333, "fusion_lon": 0.0, "fusion_lat": 0.0, "type": "electric_scooter", "name": "c1d8b8b21eb3f35cb16c0a337118535b", "is_disabled": 0, "rental_uris": {"ios": "https://dc.lft.to/lastmile_qr_scan", "android": "https://dc.lft.to/lastmile_qr_scan"}, "is_reserved": 0}, {"lon": -77.00584616666667, "bike_id": "0d1bcf9c29dc4879ca6a90e77db687a1", "lat": 38.8843865, "fusion_lon": 0.0, "fusion_lat": 0.0, "type": "electric_scooter", "name": "0d1bcf9c29dc4879ca6a90e77db687a1", "is_disabled": 0, "rental_uris": {"ios": "https://dc.lft.to/lastmile_qr_scan", "android": "https://dc.lft.to/lastmile_qr_scan"}, "is_reserved": 0}, {"lon": -76.99842533333333, "bike_id": "c03cb947ab4133a655e2afc3b10f248c", "lat": 38.902110666666665, "fusion_lon": 0.0, "fusion_lat": 0.0, "type": "electric_scooter", "name": "c03cb947ab4133a655e2afc3b10f248c", "is_disabled": 0, "rental_uris": {"ios": "https://dc.lft.to/lastmile_qr_scan", "android": "https://dc.lft.to/lastmile_qr_scan"}, "is_reserved": 0}, {"lon": -77.042102, "bike_id": "110997c3dac5c7cd540ea875fc7384b4", "lat": 38.92087183333334, "fusion_lon": 0.0, "fusion_lat": 0.0, "type": "electric_scooter", "name": "110997c3dac5c7cd540ea875fc7384b4", "is_disabled": 0, "rental_uris": {"ios": "https://dc.lft.to/lastmile_qr_scan", "android": "https://dc.lft.to/lastmile_qr_scan"}, "is_reserved": 0}, {"lon": -76.96779466666666, "bike_id": "a125b5a6548c93e1ad0344c25ff0d0b5", "lat": 38.86845916666667, "fusion_lon": 0.0, "fusion_lat": 0.0, "type": "electric_scooter", "name": "a125b5a6548c93e1ad0344c25ff0d0b5", "is_disabled": 0, "rental_uris": {"ios": "https://dc.lft.to/lastmile_qr_scan", "android": "https://dc.lft.to/lastmile_qr_scan"}, "is_reserved": 0}, {"lon": -77.03531233333334, "bike_id": "f627e34b1a69c7aeab628f60e2d8603f", "lat": 38.924116833333336, "fusion_lon": 0.0, "fusion_lat": 0.0, "type": "electric_bike", "name": "f627e34b1a69c7aeab628f60e2d8603f", "is_disabled": 0, "rental_uris": {"ios": "https://dc.lft.to/lastmile_qr_scan", "android": "https://dc.lft.to/lastmile_qr_scan"}, "is_reserved": 0}, {"lon": -77.0325565, "bike_id": "b7fb758fef18cf5e7f1c86138d5bb41b", "lat": 38.937293, "fusion_lon": 0.0, "fusion_lat": 0.0, "type": "electric_scooter", "name": "b7fb758fef18cf5e7f1c86138d5bb41b", "is_disabled": 0, "rental_uris": {"ios": "https://dc.lft.to/lastmile_qr_scan", "android": "https://dc.lft.to/lastmile_qr_scan"}, "is_reserved": 0}, {"lon": -76.96153616666666, "bike_id": "73f29e652dccfcbba9ba81e72caaab08", "lat": 38.883571333333336, "fusion_lon": 0.0, "fusion_lat": 0.0, "type": "electric_scooter", "name": "73f29e652dccfcbba9ba81e72caaab08", "is_disabled": 0, "rental_uris": {"ios": "https://dc.lft.to/lastmile_qr_scan", "android": "https://dc.lft.to/lastmile_qr_scan"}, "is_reserved": 0}, {"lon": -77.038624, "bike_id": "d044b05820278f56970613980ceb6572", "lat": 38.945018166666664, "fusion_lon": 0.0, "fusion_lat": 0.0, "type": "electric_scooter", "name": "d044b05820278f56970613980ceb6572", "is_disabled": 0, "rental_uris": {"ios": "https://dc.lft.to/lastmile_qr_scan", "android": "https://dc.lft.to/lastmile_qr_scan"}, "is_reserved": 0}, {"lon": -77.03887033333334, "bike_id": "aa324d93376544cfe3f77b55546b8b72", "lat": 38.91006, "fusion_lon": 0.0, "fusion_lat": 0.0, "type": "electric_scooter", "name": "aa324d93376544cfe3f77b55546b8b72", "is_disabled": 0, "rental_uris": {"ios": "https://dc.lft.to/lastmile_qr_scan", "android": "https://dc.lft.to/lastmile_qr_scan"}, "is_reserved": 0}, {"lon": -77.032151, "bike_id": "85a3bd9a96e95738cdb2027bae9e1bae", "lat": 38.91494083333333, "fusion_lon": 0.0, "fusion_lat": 0.0, "type": "electric_scooter", "name": "85a3bd9a96e95738cdb2027bae9e1bae", "is_disabled": 0, "rental_uris": {"ios": "https://dc.lft.to/lastmile_qr_scan", "android": "https://dc.lft.to/lastmile_qr_scan"}, "is_reserved": 0}, {"lon": -77.0261195, "bike_id": "0e2ea678267d8d69acad4e09ef4f3a23", "lat": 38.914185833333335, "fusion_lon": 0.0, "fusion_lat": 0.0, "type": "electric_scooter", "name": "0e2ea678267d8d69acad4e09ef4f3a23", "is_disabled": 0, "rental_uris": {"ios": "https://dc.lft.to/lastmile_qr_scan", "android": "https://dc.lft.to/lastmile_qr_scan"}, "is_reserved": 0}, {"lon": -76.9537145, "bike_id": "ec02ff75b18f505637cd1e3a251ec5e2", "lat": 38.892049666666665, "fusion_lon": 0.0, "fusion_lat": 0.0, "type": "electric_scooter", "name": "ec02ff75b18f505637cd1e3a251ec5e2", "is_disabled": 0, "rental_uris": {"ios": "https://dc.lft.to/lastmile_qr_scan", "android": "https://dc.lft.to/lastmile_qr_scan"}, "is_reserved": 0}, {"lon": -77.03477866666667, "bike_id": "73a2658628a989da17d95c2ab28b1608", "lat": 38.928722, "fusion_lon": 0.0, "fusion_lat": 0.0, "type": "electric_scooter", "name": "73a2658628a989da17d95c2ab28b1608", "is_disabled": 0, "rental_uris": {"ios": "https://dc.lft.to/lastmile_qr_scan", "android": "https://dc.lft.to/lastmile_qr_scan"}, "is_reserved": 0}, {"lon": -76.9872165, "bike_id": "723f3ff810ab18cfc44b3b7be23d429e", "lat": 38.86681383333333, "fusion_lon": 0.0, "fusion_lat": 0.0, "type": "electric_scooter", "name": "723f3ff810ab18cfc44b3b7be23d429e", "is_disabled": 0, "rental_uris": {"ios": "https://dc.lft.to/lastmile_qr_scan", "android": "https://dc.lft.to/lastmile_qr_scan"}, "is_reserved": 0}, {"lon": -76.96909233333334, "bike_id": "b8be4ae5d9d22f2111ef6416555c85f8", "lat": 38.846156, "fusion_lon": 0.0, "fusion_lat": 0.0, "type": "electric_bike", "name": "b8be4ae5d9d22f2111ef6416555c85f8", "is_disabled": 0, "rental_uris": {"ios": "https://dc.lft.to/lastmile_qr_scan", "android": "https://dc.lft.to/lastmile_qr_scan"}, "is_reserved": 0}, {"lon": -77.02362833333333, "bike_id": "79a19dcea1b88de674660d57faacaf94", "lat": 38.89985016666667, "fusion_lon": 0.0, "fusion_lat": 0.0, "type": "electric_scooter", "name": "79a19dcea1b88de674660d57faacaf94", "is_disabled": 0, "rental_uris": {"ios": "https://dc.lft.to/lastmile_qr_scan", "android": "https://dc.lft.to/lastmile_qr_scan"}, "is_reserved": 0}, {"lon": -77.02411233333333, "bike_id": "e19d7c80929b7aca5cef2f068d54f4c8", "lat": 38.9041705, "fusion_lon": 0.0, "fusion_lat": 0.0, "type": "electric_scooter", "name": "e19d7c80929b7aca5cef2f068d54f4c8", "is_disabled": 0, "rental_uris": {"ios": "https://dc.lft.to/lastmile_qr_scan", "android": "https://dc.lft.to/lastmile_qr_scan"}, "is_reserved": 0}, {"lon": -77.015153, "bike_id": "195aaeca6cca6f51d1d9c142d2480082", "lat": 38.927964833333334, "fusion_lon": 0.0, "fusion_lat": 0.0, "type": "electric_scooter", "name": "195aaeca6cca6f51d1d9c142d2480082", "is_disabled": 0, "rental_uris": {"ios": "https://dc.lft.to/lastmile_qr_scan", "android": "https://dc.lft.to/lastmile_qr_scan"}, "is_reserved": 0}, {"lon": -77.0227255, "bike_id": "11ddeead22de921ed5109947481b7db4", "lat": 38.9268415, "fusion_lon": 0.0, "fusion_lat": 0.0, "type": "electric_scooter", "name": "11ddeead22de921ed5109947481b7db4", "is_disabled": 0, "rental_uris": {"ios": "https://dc.lft.to/lastmile_qr_scan", "android": "https://dc.lft.to/lastmile_qr_scan"}, "is_reserved": 0}, {"lon": -77.000462, "bike_id": "aee73c1d0fbae31c58b80e83277b9c7e", "lat": 38.91725516666666, "fusion_lon": 0.0, "fusion_lat": 0.0, "type": "electric_scooter", "name": "aee73c1d0fbae31c58b80e83277b9c7e", "is_disabled": 0, "rental_uris": {"ios": "https://dc.lft.to/lastmile_qr_scan", "android": "https://dc.lft.to/lastmile_qr_scan"}, "is_reserved": 0}, {"lon": -77.11589716666667, "bike_id": "ad4d52dee055b14f1badbb2efd345a2f", "lat": 39.07495383333333, "fusion_lon": 0.0, "fusion_lat": 0.0, "type": "electric_bike", "name": "ad4d52dee055b14f1badbb2efd345a2f", "is_disabled": 0, "rental_uris": {"ios": "https://dc.lft.to/lastmile_qr_scan", "android": "https://dc.lft.to/lastmile_qr_scan"}, "is_reserved": 0}, {"lon": -77.01209116666666, "bike_id": "86249cb52a042eb10dcd51d078d3cb13", "lat": 38.91654833333333, "fusion_lon": 0.0, "fusion_lat": 0.0, "type": "electric_scooter", "name": "86249cb52a042eb10dcd51d078d3cb13", "is_disabled": 0, "rental_uris": {"ios": "https://dc.lft.to/lastmile_qr_scan", "android": "https://dc.lft.to/lastmile_qr_scan"}, "is_reserved": 0}, {"lon": -76.931312, "bike_id": "d66c878935fb505767cb870e56a665a3", "lat": 38.876143166666665, "fusion_lon": 0.0, "fusion_lat": 0.0, "type": "electric_scooter", "name": "d66c878935fb505767cb870e56a665a3", "is_disabled": 0, "rental_uris": {"ios": "https://dc.lft.to/lastmile_qr_scan", "android": "https://dc.lft.to/lastmile_qr_scan"}, "is_reserved": 0}, {"lon": -77.03154816666667, "bike_id": "0dcf41ae1c87fb65d1d4675226637047", "lat": 38.892225833333335, "fusion_lon": 0.0, "fusion_lat": 0.0, "type": "electric_scooter", "name": "0dcf41ae1c87fb65d1d4675226637047", "is_disabled": 0, "rental_uris": {"ios": "https://dc.lft.to/lastmile_qr_scan", "android": "https://dc.lft.to/lastmile_qr_scan"}, "is_reserved": 0}, {"lon": -77.02471216666666, "bike_id": "edc5d09b2fc9c8d7bcde883601d38b8e", "lat": 38.91819683333333, "fusion_lon": 0.0, "fusion_lat": 0.0, "type": "electric_scooter", "name": "edc5d09b2fc9c8d7bcde883601d38b8e", "is_disabled": 0, "rental_uris": {"ios": "https://dc.lft.to/lastmile_qr_scan", "android": "https://dc.lft.to/lastmile_qr_scan"}, "is_reserved": 0}, {"lon": -77.05440333333334, "bike_id": "8b496b918ada7c414c2b79d29de2fee2", "lat": 38.928633833333336, "fusion_lon": 0.0, "fusion_lat": 0.0, "type": "electric_scooter", "name": "8b496b918ada7c414c2b79d29de2fee2", "is_disabled": 0, "rental_uris": {"ios": "https://dc.lft.to/lastmile_qr_scan", "android": "https://dc.lft.to/lastmile_qr_scan"}, "is_reserved": 0}, {"lon": -77.0490205, "bike_id": "340f42d8dacf9e057c41eef0ef1d59f3", "lat": 38.90347533333333, "fusion_lon": 0.0, "fusion_lat": 0.0, "type": "electric_scooter", "name": "340f42d8dacf9e057c41eef0ef1d59f3", "is_disabled": 0, "rental_uris": {"ios": "https://dc.lft.to/lastmile_qr_scan", "android": "https://dc.lft.to/lastmile_qr_scan"}, "is_reserved": 0}, {"lon": -77.01631716666667, "bike_id": "cfe15f4791bb0d676bbc3e7c6bd4c596", "lat": 38.929007666666664, "fusion_lon": 0.0, "fusion_lat": 0.0, "type": "electric_scooter", "name": "cfe15f4791bb0d676bbc3e7c6bd4c596", "is_disabled": 0, "rental_uris": {"ios": "https://dc.lft.to/lastmile_qr_scan", "android": "https://dc.lft.to/lastmile_qr_scan"}, "is_reserved": 0}, {"lon": -76.995395, "bike_id": "607cadc9b5b3d77e31bcd1fdb60b924a", "lat": 38.9266865, "fusion_lon": 0.0, "fusion_lat": 0.0, "type": "electric_scooter", "name": "607cadc9b5b3d77e31bcd1fdb60b924a", "is_disabled": 0, "rental_uris": {"ios": "https://dc.lft.to/lastmile_qr_scan", "android": "https://dc.lft.to/lastmile_qr_scan"}, "is_reserved": 0}, {"lon": -76.99548916666667, "bike_id": "2409cdfb3d96af3a41cc1640ae97cbe5", "lat": 38.862549333333334, "fusion_lon": 0.0, "fusion_lat": 0.0, "type": "electric_scooter", "name": "2409cdfb3d96af3a41cc1640ae97cbe5", "is_disabled": 0, "rental_uris": {"ios": "https://dc.lft.to/lastmile_qr_scan", "android": "https://dc.lft.to/lastmile_qr_scan"}, "is_reserved": 0}, {"lon": -76.93736083333333, "bike_id": "8a7e70ba3d2d02d937275df7b8f56f8a", "lat": 38.89011133333333, "fusion_lon": 0.0, "fusion_lat": 0.0, "type": "electric_scooter", "name": "8a7e70ba3d2d02d937275df7b8f56f8a", "is_disabled": 0, "rental_uris": {"ios": "https://dc.lft.to/lastmile_qr_scan", "android": "https://dc.lft.to/lastmile_qr_scan"}, "is_reserved": 0}, {"lon": -77.02346616666667, "bike_id": "919e72ed728c296ab35a9fd5e2ffa423", "lat": 38.93536683333333, "fusion_lon": 0.0, "fusion_lat": 0.0, "type": "electric_scooter", "name": "919e72ed728c296ab35a9fd5e2ffa423", "is_disabled": 0, "rental_uris": {"ios": "https://dc.lft.to/lastmile_qr_scan", "android": "https://dc.lft.to/lastmile_qr_scan"}, "is_reserved": 0}, {"lon": -77.0261055, "bike_id": "4ad6d5826796a459330dd5e948526e84", "lat": 38.896183, "fusion_lon": 0.0, "fusion_lat": 0.0, "type": "electric_scooter", "name": "4ad6d5826796a459330dd5e948526e84", "is_disabled": 0, "rental_uris": {"ios": "https://dc.lft.to/lastmile_qr_scan", "android": "https://dc.lft.to/lastmile_qr_scan"}, "is_reserved": 0}, {"lon": -77.02804116666667, "bike_id": "4bec7899d35ee558cd633ca99b8d08fd", "lat": 38.911078333333336, "fusion_lon": 0.0, "fusion_lat": 0.0, "type": "electric_scooter", "name": "4bec7899d35ee558cd633ca99b8d08fd", "is_disabled": 0, "rental_uris": {"ios": "https://dc.lft.to/lastmile_qr_scan", "android": "https://dc.lft.to/lastmile_qr_scan"}, "is_reserved": 0}, {"lon": -76.99766616666666, "bike_id": "5f3894ed3485c457d0c33fcf547e9f8f", "lat": 38.924477333333336, "fusion_lon": 0.0, "fusion_lat": 0.0, "type": "electric_scooter", "name": "5f3894ed3485c457d0c33fcf547e9f8f", "is_disabled": 0, "rental_uris": {"ios": "https://dc.lft.to/lastmile_qr_scan", "android": "https://dc.lft.to/lastmile_qr_scan"}, "is_reserved": 0}, {"lon": -77.03070816666667, "bike_id": "46c7d0e75e9d1559e39512a02a2ae031", "lat": 38.885883, "fusion_lon": 0.0, "fusion_lat": 0.0, "type": "electric_scooter", "name": "46c7d0e75e9d1559e39512a02a2ae031", "is_disabled": 0, "rental_uris": {"ios": "https://dc.lft.to/lastmile_qr_scan", "android": "https://dc.lft.to/lastmile_qr_scan"}, "is_reserved": 0}, {"lon": -77.00334533333333, "bike_id": "2324a4d2d52a57872bf3705e74eee4b5", "lat": 38.895245, "fusion_lon": 0.0, "fusion_lat": 0.0, "type": "electric_scooter", "name": "2324a4d2d52a57872bf3705e74eee4b5", "is_disabled": 0, "rental_uris": {"ios": "https://dc.lft.to/lastmile_qr_scan", "android": "https://dc.lft.to/lastmile_qr_scan"}, "is_reserved": 0}, {"lon": -77.02115033333334, "bike_id": "50a152d58eab16ebbf9bd2525ee11d73", "lat": 38.9300695, "fusion_lon": 0.0, "fusion_lat": 0.0, "type": "electric_scooter", "name": "50a152d58eab16ebbf9bd2525ee11d73", "is_disabled": 0, "rental_uris": {"ios": "https://dc.lft.to/lastmile_qr_scan", "android": "https://dc.lft.to/lastmile_qr_scan"}, "is_reserved": 0}, {"lon": -77.04737316666667, "bike_id": "db2b70ef69af7866afaf91873239854e", "lat": 38.909645166666664, "fusion_lon": 0.0, "fusion_lat": 0.0, "type": "electric_scooter", "name": "db2b70ef69af7866afaf91873239854e", "is_disabled": 0, "rental_uris": {"ios": "https://dc.lft.to/lastmile_qr_scan", "android": "https://dc.lft.to/lastmile_qr_scan"}, "is_reserved": 0}, {"lon": -77.00041633333333, "bike_id": "1775b9f4ec41b1df1c8e970af69a67df", "lat": 38.90014583333333, "fusion_lon": 0.0, "fusion_lat": 0.0, "type": "electric_scooter", "name": "1775b9f4ec41b1df1c8e970af69a67df", "is_disabled": 0, "rental_uris": {"ios": "https://dc.lft.to/lastmile_qr_scan", "android": "https://dc.lft.to/lastmile_qr_scan"}, "is_reserved": 0}, {"lon": -77.0299095, "bike_id": "2703a6baf782d3d5c8603342e277fb6e", "lat": 38.97441883333333, "fusion_lon": 0.0, "fusion_lat": 0.0, "type": "electric_bike", "name": "2703a6baf782d3d5c8603342e277fb6e", "is_disabled": 0, "rental_uris": {"ios": "https://dc.lft.to/lastmile_qr_scan", "android": "https://dc.lft.to/lastmile_qr_scan"}, "is_reserved": 0}, {"lon": -77.04860683333334, "bike_id": "d055ece02367542ee3370c85bd5f3562", "lat": 38.892269, "fusion_lon": 0.0, "fusion_lat": 0.0, "type": "electric_scooter", "name": "d055ece02367542ee3370c85bd5f3562", "is_disabled": 0, "rental_uris": {"ios": "https://dc.lft.to/lastmile_qr_scan", "android": "https://dc.lft.to/lastmile_qr_scan"}, "is_reserved": 0}, {"lon": -77.05007983333333, "bike_id": "5594343a645d24085350cc1feb3dbdf6", "lat": 38.897860666666666, "fusion_lon": 0.0, "fusion_lat": 0.0, "type": "electric_scooter", "name": "5594343a645d24085350cc1feb3dbdf6", "is_disabled": 0, "rental_uris": {"ios": "https://dc.lft.to/lastmile_qr_scan", "android": "https://dc.lft.to/lastmile_qr_scan"}, "is_reserved": 0}, {"lon": -77.0188895, "bike_id": "9a5fcce7c1af6657ad9b95ca765b6075", "lat": 38.91489883333333, "fusion_lon": 0.0, "fusion_lat": 0.0, "type": "electric_scooter", "name": "9a5fcce7c1af6657ad9b95ca765b6075", "is_disabled": 0, "rental_uris": {"ios": "https://dc.lft.to/lastmile_qr_scan", "android": "https://dc.lft.to/lastmile_qr_scan"}, "is_reserved": 0}, {"lon": -77.0325465, "bike_id": "7deb5a655f14855c8d6ba0b871d1497e", "lat": 38.908525166666664, "fusion_lon": 0.0, "fusion_lat": 0.0, "type": "electric_scooter", "name": "7deb5a655f14855c8d6ba0b871d1497e", "is_disabled": 0, "rental_uris": {"ios": "https://dc.lft.to/lastmile_qr_scan", "android": "https://dc.lft.to/lastmile_qr_scan"}, "is_reserved": 0}, {"lon": -77.03542783333333, "bike_id": "a289294f175d01274527e02b06221853", "lat": 38.91836766666667, "fusion_lon": 0.0, "fusion_lat": 0.0, "type": "electric_scooter", "name": "a289294f175d01274527e02b06221853", "is_disabled": 0, "rental_uris": {"ios": "https://dc.lft.to/lastmile_qr_scan", "android": "https://dc.lft.to/lastmile_qr_scan"}, "is_reserved": 0}, {"lon": -77.01878933333333, "bike_id": "cd36998088167354e6dc84997c5cfd7e", "lat": 38.90031583333333, "fusion_lon": 0.0, "fusion_lat": 0.0, "type": "electric_scooter", "name": "cd36998088167354e6dc84997c5cfd7e", "is_disabled": 0, "rental_uris": {"ios": "https://dc.lft.to/lastmile_qr_scan", "android": "https://dc.lft.to/lastmile_qr_scan"}, "is_reserved": 0}, {"lon": -77.04010533333333, "bike_id": "f576da28a139d6ca2fd7d49f9148ad95", "lat": 38.910012333333334, "fusion_lon": 0.0, "fusion_lat": 0.0, "type": "electric_scooter", "name": "f576da28a139d6ca2fd7d49f9148ad95", "is_disabled": 0, "rental_uris": {"ios": "https://dc.lft.to/lastmile_qr_scan", "android": "https://dc.lft.to/lastmile_qr_scan"}, "is_reserved": 0}, {"lon": -77.02834616666667, "bike_id": "c244d89fc4aee111b4c6d8ffb5170fb6", "lat": 38.88771533333333, "fusion_lon": 0.0, "fusion_lat": 0.0, "type": "electric_scooter", "name": "c244d89fc4aee111b4c6d8ffb5170fb6", "is_disabled": 0, "rental_uris": {"ios": "https://dc.lft.to/lastmile_qr_scan", "android": "https://dc.lft.to/lastmile_qr_scan"}, "is_reserved": 0}, {"lon": -76.97807416666667, "bike_id": "2725c9b0d63de3a1c8eafefa9c61387f", "lat": 38.9067505, "fusion_lon": 0.0, "fusion_lat": 0.0, "type": "electric_scooter", "name": "2725c9b0d63de3a1c8eafefa9c61387f", "is_disabled": 0, "rental_uris": {"ios": "https://dc.lft.to/lastmile_qr_scan", "android": "https://dc.lft.to/lastmile_qr_scan"}, "is_reserved": 0}, {"lon": -77.00213783333334, "bike_id": "bd0259e36ee85d4f82412bba5d749a16", "lat": 38.91453583333333, "fusion_lon": 0.0, "fusion_lat": 0.0, "type": "electric_scooter", "name": "bd0259e36ee85d4f82412bba5d749a16", "is_disabled": 0, "rental_uris": {"ios": "https://dc.lft.to/lastmile_qr_scan", "android": "https://dc.lft.to/lastmile_qr_scan"}, "is_reserved": 0}, {"lon": -77.00110516666666, "bike_id": "d91998b9d299f992f1e7d2fca900c966", "lat": 38.91713683333333, "fusion_lon": 0.0, "fusion_lat": 0.0, "type": "electric_scooter", "name": "d91998b9d299f992f1e7d2fca900c966", "is_disabled": 0, "rental_uris": {"ios": "https://dc.lft.to/lastmile_qr_scan", "android": "https://dc.lft.to/lastmile_qr_scan"}, "is_reserved": 0}, {"lon": -76.89540266666667, "bike_id": "22fca315f27dc5e62d0b1cc9b72178c1", "lat": 38.945541, "fusion_lon": 0.0, "fusion_lat": 0.0, "type": "electric_bike", "name": "22fca315f27dc5e62d0b1cc9b72178c1", "is_disabled": 0, "rental_uris": {"ios": "https://dc.lft.to/lastmile_qr_scan", "android": "https://dc.lft.to/lastmile_qr_scan"}, "is_reserved": 0}, {"lon": -77.09467783333334, "bike_id": "8a50c015b6d5ce7d9179cedcb7a0c0fb", "lat": 38.807626, "fusion_lon": 0.0, "fusion_lat": 0.0, "type": "electric_bike", "name": "8a50c015b6d5ce7d9179cedcb7a0c0fb", "is_disabled": 0, "rental_uris": {"ios": "https://dc.lft.to/lastmile_qr_scan", "android": "https://dc.lft.to/lastmile_qr_scan"}, "is_reserved": 0}, {"lon": -77.041641, "bike_id": "088588f0ea16c891c4340c8389dc9d06", "lat": 38.90665216666667, "fusion_lon": 0.0, "fusion_lat": 0.0, "type": "electric_scooter", "name": "088588f0ea16c891c4340c8389dc9d06", "is_disabled": 0, "rental_uris": {"ios": "https://dc.lft.to/lastmile_qr_scan", "android": "https://dc.lft.to/lastmile_qr_scan"}, "is_reserved": 0}, {"lon": -77.05333533333334, "bike_id": "aae4357e0a92dcc261c3b986c6a4c8df", "lat": 38.9071865, "fusion_lon": 0.0, "fusion_lat": 0.0, "type": "electric_scooter", "name": "aae4357e0a92dcc261c3b986c6a4c8df", "is_disabled": 0, "rental_uris": {"ios": "https://dc.lft.to/lastmile_qr_scan", "android": "https://dc.lft.to/lastmile_qr_scan"}, "is_reserved": 0}, {"lon": -77.05593666666667, "bike_id": "493a0691114eafbcc06cc8f48ec6a439", "lat": 38.91620833333333, "fusion_lon": 0.0, "fusion_lat": 0.0, "type": "electric_scooter", "name": "493a0691114eafbcc06cc8f48ec6a439", "is_disabled": 0, "rental_uris": {"ios": "https://dc.lft.to/lastmile_qr_scan", "android": "https://dc.lft.to/lastmile_qr_scan"}, "is_reserved": 0}, {"lon": -77.03840933333333, "bike_id": "b931fbe111c913f415efa9b05eb6f271", "lat": 38.910948166666664, "fusion_lon": 0.0, "fusion_lat": 0.0, "type": "electric_scooter", "name": "b931fbe111c913f415efa9b05eb6f271", "is_disabled": 0, "rental_uris": {"ios": "https://dc.lft.to/lastmile_qr_scan", "android": "https://dc.lft.to/lastmile_qr_scan"}, "is_reserved": 0}, {"lon": -77.02155466666666, "bike_id": "59e60c34b3bff543a2b3a3c23439b6cf", "lat": 38.892181666666666, "fusion_lon": 0.0, "fusion_lat": 0.0, "type": "electric_scooter", "name": "59e60c34b3bff543a2b3a3c23439b6cf", "is_disabled": 0, "rental_uris": {"ios": "https://dc.lft.to/lastmile_qr_scan", "android": "https://dc.lft.to/lastmile_qr_scan"}, "is_reserved": 0}, {"lon": -77.02732383333333, "bike_id": "d059f25fd581fc33937b16d43c3fc3da", "lat": 38.940909833333336, "fusion_lon": 0.0, "fusion_lat": 0.0, "type": "electric_scooter", "name": "d059f25fd581fc33937b16d43c3fc3da", "is_disabled": 0, "rental_uris": {"ios": "https://dc.lft.to/lastmile_qr_scan", "android": "https://dc.lft.to/lastmile_qr_scan"}, "is_reserved": 0}, {"lon": -77.01982566666666, "bike_id": "1b8dc0bf1b9d5718396ff0ac0567d103", "lat": 38.914933166666664, "fusion_lon": 0.0, "fusion_lat": 0.0, "type": "electric_scooter", "name": "1b8dc0bf1b9d5718396ff0ac0567d103", "is_disabled": 0, "rental_uris": {"ios": "https://dc.lft.to/lastmile_qr_scan", "android": "https://dc.lft.to/lastmile_qr_scan"}, "is_reserved": 0}, {"lon": -77.06137016666666, "bike_id": "5ec9dc83b8a423857cd39bdc179a86d2", "lat": 38.90529316666667, "fusion_lon": 0.0, "fusion_lat": 0.0, "type": "electric_scooter", "name": "5ec9dc83b8a423857cd39bdc179a86d2", "is_disabled": 0, "rental_uris": {"ios": "https://dc.lft.to/lastmile_qr_scan", "android": "https://dc.lft.to/lastmile_qr_scan"}, "is_reserved": 0},