{"data": {"bikes": [{"fusion_lat": 0.0, "name": "f0713b22a02a4c7df7f1d9cd8e900d9b", "is_disabled": 0, "rental_uris": {"android": "https://dc.lft.to/lastmile_qr_scan", "ios": "https://dc.lft.to/lastmile_qr_scan"}, "fusion_lon": 0.0, "lat": 38.87799966666667, "bike_id": "f0713b22a02a4c7df7f1d9cd8e900d9b", "type": "electric_scooter", "is_reserved": 0, "lon": -76.99013666666667}, {"fusion_lat": 0.0, "name": "063583658d897846f80ab2752c0e8689", "is_disabled": 0, "rental_uris": {"android": "https://dc.lft.to/lastmile_qr_scan", "ios": "https://dc.lft.to/lastmile_qr_scan"}, "fusion_lon": 0.0, "lat": 38.83865933333333, "bike_id": "063583658d897846f80ab2752c0e8689", "type": "electric_scooter", "is_reserved": 0, "lon": -76.99700016666667}, {"fusion_lat": 0.0, "name": "18ff75a47e2792c67a9fc050613cb78b", "is_disabled": 0, "rental_uris": {"android": "https://dc.lft.to/lastmile_qr_scan", "ios": "https://dc.lft.to/lastmile_qr_scan"}, "fusion_lon": 0.0, "lat": 38.923420666666665, "bike_id": "18ff75a47e2792c67a9fc050613cb78b", "type": "electric_scooter", "is_reserved": 0, "lon": -77.0377175}, {"fusion_lat": 0.0, "name": "462be7fb14fbbcf2d7be4a78796832fa", "is_disabled": 0, "rental_uris": {"android": "https://dc.lft.to/lastmile_qr_scan", "ios": "https://dc.lft.to/lastmile_qr_scan"}, "fusion_lon": 0.0, "lat": 38.90557783333333, "bike_id": "462be7fb14fbbcf2d7be4a78796832fa", "type": "electric_scooter", "is_reserved": 0, "lon": -77.04746133333333}, {"fusion_lat": 0.0, "name": "e07ddae705b40b52f6cc86285950d92b", "is_disabled": 0, "rental_uris": {"android": "https://dc.lft.to/lastmile_qr_scan", "ios": "https://dc.lft.to/lastmile_qr_scan"}, "fusion_lon": 0.0, "lat": 38.909766, "bike_id": "e07ddae705b40b52f6cc86285950d92b", "type": "electric_scooter", "is_reserved": 0, "lon": -77.02089033333333}, {"fusion_lat": 0.0, "name": "ef5ffc4f644a7df1aa6b0b4bb3caa9ce", "is_disabled": 0, "rental_uris": {"android": "https://dc.lft.to/lastmile_qr_scan", "ios": "https://dc.lft.to/lastmile_qr_scan"}, "fusion_lon": 0.0, "lat": 38.9095225, "bike_id": "ef5ffc4f644a7df1aa6b0b4bb3caa9ce", "type": "electric_scooter", "is_reserved": 0, "lon": -77.04470883333333}, {"fusion_lat": 0.0, "name": "f4297367d2b155cc1aeb62b923d5675b", "is_disabled": 0, "rental_uris": {"android": "https://dc.lft.to/lastmile_qr_scan", "ios": "https://dc.lft.to/lastmile_qr_scan"}, "fusion_lon": 0.0, "lat": 38.82863183333333, "bike_id": "f4297367d2b155cc1aeb62b923d5675b", "type": "electric_bike", "is_reserved": 0, "lon": -77.08808016666667}, {"fusion_lat": 0.0, "name": "7253f1629146fd6e002869023ce36eb3", "is_disabled": 0, "rental_uris": {"android": "https://dc.lft.to/lastmile_qr_scan", "ios": "https://dc.lft.to/lastmile_qr_scan"}, "fusion_lon": 0.0, "lat": 38.9156565, "bike_id": "7253f1629146fd6e002869023ce36eb3", "type": "electric_scooter", "is_reserved": 0, "lon": -77.03152066666667}, {"fusion_lat": 0.0, "name": "a271bc61d1aee6e0aaf179c34dbbc1c3", "is_disabled": 0, "rental_uris": {"android": "https://dc.lft.to/lastmile_qr_scan", "ios": "https://dc.lft.to/lastmile_qr_scan"}, "fusion_lon": 0.0, "lat": 38.92906466666667, "bike_id": "a271bc61d1aee6e0aaf179c34dbbc1c3", "type": "electric_scooter", "is_reserved": 0, "lon": -77.03270983333333}, {"fusion_lat": 0.0, "name": "3df783889158c48ea2f2ccd0a1a46202", "is_disabled": 0, "rental_uris": {"android": "https://dc.lft.to/lastmile_qr_scan", "ios": "https://dc.lft.to/lastmile_qr_scan"}, "fusion_lon": 0.0, "lat": 38.908343, "bike_id": "3df783889158c48ea2f2ccd0a1a46202", "type": "electric_scooter", "is_reserved": 0, "lon": -77.04355966666667}, {"fusion_lat": 0.0, "name": "7388988db99b727a76b755bb6dc1e5fe", "is_disabled": 0, "rental_uris": {"android": "https://dc.lft.to/lastmile_qr_scan", "ios": "https://dc.lft.to/lastmile_qr_scan"}, "fusion_lon": 0.0, "lat": 38.916815, "bike_id": "7388988db99b727a76b755bb6dc1e5fe", "type": "electric_scooter", "is_reserved": 0, "lon": -77.03212}, {"fusion_lat": 0.0, "name": "2b6d3ef8084d5a651dd1249966e3de77", "is_disabled": 0, "rental_uris": {"android": "https://dc.lft.to/lastmile_qr_scan", "ios": "https://dc.lft.to/lastmile_qr_scan"}, "fusion_lon": 0.0, "lat": 38.91709133333333, "bike_id": "2b6d3ef8084d5a651dd1249966e3de77", "type": "electric_scooter", "is_reserved": 0, "lon": -77.040435}, {"fusion_lat": 0.0, "name": "e5edb6975e8c27dd62b1a4a225d6283f", "is_disabled": 0, "rental_uris": {"android": "https://dc.lft.to/lastmile_qr_scan", "ios": "https://dc.lft.to/lastmile_qr_scan"}, "fusion_lon": 0.0, "lat": 38.903977, "bike_id": "e5edb6975e8c27dd62b1a4a225d6283f", "type": "electric_scooter", "is_reserved": 0, "lon": -76.98943083333333}, {"fusion_lat": 0.0, "name": "de322272f6f03eeacfed755e4127085e", "is_disabled": 0, "rental_uris": {"android": "https://dc.lft.to/lastmile_qr_scan", "ios": "https://dc.lft.to/lastmile_qr_scan"}, "fusion_lon": 0.0, "lat": 39.04183283333333, "bike_id": "de322272f6f03eeacfed755e4127085e", "type": "electric_bike", "is_reserved": 0, "lon": -77.05242866666667}, {"fusion_lat": 0.0, "name": "b2a49e60b0adf2647234d96efd539b32", "is_disabled": 0, "rental_uris": {"android": "https://dc.lft.to/lastmile_qr_scan", "ios": "https://dc.lft.to/lastmile_qr_scan"}, "fusion_lon": 0.0, "lat": 38.912752166666664, "bike_id": "b2a49e60b0adf2647234d96efd539b32", "type": "electric_scooter", "is_reserved": 0, "lon": -77.03191533333333}, {"fusion_lat": 0.0, "name": "6e4da50649d57500bee1fb9b669831cc", "is_disabled": 0, "rental_uris": {"android": "https://dc.lft.to/lastmile_qr_scan", "ios": "https://dc.lft.to/lastmile_qr_scan"}, "fusion_lon": 0.0, "lat": 38.89017033333333, "bike_id": "6e4da50649d57500bee1fb9b669831cc", "type": "electric_scooter", "is_reserved": 0, "lon": -76.93739983333333}, {"fusion_lat": 0.0, "name": "3fcf81925119c908d39a9834d9473ada", "is_disabled": 0, "rental_uris": {"android": "https://dc.lft.to/lastmile_qr_scan", "ios": "https://dc.lft.to/lastmile_qr_scan"}, "fusion_lon": 0.0, "lat": 38.90305016666667, "bike_id": "3fcf81925119c908d39a9834d9473ada", "type": "electric_scooter", "is_reserved": 0, "lon": -77.0222135}, {"fusion_lat": 0.0, "name": "3236dc4679c75ae74eb27237813f5602", "is_disabled": 0, "rental_uris": {"android": "https://dc.lft.to/lastmile_qr_scan", "ios": "https://dc.lft.to/lastmile_qr_scan"}, "fusion_lon": 0.0, "lat": 38.89901366666667, "bike_id": "3236dc4679c75ae74eb27237813f5602", "type": "electric_bike", "is_reserved": 0, "lon": -77.0962}, {"fusion_lat": 0.0, "name": "c30e7ec493a7e50a3a29941893595f46", "is_disabled": 0, "rental_uris": {"android": "https://dc.lft.to/lastmile_qr_scan", "ios": "https://dc.lft.to/lastmile_qr_scan"}, "fusion_lon": 0.0, "lat": 38.991017166666666, "bike_id": "c30e7ec493a7e50a3a29941893595f46", "type": "electric_bike", "is_reserved": 0, "lon": -76.99375183333333}, {"fusion_lat": 0.0, "name": "450e4345ccf6327ff7164e3a6df4c7e5", "is_disabled": 0, "rental_uris": {"android": "https://dc.lft.to/lastmile_qr_scan", "ios": "https://dc.lft.to/lastmile_qr_scan"}, "fusion_lon": 0.0, "lat": 38.90040783333333, "bike_id": "450e4345ccf6327ff7164e3a6df4c7e5", "type": "electric_scooter", "is_reserved": 0, "lon": -77.00209766666667}, {"fusion_lat": 0.0, "name": "408a73c07a4c1d2a290670722c439175", "is_disabled": 0, "rental_uris": {"android": "https://dc.lft.to/lastmile_qr_scan", "ios": "https://dc.lft.to/lastmile_qr_scan"}, "fusion_lon": 0.0, "lat": 38.92907016666667, "bike_id": "408a73c07a4c1d2a290670722c439175", "type": "electric_scooter", "is_reserved": 0, "lon": -77.03275533333333}, {"fusion_lat": 0.0, "name": "0081b8e948c47d0479c33633460400e2", "is_disabled": 0, "rental_uris": {"android": "https://dc.lft.to/lastmile_qr_scan", "ios": "https://dc.lft.to/lastmile_qr_scan"}, "fusion_lon": 0.0, "lat": 38.89714033333333, "bike_id": "0081b8e948c47d0479c33633460400e2", "type": "electric_scooter", "is_reserved": 0, "lon": -77.00726383333334}, {"fusion_lat": 0.0, "name": "5debabf0aa0f475967b0cc89c1a624aa", "is_disabled": 0, "rental_uris": {"android": "https://dc.lft.to/lastmile_qr_scan", "ios": "https://dc.lft.to/lastmile_qr_scan"}, "fusion_lon": 0.0, "lat": 38.920796333333335, "bike_id": "5debabf0aa0f475967b0cc89c1a624aa", "type": "electric_scooter", "is_reserved": 0, "lon": -76.9948945}, {"fusion_lat": 0.0, "name": "8434f89194a66c07d38219143cea3e3c", "is_disabled": 0, "rental_uris": {"android": "https://dc.lft.to/lastmile_qr_scan", "ios": "https://dc.lft.to/lastmile_qr_scan"}, "fusion_lon": 0.0, "lat": 38.9038615, "bike_id": "8434f89194a66c07d38219143cea3e3c", "type": "electric_scooter", "is_reserved": 0, "lon": -77.06725066666667}, {"fusion_lat": 0.0, "name": "68c039464ad0215e987d3f1d4d76b723", "is_disabled": 0, "rental_uris": {"android": "https://dc.lft.to/lastmile_qr_scan", "ios": "https://dc.lft.to/lastmile_qr_scan"}, "fusion_lon": 0.0, "lat": 38.9224845, "bike_id": "68c039464ad0215e987d3f1d4d76b723", "type": "electric_scooter", "is_reserved": 0, "lon": -77.080787}, {"fusion_lat": 0.0, "name": "363bb5879339fb46e99682daba53b961", "is_disabled": 0, "rental_uris": {"android": "https://dc.lft.to/lastmile_qr_scan", "ios": "https://dc.lft.to/lastmile_qr_scan"}, "fusion_lon": 0.0, "lat": 38.915577, "bike_id": "363bb5879339fb46e99682daba53b961", "type": "electric_scooter", "is_reserved": 0, "lon": -77.04115266666666}, {"fusion_lat": 0.0, "name": "12b41b986d5ca5a60ecc627a48e287d8", "is_disabled": 0, "rental_uris": {"android": "https://dc.lft.to/lastmile_qr_scan", "ios": "https://dc.lft.to/lastmile_qr_scan"}, "fusion_lon": 0.0, "lat": 38.896489, "bike_id": "12b41b986d5ca5a60ecc627a48e287d8", "type": "electric_scooter", "is_reserved": 0, "lon": -77.05002216666666}, {"fusion_lat": 0.0, "name": "4aa8cf0eff64536a5f627699d5d8fee9", "is_disabled": 0, "rental_uris": {"android": "https://dc.lft.to/lastmile_qr_scan", "ios": "https://dc.lft.to/lastmile_qr_scan"}, "fusion_lon": 0.0, "lat": 38.909104166666665, "bike_id": "4aa8cf0eff64536a5f627699d5d8fee9", "type": "electric_scooter", "is_reserved": 0, "lon": -77.04475183333334}, {"fusion_lat": 0.0, "name": "ad15f86b5c5aa542899da825432b5b03", "is_disabled": 0, "rental_uris": {"android": "https://dc.lft.to/lastmile_qr_scan", "ios": "https://dc.lft.to/lastmile_qr_scan"}, "fusion_lon": 0.0, "lat": 38.958946833333336, "bike_id": "ad15f86b5c5aa542899da825432b5b03", "type": "electric_scooter", "is_reserved": 0, "lon": -77.02772833333333}, {"fusion_lat": 0.0, "name": "44c949a7ff42eb462831fd2ea0833894", "is_disabled": 0, "rental_uris": {"android": "https://dc.lft.to/lastmile_qr_scan", "ios": "https://dc.lft.to/lastmile_qr_scan"}, "fusion_lon": 0.0, "lat": 38.89680466666667, "bike_id": "44c949a7ff42eb462831fd2ea0833894", "type": "electric_scooter", "is_reserved": 0, "lon": -77.00520416666667}, {"fusion_lat": 0.0, "name": "84a60533b4ef4457d274cdc342074115", "is_disabled": 0, "rental_uris": {"android": "https://dc.lft.to/lastmile_qr_scan", "ios": "https://dc.lft.to/lastmile_qr_scan"}, "fusion_lon": 0.0, "lat": 38.905454166666665, "bike_id": "84a60533b4ef4457d274cdc342074115", "type": "electric_scooter", "is_reserved": 0, "lon": -77.03478333333334}, {"fusion_lat": 0.0, "name": "db778b193cd57dbb0f7da2a8741ffd36", "is_disabled": 0, "rental_uris": {"android": "https://dc.lft.to/lastmile_qr_scan", "ios": "https://dc.lft.to/lastmile_qr_scan"}, "fusion_lon": 0.0, "lat": 38.81338233333334, "bike_id": "db778b193cd57dbb0f7da2a8741ffd36", "type": "electric_bike", "is_reserved": 0, "lon": -77.0509015}, {"fusion_lat": 0.0, "name": "cd96605dd1c03158702645f4173e34bc", "is_disabled": 0, "rental_uris": {"android": "https://dc.lft.to/lastmile_qr_scan", "ios": "https://dc.lft.to/lastmile_qr_scan"}, "fusion_lon": 0.0, "lat": 38.94961966666666, "bike_id": "cd96605dd1c03158702645f4173e34bc", "type": "electric_bike", "is_reserved": 0, "lon": -77.06637183333333}, {"fusion_lat": 0.0, "name": "5e83ffab5d60e4621d8880686d68e4ca", "is_disabled": 0, "rental_uris": {"android": "https://dc.lft.to/lastmile_qr_scan", "ios": "https://dc.lft.to/lastmile_qr_scan"}, "fusion_lon": 0.0, "lat": 38.88400433333334, "bike_id": "5e83ffab5d60e4621d8880686d68e4ca", "type": "electric_scooter", "is_reserved": 0, "lon": -76.93044483333334}, {"fusion_lat": 0.0, "name": "a17fbd96f24dfe46800fbf0fda9faeac", "is_disabled": 0, "rental_uris": {"android": "https://dc.lft.to/lastmile_qr_scan", "ios": "https://dc.lft.to/lastmile_qr_scan"}, "fusion_lon": 0.0, "lat": 38.855121, "bike_id": "a17fbd96f24dfe46800fbf0fda9faeac", "type": "electric_bike", "is_reserved": 0, "lon": -77.10539116666666}, {"fusion_lat": 0.0, "name": "80b4ad960071574acea29f154e31466c", "is_disabled": 0, "rental_uris": {"android": "https://dc.lft.to/lastmile_qr_scan", "ios": "https://dc.lft.to/lastmile_qr_scan"}, "fusion_lon": 0.0, "lat": 38.90573083333334, "bike_id": "80b4ad960071574acea29f154e31466c", "type": "electric_scooter", "is_reserved": 0, "lon": -77.03060133333334}, {"fusion_lat": 0.0, "name": "1bb2fd35c6a7c22147e6c85e2a60280f", "is_disabled": 0, "rental_uris": {"android": "https://dc.lft.to/lastmile_qr_scan", "ios": "https://dc.lft.to/lastmile_qr_scan"}, "fusion_lon": 0.0, "lat": 38.90314983333333, "bike_id": "1bb2fd35c6a7c22147e6c85e2a60280f", "type": "electric_scooter", "is_reserved": 0, "lon": -76.97800416666666}, {"fusion_lat": 0.0, "name": "51e104dd349599053f571cdefce0cb09", "is_disabled": 0, "rental_uris": {"android": "https://dc.lft.to/lastmile_qr_scan", "ios": "https://dc.lft.to/lastmile_qr_scan"}, "fusion_lon": 0.0, "lat": 38.946281, "bike_id": "51e104dd349599053f571cdefce0cb09", "type": "electric_scooter", "is_reserved": 0, "lon": -77.03285016666666}, {"fusion_lat": 0.0, "name": "5e07ea4e727599a6ad14b77af0ad268c", "is_disabled": 0, "rental_uris": {"android": "https://dc.lft.to/lastmile_qr_scan", "ios": "https://dc.lft.to/lastmile_qr_scan"}, "fusion_lon": 0.0, "lat": 38.88359766666667, "bike_id": "5e07ea4e727599a6ad14b77af0ad268c", "type": "electric_scooter", "is_reserved": 0, "lon": -76.995059}, {"fusion_lat": 0.0, "name": "b7e3c116ebf9073bb93e48121d460249", "is_disabled": 0, "rental_uris": {"android": "https://dc.lft.to/lastmile_qr_scan", "ios": "https://dc.lft.to/lastmile_qr_scan"}, "fusion_lon": 0.0, "lat": 38.90724216666667, "bike_id": "b7e3c116ebf9073bb93e48121d460249", "type": "electric_scooter", "is_reserved": 0, "lon": -77.02537166666667}, {"fusion_lat": 0.0, "name": "28f4ef810bc9dbd2fbce7b758d926ce1", "is_disabled": 0, "rental_uris": {"android": "https://dc.lft.to/lastmile_qr_scan", "ios": "https://dc.lft.to/lastmile_qr_scan"}, "fusion_lon": 0.0, "lat": 38.888725666666666, "bike_id": "28f4ef810bc9dbd2fbce7b758d926ce1", "type": "electric_scooter", "is_reserved": 0, "lon": -76.98455866666667}, {"fusion_lat": 0.0, "name": "11692331840c691defac845f4cc7f72b", "is_disabled": 0, "rental_uris": {"android": "https://dc.lft.to/lastmile_qr_scan", "ios": "https://dc.lft.to/lastmile_qr_scan"}, "fusion_lon": 0.0, "lat": 38.887462666666664, "bike_id": "11692331840c691defac845f4cc7f72b", "type": "electric_scooter", "is_reserved": 0, "lon": -77.02363883333334}, {"fusion_lat": 0.0, "name": "248e5ddd63b0d2146e642a7345c8c85b", "is_disabled": 0, "rental_uris": {"android": "https://dc.lft.to/lastmile_qr_scan", "ios": "https://dc.lft.to/lastmile_qr_scan"}, "fusion_lon": 0.0, "lat": 38.88651766666667, "bike_id": "248e5ddd63b0d2146e642a7345c8c85b", "type": "electric_scooter", "is_reserved": 0, "lon": -76.92584516666666}, {"fusion_lat": 0.0, "name": "0b1e5b95107d8c684e12b5f45b79b009", "is_disabled": 0, "rental_uris": {"android": "https://dc.lft.to/lastmile_qr_scan", "ios": "https://dc.lft.to/lastmile_qr_scan"}, "fusion_lon": 0.0, "lat": 38.919718, "bike_id": "0b1e5b95107d8c684e12b5f45b79b009", "type": "electric_scooter", "is_reserved": 0, "lon": -77.00114}, {"fusion_lat": 0.0, "name": "776a0f5cbc7de62fc2bef122e4dd5df4", "is_disabled": 0, "rental_uris": {"android": "https://dc.lft.to/lastmile_qr_scan", "ios": "https://dc.lft.to/lastmile_qr_scan"}, "fusion_lon": 0.0, "lat": 38.90198083333333, "bike_id": "776a0f5cbc7de62fc2bef122e4dd5df4", "type": "electric_scooter", "is_reserved": 0, "lon": -76.92894666666666}, {"fusion_lat": 0.0, "name": "58d0257ab7073890dd6d44cb87f9abeb", "is_disabled": 0, "rental_uris": {"android": "https://dc.lft.to/lastmile_qr_scan", "ios": "https://dc.lft.to/lastmile_qr_scan"}, "fusion_lon": 0.0, "lat": 38.9084595, "bike_id": "58d0257ab7073890dd6d44cb87f9abeb", "type": "electric_scooter", "is_reserved": 0, "lon": -77.043359}, {"fusion_lat": 0.0, "name": "ae114bc0a2baf6c34b4c5c7fa7b26b25", "is_disabled": 0, "rental_uris": {"android": "https://dc.lft.to/lastmile_qr_scan", "ios": "https://dc.lft.to/lastmile_qr_scan"}, "fusion_lon": 0.0, "lat": 38.920525166666664, "bike_id": "ae114bc0a2baf6c34b4c5c7fa7b26b25", "type": "electric_scooter", "is_reserved": 0, "lon": -77.002091}, {"fusion_lat": 0.0, "name": "faff25b0dc66f0fa5e73d369f493ab04", "is_disabled": 0, "rental_uris": {"android": "https://dc.lft.to/lastmile_qr_scan", "ios": "https://dc.lft.to/lastmile_qr_scan"}, "fusion_lon": 0.0, "lat": 38.94917233333334, "bike_id": "faff25b0dc66f0fa5e73d369f493ab04", "type": "electric_bike", "is_reserved": 0, "lon": -77.03807333333333}, {"fusion_lat": 0.0, "name": "85f54b341a4e9fe265b356868307305e", "is_disabled": 0, "rental_uris": {"android": "https://dc.lft.to/lastmile_qr_scan", "ios": "https://dc.lft.to/lastmile_qr_scan"}, "fusion_lon": 0.0, "lat": 38.92831066666667, "bike_id": "85f54b341a4e9fe265b356868307305e", "type": "electric_scooter", "is_reserved": 0, "lon": -77.05437266666667}, {"fusion_lat": 0.0, "name": "7aadfe7e7cfafd98dedb907d1571e17a", "is_disabled": 0, "rental_uris": {"android": "https://dc.lft.to/lastmile_qr_scan", "ios": "https://dc.lft.to/lastmile_qr_scan"}, "fusion_lon": 0.0, "lat": 39.03427633333333, "bike_id": "7aadfe7e7cfafd98dedb907d1571e17a", "type": "electric_bike", "is_reserved": 0, "lon": -77.04312333333333}, {"fusion_lat": 0.0, "name": "d215f09b2b239e30afc1ab72ec7dd52a", "is_disabled": 0, "rental_uris": {"android": "https://dc.lft.to/lastmile_qr_scan", "ios": "https://dc.lft.to/lastmile_qr_scan"}, "fusion_lon": 0.0, "lat": 38.883236333333336, "bike_id": "d215f09b2b239e30afc1ab72ec7dd52a", "type": "electric_scooter", "is_reserved": 0, "lon": -77.013815}, {"fusion_lat": 0.0, "name": "7b39d5b9304b339d3024f151d872ff4a", "is_disabled": 0, "rental_uris": {"android": "https://dc.lft.to/lastmile_qr_scan", "ios": "https://dc.lft.to/lastmile_qr_scan"}, "fusion_lon": 0.0, "lat": 38.9725975, "bike_id": "7b39d5b9304b339d3024f151d872ff4a", "type": "electric_bike", "is_reserved": 0, "lon": -76.99275033333333}, {"fusion_lat": 0.0, "name": "8fc6f5efa5d12165a379b95480355309", "is_disabled": 0, "rental_uris": {"android": "https://dc.lft.to/lastmile_qr_scan", "ios": "https://dc.lft.to/lastmile_qr_scan"}, "fusion_lon": 0.0, "lat": 38.92339833333333, "bike_id": "8fc6f5efa5d12165a379b95480355309", "type": "electric_scooter", "is_reserved": 0, "lon": -77.04149433333333}, {"fusion_lat": 0.0, "name": "8d1da697b76ad1e0c98fd8797891b51d", "is_disabled": 0, "rental_uris": {"android": "https://dc.lft.to/lastmile_qr_scan", "ios": "https://dc.lft.to/lastmile_qr_scan"}, "fusion_lon": 0.0, "lat": 38.90244633333333, "bike_id": "8d1da697b76ad1e0c98fd8797891b51d", "type": "electric_scooter", "is_reserved": 0, "lon": -77.04371683333333}, {"fusion_lat": 0.0, "name": "38d54f55ac68480f135e3b3732aceade", "is_disabled": 0, "rental_uris": {"android": "https://dc.lft.to/lastmile_qr_scan", "ios": "https://dc.lft.to/lastmile_qr_scan"}, "fusion_lon": 0.0, "lat": 38.899465, "bike_id": "38d54f55ac68480f135e3b3732aceade", "type": "electric_scooter", "is_reserved": 0, "lon": -76.99735416666667}, {"fusion_lat": 0.0, "name": "6c97278851b5b861fe570811f6cd2b6e", "is_disabled": 0, "rental_uris": {"android": "https://dc.lft.to/lastmile_qr_scan", "ios": "https://dc.lft.to/lastmile_qr_scan"}, "fusion_lon": 0.0, "lat": 38.89659966666667, "bike_id": "6c97278851b5b861fe570811f6cd2b6e", "type": "electric_scooter", "is_reserved": 0, "lon": -77.05117416666667}, {"fusion_lat": 0.0, "name": "5e7ae297b876aea6887f3b93e3e3b104", "is_disabled": 0, "rental_uris": {"android": "https://dc.lft.to/lastmile_qr_scan", "ios": "https://dc.lft.to/lastmile_qr_scan"}, "fusion_lon": 0.0, "lat": 38.907009, "bike_id": "5e7ae297b876aea6887f3b93e3e3b104", "type": "electric_scooter", "is_reserved": 0, "lon": -77.06526033333333}, {"fusion_lat": 0.0, "name": "1f90363092afd8059ed00d68ffaa553c", "is_disabled": 0, "rental_uris": {"android": "https://dc.lft.to/lastmile_qr_scan", "ios": "https://dc.lft.to/lastmile_qr_scan"}, "fusion_lon": 0.0, "lat": 38.92323316666667, "bike_id": "1f90363092afd8059ed00d68ffaa553c", "type": "electric_scooter", "is_reserved": 0, "lon": -77.02964733333333}, {"fusion_lat": 0.0, "name": "fb4ee6a8da1bccd9a134cf696385cf75", "is_disabled": 0, "rental_uris": {"android": "https://dc.lft.to/lastmile_qr_scan", "ios": "https://dc.lft.to/lastmile_qr_scan"}, "fusion_lon": 0.0, "lat": 38.924463833333334, "bike_id": "fb4ee6a8da1bccd9a134cf696385cf75", "type": "electric_scooter", "is_reserved": 0, "lon": -77.00876866666667}, {"fusion_lat": 0.0, "name": "9f8049f0dda6a8962650bf52b34a763e", "is_disabled": 0, "rental_uris": {"android": "https://dc.lft.to/lastmile_qr_scan", "ios": "https://dc.lft.to/lastmile_qr_scan"}, "fusion_lon": 0.0, "lat": 38.92400966666666, "bike_id": "9f8049f0dda6a8962650bf52b34a763e", "type": "electric_scooter", "is_reserved": 0, "lon": -77.03640966666667}, {"fusion_lat": 0.0, "name": "6dbc635901a3a9ab2a8764a3d2da2d8d", "is_disabled": 0, "rental_uris": {"android": "https://dc.lft.to/lastmile_qr_scan", "ios": "https://dc.lft.to/lastmile_qr_scan"}, "fusion_lon": 0.0, "lat": 38.9192345, "bike_id": "6dbc635901a3a9ab2a8764a3d2da2d8d", "type": "electric_scooter", "is_reserved": 0, "lon": -77.070828}, {"fusion_lat": 0.0, "name": "9e061a5d80957b467b421c03e45b9fca", "is_disabled": 0, "rental_uris": {"android": "https://dc.lft.to/lastmile_qr_scan", "ios": "https://dc.lft.to/lastmile_qr_scan"}, "fusion_lon": 0.0, "lat": 38.906386833333336, "bike_id": "9e061a5d80957b467b421c03e45b9fca", "type": "electric_scooter", "is_reserved": 0, "lon": -77.03441733333334}, {"fusion_lat": 0.0, "name": "6472dce7fa4bafc9395493fa77407590", "is_disabled": 0, "rental_uris": {"android": "https://dc.lft.to/lastmile_qr_scan", "ios": "https://dc.lft.to/lastmile_qr_scan"}, "fusion_lon": 0.0, "lat": 38.87335216666666, "bike_id": "6472dce7fa4bafc9395493fa77407590", "type": "electric_bike", "is_reserved": 0, "lon": -77.08215183333333}, {"fusion_lat": 0.0, "name": "314abeaf610a79a3a574891a5d74c545", "is_disabled": 0, "rental_uris": {"android": "https://dc.lft.to/lastmile_qr_scan", "ios": "https://dc.lft.to/lastmile_qr_scan"}, "fusion_lon": 0.0, "lat": 38.93198916666667, "bike_id": "314abeaf610a79a3a574891a5d74c545", "type": "electric_scooter", "is_reserved": 0, "lon": -77.0375455}, {"fusion_lat": 0.0, "name": "88d91c89f857fb230aeb026aa32040cd", "is_disabled": 0, "rental_uris": {"android": "https://dc.lft.to/lastmile_qr_scan", "ios": "https://dc.lft.to/lastmile_qr_scan"}, "fusion_lon": 0.0, "lat": 38.90081833333333, "bike_id": "88d91c89f857fb230aeb026aa32040cd", "type": "electric_scooter", "is_reserved": 0, "lon": -77.0270895}, {"fusion_lat": 0.0, "name": "8ccc0378280107034dd9e9a34f09416e", "is_disabled": 0, "rental_uris": {"android": "https://dc.lft.to/lastmile_qr_scan", "ios": "https://dc.lft.to/lastmile_qr_scan"}, "fusion_lon": 0.0, "lat": 38.90482933333333, "bike_id": "8ccc0378280107034dd9e9a34f09416e", "type": "electric_scooter", "is_reserved": 0, "lon": -77.043622}, {"fusion_lat": 0.0, "name": "9eb7acaa09a1a8fdfe61eab4ff731f10", "is_disabled": 0, "rental_uris": {"android": "https://dc.lft.to/lastmile_qr_scan", "ios": "https://dc.lft.to/lastmile_qr_scan"}, "fusion_lon": 0.0, "lat": 38.92885016666666, "bike_id": "9eb7acaa09a1a8fdfe61eab4ff731f10", "type": "electric_scooter", "is_reserved": 0, "lon": -77.03737866666667}, {"fusion_lat": 0.0, "name": "c316fc4767d873758b36f2c41ac1fb58", "is_disabled": 0, "rental_uris": {"android": "https://dc.lft.to/lastmile_qr_scan", "ios": "https://dc.lft.to/lastmile_qr_scan"}, "fusion_lon": 0.0, "lat": 38.904011, "bike_id": "c316fc4767d873758b36f2c41ac1fb58", "type": "electric_scooter", "is_reserved": 0, "lon": -77.03837583333333}, {"fusion_lat": 0.0, "name": "71d0bebb7392de27afaa5de90d6fe919", "is_disabled": 0, "rental_uris": {"android": "https://dc.lft.to/lastmile_qr_scan", "ios": "https://dc.lft.to/lastmile_qr_scan"}, "fusion_lon": 0.0, "lat": 38.80022133333333, "bike_id": "71d0bebb7392de27afaa5de90d6fe919", "type": "electric_bike", "is_reserved": 0, "lon": -77.0548215}, {"fusion_lat": 0.0, "name": "3e2e3fcf11d537a7c8f80fafe4dae0b1", "is_disabled": 0, "rental_uris": {"android": "https://dc.lft.to/lastmile_qr_scan", "ios": "https://dc.lft.to/lastmile_qr_scan"}, "fusion_lon": 0.0, "lat": 38.90685033333333, "bike_id": "3e2e3fcf11d537a7c8f80fafe4dae0b1", "type": "electric_bike", "is_reserved": 0, "lon": -76.94496016666666}, {"fusion_lat": 0.0, "name": "f539e81698dff2d16355eb4245d0b2b6", "is_disabled": 0, "rental_uris": {"android": "https://dc.lft.to/lastmile_qr_scan", "ios": "https://dc.lft.to/lastmile_qr_scan"}, "fusion_lon": 0.0, "lat": 38.90732216666667, "bike_id": "f539e81698dff2d16355eb4245d0b2b6", "type": "electric_scooter", "is_reserved": 0, "lon": -77.01115}, {"fusion_lat": 0.0, "name": "67b7391f31466e661c2ffd0c38c09887", "is_disabled": 0, "rental_uris": {"android": "https://dc.lft.to/lastmile_qr_scan", "ios": "https://dc.lft.to/lastmile_qr_scan"}, "fusion_lon": 0.0, "lat": 38.900300666666666, "bike_id": "67b7391f31466e661c2ffd0c38c09887", "type": "electric_scooter", "is_reserved": 0, "lon": -76.9986325}, {"fusion_lat": 0.0, "name": "2c577f815f3cb04d927cb0592b7ebab8", "is_disabled": 0, "rental_uris": {"android": "https://dc.lft.to/lastmile_qr_scan", "ios": "https://dc.lft.to/lastmile_qr_scan"}, "fusion_lon": 0.0, "lat": 38.984667333333334, "bike_id": "2c577f815f3cb04d927cb0592b7ebab8", "type": "electric_bike", "is_reserved": 0, "lon": -76.97053166666667}, {"fusion_lat": 0.0, "name": "4ebb689735f2cebec64b185b3f32e1aa", "is_disabled": 0, "rental_uris": {"android": "https://dc.lft.to/lastmile_qr_scan", "ios": "https://dc.lft.to/lastmile_qr_scan"}, "fusion_lon": 0.0, "lat": 38.905865166666665, "bike_id": "4ebb689735f2cebec64b185b3f32e1aa", "type": "electric_scooter", "is_reserved": 0, "lon": -77.04425266666667}, {"fusion_lat": 0.0, "name": "24196ad26372f3fd6e71cf096f5196ad", "is_disabled": 0, "rental_uris": {"android": "https://dc.lft.to/lastmile_qr_scan", "ios": "https://dc.lft.to/lastmile_qr_scan"}, "fusion_lon": 0.0, "lat": 38.8876965, "bike_id": "24196ad26372f3fd6e71cf096f5196ad", "type": "electric_scooter", "is_reserved": 0, "lon": -76.97747583333333}, {"fusion_lat": 0.0, "name": "4011c049ee15ab2cdd325ee4ce8e2bd7", "is_disabled": 0, "rental_uris": {"android": "https://dc.lft.to/lastmile_qr_scan", "ios": "https://dc.lft.to/lastmile_qr_scan"}, "fusion_lon": 0.0, "lat": 38.9178725, "bike_id": "4011c049ee15ab2cdd325ee4ce8e2bd7", "type": "electric_scooter", "is_reserved": 0, "lon": -77.02307883333333}, {"fusion_lat": 0.0, "name": "0a0781b1c8f47eab9a237393ffc8658e", "is_disabled": 0, "rental_uris": {"android": "https://dc.lft.to/lastmile_qr_scan", "ios": "https://dc.lft.to/lastmile_qr_scan"}, "fusion_lon": 0.0, "lat": 38.89840266666667, "bike_id": "0a0781b1c8f47eab9a237393ffc8658e", "type": "electric_scooter", "is_reserved": 0, "lon": -77.00750016666667}, {"fusion_lat": 0.0, "name": "9398976ace457a34218c0a482e348a88", "is_disabled": 0, "rental_uris": {"android": "https://dc.lft.to/lastmile_qr_scan", "ios": "https://dc.lft.to/lastmile_qr_scan"}, "fusion_lon": 0.0, "lat": 38.92782366666667, "bike_id": "9398976ace457a34218c0a482e348a88", "type": "electric_scooter", "is_reserved": 0, "lon": -77.02709}, {"fusion_lat": 0.0, "name": "78f38ef17a774ff81b113c61af95ba7d", "is_disabled": 0, "rental_uris": {"android": "https://dc.lft.to/lastmile_qr_scan", "ios": "https://dc.lft.to/lastmile_qr_scan"}, "fusion_lon": 0.0, "lat": 38.90153433333333, "bike_id": "78f38ef17a774ff81b113c61af95ba7d", "type": "electric_scooter", "is_reserved": 0, "lon": -76.930697}, {"fusion_lat": 0.0, "name": "40c268e162b42e80c22ab55cb61d7b2e", "is_disabled": 0, "rental_uris": {"android": "https://dc.lft.to/lastmile_qr_scan", "ios": "https://dc.lft.to/lastmile_qr_scan"}, "fusion_lon": 0.0, "lat": 38.97345633333333, "bike_id": "40c268e162b42e80c22ab55cb61d7b2e", "type": "electric_bike", "is_reserved": 0, "lon": -77.0179525}, {"fusion_lat": 0.0, "name": "076137f51f2312f7593f3a05cd2ed0c3", "is_disabled": 0, "rental_uris": {"android": "https://dc.lft.to/lastmile_qr_scan", "ios": "https://dc.lft.to/lastmile_qr_scan"}, "fusion_lon": 0.0, "lat": 38.8771035, "bike_id": "076137f51f2312f7593f3a05cd2ed0c3", "type": "electric_scooter", "is_reserved": 0, "lon": -77.0043105}, {"fusion_lat": 0.0, "name": "7d74610d74ef05a4c1a0b36cc492ec20", "is_disabled": 0, "rental_uris": {"android": "https://dc.lft.to/lastmile_qr_scan", "ios": "https://dc.lft.to/lastmile_qr_scan"}, "fusion_lon": 0.0, "lat": 38.914382333333336, "bike_id": "7d74610d74ef05a4c1a0b36cc492ec20", "type": "electric_scooter", "is_reserved": 0, "lon": -76.9935575}, {"fusion_lat": 0.0, "name": "dab7ad8c6d59407fc297d41b0967307a", "is_disabled": 0, "rental_uris": {"android": "https://dc.lft.to/lastmile_qr_scan", "ios": "https://dc.lft.to/lastmile_qr_scan"}, "fusion_lon": 0.0, "lat": 38.902503, "bike_id": "dab7ad8c6d59407fc297d41b0967307a", "type": "electric_scooter", "is_reserved": 0, "lon": -77.02690566666666}, {"fusion_lat": 0.0, "name": "44e20c6be4c95221af3bcab187232b0c", "is_disabled": 0, "rental_uris": {"android": "https://dc.lft.to/lastmile_qr_scan", "ios": "https://dc.lft.to/lastmile_qr_scan"}, "fusion_lon": 0.0, "lat": 38.9073735, "bike_id": "44e20c6be4c95221af3bcab187232b0c", "type": "electric_scooter", "is_reserved": 0, "lon": -77.03446383333333}, {"fusion_lat": 0.0, "name": "a0f9104273dd7899c90d565c56a6e704", "is_disabled": 0, "rental_uris": {"android": "https://dc.lft.to/lastmile_qr_scan", "ios": "https://dc.lft.to/lastmile_qr_scan"}, "fusion_lon": 0.0, "lat": 38.9038495, "bike_id": "a0f9104273dd7899c90d565c56a6e704", "type": "electric_scooter", "is_reserved": 0, "lon": -77.053413}, {"fusion_lat": 0.0, "name": "bc948dcd0f167f916cad0bb8bf29c1de", "is_disabled": 0, "rental_uris": {"android": "https://dc.lft.to/lastmile_qr_scan", "ios": "https://dc.lft.to/lastmile_qr_scan"}, "fusion_lon": 0.0, "lat": 38.922574, "bike_id": "bc948dcd0f167f916cad0bb8bf29c1de", "type": "electric_scooter", "is_reserved": 0, "lon": -77.00914183333333}, {"fusion_lat": 0.0, "name": "32efe33fed0bb34251b8db0a7c036aa1", "is_disabled": 0, "rental_uris": {"android": "https://dc.lft.to/lastmile_qr_scan", "ios": "https://dc.lft.to/lastmile_qr_scan"}, "fusion_lon": 0.0, "lat": 38.911146333333335, "bike_id": "32efe33fed0bb34251b8db0a7c036aa1", "type": "electric_scooter", "is_reserved": 0, "lon": -77.03829683333333}, {"fusion_lat": 0.0, "name": "2367dd8100d0ea211b7d851bb3705abb", "is_disabled": 0, "rental_uris": {"android": "https://dc.lft.to/lastmile_qr_scan", "ios": "https://dc.lft.to/lastmile_qr_scan"}, "fusion_lon": 0.0, "lat": 38.92958633333333, "bike_id": "2367dd8100d0ea211b7d851bb3705abb", "type": "electric_scooter", "is_reserved": 0, "lon": -76.99172233333333}, {"fusion_lat": 0.0, "name": "215164c52a738c074d36bb2c831fc7d0", "is_disabled": 0, "rental_uris": {"android": "https://dc.lft.to/lastmile_qr_scan", "ios": "https://dc.lft.to/lastmile_qr_scan"}, "fusion_lon": 0.0, "lat": 38.911464, "bike_id": "215164c52a738c074d36bb2c831fc7d0", "type": "electric_scooter", "is_reserved": 0, "lon": -76.99696766666666}, {"fusion_lat": 0.0, "name": "33f46627036f4655bf0852b4e7f9183f", "is_disabled": 0, "rental_uris": {"android": "https://dc.lft.to/lastmile_qr_scan", "ios": "https://dc.lft.to/lastmile_qr_scan"}, "fusion_lon": 0.0, "lat": 38.90769, "bike_id": "33f46627036f4655bf0852b4e7f9183f", "type": "electric_scooter", "is_reserved": 0, "lon": -77.038427}, {"fusion_lat": 0.0, "name": "42d1fe2a0bf83a99e7ef41fe543297b5", "is_disabled": 0, "rental_uris": {"android": "https://dc.lft.to/lastmile_qr_scan", "ios": "https://dc.lft.to/lastmile_qr_scan"}, "fusion_lon": 0.0, "lat": 38.916589333333334, "bike_id": "42d1fe2a0bf83a99e7ef41fe543297b5", "type": "electric_scooter", "is_reserved": 0, "lon": -77.03204916666667}, {"fusion_lat": 0.0, "name": "d19dd5a0bf2c6675be55a1b5b782eb6d", "is_disabled": 0, "rental_uris": {"android": "https://dc.lft.to/lastmile_qr_scan", "ios": "https://dc.lft.to/lastmile_qr_scan"}, "fusion_lon": 0.0, "lat": 38.90034, "bike_id": "d19dd5a0bf2c6675be55a1b5b782eb6d", "type": "electric_bike", "is_reserved": 0, "lon": -76.972271}, {"fusion_lat": 0.0, "name": "0ec906a5cc8d0542548dd6f36e1b7055", "is_disabled": 0, "rental_uris": {"android": "https://dc.lft.to/lastmile_qr_scan", "ios": "https://dc.lft.to/lastmile_qr_scan"}, "fusion_lon": 0.0, "lat": 38.927359333333335, "bike_id": "0ec906a5cc8d0542548dd6f36e1b7055", "type": "electric_scooter", "is_reserved": 0, "lon": -77.02307983333333}, {"fusion_lat": 0.0, "name": "583a1ee6b9b9a94e787114babac0e843", "is_disabled": 0, "rental_uris": {"android": "https://dc.lft.to/lastmile_qr_scan", "ios": "https://dc.lft.to/lastmile_qr_scan"}, "fusion_lon": 0.0, "lat": 38.9052065, "bike_id": "583a1ee6b9b9a94e787114babac0e843", "type": "electric_scooter", "is_reserved": 0, "lon": -77.0295215}, {"fusion_lat": 0.0, "name": "750d7d2fdf90bba40c591da7a04b04c8", "is_disabled": 0, "rental_uris": {"android": "https://dc.lft.to/lastmile_qr_scan", "ios": "https://dc.lft.to/lastmile_qr_scan"}, "fusion_lon": 0.0, "lat": 38.905703833333334, "bike_id": "750d7d2fdf90bba40c591da7a04b04c8", "type": "electric_scooter", "is_reserved": 0, "lon": -77.03455}, {"fusion_lat": 0.0, "name": "91fea75288333cb80af875891e0f167f", "is_disabled": 0, "rental_uris": {"android": "https://dc.lft.to/lastmile_qr_scan", "ios": "https://dc.lft.to/lastmile_qr_scan"}, "fusion_lon": 0.0, "lat": 38.892187666666665, "bike_id": "91fea75288333cb80af875891e0f167f", "type": "electric_scooter", "is_reserved": 0, "lon": -77.02016066666667}, {"fusion_lat": 0.0, "name": "56d66f152c09b6c1f604a48d18c21d7c", "is_disabled": 0, "rental_uris": {"android": "https://dc.lft.to/lastmile_qr_scan", "ios": "https://dc.lft.to/lastmile_qr_scan"}, "fusion_lon": 0.0, "lat": 38.8974135, "bike_id": "56d66f152c09b6c1f604a48d18c21d7c", "type": "electric_scooter", "is_reserved": 0, "lon": -77.04635633333334}, {"fusion_lat": 0.0, "name": "47dee340ec37bf2306d861e68fa64c70", "is_disabled": 0, "rental_uris": {"android": "https://dc.lft.to/lastmile_qr_scan", "ios": "https://dc.lft.to/lastmile_qr_scan"}, "fusion_lon": 0.0, "lat": 38.93173683333333, "bike_id": "47dee340ec37bf2306d861e68fa64c70", "type": "electric_scooter", "is_reserved": 0, "lon": -77.037753}, {"fusion_lat": 0.0, "name": "fbf8f23ada55ca8ced05f01e749615c2", "is_disabled": 0, "rental_uris": {"android": "https://dc.lft.to/lastmile_qr_scan", "ios": "https://dc.lft.to/lastmile_qr_scan"}, "fusion_lon": 0.0, "lat": 38.938629666666664, "bike_id": "fbf8f23ada55ca8ced05f01e749615c2", "type": "electric_scooter", "is_reserved": 0, "lon": -77.02651233333333}, {"fusion_lat": 0.0, "name": "ebba0ea82ff9ce1f0e30baf85864e1c3", "is_disabled": 0, "rental_uris": {"android": "https://dc.lft.to/lastmile_qr_scan", "ios": "https://dc.lft.to/lastmile_qr_scan"}, "fusion_lon": 0.0, "lat": 38.83208916666667, "bike_id": "ebba0ea82ff9ce1f0e30baf85864e1c3", "type": "electric_bike", "is_reserved": 0, "lon": -76.996744}, {"fusion_lat": 0.0, "name": "e7c87eaec08909b1e61d0d098d69c46e", "is_disabled": 0, "rental_uris": {"android": "https://dc.lft.to/lastmile_qr_scan", "ios": "https://dc.lft.to/lastmile_qr_scan"}, "fusion_lon": 0.0, "lat": 38.92338516666667, "bike_id": "e7c87eaec08909b1e61d0d098d69c46e", "type": "electric_scooter", "is_reserved": 0, "lon": -77.03516416666666}, {"fusion_lat": 0.0, "name": "ce8085ed0778d40a97910c10c3375623", "is_disabled": 0, "rental_uris": {"android": "https://dc.lft.to/lastmile_qr_scan", "ios": "https://dc.lft.to/lastmile_qr_scan"}, "fusion_lon": 0.0, "lat": 38.96676683333333, "bike_id": "ce8085ed0778d40a97910c10c3375623", "type": "electric_bike", "is_reserved": 0, "lon": -77.02306833333333}, {"fusion_lat": 0.0, "name": "6346be8de2a0afc67a4b9aa771e1d833", "is_disabled": 0, "rental_uris": {"android": "https://dc.lft.to/lastmile_qr_scan", "ios": "https://dc.lft.to/lastmile_qr_scan"}, "fusion_lon": 0.0, "lat": 38.892252166666665, "bike_id": "6346be8de2a0afc67a4b9aa771e1d833", "type": "electric_scooter", "is_reserved": 0, "lon": -77.0321885}, {"fusion_lat": 0.0, "name": "cc36fa85b9938f12356d965aa5219964", "is_disabled": 0, "rental_uris": {"android": "https://dc.lft.to/lastmile_qr_scan", "ios": "https://dc.lft.to/lastmile_qr_scan"}, "fusion_lon": 0.0, "lat": 38.92295583333333, "bike_id": "cc36fa85b9938f12356d965aa5219964", "type": "electric_scooter", "is_reserved": 0, "lon": -77.0296945}, {"fusion_lat": 0.0, "name": "e66bb7c30f505a6cb4f23b12229c3473", "is_disabled": 0, "rental_uris": {"android": "https://dc.lft.to/lastmile_qr_scan", "ios": "https://dc.lft.to/lastmile_qr_scan"}, "fusion_lon": 0.0, "lat": 38.9161885, "bike_id": "e66bb7c30f505a6cb4f23b12229c3473", "type": "electric_scooter", "is_reserved": 0, "lon": -77.02955983333334}, {"fusion_lat": 0.0, "name": "b73d27488c7f3ea2e3c79e598024eec8", "is_disabled": 0, "rental_uris": {"android": "https://dc.lft.to/lastmile_qr_scan", "ios": "https://dc.lft.to/lastmile_qr_scan"}, "fusion_lon": 0.0, "lat": 38.934615, "bike_id": "b73d27488c7f3ea2e3c79e598024eec8", "type": "electric_scooter", "is_reserved": 0, "lon": -77.07271}, {"fusion_lat": 0.0, "name": "05f16483f05c5ec6417e0cddc5467406", "is_disabled": 0, "rental_uris": {"android": "https://dc.lft.to/lastmile_qr_scan", "ios": "https://dc.lft.to/lastmile_qr_scan"}, "fusion_lon": 0.0, "lat": 38.906422666666664, "bike_id": "05f16483f05c5ec6417e0cddc5467406", "type": "electric_scooter", "is_reserved": 0, "lon": -77.01137666666666}, {"fusion_lat": 0.0, "name": "ce044e7fd048b956faaf0cde1bf3a5bc", "is_disabled": 0, "rental_uris": {"android": "https://dc.lft.to/lastmile_qr_scan", "ios": "https://dc.lft.to/lastmile_qr_scan"}, "fusion_lon": 0.0, "lat": 38.928657, "bike_id": "ce044e7fd048b956faaf0cde1bf3a5bc", "type": "electric_scooter", "is_reserved": 0, "lon": -77.03519583333333}, {"fusion_lat": 0.0, "name": "411fa2919ada7e64d0d1aec9944fd57a", "is_disabled": 0, "rental_uris": {"android": "https://dc.lft.to/lastmile_qr_scan", "ios": "https://dc.lft.to/lastmile_qr_scan"}, "fusion_lon": 0.0, "lat": 38.90017016666667, "bike_id": "411fa2919ada7e64d0d1aec9944fd57a", "type": "electric_scooter", "is_reserved": 0, "lon": -77.0069545}, {"fusion_lat": 0.0, "name": "76b513f5c0f89e43d692d8837dcd87a1", "is_disabled": 0, "rental_uris": {"android": "https://dc.lft.to/lastmile_qr_scan", "ios": "https://dc.lft.to/lastmile_qr_scan"}, "fusion_lon": 0.0, "lat": 38.897174, "bike_id": "76b513f5c0f89e43d692d8837dcd87a1", "type": "electric_scooter", "is_reserved": 0, "lon": -77.01291066666667}, {"fusion_lat": 0.0, "name": "c64e15c28db0ebcc305bbaba8142ede3", "is_disabled": 0, "rental_uris": {"android": "https://dc.lft.to/lastmile_qr_scan", "ios": "https://dc.lft.to/lastmile_qr_scan"}, "fusion_lon": 0.0, "lat": 38.904267833333336, "bike_id": "c64e15c28db0ebcc305bbaba8142ede3", "type": "electric_scooter", "is_reserved": 0, "lon": -76.94974933333333}, {"fusion_lat": 0.0, "name": "0cda98c53441f3b0647e3b6ea0772854", "is_disabled": 0, "rental_uris": {"android": "https://dc.lft.to/lastmile_qr_scan", "ios": "https://dc.lft.to/lastmile_qr_scan"}, "fusion_lon": 0.0, "lat": 38.92399916666667, "bike_id": "0cda98c53441f3b0647e3b6ea0772854", "type": "electric_scooter", "is_reserved": 0, "lon": -77.0429845}, {"fusion_lat": 0.0, "name": "be15715fb14f9ed914a76d03684ba9ab", "is_disabled": 0, "rental_uris": {"android": "https://dc.lft.to/lastmile_qr_scan", "ios": "https://dc.lft.to/lastmile_qr_scan"}, "fusion_lon": 0.0, "lat": 38.885175, "bike_id": "be15715fb14f9ed914a76d03684ba9ab", "type": "electric_scooter", "is_reserved": 0, "lon": -77.01517566666666}, {"fusion_lat": 0.0, "name": "2e4e9953c02700ce944bb2d3b7e921cf", "is_disabled": 0, "rental_uris": {"android": "https://dc.lft.to/lastmile_qr_scan", "ios": "https://dc.lft.to/lastmile_qr_scan"}, "fusion_lon": 0.0, "lat": 38.892442833333334, "bike_id": "2e4e9953c02700ce944bb2d3b7e921cf", "type": "electric_scooter", "is_reserved": 0, "lon": -77.02207}, {"fusion_lat": 0.0, "name": "779a3e255214d7c7a6822859ab0e2921", "is_disabled": 0, "rental_uris": {"android": "https://dc.lft.to/lastmile_qr_scan", "ios": "https://dc.lft.to/lastmile_qr_scan"}, "fusion_lon": 0.0, "lat": 38.90243483333333, "bike_id": "779a3e255214d7c7a6822859ab0e2921", "type": "electric_scooter", "is_reserved": 0, "lon": -77.04443116666667}, {"fusion_lat": 0.0, "name": "ded319a603dfa63206fa3d16facc5fce", "is_disabled": 0, "rental_uris": {"android": "https://dc.lft.to/lastmile_qr_scan", "ios": "https://dc.lft.to/lastmile_qr_scan"}, "fusion_lon": 0.0, "lat": 38.940561333333335, "bike_id": "ded319a603dfa63206fa3d16facc5fce", "type": "electric_bike", "is_reserved": 0, "lon": -76.9042665}, {"fusion_lat": 0.0, "name": "a59919ae6118d51f2ae39ef607045d31", "is_disabled": 0, "rental_uris": {"android": "https://dc.lft.to/lastmile_qr_scan", "ios": "https://dc.lft.to/lastmile_qr_scan"}, "fusion_lon": 0.0, "lat": 38.986698833333335, "bike_id": "a59919ae6118d51f2ae39ef607045d31", "type": "electric_bike", "is_reserved": 0, "lon": -76.99999866666667}, {"fusion_lat": 0.0, "name": "eda843e8ec96f6486067fefadeac51c9", "is_disabled": 0, "rental_uris": {"android": "https://dc.lft.to/lastmile_qr_scan", "ios": "https://dc.lft.to/lastmile_qr_scan"}, "fusion_lon": 0.0, "lat": 38.994482, "bike_id": "eda843e8ec96f6486067fefadeac51c9", "type": "electric_bike", "is_reserved": 0, "lon": -76.995891}, {"fusion_lat": 0.0, "name": "0a2479ba12d880d4cb7ca4dedce639d3", "is_disabled": 0, "rental_uris": {"android": "https://dc.lft.to/lastmile_qr_scan", "ios": "https://dc.lft.to/lastmile_qr_scan"}, "fusion_lon": 0.0, "lat": 38.904196, "bike_id": "0a2479ba12d880d4cb7ca4dedce639d3", "type": "electric_scooter", "is_reserved": 0, "lon": -77.001282}, {"fusion_lat": 0.0, "name": "46162cb1dde91ab1bc12805f1b714d5b", "is_disabled": 0, "rental_uris": {"android": "https://dc.lft.to/lastmile_qr_scan", "ios": "https://dc.lft.to/lastmile_qr_scan"}, "fusion_lon": 0.0, "lat": 38.892330666666666, "bike_id": "46162cb1dde91ab1bc12805f1b714d5b", "type": "electric_scooter", "is_reserved": 0, "lon": -77.03178466666667}, {"fusion_lat": 0.0, "name": "ee3f096414c925d48f2b97eee6549db8", "is_disabled": 0, "rental_uris": {"android": "https://dc.lft.to/lastmile_qr_scan", "ios": "https://dc.lft.to/lastmile_qr_scan"}, "fusion_lon": 0.0, "lat": 38.89475933333333, "bike_id": "ee3f096414c925d48f2b97eee6549db8", "type": "electric_scooter", "is_reserved": 0, "lon": -77.039574}, {"fusion_lat": 0.0, "name": "936777dae45c5a960b7a3c06943e87c5", "is_disabled": 0, "rental_uris": {"android": "https://dc.lft.to/lastmile_qr_scan", "ios": "https://dc.lft.to/lastmile_qr_scan"}, "fusion_lon": 0.0, "lat": 38.93548783333333, "bike_id": "936777dae45c5a960b7a3c06943e87c5", "type": "electric_scooter", "is_reserved": 0, "lon": -77.0326085}, {"fusion_lat": 0.0, "name": "85dc0f6ba3851bee7121b8f798e51e5f", "is_disabled": 0, "rental_uris": {"android": "https://dc.lft.to/lastmile_qr_scan", "ios": "https://dc.lft.to/lastmile_qr_scan"}, "fusion_lon": 0.0, "lat": 38.9052705, "bike_id": "85dc0f6ba3851bee7121b8f798e51e5f", "type": "electric_scooter", "is_reserved": 0, "lon": -77.02948933333333}, {"fusion_lat": 0.0, "name": "64114fdeaaa8991dc63bb64ae6379462", "is_disabled": 0, "rental_uris": {"android": "https://dc.lft.to/lastmile_qr_scan", "ios": "https://dc.lft.to/lastmile_qr_scan"}, "fusion_lon": 0.0, "lat": 38.92249016666667, "bike_id": "64114fdeaaa8991dc63bb64ae6379462", "type": "electric_scooter", "is_reserved": 0, "lon": -77.03067683333333}, {"fusion_lat": 0.0, "name": "61070828df2d61cf1415e19c6022cafe", "is_disabled": 0, "rental_uris": {"android": "https://dc.lft.to/lastmile_qr_scan", "ios": "https://dc.lft.to/lastmile_qr_scan"}, "fusion_lon": 0.0, "lat": 38.87112366666667, "bike_id": "61070828df2d61cf1415e19c6022cafe", "type": "electric_scooter", "is_reserved": 0, "lon": -76.96587733333334}, {"fusion_lat": 0.0, "name": "e9f7d04f08e64e2e5a83963fea7d061d", "is_disabled": 0, "rental_uris": {"android": "https://dc.lft.to/lastmile_qr_scan", "ios": "https://dc.lft.to/lastmile_qr_scan"}, "fusion_lon": 0.0, "lat": 38.90782766666667, "bike_id": "e9f7d04f08e64e2e5a83963fea7d061d", "type": "electric_scooter", "is_reserved": 0, "lon": -77.003332}, {"fusion_lat": 0.0, "name": "7de4dd196d60c3d38e3e9b7c63c98cc2", "is_disabled": 0, "rental_uris": {"android": "https://dc.lft.to/lastmile_qr_scan", "ios": "https://dc.lft.to/lastmile_qr_scan"}, "fusion_lon": 0.0, "lat": 38.916936166666666, "bike_id": "7de4dd196d60c3d38e3e9b7c63c98cc2", "type": "electric_scooter", "is_reserved": 0, "lon": -77.02518}, {"fusion_lat": 0.0, "name": "84ff0525aee1f2ba21f71c936d2d12c5", "is_disabled": 0, "rental_uris": {"android": "https://dc.lft.to/lastmile_qr_scan", "ios": "https://dc.lft.to/lastmile_qr_scan"}, "fusion_lon": 0.0, "lat": 38.916713666666666, "bike_id": "84ff0525aee1f2ba21f71c936d2d12c5", "type": "electric_scooter", "is_reserved": 0, "lon": -77.03459716666667}, {"fusion_lat": 0.0, "name": "ae57f8a3624409d93e8df14421221de9", "is_disabled": 0, "rental_uris": {"android": "https://dc.lft.to/lastmile_qr_scan", "ios": "https://dc.lft.to/lastmile_qr_scan"}, "fusion_lon": 0.0, "lat": 38.90571116666667, "bike_id": "ae57f8a3624409d93e8df14421221de9", "type": "electric_scooter", "is_reserved": 0, "lon": -77.02654233333334}, {"fusion_lat": 0.0, "name": "3ed71218665b31c1b71604cbac01d1ed", "is_disabled": 0, "rental_uris": {"android": "https://dc.lft.to/lastmile_qr_scan", "ios": "https://dc.lft.to/lastmile_qr_scan"}, "fusion_lon": 0.0, "lat": 38.9050185, "bike_id": "3ed71218665b31c1b71604cbac01d1ed", "type": "electric_scooter", "is_reserved": 0, "lon": -77.06119133333333}, {"fusion_lat": 0.0, "name": "66aa2eb1a5ef655b73bd6d1591f87f14", "is_disabled": 0, "rental_uris": {"android": "https://dc.lft.to/lastmile_qr_scan", "ios": "https://dc.lft.to/lastmile_qr_scan"}, "fusion_lon": 0.0, "lat": 38.938737, "bike_id": "66aa2eb1a5ef655b73bd6d1591f87f14", "type": "electric_scooter", "is_reserved": 0, "lon": -77.0291975}, {"fusion_lat": 0.0, "name": "a895bbc86ec3e28d186e53017e00a947", "is_disabled": 0, "rental_uris": {"android": "https://dc.lft.to/lastmile_qr_scan", "ios": "https://dc.lft.to/lastmile_qr_scan"}, "fusion_lon": 0.0, "lat": 38.92910766666667, "bike_id": "a895bbc86ec3e28d186e53017e00a947", "type": "electric_scooter", "is_reserved": 0, "lon": -77.03257533333333}, {"fusion_lat": 0.0, "name": "2850a3097afc33aeaa1236b6c9f9b1f9", "is_disabled": 0, "rental_uris": {"android": "https://dc.lft.to/lastmile_qr_scan", "ios": "https://dc.lft.to/lastmile_qr_scan"}, "fusion_lon": 0.0, "lat": 38.90644983333333, "bike_id": "2850a3097afc33aeaa1236b6c9f9b1f9", "type": "electric_scooter", "is_reserved": 0, "lon": -77.03878033333334}, {"fusion_lat": 0.0, "name": "cde670da05a332f84062c76a5c1207d9", "is_disabled": 0, "rental_uris": {"android": "https://dc.lft.to/lastmile_qr_scan", "ios": "https://dc.lft.to/lastmile_qr_scan"}, "fusion_lon": 0.0, "lat": 38.917699666666664, "bike_id": "cde670da05a332f84062c76a5c1207d9", "type": "electric_scooter", "is_reserved": 0, "lon": -77.022864}, {"fusion_lat": 0.0, "name": "16a58e0aa5a26cf892933c6e6d045c4a", "is_disabled": 0, "rental_uris": {"android": "https://dc.lft.to/lastmile_qr_scan", "ios": "https://dc.lft.to/lastmile_qr_scan"}, "fusion_lon": 0.0, "lat": 38.931165666666665, "bike_id": "16a58e0aa5a26cf892933c6e6d045c4a", "type": "electric_scooter", "is_reserved": 0, "lon": -77.02133}, {"fusion_lat": 0.0, "name": "dbba128fe5eb2706ad1a969dcd3dcf42", "is_disabled": 0, "rental_uris": {"android": "https://dc.lft.to/lastmile_qr_scan", "ios": "https://dc.lft.to/lastmile_qr_scan"}, "fusion_lon": 0.0, "lat": 38.93299666666667, "bike_id": "dbba128fe5eb2706ad1a969dcd3dcf42", "type": "electric_scooter", "is_reserved": 0, "lon": -77.03998216666666}, {"fusion_lat": 0.0, "name": "1ff1c8620b99dc135e47f0d49212ad97", "is_disabled": 0, "rental_uris": {"android": "https://dc.lft.to/lastmile_qr_scan", "ios": "https://dc.lft.to/lastmile_qr_scan"}, "fusion_lon": 0.0, "lat": 38.92349766666667, "bike_id": "1ff1c8620b99dc135e47f0d49212ad97", "type": "electric_scooter", "is_reserved": 0, "lon": -77.03466166666666}, {"fusion_lat": 0.0, "name": "4bd5341146a621d435d2c3c2ee7965d4", "is_disabled": 0, "rental_uris": {"android": "https://dc.lft.to/lastmile_qr_scan", "ios": "https://dc.lft.to/lastmile_qr_scan"}, "fusion_lon": 0.0, "lat": 38.8636925, "bike_id": "4bd5341146a621d435d2c3c2ee7965d4", "type": "electric_bike", "is_reserved": 0, "lon": -76.9700995}, {"fusion_lat": 0.0, "name": "aa5735eee2daa5d36b6b1a44fee23fd6", "is_disabled": 0, "rental_uris": {"android": "https://dc.lft.to/lastmile_qr_scan", "ios": "https://dc.lft.to/lastmile_qr_scan"}, "fusion_lon": 0.0, "lat": 38.92789416666667, "bike_id": "aa5735eee2daa5d36b6b1a44fee23fd6", "type": "electric_scooter", "is_reserved": 0, "lon": -77.03153016666667}, {"fusion_lat": 0.0, "name": "d3b3ef36f656a3a9e781f3d13fb758da", "is_disabled": 0, "rental_uris": {"android": "https://dc.lft.to/lastmile_qr_scan", "ios": "https://dc.lft.to/lastmile_qr_scan"}, "fusion_lon": 0.0, "lat": 38.927916, "bike_id": "d3b3ef36f656a3a9e781f3d13fb758da", "type": "electric_scooter", "is_reserved": 0, "lon": -77.02584866666666}, {"fusion_lat": 0.0, "name": "ef419b72c34def86f393e54e83634da7", "is_disabled": 0, "rental_uris": {"android": "https://dc.lft.to/lastmile_qr_scan", "ios": "https://dc.lft.to/lastmile_qr_scan"}, "fusion_lon": 0.0, "lat": 38.928735, "bike_id": "ef419b72c34def86f393e54e83634da7", "type": "electric_scooter", "is_reserved": 0, "lon": -77.0544075}, {"fusion_lat": 0.0, "name": "e987921990cf53cdf843b188835bbeb5", "is_disabled": 0, "rental_uris": {"android": "https://dc.lft.to/lastmile_qr_scan", "ios": "https://dc.lft.to/lastmile_qr_scan"}, "fusion_lon": 0.0, "lat": 38.889494666666664, "bike_id": "e987921990cf53cdf843b188835bbeb5", "type": "electric_scooter", "is_reserved": 0, "lon": -76.99162983333333}, {"fusion_lat": 0.0, "name": "35e70a970c029eba46bbb3f731f0a84b", "is_disabled": 0, "rental_uris": {"android": "https://dc.lft.to/lastmile_qr_scan", "ios": "https://dc.lft.to/lastmile_qr_scan"}, "fusion_lon": 0.0, "lat": 38.887388, "bike_id": "35e70a970c029eba46bbb3f731f0a84b", "type": "electric_scooter", "is_reserved": 0, "lon": -77.01538983333333}, {"fusion_lat": 0.0, "name": "fe36e72544eb47d341045798ac875c96", "is_disabled": 0, "rental_uris": {"android": "https://dc.lft.to/lastmile_qr_scan", "ios": "https://dc.lft.to/lastmile_qr_scan"}, "fusion_lon": 0.0, "lat": 38.8990945, "bike_id": "fe36e72544eb47d341045798ac875c96", "type": "electric_scooter", "is_reserved": 0, "lon": -77.00357866666667}, {"fusion_lat": 0.0, "name": "1e7568f67cad2d8550bd85c3c2df46e4", "is_disabled": 0, "rental_uris": {"android": "https://dc.lft.to/lastmile_qr_scan", "ios": "https://dc.lft.to/lastmile_qr_scan"}, "fusion_lon": 0.0, "lat": 38.9326495, "bike_id": "1e7568f67cad2d8550bd85c3c2df46e4", "type": "electric_scooter", "is_reserved": 0, "lon": -77.03268983333334}, {"fusion_lat": 0.0, "name": "d2f82619525ad0162d42026db5194ac8", "is_disabled": 0, "rental_uris": {"android": "https://dc.lft.to/lastmile_qr_scan", "ios": "https://dc.lft.to/lastmile_qr_scan"}, "fusion_lon": 0.0, "lat": 38.91021766666667, "bike_id": "d2f82619525ad0162d42026db5194ac8", "type": "electric_scooter", "is_reserved": 0, "lon": -77.04479516666666}, {"fusion_lat": 0.0, "name": "b31750f2971d5283c5eedc7602ffcc88", "is_disabled": 0, "rental_uris": {"android": "https://dc.lft.to/lastmile_qr_scan", "ios": "https://dc.lft.to/lastmile_qr_scan"}, "fusion_lon": 0.0, "lat": 38.91883833333333, "bike_id": "b31750f2971d5283c5eedc7602ffcc88", "type": "electric_bike", "is_reserved": 0, "lon": -76.96597433333334}, {"fusion_lat": 0.0, "name": "d5b416eb7b68176cb56d43ae50df7b1c", "is_disabled": 0, "rental_uris": {"android": "https://dc.lft.to/lastmile_qr_scan", "ios": "https://dc.lft.to/lastmile_qr_scan"}, "fusion_lon": 0.0, "lat": 38.92152016666667, "bike_id": "d5b416eb7b68176cb56d43ae50df7b1c", "type": "electric_scooter", "is_reserved": 0, "lon": -77.034436}, {"fusion_lat": 0.0, "name": "0a8f42c91d67f4809655fb0dc8784d3c", "is_disabled": 0, "rental_uris": {"android": "https://dc.lft.to/lastmile_qr_scan", "ios": "https://dc.lft.to/lastmile_qr_scan"}, "fusion_lon": 0.0, "lat": 38.904490833333334, "bike_id": "0a8f42c91d67f4809655fb0dc8784d3c", "type": "electric_scooter", "is_reserved": 0, "lon": -77.028819}, {"fusion_lat": 0.0, "name": "90bf94bd201be4821e2905edd57e43f8", "is_disabled": 0, "rental_uris": {"android": "https://dc.lft.to/lastmile_qr_scan", "ios": "https://dc.lft.to/lastmile_qr_scan"}, "fusion_lon": 0.0, "lat": 38.886147, "bike_id": "90bf94bd201be4821e2905edd57e43f8", "type": "electric_scooter", "is_reserved": 0, "lon": -77.019654}, {"fusion_lat": 0.0, "name": "0936fc96e0378dde6d42649ef9616598", "is_disabled": 0, "rental_uris": {"android": "https://dc.lft.to/lastmile_qr_scan", "ios": "https://dc.lft.to/lastmile_qr_scan"}, "fusion_lon": 0.0, "lat": 38.88747466666667, "bike_id": "0936fc96e0378dde6d42649ef9616598", "type": "electric_scooter", "is_reserved": 0, "lon": -77.02572}, {"fusion_lat": 0.0, "name": "5b70395df15f0f8c01d4e021d978b347", "is_disabled": 0, "rental_uris": {"android": "https://dc.lft.to/lastmile_qr_scan", "ios": "https://dc.lft.to/lastmile_qr_scan"}, "fusion_lon": 0.0, "lat": 38.87376533333333, "bike_id": "5b70395df15f0f8c01d4e021d978b347", "type": "electric_scooter", "is_reserved": 0, "lon": -77.00051916666666}, {"fusion_lat": 0.0, "name": "c825ebe05198f754737bc32854024077", "is_disabled": 0, "rental_uris": {"android": "https://dc.lft.to/lastmile_qr_scan", "ios": "https://dc.lft.to/lastmile_qr_scan"}, "fusion_lon": 0.0, "lat": 38.87381116666667, "bike_id": "c825ebe05198f754737bc32854024077", "type": "electric_scooter", "is_reserved": 0, "lon": -77.0005765}, {"fusion_lat": 0.0, "name": "26435ef78c9c89dc5fa5b4339cfe27c5", "is_disabled": 0, "rental_uris": {"android": "https://dc.lft.to/lastmile_qr_scan", "ios": "https://dc.lft.to/lastmile_qr_scan"}, "fusion_lon": 0.0, "lat": 38.931465333333335, "bike_id": "26435ef78c9c89dc5fa5b4339cfe27c5", "type": "electric_scooter", "is_reserved": 0, "lon": -77.02990483333333}, {"fusion_lat": 0.0, "name": "12e8b2c61901b5da0aff2ea2fc748238", "is_disabled": 0, "rental_uris": {"android": "https://dc.lft.to/lastmile_qr_scan", "ios": "https://dc.lft.to/lastmile_qr_scan"}, "fusion_lon": 0.0, "lat": 38.87435133333334, "bike_id": "12e8b2c61901b5da0aff2ea2fc748238", "type": "electric_scooter", "is_reserved": 0, "lon": -77.018748}, {"fusion_lat": 0.0, "name": "24de4581be8cc1538229ac998bd7bd99", "is_disabled": 0, "rental_uris": {"android": "https://dc.lft.to/lastmile_qr_scan", "ios": "https://dc.lft.to/lastmile_qr_scan"}, "fusion_lon": 0.0, "lat": 38.83931533333333, "bike_id": "24de4581be8cc1538229ac998bd7bd99", "type": "electric_bike", "is_reserved": 0, "lon": -77.07907866666666}, {"fusion_lat": 0.0, "name": "00c1c85a4926d18bdf9cc44ae501be2c", "is_disabled": 0, "rental_uris": {"android": "https://dc.lft.to/lastmile_qr_scan", "ios": "https://dc.lft.to/lastmile_qr_scan"}, "fusion_lon": 0.0, "lat": 38.91844066666667, "bike_id": "00c1c85a4926d18bdf9cc44ae501be2c", "type": "electric_scooter", "is_reserved": 0, "lon": -77.02696316666666}, {"fusion_lat": 0.0, "name": "dee890e1bdcbe91fbfce6c8caac4d62d", "is_disabled": 0, "rental_uris": {"android": "https://dc.lft.to/lastmile_qr_scan", "ios": "https://dc.lft.to/lastmile_qr_scan"}, "fusion_lon": 0.0, "lat": 38.91766466666667, "bike_id": "dee890e1bdcbe91fbfce6c8caac4d62d", "type": "electric_scooter", "is_reserved": 0, "lon": -77.04780133333334}, {"fusion_lat": 0.0, "name": "b2327df694fda0588714f8698ce58ef2", "is_disabled": 0, "rental_uris": {"android": "https://dc.lft.to/lastmile_qr_scan", "ios": "https://dc.lft.to/lastmile_qr_scan"}, "fusion_lon": 0.0, "lat": 38.978814666666665, "bike_id": "b2327df694fda0588714f8698ce58ef2", "type": "electric_bike", "is_reserved": 0, "lon": -77.06032466666667}, {"fusion_lat": 0.0, "name": "fa68fadd00efef1cc7e8511066c0b1ae", "is_disabled": 0, "rental_uris": {"android": "https://dc.lft.to/lastmile_qr_scan", "ios": "https://dc.lft.to/lastmile_qr_scan"}, "fusion_lon": 0.0, "lat": 38.9013955, "bike_id": "fa68fadd00efef1cc7e8511066c0b1ae", "type": "electric_scooter", "is_reserved": 0, "lon": -76.98650083333334}, {"fusion_lat": 0.0, "name": "1459266a230f9021f53c9e47c906d8a0", "is_disabled": 0, "rental_uris": {"android": "https://dc.lft.to/lastmile_qr_scan", "ios": "https://dc.lft.to/lastmile_qr_scan"}, "fusion_lon": 0.0, "lat": 38.892227166666665, "bike_id": "1459266a230f9021f53c9e47c906d8a0", "type": "electric_scooter", "is_reserved": 0, "lon": -77.03984533333333}, {"fusion_lat": 0.0, "name": "5a6db6c30897d38a5d73f965a488cdcf", "is_disabled": 0, "rental_uris": {"android": "https://dc.lft.to/lastmile_qr_scan", "ios": "https://dc.lft.to/lastmile_qr_scan"}, "fusion_lon": 0.0, "lat": 38.89226933333333, "bike_id": "5a6db6c30897d38a5d73f965a488cdcf", "type": "electric_scooter", "is_reserved": 0, "lon": -77.03215883333333}, {"fusion_lat": 0.0, "name": "3ee19ca83c64a30eca996d1d30f1bee8", "is_disabled": 0, "rental_uris": {"android": "https://dc.lft.to/lastmile_qr_scan", "ios": "https://dc.lft.to/lastmile_qr_scan"}, "fusion_lon": 0.0, "lat": 38.904514, "bike_id": "3ee19ca83c64a30eca996d1d30f1bee8", "type": "electric_bike", "is_reserved": 0, "lon": -76.974244}, {"fusion_lat": 0.0, "name": "cd1c14e873e34360fbf41efd9ceafc15", "is_disabled": 0, "rental_uris": {"android": "https://dc.lft.to/lastmile_qr_scan", "ios": "https://dc.lft.to/lastmile_qr_scan"}, "fusion_lon": 0.0, "lat": 38.89833866666667, "bike_id": "cd1c14e873e34360fbf41efd9ceafc15", "type": "electric_scooter", "is_reserved": 0, "lon": -76.93182233333333}, {"fusion_lat": 0.0, "name": "fb8b8157e3b33cabaa10c42c89675fb3", "is_disabled": 0, "rental_uris": {"android": "https://dc.lft.to/lastmile_qr_scan", "ios": "https://dc.lft.to/lastmile_qr_scan"}, "fusion_lon": 0.0, "lat": 38.9508185, "bike_id": "fb8b8157e3b33cabaa10c42c89675fb3", "type": "electric_scooter", "is_reserved": 0, "lon": -77.02818233333333}, {"fusion_lat": 0.0, "name": "de16c671dbb7e952613814dc26d1ac63", "is_disabled": 0, "rental_uris": {"android": "https://dc.lft.to/lastmile_qr_scan", "ios": "https://dc.lft.to/lastmile_qr_scan"}, "fusion_lon": 0.0, "lat": 38.84055033333333, "bike_id": "de16c671dbb7e952613814dc26d1ac63", "type": "electric_scooter", "is_reserved": 0, "lon": -76.9766705}, {"fusion_lat": 0.0, "name": "d51695bef8f37011da8a01542a35b57b", "is_disabled": 0, "rental_uris": {"android": "https://dc.lft.to/lastmile_qr_scan", "ios": "https://dc.lft.to/lastmile_qr_scan"}, "fusion_lon": 0.0, "lat": 38.898280666666665, "bike_id": "d51695bef8f37011da8a01542a35b57b", "type": "electric_scooter", "is_reserved": 0, "lon": -76.94651683333333}, {"fusion_lat": 0.0, "name": "61a07568c0e1e62259e336dfe671363c", "is_disabled": 0, "rental_uris": {"android": "https://dc.lft.to/lastmile_qr_scan", "ios": "https://dc.lft.to/lastmile_qr_scan"}, "fusion_lon": 0.0, "lat": 38.907304833333335, "bike_id": "61a07568c0e1e62259e336dfe671363c", "type": "electric_scooter", "is_reserved": 0, "lon": -77.04351633333333}, {"fusion_lat": 0.0, "name": "5450088ba36e87898266bbbee8899b49", "is_disabled": 0, "rental_uris": {"android": "https://dc.lft.to/lastmile_qr_scan", "ios": "https://dc.lft.to/lastmile_qr_scan"}, "fusion_lon": 0.0, "lat": 38.923812833333336, "bike_id": "5450088ba36e87898266bbbee8899b49", "type": "electric_scooter", "is_reserved": 0, "lon": -77.07536916666666}, {"fusion_lat": 0.0, "name": "49d69a9471ef5d54eaca4d93d5916651", "is_disabled": 0, "rental_uris": {"android": "https://dc.lft.to/lastmile_qr_scan", "ios": "https://dc.lft.to/lastmile_qr_scan"}, "fusion_lon": 0.0, "lat": 38.89755383333333, "bike_id": "49d69a9471ef5d54eaca4d93d5916651", "type": "electric_scooter", "is_reserved": 0, "lon": -77.03178016666666}, {"fusion_lat": 0.0, "name": "41a44b01ad3420086edfdf623693926b", "is_disabled": 0, "rental_uris": {"android": "https://dc.lft.to/lastmile_qr_scan", "ios": "https://dc.lft.to/lastmile_qr_scan"}, "fusion_lon": 0.0, "lat": 38.904355833333334, "bike_id": "41a44b01ad3420086edfdf623693926b", "type": "electric_scooter", "is_reserved": 0, "lon": -77.02387433333334}, {"fusion_lat": 0.0, "name": "ab6ed45464cfe5727d9239b739dbbc06", "is_disabled": 0, "rental_uris": {"android": "https://dc.lft.to/lastmile_qr_scan", "ios": "https://dc.lft.to/lastmile_qr_scan"}, "fusion_lon": 0.0, "lat": 38.916995666666665, "bike_id": "ab6ed45464cfe5727d9239b739dbbc06", "type": "electric_scooter", "is_reserved": 0, "lon": -77.01170083333334}, {"fusion_lat": 0.0, "name": "1cecc6182bed4d114e7cd55212508bf3", "is_disabled": 0, "rental_uris": {"android": "https://dc.lft.to/lastmile_qr_scan", "ios": "https://dc.lft.to/lastmile_qr_scan"}, "fusion_lon": 0.0, "lat": 38.916425833333335, "bike_id": "1cecc6182bed4d114e7cd55212508bf3", "type": "electric_scooter", "is_reserved": 0, "lon": -77.03207633333334}, {"fusion_lat": 0.0, "name": "284265413e8ef825c65a1b03aae2165e", "is_disabled": 0, "rental_uris": {"android": "https://dc.lft.to/lastmile_qr_scan", "ios": "https://dc.lft.to/lastmile_qr_scan"}, "fusion_lon": 0.0, "lat": 38.9038605, "bike_id": "284265413e8ef825c65a1b03aae2165e", "type": "electric_scooter", "is_reserved": 0, "lon": -77.03183866666667}, {"fusion_lat": 0.0, "name": "cc2e354385e37489658667e42017f24b", "is_disabled": 0, "rental_uris": {"android": "https://dc.lft.to/lastmile_qr_scan", "ios": "https://dc.lft.to/lastmile_qr_scan"}, "fusion_lon": 0.0, "lat": 38.9075925, "bike_id": "cc2e354385e37489658667e42017f24b", "type": "electric_scooter", "is_reserved": 0, "lon": -77.03842716666666}, {"fusion_lat": 0.0, "name": "0ebb56e9f45ae502824a05c849e49db4", "is_disabled": 0, "rental_uris": {"android": "https://dc.lft.to/lastmile_qr_scan", "ios": "https://dc.lft.to/lastmile_qr_scan"}, "fusion_lon": 0.0, "lat": 38.845077, "bike_id": "0ebb56e9f45ae502824a05c849e49db4", "type": "electric_bike", "is_reserved": 0, "lon": -76.99354033333333}, {"fusion_lat": 0.0, "name": "65c4f4a1b2a9f4bec9dfdbddc6246f21", "is_disabled": 0, "rental_uris": {"android": "https://dc.lft.to/lastmile_qr_scan", "ios": "https://dc.lft.to/lastmile_qr_scan"}, "fusion_lon": 0.0, "lat": 38.904098, "bike_id": "65c4f4a1b2a9f4bec9dfdbddc6246f21", "type": "electric_scooter", "is_reserved": 0, "lon": -76.97331283333334}, {"fusion_lat": 0.0, "name": "4a3f25224f031201d9aa4640fd193b24", "is_disabled": 0, "rental_uris": {"android": "https://dc.lft.to/lastmile_qr_scan", "ios": "https://dc.lft.to/lastmile_qr_scan"}, "fusion_lon": 0.0, "lat": 38.920937, "bike_id": "4a3f25224f031201d9aa4640fd193b24", "type": "electric_scooter", "is_reserved": 0, "lon": -76.99458083333333}, {"fusion_lat": 0.0, "name": "80e99f1d1a88c908dab44e1e581dfef5", "is_disabled": 0, "rental_uris": {"android": "https://dc.lft.to/lastmile_qr_scan", "ios": "https://dc.lft.to/lastmile_qr_scan"}, "fusion_lon": 0.0, "lat": 38.88706583333333, "bike_id": "80e99f1d1a88c908dab44e1e581dfef5", "type": "electric_scooter", "is_reserved": 0, "lon": -77.00249033333333}, {"fusion_lat": 0.0, "name": "b6617bdef57d4cf614241ccc419ec643", "is_disabled": 0, "rental_uris": {"android": "https://dc.lft.to/lastmile_qr_scan", "ios": "https://dc.lft.to/lastmile_qr_scan"}, "fusion_lon": 0.0, "lat": 38.93487483333333, "bike_id": "b6617bdef57d4cf614241ccc419ec643", "type": "electric_bike", "is_reserved": 0, "lon": -77.03020316666667}, {"fusion_lat": 0.0, "name": "0a5646837f29898bea5572f0d855b70a", "is_disabled": 0, "rental_uris": {"android": "https://dc.lft.to/lastmile_qr_scan", "ios": "https://dc.lft.to/lastmile_qr_scan"}, "fusion_lon": 0.0, "lat": 38.896887666666665, "bike_id": "0a5646837f29898bea5572f0d855b70a", "type": "electric_scooter", "is_reserved": 0, "lon": -77.05102466666666}, {"fusion_lat": 0.0, "name": "a16bb782ca2c624e4f0adde48ac515c2", "is_disabled": 0, "rental_uris": {"android": "https://dc.lft.to/lastmile_qr_scan", "ios": "https://dc.lft.to/lastmile_qr_scan"}, "fusion_lon": 0.0, "lat": 38.88651733333333, "bike_id": "a16bb782ca2c624e4f0adde48ac515c2", "type": "electric_scooter", "is_reserved": 0, "lon": -77.0335735}, {"fusion_lat": 0.0, "name": "16d00d0a7f289b48e36f30ec6215f2a6", "is_disabled": 0, "rental_uris": {"android": "https://dc.lft.to/lastmile_qr_scan", "ios": "https://dc.lft.to/lastmile_qr_scan"}, "fusion_lon": 0.0, "lat": 38.9012585, "bike_id": "16d00d0a7f289b48e36f30ec6215f2a6", "type": "electric_scooter", "is_reserved": 0, "lon": -77.0523855}, {"fusion_lat": 0.0, "name": "96c60125f7a660fbd7746c82bb50aa08", "is_disabled": 0, "rental_uris": {"android": "https://dc.lft.to/lastmile_qr_scan", "ios": "https://dc.lft.to/lastmile_qr_scan"}, "fusion_lon": 0.0, "lat": 38.89833616666667, "bike_id": "96c60125f7a660fbd7746c82bb50aa08", "type": "electric_scooter", "is_reserved": 0, "lon": -76.94630716666667}, {"fusion_lat": 0.0, "name": "9d13d7f9b31e157f8bf8653100697c40", "is_disabled": 0, "rental_uris": {"android": "https://dc.lft.to/lastmile_qr_scan", "ios": "https://dc.lft.to/lastmile_qr_scan"}, "fusion_lon": 0.0, "lat": 38.896102666666664, "bike_id": "9d13d7f9b31e157f8bf8653100697c40", "type": "electric_scooter", "is_reserved": 0, "lon": -76.9481725}, {"fusion_lat": 0.0, "name": "d7bae73e270447b525d646d517798bfb", "is_disabled": 0, "rental_uris": {"android": "https://dc.lft.to/lastmile_qr_scan", "ios": "https://dc.lft.to/lastmile_qr_scan"}, "fusion_lon": 0.0, "lat": 38.87751883333333, "bike_id": "d7bae73e270447b525d646d517798bfb", "type": "electric_scooter", "is_reserved": 0, "lon": -77.01431583333333}, {"fusion_lat": 0.0, "name": "644323de80bf03b22a0e601279ed96ef", "is_disabled": 0, "rental_uris": {"android": "https://dc.lft.to/lastmile_qr_scan", "ios": "https://dc.lft.to/lastmile_qr_scan"}, "fusion_lon": 0.0, "lat": 38.8832605, "bike_id": "644323de80bf03b22a0e601279ed96ef", "type": "electric_scooter", "is_reserved": 0, "lon": -77.01759733333333}, {"fusion_lat": 0.0, "name": "ed948c6d00c5ced2b89453f195291c96", "is_disabled": 0, "rental_uris": {"android": "https://dc.lft.to/lastmile_qr_scan", "ios": "https://dc.lft.to/lastmile_qr_scan"}, "fusion_lon": 0.0, "lat": 38.879566, "bike_id": "ed948c6d00c5ced2b89453f195291c96", "type": "electric_scooter", "is_reserved": 0, "lon": -76.99011899999999}, {"fusion_lat": 0.0, "name": "fb0efb135f4775d75b49a5729b2e8973", "is_disabled": 0, "rental_uris": {"android": "https://dc.lft.to/lastmile_qr_scan", "ios": "https://dc.lft.to/lastmile_qr_scan"}, "fusion_lon": 0.0, "lat": 38.92606466666667, "bike_id": "fb0efb135f4775d75b49a5729b2e8973", "type": "electric_scooter", "is_reserved": 0, "lon": -77.02159466666667}, {"fusion_lat": 0.0, "name": "6aa188aecb6473e5992baeaed4af23d4", "is_disabled": 0, "rental_uris": {"android": "https://dc.lft.to/lastmile_qr_scan", "ios": "https://dc.lft.to/lastmile_qr_scan"}, "fusion_lon": 0.0, "lat": 38.916615166666666, "bike_id": "6aa188aecb6473e5992baeaed4af23d4", "type": "electric_scooter", "is_reserved": 0, "lon": -77.02825883333334}, {"fusion_lat": 0.0, "name": "22eab4048401b7c777dff25f91d0429b", "is_disabled": 0, "rental_uris": {"android": "https://dc.lft.to/lastmile_qr_scan", "ios": "https://dc.lft.to/lastmile_qr_scan"}, "fusion_lon": 0.0, "lat": 38.89003783333333, "bike_id": "22eab4048401b7c777dff25f91d0429b", "type": "electric_scooter", "is_reserved": 0, "lon": -76.93746583333333}, {"fusion_lat": 0.0, "name": "9d1958be3ef5433de2eb8b68f9cd5e71", "is_disabled": 0, "rental_uris": {"android": "https://dc.lft.to/lastmile_qr_scan", "ios": "https://dc.lft.to/lastmile_qr_scan"}, "fusion_lon": 0.0, "lat": 38.93264583333333, "bike_id": "9d1958be3ef5433de2eb8b68f9cd5e71", "type": "electric_scooter", "is_reserved": 0, "lon": -77.02094916666667}, {"fusion_lat": 0.0, "name": "8832d004298b09a79ae4b89fa25ae677", "is_disabled": 0, "rental_uris": {"android": "https://dc.lft.to/lastmile_qr_scan", "ios": "https://dc.lft.to/lastmile_qr_scan"}, "fusion_lon": 0.0, "lat": 38.82180566666667, "bike_id": "8832d004298b09a79ae4b89fa25ae677", "type": "electric_bike", "is_reserved": 0, "lon": -76.99516883333334}, {"fusion_lat": 0.0, "name": "75035290c0649d047f0b5dfe9193d36c", "is_disabled": 0, "rental_uris": {"android": "https://dc.lft.to/lastmile_qr_scan", "ios": "https://dc.lft.to/lastmile_qr_scan"}, "fusion_lon": 0.0, "lat": 38.89741716666666, "bike_id": "75035290c0649d047f0b5dfe9193d36c", "type": "electric_scooter", "is_reserved": 0, "lon": -77.04625683333333}, {"fusion_lat": 0.0, "name": "27888a4316ca2f26ef7da15584d5ead7", "is_disabled": 0, "rental_uris": {"android": "https://dc.lft.to/lastmile_qr_scan", "ios": "https://dc.lft.to/lastmile_qr_scan"}, "fusion_lon": 0.0, "lat": 38.87689366666667, "bike_id": "27888a4316ca2f26ef7da15584d5ead7", "type": "electric_scooter", "is_reserved": 0, "lon": -77.01755266666666}, {"fusion_lat": 0.0, "name": "0d0ef9c89a77204d65e234062da36446", "is_disabled": 0, "rental_uris": {"android": "https://dc.lft.to/lastmile_qr_scan", "ios": "https://dc.lft.to/lastmile_qr_scan"}, "fusion_lon": 0.0, "lat": 38.91493416666667, "bike_id": "0d0ef9c89a77204d65e234062da36446", "type": "electric_scooter", "is_reserved": 0, "lon": -77.0456475}, {"fusion_lat": 0.0, "name": "b4364ae13bae2d06174a6b1dd110d02f", "is_disabled": 0, "rental_uris": {"android": "https://dc.lft.to/lastmile_qr_scan", "ios": "https://dc.lft.to/lastmile_qr_scan"}, "fusion_lon": 0.0, "lat": 38.900309166666666, "bike_id": "b4364ae13bae2d06174a6b1dd110d02f", "type": "electric_scooter", "is_reserved": 0, "lon": -77.00210683333333}, {"fusion_lat": 0.0, "name": "38ef082fe4783677cb38fd1f7d0e43e5", "is_disabled": 0, "rental_uris": {"android": "https://dc.lft.to/lastmile_qr_scan", "ios": "https://dc.lft.to/lastmile_qr_scan"}, "fusion_lon": 0.0, "lat": 38.927399666666666, "bike_id": "38ef082fe4783677cb38fd1f7d0e43e5", "type": "electric_scooter", "is_reserved": 0, "lon": -77.03428916666667}, {"fusion_lat": 0.0, "name": "66e5dbbecb6b885f17a4ed6b8a166cc7", "is_disabled": 0, "rental_uris": {"android": "https://dc.lft.to/lastmile_qr_scan", "ios": "https://dc.lft.to/lastmile_qr_scan"}, "fusion_lon": 0.0, "lat": 38.80455366666666, "bike_id": "66e5dbbecb6b885f17a4ed6b8a166cc7", "type": "electric_bike", "is_reserved": 0, "lon": -77.05388816666667}, {"fusion_lat": 0.0, "name": "7ad8a56db8bbb8a0346275d969974605", "is_disabled": 0, "rental_uris": {"android": "https://dc.lft.to/lastmile_qr_scan", "ios": "https://dc.lft.to/lastmile_qr_scan"}, "fusion_lon": 0.0, "lat": 38.89712933333333, "bike_id": "7ad8a56db8bbb8a0346275d969974605", "type": "electric_scooter", "is_reserved": 0, "lon": -77.0297975}, {"fusion_lat": 0.0, "name": "ed5da1f40de89108b9588e5c5f2d123b", "is_disabled": 0, "rental_uris": {"android": "https://dc.lft.to/lastmile_qr_scan", "ios": "https://dc.lft.to/lastmile_qr_scan"}, "fusion_lon": 0.0, "lat": 38.862442333333334, "bike_id": "ed5da1f40de89108b9588e5c5f2d123b", "type": "electric_scooter", "is_reserved": 0, "lon": -76.99497616666666}, {"fusion_lat": 0.0, "name": "221eddbb52f561e2f15b456ff2012b09", "is_disabled": 0, "rental_uris": {"android": "https://dc.lft.to/lastmile_qr_scan", "ios": "https://dc.lft.to/lastmile_qr_scan"}, "fusion_lon": 0.0, "lat": 38.8833085, "bike_id": "221eddbb52f561e2f15b456ff2012b09", "type": "electric_scooter", "is_reserved": 0, "lon": -77.01771766666667}, {"fusion_lat": 0.0, "name": "7b25211c4312d326d6819af3f3bc76f1", "is_disabled": 0, "rental_uris": {"android": "https://dc.lft.to/lastmile_qr_scan", "ios": "https://dc.lft.to/lastmile_qr_scan"}, "fusion_lon": 0.0, "lat": 38.939926, "bike_id": "7b25211c4312d326d6819af3f3bc76f1", "type": "electric_bike", "is_reserved": 0, "lon": -77.03580166666667}, {"fusion_lat": 0.0, "name": "dff4689b517f2f847b14eaec9e60645f", "is_disabled": 0, "rental_uris": {"android": "https://dc.lft.to/lastmile_qr_scan", "ios": "https://dc.lft.to/lastmile_qr_scan"}, "fusion_lon": 0.0, "lat": 38.8922845, "bike_id": "dff4689b517f2f847b14eaec9e60645f", "type": "electric_scooter", "is_reserved": 0, "lon": -77.0241035}, {"fusion_lat": 0.0, "name": "fa9a91c0cbff896d7ef8912f421a922b", "is_disabled": 0, "rental_uris": {"android": "https://dc.lft.to/lastmile_qr_scan", "ios": "https://dc.lft.to/lastmile_qr_scan"}, "fusion_lon": 0.0, "lat": 38.897668333333336, "bike_id": "fa9a91c0cbff896d7ef8912f421a922b", "type": "electric_scooter", "is_reserved": 0, "lon": -77.008961}, {"fusion_lat": 0.0, "name": "ab877f40112711b69339f4b946072368", "is_disabled": 0, "rental_uris": {"android": "https://dc.lft.to/lastmile_qr_scan", "ios": "https://dc.lft.to/lastmile_qr_scan"}, "fusion_lon": 0.0, "lat": 38.896214, "bike_id": "ab877f40112711b69339f4b946072368", "type": "electric_scooter", "is_reserved": 0, "lon": -77.00919583333334}, {"fusion_lat": 0.0, "name": "1912fc93c7ae81aa5682b823faa5578b", "is_disabled": 0, "rental_uris": {"android": "https://dc.lft.to/lastmile_qr_scan", "ios": "https://dc.lft.to/lastmile_qr_scan"}, "fusion_lon": 0.0, "lat": 39.052556, "bike_id": "1912fc93c7ae81aa5682b823faa5578b", "type": "electric_bike", "is_reserved": 0, "lon": -77.08068833333333}, {"fusion_lat": 0.0, "name": "d4e3b5c02d7bdc3154a7e78237e68694", "is_disabled": 0, "rental_uris": {"android": "https://dc.lft.to/lastmile_qr_scan", "ios": "https://dc.lft.to/lastmile_qr_scan"}, "fusion_lon": 0.0, "lat": 38.899255, "bike_id": "d4e3b5c02d7bdc3154a7e78237e68694", "type": "electric_scooter", "is_reserved": 0, "lon": -77.0035055}, {"fusion_lat": 0.0, "name": "33bdb897555d1c027878c83045f6ffa1", "is_disabled": 0, "rental_uris": {"android": "https://dc.lft.to/lastmile_qr_scan", "ios": "https://dc.lft.to/lastmile_qr_scan"}, "fusion_lon": 0.0, "lat": 38.92746316666667, "bike_id": "33bdb897555d1c027878c83045f6ffa1", "type": "electric_scooter", "is_reserved": 0, "lon": -77.02426133333333}, {"fusion_lat": 0.0, "name": "389a2e1564ac201e0cbcc053e10f7b33", "is_disabled": 0, "rental_uris": {"android": "https://dc.lft.to/lastmile_qr_scan", "ios": "https://dc.lft.to/lastmile_qr_scan"}, "fusion_lon": 0.0, "lat": 38.9081165, "bike_id": "389a2e1564ac201e0cbcc053e10f7b33", "type": "electric_scooter", "is_reserved": 0, "lon": -77.03431283333333}, {"fusion_lat": 0.0, "name": "719199bc05ad636c0b21c86bd51b23a1", "is_disabled": 0, "rental_uris": {"android": "https://dc.lft.to/lastmile_qr_scan", "ios": "https://dc.lft.to/lastmile_qr_scan"}, "fusion_lon": 0.0, "lat": 38.88329566666667, "bike_id": "719199bc05ad636c0b21c86bd51b23a1", "type": "electric_scooter", "is_reserved": 0, "lon": -77.01770466666666}, {"fusion_lat": 0.0, "name": "8c0cf42ef8d37d875a9adc1d0e743109", "is_disabled": 0, "rental_uris": {"android": "https://dc.lft.to/lastmile_qr_scan", "ios": "https://dc.lft.to/lastmile_qr_scan"}, "fusion_lon": 0.0, "lat": 38.91265766666667, "bike_id": "8c0cf42ef8d37d875a9adc1d0e743109", "type": "electric_scooter", "is_reserved": 0, "lon": -77.001547}, {"fusion_lat": 0.0, "name": "1f82e2cb62944f779fcd4d209af97bd9", "is_disabled": 0, "rental_uris": {"android": "https://dc.lft.to/lastmile_qr_scan", "ios": "https://dc.lft.to/lastmile_qr_scan"}, "fusion_lon": 0.0, "lat": 38.87181283333334, "bike_id": "1f82e2cb62944f779fcd4d209af97bd9", "type": "electric_scooter", "is_reserved": 0, "lon": -77.00617283333334}, {"fusion_lat": 0.0, "name": "c9370349abc7c2fc38e633648396f374", "is_disabled": 0, "rental_uris": {"android": "https://dc.lft.to/lastmile_qr_scan", "ios": "https://dc.lft.to/lastmile_qr_scan"}, "fusion_lon": 0.0, "lat": 38.93523716666667, "bike_id": "c9370349abc7c2fc38e633648396f374", "type": "electric_scooter", "is_reserved": 0, "lon": -77.07260616666667}, {"fusion_lat": 0.0, "name": "e87e597e3e2b85a12b9d44ef79104892", "is_disabled": 0, "rental_uris": {"android": "https://dc.lft.to/lastmile_qr_scan", "ios": "https://dc.lft.to/lastmile_qr_scan"}, "fusion_lon": 0.0, "lat": 38.89877166666667, "bike_id": "e87e597e3e2b85a12b9d44ef79104892", "type": "electric_scooter", "is_reserved": 0, "lon": -76.93184666666667}, {"fusion_lat": 0.0, "name": "ec646b50a0648f52f2971188552e0d5c", "is_disabled": 0, "rental_uris": {"android": "https://dc.lft.to/lastmile_qr_scan", "ios": "https://dc.lft.to/lastmile_qr_scan"}, "fusion_lon": 0.0, "lat": 38.883260166666666, "bike_id": "ec646b50a0648f52f2971188552e0d5c", "type": "electric_scooter", "is_reserved": 0, "lon": -77.0175125}, {"fusion_lat": 0.0, "name": "ba6c1145dee20aaf1a48cc47bdd56bc4", "is_disabled": 0, "rental_uris": {"android": "https://dc.lft.to/lastmile_qr_scan", "ios": "https://dc.lft.to/lastmile_qr_scan"}, "fusion_lon": 0.0, "lat": 38.8974635, "bike_id": "ba6c1145dee20aaf1a48cc47bdd56bc4", "type": "electric_scooter", "is_reserved": 0, "lon": -77.0492215}, {"fusion_lat": 0.0, "name": "06746d6172a7ee91b36f62cb0556f3ee", "is_disabled": 0, "rental_uris": {"android": "https://dc.lft.to/lastmile_qr_scan", "ios": "https://dc.lft.to/lastmile_qr_scan"}, "fusion_lon": 0.0, "lat": 38.91338316666667, "bike_id": "06746d6172a7ee91b36f62cb0556f3ee", "type": "electric_scooter", "is_reserved": 0, "lon": -77.04267016666667}, {"fusion_lat": 0.0, "name": "942cdf834245c03ab3288a69fde57d7b", "is_disabled": 0, "rental_uris": {"android": "https://dc.lft.to/lastmile_qr_scan", "ios": "https://dc.lft.to/lastmile_qr_scan"}, "fusion_lon": 0.0, "lat": 38.897928666666665, "bike_id": "942cdf834245c03ab3288a69fde57d7b", "type": "electric_scooter", "is_reserved": 0, "lon": -77.01204833333334}, {"fusion_lat": 0.0, "name": "dc15c107f512f5c67b5d34c49e411486", "is_disabled": 0, "rental_uris": {"android": "https://dc.lft.to/lastmile_qr_scan", "ios": "https://dc.lft.to/lastmile_qr_scan"}, "fusion_lon": 0.0, "lat": 38.903172166666664, "bike_id": "dc15c107f512f5c67b5d34c49e411486", "type": "electric_scooter", "is_reserved": 0, "lon": -77.044893}, {"fusion_lat": 0.0, "name": "5804da118ce377309870d09d1f8826af", "is_disabled": 0, "rental_uris": {"android": "https://dc.lft.to/lastmile_qr_scan", "ios": "https://dc.lft.to/lastmile_qr_scan"}, "fusion_lon": 0.0, "lat": 38.892265, "bike_id": "5804da118ce377309870d09d1f8826af", "type": "electric_scooter", "is_reserved": 0, "lon": -77.021105}, {"fusion_lat": 0.0, "name": "7b0ff90aea6876c4484691ec7920c365", "is_disabled": 0, "rental_uris": {"android": "https://dc.lft.to/lastmile_qr_scan", "ios": "https://dc.lft.to/lastmile_qr_scan"}, "fusion_lon": 0.0, "lat": 38.92896416666667, "bike_id": "7b0ff90aea6876c4484691ec7920c365", "type": "electric_bike", "is_reserved": 0, "lon": -77.23178383333334}, {"fusion_lat": 0.0, "name": "95883c72cc614e634211756962a2a7ce", "is_disabled": 0, "rental_uris": {"android": "https://dc.lft.to/lastmile_qr_scan", "ios": "https://dc.lft.to/lastmile_qr_scan"}, "fusion_lon": 0.0, "lat": 38.91416683333333, "bike_id": "95883c72cc614e634211756962a2a7ce", "type": "electric_scooter", "is_reserved": 0, "lon": -77.022144}, {"fusion_lat": 0.0, "name": "d32ced1343990ca23762e333e8f33054", "is_disabled": 0, "rental_uris": {"android": "https://dc.lft.to/lastmile_qr_scan", "ios": "https://dc.lft.to/lastmile_qr_scan"}, "fusion_lon": 0.0, "lat": 38.92098, "bike_id": "d32ced1343990ca23762e333e8f33054", "type": "electric_bike", "is_reserved": 0, "lon": -76.99941466666667}, {"fusion_lat": 0.0, "name": "b439f64863bcbb9cc89a2088843b95a7", "is_disabled": 0, "rental_uris": {"android": "https://dc.lft.to/lastmile_qr_scan", "ios": "https://dc.lft.to/lastmile_qr_scan"}, "fusion_lon": 0.0, "lat": 38.952855166666666, "bike_id": "b439f64863bcbb9cc89a2088843b95a7", "type": "electric_scooter", "is_reserved": 0, "lon": -77.06855233333333}, {"fusion_lat": 0.0, "name": "191545a76fb92cc780ee0af5bcff067f", "is_disabled": 0, "rental_uris": {"android": "https://dc.lft.to/lastmile_qr_scan", "ios": "https://dc.lft.to/lastmile_qr_scan"}, "fusion_lon": 0.0, "lat": 38.912748666666666, "bike_id": "191545a76fb92cc780ee0af5bcff067f", "type": "electric_scooter", "is_reserved": 0, "lon": -77.022999}, {"fusion_lat": 0.0, "name": "6a7d971685e1baa28f7d6e58ffe7267c", "is_disabled": 0, "rental_uris": {"android": "https://dc.lft.to/lastmile_qr_scan", "ios": "https://dc.lft.to/lastmile_qr_scan"}, "fusion_lon": 0.0, "lat": 38.91718916666667, "bike_id": "6a7d971685e1baa28f7d6e58ffe7267c", "type": "electric_scooter", "is_reserved": 0, "lon": -77.0386105}, {"fusion_lat": 0.0, "name": "8d7f2618de6a120af267229b553d5fb1", "is_disabled": 0, "rental_uris": {"android": "https://dc.lft.to/lastmile_qr_scan", "ios": "https://dc.lft.to/lastmile_qr_scan"}, "fusion_lon": 0.0, "lat": 38.9158085, "bike_id": "8d7f2618de6a120af267229b553d5fb1", "type": "electric_scooter", "is_reserved": 0, "lon": -77.03785083333334}, {"fusion_lat": 0.0, "name": "29738aa6f483b6ca2efcdfe34150d106", "is_disabled": 0, "rental_uris": {"android": "https://dc.lft.to/lastmile_qr_scan", "ios": "https://dc.lft.to/lastmile_qr_scan"}, "fusion_lon": 0.0, "lat": 38.932188833333335, "bike_id": "29738aa6f483b6ca2efcdfe34150d106", "type": "electric_scooter", "is_reserved": 0, "lon": -77.03347366666667}, {"fusion_lat": 0.0, "name": "d22d97cd87c88cee7d8e7ac9ef0e6a24", "is_disabled": 0, "rental_uris": {"android": "https://dc.lft.to/lastmile_qr_scan", "ios": "https://dc.lft.to/lastmile_qr_scan"}, "fusion_lon": 0.0, "lat": 38.889873, "bike_id": "d22d97cd87c88cee7d8e7ac9ef0e6a24", "type": "electric_scooter", "is_reserved": 0, "lon": -76.9841425}, {"fusion_lat": 0.0, "name": "45c2353d7e5a0203009f12cc221b14b0", "is_disabled": 0, "rental_uris": {"android": "https://dc.lft.to/lastmile_qr_scan", "ios": "https://dc.lft.to/lastmile_qr_scan"}, "fusion_lon": 0.0, "lat": 38.92803633333333, "bike_id": "45c2353d7e5a0203009f12cc221b14b0", "type": "electric_scooter", "is_reserved": 0, "lon": -77.05537683333333}, {"fusion_lat": 0.0, "name": "97e101beaaee81ba3b261695d43eabe2", "is_disabled": 0, "rental_uris": {"android": "https://dc.lft.to/lastmile_qr_scan", "ios": "https://dc.lft.to/lastmile_qr_scan"}, "fusion_lon": 0.0, "lat": 38.896481, "bike_id": "97e101beaaee81ba3b261695d43eabe2", "type": "electric_scooter", "is_reserved": 0, "lon": -77.009432}, {"fusion_lat": 0.0, "name": "c0b50b33ae00577c9d417050c42b575b", "is_disabled": 0, "rental_uris": {"android": "https://dc.lft.to/lastmile_qr_scan", "ios": "https://dc.lft.to/lastmile_qr_scan"}, "fusion_lon": 0.0, "lat": 38.90733383333333, "bike_id": "c0b50b33ae00577c9d417050c42b575b", "type": "electric_scooter", "is_reserved": 0, "lon": -77.028193}, {"fusion_lat": 0.0, "name": "ec1ca7d4bc2844aad92266a0dd9a7935", "is_disabled": 0, "rental_uris": {"android": "https://dc.lft.to/lastmile_qr_scan", "ios": "https://dc.lft.to/lastmile_qr_scan"}, "fusion_lon": 0.0, "lat": 38.886584666666664, "bike_id": "ec1ca7d4bc2844aad92266a0dd9a7935", "type": "electric_scooter", "is_reserved": 0, "lon": -77.03387416666666}, {"fusion_lat": 0.0, "name": "7402f19af6ac76e3d0135f7cf2b37b0d", "is_disabled": 0, "rental_uris": {"android": "https://dc.lft.to/lastmile_qr_scan", "ios": "https://dc.lft.to/lastmile_qr_scan"}, "fusion_lon": 0.0, "lat": 38.901935333333334, "bike_id": "7402f19af6ac76e3d0135f7cf2b37b0d", "type": "electric_scooter", "is_reserved": 0, "lon": -77.02200933333333}, {"fusion_lat": 0.0, "name": "b81b3c3f03d836befd6a4a4cb2c6780e", "is_disabled": 0, "rental_uris": {"android": "https://dc.lft.to/lastmile_qr_scan", "ios": "https://dc.lft.to/lastmile_qr_scan"}, "fusion_lon": 0.0, "lat": 38.857053, "bike_id": "b81b3c3f03d836befd6a4a4cb2c6780e", "type": "electric_scooter", "is_reserved": 0, "lon": -76.99600216666667}, {"fusion_lat": 0.0, "name": "e7f3d6e45d2f36554da4e91db2f9e71f", "is_disabled": 0, "rental_uris": {"android": "https://dc.lft.to/lastmile_qr_scan", "ios": "https://dc.lft.to/lastmile_qr_scan"}, "fusion_lon": 0.0, "lat": 38.9098635, "bike_id": "e7f3d6e45d2f36554da4e91db2f9e71f", "type": "electric_scooter", "is_reserved": 0, "lon": -77.03190366666666}, {"fusion_lat": 0.0, "name": "070780e00d8cf501644ce017f7f2cbbc", "is_disabled": 0, "rental_uris": {"android": "https://dc.lft.to/lastmile_qr_scan", "ios": "https://dc.lft.to/lastmile_qr_scan"}, "fusion_lon": 0.0, "lat": 38.93131066666667, "bike_id": "070780e00d8cf501644ce017f7f2cbbc", "type": "electric_scooter", "is_reserved": 0, "lon": -77.03853566666666}, {"fusion_lat": 0.0, "name": "eb818aa7bad167816550fb29ecac6efd", "is_disabled": 0, "rental_uris": {"android": "https://dc.lft.to/lastmile_qr_scan", "ios": "https://dc.lft.to/lastmile_qr_scan"}, "fusion_lon": 0.0, "lat": 38.90650016666667, "bike_id": "eb818aa7bad167816550fb29ecac6efd", "type": "electric_scooter", "is_reserved": 0, "lon": -77.01415283333333}, {"fusion_lat": 0.0, "name": "552865f88213c1e5ffcf52dc78956e4d", "is_disabled": 0, "rental_uris": {"android": "https://dc.lft.to/lastmile_qr_scan", "ios": "https://dc.lft.to/lastmile_qr_scan"}, "fusion_lon": 0.0, "lat": 38.87614583333333, "bike_id": "552865f88213c1e5ffcf52dc78956e4d", "type": "electric_scooter", "is_reserved": 0, "lon": -77.0012185}, {"fusion_lat": 0.0, "name": "dd16330574271093a61bdd644aa6ed32", "is_disabled": 0, "rental_uris": {"android": "https://dc.lft.to/lastmile_qr_scan", "ios": "https://dc.lft.to/lastmile_qr_scan"}, "fusion_lon": 0.0, "lat": 38.906140666666666, "bike_id": "dd16330574271093a61bdd644aa6ed32", "type": "electric_scooter", "is_reserved": 0, "lon": -77.05041166666666}, {"fusion_lat": 0.0, "name": "f157335871b505b5dbfec48dd5c5dbe1", "is_disabled": 0, "rental_uris": {"android": "https://dc.lft.to/lastmile_qr_scan", "ios": "https://dc.lft.to/lastmile_qr_scan"}, "fusion_lon": 0.0, "lat": 38.92220783333333, "bike_id": "f157335871b505b5dbfec48dd5c5dbe1", "type": "electric_scooter", "is_reserved": 0, "lon": -76.98377283333333}, {"fusion_lat": 0.0, "name": "554b8e8d75756485bdd17b9b8c1ce7e3", "is_disabled": 0, "rental_uris": {"android": "https://dc.lft.to/lastmile_qr_scan", "ios": "https://dc.lft.to/lastmile_qr_scan"}, "fusion_lon": 0.0, "lat": 38.902694833333335, "bike_id": "554b8e8d75756485bdd17b9b8c1ce7e3", "type": "electric_bike", "is_reserved": 0, "lon": -77.061696}, {"fusion_lat": 0.0, "name": "803436b5129688b31faeff2b758ffb99", "is_disabled": 0, "rental_uris": {"android": "https://dc.lft.to/lastmile_qr_scan", "ios": "https://dc.lft.to/lastmile_qr_scan"}, "fusion_lon": 0.0, "lat": 38.91798716666667, "bike_id": "803436b5129688b31faeff2b758ffb99", "type": "electric_scooter", "is_reserved": 0, "lon": -77.034333}, {"fusion_lat": 0.0, "name": "238f4f94bac07b2da9a66dad568cf759", "is_disabled": 0, "rental_uris": {"android": "https://dc.lft.to/lastmile_qr_scan", "ios": "https://dc.lft.to/lastmile_qr_scan"}, "fusion_lon": 0.0, "lat": 38.93180233333333, "bike_id": "238f4f94bac07b2da9a66dad568cf759", "type": "electric_scooter", "is_reserved": 0, "lon": -77.0429335}, {"fusion_lat": 0.0, "name": "5bcdd645ee67515f125009dab1d3e950", "is_disabled": 0, "rental_uris": {"android": "https://dc.lft.to/lastmile_qr_scan", "ios": "https://dc.lft.to/lastmile_qr_scan"}, "fusion_lon": 0.0, "lat": 38.93141633333333, "bike_id": "5bcdd645ee67515f125009dab1d3e950", "type": "electric_scooter", "is_reserved": 0, "lon": -77.03835683333334}, {"fusion_lat": 0.0, "name": "0ec4062937aa9c63e1c853d620adcf75", "is_disabled": 0, "rental_uris": {"android": "https://dc.lft.to/lastmile_qr_scan", "ios": "https://dc.lft.to/lastmile_qr_scan"}, "fusion_lon": 0.0, "lat": 38.935266666666664, "bike_id": "0ec4062937aa9c63e1c853d620adcf75", "type": "electric_scooter", "is_reserved": 0, "lon": -77.03084083333333}, {"fusion_lat": 0.0, "name": "8df5074be074e5529fc67b2c9524cd89", "is_disabled": 0, "rental_uris": {"android": "https://dc.lft.to/lastmile_qr_scan", "ios": "https://dc.lft.to/lastmile_qr_scan"}, "fusion_lon": 0.0, "lat": 38.903157, "bike_id": "8df5074be074e5529fc67b2c9524cd89", "type": "electric_scooter", "is_reserved": 0, "lon": -77.06514083333333}, {"fusion_lat": 0.0, "name": "48c4c64d812bb5263f6806300ea4feca", "is_disabled": 0, "rental_uris": {"android": "https://dc.lft.to/lastmile_qr_scan", "ios": "https://dc.lft.to/lastmile_qr_scan"}, "fusion_lon": 0.0, "lat": 38.9111585, "bike_id": "48c4c64d812bb5263f6806300ea4feca", "type": "electric_scooter", "is_reserved": 0, "lon": -77.02166}, {"fusion_lat": 0.0, "name": "ca3134d80225ec76bf4a925fe1f4d34e", "is_disabled": 0, "rental_uris": {"android": "https://dc.lft.to/lastmile_qr_scan", "ios": "https://dc.lft.to/lastmile_qr_scan"}, "fusion_lon": 0.0, "lat": 38.91662983333333, "bike_id": "ca3134d80225ec76bf4a925fe1f4d34e", "type": "electric_scooter", "is_reserved": 0, "lon": -77.02968533333333}, {"fusion_lat": 0.0, "name": "57c44308bf1af4f12b7828a60e05f8fd", "is_disabled": 0, "rental_uris": {"android": "https://dc.lft.to/lastmile_qr_scan", "ios": "https://dc.lft.to/lastmile_qr_scan"}, "fusion_lon": 0.0, "lat": 38.857992, "bike_id": "57c44308bf1af4f12b7828a60e05f8fd", "type": "electric_bike", "is_reserved": 0, "lon": -77.12014866666667}, {"fusion_lat": 0.0, "name": "1b49689a64e5f1507d91795c3989c078", "is_disabled": 0, "rental_uris": {"android": "https://dc.lft.to/lastmile_qr_scan", "ios": "https://dc.lft.to/lastmile_qr_scan"}, "fusion_lon": 0.0, "lat": 38.905659166666666, "bike_id": "1b49689a64e5f1507d91795c3989c078", "type": "electric_scooter", "is_reserved": 0, "lon": -77.01310733333334}, {"fusion_lat": 0.0, "name": "f8b0c3e4918f552ffa2026fe2dcf15a7", "is_disabled": 0, "rental_uris": {"android": "https://dc.lft.to/lastmile_qr_scan", "ios": "https://dc.lft.to/lastmile_qr_scan"}, "fusion_lon": 0.0, "lat": 38.871810833333335, "bike_id": "f8b0c3e4918f552ffa2026fe2dcf15a7", "type": "electric_scooter", "is_reserved": 0, "lon": -77.00616283333333}, {"fusion_lat": 0.0, "name": "d6472c7b799502d7689c4968037c436f", "is_disabled": 0, "rental_uris": {"android": "https://dc.lft.to/lastmile_qr_scan", "ios": "https://dc.lft.to/lastmile_qr_scan"}, "fusion_lon": 0.0, "lat": 38.930705333333336, "bike_id": "d6472c7b799502d7689c4968037c436f", "type": "electric_scooter", "is_reserved": 0, "lon": -77.02971433333333}, {"fusion_lat": 0.0, "name": "b4c6528eec4e1aaa95f714bb94aa2ccf", "is_disabled": 0, "rental_uris": {"android": "https://dc.lft.to/lastmile_qr_scan", "ios": "https://dc.lft.to/lastmile_qr_scan"}, "fusion_lon": 0.0, "lat": 38.8873495, "bike_id": "b4c6528eec4e1aaa95f714bb94aa2ccf", "type": "electric_scooter", "is_reserved": 0, "lon": -77.0258005}, {"fusion_lat": 0.0, "name": "113f549a491018de0c69b162989aa806", "is_disabled": 0, "rental_uris": {"android": "https://dc.lft.to/lastmile_qr_scan", "ios": "https://dc.lft.to/lastmile_qr_scan"}, "fusion_lon": 0.0, "lat": 38.90012316666667, "bike_id": "113f549a491018de0c69b162989aa806", "type": "electric_scooter", "is_reserved": 0, "lon": -77.046587}, {"fusion_lat": 0.0, "name": "aca805e894c73f0f0c4a7e7fec913074", "is_disabled": 0, "rental_uris": {"android": "https://dc.lft.to/lastmile_qr_scan", "ios": "https://dc.lft.to/lastmile_qr_scan"}, "fusion_lon": 0.0, "lat": 38.897259166666664, "bike_id": "aca805e894c73f0f0c4a7e7fec913074", "type": "electric_scooter", "is_reserved": 0, "lon": -77.02721966666667}, {"fusion_lat": 0.0, "name": "7e758c8013eefa7e89d31bf4f4fc678a", "is_disabled": 0, "rental_uris": {"android": "https://dc.lft.to/lastmile_qr_scan", "ios": "https://dc.lft.to/lastmile_qr_scan"}, "fusion_lon": 0.0, "lat": 38.921214, "bike_id": "7e758c8013eefa7e89d31bf4f4fc678a", "type": "electric_scooter", "is_reserved": 0, "lon": -77.01214766666666}, {"fusion_lat": 0.0, "name": "d50c1541f60d75ff3671a0cdb0df045a", "is_disabled": 0, "rental_uris": {"android": "https://dc.lft.to/lastmile_qr_scan", "ios": "https://dc.lft.to/lastmile_qr_scan"}, "fusion_lon": 0.0, "lat": 38.92691416666667, "bike_id": "d50c1541f60d75ff3671a0cdb0df045a", "type": "electric_scooter", "is_reserved": 0, "lon": -77.02311033333334}, {"fusion_lat": 0.0, "name": "0b5543056c5ce517b881cf025b7bc467", "is_disabled": 0, "rental_uris": {"android": "https://dc.lft.to/lastmile_qr_scan", "ios": "https://dc.lft.to/lastmile_qr_scan"}, "fusion_lon": 0.0, "lat": 38.98061366666667, "bike_id": "0b5543056c5ce517b881cf025b7bc467", "type": "electric_bike", "is_reserved": 0, "lon": -77.0958515}, {"fusion_lat": 0.0, "name": "c5acc9c45ee036b4496453671d2dae5e", "is_disabled": 0, "rental_uris": {"android": "https://dc.lft.to/lastmile_qr_scan", "ios": "https://dc.lft.to/lastmile_qr_scan"}, "fusion_lon": 0.0, "lat": 38.92096216666667, "bike_id": "c5acc9c45ee036b4496453671d2dae5e", "type": "electric_scooter", "is_reserved": 0, "lon": -76.9946115}, {"fusion_lat": 0.0, "name": "58bc2b555ebfa064275d74ea3b5a16b4", "is_disabled": 0, "rental_uris": {"android": "https://dc.lft.to/lastmile_qr_scan", "ios": "https://dc.lft.to/lastmile_qr_scan"}, "fusion_lon": 0.0, "lat": 38.90819116666667, "bike_id": "58bc2b555ebfa064275d74ea3b5a16b4", "type": "electric_bike", "is_reserved": 0, "lon": -77.043722}, {"fusion_lat": 0.0, "name": "f50cccefe1c0f5de86555177cbadc249", "is_disabled": 0, "rental_uris": {"android": "https://dc.lft.to/lastmile_qr_scan", "ios": "https://dc.lft.to/lastmile_qr_scan"}, "fusion_lon": 0.0, "lat": 38.873774833333336, "bike_id": "f50cccefe1c0f5de86555177cbadc249", "type": "electric_scooter", "is_reserved": 0, "lon": -77.00092033333334}, {"fusion_lat": 0.0, "name": "37d6671ccc4dc8d70e82d0264d63f88e", "is_disabled": 0, "rental_uris": {"android": "https://dc.lft.to/lastmile_qr_scan", "ios": "https://dc.lft.to/lastmile_qr_scan"}, "fusion_lon": 0.0, "lat": 38.854617, "bike_id": "37d6671ccc4dc8d70e82d0264d63f88e", "type": "electric_scooter", "is_reserved": 0, "lon": -76.97227183333334}, {"fusion_lat": 0.0, "name": "0bbbf64a83a7cf8b323c5fc51e2fb7fd", "is_disabled": 0, "rental_uris": {"android": "https://dc.lft.to/lastmile_qr_scan", "ios": "https://dc.lft.to/lastmile_qr_scan"}, "fusion_lon": 0.0, "lat": 38.89231516666667, "bike_id": "0bbbf64a83a7cf8b323c5fc51e2fb7fd", "type": "electric_scooter", "is_reserved": 0, "lon": -77.01713833333334}, {"fusion_lat": 0.0, "name": "a75c020bb2e7dd25c1c4ed0c384b03be", "is_disabled": 0, "rental_uris": {"android": "https://dc.lft.to/lastmile_qr_scan", "ios": "https://dc.lft.to/lastmile_qr_scan"}, "fusion_lon": 0.0, "lat": 38.90562533333333, "bike_id": "a75c020bb2e7dd25c1c4ed0c384b03be", "type": "electric_scooter", "is_reserved": 0, "lon": -77.03464}, {"fusion_lat": 0.0, "name": "ce956ce8b562824b9b7fb4aedc8017aa", "is_disabled": 0, "rental_uris": {"android": "https://dc.lft.to/lastmile_qr_scan", "ios": "https://dc.lft.to/lastmile_qr_scan"}, "fusion_lon": 0.0, "lat": 38.9637045, "bike_id": "ce956ce8b562824b9b7fb4aedc8017aa", "type": "electric_scooter", "is_reserved": 0, "lon": -77.02049516666666}, {"fusion_lat": 0.0, "name": "cdb263a4c3160ca863fb02bc84ac6551", "is_disabled": 0, "rental_uris": {"android": "https://dc.lft.to/lastmile_qr_scan", "ios": "https://dc.lft.to/lastmile_qr_scan"}, "fusion_lon": 0.0, "lat": 38.89091616666666, "bike_id": "cdb263a4c3160ca863fb02bc84ac6551", "type": "electric_scooter", "is_reserved": 0, "lon": -76.99600716666667}, {"fusion_lat": 0.0, "name": "03425326fd531e82d1216106e2650fd7", "is_disabled": 0, "rental_uris": {"android": "https://dc.lft.to/lastmile_qr_scan", "ios": "https://dc.lft.to/lastmile_qr_scan"}, "fusion_lon": 0.0, "lat": 38.89638516666667, "bike_id": "03425326fd531e82d1216106e2650fd7", "type": "electric_scooter", "is_reserved": 0, "lon": -77.00932583333334}, {"fusion_lat": 0.0, "name": "58a257bcc7f8ce417b2cfaf806c05443", "is_disabled": 0, "rental_uris": {"android": "https://dc.lft.to/lastmile_qr_scan", "ios": "https://dc.lft.to/lastmile_qr_scan"}, "fusion_lon": 0.0, "lat": 38.92852083333333, "bike_id": "58a257bcc7f8ce417b2cfaf806c05443", "type": "electric_scooter", "is_reserved": 0, "lon": -77.02439466666667}, {"fusion_lat": 0.0, "name": "ee496bffe827cccb8072be4766f24df8", "is_disabled": 0, "rental_uris": {"android": "https://dc.lft.to/lastmile_qr_scan", "ios": "https://dc.lft.to/lastmile_qr_scan"}, "fusion_lon": 0.0, "lat": 38.887701166666666, "bike_id": "ee496bffe827cccb8072be4766f24df8", "type": "electric_scooter", "is_reserved": 0, "lon": -76.977497}, {"fusion_lat": 0.0, "name": "eddd6b6f0c66e841340d9f05160dd10f", "is_disabled": 0, "rental_uris": {"android": "https://dc.lft.to/lastmile_qr_scan", "ios": "https://dc.lft.to/lastmile_qr_scan"}, "fusion_lon": 0.0, "lat": 38.9213885, "bike_id": "eddd6b6f0c66e841340d9f05160dd10f", "type": "electric_scooter", "is_reserved": 0, "lon": -77.0095625}, {"fusion_lat": 0.0, "name": "70c4f63f295f97aae050ff35e529c0f9", "is_disabled": 0, "rental_uris": {"android": "https://dc.lft.to/lastmile_qr_scan", "ios": "https://dc.lft.to/lastmile_qr_scan"}, "fusion_lon": 0.0, "lat": 38.961334666666666, "bike_id": "70c4f63f295f97aae050ff35e529c0f9", "type": "electric_bike", "is_reserved": 0, "lon": -77.03333083333334}, {"fusion_lat": 0.0, "name": "b72ee6ae2c1fc54151e3cd501f5d096d", "is_disabled": 0, "rental_uris": {"android": "https://dc.lft.to/lastmile_qr_scan", "ios": "https://dc.lft.to/lastmile_qr_scan"}, "fusion_lon": 0.0, "lat": 38.877242333333335, "bike_id": "b72ee6ae2c1fc54151e3cd501f5d096d", "type": "electric_scooter", "is_reserved": 0, "lon": -77.01759116666666}, {"fusion_lat": 0.0, "name": "0cb3416a43d797f66062e96f89b07487", "is_disabled": 0, "rental_uris": {"android": "https://dc.lft.to/lastmile_qr_scan", "ios": "https://dc.lft.to/lastmile_qr_scan"}, "fusion_lon": 0.0, "lat": 38.920782333333335, "bike_id": "0cb3416a43d797f66062e96f89b07487", "type": "electric_scooter", "is_reserved": 0, "lon": -77.02317166666667}, {"fusion_lat": 0.0, "name": "d16886b31f37321d1639e232820647b3", "is_disabled": 0, "rental_uris": {"android": "https://dc.lft.to/lastmile_qr_scan", "ios": "https://dc.lft.to/lastmile_qr_scan"}, "fusion_lon": 0.0, "lat": 38.90978233333333, "bike_id": "d16886b31f37321d1639e232820647b3", "type": "electric_scooter", "is_reserved": 0, "lon": -77.0089625}, {"fusion_lat": 0.0, "name": "44c2724a8925e8adcf9eef87a92ac6de", "is_disabled": 0, "rental_uris": {"android": "https://dc.lft.to/lastmile_qr_scan", "ios": "https://dc.lft.to/lastmile_qr_scan"}, "fusion_lon": 0.0, "lat": 38.91663783333333, "bike_id": "44c2724a8925e8adcf9eef87a92ac6de", "type": "electric_scooter", "is_reserved": 0, "lon": -77.038532}, {"fusion_lat": 0.0, "name": "c6b3b8b4ec0f41356de5d3796e30a6ba", "is_disabled": 0, "rental_uris": {"android": "https://dc.lft.to/lastmile_qr_scan", "ios": "https://dc.lft.to/lastmile_qr_scan"}, "fusion_lon": 0.0, "lat": 38.8861825, "bike_id": "c6b3b8b4ec0f41356de5d3796e30a6ba", "type": "electric_scooter", "is_reserved": 0, "lon": -77.01558166666666}, {"fusion_lat": 0.0, "name": "3bcb927772a204a33afd8b841c3da42e", "is_disabled": 0, "rental_uris": {"android": "https://dc.lft.to/lastmile_qr_scan", "ios": "https://dc.lft.to/lastmile_qr_scan"}, "fusion_lon": 0.0, "lat": 38.9698565, "bike_id": "3bcb927772a204a33afd8b841c3da42e", "type": "electric_scooter", "is_reserved": 0, "lon": -77.01158566666666}, {"fusion_lat": 0.0, "name": "cb09ffe7e59c896f87e48c832ecccdec", "is_disabled": 0, "rental_uris": {"android": "https://dc.lft.to/lastmile_qr_scan", "ios": "https://dc.lft.to/lastmile_qr_scan"}, "fusion_lon": 0.0, "lat": 38.91113416666666, "bike_id": "cb09ffe7e59c896f87e48c832ecccdec", "type": "electric_scooter", "is_reserved": 0, "lon": -77.0290775}, {"fusion_lat": 0.0, "name": "8c9677210da2bb43821a0b29115df73d", "is_disabled": 0, "rental_uris": {"android": "https://dc.lft.to/lastmile_qr_scan", "ios": "https://dc.lft.to/lastmile_qr_scan"}, "fusion_lon": 0.0, "lat": 38.93068066666667, "bike_id": "8c9677210da2bb43821a0b29115df73d", "type": "electric_scooter", "is_reserved": 0, "lon": -77.04056783333333}, {"fusion_lat": 0.0, "name": "1e0bc1e71fd99233cf6acbc6b4a4ef4c", "is_disabled": 0, "rental_uris": {"android": "https://dc.lft.to/lastmile_qr_scan", "ios": "https://dc.lft.to/lastmile_qr_scan"}, "fusion_lon": 0.0, "lat": 38.974678, "bike_id": "1e0bc1e71fd99233cf6acbc6b4a4ef4c", "type": "electric_scooter", "is_reserved": 0, "lon": -77.013183},