{"data": {"bikes": [{"lat": 38.93043316666667, "fusion_lat": 0.0, "type": "electric_scooter", "bike_id": "4d4f2c1c9c4aec7a7621567d3b084437", "rental_uris": {"ios": "https://dc.lft.to/lastmile_qr_scan", "android": "https://dc.lft.to/lastmile_qr_scan"}, "fusion_lon": 0.0, "lon": -77.0730275, "name": "4d4f2c1c9c4aec7a7621567d3b084437", "is_reserved": 0, "is_disabled": 0}, {"lat": 38.896035, "fusion_lat": 0.0, "type": "electric_scooter", "bike_id": "6154ebe32f9baa768ecfaf75d99124fc", "rental_uris": {"ios": "https://dc.lft.to/lastmile_qr_scan", "android": "https://dc.lft.to/lastmile_qr_scan"}, "fusion_lon": 0.0, "lon": -77.02220783333334, "name": "6154ebe32f9baa768ecfaf75d99124fc", "is_reserved": 0, "is_disabled": 0}, {"lat": 38.895992166666666, "fusion_lat": 0.0, "type": "electric_scooter", "bike_id": "74bfa1650fdbc6244bbe66b2be02b242", "rental_uris": {"ios": "https://dc.lft.to/lastmile_qr_scan", "android": "https://dc.lft.to/lastmile_qr_scan"}, "fusion_lon": 0.0, "lon": -77.00902616666667, "name": "74bfa1650fdbc6244bbe66b2be02b242", "is_reserved": 0, "is_disabled": 0}, {"lat": 38.924853166666665, "fusion_lat": 0.0, "type": "electric_scooter", "bike_id": "8d3d831e6d3fa1723e133b621434f8b2", "rental_uris": {"ios": "https://dc.lft.to/lastmile_qr_scan", "android": "https://dc.lft.to/lastmile_qr_scan"}, "fusion_lon": 0.0, "lon": -77.02277633333334, "name": "8d3d831e6d3fa1723e133b621434f8b2", "is_reserved": 0, "is_disabled": 0}, {"lat": 38.9239245, "fusion_lat": 0.0, "type": "electric_scooter", "bike_id": "d39b494845ed6566a167a209d08b2a83", "rental_uris": {"ios": "https://dc.lft.to/lastmile_qr_scan", "android": "https://dc.lft.to/lastmile_qr_scan"}, "fusion_lon": 0.0, "lon": -77.05058833333334, "name": "d39b494845ed6566a167a209d08b2a83", "is_reserved": 0, "is_disabled": 0}, {"lat": 38.89842183333333, "fusion_lat": 0.0, "type": "electric_scooter", "bike_id": "a9642e9e8cfdd63aaa41d7604c14f813", "rental_uris": {"ios": "https://dc.lft.to/lastmile_qr_scan", "android": "https://dc.lft.to/lastmile_qr_scan"}, "fusion_lon": 0.0, "lon": -77.00754466666666, "name": "a9642e9e8cfdd63aaa41d7604c14f813", "is_reserved": 0, "is_disabled": 0}, {"lat": 38.9480525, "fusion_lat": 0.0, "type": "electric_bike", "bike_id": "aa3561e9f3fa1d681a1e4f43d166cbeb", "rental_uris": {"ios": "https://dc.lft.to/lastmile_qr_scan", "android": "https://dc.lft.to/lastmile_qr_scan"}, "fusion_lon": 0.0, "lon": -76.95973216666667, "name": "aa3561e9f3fa1d681a1e4f43d166cbeb", "is_reserved": 0, "is_disabled": 0}, {"lat": 38.905315333333334, "fusion_lat": 0.0, "type": "electric_scooter", "bike_id": "7344ef24c913ea991f623fcb4cb081ea", "rental_uris": {"ios": "https://dc.lft.to/lastmile_qr_scan", "android": "https://dc.lft.to/lastmile_qr_scan"}, "fusion_lon": 0.0, "lon": -77.05003916666666, "name": "7344ef24c913ea991f623fcb4cb081ea", "is_reserved": 0, "is_disabled": 0}, {"lat": 38.90416, "fusion_lat": 0.0, "type": "electric_scooter", "bike_id": "6d405d59fa1d45a8db6c0abafe7563bd", "rental_uris": {"ios": "https://dc.lft.to/lastmile_qr_scan", "android": "https://dc.lft.to/lastmile_qr_scan"}, "fusion_lon": 0.0, "lon": -77.043466, "name": "6d405d59fa1d45a8db6c0abafe7563bd", "is_reserved": 0, "is_disabled": 0}, {"lat": 38.92529666666667, "fusion_lat": 0.0, "type": "electric_scooter", "bike_id": "e1c38192305a9af7a4a971ae3052baf1", "rental_uris": {"ios": "https://dc.lft.to/lastmile_qr_scan", "android": "https://dc.lft.to/lastmile_qr_scan"}, "fusion_lon": 0.0, "lon": -77.04138933333333, "name": "e1c38192305a9af7a4a971ae3052baf1", "is_reserved": 0, "is_disabled": 0}, {"lat": 38.921741833333336, "fusion_lat": 0.0, "type": "electric_scooter", "bike_id": "3ba7d23d7bac9990963e046bb6f88c41", "rental_uris": {"ios": "https://dc.lft.to/lastmile_qr_scan", "android": "https://dc.lft.to/lastmile_qr_scan"}, "fusion_lon": 0.0, "lon": -77.03836183333334, "name": "3ba7d23d7bac9990963e046bb6f88c41", "is_reserved": 0, "is_disabled": 0}, {"lat": 38.893539833333335, "fusion_lat": 0.0, "type": "electric_scooter", "bike_id": "e493848773eff7adc2fc22eca067e7b2", "rental_uris": {"ios": "https://dc.lft.to/lastmile_qr_scan", "android": "https://dc.lft.to/lastmile_qr_scan"}, "fusion_lon": 0.0, "lon": -76.98656533333333, "name": "e493848773eff7adc2fc22eca067e7b2", "is_reserved": 0, "is_disabled": 0}, {"lat": 38.911795, "fusion_lat": 0.0, "type": "electric_scooter", "bike_id": "332eb9a91884be49f06853ede2ab5685", "rental_uris": {"ios": "https://dc.lft.to/lastmile_qr_scan", "android": "https://dc.lft.to/lastmile_qr_scan"}, "fusion_lon": 0.0, "lon": -77.00810166666666, "name": "332eb9a91884be49f06853ede2ab5685", "is_reserved": 0, "is_disabled": 0}, {"lat": 38.88948766666667, "fusion_lat": 0.0, "type": "electric_scooter", "bike_id": "ff2951bd79573655083cb6a85ab8a37a", "rental_uris": {"ios": "https://dc.lft.to/lastmile_qr_scan", "android": "https://dc.lft.to/lastmile_qr_scan"}, "fusion_lon": 0.0, "lon": -77.085584, "name": "ff2951bd79573655083cb6a85ab8a37a", "is_reserved": 0, "is_disabled": 0}, {"lat": 38.9172415, "fusion_lat": 0.0, "type": "electric_scooter", "bike_id": "ea6fef7ef73bae88d3524aa02a36fe0d", "rental_uris": {"ios": "https://dc.lft.to/lastmile_qr_scan", "android": "https://dc.lft.to/lastmile_qr_scan"}, "fusion_lon": 0.0, "lon": -77.02698316666667, "name": "ea6fef7ef73bae88d3524aa02a36fe0d", "is_reserved": 0, "is_disabled": 0}, {"lat": 38.958019166666666, "fusion_lat": 0.0, "type": "electric_scooter", "bike_id": "d0a1b18081d896892621c287cb8abf19", "rental_uris": {"ios": "https://dc.lft.to/lastmile_qr_scan", "android": "https://dc.lft.to/lastmile_qr_scan"}, "fusion_lon": 0.0, "lon": -77.01517133333333, "name": "d0a1b18081d896892621c287cb8abf19", "is_reserved": 0, "is_disabled": 0}, {"lat": 38.91631833333334, "fusion_lat": 0.0, "type": "electric_scooter", "bike_id": "e2966f929da3b524be6f57285254abbb", "rental_uris": {"ios": "https://dc.lft.to/lastmile_qr_scan", "android": "https://dc.lft.to/lastmile_qr_scan"}, "fusion_lon": 0.0, "lon": -77.05073633333333, "name": "e2966f929da3b524be6f57285254abbb", "is_reserved": 0, "is_disabled": 0}, {"lat": 38.898267, "fusion_lat": 0.0, "type": "electric_scooter", "bike_id": "3cd3e77c8c3cd0c2b14c16de53963c07", "rental_uris": {"ios": "https://dc.lft.to/lastmile_qr_scan", "android": "https://dc.lft.to/lastmile_qr_scan"}, "fusion_lon": 0.0, "lon": -76.94653116666667, "name": "3cd3e77c8c3cd0c2b14c16de53963c07", "is_reserved": 0, "is_disabled": 0}, {"lat": 38.924586166666664, "fusion_lat": 0.0, "type": "electric_scooter", "bike_id": "69a16c4cf962d2f3331672376d7526a4", "rental_uris": {"ios": "https://dc.lft.to/lastmile_qr_scan", "android": "https://dc.lft.to/lastmile_qr_scan"}, "fusion_lon": 0.0, "lon": -77.021583, "name": "69a16c4cf962d2f3331672376d7526a4", "is_reserved": 0, "is_disabled": 0}, {"lat": 38.91597316666667, "fusion_lat": 0.0, "type": "electric_scooter", "bike_id": "8365bae015d64a34588abf7ccb9d489d", "rental_uris": {"ios": "https://dc.lft.to/lastmile_qr_scan", "android": "https://dc.lft.to/lastmile_qr_scan"}, "fusion_lon": 0.0, "lon": -77.04158133333334, "name": "8365bae015d64a34588abf7ccb9d489d", "is_reserved": 0, "is_disabled": 0}, {"lat": 38.92433316666666, "fusion_lat": 0.0, "type": "electric_scooter", "bike_id": "44c6be73ad85972d0b9d29fc8042ac1c", "rental_uris": {"ios": "https://dc.lft.to/lastmile_qr_scan", "android": "https://dc.lft.to/lastmile_qr_scan"}, "fusion_lon": 0.0, "lon": -77.02265483333333, "name": "44c6be73ad85972d0b9d29fc8042ac1c", "is_reserved": 0, "is_disabled": 0}, {"lat": 38.883441, "fusion_lat": 0.0, "type": "electric_scooter", "bike_id": "44d62914f7f4938f07382accaaf4c4ad", "rental_uris": {"ios": "https://dc.lft.to/lastmile_qr_scan", "android": "https://dc.lft.to/lastmile_qr_scan"}, "fusion_lon": 0.0, "lon": -76.93503333333334, "name": "44d62914f7f4938f07382accaaf4c4ad", "is_reserved": 0, "is_disabled": 0}, {"lat": 38.91780166666667, "fusion_lat": 0.0, "type": "electric_scooter", "bike_id": "d97acd934b3b93c720204ce8852420fa", "rental_uris": {"ios": "https://dc.lft.to/lastmile_qr_scan", "android": "https://dc.lft.to/lastmile_qr_scan"}, "fusion_lon": 0.0, "lon": -77.0229995, "name": "d97acd934b3b93c720204ce8852420fa", "is_reserved": 0, "is_disabled": 0}, {"lat": 38.84341233333333, "fusion_lat": 0.0, "type": "electric_scooter", "bike_id": "b06f6a1646e40f67f191f42c09c7df9f", "rental_uris": {"ios": "https://dc.lft.to/lastmile_qr_scan", "android": "https://dc.lft.to/lastmile_qr_scan"}, "fusion_lon": 0.0, "lon": -76.99911166666666, "name": "b06f6a1646e40f67f191f42c09c7df9f", "is_reserved": 0, "is_disabled": 0}, {"lat": 38.89726233333333, "fusion_lat": 0.0, "type": "electric_scooter", "bike_id": "f603b19423ce65009133fbc410463b76", "rental_uris": {"ios": "https://dc.lft.to/lastmile_qr_scan", "android": "https://dc.lft.to/lastmile_qr_scan"}, "fusion_lon": 0.0, "lon": -77.03339333333334, "name": "f603b19423ce65009133fbc410463b76", "is_reserved": 0, "is_disabled": 0}, {"lat": 38.923337333333336, "fusion_lat": 0.0, "type": "electric_scooter", "bike_id": "350f76eac6257fc3c2b868089cd893b6", "rental_uris": {"ios": "https://dc.lft.to/lastmile_qr_scan", "android": "https://dc.lft.to/lastmile_qr_scan"}, "fusion_lon": 0.0, "lon": -77.05678666666667, "name": "350f76eac6257fc3c2b868089cd893b6", "is_reserved": 0, "is_disabled": 0}, {"lat": 38.9060305, "fusion_lat": 0.0, "type": "electric_scooter", "bike_id": "b10727cf1be6d8f78226208f22a89863", "rental_uris": {"ios": "https://dc.lft.to/lastmile_qr_scan", "android": "https://dc.lft.to/lastmile_qr_scan"}, "fusion_lon": 0.0, "lon": -77.03976966666667, "name": "b10727cf1be6d8f78226208f22a89863", "is_reserved": 0, "is_disabled": 0}, {"lat": 38.904104833333335, "fusion_lat": 0.0, "type": "electric_scooter", "bike_id": "7ff4e65fbb622e77de648d459b69a9e9", "rental_uris": {"ios": "https://dc.lft.to/lastmile_qr_scan", "android": "https://dc.lft.to/lastmile_qr_scan"}, "fusion_lon": 0.0, "lon": -76.973276, "name": "7ff4e65fbb622e77de648d459b69a9e9", "is_reserved": 0, "is_disabled": 0}, {"lat": 38.935768, "fusion_lat": 0.0, "type": "electric_scooter", "bike_id": "c6a9dcf979950e401d1061d88be1e2c5", "rental_uris": {"ios": "https://dc.lft.to/lastmile_qr_scan", "android": "https://dc.lft.to/lastmile_qr_scan"}, "fusion_lon": 0.0, "lon": -77.0212875, "name": "c6a9dcf979950e401d1061d88be1e2c5", "is_reserved": 0, "is_disabled": 0}, {"lat": 38.924589, "fusion_lat": 0.0, "type": "electric_scooter", "bike_id": "4f73b988f35ec9f250f0eb6dd068d526", "rental_uris": {"ios": "https://dc.lft.to/lastmile_qr_scan", "android": "https://dc.lft.to/lastmile_qr_scan"}, "fusion_lon": 0.0, "lon": -77.022415, "name": "4f73b988f35ec9f250f0eb6dd068d526", "is_reserved": 0, "is_disabled": 0}, {"lat": 38.919822, "fusion_lat": 0.0, "type": "electric_scooter", "bike_id": "3f64d56fa0cdb804a787ab19c0feda31", "rental_uris": {"ios": "https://dc.lft.to/lastmile_qr_scan", "android": "https://dc.lft.to/lastmile_qr_scan"}, "fusion_lon": 0.0, "lon": -77.03227033333333, "name": "3f64d56fa0cdb804a787ab19c0feda31", "is_reserved": 0, "is_disabled": 0}, {"lat": 38.917158666666666, "fusion_lat": 0.0, "type": "electric_scooter", "bike_id": "04a49066634769798f3477c5ec4012f5", "rental_uris": {"ios": "https://dc.lft.to/lastmile_qr_scan", "android": "https://dc.lft.to/lastmile_qr_scan"}, "fusion_lon": 0.0, "lon": -77.032498, "name": "04a49066634769798f3477c5ec4012f5", "is_reserved": 0, "is_disabled": 0}, {"lat": 38.8989695, "fusion_lat": 0.0, "type": "electric_scooter", "bike_id": "86841cede37fc2a6eba0f90061f00eaa", "rental_uris": {"ios": "https://dc.lft.to/lastmile_qr_scan", "android": "https://dc.lft.to/lastmile_qr_scan"}, "fusion_lon": 0.0, "lon": -76.980827, "name": "86841cede37fc2a6eba0f90061f00eaa", "is_reserved": 0, "is_disabled": 0}, {"lat": 38.90410466666667, "fusion_lat": 0.0, "type": "electric_scooter", "bike_id": "2a8fb16a140a45fc1af355fe0ccd72c2", "rental_uris": {"ios": "https://dc.lft.to/lastmile_qr_scan", "android": "https://dc.lft.to/lastmile_qr_scan"}, "fusion_lon": 0.0, "lon": -76.97332033333333, "name": "2a8fb16a140a45fc1af355fe0ccd72c2", "is_reserved": 0, "is_disabled": 0}, {"lat": 38.912307, "fusion_lat": 0.0, "type": "electric_scooter", "bike_id": "815647762d792075dafe559c3d89362a", "rental_uris": {"ios": "https://dc.lft.to/lastmile_qr_scan", "android": "https://dc.lft.to/lastmile_qr_scan"}, "fusion_lon": 0.0, "lon": -77.04875866666667, "name": "815647762d792075dafe559c3d89362a", "is_reserved": 0, "is_disabled": 0}, {"lat": 38.9388915, "fusion_lat": 0.0, "type": "electric_scooter", "bike_id": "5c15753eb855be3cd1e4b698cb5138b0", "rental_uris": {"ios": "https://dc.lft.to/lastmile_qr_scan", "android": "https://dc.lft.to/lastmile_qr_scan"}, "fusion_lon": 0.0, "lon": -77.01770533333334, "name": "5c15753eb855be3cd1e4b698cb5138b0", "is_reserved": 0, "is_disabled": 0}, {"lat": 38.9064795, "fusion_lat": 0.0, "type": "electric_scooter", "bike_id": "f37f1df936a832a183cb150496f865ec", "rental_uris": {"ios": "https://dc.lft.to/lastmile_qr_scan", "android": "https://dc.lft.to/lastmile_qr_scan"}, "fusion_lon": 0.0, "lon": -77.014323, "name": "f37f1df936a832a183cb150496f865ec", "is_reserved": 0, "is_disabled": 0}, {"lat": 38.8988725, "fusion_lat": 0.0, "type": "electric_scooter", "bike_id": "776c090a89715ecc51fe4f7f9fdd8a9c", "rental_uris": {"ios": "https://dc.lft.to/lastmile_qr_scan", "android": "https://dc.lft.to/lastmile_qr_scan"}, "fusion_lon": 0.0, "lon": -77.04899283333333, "name": "776c090a89715ecc51fe4f7f9fdd8a9c", "is_reserved": 0, "is_disabled": 0}, {"lat": 38.916263666666666, "fusion_lat": 0.0, "type": "electric_scooter", "bike_id": "a35552c09d03cbf09e39afe81bbb80c1", "rental_uris": {"ios": "https://dc.lft.to/lastmile_qr_scan", "android": "https://dc.lft.to/lastmile_qr_scan"}, "fusion_lon": 0.0, "lon": -77.03854366666667, "name": "a35552c09d03cbf09e39afe81bbb80c1", "is_reserved": 0, "is_disabled": 0}, {"lat": 38.91277866666667, "fusion_lat": 0.0, "type": "electric_scooter", "bike_id": "e4384cee5823f9db0fdb2afc5e3da024", "rental_uris": {"ios": "https://dc.lft.to/lastmile_qr_scan", "android": "https://dc.lft.to/lastmile_qr_scan"}, "fusion_lon": 0.0, "lon": -77.03268116666666, "name": "e4384cee5823f9db0fdb2afc5e3da024", "is_reserved": 0, "is_disabled": 0}, {"lat": 38.91679083333333, "fusion_lat": 0.0, "type": "electric_scooter", "bike_id": "8860851e53439dfbed529915e3c6622d", "rental_uris": {"ios": "https://dc.lft.to/lastmile_qr_scan", "android": "https://dc.lft.to/lastmile_qr_scan"}, "fusion_lon": 0.0, "lon": -77.03195316666667, "name": "8860851e53439dfbed529915e3c6622d", "is_reserved": 0, "is_disabled": 0}, {"lat": 38.862316666666665, "fusion_lat": 0.0, "type": "electric_scooter", "bike_id": "79f8f9f5d55f69311b790b0bd9b51eed", "rental_uris": {"ios": "https://dc.lft.to/lastmile_qr_scan", "android": "https://dc.lft.to/lastmile_qr_scan"}, "fusion_lon": 0.0, "lon": -76.99554183333333, "name": "79f8f9f5d55f69311b790b0bd9b51eed", "is_reserved": 0, "is_disabled": 0}, {"lat": 39.070577, "fusion_lat": 0.0, "type": "electric_bike", "bike_id": "cb196e79efb27f4f19d0c08b86a5a2fd", "rental_uris": {"ios": "https://dc.lft.to/lastmile_qr_scan", "android": "https://dc.lft.to/lastmile_qr_scan"}, "fusion_lon": 0.0, "lon": -77.11523866666667, "name": "cb196e79efb27f4f19d0c08b86a5a2fd", "is_reserved": 0, "is_disabled": 0}, {"lat": 38.91488983333333, "fusion_lat": 0.0, "type": "electric_scooter", "bike_id": "abe1024812f42799f8c3e735310daea2", "rental_uris": {"ios": "https://dc.lft.to/lastmile_qr_scan", "android": "https://dc.lft.to/lastmile_qr_scan"}, "fusion_lon": 0.0, "lon": -77.04246783333333, "name": "abe1024812f42799f8c3e735310daea2", "is_reserved": 0, "is_disabled": 0}, {"lat": 38.900068166666664, "fusion_lat": 0.0, "type": "electric_scooter", "bike_id": "c3e325de116eed1912d654b9a17c2d65", "rental_uris": {"ios": "https://dc.lft.to/lastmile_qr_scan", "android": "https://dc.lft.to/lastmile_qr_scan"}, "fusion_lon": 0.0, "lon": -77.00657416666667, "name": "c3e325de116eed1912d654b9a17c2d65", "is_reserved": 0, "is_disabled": 0}, {"lat": 38.87907083333333, "fusion_lat": 0.0, "type": "electric_scooter", "bike_id": "9dd2433e123ea722a810f346680732d8", "rental_uris": {"ios": "https://dc.lft.to/lastmile_qr_scan", "android": "https://dc.lft.to/lastmile_qr_scan"}, "fusion_lon": 0.0, "lon": -77.005865, "name": "9dd2433e123ea722a810f346680732d8", "is_reserved": 0, "is_disabled": 0}, {"lat": 39.01484383333333, "fusion_lat": 0.0, "type": "electric_bike", "bike_id": "d028dcaff71a01539d685df4a1a05c58", "rental_uris": {"ios": "https://dc.lft.to/lastmile_qr_scan", "android": "https://dc.lft.to/lastmile_qr_scan"}, "fusion_lon": 0.0, "lon": -77.09950083333334, "name": "d028dcaff71a01539d685df4a1a05c58", "is_reserved": 0, "is_disabled": 0}, {"lat": 38.90254783333334, "fusion_lat": 0.0, "type": "electric_scooter", "bike_id": "73be8aec26825e59898708036e2e4b90", "rental_uris": {"ios": "https://dc.lft.to/lastmile_qr_scan", "android": "https://dc.lft.to/lastmile_qr_scan"}, "fusion_lon": 0.0, "lon": -77.037449, "name": "73be8aec26825e59898708036e2e4b90", "is_reserved": 0, "is_disabled": 0}, {"lat": 38.9102185, "fusion_lat": 0.0, "type": "electric_scooter", "bike_id": "82041eece52554b3a77d0c15d983af4b", "rental_uris": {"ios": "https://dc.lft.to/lastmile_qr_scan", "android": "https://dc.lft.to/lastmile_qr_scan"}, "fusion_lon": 0.0, "lon": -76.99730633333333, "name": "82041eece52554b3a77d0c15d983af4b", "is_reserved": 0, "is_disabled": 0}, {"lat": 38.904098, "fusion_lat": 0.0, "type": "electric_scooter", "bike_id": "a371264bdd15cc080cacdb459be753ee", "rental_uris": {"ios": "https://dc.lft.to/lastmile_qr_scan", "android": "https://dc.lft.to/lastmile_qr_scan"}, "fusion_lon": 0.0, "lon": -77.025121, "name": "a371264bdd15cc080cacdb459be753ee", "is_reserved": 0, "is_disabled": 0}, {"lat": 38.904176166666666, "fusion_lat": 0.0, "type": "electric_scooter", "bike_id": "ec56f0675e09856abd6c79a815159055", "rental_uris": {"ios": "https://dc.lft.to/lastmile_qr_scan", "android": "https://dc.lft.to/lastmile_qr_scan"}, "fusion_lon": 0.0, "lon": -77.019728, "name": "ec56f0675e09856abd6c79a815159055", "is_reserved": 0, "is_disabled": 0}, {"lat": 38.90955183333333, "fusion_lat": 0.0, "type": "electric_scooter", "bike_id": "7237eac18075cc8c08a595bcdfda7a76", "rental_uris": {"ios": "https://dc.lft.to/lastmile_qr_scan", "android": "https://dc.lft.to/lastmile_qr_scan"}, "fusion_lon": 0.0, "lon": -77.03989616666667, "name": "7237eac18075cc8c08a595bcdfda7a76", "is_reserved": 0, "is_disabled": 0}, {"lat": 38.93823616666667, "fusion_lat": 0.0, "type": "electric_scooter", "bike_id": "93e73ee34a9b4ca89ffeefcfe5a6b3c1", "rental_uris": {"ios": "https://dc.lft.to/lastmile_qr_scan", "android": "https://dc.lft.to/lastmile_qr_scan"}, "fusion_lon": 0.0, "lon": -76.98925383333334, "name": "93e73ee34a9b4ca89ffeefcfe5a6b3c1", "is_reserved": 0, "is_disabled": 0}, {"lat": 38.9191705, "fusion_lat": 0.0, "type": "electric_scooter", "bike_id": "c1a58103e1ddb4daf088c81e9603df1f", "rental_uris": {"ios": "https://dc.lft.to/lastmile_qr_scan", "android": "https://dc.lft.to/lastmile_qr_scan"}, "fusion_lon": 0.0, "lon": -77.02504333333333, "name": "c1a58103e1ddb4daf088c81e9603df1f", "is_reserved": 0, "is_disabled": 0}, {"lat": 38.914129833333334, "fusion_lat": 0.0, "type": "electric_scooter", "bike_id": "bc45c80ea5364c93b53957f863ab6c68", "rental_uris": {"ios": "https://dc.lft.to/lastmile_qr_scan", "android": "https://dc.lft.to/lastmile_qr_scan"}, "fusion_lon": 0.0, "lon": -77.03173, "name": "bc45c80ea5364c93b53957f863ab6c68", "is_reserved": 0, "is_disabled": 0}, {"lat": 38.913973666666664, "fusion_lat": 0.0, "type": "electric_scooter", "bike_id": "4649fc5700823bfd38c2620229b704bc", "rental_uris": {"ios": "https://dc.lft.to/lastmile_qr_scan", "android": "https://dc.lft.to/lastmile_qr_scan"}, "fusion_lon": 0.0, "lon": -77.01656833333334, "name": "4649fc5700823bfd38c2620229b704bc", "is_reserved": 0, "is_disabled": 0}, {"lat": 38.902051166666666, "fusion_lat": 0.0, "type": "electric_scooter", "bike_id": "3942422830b4a3b1cbd4eb8453635bd0", "rental_uris": {"ios": "https://dc.lft.to/lastmile_qr_scan", "android": "https://dc.lft.to/lastmile_qr_scan"}, "fusion_lon": 0.0, "lon": -77.02256466666667, "name": "3942422830b4a3b1cbd4eb8453635bd0", "is_reserved": 0, "is_disabled": 0}, {"lat": 38.916322666666666, "fusion_lat": 0.0, "type": "electric_scooter", "bike_id": "13c9d99aa42579b93ead101a42094153", "rental_uris": {"ios": "https://dc.lft.to/lastmile_qr_scan", "android": "https://dc.lft.to/lastmile_qr_scan"}, "fusion_lon": 0.0, "lon": -77.01590583333333, "name": "13c9d99aa42579b93ead101a42094153", "is_reserved": 0, "is_disabled": 0}, {"lat": 38.9210605, "fusion_lat": 0.0, "type": "electric_scooter", "bike_id": "1ca7f4ef41ddb0d8270fd2ffdad4cd14", "rental_uris": {"ios": "https://dc.lft.to/lastmile_qr_scan", "android": "https://dc.lft.to/lastmile_qr_scan"}, "fusion_lon": 0.0, "lon": -77.046955, "name": "1ca7f4ef41ddb0d8270fd2ffdad4cd14", "is_reserved": 0, "is_disabled": 0}, {"lat": 38.899156166666664, "fusion_lat": 0.0, "type": "electric_scooter", "bike_id": "898ca776c3b8dffd8b9a7b6599d887d4", "rental_uris": {"ios": "https://dc.lft.to/lastmile_qr_scan", "android": "https://dc.lft.to/lastmile_qr_scan"}, "fusion_lon": 0.0, "lon": -76.93391516666667, "name": "898ca776c3b8dffd8b9a7b6599d887d4", "is_reserved": 0, "is_disabled": 0}, {"lat": 38.896174333333335, "fusion_lat": 0.0, "type": "electric_scooter", "bike_id": "bf8b8225b7e21bd932bc19d645249662", "rental_uris": {"ios": "https://dc.lft.to/lastmile_qr_scan", "android": "https://dc.lft.to/lastmile_qr_scan"}, "fusion_lon": 0.0, "lon": -76.985694, "name": "bf8b8225b7e21bd932bc19d645249662", "is_reserved": 0, "is_disabled": 0}, {"lat": 38.926034666666666, "fusion_lat": 0.0, "type": "electric_scooter", "bike_id": "fd5a415e0a19e8c6a471156c5eb55416", "rental_uris": {"ios": "https://dc.lft.to/lastmile_qr_scan", "android": "https://dc.lft.to/lastmile_qr_scan"}, "fusion_lon": 0.0, "lon": -77.02392183333333, "name": "fd5a415e0a19e8c6a471156c5eb55416", "is_reserved": 0, "is_disabled": 0}, {"lat": 38.9073235, "fusion_lat": 0.0, "type": "electric_scooter", "bike_id": "6491fc25ed008d22f75eb36bdeec860b", "rental_uris": {"ios": "https://dc.lft.to/lastmile_qr_scan", "android": "https://dc.lft.to/lastmile_qr_scan"}, "fusion_lon": 0.0, "lon": -77.042557, "name": "6491fc25ed008d22f75eb36bdeec860b", "is_reserved": 0, "is_disabled": 0}, {"lat": 38.914641, "fusion_lat": 0.0, "type": "electric_scooter", "bike_id": "8808943c43e071ed8357276b217dfd00", "rental_uris": {"ios": "https://dc.lft.to/lastmile_qr_scan", "android": "https://dc.lft.to/lastmile_qr_scan"}, "fusion_lon": 0.0, "lon": -77.01560833333333, "name": "8808943c43e071ed8357276b217dfd00", "is_reserved": 0, "is_disabled": 0}, {"lat": 38.90925633333333, "fusion_lat": 0.0, "type": "electric_scooter", "bike_id": "f2934f574ab14efbca99d4f1d7a62ce4", "rental_uris": {"ios": "https://dc.lft.to/lastmile_qr_scan", "android": "https://dc.lft.to/lastmile_qr_scan"}, "fusion_lon": 0.0, "lon": -77.04399916666667, "name": "f2934f574ab14efbca99d4f1d7a62ce4", "is_reserved": 0, "is_disabled": 0}, {"lat": 38.91810266666667, "fusion_lat": 0.0, "type": "electric_bike", "bike_id": "e3c431c493e4d873896b06eed7ee997e", "rental_uris": {"ios": "https://dc.lft.to/lastmile_qr_scan", "android": "https://dc.lft.to/lastmile_qr_scan"}, "fusion_lon": 0.0, "lon": -76.99853116666667, "name": "e3c431c493e4d873896b06eed7ee997e", "is_reserved": 0, "is_disabled": 0}, {"lat": 38.93312383333333, "fusion_lat": 0.0, "type": "electric_scooter", "bike_id": "dca0fe46ac553a9465125dfad62a1472", "rental_uris": {"ios": "https://dc.lft.to/lastmile_qr_scan", "android": "https://dc.lft.to/lastmile_qr_scan"}, "fusion_lon": 0.0, "lon": -77.03630983333333, "name": "dca0fe46ac553a9465125dfad62a1472", "is_reserved": 0, "is_disabled": 0}, {"lat": 38.896612166666664, "fusion_lat": 0.0, "type": "electric_scooter", "bike_id": "f2966afed5260e0f4e26e1457dd5beab", "rental_uris": {"ios": "https://dc.lft.to/lastmile_qr_scan", "android": "https://dc.lft.to/lastmile_qr_scan"}, "fusion_lon": 0.0, "lon": -77.02738583333333, "name": "f2966afed5260e0f4e26e1457dd5beab", "is_reserved": 0, "is_disabled": 0}, {"lat": 38.895110333333335, "fusion_lat": 0.0, "type": "electric_scooter", "bike_id": "529c75d472e73e4e4890e143928a73d0", "rental_uris": {"ios": "https://dc.lft.to/lastmile_qr_scan", "android": "https://dc.lft.to/lastmile_qr_scan"}, "fusion_lon": 0.0, "lon": -77.02808266666666, "name": "529c75d472e73e4e4890e143928a73d0", "is_reserved": 0, "is_disabled": 0}, {"lat": 38.911143, "fusion_lat": 0.0, "type": "electric_scooter", "bike_id": "044e89e639473ad30a666322c04dee65", "rental_uris": {"ios": "https://dc.lft.to/lastmile_qr_scan", "android": "https://dc.lft.to/lastmile_qr_scan"}, "fusion_lon": 0.0, "lon": -77.0377045, "name": "044e89e639473ad30a666322c04dee65", "is_reserved": 0, "is_disabled": 0}, {"lat": 38.91109933333333, "fusion_lat": 0.0, "type": "electric_scooter", "bike_id": "b9fb12b3b790de83833d0261f3fc602b", "rental_uris": {"ios": "https://dc.lft.to/lastmile_qr_scan", "android": "https://dc.lft.to/lastmile_qr_scan"}, "fusion_lon": 0.0, "lon": -77.0383225, "name": "b9fb12b3b790de83833d0261f3fc602b", "is_reserved": 0, "is_disabled": 0}, {"lat": 38.92752, "fusion_lat": 0.0, "type": "electric_scooter", "bike_id": "0da8bfb4127d5df80fa5da8952fdf6fe", "rental_uris": {"ios": "https://dc.lft.to/lastmile_qr_scan", "android": "https://dc.lft.to/lastmile_qr_scan"}, "fusion_lon": 0.0, "lon": -77.0327925, "name": "0da8bfb4127d5df80fa5da8952fdf6fe", "is_reserved": 0, "is_disabled": 0}, {"lat": 38.934202, "fusion_lat": 0.0, "type": "electric_scooter", "bike_id": "4cb5ac0c3be67b5e7e9ddc49f52c042a", "rental_uris": {"ios": "https://dc.lft.to/lastmile_qr_scan", "android": "https://dc.lft.to/lastmile_qr_scan"}, "fusion_lon": 0.0, "lon": -77.042791, "name": "4cb5ac0c3be67b5e7e9ddc49f52c042a", "is_reserved": 0, "is_disabled": 0}, {"lat": 38.91630583333333, "fusion_lat": 0.0, "type": "electric_scooter", "bike_id": "17c0ffeb3e6f227ce9d960538f672068", "rental_uris": {"ios": "https://dc.lft.to/lastmile_qr_scan", "android": "https://dc.lft.to/lastmile_qr_scan"}, "fusion_lon": 0.0, "lon": -77.04021333333333, "name": "17c0ffeb3e6f227ce9d960538f672068", "is_reserved": 0, "is_disabled": 0}, {"lat": 38.92284216666667, "fusion_lat": 0.0, "type": "electric_scooter", "bike_id": "0001de823749e89c739c52859de78e83", "rental_uris": {"ios": "https://dc.lft.to/lastmile_qr_scan", "android": "https://dc.lft.to/lastmile_qr_scan"}, "fusion_lon": 0.0, "lon": -77.0366155, "name": "0001de823749e89c739c52859de78e83", "is_reserved": 0, "is_disabled": 0}, {"lat": 38.90962866666667, "fusion_lat": 0.0, "type": "electric_scooter", "bike_id": "5a899eed06855ca166b232a71e36b03f", "rental_uris": {"ios": "https://dc.lft.to/lastmile_qr_scan", "android": "https://dc.lft.to/lastmile_qr_scan"}, "fusion_lon": 0.0, "lon": -77.0444235, "name": "5a899eed06855ca166b232a71e36b03f", "is_reserved": 0, "is_disabled": 0}, {"lat": 38.9322615, "fusion_lat": 0.0, "type": "electric_scooter", "bike_id": "527ea263ef61a4bd3e6429b2c7041761", "rental_uris": {"ios": "https://dc.lft.to/lastmile_qr_scan", "android": "https://dc.lft.to/lastmile_qr_scan"}, "fusion_lon": 0.0, "lon": -77.02980533333333, "name": "527ea263ef61a4bd3e6429b2c7041761", "is_reserved": 0, "is_disabled": 0}, {"lat": 38.92102916666666, "fusion_lat": 0.0, "type": "electric_scooter", "bike_id": "b1ac40595f1bd77213f1b99e79da5493", "rental_uris": {"ios": "https://dc.lft.to/lastmile_qr_scan", "android": "https://dc.lft.to/lastmile_qr_scan"}, "fusion_lon": 0.0, "lon": -77.036632, "name": "b1ac40595f1bd77213f1b99e79da5493", "is_reserved": 0, "is_disabled": 0}, {"lat": 38.92295266666667, "fusion_lat": 0.0, "type": "electric_scooter", "bike_id": "a3a109f6fbfa01dbc73a17edd32ab572", "rental_uris": {"ios": "https://dc.lft.to/lastmile_qr_scan", "android": "https://dc.lft.to/lastmile_qr_scan"}, "fusion_lon": 0.0, "lon": -77.04146233333333, "name": "a3a109f6fbfa01dbc73a17edd32ab572", "is_reserved": 0, "is_disabled": 0}, {"lat": 38.901597, "fusion_lat": 0.0, "type": "electric_scooter", "bike_id": "7b741c18391bcd965cb0e855a2bbd02e", "rental_uris": {"ios": "https://dc.lft.to/lastmile_qr_scan", "android": "https://dc.lft.to/lastmile_qr_scan"}, "fusion_lon": 0.0, "lon": -77.0393695, "name": "7b741c18391bcd965cb0e855a2bbd02e", "is_reserved": 0, "is_disabled": 0}, {"lat": 38.92494466666667, "fusion_lat": 0.0, "type": "electric_scooter", "bike_id": "e4ca5e916e952b4c2a82cfe46bb964e7", "rental_uris": {"ios": "https://dc.lft.to/lastmile_qr_scan", "android": "https://dc.lft.to/lastmile_qr_scan"}, "fusion_lon": 0.0, "lon": -77.02165, "name": "e4ca5e916e952b4c2a82cfe46bb964e7", "is_reserved": 0, "is_disabled": 0}, {"lat": 38.89571766666667, "fusion_lat": 0.0, "type": "electric_scooter", "bike_id": "86f2b33fb141350ff7c939543db15b66", "rental_uris": {"ios": "https://dc.lft.to/lastmile_qr_scan", "android": "https://dc.lft.to/lastmile_qr_scan"}, "fusion_lon": 0.0, "lon": -76.98323416666666, "name": "86f2b33fb141350ff7c939543db15b66", "is_reserved": 0, "is_disabled": 0}, {"lat": 38.91526366666667, "fusion_lat": 0.0, "type": "electric_scooter", "bike_id": "864f2d3aaf197fc3df1b78dd0d0537ce", "rental_uris": {"ios": "https://dc.lft.to/lastmile_qr_scan", "android": "https://dc.lft.to/lastmile_qr_scan"}, "fusion_lon": 0.0, "lon": -77.03196133333333, "name": "864f2d3aaf197fc3df1b78dd0d0537ce", "is_reserved": 0, "is_disabled": 0}, {"lat": 38.937055666666666, "fusion_lat": 0.0, "type": "electric_scooter", "bike_id": "5f6991c69ebed6a77ce94ab9bd0f21d1", "rental_uris": {"ios": "https://dc.lft.to/lastmile_qr_scan", "android": "https://dc.lft.to/lastmile_qr_scan"}, "fusion_lon": 0.0, "lon": -77.03521816666667, "name": "5f6991c69ebed6a77ce94ab9bd0f21d1", "is_reserved": 0, "is_disabled": 0}, {"lat": 38.917630833333334, "fusion_lat": 0.0, "type": "electric_scooter", "bike_id": "0390326aa06c9836fb1ec67a67e1d037", "rental_uris": {"ios": "https://dc.lft.to/lastmile_qr_scan", "android": "https://dc.lft.to/lastmile_qr_scan"}, "fusion_lon": 0.0, "lon": -77.01761566666667, "name": "0390326aa06c9836fb1ec67a67e1d037", "is_reserved": 0, "is_disabled": 0}, {"lat": 38.886176166666665, "fusion_lat": 0.0, "type": "electric_scooter", "bike_id": "4be21be22de17dfb984749f021e100bb", "rental_uris": {"ios": "https://dc.lft.to/lastmile_qr_scan", "android": "https://dc.lft.to/lastmile_qr_scan"}, "fusion_lon": 0.0, "lon": -76.99613566666666, "name": "4be21be22de17dfb984749f021e100bb", "is_reserved": 0, "is_disabled": 0}, {"lat": 38.89219883333333, "fusion_lat": 0.0, "type": "electric_scooter", "bike_id": "8c93215e3eb19c6882065f37fec99592", "rental_uris": {"ios": "https://dc.lft.to/lastmile_qr_scan", "android": "https://dc.lft.to/lastmile_qr_scan"}, "fusion_lon": 0.0, "lon": -77.02777116666667, "name": "8c93215e3eb19c6882065f37fec99592", "is_reserved": 0, "is_disabled": 0}, {"lat": 38.91691183333333, "fusion_lat": 0.0, "type": "electric_scooter", "bike_id": "d46ceb5fe15824ca7197aacab588c76b", "rental_uris": {"ios": "https://dc.lft.to/lastmile_qr_scan", "android": "https://dc.lft.to/lastmile_qr_scan"}, "fusion_lon": 0.0, "lon": -77.03159733333334, "name": "d46ceb5fe15824ca7197aacab588c76b", "is_reserved": 0, "is_disabled": 0}, {"lat": 38.87659716666667, "fusion_lat": 0.0, "type": "electric_scooter", "bike_id": "ff54e92f24c47445b9b4f23f2bedc3f4", "rental_uris": {"ios": "https://dc.lft.to/lastmile_qr_scan", "android": "https://dc.lft.to/lastmile_qr_scan"}, "fusion_lon": 0.0, "lon": -77.00313966666667, "name": "ff54e92f24c47445b9b4f23f2bedc3f4", "is_reserved": 0, "is_disabled": 0}, {"lat": 38.9159725, "fusion_lat": 0.0, "type": "electric_scooter", "bike_id": "22c722ffb8a381fb98211039d8bd06ac", "rental_uris": {"ios": "https://dc.lft.to/lastmile_qr_scan", "android": "https://dc.lft.to/lastmile_qr_scan"}, "fusion_lon": 0.0, "lon": -77.014553, "name": "22c722ffb8a381fb98211039d8bd06ac", "is_reserved": 0, "is_disabled": 0}, {"lat": 38.88840883333334, "fusion_lat": 0.0, "type": "electric_bike", "bike_id": "0cc8dc11f00aa5c866b3286ce8ff906c", "rental_uris": {"ios": "https://dc.lft.to/lastmile_qr_scan", "android": "https://dc.lft.to/lastmile_qr_scan"}, "fusion_lon": 0.0, "lon": -76.95757583333334, "name": "0cc8dc11f00aa5c866b3286ce8ff906c", "is_reserved": 0, "is_disabled": 0}, {"lat": 38.90849583333333, "fusion_lat": 0.0, "type": "electric_scooter", "bike_id": "d6d6f412a6ddeda0df432f1474a85351", "rental_uris": {"ios": "https://dc.lft.to/lastmile_qr_scan", "android": "https://dc.lft.to/lastmile_qr_scan"}, "fusion_lon": 0.0, "lon": -77.0197105, "name": "d6d6f412a6ddeda0df432f1474a85351", "is_reserved": 0, "is_disabled": 0}, {"lat": 38.91057983333334, "fusion_lat": 0.0, "type": "electric_scooter", "bike_id": "f9c901237b7a83aa8a8221451a949bc7", "rental_uris": {"ios": "https://dc.lft.to/lastmile_qr_scan", "android": "https://dc.lft.to/lastmile_qr_scan"}, "fusion_lon": 0.0, "lon": -77.03089383333334, "name": "f9c901237b7a83aa8a8221451a949bc7", "is_reserved": 0, "is_disabled": 0}, {"lat": 38.91727233333334, "fusion_lat": 0.0, "type": "electric_scooter", "bike_id": "cd8521c81cef7adb7589a56318dd391f", "rental_uris": {"ios": "https://dc.lft.to/lastmile_qr_scan", "android": "https://dc.lft.to/lastmile_qr_scan"}, "fusion_lon": 0.0, "lon": -77.0361465, "name": "cd8521c81cef7adb7589a56318dd391f", "is_reserved": 0, "is_disabled": 0}, {"lat": 38.90579183333333, "fusion_lat": 0.0, "type": "electric_scooter", "bike_id": "5fa66e0e371b9f47e53197c179b21d6c", "rental_uris": {"ios": "https://dc.lft.to/lastmile_qr_scan", "android": "https://dc.lft.to/lastmile_qr_scan"}, "fusion_lon": 0.0, "lon": -76.99315583333333, "name": "5fa66e0e371b9f47e53197c179b21d6c", "is_reserved": 0, "is_disabled": 0}, {"lat": 38.900634833333335, "fusion_lat": 0.0, "type": "electric_scooter", "bike_id": "a82a421e7111da99ebd27c2a3e32c4bc", "rental_uris": {"ios": "https://dc.lft.to/lastmile_qr_scan", "android": "https://dc.lft.to/lastmile_qr_scan"}, "fusion_lon": 0.0, "lon": -77.02833366666667, "name": "a82a421e7111da99ebd27c2a3e32c4bc", "is_reserved": 0, "is_disabled": 0}, {"lat": 38.9969745, "fusion_lat": 0.0, "type": "electric_bike", "bike_id": "d4442f340d0a6fe8cf78260edb3f14ff", "rental_uris": {"ios": "https://dc.lft.to/lastmile_qr_scan", "android": "https://dc.lft.to/lastmile_qr_scan"}, "fusion_lon": 0.0, "lon": -77.02562866666666, "name": "d4442f340d0a6fe8cf78260edb3f14ff", "is_reserved": 0, "is_disabled": 0}, {"lat": 38.918489666666666, "fusion_lat": 0.0, "type": "electric_scooter", "bike_id": "01f4b3cd5a16ca4a886e2d63246a9fd7", "rental_uris": {"ios": "https://dc.lft.to/lastmile_qr_scan", "android": "https://dc.lft.to/lastmile_qr_scan"}, "fusion_lon": 0.0, "lon": -77.01662733333333, "name": "01f4b3cd5a16ca4a886e2d63246a9fd7", "is_reserved": 0, "is_disabled": 0}, {"lat": 38.91831066666667, "fusion_lat": 0.0, "type": "electric_scooter", "bike_id": "d9f938a2ca4a4be0c94d04f448251d1c", "rental_uris": {"ios": "https://dc.lft.to/lastmile_qr_scan", "android": "https://dc.lft.to/lastmile_qr_scan"}, "fusion_lon": 0.0, "lon": -77.035366, "name": "d9f938a2ca4a4be0c94d04f448251d1c", "is_reserved": 0, "is_disabled": 0}, {"lat": 38.90732166666667, "fusion_lat": 0.0, "type": "electric_scooter", "bike_id": "4e5fd7549f93b2f1419080dc46d66fd8", "rental_uris": {"ios": "https://dc.lft.to/lastmile_qr_scan", "android": "https://dc.lft.to/lastmile_qr_scan"}, "fusion_lon": 0.0, "lon": -76.97986033333333, "name": "4e5fd7549f93b2f1419080dc46d66fd8", "is_reserved": 0, "is_disabled": 0}, {"lat": 38.923223, "fusion_lat": 0.0, "type": "electric_bike", "bike_id": "d232fc683cb6f2857619af78e70b8035", "rental_uris": {"ios": "https://dc.lft.to/lastmile_qr_scan", "android": "https://dc.lft.to/lastmile_qr_scan"}, "fusion_lon": 0.0, "lon": -77.07309416666666, "name": "d232fc683cb6f2857619af78e70b8035", "is_reserved": 0, "is_disabled": 0}, {"lat": 38.9965725, "fusion_lat": 0.0, "type": "electric_bike", "bike_id": "28dc8ca6dd864ad734ae242f5698e509", "rental_uris": {"ios": "https://dc.lft.to/lastmile_qr_scan", "android": "https://dc.lft.to/lastmile_qr_scan"}, "fusion_lon": 0.0, "lon": -77.04281533333334, "name": "28dc8ca6dd864ad734ae242f5698e509", "is_reserved": 0, "is_disabled": 0}, {"lat": 38.9275095, "fusion_lat": 0.0, "type": "electric_scooter", "bike_id": "fb5732b815b81383ba6c4a4f2e8cc5b2", "rental_uris": {"ios": "https://dc.lft.to/lastmile_qr_scan", "android": "https://dc.lft.to/lastmile_qr_scan"}, "fusion_lon": 0.0, "lon": -77.03272933333334, "name": "fb5732b815b81383ba6c4a4f2e8cc5b2", "is_reserved": 0, "is_disabled": 0}, {"lat": 38.96607083333333, "fusion_lat": 0.0, "type": "electric_scooter", "bike_id": "d06e7de07e6213efa21965af1bf8ed80", "rental_uris": {"ios": "https://dc.lft.to/lastmile_qr_scan", "android": "https://dc.lft.to/lastmile_qr_scan"}, "fusion_lon": 0.0, "lon": -77.02743716666667, "name": "d06e7de07e6213efa21965af1bf8ed80", "is_reserved": 0, "is_disabled": 0}, {"lat": 38.90611966666667, "fusion_lat": 0.0, "type": "electric_scooter", "bike_id": "4676ac929c3456a3ea98bcf1536b2f16", "rental_uris": {"ios": "https://dc.lft.to/lastmile_qr_scan", "android": "https://dc.lft.to/lastmile_qr_scan"}, "fusion_lon": 0.0, "lon": -77.00673383333333, "name": "4676ac929c3456a3ea98bcf1536b2f16", "is_reserved": 0, "is_disabled": 0}, {"lat": 38.906631, "fusion_lat": 0.0, "type": "electric_scooter", "bike_id": "177bb904c0011257f10fd97bd37f03b1", "rental_uris": {"ios": "https://dc.lft.to/lastmile_qr_scan", "android": "https://dc.lft.to/lastmile_qr_scan"}, "fusion_lon": 0.0, "lon": -76.98933366666667, "name": "177bb904c0011257f10fd97bd37f03b1", "is_reserved": 0, "is_disabled": 0}, {"lat": 38.91120133333333, "fusion_lat": 0.0, "type": "electric_scooter", "bike_id": "9e3ecd018436093b31803deed2879096", "rental_uris": {"ios": "https://dc.lft.to/lastmile_qr_scan", "android": "https://dc.lft.to/lastmile_qr_scan"}, "fusion_lon": 0.0, "lon": -77.02986133333333, "name": "9e3ecd018436093b31803deed2879096", "is_reserved": 0, "is_disabled": 0}, {"lat": 38.93846883333333, "fusion_lat": 0.0, "type": "electric_scooter", "bike_id": "af60cfcf172099bdce0abe7b4d7dbb8a", "rental_uris": {"ios": "https://dc.lft.to/lastmile_qr_scan", "android": "https://dc.lft.to/lastmile_qr_scan"}, "fusion_lon": 0.0, "lon": -77.07231516666667, "name": "af60cfcf172099bdce0abe7b4d7dbb8a", "is_reserved": 0, "is_disabled": 0}, {"lat": 38.917278, "fusion_lat": 0.0, "type": "electric_scooter", "bike_id": "7b484cb80a7a630b21a4a02d0ee0479f", "rental_uris": {"ios": "https://dc.lft.to/lastmile_qr_scan", "android": "https://dc.lft.to/lastmile_qr_scan"}, "fusion_lon": 0.0, "lon": -77.03614966666666, "name": "7b484cb80a7a630b21a4a02d0ee0479f", "is_reserved": 0, "is_disabled": 0}, {"lat": 38.93539366666667, "fusion_lat": 0.0, "type": "electric_scooter", "bike_id": "e1cce2ce41760c1c26adc5b2579a0653", "rental_uris": {"ios": "https://dc.lft.to/lastmile_qr_scan", "android": "https://dc.lft.to/lastmile_qr_scan"}, "fusion_lon": 0.0, "lon": -77.05743516666666, "name": "e1cce2ce41760c1c26adc5b2579a0653", "is_reserved": 0, "is_disabled": 0}, {"lat": 38.918819166666665, "fusion_lat": 0.0, "type": "electric_scooter", "bike_id": "6214e735cbbb75561564c9d9a9e409de", "rental_uris": {"ios": "https://dc.lft.to/lastmile_qr_scan", "android": "https://dc.lft.to/lastmile_qr_scan"}, "fusion_lon": 0.0, "lon": -77.02191833333333, "name": "6214e735cbbb75561564c9d9a9e409de", "is_reserved": 0, "is_disabled": 0}, {"lat": 38.837962833333336, "fusion_lat": 0.0, "type": "electric_scooter", "bike_id": "55bf0d13fdac10bea526771c5f08a021", "rental_uris": {"ios": "https://dc.lft.to/lastmile_qr_scan", "android": "https://dc.lft.to/lastmile_qr_scan"}, "fusion_lon": 0.0, "lon": -77.00453983333334, "name": "55bf0d13fdac10bea526771c5f08a021", "is_reserved": 0, "is_disabled": 0}, {"lat": 38.922368166666665, "fusion_lat": 0.0, "type": "electric_scooter", "bike_id": "f36db3d7827cf4dcad89a0bf3d587e8b", "rental_uris": {"ios": "https://dc.lft.to/lastmile_qr_scan", "android": "https://dc.lft.to/lastmile_qr_scan"}, "fusion_lon": 0.0, "lon": -77.02203966666667, "name": "f36db3d7827cf4dcad89a0bf3d587e8b", "is_reserved": 0, "is_disabled": 0}, {"lat": 38.9737245, "fusion_lat": 0.0, "type": "electric_scooter", "bike_id": "68f98a408efc4dafa51d9db46d86f698", "rental_uris": {"ios": "https://dc.lft.to/lastmile_qr_scan", "android": "https://dc.lft.to/lastmile_qr_scan"}, "fusion_lon": 0.0, "lon": -77.01271033333333, "name": "68f98a408efc4dafa51d9db46d86f698", "is_reserved": 0, "is_disabled": 0}, {"lat": 38.902412166666664, "fusion_lat": 0.0, "type": "electric_scooter", "bike_id": "7f2bba5d0d03b154d90338f369ae0633", "rental_uris": {"ios": "https://dc.lft.to/lastmile_qr_scan", "android": "https://dc.lft.to/lastmile_qr_scan"}, "fusion_lon": 0.0, "lon": -77.05346466666667, "name": "7f2bba5d0d03b154d90338f369ae0633", "is_reserved": 0, "is_disabled": 0}, {"lat": 38.887292, "fusion_lat": 0.0, "type": "electric_scooter", "bike_id": "9771537cf997c093d3336d61a4150a4e", "rental_uris": {"ios": "https://dc.lft.to/lastmile_qr_scan", "android": "https://dc.lft.to/lastmile_qr_scan"}, "fusion_lon": 0.0, "lon": -76.9836465, "name": "9771537cf997c093d3336d61a4150a4e", "is_reserved": 0, "is_disabled": 0}, {"lat": 38.9063095, "fusion_lat": 0.0, "type": "electric_scooter", "bike_id": "efe6a69df51fc9794677c82fbda29696", "rental_uris": {"ios": "https://dc.lft.to/lastmile_qr_scan", "android": "https://dc.lft.to/lastmile_qr_scan"}, "fusion_lon": 0.0, "lon": -77.0384005, "name": "efe6a69df51fc9794677c82fbda29696", "is_reserved": 0, "is_disabled": 0}, {"lat": 38.98112483333333, "fusion_lat": 0.0, "type": "electric_bike", "bike_id": "74108ab8f4b9351d27c37c5f64bd97b9", "rental_uris": {"ios": "https://dc.lft.to/lastmile_qr_scan", "android": "https://dc.lft.to/lastmile_qr_scan"}, "fusion_lon": 0.0, "lon": -77.09266783333334, "name": "74108ab8f4b9351d27c37c5f64bd97b9", "is_reserved": 0, "is_disabled": 0}, {"lat": 38.91094783333333, "fusion_lat": 0.0, "type": "electric_scooter", "bike_id": "4f93a86ccc801bee962d3bd5108c8805", "rental_uris": {"ios": "https://dc.lft.to/lastmile_qr_scan", "android": "https://dc.lft.to/lastmile_qr_scan"}, "fusion_lon": 0.0, "lon": -77.0735485, "name": "4f93a86ccc801bee962d3bd5108c8805", "is_reserved": 0, "is_disabled": 0}, {"lat": 38.913963833333334, "fusion_lat": 0.0, "type": "electric_scooter", "bike_id": "ea2674a716927347c1e65de37fd02a9a", "rental_uris": {"ios": "https://dc.lft.to/lastmile_qr_scan", "android": "https://dc.lft.to/lastmile_qr_scan"}, "fusion_lon": 0.0, "lon": -77.03209783333334, "name": "ea2674a716927347c1e65de37fd02a9a", "is_reserved": 0, "is_disabled": 0}, {"lat": 38.92462066666667, "fusion_lat": 0.0, "type": "electric_scooter", "bike_id": "1732b3dab73c8d4a587231281c78b1c5", "rental_uris": {"ios": "https://dc.lft.to/lastmile_qr_scan", "android": "https://dc.lft.to/lastmile_qr_scan"}, "fusion_lon": 0.0, "lon": -77.0224685, "name": "1732b3dab73c8d4a587231281c78b1c5", "is_reserved": 0, "is_disabled": 0}, {"lat": 38.9190645, "fusion_lat": 0.0, "type": "electric_scooter", "bike_id": "c1096e6c2bd4db868eaa4c2c4b561b1e", "rental_uris": {"ios": "https://dc.lft.to/lastmile_qr_scan", "android": "https://dc.lft.to/lastmile_qr_scan"}, "fusion_lon": 0.0, "lon": -77.0446625, "name": "c1096e6c2bd4db868eaa4c2c4b561b1e", "is_reserved": 0, "is_disabled": 0}, {"lat": 38.903734166666666, "fusion_lat": 0.0, "type": "electric_scooter", "bike_id": "d935b5d59111d7cd37b30fb6830b3854", "rental_uris": {"ios": "https://dc.lft.to/lastmile_qr_scan", "android": "https://dc.lft.to/lastmile_qr_scan"}, "fusion_lon": 0.0, "lon": -76.98945516666667, "name": "d935b5d59111d7cd37b30fb6830b3854", "is_reserved": 0, "is_disabled": 0}, {"lat": 38.88411333333333, "fusion_lat": 0.0, "type": "electric_scooter", "bike_id": "b2407c755a70a3dc3a753cab58b87e32", "rental_uris": {"ios": "https://dc.lft.to/lastmile_qr_scan", "android": "https://dc.lft.to/lastmile_qr_scan"}, "fusion_lon": 0.0, "lon": -76.94211816666666, "name": "b2407c755a70a3dc3a753cab58b87e32", "is_reserved": 0, "is_disabled": 0}, {"lat": 38.9234315, "fusion_lat": 0.0, "type": "electric_scooter", "bike_id": "613a13e886b79f0b6ba82cba823bc300", "rental_uris": {"ios": "https://dc.lft.to/lastmile_qr_scan", "android": "https://dc.lft.to/lastmile_qr_scan"}, "fusion_lon": 0.0, "lon": -77.05175733333333, "name": "613a13e886b79f0b6ba82cba823bc300", "is_reserved": 0, "is_disabled": 0}, {"lat": 38.9078655, "fusion_lat": 0.0, "type": "electric_scooter", "bike_id": "aab573692446b76dc21a40d8744902e9", "rental_uris": {"ios": "https://dc.lft.to/lastmile_qr_scan", "android": "https://dc.lft.to/lastmile_qr_scan"}, "fusion_lon": 0.0, "lon": -77.03200066666666, "name": "aab573692446b76dc21a40d8744902e9", "is_reserved": 0, "is_disabled": 0}, {"lat": 38.91705733333333, "fusion_lat": 0.0, "type": "electric_scooter", "bike_id": "2b8551ff06a4deb235fe114991320802", "rental_uris": {"ios": "https://dc.lft.to/lastmile_qr_scan", "android": "https://dc.lft.to/lastmile_qr_scan"}, "fusion_lon": 0.0, "lon": -77.02783083333334, "name": "2b8551ff06a4deb235fe114991320802", "is_reserved": 0, "is_disabled": 0}, {"lat": 38.91559266666667, "fusion_lat": 0.0, "type": "electric_scooter", "bike_id": "0781b4a4e796b55c213b0b7e9a6e024f", "rental_uris": {"ios": "https://dc.lft.to/lastmile_qr_scan", "android": "https://dc.lft.to/lastmile_qr_scan"}, "fusion_lon": 0.0, "lon": -77.03863066666666, "name": "0781b4a4e796b55c213b0b7e9a6e024f", "is_reserved": 0, "is_disabled": 0}, {"lat": 38.90994466666667, "fusion_lat": 0.0, "type": "electric_scooter", "bike_id": "bd48b810dcd0797836e23a112fd42c6b", "rental_uris": {"ios": "https://dc.lft.to/lastmile_qr_scan", "android": "https://dc.lft.to/lastmile_qr_scan"}, "fusion_lon": 0.0, "lon": -77.03194333333333, "name": "bd48b810dcd0797836e23a112fd42c6b", "is_reserved": 0, "is_disabled": 0}, {"lat": 38.91695966666666, "fusion_lat": 0.0, "type": "electric_scooter", "bike_id": "4be515b4c7468728e2dac16be0335ce5", "rental_uris": {"ios": "https://dc.lft.to/lastmile_qr_scan", "android": "https://dc.lft.to/lastmile_qr_scan"}, "fusion_lon": 0.0, "lon": -77.04186666666666, "name": "4be515b4c7468728e2dac16be0335ce5", "is_reserved": 0, "is_disabled": 0}, {"lat": 38.93537966666667, "fusion_lat": 0.0, "type": "electric_scooter", "bike_id": "371d1fcec437c2f86b0d00add03b7f53", "rental_uris": {"ios": "https://dc.lft.to/lastmile_qr_scan", "android": "https://dc.lft.to/lastmile_qr_scan"}, "fusion_lon": 0.0, "lon": -77.02429033333334, "name": "371d1fcec437c2f86b0d00add03b7f53", "is_reserved": 0, "is_disabled": 0}, {"lat": 38.92789366666667, "fusion_lat": 0.0, "type": "electric_scooter", "bike_id": "1dacbab64bb3ab056cefba2c197e068f", "rental_uris": {"ios": "https://dc.lft.to/lastmile_qr_scan", "android": "https://dc.lft.to/lastmile_qr_scan"}, "fusion_lon": 0.0, "lon": -77.022139, "name": "1dacbab64bb3ab056cefba2c197e068f", "is_reserved": 0, "is_disabled": 0}, {"lat": 38.8943405, "fusion_lat": 0.0, "type": "electric_scooter", "bike_id": "2a2636cda230a53d1e5af5184614bfdc", "rental_uris": {"ios": "https://dc.lft.to/lastmile_qr_scan", "android": "https://dc.lft.to/lastmile_qr_scan"}, "fusion_lon": 0.0, "lon": -76.94987633333334, "name": "2a2636cda230a53d1e5af5184614bfdc", "is_reserved": 0, "is_disabled": 0}, {"lat": 38.91805316666667, "fusion_lat": 0.0, "type": "electric_scooter", "bike_id": "522d8392385b03cdbfc4131bac3197aa", "rental_uris": {"ios": "https://dc.lft.to/lastmile_qr_scan", "android": "https://dc.lft.to/lastmile_qr_scan"}, "fusion_lon": 0.0, "lon": -77.0298115, "name": "522d8392385b03cdbfc4131bac3197aa", "is_reserved": 0, "is_disabled": 0}, {"lat": 38.88023033333333, "fusion_lat": 0.0, "type": "electric_scooter", "bike_id": "63e99a57f1f156496a4dd5dae770f2c8", "rental_uris": {"ios": "https://dc.lft.to/lastmile_qr_scan", "android": "https://dc.lft.to/lastmile_qr_scan"}, "fusion_lon": 0.0, "lon": -77.02482333333333, "name": "63e99a57f1f156496a4dd5dae770f2c8", "is_reserved": 0, "is_disabled": 0}, {"lat": 38.89873383333333, "fusion_lat": 0.0, "type": "electric_scooter", "bike_id": "07957da2ba6cdf5776d97a947bfc95fb", "rental_uris": {"ios": "https://dc.lft.to/lastmile_qr_scan", "android": "https://dc.lft.to/lastmile_qr_scan"}, "fusion_lon": 0.0, "lon": -76.93187883333333, "name": "07957da2ba6cdf5776d97a947bfc95fb", "is_reserved": 0, "is_disabled": 0}, {"lat": 38.8975035, "fusion_lat": 0.0, "type": "electric_scooter", "bike_id": "32df4f409a914e43a29f0a3c03f2616c", "rental_uris": {"ios": "https://dc.lft.to/lastmile_qr_scan", "android": "https://dc.lft.to/lastmile_qr_scan"}, "fusion_lon": 0.0, "lon": -77.0074775, "name": "32df4f409a914e43a29f0a3c03f2616c", "is_reserved": 0, "is_disabled": 0}, {"lat": 38.857240166666664, "fusion_lat": 0.0, "type": "electric_bike", "bike_id": "2b62576bc766d4bc7044291c4800886e", "rental_uris": {"ios": "https://dc.lft.to/lastmile_qr_scan", "android": "https://dc.lft.to/lastmile_qr_scan"}, "fusion_lon": 0.0, "lon": -76.97773716666667, "name": "2b62576bc766d4bc7044291c4800886e", "is_reserved": 0, "is_disabled": 0}, {"lat": 38.90360966666667, "fusion_lat": 0.0, "type": "electric_scooter", "bike_id": "639887f74840053fc5209dc4b0691496", "rental_uris": {"ios": "https://dc.lft.to/lastmile_qr_scan", "android": "https://dc.lft.to/lastmile_qr_scan"}, "fusion_lon": 0.0, "lon": -77.02215966666667, "name": "639887f74840053fc5209dc4b0691496", "is_reserved": 0, "is_disabled": 0}, {"lat": 38.9223905, "fusion_lat": 0.0, "type": "electric_scooter", "bike_id": "b723caac691319c5a7d8f72287db3476", "rental_uris": {"ios": "https://dc.lft.to/lastmile_qr_scan", "android": "https://dc.lft.to/lastmile_qr_scan"}, "fusion_lon": 0.0, "lon": -77.02202933333334, "name": "b723caac691319c5a7d8f72287db3476", "is_reserved": 0, "is_disabled": 0}, {"lat": 38.93418616666666, "fusion_lat": 0.0, "type": "electric_bike", "bike_id": "9883ff668861e06d4b5c8a74763f1473", "rental_uris": {"ios": "https://dc.lft.to/lastmile_qr_scan", "android": "https://dc.lft.to/lastmile_qr_scan"}, "fusion_lon": 0.0, "lon": -77.04307533333333, "name": "9883ff668861e06d4b5c8a74763f1473", "is_reserved": 0, "is_disabled": 0}, {"lat": 38.911032666666664, "fusion_lat": 0.0, "type": "electric_scooter", "bike_id": "649a70e5b8c16df90622d39120bab07e", "rental_uris": {"ios": "https://dc.lft.to/lastmile_qr_scan", "android": "https://dc.lft.to/lastmile_qr_scan"}, "fusion_lon": 0.0, "lon": -77.0241335, "name": "649a70e5b8c16df90622d39120bab07e", "is_reserved": 0, "is_disabled": 0}, {"lat": 38.91012933333333, "fusion_lat": 0.0, "type": "electric_scooter", "bike_id": "e08f6033ed4103ef718287174d4ba03d", "rental_uris": {"ios": "https://dc.lft.to/lastmile_qr_scan", "android": "https://dc.lft.to/lastmile_qr_scan"}, "fusion_lon": 0.0, "lon": -77.03860733333333, "name": "e08f6033ed4103ef718287174d4ba03d", "is_reserved": 0, "is_disabled": 0}, {"lat": 38.86727116666667, "fusion_lat": 0.0, "type": "electric_scooter", "bike_id": "965b5a094e97b8c21264cef3b90dca97", "rental_uris": {"ios": "https://dc.lft.to/lastmile_qr_scan", "android": "https://dc.lft.to/lastmile_qr_scan"}, "fusion_lon": 0.0, "lon": -77.01348683333333, "name": "965b5a094e97b8c21264cef3b90dca97", "is_reserved": 0, "is_disabled": 0}, {"lat": 38.91491083333333, "fusion_lat": 0.0, "type": "electric_scooter", "bike_id": "be7d275cff2689463335a2ecd1a814f4", "rental_uris": {"ios": "https://dc.lft.to/lastmile_qr_scan", "android": "https://dc.lft.to/lastmile_qr_scan"}, "fusion_lon": 0.0, "lon": -77.03232316666667, "name": "be7d275cff2689463335a2ecd1a814f4", "is_reserved": 0, "is_disabled": 0}, {"lat": 38.898223, "fusion_lat": 0.0, "type": "electric_scooter", "bike_id": "4dee80b6c19d8f22e87c7c52947ed937", "rental_uris": {"ios": "https://dc.lft.to/lastmile_qr_scan", "android": "https://dc.lft.to/lastmile_qr_scan"}, "fusion_lon": 0.0, "lon": -77.05001716666666, "name": "4dee80b6c19d8f22e87c7c52947ed937", "is_reserved": 0, "is_disabled": 0}, {"lat": 38.918638666666666, "fusion_lat": 0.0, "type": "electric_scooter", "bike_id": "4ba81769e5eac794540106d567bfdf16", "rental_uris": {"ios": "https://dc.lft.to/lastmile_qr_scan", "android": "https://dc.lft.to/lastmile_qr_scan"}, "fusion_lon": 0.0, "lon": -77.015613, "name": "4ba81769e5eac794540106d567bfdf16", "is_reserved": 0, "is_disabled": 0}, {"lat": 38.91923666666667, "fusion_lat": 0.0, "type": "electric_scooter", "bike_id": "30b470296064191ccdaa5f7144301c29", "rental_uris": {"ios": "https://dc.lft.to/lastmile_qr_scan", "android": "https://dc.lft.to/lastmile_qr_scan"}, "fusion_lon": 0.0, "lon": -77.03361683333334, "name": "30b470296064191ccdaa5f7144301c29", "is_reserved": 0, "is_disabled": 0}, {"lat": 38.930213, "fusion_lat": 0.0, "type": "electric_scooter", "bike_id": "8901f82f2b89bf23b373227b863a5c62", "rental_uris": {"ios": "https://dc.lft.to/lastmile_qr_scan", "android": "https://dc.lft.to/lastmile_qr_scan"}, "fusion_lon": 0.0, "lon": -77.037869, "name": "8901f82f2b89bf23b373227b863a5c62", "is_reserved": 0, "is_disabled": 0}, {"lat": 38.899034, "fusion_lat": 0.0, "type": "electric_scooter", "bike_id": "10e65a6772c610a5f0770ecb2fe992b6", "rental_uris": {"ios": "https://dc.lft.to/lastmile_qr_scan", "android": "https://dc.lft.to/lastmile_qr_scan"}, "fusion_lon": 0.0, "lon": -77.02164316666666, "name": "10e65a6772c610a5f0770ecb2fe992b6", "is_reserved": 0, "is_disabled": 0}, {"lat": 38.97830533333333, "fusion_lat": 0.0, "type": "electric_bike", "bike_id": "27c8563c54e97981a8eba51a010be1b9", "rental_uris": {"ios": "https://dc.lft.to/lastmile_qr_scan", "android": "https://dc.lft.to/lastmile_qr_scan"}, "fusion_lon": 0.0, "lon": -76.9289785, "name": "27c8563c54e97981a8eba51a010be1b9", "is_reserved": 0, "is_disabled": 0}, {"lat": 38.92668783333333, "fusion_lat": 0.0, "type": "electric_scooter", "bike_id": "65d8c6fff745aa8efdc40fa0c5eafd93", "rental_uris": {"ios": "https://dc.lft.to/lastmile_qr_scan", "android": "https://dc.lft.to/lastmile_qr_scan"}, "fusion_lon": 0.0, "lon": -77.01517816666667, "name": "65d8c6fff745aa8efdc40fa0c5eafd93", "is_reserved": 0, "is_disabled": 0}, {"lat": 38.91892083333333, "fusion_lat": 0.0, "type": "electric_scooter", "bike_id": "22501dd098a07a2127b7b0ef9a370f41", "rental_uris": {"ios": "https://dc.lft.to/lastmile_qr_scan", "android": "https://dc.lft.to/lastmile_qr_scan"}, "fusion_lon": 0.0, "lon": -77.0295735, "name": "22501dd098a07a2127b7b0ef9a370f41", "is_reserved": 0, "is_disabled": 0}, {"lat": 38.8845965, "fusion_lat": 0.0, "type": "electric_bike", "bike_id": "54fd5b32cf269493acb764fc385a8a8d", "rental_uris": {"ios": "https://dc.lft.to/lastmile_qr_scan", "android": "https://dc.lft.to/lastmile_qr_scan"}, "fusion_lon": 0.0, "lon": -76.952343, "name": "54fd5b32cf269493acb764fc385a8a8d", "is_reserved": 0, "is_disabled": 0}, {"lat": 38.91915266666667, "fusion_lat": 0.0, "type": "electric_scooter", "bike_id": "51580aa4dd56716b0a03e49aa980ab69", "rental_uris": {"ios": "https://dc.lft.to/lastmile_qr_scan", "android": "https://dc.lft.to/lastmile_qr_scan"}, "fusion_lon": 0.0, "lon": -77.025054, "name": "51580aa4dd56716b0a03e49aa980ab69", "is_reserved": 0, "is_disabled": 0}, {"lat": 38.916807666666664, "fusion_lat": 0.0, "type": "electric_scooter", "bike_id": "3f4e7a4f461fb2614eefb6baf56c9f6a", "rental_uris": {"ios": "https://dc.lft.to/lastmile_qr_scan", "android": "https://dc.lft.to/lastmile_qr_scan"}, "fusion_lon": 0.0, "lon": -77.02957733333334, "name": "3f4e7a4f461fb2614eefb6baf56c9f6a", "is_reserved": 0, "is_disabled": 0}, {"lat": 38.91553316666667, "fusion_lat": 0.0, "type": "electric_scooter", "bike_id": "fdae8b405c983d7aef4ee252cbe35bef", "rental_uris": {"ios": "https://dc.lft.to/lastmile_qr_scan", "android": "https://dc.lft.to/lastmile_qr_scan"}, "fusion_lon": 0.0, "lon": -77.03179866666666, "name": "fdae8b405c983d7aef4ee252cbe35bef", "is_reserved": 0, "is_disabled": 0}, {"lat": 38.921719333333336, "fusion_lat": 0.0, "type": "electric_scooter", "bike_id": "4495149550f0607c6a1a7032e2fc9b84", "rental_uris": {"ios": "https://dc.lft.to/lastmile_qr_scan", "android": "https://dc.lft.to/lastmile_qr_scan"}, "fusion_lon": 0.0, "lon": -77.03832616666666, "name": "4495149550f0607c6a1a7032e2fc9b84", "is_reserved": 0, "is_disabled": 0}, {"lat": 38.992258166666666, "fusion_lat": 0.0, "type": "electric_bike", "bike_id": "7aa0f525b57da250e8545147bf0daed2", "rental_uris": {"ios": "https://dc.lft.to/lastmile_qr_scan", "android": "https://dc.lft.to/lastmile_qr_scan"}, "fusion_lon": 0.0, "lon": -77.03586383333334, "name": "7aa0f525b57da250e8545147bf0daed2", "is_reserved": 0, "is_disabled": 0}, {"lat": 38.949107, "fusion_lat": 0.0, "type": "electric_bike", "bike_id": "8c4e3796fa6a8f23004282749c28d5cf", "rental_uris": {"ios": "https://dc.lft.to/lastmile_qr_scan", "android": "https://dc.lft.to/lastmile_qr_scan"}, "fusion_lon": 0.0, "lon": -77.0080415, "name": "8c4e3796fa6a8f23004282749c28d5cf", "is_reserved": 0, "is_disabled": 0}, {"lat": 38.899728333333336, "fusion_lat": 0.0, "type": "electric_scooter", "bike_id": "d1b9934900271aa6b4907b164985b108", "rental_uris": {"ios": "https://dc.lft.to/lastmile_qr_scan", "android": "https://dc.lft.to/lastmile_qr_scan"}, "fusion_lon": 0.0, "lon": -77.01573266666666, "name": "d1b9934900271aa6b4907b164985b108", "is_reserved": 0, "is_disabled": 0}, {"lat": 38.90247766666667, "fusion_lat": 0.0, "type": "electric_scooter", "bike_id": "fe4074b8a3f78cde77f73fe0870a1aec", "rental_uris": {"ios": "https://dc.lft.to/lastmile_qr_scan", "android": "https://dc.lft.to/lastmile_qr_scan"}, "fusion_lon": 0.0, "lon": -77.0384365, "name": "fe4074b8a3f78cde77f73fe0870a1aec", "is_reserved": 0, "is_disabled": 0}, {"lat": 38.91133983333334, "fusion_lat": 0.0, "type": "electric_scooter", "bike_id": "adf91ac4d3cdd6b77893249d69dc5a55", "rental_uris": {"ios": "https://dc.lft.to/lastmile_qr_scan", "android": "https://dc.lft.to/lastmile_qr_scan"}, "fusion_lon": 0.0, "lon": -77.02820216666667, "name": "adf91ac4d3cdd6b77893249d69dc5a55", "is_reserved": 0, "is_disabled": 0}, {"lat": 38.8999085, "fusion_lat": 0.0, "type": "electric_scooter", "bike_id": "c076717b3a7ae9ac1aece60f7f560f29", "rental_uris": {"ios": "https://dc.lft.to/lastmile_qr_scan", "android": "https://dc.lft.to/lastmile_qr_scan"}, "fusion_lon": 0.0, "lon": -77.02138716666667, "name": "c076717b3a7ae9ac1aece60f7f560f29", "is_reserved": 0, "is_disabled": 0}, {"lat": 38.92747216666667, "fusion_lat": 0.0, "type": "electric_scooter", "bike_id": "9a4c4d619e84ba1c498de73b874ad953", "rental_uris": {"ios": "https://dc.lft.to/lastmile_qr_scan", "android": "https://dc.lft.to/lastmile_qr_scan"}, "fusion_lon": 0.0, "lon": -77.03351433333333, "name": "9a4c4d619e84ba1c498de73b874ad953", "is_reserved": 0, "is_disabled": 0}, {"lat": 38.916811833333334, "fusion_lat": 0.0, "type": "electric_scooter", "bike_id": "ae3c4a7026a7015686618677bd5bfd8e", "rental_uris": {"ios": "https://dc.lft.to/lastmile_qr_scan", "android": "https://dc.lft.to/lastmile_qr_scan"}, "fusion_lon": 0.0, "lon": -77.02954366666667, "name": "ae3c4a7026a7015686618677bd5bfd8e", "is_reserved": 0, "is_disabled": 0}, {"lat": 38.946509, "fusion_lat": 0.0, "type": "electric_scooter", "bike_id": "1d7aa822e596cfa53714ca4f649c8fd8", "rental_uris": {"ios": "https://dc.lft.to/lastmile_qr_scan", "android": "https://dc.lft.to/lastmile_qr_scan"}, "fusion_lon": 0.0, "lon": -77.0297095, "name": "1d7aa822e596cfa53714ca4f649c8fd8", "is_reserved": 0, "is_disabled": 0}, {"lat": 38.892293, "fusion_lat": 0.0, "type": "electric_scooter", "bike_id": "7b6194f4835bd5076ac076331dc5d936", "rental_uris": {"ios": "https://dc.lft.to/lastmile_qr_scan", "android": "https://dc.lft.to/lastmile_qr_scan"}, "fusion_lon": 0.0, "lon": -77.048735, "name": "7b6194f4835bd5076ac076331dc5d936", "is_reserved": 0, "is_disabled": 0}, {"lat": 38.93262683333333, "fusion_lat": 0.0, "type": "electric_scooter", "bike_id": "e6751d189d41a3a3ec6ef7c2e7a01e61", "rental_uris": {"ios": "https://dc.lft.to/lastmile_qr_scan", "android": "https://dc.lft.to/lastmile_qr_scan"}, "fusion_lon": 0.0, "lon": -77.02093066666667, "name": "e6751d189d41a3a3ec6ef7c2e7a01e61", "is_reserved": 0, "is_disabled": 0}, {"lat": 38.926963, "fusion_lat": 0.0, "type": "electric_scooter", "bike_id": "64d826c49a2c668637a446fd84f2718c", "rental_uris": {"ios": "https://dc.lft.to/lastmile_qr_scan", "android": "https://dc.lft.to/lastmile_qr_scan"}, "fusion_lon": 0.0, "lon": -76.997718, "name": "64d826c49a2c668637a446fd84f2718c", "is_reserved": 0, "is_disabled": 0}, {"lat": 38.9278875, "fusion_lat": 0.0, "type": "electric_scooter", "bike_id": "2b5caad4b64f8585b65969f7574ad333", "rental_uris": {"ios": "https://dc.lft.to/lastmile_qr_scan", "android": "https://dc.lft.to/lastmile_qr_scan"}, "fusion_lon": 0.0, "lon": -77.01561016666666, "name": "2b5caad4b64f8585b65969f7574ad333", "is_reserved": 0, "is_disabled": 0}, {"lat": 38.9003335, "fusion_lat": 0.0, "type": "electric_scooter", "bike_id": "e262aaa3521668bdde91d892c0bc37b0", "rental_uris": {"ios": "https://dc.lft.to/lastmile_qr_scan", "android": "https://dc.lft.to/lastmile_qr_scan"}, "fusion_lon": 0.0, "lon": -77.01209933333334, "name": "e262aaa3521668bdde91d892c0bc37b0", "is_reserved": 0, "is_disabled": 0}, {"lat": 38.95635266666667, "fusion_lat": 0.0, "type": "electric_bike", "bike_id": "9577dca23c49a366e91e66a080411271", "rental_uris": {"ios": "https://dc.lft.to/lastmile_qr_scan", "android": "https://dc.lft.to/lastmile_qr_scan"}, "fusion_lon": 0.0, "lon": -76.93864783333333, "name": "9577dca23c49a366e91e66a080411271", "is_reserved": 0, "is_disabled": 0}, {"lat": 38.90759466666667, "fusion_lat": 0.0, "type": "electric_scooter", "bike_id": "146c5d84fa6ff44ec00bccd179a281af", "rental_uris": {"ios": "https://dc.lft.to/lastmile_qr_scan", "android": "https://dc.lft.to/lastmile_qr_scan"}, "fusion_lon": 0.0, "lon": -77.00041, "name": "146c5d84fa6ff44ec00bccd179a281af", "is_reserved": 0, "is_disabled": 0}, {"lat": 38.918102166666664, "fusion_lat": 0.0, "type": "electric_scooter", "bike_id": "a0208e1b99f26b40c9f48a5735c3f2dd", "rental_uris": {"ios": "https://dc.lft.to/lastmile_qr_scan", "android": "https://dc.lft.to/lastmile_qr_scan"}, "fusion_lon": 0.0, "lon": -77.03466033333333, "name": "a0208e1b99f26b40c9f48a5735c3f2dd", "is_reserved": 0, "is_disabled": 0}, {"lat": 38.905030333333336, "fusion_lat": 0.0, "type": "electric_scooter", "bike_id": "c8e8ba500f81e0bc3b4df33d72f88c68", "rental_uris": {"ios": "https://dc.lft.to/lastmile_qr_scan", "android": "https://dc.lft.to/lastmile_qr_scan"}, "fusion_lon": 0.0, "lon": -77.0646975, "name": "c8e8ba500f81e0bc3b4df33d72f88c68", "is_reserved": 0, "is_disabled": 0}, {"lat": 38.910974833333334, "fusion_lat": 0.0, "type": "electric_scooter", "bike_id": "f0cccd1f60b2fac7a16d32f9cec8b8d1", "rental_uris": {"ios": "https://dc.lft.to/lastmile_qr_scan", "android": "https://dc.lft.to/lastmile_qr_scan"}, "fusion_lon": 0.0, "lon": -77.044991, "name": "f0cccd1f60b2fac7a16d32f9cec8b8d1", "is_reserved": 0, "is_disabled": 0}, {"lat": 38.92232666666666, "fusion_lat": 0.0, "type": "electric_scooter", "bike_id": "99023d33fde1aa6b7c6b09c8bdef6e7b", "rental_uris": {"ios": "https://dc.lft.to/lastmile_qr_scan", "android": "https://dc.lft.to/lastmile_qr_scan"}, "fusion_lon": 0.0, "lon": -77.01831066666666, "name": "99023d33fde1aa6b7c6b09c8bdef6e7b", "is_reserved": 0, "is_disabled": 0}, {"lat": 38.91635383333333, "fusion_lat": 0.0, "type": "electric_scooter", "bike_id": "0f551ea107581bd4ca94f9fae11d458d", "rental_uris": {"ios": "https://dc.lft.to/lastmile_qr_scan", "android": "https://dc.lft.to/lastmile_qr_scan"}, "fusion_lon": 0.0, "lon": -77.02228283333334, "name": "0f551ea107581bd4ca94f9fae11d458d", "is_reserved": 0, "is_disabled": 0}, {"lat": 38.884988166666666, "fusion_lat": 0.0, "type": "electric_scooter", "bike_id": "27f4bc44501c9787f51d28d12ad40c16", "rental_uris": {"ios": "https://dc.lft.to/lastmile_qr_scan", "android": "https://dc.lft.to/lastmile_qr_scan"}, "fusion_lon": 0.0, "lon": -77.0297055, "name": "27f4bc44501c9787f51d28d12ad40c16", "is_reserved": 0, "is_disabled": 0}, {"lat": 38.902725833333335, "fusion_lat": 0.0, "type": "electric_scooter", "bike_id": "421fc9adb6eaab31777a7a65c11c65b3", "rental_uris": {"ios": "https://dc.lft.to/lastmile_qr_scan", "android": "https://dc.lft.to/lastmile_qr_scan"}, "fusion_lon": 0.0, "lon": -77.0357955, "name": "421fc9adb6eaab31777a7a65c11c65b3", "is_reserved": 0, "is_disabled": 0}, {"lat": 38.9174755, "fusion_lat": 0.0, "type": "electric_scooter", "bike_id": "fcae41ca4d875f314f534347453b85db", "rental_uris": {"ios": "https://dc.lft.to/lastmile_qr_scan", "android": "https://dc.lft.to/lastmile_qr_scan"}, "fusion_lon": 0.0, "lon": -77.03176066666667, "name": "fcae41ca4d875f314f534347453b85db", "is_reserved": 0, "is_disabled": 0}, {"lat": 38.87982816666667, "fusion_lat": 0.0, "type": "electric_bike", "bike_id": "f6ea7a60cfb5c127382eb5f7b5de76a7", "rental_uris": {"ios": "https://dc.lft.to/lastmile_qr_scan", "android": "https://dc.lft.to/lastmile_qr_scan"}, "fusion_lon": 0.0, "lon": -76.98475983333333, "name": "f6ea7a60cfb5c127382eb5f7b5de76a7", "is_reserved": 0, "is_disabled": 0}, {"lat": 38.925371166666665, "fusion_lat": 0.0, "type": "electric_scooter", "bike_id": "6c306832150669dd4f3c2ab173c94021", "rental_uris": {"ios": "https://dc.lft.to/lastmile_qr_scan", "android": "https://dc.lft.to/lastmile_qr_scan"}, "fusion_lon": 0.0, "lon": -77.03869333333333, "name": "6c306832150669dd4f3c2ab173c94021", "is_reserved": 0, "is_disabled": 0}, {"lat": 38.916974333333336, "fusion_lat": 0.0, "type": "electric_scooter", "bike_id": "7344b36e1b7d28f8bf7b3817ec11f5ef", "rental_uris": {"ios": "https://dc.lft.to/lastmile_qr_scan", "android": "https://dc.lft.to/lastmile_qr_scan"}, "fusion_lon": 0.0, "lon": -77.02490283333333, "name": "7344b36e1b7d28f8bf7b3817ec11f5ef", "is_reserved": 0, "is_disabled": 0}, {"lat": 38.933274, "fusion_lat": 0.0, "type": "electric_scooter", "bike_id": "168a5ae96cbf6a0d3be5969f718c7403", "rental_uris": {"ios": "https://dc.lft.to/lastmile_qr_scan", "android": "https://dc.lft.to/lastmile_qr_scan"}, "fusion_lon": 0.0, "lon": -77.02908183333334, "name": "168a5ae96cbf6a0d3be5969f718c7403", "is_reserved": 0, "is_disabled": 0}, {"lat": 38.91541266666667, "fusion_lat": 0.0, "type": "electric_scooter", "bike_id": "aa38ce20e8892656bffef355e57e6d78", "rental_uris": {"ios": "https://dc.lft.to/lastmile_qr_scan", "android": "https://dc.lft.to/lastmile_qr_scan"}, "fusion_lon": 0.0, "lon": -76.98360733333334, "name": "aa38ce20e8892656bffef355e57e6d78", "is_reserved": 0, "is_disabled": 0}, {"lat": 38.92490333333333, "fusion_lat": 0.0, "type": "electric_scooter", "bike_id": "38b98b9ee9384d76d23e1ac2fda31f56", "rental_uris": {"ios": "https://dc.lft.to/lastmile_qr_scan", "android": "https://dc.lft.to/lastmile_qr_scan"}, "fusion_lon": 0.0, "lon": -77.03924366666666, "name": "38b98b9ee9384d76d23e1ac2fda31f56", "is_reserved": 0, "is_disabled": 0}, {"lat": 38.952, "fusion_lat": 0.0, "type": "electric_scooter", "bike_id": "71e9d7590305c8c8c0e8af14cd68942a", "rental_uris": {"ios": "https://dc.lft.to/lastmile_qr_scan", "android": "https://dc.lft.to/lastmile_qr_scan"}, "fusion_lon": 0.0, "lon": -77.02736966666667, "name": "71e9d7590305c8c8c0e8af14cd68942a", "is_reserved": 0, "is_disabled": 0}, {"lat": 38.8956875, "fusion_lat": 0.0, "type": "electric_scooter", "bike_id": "d4469c09b3aab482b116aabab80841a5", "rental_uris": {"ios": "https://dc.lft.to/lastmile_qr_scan", "android": "https://dc.lft.to/lastmile_qr_scan"}, "fusion_lon": 0.0, "lon": -77.02176266666666, "name": "d4469c09b3aab482b116aabab80841a5", "is_reserved": 0, "is_disabled": 0}, {"lat": 38.9180015, "fusion_lat": 0.0, "type": "electric_scooter", "bike_id": "747a52e5f1a0858ebc650c62b437c5e5", "rental_uris": {"ios": "https://dc.lft.to/lastmile_qr_scan", "android": "https://dc.lft.to/lastmile_qr_scan"}, "fusion_lon": 0.0, "lon": -77.04157666666667, "name": "747a52e5f1a0858ebc650c62b437c5e5", "is_reserved": 0, "is_disabled": 0}, {"lat": 38.961257, "fusion_lat": 0.0, "type": "electric_bike", "bike_id": "25e0b7cd9ac41169695739cfc68f80ad", "rental_uris": {"ios": "https://dc.lft.to/lastmile_qr_scan", "android": "https://dc.lft.to/lastmile_qr_scan"}, "fusion_lon": 0.0, "lon": -77.03275316666667, "name": "25e0b7cd9ac41169695739cfc68f80ad", "is_reserved": 0, "is_disabled": 0}, {"lat": 38.918149666666665, "fusion_lat": 0.0, "type": "electric_scooter", "bike_id": "b2074c26fcf629e8b3af243b347f01e7", "rental_uris": {"ios": "https://dc.lft.to/lastmile_qr_scan", "android": "https://dc.lft.to/lastmile_qr_scan"}, "fusion_lon": 0.0, "lon": -77.025629, "name": "b2074c26fcf629e8b3af243b347f01e7", "is_reserved": 0, "is_disabled": 0}, {"lat": 38.9232625, "fusion_lat": 0.0, "type": "electric_scooter", "bike_id": "e6b7ccf255f4a7a315eb5417f754bf40", "rental_uris": {"ios": "https://dc.lft.to/lastmile_qr_scan", "android": "https://dc.lft.to/lastmile_qr_scan"}, "fusion_lon": 0.0, "lon": -77.029741, "name": "e6b7ccf255f4a7a315eb5417f754bf40", "is_reserved": 0, "is_disabled": 0}, {"lat": 38.92407333333333, "fusion_lat": 0.0, "type": "electric_scooter", "bike_id": "023cfe312565952ec47ee5c7797f7ec5", "rental_uris": {"ios": "https://dc.lft.to/lastmile_qr_scan", "android": "https://dc.lft.to/lastmile_qr_scan"}, "fusion_lon": 0.0, "lon": -77.02088333333333, "name": "023cfe312565952ec47ee5c7797f7ec5", "is_reserved": 0, "is_disabled": 0}, {"lat": 38.9198835, "fusion_lat": 0.0, "type": "electric_scooter", "bike_id": "fd4daaa196feda827715eb3dc51938d4", "rental_uris": {"ios": "https://dc.lft.to/lastmile_qr_scan", "android": "https://dc.lft.to/lastmile_qr_scan"}, "fusion_lon": 0.0, "lon": -77.01814383333334, "name": "fd4daaa196feda827715eb3dc51938d4", "is_reserved": 0, "is_disabled": 0}, {"lat": 38.91362316666667, "fusion_lat": 0.0, "type": "electric_scooter", "bike_id": "a1e383bffb8ec5f99369904355b2bb76", "rental_uris": {"ios": "https://dc.lft.to/lastmile_qr_scan", "android": "https://dc.lft.to/lastmile_qr_scan"}, "fusion_lon": 0.0, "lon": -77.01999733333334, "name": "a1e383bffb8ec5f99369904355b2bb76", "is_reserved": 0, "is_disabled": 0}, {"lat": 38.8742615, "fusion_lat": 0.0, "type": "electric_scooter", "bike_id": "d871f32e0c7353f532a877914b45c0e4", "rental_uris": {"ios": "https://dc.lft.to/lastmile_qr_scan", "android": "https://dc.lft.to/lastmile_qr_scan"}, "fusion_lon": 0.0, "lon": -77.0005665, "name": "d871f32e0c7353f532a877914b45c0e4", "is_reserved": 0, "is_disabled": 0}, {"lat": 38.8968915, "fusion_lat": 0.0, "type": "electric_scooter", "bike_id": "ecd2b377995092a4d0a31201d41eccf1", "rental_uris": {"ios": "https://dc.lft.to/lastmile_qr_scan", "android": "https://dc.lft.to/lastmile_qr_scan"}, "fusion_lon": 0.0, "lon": -76.937121, "name": "ecd2b377995092a4d0a31201d41eccf1", "is_reserved": 0, "is_disabled": 0}, {"lat": 38.9105545, "fusion_lat": 0.0, "type": "electric_scooter", "bike_id": "056a773a8857c0303e1976adf6651ac8", "rental_uris": {"ios": "https://dc.lft.to/lastmile_qr_scan", "android": "https://dc.lft.to/lastmile_qr_scan"}, "fusion_lon": 0.0, "lon": -77.0342795, "name": "056a773a8857c0303e1976adf6651ac8", "is_reserved": 0, "is_disabled": 0}, {"lat": 38.914089, "fusion_lat": 0.0, "type": "electric_scooter", "bike_id": "6a67de86d552afdbcb535aad10757877", "rental_uris": {"ios": "https://dc.lft.to/lastmile_qr_scan", "android": "https://dc.lft.to/lastmile_qr_scan"}, "fusion_lon": 0.0, "lon": -77.04007583333333, "name": "6a67de86d552afdbcb535aad10757877", "is_reserved": 0, "is_disabled": 0}, {"lat": 38.9006405, "fusion_lat": 0.0, "type": "electric_scooter", "bike_id": "566510a37266b325ff05529a3073d431", "rental_uris": {"ios": "https://dc.lft.to/lastmile_qr_scan", "android": "https://dc.lft.to/lastmile_qr_scan"}, "fusion_lon": 0.0, "lon": -77.0505635, "name": "566510a37266b325ff05529a3073d431", "is_reserved": 0, "is_disabled": 0}, {"lat": 38.925842833333334, "fusion_lat": 0.0, "type": "electric_scooter", "bike_id": "c01992131c3f03e382e5ff25f7e7edf2", "rental_uris": {"ios": "https://dc.lft.to/lastmile_qr_scan", "android": "https://dc.lft.to/lastmile_qr_scan"}, "fusion_lon": 0.0, "lon": -77.09687483333333, "name": "c01992131c3f03e382e5ff25f7e7edf2", "is_reserved": 0, "is_disabled": 0}, {"lat": 38.923516166666666, "fusion_lat": 0.0, "type": "electric_scooter", "bike_id": "caee1e7620cd94713710594af327ed3c", "rental_uris": {"ios": "https://dc.lft.to/lastmile_qr_scan", "android": "https://dc.lft.to/lastmile_qr_scan"}, "fusion_lon": 0.0, "lon": -77.00334016666666, "name": "caee1e7620cd94713710594af327ed3c", "is_reserved": 0, "is_disabled": 0}, {"lat": 38.917239, "fusion_lat": 0.0, "type": "electric_scooter", "bike_id": "911ff342452621150cf4404d42bffcd3", "rental_uris": {"ios": "https://dc.lft.to/lastmile_qr_scan", "android": "https://dc.lft.to/lastmile_qr_scan"}, "fusion_lon": 0.0, "lon": -77.025925, "name": "911ff342452621150cf4404d42bffcd3", "is_reserved": 0, "is_disabled": 0}, {"lat": 38.892197833333334, "fusion_lat": 0.0, "type": "electric_scooter", "bike_id": "54c07d24b71f31f2663e68bd5dc6c01b", "rental_uris": {"ios": "https://dc.lft.to/lastmile_qr_scan", "android": "https://dc.lft.to/lastmile_qr_scan"}, "fusion_lon": 0.0, "lon": -77.02777666666667, "name": "54c07d24b71f31f2663e68bd5dc6c01b", "is_reserved": 0, "is_disabled": 0}, {"lat": 38.91130166666667, "fusion_lat": 0.0, "type": "electric_bike", "bike_id": "58599bbf068a35a7e900ad9d64e7248f", "rental_uris": {"ios": "https://dc.lft.to/lastmile_qr_scan", "android": "https://dc.lft.to/lastmile_qr_scan"}, "fusion_lon": 0.0, "lon": -77.0658515, "name": "58599bbf068a35a7e900ad9d64e7248f", "is_reserved": 0, "is_disabled": 0}, {"lat": 38.917986666666664, "fusion_lat": 0.0, "type": "electric_scooter", "bike_id": "2ba09b3c27cf3151a4c4d180c1d858e0", "rental_uris": {"ios": "https://dc.lft.to/lastmile_qr_scan", "android": "https://dc.lft.to/lastmile_qr_scan"}, "fusion_lon": 0.0, "lon": -77.0248585, "name": "2ba09b3c27cf3151a4c4d180c1d858e0", "is_reserved": 0, "is_disabled": 0}, {"lat": 38.934414, "fusion_lat": 0.0, "type": "electric_scooter", "bike_id": "409adbab92858315933ec693010186ca", "rental_uris": {"ios": "https://dc.lft.to/lastmile_qr_scan", "android": "https://dc.lft.to/lastmile_qr_scan"}, "fusion_lon": 0.0, "lon": -77.09061333333334, "name": "409adbab92858315933ec693010186ca", "is_reserved": 0, "is_disabled": 0}, {"lat": 38.898979833333335, "fusion_lat": 0.0, "type": "electric_scooter", "bike_id": "bf6e19f76c68cfaa60f6a2d3b1a00554", "rental_uris": {"ios": "https://dc.lft.to/lastmile_qr_scan", "android": "https://dc.lft.to/lastmile_qr_scan"}, "fusion_lon": 0.0, "lon": -76.99964566666667, "name": "bf6e19f76c68cfaa60f6a2d3b1a00554", "is_reserved": 0, "is_disabled": 0}, {"lat": 38.917573, "fusion_lat": 0.0, "type": "electric_scooter", "bike_id": "e77fb32e178bac9fa765df38787ba386", "rental_uris": {"ios": "https://dc.lft.to/lastmile_qr_scan", "android": "https://dc.lft.to/lastmile_qr_scan"}, "fusion_lon": 0.0, "lon": -77.0364585, "name": "e77fb32e178bac9fa765df38787ba386", "is_reserved": 0, "is_disabled": 0}, {"lat": 38.875777666666664, "fusion_lat": 0.0, "type": "electric_bike", "bike_id": "214f02700a008ba19d863703214ee4ca", "rental_uris": {"ios": "https://dc.lft.to/lastmile_qr_scan", "android": "https://dc.lft.to/lastmile_qr_scan"}, "fusion_lon": 0.0, "lon": -77.2341035, "name": "214f02700a008ba19d863703214ee4ca", "is_reserved": 0, "is_disabled": 0}, {"lat": 38.90156366666667, "fusion_lat": 0.0, "type": "electric_scooter", "bike_id": "1cd9822e3f4bc9922b1477574ec16618", "rental_uris": {"ios": "https://dc.lft.to/lastmile_qr_scan", "android": "https://dc.lft.to/lastmile_qr_scan"}, "fusion_lon": 0.0, "lon": -77.02602666666667, "name": "1cd9822e3f4bc9922b1477574ec16618", "is_reserved": 0, "is_disabled": 0}, {"lat": 38.96161383333333, "fusion_lat": 0.0, "type": "electric_scooter", "bike_id": "ca2b6b768b9d9742b2c37b005d27a42f", "rental_uris": {"ios": "https://dc.lft.to/lastmile_qr_scan", "android": "https://dc.lft.to/lastmile_qr_scan"}, "fusion_lon": 0.0, "lon": -77.07350616666666, "name": "ca2b6b768b9d9742b2c37b005d27a42f", "is_reserved": 0, "is_disabled": 0}, {"lat": 38.907545, "fusion_lat": 0.0, "type": "electric_scooter", "bike_id": "98875bd6635a70310cbbbe0417f34fd6", "rental_uris": {"ios": "https://dc.lft.to/lastmile_qr_scan", "android": "https://dc.lft.to/lastmile_qr_scan"}, "fusion_lon": 0.0, "lon": -77.04343266666666, "name": "98875bd6635a70310cbbbe0417f34fd6", "is_reserved": 0, "is_disabled": 0}, {"lat": 38.915287, "fusion_lat": 0.0, "type": "electric_scooter", "bike_id": "b57be5513d03f0780b0a1c6e885a7e01", "rental_uris": {"ios": "https://dc.lft.to/lastmile_qr_scan", "android": "https://dc.lft.to/lastmile_qr_scan"}, "fusion_lon": 0.0, "lon": -77.048607, "name": "b57be5513d03f0780b0a1c6e885a7e01", "is_reserved": 0, "is_disabled": 0}, {"lat": 38.91326866666667, "fusion_lat": 0.0, "type": "electric_scooter", "bike_id": "885c88843c138602b4d1343bfecf519c", "rental_uris": {"ios": "https://dc.lft.to/lastmile_qr_scan", "android": "https://dc.lft.to/lastmile_qr_scan"}, "fusion_lon": 0.0, "lon": -77.04859616666667, "name": "885c88843c138602b4d1343bfecf519c", "is_reserved": 0, "is_disabled": 0}, {"lat": 38.899396333333335, "fusion_lat": 0.0, "type": "electric_scooter", "bike_id": "1272c3aaff27fe927270c3070e052e0c", "rental_uris": {"ios": "https://dc.lft.to/lastmile_qr_scan", "android": "https://dc.lft.to/lastmile_qr_scan"}, "fusion_lon": 0.0, "lon": -77.01450166666666, "name": "1272c3aaff27fe927270c3070e052e0c", "is_reserved": 0, "is_disabled": 0}, {"lat": 38.89761283333333, "fusion_lat": 0.0, "type": "electric_scooter", "bike_id": "dc2ff769db1f54bd6af858baa03594df", "rental_uris": {"ios": "https://dc.lft.to/lastmile_qr_scan", "android": "https://dc.lft.to/lastmile_qr_scan"}, "fusion_lon": 0.0, "lon": -77.02112633333333, "name": "dc2ff769db1f54bd6af858baa03594df", "is_reserved": 0, "is_disabled": 0}, {"lat": 38.918602166666666, "fusion_lat": 0.0, "type": "electric_scooter", "bike_id": "7ee555f70eec766a30c8d82aeab6551d", "rental_uris": {"ios": "https://dc.lft.to/lastmile_qr_scan", "android": "https://dc.lft.to/lastmile_qr_scan"}, "fusion_lon": 0.0, "lon": -77.04166116666667, "name": "7ee555f70eec766a30c8d82aeab6551d", "is_reserved": 0, "is_disabled": 0}, {"lat": 38.91322866666667, "fusion_lat": 0.0, "type": "electric_scooter", "bike_id": "d8932cdd37b8dc47d0d2022ae34747e2", "rental_uris": {"ios": "https://dc.lft.to/lastmile_qr_scan", "android": "https://dc.lft.to/lastmile_qr_scan"}, "fusion_lon": 0.0, "lon": -77.04542566666667, "name": "d8932cdd37b8dc47d0d2022ae34747e2", "is_reserved": 0, "is_disabled": 0}, {"lat": 38.918145333333335, "fusion_lat": 0.0, "type": "electric_scooter", "bike_id": "6f9a23b578b3533624a22db65305d608", "rental_uris": {"ios": "https://dc.lft.to/lastmile_qr_scan", "android": "https://dc.lft.to/lastmile_qr_scan"}, "fusion_lon": 0.0, "lon": -77.02674066666667, "name": "6f9a23b578b3533624a22db65305d608", "is_reserved": 0, "is_disabled": 0}, {"lat": 38.9158705, "fusion_lat": 0.0, "type": "electric_scooter", "bike_id": "32f597aa167efef896477b7e9e73caa3", "rental_uris": {"ios": "https://dc.lft.to/lastmile_qr_scan", "android": "https://dc.lft.to/lastmile_qr_scan"}, "fusion_lon": 0.0, "lon": -77.02397216666667, "name": "32f597aa167efef896477b7e9e73caa3", "is_reserved": 0, "is_disabled": 0}, {"lat": 38.891971833333336, "fusion_lat": 0.0, "type": "electric_scooter", "bike_id": "d2431cefd384e0305cd50a8e117b192b", "rental_uris": {"ios": "https://dc.lft.to/lastmile_qr_scan", "android": "https://dc.lft.to/lastmile_qr_scan"}, "fusion_lon": 0.0, "lon": -76.99389633333334, "name": "d2431cefd384e0305cd50a8e117b192b", "is_reserved": 0, "is_disabled": 0}, {"lat": 38.92376633333333, "fusion_lat": 0.0, "type": "electric_scooter", "bike_id": "a1ec062799c37eb3f4f476fe625c97fa", "rental_uris": {"ios": "https://dc.lft.to/lastmile_qr_scan", "android": "https://dc.lft.to/lastmile_qr_scan"}, "fusion_lon": 0.0, "lon": -77.019482, "name": "a1ec062799c37eb3f4f476fe625c97fa", "is_reserved": 0, "is_disabled": 0}, {"lat": 38.876512, "fusion_lat": 0.0, "type": "electric_scooter", "bike_id": "63465feb117996a9cd270f37d052e787", "rental_uris": {"ios": "https://dc.lft.to/lastmile_qr_scan", "android": "https://dc.lft.to/lastmile_qr_scan"}, "fusion_lon": 0.0, "lon": -77.001269, "name": "63465feb117996a9cd270f37d052e787", "is_reserved": 0, "is_disabled": 0}, {"lat": 38.918465166666664, "fusion_lat": 0.0, "type": "electric_scooter", "bike_id": "294fed7c7d550dacd521bfae28461036", "rental_uris": {"ios": "https://dc.lft.to/lastmile_qr_scan", "android": "https://dc.lft.to/lastmile_qr_scan"}, "fusion_lon": 0.0, "lon": -77.04504616666667, "name": "294fed7c7d550dacd521bfae28461036", "is_reserved": 0, "is_disabled": 0}, {"lat": 38.900126666666665, "fusion_lat": 0.0, "type": "electric_scooter", "bike_id": "4b35e644af38b322d6308eac6fc47a6c", "rental_uris": {"ios": "https://dc.lft.to/lastmile_qr_scan", "android": "https://dc.lft.to/lastmile_qr_scan"}, "fusion_lon": 0.0, "lon": -77.01261533333333, "name": "4b35e644af38b322d6308eac6fc47a6c", "is_reserved": 0, "is_disabled": 0}, {"lat": 39.010727333333335, "fusion_lat": 0.0, "type": "electric_bike", "bike_id": "3ff505227834a4138c977bac3794e086", "rental_uris": {"ios": "https://dc.lft.to/lastmile_qr_scan", "android": "https://dc.lft.to/lastmile_qr_scan"}, "fusion_lon": 0.0, "lon": -76.91057316666667, "name": "3ff505227834a4138c977bac3794e086", "is_reserved": 0, "is_disabled": 0}, {"lat": 38.91331866666667, "fusion_lat": 0.0, "type": "electric_scooter", "bike_id": "ecf014684ee8724a764e285a04c57567", "rental_uris": {"ios": "https://dc.lft.to/lastmile_qr_scan", "android": "https://dc.lft.to/lastmile_qr_scan"}, "fusion_lon": 0.0, "lon": -77.01626583333334, "name": "ecf014684ee8724a764e285a04c57567", "is_reserved": 0, "is_disabled": 0}, {"lat": 38.90973983333333, "fusion_lat": 0.0, "type": "electric_scooter", "bike_id": "fb3022805e8f38598c6e2474b3c5ae38", "rental_uris": {"ios": "https://dc.lft.to/lastmile_qr_scan", "android": "https://dc.lft.to/lastmile_qr_scan"}, "fusion_lon": 0.0, "lon": -77.02457966666667, "name": "fb3022805e8f38598c6e2474b3c5ae38", "is_reserved": 0, "is_disabled": 0}, {"lat": 38.892202833333336, "fusion_lat": 0.0, "type": "electric_scooter", "bike_id": "6f2270c079310b8748a4600dfc7fe3a0", "rental_uris": {"ios": "https://dc.lft.to/lastmile_qr_scan", "android": "https://dc.lft.to/lastmile_qr_scan"}, "fusion_lon": 0.0, "lon": -77.04200416666667, "name": "6f2270c079310b8748a4600dfc7fe3a0", "is_reserved": 0, "is_disabled": 0}, {"lat": 38.89916216666667, "fusion_lat": 0.0, "type": "electric_scooter", "bike_id": "5d9e8d51e0edabec44ea7c8a2b00053a", "rental_uris": {"ios": "https://dc.lft.to/lastmile_qr_scan", "android": "https://dc.lft.to/lastmile_qr_scan"}, "fusion_lon": 0.0, "lon": -77.02819216666667, "name": "5d9e8d51e0edabec44ea7c8a2b00053a", "is_reserved": 0, "is_disabled": 0}, {"lat": 38.89579066666667, "fusion_lat": 0.0, "type": "electric_scooter", "bike_id": "d3743dc5b732f24486c4c8baf1501323", "rental_uris": {"ios": "https://dc.lft.to/lastmile_qr_scan", "android": "https://dc.lft.to/lastmile_qr_scan"}, "fusion_lon": 0.0, "lon": -76.98323666666667, "name": "d3743dc5b732f24486c4c8baf1501323", "is_reserved": 0, "is_disabled": 0}, {"lat": 38.913625, "fusion_lat": 0.0, "type": "electric_scooter", "bike_id": "a7776c9bed4799ab3104a6d7f26f0cb5", "rental_uris": {"ios": "https://dc.lft.to/lastmile_qr_scan", "android": "https://dc.lft.to/lastmile_qr_scan"}, "fusion_lon": 0.0, "lon": -77.022426, "name": "a7776c9bed4799ab3104a6d7f26f0cb5", "is_reserved": 0, "is_disabled": 0}, {"lat": 38.90131816666667, "fusion_lat": 0.0, "type": "electric_scooter", "bike_id": "77af826d99cce7ee4864d834a4a5175b", "rental_uris": {"ios": "https://dc.lft.to/lastmile_qr_scan", "android": "https://dc.lft.to/lastmile_qr_scan"}, "fusion_lon": 0.0, "lon": -77.02786316666666, "name": "77af826d99cce7ee4864d834a4a5175b", "is_reserved": 0, "is_disabled": 0}, {"lat": 38.90009416666667, "fusion_lat": 0.0, "type": "electric_scooter", "bike_id": "aef165c1cecbaddb02357e2c66e85f77", "rental_uris": {"ios": "https://dc.lft.to/lastmile_qr_scan", "android": "https://dc.lft.to/lastmile_qr_scan"}, "fusion_lon": 0.0, "lon": -77.0466615, "name": "aef165c1cecbaddb02357e2c66e85f77", "is_reserved": 0, "is_disabled": 0}, {"lat": 38.966093666666666, "fusion_lat": 0.0, "type": "electric_scooter", "bike_id": "7aaacbcb40039133fbcf6e2220091a7a", "rental_uris": {"ios": "https://dc.lft.to/lastmile_qr_scan", "android": "https://dc.lft.to/lastmile_qr_scan"}, "fusion_lon": 0.0, "lon": -77.02743516666666, "name": "7aaacbcb40039133fbcf6e2220091a7a", "is_reserved": 0, "is_disabled": 0}, {"lat": 38.91567216666667, "fusion_lat": 0.0, "type": "electric_scooter", "bike_id": "422b7ceb2ebdf8639d12ebf4ef1f325e", "rental_uris": {"ios": "https://dc.lft.to/lastmile_qr_scan", "android": "https://dc.lft.to/lastmile_qr_scan"}, "fusion_lon": 0.0, "lon": -77.02188766666667, "name": "422b7ceb2ebdf8639d12ebf4ef1f325e", "is_reserved": 0, "is_disabled": 0}, {"lat": 38.914037666666665, "fusion_lat": 0.0, "type": "electric_scooter", "bike_id": "18e8922553989ee04a3db34134727d7f", "rental_uris": {"ios": "https://dc.lft.to/lastmile_qr_scan", "android": "https://dc.lft.to/lastmile_qr_scan"}, "fusion_lon": 0.0, "lon": -77.03173583333333, "name": "18e8922553989ee04a3db34134727d7f", "is_reserved": 0, "is_disabled": 0}, {"lat": 38.91806916666667, "fusion_lat": 0.0, "type": "electric_scooter", "bike_id": "235f3c4a13093be273a13fd8dfa83c7d", "rental_uris": {"ios": "https://dc.lft.to/lastmile_qr_scan", "android": "https://dc.lft.to/lastmile_qr_scan"}, "fusion_lon": 0.0, "lon": -77.02498333333334, "name": "235f3c4a13093be273a13fd8dfa83c7d", "is_reserved": 0, "is_disabled": 0}, {"lat": 38.862646, "fusion_lat": 0.0, "type": "electric_scooter", "bike_id": "aecb28753f83bf90eab08e9bb1089dc6", "rental_uris": {"ios": "https://dc.lft.to/lastmile_qr_scan", "android": "https://dc.lft.to/lastmile_qr_scan"}, "fusion_lon": 0.0, "lon": -76.99535116666667, "name": "aecb28753f83bf90eab08e9bb1089dc6", "is_reserved": 0, "is_disabled": 0}, {"lat": 38.91819866666667, "fusion_lat": 0.0, "type": "electric_scooter", "bike_id": "9de584d8c1c3a5857f9a569df66b467a", "rental_uris": {"ios": "https://dc.lft.to/lastmile_qr_scan", "android": "https://dc.lft.to/lastmile_qr_scan"}, "fusion_lon": 0.0, "lon": -77.03452233333333, "name": "9de584d8c1c3a5857f9a569df66b467a", "is_reserved": 0, "is_disabled": 0}, {"lat": 38.89883666666667, "fusion_lat": 0.0, "type": "electric_scooter", "bike_id": "9ac7f1dbd3273c51d4ce0272faa391d0", "rental_uris": {"ios": "https://dc.lft.to/lastmile_qr_scan", "android": "https://dc.lft.to/lastmile_qr_scan"}, "fusion_lon": 0.0, "lon": -77.01216183333334, "name": "9ac7f1dbd3273c51d4ce0272faa391d0", "is_reserved": 0, "is_disabled": 0}, {"lat": 38.92795533333334, "fusion_lat": 0.0, "type": "electric_scooter", "bike_id": "55a3a112a6b4932d70063d15441270f4", "rental_uris": {"ios": "https://dc.lft.to/lastmile_qr_scan", "android": "https://dc.lft.to/lastmile_qr_scan"}, "fusion_lon": 0.0, "lon": -77.02133183333333, "name": "55a3a112a6b4932d70063d15441270f4", "is_reserved": 0, "is_disabled": 0}, {"lat": 38.876178333333336, "fusion_lat": 0.0, "type": "electric_scooter", "bike_id": "f69ed5f28bd2bd291245e1c44382df10", "rental_uris": {"ios": "https://dc.lft.to/lastmile_qr_scan", "android": "https://dc.lft.to/lastmile_qr_scan"}, "fusion_lon": 0.0, "lon": -76.96546466666666, "name": "f69ed5f28bd2bd291245e1c44382df10", "is_reserved": 0, "is_disabled": 0}, {"lat": 38.9339435, "fusion_lat": 0.0, "type": "electric_scooter", "bike_id": "0b07a7280c38f0caa2cffb85a30cf8fa", "rental_uris": {"ios": "https://dc.lft.to/lastmile_qr_scan", "android": "https://dc.lft.to/lastmile_qr_scan"}, "fusion_lon": 0.0, "lon": -77.05744183333333, "name": "0b07a7280c38f0caa2cffb85a30cf8fa", "is_reserved": 0, "is_disabled": 0}, {"lat": 38.8973885, "fusion_lat": 0.0, "type": "electric_scooter", "bike_id": "97747b833c518810e47a5cc2c87bc9d2", "rental_uris": {"ios": "https://dc.lft.to/lastmile_qr_scan", "android": "https://dc.lft.to/lastmile_qr_scan"}, "fusion_lon": 0.0, "lon": -77.0096755, "name": "97747b833c518810e47a5cc2c87bc9d2", "is_reserved": 0, "is_disabled": 0}, {"lat": 38.90143233333333, "fusion_lat": 0.0, "type": "electric_scooter", "bike_id": "08fe3a41c57b6533b5264cf165f559c1", "rental_uris": {"ios": "https://dc.lft.to/lastmile_qr_scan", "android": "https://dc.lft.to/lastmile_qr_scan"}, "fusion_lon": 0.0, "lon": -76.9742685, "name": "08fe3a41c57b6533b5264cf165f559c1", "is_reserved": 0, "is_disabled": 0}, {"lat": 38.91993016666667, "fusion_lat": 0.0, "type": "electric_scooter", "bike_id": "db6ff40c2d7d11cc4e699715244e987a", "rental_uris": {"ios": "https://dc.lft.to/lastmile_qr_scan", "android": "https://dc.lft.to/lastmile_qr_scan"}, "fusion_lon": 0.0, "lon": -76.9730475, "name": "db6ff40c2d7d11cc4e699715244e987a", "is_reserved": 0, "is_disabled": 0}, {"lat": 38.89799266666667, "fusion_lat": 0.0, "type": "electric_scooter", "bike_id": "d9fb9dad72de70b18cabc4a9febd50ea", "rental_uris": {"ios": "https://dc.lft.to/lastmile_qr_scan", "android": "https://dc.lft.to/lastmile_qr_scan"}, "fusion_lon": 0.0, "lon": -77.04202366666667, "name": "d9fb9dad72de70b18cabc4a9febd50ea", "is_reserved": 0, "is_disabled": 0}, {"lat": 38.911074166666666, "fusion_lat": 0.0, "type": "electric_scooter", "bike_id": "f167779e4d8a000e90578d4154250052", "rental_uris": {"ios": "https://dc.lft.to/lastmile_qr_scan", "android": "https://dc.lft.to/lastmile_qr_scan"}, "fusion_lon": 0.0, "lon": -77.030811, "name": "f167779e4d8a000e90578d4154250052", "is_reserved": 0, "is_disabled": 0}, {"lat": 38.90490716666667, "fusion_lat": 0.0, "type": "electric_scooter", "bike_id": "61ceef125dedf9c3087ff0b8aebddbca", "rental_uris": {"ios": "https://dc.lft.to/lastmile_qr_scan", "android": "https://dc.lft.to/lastmile_qr_scan"}, "fusion_lon": 0.0, "lon": -77.02810116666667, "name": "61ceef125dedf9c3087ff0b8aebddbca", "is_reserved": 0, "is_disabled": 0}, {"lat": 38.920306, "fusion_lat": 0.0, "type": "electric_scooter", "bike_id": "593e245a3e9ecc00b99b046fd821f271", "rental_uris": {"ios": "https://dc.lft.to/lastmile_qr_scan", "android": "https://dc.lft.to/lastmile_qr_scan"}, "fusion_lon": 0.0, "lon": -77.01221583333333, "name": "593e245a3e9ecc00b99b046fd821f271", "is_reserved": 0, "is_disabled": 0}, {"lat": 38.8876185, "fusion_lat": 0.0, "type": "electric_scooter", "bike_id": "e28fcf61d9cd87546d7ab798fd8f23bc", "rental_uris": {"ios": "https://dc.lft.to/lastmile_qr_scan", "android": "https://dc.lft.to/lastmile_qr_scan"}, "fusion_lon": 0.0, "lon": -76.98298716666666, "name": "e28fcf61d9cd87546d7ab798fd8f23bc", "is_reserved": 0, "is_disabled": 0}, {"lat": 38.915888833333334, "fusion_lat": 0.0, "type": "electric_scooter", "bike_id": "ffd72bdc1095d7e40a9ee5391143efda", "rental_uris": {"ios": "https://dc.lft.to/lastmile_qr_scan", "android": "https://dc.lft.to/lastmile_qr_scan"}, "fusion_lon": 0.0, "lon": -77.01488033333334, "name": "ffd72bdc1095d7e40a9ee5391143efda", "is_reserved": 0, "is_disabled": 0}, {"lat": 38.89970566666667, "fusion_lat": 0.0, "type": "electric_scooter", "bike_id": "442faaea50f0af6693f36939d6d3f1e0", "rental_uris": {"ios": "https://dc.lft.to/lastmile_qr_scan", "android": "https://dc.lft.to/lastmile_qr_scan"}, "fusion_lon": 0.0, "lon": -77.02081116666666, "name": "442faaea50f0af6693f36939d6d3f1e0", "is_reserved": 0, "is_disabled": 0}, {"lat": 38.90746566666667, "fusion_lat": 0.0, "type": "electric_scooter", "bike_id": "fc75e911bd912141a5120baf4ed765cd", "rental_uris": {"ios": "https://dc.lft.to/lastmile_qr_scan", "android": "https://dc.lft.to/lastmile_qr_scan"}, "fusion_lon": 0.0, "lon": -77.0359905, "name": "fc75e911bd912141a5120baf4ed765cd", "is_reserved": 0, "is_disabled": 0}, {"lat": 38.93211683333333, "fusion_lat": 0.0, "type": "electric_scooter", "bike_id": "9c5c74b48ad90b949e587ce792d2a07d", "rental_uris": {"ios": "https://dc.lft.to/lastmile_qr_scan", "android": "https://dc.lft.to/lastmile_qr_scan"}, "fusion_lon": 0.0, "lon": -77.035177, "name": "9c5c74b48ad90b949e587ce792d2a07d", "is_reserved": 0, "is_disabled": 0}, {"lat": 38.88384166666667, "fusion_lat": 0.0, "type": "electric_scooter", "bike_id": "bf3b6ff936ea868d954ca43cd44e8e8d", "rental_uris": {"ios": "https://dc.lft.to/lastmile_qr_scan", "android": "https://dc.lft.to/lastmile_qr_scan"}, "fusion_lon": 0.0, "lon": -76.99553316666666, "name": "bf3b6ff936ea868d954ca43cd44e8e8d", "is_reserved": 0, "is_disabled": 0}, {"lat": 38.90707666666667, "fusion_lat": 0.0, "type": "electric_scooter", "bike_id": "7d9310de58edabd23ba123f0c4ee5f43", "rental_uris": {"ios": "https://dc.lft.to/lastmile_qr_scan", "android": "https://dc.lft.to/lastmile_qr_scan"}, "fusion_lon": 0.0, "lon": -76.98700816666667, "name": "7d9310de58edabd23ba123f0c4ee5f43", "is_reserved": 0, "is_disabled": 0}, {"lat": 38.9007325, "fusion_lat": 0.0, "type": "electric_scooter", "bike_id": "8fbc59cc5fc0b7b8365bcef7a0f80009", "rental_uris": {"ios": "https://dc.lft.to/lastmile_qr_scan", "android": "https://dc.lft.to/lastmile_qr_scan"}, "fusion_lon": 0.0, "lon": -77.01716383333333, "name": "8fbc59cc5fc0b7b8365bcef7a0f80009", "is_reserved": 0, "is_disabled": 0}, {"lat": 38.920931, "fusion_lat": 0.0, "type": "electric_scooter", "bike_id": "0f6f88adbffff28a98292ac9dc212b6a", "rental_uris": {"ios": "https://dc.lft.to/lastmile_qr_scan", "android": "https://dc.lft.to/lastmile_qr_scan"}, "fusion_lon": 0.0, "lon": -77.07555516666666, "name": "0f6f88adbffff28a98292ac9dc212b6a", "is_reserved": 0, "is_disabled": 0}, {"lat": 38.89214283333333, "fusion_lat": 0.0, "type": "electric_scooter", "bike_id": "9ddfa6b5c6aa546e620a348fdaa22f75", "rental_uris": {"ios": "https://dc.lft.to/lastmile_qr_scan", "android": "https://dc.lft.to/lastmile_qr_scan"}, "fusion_lon": 0.0, "lon": -77.02661, "name": "9ddfa6b5c6aa546e620a348fdaa22f75", "is_reserved": 0, "is_disabled": 0}, {"lat": 38.91487516666667, "fusion_lat": 0.0, "type": "electric_scooter", "bike_id": "35157335ecce87350caf03d555a2b876", "rental_uris": {"ios": "https://dc.lft.to/lastmile_qr_scan", "android": "https://dc.lft.to/lastmile_qr_scan"}, "fusion_lon": 0.0, "lon": -77.01854183333333, "name": "35157335ecce87350caf03d555a2b876", "is_reserved": 0, "is_disabled": 0}, {"lat": 38.902262, "fusion_lat": 0.0, "type": "electric_scooter", "bike_id": "a51aac9962f34d7e51c910252437ae24", "rental_uris": {"ios": "https://dc.lft.to/lastmile_qr_scan", "android": "https://dc.lft.to/lastmile_qr_scan"}, "fusion_lon": 0.0, "lon": -76.9419915, "name": "a51aac9962f34d7e51c910252437ae24", "is_reserved": 0, "is_disabled": 0}, {"lat": 38.886086666666664, "fusion_lat": 0.0, "type": "electric_scooter", "bike_id": "f4578a8ea116093ecfc5ed1226e07050", "rental_uris": {"ios": "https://dc.lft.to/lastmile_qr_scan", "android": "https://dc.lft.to/lastmile_qr_scan"}, "fusion_lon": 0.0, "lon": -77.021689, "name": "f4578a8ea116093ecfc5ed1226e07050", "is_reserved": 0, "is_disabled": 0}, {"lat": 38.92492083333333, "fusion_lat": 0.0, "type": "electric_scooter", "bike_id": "32ad9f4747615068e795e98d0e326c86", "rental_uris": {"ios": "https://dc.lft.to/lastmile_qr_scan", "android": "https://dc.lft.to/lastmile_qr_scan"}, "fusion_lon": 0.0, "lon": -77.024543, "name": "32ad9f4747615068e795e98d0e326c86", "is_reserved": 0, "is_disabled": 0}, {"lat": 38.915129, "fusion_lat": 0.0, "type": "electric_scooter", "bike_id": "2ca7b0137c490d4123b7811386a496ee", "rental_uris": {"ios": "https://dc.lft.to/lastmile_qr_scan", "android": "https://dc.lft.to/lastmile_qr_scan"}, "fusion_lon": 0.0, "lon": -77.01907266666667, "name": "2ca7b0137c490d4123b7811386a496ee", "is_reserved": 0, "is_disabled": 0}, {"lat": 38.9005865, "fusion_lat": 0.0, "type": "electric_scooter", "bike_id": "d67f1ad8284bb0a920ab562c87b3e78c", "rental_uris": {"ios": "https://dc.lft.to/lastmile_qr_scan", "android": "https://dc.lft.to/lastmile_qr_scan"}, "fusion_lon": 0.0, "lon": -77.054324, "name": "d67f1ad8284bb0a920ab562c87b3e78c", "is_reserved": 0, "is_disabled": 0}, {"lat": 38.9147375, "fusion_lat": 0.0, "type": "electric_scooter", "bike_id": "4fb793bd2143d43df036c057f6062c88", "rental_uris": {"ios": "https://dc.lft.to/lastmile_qr_scan", "android": "https://dc.lft.to/lastmile_qr_scan"}, "fusion_lon": 0.0, "lon": -77.02463283333333, "name": "4fb793bd2143d43df036c057f6062c88", "is_reserved": 0, "is_disabled": 0}, {"lat": 38.90542083333333, "fusion_lat": 0.0, "type": "electric_scooter", "bike_id": "00f3761c46533801350f4b20302256a4", "rental_uris": {"ios": "https://dc.lft.to/lastmile_qr_scan", "android": "https://dc.lft.to/lastmile_qr_scan"}, "fusion_lon": 0.0, "lon": -76.99462066666666, "name": "00f3761c46533801350f4b20302256a4", "is_reserved": 0, "is_disabled": 0}, {"lat": 38.920238833333336, "fusion_lat": 0.0, "type": "electric_scooter", "bike_id": "7d911767c7e06217a22d04e70ad64989", "rental_uris": {"ios": "https://dc.lft.to/lastmile_qr_scan", "android": "https://dc.lft.to/lastmile_qr_scan"}, "fusion_lon": 0.0, "lon": -77.038509, "name": "7d911767c7e06217a22d04e70ad64989", "is_reserved": 0, "is_disabled": 0}, {"lat": 38.924351333333334, "fusion_lat": 0.0, "type": "electric_scooter", "bike_id": "c0fa83831eda4a96e78aaffb04a023db", "rental_uris": {"ios": "https://dc.lft.to/lastmile_qr_scan", "android": "https://dc.lft.to/lastmile_qr_scan"}, "fusion_lon": 0.0, "lon": -77.02022016666666, "name": "c0fa83831eda4a96e78aaffb04a023db", "is_reserved": 0, "is_disabled": 0}, {"lat": 38.9196175, "fusion_lat": 0.0, "type": "electric_scooter", "bike_id": "a7b24bb31db311fc10a7e9300b91b6a0", "rental_uris": {"ios": "https://dc.lft.to/lastmile_qr_scan", "android": "https://dc.lft.to/lastmile_qr_scan"}, "fusion_lon": 0.0, "lon": -77.014942, "name": "a7b24bb31db311fc10a7e9300b91b6a0", "is_reserved": 0, "is_disabled": 0}, {"lat": 38.9326595, "fusion_lat": 0.0, "type": "electric_scooter", "bike_id": "c6b6d3c61bf5910355a00af9781e8c05", "rental_uris": {"ios": "https://dc.lft.to/lastmile_qr_scan", "android": "https://dc.lft.to/lastmile_qr_scan"}, "fusion_lon": 0.0, "lon": -77.03267133333334, "name": "c6b6d3c61bf5910355a00af9781e8c05", "is_reserved": 0, "is_disabled": 0}, {"lat": 38.90986983333333, "fusion_lat": 0.0, "type": "electric_scooter", "bike_id": "a08989a72a4cc5cbdcdbd2a480b61170", "rental_uris": {"ios": "https://dc.lft.to/lastmile_qr_scan", "android": "https://dc.lft.to/lastmile_qr_scan"}, "fusion_lon": 0.0, "lon": -77.07348283333333, "name": "a08989a72a4cc5cbdcdbd2a480b61170", "is_reserved": 0, "is_disabled": 0}, {"lat": 38.9149235, "fusion_lat": 0.0, "type": "electric_scooter", "bike_id": "e44e72933b9b800039f62394dba5c2dd", "rental_uris": {"ios": "https://dc.lft.to/lastmile_qr_scan", "android": "https://dc.lft.to/lastmile_qr_scan"}, "fusion_lon": 0.0, "lon": -76.98369566666666, "name": "e44e72933b9b800039f62394dba5c2dd", "is_reserved": 0, "is_disabled": 0}, {"lat": 38.897377666666664, "fusion_lat": 0.0, "type": "electric_scooter", "bike_id": "9ab303c0f5d46cb275f159fe98a41fed", "rental_uris": {"ios": "https://dc.lft.to/lastmile_qr_scan", "android": "https://dc.lft.to/lastmile_qr_scan"}, "fusion_lon": 0.0, "lon": -77.02489566666667, "name": "9ab303c0f5d46cb275f159fe98a41fed", "is_reserved": 0, "is_disabled": 0}, {"lat": 38.88731883333333, "fusion_lat": 0.0, "type": "electric_scooter", "bike_id": "517112744cc383432883691fd74d1a79", "rental_uris": {"ios": "https://dc.lft.to/lastmile_qr_scan", "android": "https://dc.lft.to/lastmile_qr_scan"}, "fusion_lon": 0.0, "lon": -77.03180616666667, "name": "517112744cc383432883691fd74d1a79", "is_reserved": 0, "is_disabled": 0}, {"lat": 38.9202245, "fusion_lat": 0.0, "type": "electric_scooter", "bike_id": "bbea6e14fe0a0e04ce46a6c248ba441c", "rental_uris": {"ios": "https://dc.lft.to/lastmile_qr_scan", "android": "https://dc.lft.to/lastmile_qr_scan"}, "fusion_lon": 0.0, "lon": -77.07165166666667, "name": "bbea6e14fe0a0e04ce46a6c248ba441c", "is_reserved": 0, "is_disabled": 0}, {"lat": 38.99778516666667, "fusion_lat": 0.0, "type": "electric_bike", "bike_id": "d69ddb9b7d69ab244eb4b4682927afd8", "rental_uris": {"ios": "https://dc.lft.to/lastmile_qr_scan", "android": "https://dc.lft.to/lastmile_qr_scan"}, "fusion_lon": 0.0, "lon": -77.047214, "name": "d69ddb9b7d69ab244eb4b4682927afd8", "is_reserved": 0, "is_disabled": 0},