{"data": {"bikes": [{"name": "fbb59592c8e6198260d942e76bf62941", "is_disabled": 0, "fusion_lat": 0.0, "fusion_lon": 0.0, "type": "electric_scooter", "lat": 38.9552435, "bike_id": "fbb59592c8e6198260d942e76bf62941", "is_reserved": 0, "lon": -77.02216733333333, "rental_uris": {"android": "https://dc.lft.to/lastmile_qr_scan", "ios": "https://dc.lft.to/lastmile_qr_scan"}}, {"name": "f5f0257d51a2645f66e3332e45c80927", "is_disabled": 0, "fusion_lat": 0.0, "fusion_lon": 0.0, "type": "electric_scooter", "lat": 38.903887166666664, "bike_id": "f5f0257d51a2645f66e3332e45c80927", "is_reserved": 0, "lon": -77.03836683333333, "rental_uris": {"android": "https://dc.lft.to/lastmile_qr_scan", "ios": "https://dc.lft.to/lastmile_qr_scan"}}, {"name": "6e515ae90c321cedccf015a5d348ca7e", "is_disabled": 0, "fusion_lat": 0.0, "fusion_lon": 0.0, "type": "electric_scooter", "lat": 38.90012566666667, "bike_id": "6e515ae90c321cedccf015a5d348ca7e", "is_reserved": 0, "lon": -77.00301216666666, "rental_uris": {"android": "https://dc.lft.to/lastmile_qr_scan", "ios": "https://dc.lft.to/lastmile_qr_scan"}}, {"name": "42db09cba2228ea2ec9193e0fe41eb86", "is_disabled": 0, "fusion_lat": 0.0, "fusion_lon": 0.0, "type": "electric_scooter", "lat": 38.902529666666666, "bike_id": "42db09cba2228ea2ec9193e0fe41eb86", "is_reserved": 0, "lon": -77.0388985, "rental_uris": {"android": "https://dc.lft.to/lastmile_qr_scan", "ios": "https://dc.lft.to/lastmile_qr_scan"}}, {"name": "93abc466beca52487f2d31dcb59572b9", "is_disabled": 0, "fusion_lat": 0.0, "fusion_lon": 0.0, "type": "electric_scooter", "lat": 38.90406516666667, "bike_id": "93abc466beca52487f2d31dcb59572b9", "is_reserved": 0, "lon": -77.03443533333333, "rental_uris": {"android": "https://dc.lft.to/lastmile_qr_scan", "ios": "https://dc.lft.to/lastmile_qr_scan"}}, {"name": "68088deed1e367038e2616751abba5a4", "is_disabled": 0, "fusion_lat": 0.0, "fusion_lon": 0.0, "type": "electric_scooter", "lat": 38.915381833333335, "bike_id": "68088deed1e367038e2616751abba5a4", "is_reserved": 0, "lon": -77.03643683333334, "rental_uris": {"android": "https://dc.lft.to/lastmile_qr_scan", "ios": "https://dc.lft.to/lastmile_qr_scan"}}, {"name": "e37db2e7bdc1b1b5fe41ea23fbf420b5", "is_disabled": 0, "fusion_lat": 0.0, "fusion_lon": 0.0, "type": "electric_scooter", "lat": 38.914570833333336, "bike_id": "e37db2e7bdc1b1b5fe41ea23fbf420b5", "is_reserved": 0, "lon": -77.0218345, "rental_uris": {"android": "https://dc.lft.to/lastmile_qr_scan", "ios": "https://dc.lft.to/lastmile_qr_scan"}}, {"name": "45ba9df19d1e51247fc463fb597ada52", "is_disabled": 0, "fusion_lat": 0.0, "fusion_lon": 0.0, "type": "electric_scooter", "lat": 38.898556666666664, "bike_id": "45ba9df19d1e51247fc463fb597ada52", "is_reserved": 0, "lon": -76.990181, "rental_uris": {"android": "https://dc.lft.to/lastmile_qr_scan", "ios": "https://dc.lft.to/lastmile_qr_scan"}}, {"name": "451a660b6f09f00fe0049c50ec4a64a9", "is_disabled": 0, "fusion_lat": 0.0, "fusion_lon": 0.0, "type": "electric_scooter", "lat": 38.8849105, "bike_id": "451a660b6f09f00fe0049c50ec4a64a9", "is_reserved": 0, "lon": -77.007091, "rental_uris": {"android": "https://dc.lft.to/lastmile_qr_scan", "ios": "https://dc.lft.to/lastmile_qr_scan"}}, {"name": "357d694d83158248dab72715267c38f6", "is_disabled": 0, "fusion_lat": 0.0, "fusion_lon": 0.0, "type": "electric_scooter", "lat": 38.892189, "bike_id": "357d694d83158248dab72715267c38f6", "is_reserved": 0, "lon": -77.04306133333333, "rental_uris": {"android": "https://dc.lft.to/lastmile_qr_scan", "ios": "https://dc.lft.to/lastmile_qr_scan"}}, {"name": "ba36721adf6cb3b6780dd39cffeecb70", "is_disabled": 0, "fusion_lat": 0.0, "fusion_lon": 0.0, "type": "electric_scooter", "lat": 38.892238, "bike_id": "ba36721adf6cb3b6780dd39cffeecb70", "is_reserved": 0, "lon": -77.0450505, "rental_uris": {"android": "https://dc.lft.to/lastmile_qr_scan", "ios": "https://dc.lft.to/lastmile_qr_scan"}}, {"name": "d1ab87c4453ca41394a56632ec7ee306", "is_disabled": 0, "fusion_lat": 0.0, "fusion_lon": 0.0, "type": "electric_scooter", "lat": 38.9342695, "bike_id": "d1ab87c4453ca41394a56632ec7ee306", "is_reserved": 0, "lon": -77.03998916666667, "rental_uris": {"android": "https://dc.lft.to/lastmile_qr_scan", "ios": "https://dc.lft.to/lastmile_qr_scan"}}, {"name": "4bcc052f9de2a6ecd943905160faed84", "is_disabled": 0, "fusion_lat": 0.0, "fusion_lon": 0.0, "type": "electric_scooter", "lat": 38.90747866666667, "bike_id": "4bcc052f9de2a6ecd943905160faed84", "is_reserved": 0, "lon": -77.045542, "rental_uris": {"android": "https://dc.lft.to/lastmile_qr_scan", "ios": "https://dc.lft.to/lastmile_qr_scan"}}, {"name": "f497531dc73af874caef387a5ae6a1c6", "is_disabled": 0, "fusion_lat": 0.0, "fusion_lon": 0.0, "type": "electric_scooter", "lat": 38.904736666666665, "bike_id": "f497531dc73af874caef387a5ae6a1c6", "is_reserved": 0, "lon": -77.0356295, "rental_uris": {"android": "https://dc.lft.to/lastmile_qr_scan", "ios": "https://dc.lft.to/lastmile_qr_scan"}}, {"name": "9c704b6e3e31c97e4a6fa64895899574", "is_disabled": 0, "fusion_lat": 0.0, "fusion_lon": 0.0, "type": "electric_scooter", "lat": 38.9024085, "bike_id": "9c704b6e3e31c97e4a6fa64895899574", "is_reserved": 0, "lon": -76.98927533333334, "rental_uris": {"android": "https://dc.lft.to/lastmile_qr_scan", "ios": "https://dc.lft.to/lastmile_qr_scan"}}, {"name": "44e13126dff2a230ff9db10b465faa21", "is_disabled": 0, "fusion_lat": 0.0, "fusion_lon": 0.0, "type": "electric_scooter", "lat": 38.8990205, "bike_id": "44e13126dff2a230ff9db10b465faa21", "is_reserved": 0, "lon": -77.02973966666667, "rental_uris": {"android": "https://dc.lft.to/lastmile_qr_scan", "ios": "https://dc.lft.to/lastmile_qr_scan"}}, {"name": "b88479f64e26f07f39c07054a2b7164c", "is_disabled": 0, "fusion_lat": 0.0, "fusion_lon": 0.0, "type": "electric_scooter", "lat": 38.92172683333333, "bike_id": "b88479f64e26f07f39c07054a2b7164c", "is_reserved": 0, "lon": -77.0192005, "rental_uris": {"android": "https://dc.lft.to/lastmile_qr_scan", "ios": "https://dc.lft.to/lastmile_qr_scan"}}, {"name": "af1a7723f745c93f6568d1b8e56efdb9", "is_disabled": 0, "fusion_lat": 0.0, "fusion_lon": 0.0, "type": "electric_scooter", "lat": 38.90393816666667, "bike_id": "af1a7723f745c93f6568d1b8e56efdb9", "is_reserved": 0, "lon": -77.06295666666666, "rental_uris": {"android": "https://dc.lft.to/lastmile_qr_scan", "ios": "https://dc.lft.to/lastmile_qr_scan"}}, {"name": "6f0348a091f250a26ad03c44d9044ac2", "is_disabled": 0, "fusion_lat": 0.0, "fusion_lon": 0.0, "type": "electric_bike", "lat": 38.90559233333333, "bike_id": "6f0348a091f250a26ad03c44d9044ac2", "is_reserved": 0, "lon": -77.06284316666667, "rental_uris": {"android": "https://dc.lft.to/lastmile_qr_scan", "ios": "https://dc.lft.to/lastmile_qr_scan"}}, {"name": "8c08064ad8b6b05b088760925b50bdf3", "is_disabled": 0, "fusion_lat": 0.0, "fusion_lon": 0.0, "type": "electric_scooter", "lat": 38.90064483333333, "bike_id": "8c08064ad8b6b05b088760925b50bdf3", "is_reserved": 0, "lon": -76.98712533333334, "rental_uris": {"android": "https://dc.lft.to/lastmile_qr_scan", "ios": "https://dc.lft.to/lastmile_qr_scan"}}, {"name": "5a14421f56f97582a32d1344abd726fc", "is_disabled": 0, "fusion_lat": 0.0, "fusion_lon": 0.0, "type": "electric_scooter", "lat": 38.918614166666664, "bike_id": "5a14421f56f97582a32d1344abd726fc", "is_reserved": 0, "lon": -77.025515, "rental_uris": {"android": "https://dc.lft.to/lastmile_qr_scan", "ios": "https://dc.lft.to/lastmile_qr_scan"}}, {"name": "122dd6c389069f6ea74a3e3e74417a09", "is_disabled": 0, "fusion_lat": 0.0, "fusion_lon": 0.0, "type": "electric_scooter", "lat": 38.89622633333333, "bike_id": "122dd6c389069f6ea74a3e3e74417a09", "is_reserved": 0, "lon": -76.99849416666666, "rental_uris": {"android": "https://dc.lft.to/lastmile_qr_scan", "ios": "https://dc.lft.to/lastmile_qr_scan"}}, {"name": "8a8d686d48287a5a647295626b9b5864", "is_disabled": 0, "fusion_lat": 0.0, "fusion_lon": 0.0, "type": "electric_scooter", "lat": 38.923128, "bike_id": "8a8d686d48287a5a647295626b9b5864", "is_reserved": 0, "lon": -77.04347833333334, "rental_uris": {"android": "https://dc.lft.to/lastmile_qr_scan", "ios": "https://dc.lft.to/lastmile_qr_scan"}}, {"name": "86d982e021dc0db10b5bd652f6c25e43", "is_disabled": 0, "fusion_lat": 0.0, "fusion_lon": 0.0, "type": "electric_scooter", "lat": 38.88278233333333, "bike_id": "86d982e021dc0db10b5bd652f6c25e43", "is_reserved": 0, "lon": -76.9877855, "rental_uris": {"android": "https://dc.lft.to/lastmile_qr_scan", "ios": "https://dc.lft.to/lastmile_qr_scan"}}, {"name": "a75398418c9e323517fbea9d6ce58285", "is_disabled": 0, "fusion_lat": 0.0, "fusion_lon": 0.0, "type": "electric_scooter", "lat": 38.9189965, "bike_id": "a75398418c9e323517fbea9d6ce58285", "is_reserved": 0, "lon": -77.02093233333333, "rental_uris": {"android": "https://dc.lft.to/lastmile_qr_scan", "ios": "https://dc.lft.to/lastmile_qr_scan"}}, {"name": "455dfdfffe8abbdbe13f7fa60cfe8f52", "is_disabled": 0, "fusion_lat": 0.0, "fusion_lon": 0.0, "type": "electric_scooter", "lat": 38.921469, "bike_id": "455dfdfffe8abbdbe13f7fa60cfe8f52", "is_reserved": 0, "lon": -77.02042366666667, "rental_uris": {"android": "https://dc.lft.to/lastmile_qr_scan", "ios": "https://dc.lft.to/lastmile_qr_scan"}}, {"name": "46ebb569b883351a90b5ea13a606c951", "is_disabled": 0, "fusion_lat": 0.0, "fusion_lon": 0.0, "type": "electric_scooter", "lat": 38.905529666666666, "bike_id": "46ebb569b883351a90b5ea13a606c951", "is_reserved": 0, "lon": -77.046571, "rental_uris": {"android": "https://dc.lft.to/lastmile_qr_scan", "ios": "https://dc.lft.to/lastmile_qr_scan"}}, {"name": "003b48939bef2cada7d554790da0f682", "is_disabled": 0, "fusion_lat": 0.0, "fusion_lon": 0.0, "type": "electric_scooter", "lat": 38.893559833333335, "bike_id": "003b48939bef2cada7d554790da0f682", "is_reserved": 0, "lon": -77.003348, "rental_uris": {"android": "https://dc.lft.to/lastmile_qr_scan", "ios": "https://dc.lft.to/lastmile_qr_scan"}}, {"name": "1cc0ed5e2a11430e875cd601e5e0163f", "is_disabled": 0, "fusion_lat": 0.0, "fusion_lon": 0.0, "type": "electric_scooter", "lat": 38.904425, "bike_id": "1cc0ed5e2a11430e875cd601e5e0163f", "is_reserved": 0, "lon": -77.03446633333333, "rental_uris": {"android": "https://dc.lft.to/lastmile_qr_scan", "ios": "https://dc.lft.to/lastmile_qr_scan"}}, {"name": "83e89690ae5ba95ccf932558ce094a50", "is_disabled": 0, "fusion_lat": 0.0, "fusion_lon": 0.0, "type": "electric_scooter", "lat": 38.902637, "bike_id": "83e89690ae5ba95ccf932558ce094a50", "is_reserved": 0, "lon": -77.039743, "rental_uris": {"android": "https://dc.lft.to/lastmile_qr_scan", "ios": "https://dc.lft.to/lastmile_qr_scan"}}, {"name": "839b1b3e44635da22af295ae091cda9a", "is_disabled": 0, "fusion_lat": 0.0, "fusion_lon": 0.0, "type": "electric_scooter", "lat": 38.924469, "bike_id": "839b1b3e44635da22af295ae091cda9a", "is_reserved": 0, "lon": -77.021509, "rental_uris": {"android": "https://dc.lft.to/lastmile_qr_scan", "ios": "https://dc.lft.to/lastmile_qr_scan"}}, {"name": "ce0f7e1e3a917db0c0a664691380e19b", "is_disabled": 0, "fusion_lat": 0.0, "fusion_lon": 0.0, "type": "electric_scooter", "lat": 38.94262716666667, "bike_id": "ce0f7e1e3a917db0c0a664691380e19b", "is_reserved": 0, "lon": -77.02842716666666, "rental_uris": {"android": "https://dc.lft.to/lastmile_qr_scan", "ios": "https://dc.lft.to/lastmile_qr_scan"}}, {"name": "6a947f38a0c317930bf6703ffc3e50f2", "is_disabled": 0, "fusion_lat": 0.0, "fusion_lon": 0.0, "type": "electric_scooter", "lat": 38.951510666666664, "bike_id": "6a947f38a0c317930bf6703ffc3e50f2", "is_reserved": 0, "lon": -77.01866583333333, "rental_uris": {"android": "https://dc.lft.to/lastmile_qr_scan", "ios": "https://dc.lft.to/lastmile_qr_scan"}}, {"name": "1c9abac386d19bc2c47357d73ca534fa", "is_disabled": 0, "fusion_lat": 0.0, "fusion_lon": 0.0, "type": "electric_bike", "lat": 38.94551516666667, "bike_id": "1c9abac386d19bc2c47357d73ca534fa", "is_reserved": 0, "lon": -76.89537266666666, "rental_uris": {"android": "https://dc.lft.to/lastmile_qr_scan", "ios": "https://dc.lft.to/lastmile_qr_scan"}}, {"name": "9230f7c5861c8da3e8647257fa397c1f", "is_disabled": 0, "fusion_lat": 0.0, "fusion_lon": 0.0, "type": "electric_scooter", "lat": 38.90535933333334, "bike_id": "9230f7c5861c8da3e8647257fa397c1f", "is_reserved": 0, "lon": -77.02961883333333, "rental_uris": {"android": "https://dc.lft.to/lastmile_qr_scan", "ios": "https://dc.lft.to/lastmile_qr_scan"}}, {"name": "e51dc1ca1850d6af0123bd396fd6ed0e", "is_disabled": 0, "fusion_lat": 0.0, "fusion_lon": 0.0, "type": "electric_scooter", "lat": 38.90131433333333, "bike_id": "e51dc1ca1850d6af0123bd396fd6ed0e", "is_reserved": 0, "lon": -77.03349066666667, "rental_uris": {"android": "https://dc.lft.to/lastmile_qr_scan", "ios": "https://dc.lft.to/lastmile_qr_scan"}}, {"name": "570fe3571525120b0ee48639aa1b6361", "is_disabled": 0, "fusion_lat": 0.0, "fusion_lon": 0.0, "type": "electric_scooter", "lat": 38.91985016666667, "bike_id": "570fe3571525120b0ee48639aa1b6361", "is_reserved": 0, "lon": -77.02504416666666, "rental_uris": {"android": "https://dc.lft.to/lastmile_qr_scan", "ios": "https://dc.lft.to/lastmile_qr_scan"}}, {"name": "d68ecbca712abc73168ff4c413dc51f3", "is_disabled": 0, "fusion_lat": 0.0, "fusion_lon": 0.0, "type": "electric_scooter", "lat": 38.90603133333333, "bike_id": "d68ecbca712abc73168ff4c413dc51f3", "is_reserved": 0, "lon": -77.04042966666667, "rental_uris": {"android": "https://dc.lft.to/lastmile_qr_scan", "ios": "https://dc.lft.to/lastmile_qr_scan"}}, {"name": "0de0d66827e084909e6546715fbca370", "is_disabled": 0, "fusion_lat": 0.0, "fusion_lon": 0.0, "type": "electric_scooter", "lat": 38.9065465, "bike_id": "0de0d66827e084909e6546715fbca370", "is_reserved": 0, "lon": -77.00183583333333, "rental_uris": {"android": "https://dc.lft.to/lastmile_qr_scan", "ios": "https://dc.lft.to/lastmile_qr_scan"}}, {"name": "ede06f9ac157ce73f4b673950341a4a9", "is_disabled": 0, "fusion_lat": 0.0, "fusion_lon": 0.0, "type": "electric_scooter", "lat": 38.938614, "bike_id": "ede06f9ac157ce73f4b673950341a4a9", "is_reserved": 0, "lon": -77.03082166666667, "rental_uris": {"android": "https://dc.lft.to/lastmile_qr_scan", "ios": "https://dc.lft.to/lastmile_qr_scan"}}, {"name": "aa44449c32130b57ad8b974d9b4dfac6", "is_disabled": 0, "fusion_lat": 0.0, "fusion_lon": 0.0, "type": "electric_scooter", "lat": 38.925270833333336, "bike_id": "aa44449c32130b57ad8b974d9b4dfac6", "is_reserved": 0, "lon": -76.99602316666666, "rental_uris": {"android": "https://dc.lft.to/lastmile_qr_scan", "ios": "https://dc.lft.to/lastmile_qr_scan"}}, {"name": "f8b85811fed9b75c21cf3210ddd739ca", "is_disabled": 0, "fusion_lat": 0.0, "fusion_lon": 0.0, "type": "electric_scooter", "lat": 38.904083, "bike_id": "f8b85811fed9b75c21cf3210ddd739ca", "is_reserved": 0, "lon": -77.06765216666666, "rental_uris": {"android": "https://dc.lft.to/lastmile_qr_scan", "ios": "https://dc.lft.to/lastmile_qr_scan"}}, {"name": "94061b768e43cef9c979462a734c990f", "is_disabled": 0, "fusion_lat": 0.0, "fusion_lon": 0.0, "type": "electric_scooter", "lat": 38.90156316666667, "bike_id": "94061b768e43cef9c979462a734c990f", "is_reserved": 0, "lon": -77.03193083333333, "rental_uris": {"android": "https://dc.lft.to/lastmile_qr_scan", "ios": "https://dc.lft.to/lastmile_qr_scan"}}, {"name": "6eb2d01cd4ba715ebd4aa6f7a846493b", "is_disabled": 0, "fusion_lat": 0.0, "fusion_lon": 0.0, "type": "electric_bike", "lat": 38.82913283333333, "bike_id": "6eb2d01cd4ba715ebd4aa6f7a846493b", "is_reserved": 0, "lon": -76.99783166666667, "rental_uris": {"android": "https://dc.lft.to/lastmile_qr_scan", "ios": "https://dc.lft.to/lastmile_qr_scan"}}, {"name": "8c6a2dd73371add1c994d7c3fdf8c37f", "is_disabled": 0, "fusion_lat": 0.0, "fusion_lon": 0.0, "type": "electric_scooter", "lat": 38.8990975, "bike_id": "8c6a2dd73371add1c994d7c3fdf8c37f", "is_reserved": 0, "lon": -77.0326375, "rental_uris": {"android": "https://dc.lft.to/lastmile_qr_scan", "ios": "https://dc.lft.to/lastmile_qr_scan"}}, {"name": "9b487e429d585e083deb8bb5d249efb5", "is_disabled": 0, "fusion_lat": 0.0, "fusion_lon": 0.0, "type": "electric_scooter", "lat": 38.931613166666665, "bike_id": "9b487e429d585e083deb8bb5d249efb5", "is_reserved": 0, "lon": -77.05632733333333, "rental_uris": {"android": "https://dc.lft.to/lastmile_qr_scan", "ios": "https://dc.lft.to/lastmile_qr_scan"}}, {"name": "6c07e25a88223aba57acd0c8bbcd8ce1", "is_disabled": 0, "fusion_lat": 0.0, "fusion_lon": 0.0, "type": "electric_bike", "lat": 38.860892666666665, "bike_id": "6c07e25a88223aba57acd0c8bbcd8ce1", "is_reserved": 0, "lon": -77.09593966666667, "rental_uris": {"android": "https://dc.lft.to/lastmile_qr_scan", "ios": "https://dc.lft.to/lastmile_qr_scan"}}, {"name": "4a2dff83f63b58037429e456adf48585", "is_disabled": 0, "fusion_lat": 0.0, "fusion_lon": 0.0, "type": "electric_scooter", "lat": 38.92609983333333, "bike_id": "4a2dff83f63b58037429e456adf48585", "is_reserved": 0, "lon": -77.021586, "rental_uris": {"android": "https://dc.lft.to/lastmile_qr_scan", "ios": "https://dc.lft.to/lastmile_qr_scan"}}, {"name": "1d38932d2836b947edfe3c0fe1cb4a0b", "is_disabled": 0, "fusion_lat": 0.0, "fusion_lon": 0.0, "type": "electric_scooter", "lat": 38.909599, "bike_id": "1d38932d2836b947edfe3c0fe1cb4a0b", "is_reserved": 0, "lon": -77.03866016666667, "rental_uris": {"android": "https://dc.lft.to/lastmile_qr_scan", "ios": "https://dc.lft.to/lastmile_qr_scan"}}, {"name": "6d7d059c5b3ca8277a93f1fb820bf33f", "is_disabled": 0, "fusion_lat": 0.0, "fusion_lon": 0.0, "type": "electric_scooter", "lat": 38.910953166666665, "bike_id": "6d7d059c5b3ca8277a93f1fb820bf33f", "is_reserved": 0, "lon": -77.03206733333333, "rental_uris": {"android": "https://dc.lft.to/lastmile_qr_scan", "ios": "https://dc.lft.to/lastmile_qr_scan"}}, {"name": "c19c2d7e538f05dd5cf681539733f187", "is_disabled": 0, "fusion_lat": 0.0, "fusion_lon": 0.0, "type": "electric_scooter", "lat": 38.93174783333333, "bike_id": "c19c2d7e538f05dd5cf681539733f187", "is_reserved": 0, "lon": -77.03839016666667, "rental_uris": {"android": "https://dc.lft.to/lastmile_qr_scan", "ios": "https://dc.lft.to/lastmile_qr_scan"}}, {"name": "1115f2ebee73cbb911cb404b2c426ba9", "is_disabled": 0, "fusion_lat": 0.0, "fusion_lon": 0.0, "type": "electric_scooter", "lat": 38.888137666666665, "bike_id": "1115f2ebee73cbb911cb404b2c426ba9", "is_reserved": 0, "lon": -76.93340233333333, "rental_uris": {"android": "https://dc.lft.to/lastmile_qr_scan", "ios": "https://dc.lft.to/lastmile_qr_scan"}}, {"name": "21ca9f7932c12a7a431ae502e1ceedfa", "is_disabled": 0, "fusion_lat": 0.0, "fusion_lon": 0.0, "type": "electric_scooter", "lat": 38.91654916666667, "bike_id": "21ca9f7932c12a7a431ae502e1ceedfa", "is_reserved": 0, "lon": -77.02962983333333, "rental_uris": {"android": "https://dc.lft.to/lastmile_qr_scan", "ios": "https://dc.lft.to/lastmile_qr_scan"}}, {"name": "1c1d04d81c1396b70fa70a7a393bd76d", "is_disabled": 0, "fusion_lat": 0.0, "fusion_lon": 0.0, "type": "electric_scooter", "lat": 38.905834166666665, "bike_id": "1c1d04d81c1396b70fa70a7a393bd76d", "is_reserved": 0, "lon": -77.03840366666667, "rental_uris": {"android": "https://dc.lft.to/lastmile_qr_scan", "ios": "https://dc.lft.to/lastmile_qr_scan"}}, {"name": "8985b1e3572f62db1c71237e8e3d9d59", "is_disabled": 0, "fusion_lat": 0.0, "fusion_lon": 0.0, "type": "electric_scooter", "lat": 38.887274833333336, "bike_id": "8985b1e3572f62db1c71237e8e3d9d59", "is_reserved": 0, "lon": -77.02823666666667, "rental_uris": {"android": "https://dc.lft.to/lastmile_qr_scan", "ios": "https://dc.lft.to/lastmile_qr_scan"}}, {"name": "270321f964113f28209846366daea977", "is_disabled": 0, "fusion_lat": 0.0, "fusion_lon": 0.0, "type": "electric_scooter", "lat": 38.91580283333333, "bike_id": "270321f964113f28209846366daea977", "is_reserved": 0, "lon": -77.03181283333333, "rental_uris": {"android": "https://dc.lft.to/lastmile_qr_scan", "ios": "https://dc.lft.to/lastmile_qr_scan"}}, {"name": "ef1a06caae259451a40483cd17e30d6e", "is_disabled": 0, "fusion_lat": 0.0, "fusion_lon": 0.0, "type": "electric_scooter", "lat": 38.900771666666664, "bike_id": "ef1a06caae259451a40483cd17e30d6e", "is_reserved": 0, "lon": -77.04339483333334, "rental_uris": {"android": "https://dc.lft.to/lastmile_qr_scan", "ios": "https://dc.lft.to/lastmile_qr_scan"}}, {"name": "8504ba036c8989e82eb16e6322ee6de1", "is_disabled": 0, "fusion_lat": 0.0, "fusion_lon": 0.0, "type": "electric_scooter", "lat": 38.900279, "bike_id": "8504ba036c8989e82eb16e6322ee6de1", "is_reserved": 0, "lon": -77.0068775, "rental_uris": {"android": "https://dc.lft.to/lastmile_qr_scan", "ios": "https://dc.lft.to/lastmile_qr_scan"}}, {"name": "ed05620c90aabea8b70a2738cfd906d2", "is_disabled": 0, "fusion_lat": 0.0, "fusion_lon": 0.0, "type": "electric_scooter", "lat": 38.9155565, "bike_id": "ed05620c90aabea8b70a2738cfd906d2", "is_reserved": 0, "lon": -77.03163533333333, "rental_uris": {"android": "https://dc.lft.to/lastmile_qr_scan", "ios": "https://dc.lft.to/lastmile_qr_scan"}}, {"name": "ddf61194823496044ff7baf9579a7bdb", "is_disabled": 0, "fusion_lat": 0.0, "fusion_lon": 0.0, "type": "electric_scooter", "lat": 38.911039333333335, "bike_id": "ddf61194823496044ff7baf9579a7bdb", "is_reserved": 0, "lon": -77.0446525, "rental_uris": {"android": "https://dc.lft.to/lastmile_qr_scan", "ios": "https://dc.lft.to/lastmile_qr_scan"}}, {"name": "813caab2ec104333f7bfef48fa344cb4", "is_disabled": 0, "fusion_lat": 0.0, "fusion_lon": 0.0, "type": "electric_scooter", "lat": 38.92322016666667, "bike_id": "813caab2ec104333f7bfef48fa344cb4", "is_reserved": 0, "lon": -77.02695566666667, "rental_uris": {"android": "https://dc.lft.to/lastmile_qr_scan", "ios": "https://dc.lft.to/lastmile_qr_scan"}}, {"name": "ab3235ec8d1167e34545b031e65d2624", "is_disabled": 0, "fusion_lat": 0.0, "fusion_lon": 0.0, "type": "electric_scooter", "lat": 38.86418783333333, "bike_id": "ab3235ec8d1167e34545b031e65d2624", "is_reserved": 0, "lon": -77.01202433333333, "rental_uris": {"android": "https://dc.lft.to/lastmile_qr_scan", "ios": "https://dc.lft.to/lastmile_qr_scan"}}, {"name": "3708f0804c953540a9edc0d5a19d9ea8", "is_disabled": 0, "fusion_lat": 0.0, "fusion_lon": 0.0, "type": "electric_scooter", "lat": 38.92142466666667, "bike_id": "3708f0804c953540a9edc0d5a19d9ea8", "is_reserved": 0, "lon": -77.01814966666667, "rental_uris": {"android": "https://dc.lft.to/lastmile_qr_scan", "ios": "https://dc.lft.to/lastmile_qr_scan"}}, {"name": "e84f6e3f5512a22a047570b295888192", "is_disabled": 0, "fusion_lat": 0.0, "fusion_lon": 0.0, "type": "electric_scooter", "lat": 38.9077075, "bike_id": "e84f6e3f5512a22a047570b295888192", "is_reserved": 0, "lon": -76.97830533333334, "rental_uris": {"android": "https://dc.lft.to/lastmile_qr_scan", "ios": "https://dc.lft.to/lastmile_qr_scan"}}, {"name": "a1d2d4f3515a623d18e88057cf59914a", "is_disabled": 0, "fusion_lat": 0.0, "fusion_lon": 0.0, "type": "electric_scooter", "lat": 38.900767, "bike_id": "a1d2d4f3515a623d18e88057cf59914a", "is_reserved": 0, "lon": -77.04692933333334, "rental_uris": {"android": "https://dc.lft.to/lastmile_qr_scan", "ios": "https://dc.lft.to/lastmile_qr_scan"}}, {"name": "945c1132987b3c2366a642814defcdac", "is_disabled": 0, "fusion_lat": 0.0, "fusion_lon": 0.0, "type": "electric_scooter", "lat": 38.917511833333336, "bike_id": "945c1132987b3c2366a642814defcdac", "is_reserved": 0, "lon": -77.023846, "rental_uris": {"android": "https://dc.lft.to/lastmile_qr_scan", "ios": "https://dc.lft.to/lastmile_qr_scan"}}, {"name": "b0f3bd2be4ae68e4d4f2565dbf157a39", "is_disabled": 0, "fusion_lat": 0.0, "fusion_lon": 0.0, "type": "electric_scooter", "lat": 38.91260466666667, "bike_id": "b0f3bd2be4ae68e4d4f2565dbf157a39", "is_reserved": 0, "lon": -77.0444115, "rental_uris": {"android": "https://dc.lft.to/lastmile_qr_scan", "ios": "https://dc.lft.to/lastmile_qr_scan"}}, {"name": "14271e8afd292c893114a327a448890f", "is_disabled": 0, "fusion_lat": 0.0, "fusion_lon": 0.0, "type": "electric_scooter", "lat": 38.92479683333333, "bike_id": "14271e8afd292c893114a327a448890f", "is_reserved": 0, "lon": -77.02718133333333, "rental_uris": {"android": "https://dc.lft.to/lastmile_qr_scan", "ios": "https://dc.lft.to/lastmile_qr_scan"}}, {"name": "705686ce682bd18418d210ca8c02703c", "is_disabled": 0, "fusion_lat": 0.0, "fusion_lon": 0.0, "type": "electric_scooter", "lat": 38.952048833333336, "bike_id": "705686ce682bd18418d210ca8c02703c", "is_reserved": 0, "lon": -77.027343, "rental_uris": {"android": "https://dc.lft.to/lastmile_qr_scan", "ios": "https://dc.lft.to/lastmile_qr_scan"}}, {"name": "69399e5ebaf44ad6ad72b450e60a8448", "is_disabled": 0, "fusion_lat": 0.0, "fusion_lon": 0.0, "type": "electric_scooter", "lat": 38.89220233333333, "bike_id": "69399e5ebaf44ad6ad72b450e60a8448", "is_reserved": 0, "lon": -77.02229733333333, "rental_uris": {"android": "https://dc.lft.to/lastmile_qr_scan", "ios": "https://dc.lft.to/lastmile_qr_scan"}}, {"name": "769f859f98c5f3e8dc5505d155e8a39d", "is_disabled": 0, "fusion_lat": 0.0, "fusion_lon": 0.0, "type": "electric_scooter", "lat": 38.915921833333336, "bike_id": "769f859f98c5f3e8dc5505d155e8a39d", "is_reserved": 0, "lon": -77.0230275, "rental_uris": {"android": "https://dc.lft.to/lastmile_qr_scan", "ios": "https://dc.lft.to/lastmile_qr_scan"}}, {"name": "3d1ca00f9827377a9c817e150068a1f5", "is_disabled": 0, "fusion_lat": 0.0, "fusion_lon": 0.0, "type": "electric_scooter", "lat": 38.91894283333333, "bike_id": "3d1ca00f9827377a9c817e150068a1f5", "is_reserved": 0, "lon": -76.98739833333333, "rental_uris": {"android": "https://dc.lft.to/lastmile_qr_scan", "ios": "https://dc.lft.to/lastmile_qr_scan"}}, {"name": "cc442934e09dd7054a8c1ca3b51e2d0c", "is_disabled": 0, "fusion_lat": 0.0, "fusion_lon": 0.0, "type": "electric_scooter", "lat": 38.888596666666665, "bike_id": "cc442934e09dd7054a8c1ca3b51e2d0c", "is_reserved": 0, "lon": -77.03112516666667, "rental_uris": {"android": "https://dc.lft.to/lastmile_qr_scan", "ios": "https://dc.lft.to/lastmile_qr_scan"}}, {"name": "78571a2c03684d6514b2fb6ecb445f2d", "is_disabled": 0, "fusion_lat": 0.0, "fusion_lon": 0.0, "type": "electric_bike", "lat": 38.9964325, "bike_id": "78571a2c03684d6514b2fb6ecb445f2d", "is_reserved": 0, "lon": -77.03998683333333, "rental_uris": {"android": "https://dc.lft.to/lastmile_qr_scan", "ios": "https://dc.lft.to/lastmile_qr_scan"}}, {"name": "2c634137d3af2c6a83a9a042450ea458", "is_disabled": 0, "fusion_lat": 0.0, "fusion_lon": 0.0, "type": "electric_scooter", "lat": 38.9082545, "bike_id": "2c634137d3af2c6a83a9a042450ea458", "is_reserved": 0, "lon": -76.93158833333334, "rental_uris": {"android": "https://dc.lft.to/lastmile_qr_scan", "ios": "https://dc.lft.to/lastmile_qr_scan"}}, {"name": "1135970b9278473ac1caf0b45a674f5b", "is_disabled": 0, "fusion_lat": 0.0, "fusion_lon": 0.0, "type": "electric_scooter", "lat": 38.89902933333333, "bike_id": "1135970b9278473ac1caf0b45a674f5b", "is_reserved": 0, "lon": -77.03291416666667, "rental_uris": {"android": "https://dc.lft.to/lastmile_qr_scan", "ios": "https://dc.lft.to/lastmile_qr_scan"}}, {"name": "6c4b18f2b0cebd81b75239fa021337ab", "is_disabled": 0, "fusion_lat": 0.0, "fusion_lon": 0.0, "type": "electric_scooter", "lat": 38.932383, "bike_id": "6c4b18f2b0cebd81b75239fa021337ab", "is_reserved": 0, "lon": -77.03416216666666, "rental_uris": {"android": "https://dc.lft.to/lastmile_qr_scan", "ios": "https://dc.lft.to/lastmile_qr_scan"}}, {"name": "5016a148d6d1a35466e35aa86925b0f2", "is_disabled": 0, "fusion_lat": 0.0, "fusion_lon": 0.0, "type": "electric_bike", "lat": 38.907419166666664, "bike_id": "5016a148d6d1a35466e35aa86925b0f2", "is_reserved": 0, "lon": -77.00316316666667, "rental_uris": {"android": "https://dc.lft.to/lastmile_qr_scan", "ios": "https://dc.lft.to/lastmile_qr_scan"}}, {"name": "3ff3582c0656fcd4493257ab267d56e7", "is_disabled": 0, "fusion_lat": 0.0, "fusion_lon": 0.0, "type": "electric_scooter", "lat": 38.956245, "bike_id": "3ff3582c0656fcd4493257ab267d56e7", "is_reserved": 0, "lon": -77.02450983333334, "rental_uris": {"android": "https://dc.lft.to/lastmile_qr_scan", "ios": "https://dc.lft.to/lastmile_qr_scan"}}, {"name": "d63a445a4920c79dc71b04ea7a1403f8", "is_disabled": 0, "fusion_lat": 0.0, "fusion_lon": 0.0, "type": "electric_scooter", "lat": 38.9097255, "bike_id": "d63a445a4920c79dc71b04ea7a1403f8", "is_reserved": 0, "lon": -77.03415233333334, "rental_uris": {"android": "https://dc.lft.to/lastmile_qr_scan", "ios": "https://dc.lft.to/lastmile_qr_scan"}}, {"name": "87f2104ab6637e308686a04729ec4076", "is_disabled": 0, "fusion_lat": 0.0, "fusion_lon": 0.0, "type": "electric_scooter", "lat": 38.91551366666667, "bike_id": "87f2104ab6637e308686a04729ec4076", "is_reserved": 0, "lon": -77.01199983333333, "rental_uris": {"android": "https://dc.lft.to/lastmile_qr_scan", "ios": "https://dc.lft.to/lastmile_qr_scan"}}, {"name": "27420e0dcabda13af4e3405bd4fdd5d2", "is_disabled": 0, "fusion_lat": 0.0, "fusion_lon": 0.0, "type": "electric_scooter", "lat": 38.89793566666667, "bike_id": "27420e0dcabda13af4e3405bd4fdd5d2", "is_reserved": 0, "lon": -77.04497283333333, "rental_uris": {"android": "https://dc.lft.to/lastmile_qr_scan", "ios": "https://dc.lft.to/lastmile_qr_scan"}}, {"name": "d3331199a9b5ce48407a0b2fc03cc5da", "is_disabled": 0, "fusion_lat": 0.0, "fusion_lon": 0.0, "type": "electric_scooter", "lat": 38.9198285, "bike_id": "d3331199a9b5ce48407a0b2fc03cc5da", "is_reserved": 0, "lon": -77.0217085, "rental_uris": {"android": "https://dc.lft.to/lastmile_qr_scan", "ios": "https://dc.lft.to/lastmile_qr_scan"}}, {"name": "eaafc2a9e0c8cfe4d2439f41fd0919f2", "is_disabled": 0, "fusion_lat": 0.0, "fusion_lon": 0.0, "type": "electric_scooter", "lat": 38.8997055, "bike_id": "eaafc2a9e0c8cfe4d2439f41fd0919f2", "is_reserved": 0, "lon": -77.01448783333333, "rental_uris": {"android": "https://dc.lft.to/lastmile_qr_scan", "ios": "https://dc.lft.to/lastmile_qr_scan"}}, {"name": "966b5941d315ac0317e5c626e46a6899", "is_disabled": 0, "fusion_lat": 0.0, "fusion_lon": 0.0, "type": "electric_scooter", "lat": 38.91895783333333, "bike_id": "966b5941d315ac0317e5c626e46a6899", "is_reserved": 0, "lon": -77.0211935, "rental_uris": {"android": "https://dc.lft.to/lastmile_qr_scan", "ios": "https://dc.lft.to/lastmile_qr_scan"}}, {"name": "61f0f06f5e5b8c0f6eb344b108788afd", "is_disabled": 0, "fusion_lat": 0.0, "fusion_lon": 0.0, "type": "electric_scooter", "lat": 38.9072925, "bike_id": "61f0f06f5e5b8c0f6eb344b108788afd", "is_reserved": 0, "lon": -77.04965016666667, "rental_uris": {"android": "https://dc.lft.to/lastmile_qr_scan", "ios": "https://dc.lft.to/lastmile_qr_scan"}}, {"name": "70eda7175cfbb1e2051a93b51db42852", "is_disabled": 0, "fusion_lat": 0.0, "fusion_lon": 0.0, "type": "electric_bike", "lat": 38.94665116666667, "bike_id": "70eda7175cfbb1e2051a93b51db42852", "is_reserved": 0, "lon": -76.98312833333334, "rental_uris": {"android": "https://dc.lft.to/lastmile_qr_scan", "ios": "https://dc.lft.to/lastmile_qr_scan"}}, {"name": "42716c85f784ad006587f895e1d840e3", "is_disabled": 0, "fusion_lat": 0.0, "fusion_lon": 0.0, "type": "electric_bike", "lat": 38.852046666666666, "bike_id": "42716c85f784ad006587f895e1d840e3", "is_reserved": 0, "lon": -77.10127583333333, "rental_uris": {"android": "https://dc.lft.to/lastmile_qr_scan", "ios": "https://dc.lft.to/lastmile_qr_scan"}}, {"name": "1ad8b066b17e8cdd2f6d7c12a7e1bd27", "is_disabled": 0, "fusion_lat": 0.0, "fusion_lon": 0.0, "type": "electric_bike", "lat": 38.83806916666666, "bike_id": "1ad8b066b17e8cdd2f6d7c12a7e1bd27", "is_reserved": 0, "lon": -77.09521233333334, "rental_uris": {"android": "https://dc.lft.to/lastmile_qr_scan", "ios": "https://dc.lft.to/lastmile_qr_scan"}}, {"name": "ea2fbc7a607daf8f522a43f5ab23901f", "is_disabled": 0, "fusion_lat": 0.0, "fusion_lon": 0.0, "type": "electric_scooter", "lat": 38.917528833333336, "bike_id": "ea2fbc7a607daf8f522a43f5ab23901f", "is_reserved": 0, "lon": -77.02385133333334, "rental_uris": {"android": "https://dc.lft.to/lastmile_qr_scan", "ios": "https://dc.lft.to/lastmile_qr_scan"}}, {"name": "3b36eec5a50f7ea9984aa7c9eabf99ad", "is_disabled": 0, "fusion_lat": 0.0, "fusion_lon": 0.0, "type": "electric_scooter", "lat": 38.924798833333334, "bike_id": "3b36eec5a50f7ea9984aa7c9eabf99ad", "is_reserved": 0, "lon": -77.02723533333334, "rental_uris": {"android": "https://dc.lft.to/lastmile_qr_scan", "ios": "https://dc.lft.to/lastmile_qr_scan"}}, {"name": "fd26a20049760414b8e1c0de8bdc6463", "is_disabled": 0, "fusion_lat": 0.0, "fusion_lon": 0.0, "type": "electric_scooter", "lat": 38.928201666666666, "bike_id": "fd26a20049760414b8e1c0de8bdc6463", "is_reserved": 0, "lon": -77.022838, "rental_uris": {"android": "https://dc.lft.to/lastmile_qr_scan", "ios": "https://dc.lft.to/lastmile_qr_scan"}}, {"name": "ef336acb85c8888527b9ef2c56235f4a", "is_disabled": 0, "fusion_lat": 0.0, "fusion_lon": 0.0, "type": "electric_scooter", "lat": 38.89899616666667, "bike_id": "ef336acb85c8888527b9ef2c56235f4a", "is_reserved": 0, "lon": -76.97715266666667, "rental_uris": {"android": "https://dc.lft.to/lastmile_qr_scan", "ios": "https://dc.lft.to/lastmile_qr_scan"}}, {"name": "644ec62a7b99ce1249f867bb9b25b9e2", "is_disabled": 0, "fusion_lat": 0.0, "fusion_lon": 0.0, "type": "electric_scooter", "lat": 38.955291333333335, "bike_id": "644ec62a7b99ce1249f867bb9b25b9e2", "is_reserved": 0, "lon": -77.02775433333333, "rental_uris": {"android": "https://dc.lft.to/lastmile_qr_scan", "ios": "https://dc.lft.to/lastmile_qr_scan"}}, {"name": "24254e65af21372d9e9a4edce6a2090f", "is_disabled": 0, "fusion_lat": 0.0, "fusion_lon": 0.0, "type": "electric_scooter", "lat": 38.95175833333333, "bike_id": "24254e65af21372d9e9a4edce6a2090f", "is_reserved": 0, "lon": -77.02724266666667, "rental_uris": {"android": "https://dc.lft.to/lastmile_qr_scan", "ios": "https://dc.lft.to/lastmile_qr_scan"}}, {"name": "ea31a296c662dd387a7e58e4ed69bd17", "is_disabled": 0, "fusion_lat": 0.0, "fusion_lon": 0.0, "type": "electric_scooter", "lat": 38.971182, "bike_id": "ea31a296c662dd387a7e58e4ed69bd17", "is_reserved": 0, "lon": -77.01679483333334, "rental_uris": {"android": "https://dc.lft.to/lastmile_qr_scan", "ios": "https://dc.lft.to/lastmile_qr_scan"}}, {"name": "3a7225c69912433899add12d68b98e4d", "is_disabled": 0, "fusion_lat": 0.0, "fusion_lon": 0.0, "type": "electric_scooter", "lat": 38.921086833333334, "bike_id": "3a7225c69912433899add12d68b98e4d", "is_reserved": 0, "lon": -77.04206383333333, "rental_uris": {"android": "https://dc.lft.to/lastmile_qr_scan", "ios": "https://dc.lft.to/lastmile_qr_scan"}}, {"name": "c9ba965b09c6a39248d49686df7d601f", "is_disabled": 0, "fusion_lat": 0.0, "fusion_lon": 0.0, "type": "electric_scooter", "lat": 38.8921545, "bike_id": "c9ba965b09c6a39248d49686df7d601f", "is_reserved": 0, "lon": -77.0222815, "rental_uris": {"android": "https://dc.lft.to/lastmile_qr_scan", "ios": "https://dc.lft.to/lastmile_qr_scan"}}, {"name": "74e4aa4bce325553b3c51c4b4dab63d0", "is_disabled": 0, "fusion_lat": 0.0, "fusion_lon": 0.0, "type": "electric_bike", "lat": 38.85766683333333, "bike_id": "74e4aa4bce325553b3c51c4b4dab63d0", "is_reserved": 0, "lon": -76.98765933333334, "rental_uris": {"android": "https://dc.lft.to/lastmile_qr_scan", "ios": "https://dc.lft.to/lastmile_qr_scan"}}, {"name": "a0d4a9e58fcf2f6e8aa7dd0b407098d3", "is_disabled": 0, "fusion_lat": 0.0, "fusion_lon": 0.0, "type": "electric_scooter", "lat": 38.93011533333333, "bike_id": "a0d4a9e58fcf2f6e8aa7dd0b407098d3", "is_reserved": 0, "lon": -77.06088966666667, "rental_uris": {"android": "https://dc.lft.to/lastmile_qr_scan", "ios": "https://dc.lft.to/lastmile_qr_scan"}}, {"name": "18f88bf0fed03d6a41badc77b68bac64", "is_disabled": 0, "fusion_lat": 0.0, "fusion_lon": 0.0, "type": "electric_scooter", "lat": 38.86667283333333, "bike_id": "18f88bf0fed03d6a41badc77b68bac64", "is_reserved": 0, "lon": -76.985183, "rental_uris": {"android": "https://dc.lft.to/lastmile_qr_scan", "ios": "https://dc.lft.to/lastmile_qr_scan"}}, {"name": "979075483b6cb9d00b6904b3a9d79faa", "is_disabled": 0, "fusion_lat": 0.0, "fusion_lon": 0.0, "type": "electric_scooter", "lat": 38.92204133333333, "bike_id": "979075483b6cb9d00b6904b3a9d79faa", "is_reserved": 0, "lon": -77.0202515, "rental_uris": {"android": "https://dc.lft.to/lastmile_qr_scan", "ios": "https://dc.lft.to/lastmile_qr_scan"}}, {"name": "f488691d64887a27f40208b6cfb88a0b", "is_disabled": 0, "fusion_lat": 0.0, "fusion_lon": 0.0, "type": "electric_scooter", "lat": 38.92574416666667, "bike_id": "f488691d64887a27f40208b6cfb88a0b", "is_reserved": 0, "lon": -77.03915383333333, "rental_uris": {"android": "https://dc.lft.to/lastmile_qr_scan", "ios": "https://dc.lft.to/lastmile_qr_scan"}}, {"name": "fe6292258031e1ed3f221d924e2ea601", "is_disabled": 0, "fusion_lat": 0.0, "fusion_lon": 0.0, "type": "electric_bike", "lat": 38.983633166666664, "bike_id": "fe6292258031e1ed3f221d924e2ea601", "is_reserved": 0, "lon": -76.9721495, "rental_uris": {"android": "https://dc.lft.to/lastmile_qr_scan", "ios": "https://dc.lft.to/lastmile_qr_scan"}}, {"name": "7e1bf9f28c1e2832985efe1576cc79e9", "is_disabled": 0, "fusion_lat": 0.0, "fusion_lon": 0.0, "type": "electric_scooter", "lat": 38.906906166666666, "bike_id": "7e1bf9f28c1e2832985efe1576cc79e9", "is_reserved": 0, "lon": -77.04490033333333, "rental_uris": {"android": "https://dc.lft.to/lastmile_qr_scan", "ios": "https://dc.lft.to/lastmile_qr_scan"}}, {"name": "b9bf9b0c043f4665c63cefa9a87f5351", "is_disabled": 0, "fusion_lat": 0.0, "fusion_lon": 0.0, "type": "electric_scooter", "lat": 38.885247166666666, "bike_id": "b9bf9b0c043f4665c63cefa9a87f5351", "is_reserved": 0, "lon": -76.9982395, "rental_uris": {"android": "https://dc.lft.to/lastmile_qr_scan", "ios": "https://dc.lft.to/lastmile_qr_scan"}}, {"name": "9188fd8fd2ee16d9e74aa7a31a855234", "is_disabled": 0, "fusion_lat": 0.0, "fusion_lon": 0.0, "type": "electric_scooter", "lat": 38.957411, "bike_id": "9188fd8fd2ee16d9e74aa7a31a855234", "is_reserved": 0, "lon": -77.02067916666667, "rental_uris": {"android": "https://dc.lft.to/lastmile_qr_scan", "ios": "https://dc.lft.to/lastmile_qr_scan"}}, {"name": "51d202ad9ff3ec5af3208512ef287da9", "is_disabled": 0, "fusion_lat": 0.0, "fusion_lon": 0.0, "type": "electric_bike", "lat": 38.922095166666665, "bike_id": "51d202ad9ff3ec5af3208512ef287da9", "is_reserved": 0, "lon": -76.98794916666667, "rental_uris": {"android": "https://dc.lft.to/lastmile_qr_scan", "ios": "https://dc.lft.to/lastmile_qr_scan"}}, {"name": "fe47474c24d31bc22294ebbaba3eed9b", "is_disabled": 0, "fusion_lat": 0.0, "fusion_lon": 0.0, "type": "electric_scooter", "lat": 38.8971705, "bike_id": "fe47474c24d31bc22294ebbaba3eed9b", "is_reserved": 0, "lon": -76.973455, "rental_uris": {"android": "https://dc.lft.to/lastmile_qr_scan", "ios": "https://dc.lft.to/lastmile_qr_scan"}}, {"name": "d84c26367b79b0b78bd149a06a313031", "is_disabled": 0, "fusion_lat": 0.0, "fusion_lon": 0.0, "type": "electric_scooter", "lat": 38.859187, "bike_id": "d84c26367b79b0b78bd149a06a313031", "is_reserved": 0, "lon": -76.98973433333333, "rental_uris": {"android": "https://dc.lft.to/lastmile_qr_scan", "ios": "https://dc.lft.to/lastmile_qr_scan"}}, {"name": "2edef1edf9396596218df724df21f592", "is_disabled": 0, "fusion_lat": 0.0, "fusion_lon": 0.0, "type": "electric_scooter", "lat": 38.882714166666666, "bike_id": "2edef1edf9396596218df724df21f592", "is_reserved": 0, "lon": -76.99017666666667, "rental_uris": {"android": "https://dc.lft.to/lastmile_qr_scan", "ios": "https://dc.lft.to/lastmile_qr_scan"}}, {"name": "e086c9a9a01dda4b2181d5994571c120", "is_disabled": 0, "fusion_lat": 0.0, "fusion_lon": 0.0, "type": "electric_scooter", "lat": 38.884349666666665, "bike_id": "e086c9a9a01dda4b2181d5994571c120", "is_reserved": 0, "lon": -77.02962616666667, "rental_uris": {"android": "https://dc.lft.to/lastmile_qr_scan", "ios": "https://dc.lft.to/lastmile_qr_scan"}}, {"name": "c77d3c9eb2ca5bf498ce5114d6c5b118", "is_disabled": 0, "fusion_lat": 0.0, "fusion_lon": 0.0, "type": "electric_scooter", "lat": 38.91625333333333, "bike_id": "c77d3c9eb2ca5bf498ce5114d6c5b118", "is_reserved": 0, "lon": -77.01351633333333, "rental_uris": {"android": "https://dc.lft.to/lastmile_qr_scan", "ios": "https://dc.lft.to/lastmile_qr_scan"}}, {"name": "21d2eb2c2226ee5bde96178aa03d55cf", "is_disabled": 0, "fusion_lat": 0.0, "fusion_lon": 0.0, "type": "electric_bike", "lat": 38.882266666666666, "bike_id": "21d2eb2c2226ee5bde96178aa03d55cf", "is_reserved": 0, "lon": -77.11716983333334, "rental_uris": {"android": "https://dc.lft.to/lastmile_qr_scan", "ios": "https://dc.lft.to/lastmile_qr_scan"}}, {"name": "41805e546ee63d351f4f8e5e23020e15", "is_disabled": 0, "fusion_lat": 0.0, "fusion_lon": 0.0, "type": "electric_scooter", "lat": 38.900589333333336, "bike_id": "41805e546ee63d351f4f8e5e23020e15", "is_reserved": 0, "lon": -77.0433335, "rental_uris": {"android": "https://dc.lft.to/lastmile_qr_scan", "ios": "https://dc.lft.to/lastmile_qr_scan"}}, {"name": "d7c8598afe0baed9eb4ccf3b1a91a1c0", "is_disabled": 0, "fusion_lat": 0.0, "fusion_lon": 0.0, "type": "electric_scooter", "lat": 38.926171, "bike_id": "d7c8598afe0baed9eb4ccf3b1a91a1c0", "is_reserved": 0, "lon": -77.04326633333334, "rental_uris": {"android": "https://dc.lft.to/lastmile_qr_scan", "ios": "https://dc.lft.to/lastmile_qr_scan"}}, {"name": "cadb01d8d989762cbebe6ee9d05fb1e1", "is_disabled": 0, "fusion_lat": 0.0, "fusion_lon": 0.0, "type": "electric_bike", "lat": 38.8372405, "bike_id": "cadb01d8d989762cbebe6ee9d05fb1e1", "is_reserved": 0, "lon": -76.9975765, "rental_uris": {"android": "https://dc.lft.to/lastmile_qr_scan", "ios": "https://dc.lft.to/lastmile_qr_scan"}}, {"name": "b0e82db0d722e97e07ea915226904e54", "is_disabled": 0, "fusion_lat": 0.0, "fusion_lon": 0.0, "type": "electric_scooter", "lat": 38.909689166666666, "bike_id": "b0e82db0d722e97e07ea915226904e54", "is_reserved": 0, "lon": -77.0385845, "rental_uris": {"android": "https://dc.lft.to/lastmile_qr_scan", "ios": "https://dc.lft.to/lastmile_qr_scan"}}, {"name": "0c414da99b4b9916f1782f601f4e6e5e", "is_disabled": 0, "fusion_lat": 0.0, "fusion_lon": 0.0, "type": "electric_bike", "lat": 38.995291333333334, "bike_id": "0c414da99b4b9916f1782f601f4e6e5e", "is_reserved": 0, "lon": -77.06939, "rental_uris": {"android": "https://dc.lft.to/lastmile_qr_scan", "ios": "https://dc.lft.to/lastmile_qr_scan"}}, {"name": "de0fe07f81ba50fd7d3cbb742fffed7a", "is_disabled": 0, "fusion_lat": 0.0, "fusion_lon": 0.0, "type": "electric_scooter", "lat": 38.895033166666664, "bike_id": "de0fe07f81ba50fd7d3cbb742fffed7a", "is_reserved": 0, "lon": -76.93476183333334, "rental_uris": {"android": "https://dc.lft.to/lastmile_qr_scan", "ios": "https://dc.lft.to/lastmile_qr_scan"}}, {"name": "7e3e24c5b113843ca0901b572fd55220", "is_disabled": 0, "fusion_lat": 0.0, "fusion_lon": 0.0, "type": "electric_scooter", "lat": 38.91109616666667, "bike_id": "7e3e24c5b113843ca0901b572fd55220", "is_reserved": 0, "lon": -77.0314905, "rental_uris": {"android": "https://dc.lft.to/lastmile_qr_scan", "ios": "https://dc.lft.to/lastmile_qr_scan"}}, {"name": "b732e8438b12154d7b65ad89d44b6440", "is_disabled": 0, "fusion_lat": 0.0, "fusion_lon": 0.0, "type": "electric_scooter", "lat": 38.914909, "bike_id": "b732e8438b12154d7b65ad89d44b6440", "is_reserved": 0, "lon": -77.01862933333334, "rental_uris": {"android": "https://dc.lft.to/lastmile_qr_scan", "ios": "https://dc.lft.to/lastmile_qr_scan"}}, {"name": "91e446cb0211907aa858fac66f07d5f4", "is_disabled": 0, "fusion_lat": 0.0, "fusion_lon": 0.0, "type": "electric_scooter", "lat": 38.95123233333333, "bike_id": "91e446cb0211907aa858fac66f07d5f4", "is_reserved": 0, "lon": -77.01360566666666, "rental_uris": {"android": "https://dc.lft.to/lastmile_qr_scan", "ios": "https://dc.lft.to/lastmile_qr_scan"}}, {"name": "8e1c74a61e33ea09b363ba9227d5d950", "is_disabled": 0, "fusion_lat": 0.0, "fusion_lon": 0.0, "type": "electric_scooter", "lat": 38.935615, "bike_id": "8e1c74a61e33ea09b363ba9227d5d950", "is_reserved": 0, "lon": -77.073088, "rental_uris": {"android": "https://dc.lft.to/lastmile_qr_scan", "ios": "https://dc.lft.to/lastmile_qr_scan"}}, {"name": "9da335be1304a8c32e96281ead2bb67e", "is_disabled": 0, "fusion_lat": 0.0, "fusion_lon": 0.0, "type": "electric_scooter", "lat": 38.91481316666667, "bike_id": "9da335be1304a8c32e96281ead2bb67e", "is_reserved": 0, "lon": -77.04481966666667, "rental_uris": {"android": "https://dc.lft.to/lastmile_qr_scan", "ios": "https://dc.lft.to/lastmile_qr_scan"}}, {"name": "5d1b9e1e98dad52fc8aac1d5eafd8f6c", "is_disabled": 0, "fusion_lat": 0.0, "fusion_lon": 0.0, "type": "electric_scooter", "lat": 38.878436, "bike_id": "5d1b9e1e98dad52fc8aac1d5eafd8f6c", "is_reserved": 0, "lon": -77.0302145, "rental_uris": {"android": "https://dc.lft.to/lastmile_qr_scan", "ios": "https://dc.lft.to/lastmile_qr_scan"}}, {"name": "d3c2295af22773b0514086337e586f7f", "is_disabled": 0, "fusion_lat": 0.0, "fusion_lon": 0.0, "type": "electric_scooter", "lat": 38.895028, "bike_id": "d3c2295af22773b0514086337e586f7f", "is_reserved": 0, "lon": -77.02869616666666, "rental_uris": {"android": "https://dc.lft.to/lastmile_qr_scan", "ios": "https://dc.lft.to/lastmile_qr_scan"}}, {"name": "d9d35ca600b74ed2b6b09f4d82d10ca4", "is_disabled": 0, "fusion_lat": 0.0, "fusion_lon": 0.0, "type": "electric_bike", "lat": 38.870914, "bike_id": "d9d35ca600b74ed2b6b09f4d82d10ca4", "is_reserved": 0, "lon": -77.01201666666667, "rental_uris": {"android": "https://dc.lft.to/lastmile_qr_scan", "ios": "https://dc.lft.to/lastmile_qr_scan"}}, {"name": "935be7cd40eadbe26de52c3fefd27bf5", "is_disabled": 0, "fusion_lat": 0.0, "fusion_lon": 0.0, "type": "electric_scooter", "lat": 38.88596583333333, "bike_id": "935be7cd40eadbe26de52c3fefd27bf5", "is_reserved": 0, "lon": -77.01242483333333, "rental_uris": {"android": "https://dc.lft.to/lastmile_qr_scan", "ios": "https://dc.lft.to/lastmile_qr_scan"}}, {"name": "4987fccfed47d7250d2a77c13c48cfd0", "is_disabled": 0, "fusion_lat": 0.0, "fusion_lon": 0.0, "type": "electric_scooter", "lat": 38.9303075, "bike_id": "4987fccfed47d7250d2a77c13c48cfd0", "is_reserved": 0, "lon": -77.01948633333333, "rental_uris": {"android": "https://dc.lft.to/lastmile_qr_scan", "ios": "https://dc.lft.to/lastmile_qr_scan"}}, {"name": "cf471f9aa6adb10d8c2c04c8183319bd", "is_disabled": 0, "fusion_lat": 0.0, "fusion_lon": 0.0, "type": "electric_scooter", "lat": 38.89897033333333, "bike_id": "cf471f9aa6adb10d8c2c04c8183319bd", "is_reserved": 0, "lon": -77.02596783333334, "rental_uris": {"android": "https://dc.lft.to/lastmile_qr_scan", "ios": "https://dc.lft.to/lastmile_qr_scan"}}, {"name": "8f63df085135f010d8d9eeae10a49eb0", "is_disabled": 0, "fusion_lat": 0.0, "fusion_lon": 0.0, "type": "electric_scooter", "lat": 38.916946833333334, "bike_id": "8f63df085135f010d8d9eeae10a49eb0", "is_reserved": 0, "lon": -77.03762833333333, "rental_uris": {"android": "https://dc.lft.to/lastmile_qr_scan", "ios": "https://dc.lft.to/lastmile_qr_scan"}}, {"name": "447f01fe628a5f3e1f72918bbdccde3d", "is_disabled": 0, "fusion_lat": 0.0, "fusion_lon": 0.0, "type": "electric_scooter", "lat": 38.91678816666666, "bike_id": "447f01fe628a5f3e1f72918bbdccde3d", "is_reserved": 0, "lon": -77.02339, "rental_uris": {"android": "https://dc.lft.to/lastmile_qr_scan", "ios": "https://dc.lft.to/lastmile_qr_scan"}}, {"name": "c5c1dbc0cf8e747d68b37cd71e2a215b", "is_disabled": 0, "fusion_lat": 0.0, "fusion_lon": 0.0, "type": "electric_scooter", "lat": 38.895985833333334, "bike_id": "c5c1dbc0cf8e747d68b37cd71e2a215b", "is_reserved": 0, "lon": -76.99029833333333, "rental_uris": {"android": "https://dc.lft.to/lastmile_qr_scan", "ios": "https://dc.lft.to/lastmile_qr_scan"}}, {"name": "049d5022a2ff68c30757f24ccb2cf23e", "is_disabled": 0, "fusion_lat": 0.0, "fusion_lon": 0.0, "type": "electric_scooter", "lat": 38.9000415, "bike_id": "049d5022a2ff68c30757f24ccb2cf23e", "is_reserved": 0, "lon": -76.9983715, "rental_uris": {"android": "https://dc.lft.to/lastmile_qr_scan", "ios": "https://dc.lft.to/lastmile_qr_scan"}}, {"name": "6dd06e49c6be140478f47e9ecf4517dc", "is_disabled": 0, "fusion_lat": 0.0, "fusion_lon": 0.0, "type": "electric_scooter", "lat": 38.8877545, "bike_id": "6dd06e49c6be140478f47e9ecf4517dc", "is_reserved": 0, "lon": -76.95519466666667, "rental_uris": {"android": "https://dc.lft.to/lastmile_qr_scan", "ios": "https://dc.lft.to/lastmile_qr_scan"}}, {"name": "2cd047cad6e4fef3f1cf26b4e4329d61", "is_disabled": 0, "fusion_lat": 0.0, "fusion_lon": 0.0, "type": "electric_scooter", "lat": 38.89227016666667, "bike_id": "2cd047cad6e4fef3f1cf26b4e4329d61", "is_reserved": 0, "lon": -77.04337133333334, "rental_uris": {"android": "https://dc.lft.to/lastmile_qr_scan", "ios": "https://dc.lft.to/lastmile_qr_scan"}}, {"name": "71be0a79d063fb30f33f1cb9ade33373", "is_disabled": 0, "fusion_lat": 0.0, "fusion_lon": 0.0, "type": "electric_scooter", "lat": 38.910203, "bike_id": "71be0a79d063fb30f33f1cb9ade33373", "is_reserved": 0, "lon": -77.03436966666666, "rental_uris": {"android": "https://dc.lft.to/lastmile_qr_scan", "ios": "https://dc.lft.to/lastmile_qr_scan"}}, {"name": "4589393d8f2f6ef1ae5bf4585c415aba", "is_disabled": 0, "fusion_lat": 0.0, "fusion_lon": 0.0, "type": "electric_bike", "lat": 39.013676333333336, "bike_id": "4589393d8f2f6ef1ae5bf4585c415aba", "is_reserved": 0, "lon": -76.92134266666666, "rental_uris": {"android": "https://dc.lft.to/lastmile_qr_scan", "ios": "https://dc.lft.to/lastmile_qr_scan"}}, {"name": "fcdfaf6974c5779c68163254c364d490", "is_disabled": 0, "fusion_lat": 0.0, "fusion_lon": 0.0, "type": "electric_scooter", "lat": 38.923265666666666, "bike_id": "fcdfaf6974c5779c68163254c364d490", "is_reserved": 0, "lon": -77.01953966666666, "rental_uris": {"android": "https://dc.lft.to/lastmile_qr_scan", "ios": "https://dc.lft.to/lastmile_qr_scan"}}, {"name": "187d70a98b323af60e175b79dbdf4cca", "is_disabled": 0, "fusion_lat": 0.0, "fusion_lon": 0.0, "type": "electric_bike", "lat": 38.87705116666667, "bike_id": "187d70a98b323af60e175b79dbdf4cca", "is_reserved": 0, "lon": -77.01749766666667, "rental_uris": {"android": "https://dc.lft.to/lastmile_qr_scan", "ios": "https://dc.lft.to/lastmile_qr_scan"}}, {"name": "be7d790a25640576b3eed7f07084f69d", "is_disabled": 0, "fusion_lat": 0.0, "fusion_lon": 0.0, "type": "electric_scooter", "lat": 38.923412666666664, "bike_id": "be7d790a25640576b3eed7f07084f69d", "is_reserved": 0, "lon": -77.00917416666667, "rental_uris": {"android": "https://dc.lft.to/lastmile_qr_scan", "ios": "https://dc.lft.to/lastmile_qr_scan"}}, {"name": "eab81fe2c77f18609e3a4282254fb5bd", "is_disabled": 0, "fusion_lat": 0.0, "fusion_lon": 0.0, "type": "electric_scooter", "lat": 38.843124833333334, "bike_id": "eab81fe2c77f18609e3a4282254fb5bd", "is_reserved": 0, "lon": -76.99932616666666, "rental_uris": {"android": "https://dc.lft.to/lastmile_qr_scan", "ios": "https://dc.lft.to/lastmile_qr_scan"}}, {"name": "fae28c85c0acd006d0bac8f85c57bfd4", "is_disabled": 0, "fusion_lat": 0.0, "fusion_lon": 0.0, "type": "electric_scooter", "lat": 38.93039666666667, "bike_id": "fae28c85c0acd006d0bac8f85c57bfd4", "is_reserved": 0, "lon": -77.01228033333334, "rental_uris": {"android": "https://dc.lft.to/lastmile_qr_scan", "ios": "https://dc.lft.to/lastmile_qr_scan"}}, {"name": "0b0c93feb305bf6167a6c89404332701", "is_disabled": 0, "fusion_lat": 0.0, "fusion_lon": 0.0, "type": "electric_scooter", "lat": 38.90866333333334, "bike_id": "0b0c93feb305bf6167a6c89404332701", "is_reserved": 0, "lon": -77.08594633333334, "rental_uris": {"android": "https://dc.lft.to/lastmile_qr_scan", "ios": "https://dc.lft.to/lastmile_qr_scan"}}, {"name": "e486f86d221f45d845a976936467c988", "is_disabled": 0, "fusion_lat": 0.0, "fusion_lon": 0.0, "type": "electric_scooter", "lat": 38.907833833333335, "bike_id": "e486f86d221f45d845a976936467c988", "is_reserved": 0, "lon": -77.04242833333333, "rental_uris": {"android": "https://dc.lft.to/lastmile_qr_scan", "ios": "https://dc.lft.to/lastmile_qr_scan"}}, {"name": "323051894f1f820598999505f54c8cb1", "is_disabled": 0, "fusion_lat": 0.0, "fusion_lon": 0.0, "type": "electric_scooter", "lat": 38.918134, "bike_id": "323051894f1f820598999505f54c8cb1", "is_reserved": 0, "lon": -77.0896015, "rental_uris": {"android": "https://dc.lft.to/lastmile_qr_scan", "ios": "https://dc.lft.to/lastmile_qr_scan"}}, {"name": "ee582907217c043daf9a7042fb576cdf", "is_disabled": 0, "fusion_lat": 0.0, "fusion_lon": 0.0, "type": "electric_scooter", "lat": 38.90489616666667, "bike_id": "ee582907217c043daf9a7042fb576cdf", "is_reserved": 0, "lon": -77.04186166666666, "rental_uris": {"android": "https://dc.lft.to/lastmile_qr_scan", "ios": "https://dc.lft.to/lastmile_qr_scan"}}, {"name": "00f35960749f185bed6f60c0e8a41b4a", "is_disabled": 0, "fusion_lat": 0.0, "fusion_lon": 0.0, "type": "electric_bike", "lat": 38.963184, "bike_id": "00f35960749f185bed6f60c0e8a41b4a", "is_reserved": 0, "lon": -76.97360916666666, "rental_uris": {"android": "https://dc.lft.to/lastmile_qr_scan", "ios": "https://dc.lft.to/lastmile_qr_scan"}}, {"name": "4217dcabc17799872918ba024ec29d48", "is_disabled": 0, "fusion_lat": 0.0, "fusion_lon": 0.0, "type": "electric_scooter", "lat": 38.8961465, "bike_id": "4217dcabc17799872918ba024ec29d48", "is_reserved": 0, "lon": -77.02381216666667, "rental_uris": {"android": "https://dc.lft.to/lastmile_qr_scan", "ios": "https://dc.lft.to/lastmile_qr_scan"}}, {"name": "51c8fea9ef738a441bd564faee53b356", "is_disabled": 0, "fusion_lat": 0.0, "fusion_lon": 0.0, "type": "electric_scooter", "lat": 38.917094666666664, "bike_id": "51c8fea9ef738a441bd564faee53b356", "is_reserved": 0, "lon": -77.034742, "rental_uris": {"android": "https://dc.lft.to/lastmile_qr_scan", "ios": "https://dc.lft.to/lastmile_qr_scan"}}, {"name": "d584cd37ed50814a0dc53c0427dd2377", "is_disabled": 0, "fusion_lat": 0.0, "fusion_lon": 0.0, "type": "electric_scooter", "lat": 38.9041255, "bike_id": "d584cd37ed50814a0dc53c0427dd2377", "is_reserved": 0, "lon": -77.0345815, "rental_uris": {"android": "https://dc.lft.to/lastmile_qr_scan", "ios": "https://dc.lft.to/lastmile_qr_scan"}}, {"name": "4fd1468cddb0ad55ed73a4ba275c95a2", "is_disabled": 0, "fusion_lat": 0.0, "fusion_lon": 0.0, "type": "electric_scooter", "lat": 38.90270533333333, "bike_id": "4fd1468cddb0ad55ed73a4ba275c95a2", "is_reserved": 0, "lon": -77.03976733333333, "rental_uris": {"android": "https://dc.lft.to/lastmile_qr_scan", "ios": "https://dc.lft.to/lastmile_qr_scan"}}, {"name": "23e40e1ab80317bf69bfa6a7f351559b", "is_disabled": 0, "fusion_lat": 0.0, "fusion_lon": 0.0, "type": "electric_scooter", "lat": 38.909481166666666, "bike_id": "23e40e1ab80317bf69bfa6a7f351559b", "is_reserved": 0, "lon": -77.0320175, "rental_uris": {"android": "https://dc.lft.to/lastmile_qr_scan", "ios": "https://dc.lft.to/lastmile_qr_scan"}}, {"name": "748606895649ae966cb3fe685c2dcf47", "is_disabled": 0, "fusion_lat": 0.0, "fusion_lon": 0.0, "type": "electric_scooter", "lat": 38.901451, "bike_id": "748606895649ae966cb3fe685c2dcf47", "is_reserved": 0, "lon": -77.02859816666667, "rental_uris": {"android": "https://dc.lft.to/lastmile_qr_scan", "ios": "https://dc.lft.to/lastmile_qr_scan"}}, {"name": "e1ae8136acbdc228472c88c8eb5f7809", "is_disabled": 0, "fusion_lat": 0.0, "fusion_lon": 0.0, "type": "electric_bike", "lat": 38.9630015, "bike_id": "e1ae8136acbdc228472c88c8eb5f7809", "is_reserved": 0, "lon": -77.01113066666667, "rental_uris": {"android": "https://dc.lft.to/lastmile_qr_scan", "ios": "https://dc.lft.to/lastmile_qr_scan"}}, {"name": "a31c7f7e91564efe1d8141890ef91f72", "is_disabled": 0, "fusion_lat": 0.0, "fusion_lon": 0.0, "type": "electric_bike", "lat": 38.9483785, "bike_id": "a31c7f7e91564efe1d8141890ef91f72", "is_reserved": 0, "lon": -76.99902666666667, "rental_uris": {"android": "https://dc.lft.to/lastmile_qr_scan", "ios": "https://dc.lft.to/lastmile_qr_scan"}}, {"name": "6c7370b6658c38662354a3cdbcd5eb4b", "is_disabled": 0, "fusion_lat": 0.0, "fusion_lon": 0.0, "type": "electric_scooter", "lat": 38.93600683333333, "bike_id": "6c7370b6658c38662354a3cdbcd5eb4b", "is_reserved": 0, "lon": -77.03771966666666, "rental_uris": {"android": "https://dc.lft.to/lastmile_qr_scan", "ios": "https://dc.lft.to/lastmile_qr_scan"}}, {"name": "74faf546d32b068e8e06b1f2ccf57cca", "is_disabled": 0, "fusion_lat": 0.0, "fusion_lon": 0.0, "type": "electric_bike", "lat": 38.95652533333333, "bike_id": "74faf546d32b068e8e06b1f2ccf57cca", "is_reserved": 0, "lon": -77.01277266666666, "rental_uris": {"android": "https://dc.lft.to/lastmile_qr_scan", "ios": "https://dc.lft.to/lastmile_qr_scan"}}, {"name": "6518cf792ad6c636bda758b7aade8497", "is_disabled": 0, "fusion_lat": 0.0, "fusion_lon": 0.0, "type": "electric_scooter", "lat": 38.929695833333334, "bike_id": "6518cf792ad6c636bda758b7aade8497", "is_reserved": 0, "lon": -77.01320866666667, "rental_uris": {"android": "https://dc.lft.to/lastmile_qr_scan", "ios": "https://dc.lft.to/lastmile_qr_scan"}}, {"name": "b89ec258771159b523cb21365d56a8cb", "is_disabled": 0, "fusion_lat": 0.0, "fusion_lon": 0.0, "type": "electric_scooter", "lat": 38.90725916666667, "bike_id": "b89ec258771159b523cb21365d56a8cb", "is_reserved": 0, "lon": -77.04347566666667, "rental_uris": {"android": "https://dc.lft.to/lastmile_qr_scan", "ios": "https://dc.lft.to/lastmile_qr_scan"}}, {"name": "80121e93784970b7a89072443d8cb117", "is_disabled": 0, "fusion_lat": 0.0, "fusion_lon": 0.0, "type": "electric_scooter", "lat": 38.919216166666665, "bike_id": "80121e93784970b7a89072443d8cb117", "is_reserved": 0, "lon": -77.025118, "rental_uris": {"android": "https://dc.lft.to/lastmile_qr_scan", "ios": "https://dc.lft.to/lastmile_qr_scan"}}, {"name": "987de273b235f7142db57842dc8f3a05", "is_disabled": 0, "fusion_lat": 0.0, "fusion_lon": 0.0, "type": "electric_scooter", "lat": 38.89858366666667, "bike_id": "987de273b235f7142db57842dc8f3a05", "is_reserved": 0, "lon": -76.92745666666667, "rental_uris": {"android": "https://dc.lft.to/lastmile_qr_scan", "ios": "https://dc.lft.to/lastmile_qr_scan"}}, {"name": "154bfb577a35bdc873a81e7400b5eafa", "is_disabled": 0, "fusion_lat": 0.0, "fusion_lon": 0.0, "type": "electric_scooter", "lat": 38.855362666666664, "bike_id": "154bfb577a35bdc873a81e7400b5eafa", "is_reserved": 0, "lon": -76.984168, "rental_uris": {"android": "https://dc.lft.to/lastmile_qr_scan", "ios": "https://dc.lft.to/lastmile_qr_scan"}}, {"name": "f8ff485d57592ce1d4b82f5ec57c6e3a", "is_disabled": 0, "fusion_lat": 0.0, "fusion_lon": 0.0, "type": "electric_scooter", "lat": 38.896946666666665, "bike_id": "f8ff485d57592ce1d4b82f5ec57c6e3a", "is_reserved": 0, "lon": -77.02404416666667, "rental_uris": {"android": "https://dc.lft.to/lastmile_qr_scan", "ios": "https://dc.lft.to/lastmile_qr_scan"}}, {"name": "aabf4d717a90e891feca8bd0c745f590", "is_disabled": 0, "fusion_lat": 0.0, "fusion_lon": 0.0, "type": "electric_scooter", "lat": 38.900790666666666, "bike_id": "aabf4d717a90e891feca8bd0c745f590", "is_reserved": 0, "lon": -76.93023383333333, "rental_uris": {"android": "https://dc.lft.to/lastmile_qr_scan", "ios": "https://dc.lft.to/lastmile_qr_scan"}}, {"name": "c3752d65920d8e82fadd8f780c56eeda", "is_disabled": 0, "fusion_lat": 0.0, "fusion_lon": 0.0, "type": "electric_scooter", "lat": 38.917684, "bike_id": "c3752d65920d8e82fadd8f780c56eeda", "is_reserved": 0, "lon": -77.040614, "rental_uris": {"android": "https://dc.lft.to/lastmile_qr_scan", "ios": "https://dc.lft.to/lastmile_qr_scan"}}, {"name": "a2326866df7ad67453b3aeb120b86c5b", "is_disabled": 0, "fusion_lat": 0.0, "fusion_lon": 0.0, "type": "electric_scooter", "lat": 38.91241616666667, "bike_id": "a2326866df7ad67453b3aeb120b86c5b", "is_reserved": 0, "lon": -77.0384175, "rental_uris": {"android": "https://dc.lft.to/lastmile_qr_scan", "ios": "https://dc.lft.to/lastmile_qr_scan"}}, {"name": "fe0196a825a915ff4561ea3d3179e2d8", "is_disabled": 0, "fusion_lat": 0.0, "fusion_lon": 0.0, "type": "electric_scooter", "lat": 38.884813666666666, "bike_id": "fe0196a825a915ff4561ea3d3179e2d8", "is_reserved": 0, "lon": -76.9261775, "rental_uris": {"android": "https://dc.lft.to/lastmile_qr_scan", "ios": "https://dc.lft.to/lastmile_qr_scan"}}, {"name": "28e34b16b29ca1a5334bca0209b3f420", "is_disabled": 0, "fusion_lat": 0.0, "fusion_lon": 0.0, "type": "electric_scooter", "lat": 38.942915166666666, "bike_id": "28e34b16b29ca1a5334bca0209b3f420", "is_reserved": 0, "lon": -77.02172966666667, "rental_uris": {"android": "https://dc.lft.to/lastmile_qr_scan", "ios": "https://dc.lft.to/lastmile_qr_scan"}}, {"name": "8ea264fed679408563e22cd94fc31c48", "is_disabled": 0, "fusion_lat": 0.0, "fusion_lon": 0.0, "type": "electric_scooter", "lat": 38.90776133333333, "bike_id": "8ea264fed679408563e22cd94fc31c48", "is_reserved": 0, "lon": -77.03817483333333, "rental_uris": {"android": "https://dc.lft.to/lastmile_qr_scan", "ios": "https://dc.lft.to/lastmile_qr_scan"}}, {"name": "12b9f808a0afb14f7146934618832627", "is_disabled": 0, "fusion_lat": 0.0, "fusion_lon": 0.0, "type": "electric_scooter", "lat": 38.90934016666667, "bike_id": "12b9f808a0afb14f7146934618832627", "is_reserved": 0, "lon": -77.03069516666666, "rental_uris": {"android": "https://dc.lft.to/lastmile_qr_scan", "ios": "https://dc.lft.to/lastmile_qr_scan"}}, {"name": "b6976f9ec5a73704fba06937fbb93729", "is_disabled": 0, "fusion_lat": 0.0, "fusion_lon": 0.0, "type": "electric_scooter", "lat": 38.8736465, "bike_id": "b6976f9ec5a73704fba06937fbb93729", "is_reserved": 0, "lon": -76.97017516666666, "rental_uris": {"android": "https://dc.lft.to/lastmile_qr_scan", "ios": "https://dc.lft.to/lastmile_qr_scan"}}, {"name": "3996e1595f1433e481e2ff6016301a49", "is_disabled": 0, "fusion_lat": 0.0, "fusion_lon": 0.0, "type": "electric_scooter", "lat": 38.892990166666664, "bike_id": "3996e1595f1433e481e2ff6016301a49", "is_reserved": 0, "lon": -76.99269116666666, "rental_uris": {"android": "https://dc.lft.to/lastmile_qr_scan", "ios": "https://dc.lft.to/lastmile_qr_scan"}}, {"name": "43b93c31eef344e4181332c15575d0cc", "is_disabled": 0, "fusion_lat": 0.0, "fusion_lon": 0.0, "type": "electric_scooter", "lat": 38.900399166666666, "bike_id": "43b93c31eef344e4181332c15575d0cc", "is_reserved": 0, "lon": -77.02392933333333, "rental_uris": {"android": "https://dc.lft.to/lastmile_qr_scan", "ios": "https://dc.lft.to/lastmile_qr_scan"}}, {"name": "e3fc5a0300f3bc1064f30676831a091b", "is_disabled": 0, "fusion_lat": 0.0, "fusion_lon": 0.0, "type": "electric_scooter", "lat": 38.90242466666667, "bike_id": "e3fc5a0300f3bc1064f30676831a091b", "is_reserved": 0, "lon": -77.03345416666667, "rental_uris": {"android": "https://dc.lft.to/lastmile_qr_scan", "ios": "https://dc.lft.to/lastmile_qr_scan"}}, {"name": "b498fb230481c08da7393474688c86d7", "is_disabled": 0, "fusion_lat": 0.0, "fusion_lon": 0.0, "type": "electric_scooter", "lat": 38.88501083333333, "bike_id": "b498fb230481c08da7393474688c86d7", "is_reserved": 0, "lon": -77.00561783333333, "rental_uris": {"android": "https://dc.lft.to/lastmile_qr_scan", "ios": "https://dc.lft.to/lastmile_qr_scan"}}, {"name": "7df31e02093ee67d26e3b6a310769f75", "is_disabled": 0, "fusion_lat": 0.0, "fusion_lon": 0.0, "type": "electric_scooter", "lat": 38.8766785, "bike_id": "7df31e02093ee67d26e3b6a310769f75", "is_reserved": 0, "lon": -77.004363, "rental_uris": {"android": "https://dc.lft.to/lastmile_qr_scan", "ios": "https://dc.lft.to/lastmile_qr_scan"}}, {"name": "eb003d3ec6732ded61d2158d22170c14", "is_disabled": 0, "fusion_lat": 0.0, "fusion_lon": 0.0, "type": "electric_bike", "lat": 39.050459833333335, "bike_id": "eb003d3ec6732ded61d2158d22170c14", "is_reserved": 0, "lon": -77.05146433333333, "rental_uris": {"android": "https://dc.lft.to/lastmile_qr_scan", "ios": "https://dc.lft.to/lastmile_qr_scan"}}, {"name": "84644c552f1320234a80ce37f04efc5f", "is_disabled": 0, "fusion_lat": 0.0, "fusion_lon": 0.0, "type": "electric_scooter", "lat": 38.906429333333335, "bike_id": "84644c552f1320234a80ce37f04efc5f", "is_reserved": 0, "lon": -77.046629, "rental_uris": {"android": "https://dc.lft.to/lastmile_qr_scan", "ios": "https://dc.lft.to/lastmile_qr_scan"}}, {"name": "83943319664aab4f245fbc16b523762a", "is_disabled": 0, "fusion_lat": 0.0, "fusion_lon": 0.0, "type": "electric_scooter", "lat": 38.90410716666667, "bike_id": "83943319664aab4f245fbc16b523762a", "is_reserved": 0, "lon": -76.97331316666667, "rental_uris": {"android": "https://dc.lft.to/lastmile_qr_scan", "ios": "https://dc.lft.to/lastmile_qr_scan"}}, {"name": "d1d79011b286480ba57960afe4f88c97", "is_disabled": 0, "fusion_lat": 0.0, "fusion_lon": 0.0, "type": "electric_scooter", "lat": 38.9218505, "bike_id": "d1d79011b286480ba57960afe4f88c97", "is_reserved": 0, "lon": -77.0434715, "rental_uris": {"android": "https://dc.lft.to/lastmile_qr_scan", "ios": "https://dc.lft.to/lastmile_qr_scan"}}, {"name": "f2bcf0020e025648415ae6c252b63356", "is_disabled": 0, "fusion_lat": 0.0, "fusion_lon": 0.0, "type": "electric_scooter", "lat": 38.906293166666664, "bike_id": "f2bcf0020e025648415ae6c252b63356", "is_reserved": 0, "lon": -77.0386445, "rental_uris": {"android": "https://dc.lft.to/lastmile_qr_scan", "ios": "https://dc.lft.to/lastmile_qr_scan"}}, {"name": "a5db11aa45647a9f1c183e2241a365f6", "is_disabled": 0, "fusion_lat": 0.0, "fusion_lon": 0.0, "type": "electric_scooter", "lat": 38.93402833333333, "bike_id": "a5db11aa45647a9f1c183e2241a365f6", "is_reserved": 0, "lon": -77.03257616666667, "rental_uris": {"android": "https://dc.lft.to/lastmile_qr_scan", "ios": "https://dc.lft.to/lastmile_qr_scan"}}, {"name": "0ed3ffc7607f4db4d9d208f6fe9d84cc", "is_disabled": 0, "fusion_lat": 0.0, "fusion_lon": 0.0, "type": "electric_scooter", "lat": 38.90378366666667, "bike_id": "0ed3ffc7607f4db4d9d208f6fe9d84cc", "is_reserved": 0, "lon": -77.04505633333333, "rental_uris": {"android": "https://dc.lft.to/lastmile_qr_scan", "ios": "https://dc.lft.to/lastmile_qr_scan"}}, {"name": "38d7ba138fc29e06632c347c4253a67a", "is_disabled": 0, "fusion_lat": 0.0, "fusion_lon": 0.0, "type": "electric_scooter", "lat": 38.91693433333333, "bike_id": "38d7ba138fc29e06632c347c4253a67a", "is_reserved": 0, "lon": -77.038205, "rental_uris": {"android": "https://dc.lft.to/lastmile_qr_scan", "ios": "https://dc.lft.to/lastmile_qr_scan"}}, {"name": "b4b2366bf643af4365ac15f5abd1a466", "is_disabled": 0, "fusion_lat": 0.0, "fusion_lon": 0.0, "type": "electric_scooter", "lat": 38.93019983333333, "bike_id": "b4b2366bf643af4365ac15f5abd1a466", "is_reserved": 0, "lon": -77.063104, "rental_uris": {"android": "https://dc.lft.to/lastmile_qr_scan", "ios": "https://dc.lft.to/lastmile_qr_scan"}}, {"name": "6246e7baa4bda0a2fda2d695756045b0", "is_disabled": 0, "fusion_lat": 0.0, "fusion_lon": 0.0, "type": "electric_bike", "lat": 38.83234383333333, "bike_id": "6246e7baa4bda0a2fda2d695756045b0", "is_reserved": 0, "lon": -76.94617466666666, "rental_uris": {"android": "https://dc.lft.to/lastmile_qr_scan", "ios": "https://dc.lft.to/lastmile_qr_scan"}}, {"name": "4af7f8959b26cc4065ee38295e714b5d", "is_disabled": 0, "fusion_lat": 0.0, "fusion_lon": 0.0, "type": "electric_scooter", "lat": 38.899799333333334, "bike_id": "4af7f8959b26cc4065ee38295e714b5d", "is_reserved": 0, "lon": -77.0415045, "rental_uris": {"android": "https://dc.lft.to/lastmile_qr_scan", "ios": "https://dc.lft.to/lastmile_qr_scan"}}, {"name": "089e95fc3678a2e54e82980df39ae20b", "is_disabled": 0, "fusion_lat": 0.0, "fusion_lon": 0.0, "type": "electric_scooter", "lat": 38.892969666666666, "bike_id": "089e95fc3678a2e54e82980df39ae20b", "is_reserved": 0, "lon": -76.99821433333334, "rental_uris": {"android": "https://dc.lft.to/lastmile_qr_scan", "ios": "https://dc.lft.to/lastmile_qr_scan"}}, {"name": "94b1ba9b9eacff88937b5a3ebd1c6fca", "is_disabled": 0, "fusion_lat": 0.0, "fusion_lon": 0.0, "type": "electric_scooter", "lat": 38.92293, "bike_id": "94b1ba9b9eacff88937b5a3ebd1c6fca", "is_reserved": 0, "lon": -77.042605, "rental_uris": {"android": "https://dc.lft.to/lastmile_qr_scan", "ios": "https://dc.lft.to/lastmile_qr_scan"}}, {"name": "049ebfd220c1bccc7767544f577793d1", "is_disabled": 0, "fusion_lat": 0.0, "fusion_lon": 0.0, "type": "electric_scooter", "lat": 38.919261166666665, "bike_id": "049ebfd220c1bccc7767544f577793d1", "is_reserved": 0, "lon": -77.03215216666666, "rental_uris": {"android": "https://dc.lft.to/lastmile_qr_scan", "ios": "https://dc.lft.to/lastmile_qr_scan"}}, {"name": "85aa1f18c77bdf94e1ecf395e109105e", "is_disabled": 0, "fusion_lat": 0.0, "fusion_lon": 0.0, "type": "electric_scooter", "lat": 38.8847625, "bike_id": "85aa1f18c77bdf94e1ecf395e109105e", "is_reserved": 0, "lon": -77.026571, "rental_uris": {"android": "https://dc.lft.to/lastmile_qr_scan", "ios": "https://dc.lft.to/lastmile_qr_scan"}}, {"name": "579b77a84583db91773b84652c6c81bf", "is_disabled": 0, "fusion_lat": 0.0, "fusion_lon": 0.0, "type": "electric_scooter", "lat": 38.903698, "bike_id": "579b77a84583db91773b84652c6c81bf", "is_reserved": 0, "lon": -77.04018633333334, "rental_uris": {"android": "https://dc.lft.to/lastmile_qr_scan", "ios": "https://dc.lft.to/lastmile_qr_scan"}}, {"name": "451c36093171e42686292fc8241689db", "is_disabled": 0, "fusion_lat": 0.0, "fusion_lon": 0.0, "type": "electric_bike", "lat": 38.936881166666666, "bike_id": "451c36093171e42686292fc8241689db", "is_reserved": 0, "lon": -76.99059683333333, "rental_uris": {"android": "https://dc.lft.to/lastmile_qr_scan", "ios": "https://dc.lft.to/lastmile_qr_scan"}}, {"name": "671ea63206c6b83effa93e059c60331c", "is_disabled": 0, "fusion_lat": 0.0, "fusion_lon": 0.0, "type": "electric_scooter", "lat": 38.92295, "bike_id": "671ea63206c6b83effa93e059c60331c", "is_reserved": 0, "lon": -77.043015, "rental_uris": {"android": "https://dc.lft.to/lastmile_qr_scan", "ios": "https://dc.lft.to/lastmile_qr_scan"}}, {"name": "37812608da0ac2f3e9779765a20464df", "is_disabled": 0, "fusion_lat": 0.0, "fusion_lon": 0.0, "type": "electric_scooter", "lat": 38.951819, "bike_id": "37812608da0ac2f3e9779765a20464df", "is_reserved": 0, "lon": -77.0261045, "rental_uris": {"android": "https://dc.lft.to/lastmile_qr_scan", "ios": "https://dc.lft.to/lastmile_qr_scan"}}, {"name": "73a181c6609029a378a0f8ba62e85569", "is_disabled": 0, "fusion_lat": 0.0, "fusion_lon": 0.0, "type": "electric_scooter", "lat": 38.89361383333333, "bike_id": "73a181c6609029a378a0f8ba62e85569", "is_reserved": 0, "lon": -77.05488383333334, "rental_uris": {"android": "https://dc.lft.to/lastmile_qr_scan", "ios": "https://dc.lft.to/lastmile_qr_scan"}}, {"name": "e6784e2d4cb67f34f287560268828b48", "is_disabled": 0, "fusion_lat": 0.0, "fusion_lon": 0.0, "type": "electric_scooter", "lat": 38.9181445, "bike_id": "e6784e2d4cb67f34f287560268828b48", "is_reserved": 0, "lon": -77.03253133333334, "rental_uris": {"android": "https://dc.lft.to/lastmile_qr_scan", "ios": "https://dc.lft.to/lastmile_qr_scan"}}, {"name": "e51338d6694a26a7b38947884be6b072", "is_disabled": 0, "fusion_lat": 0.0, "fusion_lon": 0.0, "type": "electric_scooter", "lat": 38.89799883333333, "bike_id": "e51338d6694a26a7b38947884be6b072", "is_reserved": 0, "lon": -77.0248065, "rental_uris": {"android": "https://dc.lft.to/lastmile_qr_scan", "ios": "https://dc.lft.to/lastmile_qr_scan"}}, {"name": "f4bacc80746a6b60d6892e94108feadf", "is_disabled": 0, "fusion_lat": 0.0, "fusion_lon": 0.0, "type": "electric_scooter", "lat": 38.907487333333336, "bike_id": "f4bacc80746a6b60d6892e94108feadf", "is_reserved": 0, "lon": -77.03067616666667, "rental_uris": {"android": "https://dc.lft.to/lastmile_qr_scan", "ios": "https://dc.lft.to/lastmile_qr_scan"}}, {"name": "ac1dedabd6c669b2b088faf6f08577d8", "is_disabled": 0, "fusion_lat": 0.0, "fusion_lon": 0.0, "type": "electric_scooter", "lat": 38.90775683333333, "bike_id": "ac1dedabd6c669b2b088faf6f08577d8", "is_reserved": 0, "lon": -77.03829116666667, "rental_uris": {"android": "https://dc.lft.to/lastmile_qr_scan", "ios": "https://dc.lft.to/lastmile_qr_scan"}}, {"name": "13bafbf688fa9f8f9a00eaf287ab5cf3", "is_disabled": 0, "fusion_lat": 0.0, "fusion_lon": 0.0, "type": "electric_scooter", "lat": 38.90235166666667, "bike_id": "13bafbf688fa9f8f9a00eaf287ab5cf3", "is_reserved": 0, "lon": -77.04347733333333, "rental_uris": {"android": "https://dc.lft.to/lastmile_qr_scan", "ios": "https://dc.lft.to/lastmile_qr_scan"}}, {"name": "3c3381f01e29cbcddc797c67dfbfc474", "is_disabled": 0, "fusion_lat": 0.0, "fusion_lon": 0.0, "type": "electric_scooter", "lat": 38.896181, "bike_id": "3c3381f01e29cbcddc797c67dfbfc474", "is_reserved": 0, "lon": -76.98163766666667, "rental_uris": {"android": "https://dc.lft.to/lastmile_qr_scan", "ios": "https://dc.lft.to/lastmile_qr_scan"}}, {"name": "f39621d5997c7a96a95fc5ab6c29c4c2", "is_disabled": 0, "fusion_lat": 0.0, "fusion_lon": 0.0, "type": "electric_scooter", "lat": 38.902507, "bike_id": "f39621d5997c7a96a95fc5ab6c29c4c2", "is_reserved": 0, "lon": -77.028704, "rental_uris": {"android": "https://dc.lft.to/lastmile_qr_scan", "ios": "https://dc.lft.to/lastmile_qr_scan"}}, {"name": "e300feb502e13cb4ce779efa9aec8500", "is_disabled": 0, "fusion_lat": 0.0, "fusion_lon": 0.0, "type": "electric_scooter", "lat": 38.88390916666667, "bike_id": "e300feb502e13cb4ce779efa9aec8500", "is_reserved": 0, "lon": -76.95445066666667, "rental_uris": {"android": "https://dc.lft.to/lastmile_qr_scan", "ios": "https://dc.lft.to/lastmile_qr_scan"}}, {"name": "160f2f024da33428c9821c3378ebeaa7", "is_disabled": 0, "fusion_lat": 0.0, "fusion_lon": 0.0, "type": "electric_scooter", "lat": 38.9506775, "bike_id": "160f2f024da33428c9821c3378ebeaa7", "is_reserved": 0, "lon": -77.06532083333333, "rental_uris": {"android": "https://dc.lft.to/lastmile_qr_scan", "ios": "https://dc.lft.to/lastmile_qr_scan"}}, {"name": "c3d4c842bf248044fcd03523ac5aaaac", "is_disabled": 0, "fusion_lat": 0.0, "fusion_lon": 0.0, "type": "electric_scooter", "lat": 38.899804333333336, "bike_id": "c3d4c842bf248044fcd03523ac5aaaac", "is_reserved": 0, "lon": -77.020261, "rental_uris": {"android": "https://dc.lft.to/lastmile_qr_scan", "ios": "https://dc.lft.to/lastmile_qr_scan"}}, {"name": "98c836e2179ac5e2f25d6e862203559e", "is_disabled": 0, "fusion_lat": 0.0, "fusion_lon": 0.0, "type": "electric_scooter", "lat": 38.917299166666666, "bike_id": "98c836e2179ac5e2f25d6e862203559e", "is_reserved": 0, "lon": -77.0408685, "rental_uris": {"android": "https://dc.lft.to/lastmile_qr_scan", "ios": "https://dc.lft.to/lastmile_qr_scan"}}, {"name": "82cf89ec5ce50abd7ec6fe0f4483ec54", "is_disabled": 0, "fusion_lat": 0.0, "fusion_lon": 0.0, "type": "electric_scooter", "lat": 38.919127833333334, "bike_id": "82cf89ec5ce50abd7ec6fe0f4483ec54", "is_reserved": 0, "lon": -77.0301555, "rental_uris": {"android": "https://dc.lft.to/lastmile_qr_scan", "ios": "https://dc.lft.to/lastmile_qr_scan"}}, {"name": "8d754e7d607672b88759770c625a05ca", "is_disabled": 0, "fusion_lat": 0.0, "fusion_lon": 0.0, "type": "electric_scooter", "lat": 38.919850333333336, "bike_id": "8d754e7d607672b88759770c625a05ca", "is_reserved": 0, "lon": -77.0215125, "rental_uris": {"android": "https://dc.lft.to/lastmile_qr_scan", "ios": "https://dc.lft.to/lastmile_qr_scan"}}, {"name": "a76f1ebf781a25255f84d8cbb7e9c3ab", "is_disabled": 0, "fusion_lat": 0.0, "fusion_lon": 0.0, "type": "electric_scooter", "lat": 38.909203, "bike_id": "a76f1ebf781a25255f84d8cbb7e9c3ab", "is_reserved": 0, "lon": -77.07276316666666, "rental_uris": {"android": "https://dc.lft.to/lastmile_qr_scan", "ios": "https://dc.lft.to/lastmile_qr_scan"}}, {"name": "fa3339a1310b1fc8b65d5448e88aa044", "is_disabled": 0, "fusion_lat": 0.0, "fusion_lon": 0.0, "type": "electric_scooter", "lat": 38.893129333333334, "bike_id": "fa3339a1310b1fc8b65d5448e88aa044", "is_reserved": 0, "lon": -76.93977483333333, "rental_uris": {"android": "https://dc.lft.to/lastmile_qr_scan", "ios": "https://dc.lft.to/lastmile_qr_scan"}}, {"name": "5025303dd6919c5357fae8be2df28081", "is_disabled": 0, "fusion_lat": 0.0, "fusion_lon": 0.0, "type": "electric_scooter", "lat": 38.9214085, "bike_id": "5025303dd6919c5357fae8be2df28081", "is_reserved": 0, "lon": -77.02520516666667, "rental_uris": {"android": "https://dc.lft.to/lastmile_qr_scan", "ios": "https://dc.lft.to/lastmile_qr_scan"}}, {"name": "fc085c92b9aa084bf46f03c52db202b5", "is_disabled": 0, "fusion_lat": 0.0, "fusion_lon": 0.0, "type": "electric_scooter", "lat": 38.90135933333333, "bike_id": "fc085c92b9aa084bf46f03c52db202b5", "is_reserved": 0, "lon": -77.01311933333334, "rental_uris": {"android": "https://dc.lft.to/lastmile_qr_scan", "ios": "https://dc.lft.to/lastmile_qr_scan"}}, {"name": "459c56097f3ec9716e89a4ca356db400", "is_disabled": 0, "fusion_lat": 0.0, "fusion_lon": 0.0, "type": "electric_scooter", "lat": 38.917464333333335, "bike_id": "459c56097f3ec9716e89a4ca356db400", "is_reserved": 0, "lon": -77.03639616666666, "rental_uris": {"android": "https://dc.lft.to/lastmile_qr_scan", "ios": "https://dc.lft.to/lastmile_qr_scan"}}, {"name": "3fe8dea8eaa06cdd55852d62e6a45b78", "is_disabled": 0, "fusion_lat": 0.0, "fusion_lon": 0.0, "type": "electric_scooter", "lat": 38.85063683333333, "bike_id": "3fe8dea8eaa06cdd55852d62e6a45b78", "is_reserved": 0, "lon": -76.970017, "rental_uris": {"android": "https://dc.lft.to/lastmile_qr_scan", "ios": "https://dc.lft.to/lastmile_qr_scan"}}, {"name": "20c960a1290a9681b2bfc5cd27c242a8", "is_disabled": 0, "fusion_lat": 0.0, "fusion_lon": 0.0, "type": "electric_scooter", "lat": 38.92859883333333, "bike_id": "20c960a1290a9681b2bfc5cd27c242a8", "is_reserved": 0, "lon": -77.03190766666667, "rental_uris": {"android": "https://dc.lft.to/lastmile_qr_scan", "ios": "https://dc.lft.to/lastmile_qr_scan"}}, {"name": "8eaa76799d6d3cbe5f8ce03bf631744e", "is_disabled": 0, "fusion_lat": 0.0, "fusion_lon": 0.0, "type": "electric_scooter", "lat": 38.9265255, "bike_id": "8eaa76799d6d3cbe5f8ce03bf631744e", "is_reserved": 0, "lon": -77.03730266666666, "rental_uris": {"android": "https://dc.lft.to/lastmile_qr_scan", "ios": "https://dc.lft.to/lastmile_qr_scan"}}, {"name": "ab31a350e8e840a75a655fe26f785658", "is_disabled": 0, "fusion_lat": 0.0, "fusion_lon": 0.0, "type": "electric_scooter", "lat": 38.85850633333333, "bike_id": "ab31a350e8e840a75a655fe26f785658", "is_reserved": 0, "lon": -76.98561733333334, "rental_uris": {"android": "https://dc.lft.to/lastmile_qr_scan", "ios": "https://dc.lft.to/lastmile_qr_scan"}}, {"name": "5fc4124a89e71c2c4ee86a92ec0046f4", "is_disabled": 0, "fusion_lat": 0.0, "fusion_lon": 0.0, "type": "electric_scooter", "lat": 38.905922, "bike_id": "5fc4124a89e71c2c4ee86a92ec0046f4", "is_reserved": 0, "lon": -77.022238, "rental_uris": {"android": "https://dc.lft.to/lastmile_qr_scan", "ios": "https://dc.lft.to/lastmile_qr_scan"}}, {"name": "82d3bb36c4e7c06d6499d9bedae8150a", "is_disabled": 0, "fusion_lat": 0.0, "fusion_lon": 0.0, "type": "electric_scooter", "lat": 38.849944, "bike_id": "82d3bb36c4e7c06d6499d9bedae8150a", "is_reserved": 0, "lon": -76.98345733333333, "rental_uris": {"android": "https://dc.lft.to/lastmile_qr_scan", "ios": "https://dc.lft.to/lastmile_qr_scan"}}, {"name": "2fe064573937a5c92d561b66ee667369", "is_disabled": 0, "fusion_lat": 0.0, "fusion_lon": 0.0, "type": "electric_scooter", "lat": 38.921712, "bike_id": "2fe064573937a5c92d561b66ee667369", "is_reserved": 0, "lon": -77.03212833333333, "rental_uris": {"android": "https://dc.lft.to/lastmile_qr_scan", "ios": "https://dc.lft.to/lastmile_qr_scan"}}, {"name": "9310e4121f68eb23c89d4df95a6e163b", "is_disabled": 0, "fusion_lat": 0.0, "fusion_lon": 0.0, "type": "electric_scooter", "lat": 38.9025735, "bike_id": "9310e4121f68eb23c89d4df95a6e163b", "is_reserved": 0, "lon": -77.039033, "rental_uris": {"android": "https://dc.lft.to/lastmile_qr_scan", "ios": "https://dc.lft.to/lastmile_qr_scan"}}, {"name": "9d64b29c58b5745a50a775fcc50d11e6", "is_disabled": 0, "fusion_lat": 0.0, "fusion_lon": 0.0, "type": "electric_bike", "lat": 38.86210583333333, "bike_id": "9d64b29c58b5745a50a775fcc50d11e6", "is_reserved": 0, "lon": -76.99569216666667, "rental_uris": {"android": "https://dc.lft.to/lastmile_qr_scan", "ios": "https://dc.lft.to/lastmile_qr_scan"}}, {"name": "84ed455f756e5692cecca3e30082bcb1", "is_disabled": 0, "fusion_lat": 0.0, "fusion_lon": 0.0, "type": "electric_scooter", "lat": 38.919557166666664, "bike_id": "84ed455f756e5692cecca3e30082bcb1", "is_reserved": 0, "lon": -77.02388983333333, "rental_uris": {"android": "https://dc.lft.to/lastmile_qr_scan", "ios": "https://dc.lft.to/lastmile_qr_scan"}}, {"name": "233962f4ab04cbaf5948ba7d5dc4b7ea", "is_disabled": 0, "fusion_lat": 0.0, "fusion_lon": 0.0, "type": "electric_scooter", "lat": 38.9018735, "bike_id": "233962f4ab04cbaf5948ba7d5dc4b7ea", "is_reserved": 0, "lon": -76.93365483333334, "rental_uris": {"android": "https://dc.lft.to/lastmile_qr_scan", "ios": "https://dc.lft.to/lastmile_qr_scan"}}, {"name": "214cdb185ebb750cf7e2c38c6f7dc562", "is_disabled": 0, "fusion_lat": 0.0, "fusion_lon": 0.0, "type": "electric_bike", "lat": 39.057857, "bike_id": "214cdb185ebb750cf7e2c38c6f7dc562", "is_reserved": 0, "lon": -77.15015283333334, "rental_uris": {"android": "https://dc.lft.to/lastmile_qr_scan", "ios": "https://dc.lft.to/lastmile_qr_scan"}}, {"name": "19e17cfa26de500fd8d20f54b72a2dda", "is_disabled": 0, "fusion_lat": 0.0, "fusion_lon": 0.0, "type": "electric_scooter", "lat": 38.9028475, "bike_id": "19e17cfa26de500fd8d20f54b72a2dda", "is_reserved": 0, "lon": -77.058108, "rental_uris": {"android": "https://dc.lft.to/lastmile_qr_scan", "ios": "https://dc.lft.to/lastmile_qr_scan"}}, {"name": "c1a76c58aeaa59f3967a8d36b04ec50b", "is_disabled": 0, "fusion_lat": 0.0, "fusion_lon": 0.0, "type": "electric_scooter", "lat": 38.9303895, "bike_id": "c1a76c58aeaa59f3967a8d36b04ec50b", "is_reserved": 0, "lon": -77.03795966666667, "rental_uris": {"android": "https://dc.lft.to/lastmile_qr_scan", "ios": "https://dc.lft.to/lastmile_qr_scan"}}, {"name": "c6294a0017bd285857f5a1c058fbbf60", "is_disabled": 0, "fusion_lat": 0.0, "fusion_lon": 0.0, "type": "electric_scooter", "lat": 38.953262333333335, "bike_id": "c6294a0017bd285857f5a1c058fbbf60", "is_reserved": 0, "lon": -77.0706945, "rental_uris": {"android": "https://dc.lft.to/lastmile_qr_scan", "ios": "https://dc.lft.to/lastmile_qr_scan"}}, {"name": "c7a59380e1e9423d12e750237a5a28a3", "is_disabled": 0, "fusion_lat": 0.0, "fusion_lon": 0.0, "type": "electric_scooter", "lat": 38.895147333333334, "bike_id": "c7a59380e1e9423d12e750237a5a28a3", "is_reserved": 0, "lon": -77.03956366666667, "rental_uris": {"android": "https://dc.lft.to/lastmile_qr_scan", "ios": "https://dc.lft.to/lastmile_qr_scan"}}, {"name": "bcbb6cd0f7b8d662b1cc8b86f97df817", "is_disabled": 0, "fusion_lat": 0.0, "fusion_lon": 0.0, "type": "electric_scooter", "lat": 38.92164116666667, "bike_id": "bcbb6cd0f7b8d662b1cc8b86f97df817", "is_reserved": 0, "lon": -77.03314616666667, "rental_uris": {"android": "https://dc.lft.to/lastmile_qr_scan", "ios": "https://dc.lft.to/lastmile_qr_scan"}}, {"name": "f443942d0dba1d180f20c51cc5761a27", "is_disabled": 0, "fusion_lat": 0.0, "fusion_lon": 0.0, "type": "electric_scooter", "lat": 38.91060133333333, "bike_id": "f443942d0dba1d180f20c51cc5761a27", "is_reserved": 0, "lon": -77.04105233333334, "rental_uris": {"android": "https://dc.lft.to/lastmile_qr_scan", "ios": "https://dc.lft.to/lastmile_qr_scan"}}, {"name": "dca12b0d7a887c662b548f332558b14a", "is_disabled": 0, "fusion_lat": 0.0, "fusion_lon": 0.0, "type": "electric_scooter", "lat": 38.903446333333335, "bike_id": "dca12b0d7a887c662b548f332558b14a", "is_reserved": 0, "lon": -77.0464915, "rental_uris": {"android": "https://dc.lft.to/lastmile_qr_scan", "ios": "https://dc.lft.to/lastmile_qr_scan"}}, {"name": "33298faa59878a770f3fb74b13c4dfc9", "is_disabled": 0, "fusion_lat": 0.0, "fusion_lon": 0.0, "type": "electric_scooter", "lat": 38.922026833333334, "bike_id": "33298faa59878a770f3fb74b13c4dfc9", "is_reserved": 0, "lon": -77.04250433333333, "rental_uris": {"android": "https://dc.lft.to/lastmile_qr_scan", "ios": "https://dc.lft.to/lastmile_qr_scan"}}, {"name": "fbc2fad3aafb9d77becde82679a87362", "is_disabled": 0, "fusion_lat": 0.0, "fusion_lon": 0.0, "type": "electric_scooter", "lat": 38.9039885, "bike_id": "fbc2fad3aafb9d77becde82679a87362", "is_reserved": 0, "lon": -77.03444983333333, "rental_uris": {"android": "https://dc.lft.to/lastmile_qr_scan", "ios": "https://dc.lft.to/lastmile_qr_scan"}}, {"name": "e12a5d746ffd6f22a5e7290c21bceb08", "is_disabled": 0, "fusion_lat": 0.0, "fusion_lon": 0.0, "type": "electric_scooter", "lat": 38.902725, "bike_id": "e12a5d746ffd6f22a5e7290c21bceb08", "is_reserved": 0, "lon": -77.0396805, "rental_uris": {"android": "https://dc.lft.to/lastmile_qr_scan", "ios": "https://dc.lft.to/lastmile_qr_scan"}}, {"name": "09f41cc1ea071961db0afad5613cb4b6", "is_disabled": 0, "fusion_lat": 0.0, "fusion_lon": 0.0, "type": "electric_scooter", "lat": 38.902369666666665, "bike_id": "09f41cc1ea071961db0afad5613cb4b6", "is_reserved": 0, "lon": -77.04361133333333, "rental_uris": {"android": "https://dc.lft.to/lastmile_qr_scan", "ios": "https://dc.lft.to/lastmile_qr_scan"}}, {"name": "fe7465ce2477a64144b6ab54264700ee", "is_disabled": 0, "fusion_lat": 0.0, "fusion_lon": 0.0, "type": "electric_bike", "lat": 38.85560916666667, "bike_id": "fe7465ce2477a64144b6ab54264700ee", "is_reserved": 0, "lon": -77.0818895, "rental_uris": {"android": "https://dc.lft.to/lastmile_qr_scan", "ios": "https://dc.lft.to/lastmile_qr_scan"}}, {"name": "f0a22da318a9d60557f3ac9167bdc3e2", "is_disabled": 0, "fusion_lat": 0.0, "fusion_lon": 0.0, "type": "electric_scooter", "lat": 38.9077975, "bike_id": "f0a22da318a9d60557f3ac9167bdc3e2", "is_reserved": 0, "lon": -77.07253166666666, "rental_uris": {"android": "https://dc.lft.to/lastmile_qr_scan", "ios": "https://dc.lft.to/lastmile_qr_scan"}}, {"name": "3e1c587b5c205e80430c9c99614f755f", "is_disabled": 0, "fusion_lat": 0.0, "fusion_lon": 0.0, "type": "electric_scooter", "lat": 38.902814666666664, "bike_id": "3e1c587b5c205e80430c9c99614f755f", "is_reserved": 0, "lon": -77.03637483333333, "rental_uris": {"android": "https://dc.lft.to/lastmile_qr_scan", "ios": "https://dc.lft.to/lastmile_qr_scan"}}, {"name": "5b6ba827dc8d1898090c71203dd4b844", "is_disabled": 0, "fusion_lat": 0.0, "fusion_lon": 0.0, "type": "electric_scooter", "lat": 38.900441666666666, "bike_id": "5b6ba827dc8d1898090c71203dd4b844", "is_reserved": 0, "lon": -77.02911066666667, "rental_uris": {"android": "https://dc.lft.to/lastmile_qr_scan", "ios": "https://dc.lft.to/lastmile_qr_scan"}}, {"name": "49ebd2feb58a300794d396d2e69f58a0", "is_disabled": 0, "fusion_lat": 0.0, "fusion_lon": 0.0, "type": "electric_scooter", "lat": 38.88528483333333, "bike_id": "49ebd2feb58a300794d396d2e69f58a0", "is_reserved": 0, "lon": -76.982701, "rental_uris": {"android": "https://dc.lft.to/lastmile_qr_scan", "ios": "https://dc.lft.to/lastmile_qr_scan"}}, {"name": "b15c52286717b48f73d1545850b807fd", "is_disabled": 0, "fusion_lat": 0.0, "fusion_lon": 0.0, "type": "electric_scooter", "lat": 38.897338500000004, "bike_id": "b15c52286717b48f73d1545850b807fd", "is_reserved": 0, "lon": -77.0556055, "rental_uris": {"android": "https://dc.lft.to/lastmile_qr_scan", "ios": "https://dc.lft.to/lastmile_qr_scan"}}, {"name": "125498717adbb4cb90414fe8c9d5de19", "is_disabled": 0, "fusion_lat": 0.0, "fusion_lon": 0.0, "type": "electric_scooter", "lat": 38.907365666666664, "bike_id": "125498717adbb4cb90414fe8c9d5de19", "is_reserved": 0, "lon": -77.02804983333333, "rental_uris": {"android": "https://dc.lft.to/lastmile_qr_scan", "ios": "https://dc.lft.to/lastmile_qr_scan"}}, {"name": "5add6de15667136aa4bbe7483f00ea8c", "is_disabled": 0, "fusion_lat": 0.0, "fusion_lon": 0.0, "type": "electric_scooter", "lat": 38.92267983333333, "bike_id": "5add6de15667136aa4bbe7483f00ea8c", "is_reserved": 0, "lon": -77.02183516666666, "rental_uris": {"android": "https://dc.lft.to/lastmile_qr_scan", "ios": "https://dc.lft.to/lastmile_qr_scan"}}, {"name": "1ca1893200c1f7d9033d022f16176142", "is_disabled": 0, "fusion_lat": 0.0, "fusion_lon": 0.0, "type": "electric_scooter", "lat": 38.926104333333335, "bike_id": "1ca1893200c1f7d9033d022f16176142", "is_reserved": 0, "lon": -77.02164366666666, "rental_uris": {"android": "https://dc.lft.to/lastmile_qr_scan", "ios": "https://dc.lft.to/lastmile_qr_scan"}}, {"name": "81973610423f94e3984c015c96a4416f", "is_disabled": 0, "fusion_lat": 0.0, "fusion_lon": 0.0, "type": "electric_scooter", "lat": 38.91705183333333, "bike_id": "81973610423f94e3984c015c96a4416f", "is_reserved": 0, "lon": -77.04146433333334, "rental_uris": {"android": "https://dc.lft.to/lastmile_qr_scan", "ios": "https://dc.lft.to/lastmile_qr_scan"}}, {"name": "3d9e50e48c041b5058f51ba5eba56fb2", "is_disabled": 0, "fusion_lat": 0.0, "fusion_lon": 0.0, "type": "electric_bike", "lat": 38.8963215, "bike_id": "3d9e50e48c041b5058f51ba5eba56fb2", "is_reserved": 0, "lon": -76.90733233333333, "rental_uris": {"android": "https://dc.lft.to/lastmile_qr_scan", "ios": "https://dc.lft.to/lastmile_qr_scan"}}, {"name": "c3157da0691f714489e77e6b07dc28cb", "is_disabled": 0, "fusion_lat": 0.0, "fusion_lon": 0.0, "type": "electric_scooter", "lat": 38.89740833333333, "bike_id": "c3157da0691f714489e77e6b07dc28cb", "is_reserved": 0, "lon": -77.03347816666667, "rental_uris": {"android": "https://dc.lft.to/lastmile_qr_scan", "ios": "https://dc.lft.to/lastmile_qr_scan"}}, {"name": "eda470c4b3b52c8db491d07d18b02805", "is_disabled": 0, "fusion_lat": 0.0, "fusion_lon": 0.0, "type": "electric_scooter", "lat": 38.9182065, "bike_id": "eda470c4b3b52c8db491d07d18b02805", "is_reserved": 0, "lon": -77.03452783333333, "rental_uris": {"android": "https://dc.lft.to/lastmile_qr_scan", "ios": "https://dc.lft.to/lastmile_qr_scan"}}, {"name": "724136f6241622b56a2ea4cd45bd543a", "is_disabled": 0, "fusion_lat": 0.0, "fusion_lon": 0.0, "type": "electric_scooter", "lat": 38.89508333333333, "bike_id": "724136f6241622b56a2ea4cd45bd543a", "is_reserved": 0, "lon": -77.046758, "rental_uris": {"android": "https://dc.lft.to/lastmile_qr_scan", "ios": "https://dc.lft.to/lastmile_qr_scan"}}, {"name": "c4314942a6f366f00a6ce1857bbe0c39", "is_disabled": 0, "fusion_lat": 0.0, "fusion_lon": 0.0, "type": "electric_scooter", "lat": 38.895208333333336, "bike_id": "c4314942a6f366f00a6ce1857bbe0c39", "is_reserved": 0, "lon": -77.00337083333334, "rental_uris": {"android": "https://dc.lft.to/lastmile_qr_scan", "ios": "https://dc.lft.to/lastmile_qr_scan"}}, {"name": "c794759b5ab06da21599d2b0919a2d5f", "is_disabled": 0, "fusion_lat": 0.0, "fusion_lon": 0.0, "type": "electric_scooter", "lat": 38.901545, "bike_id": "c794759b5ab06da21599d2b0919a2d5f", "is_reserved": 0, "lon": -76.97629233333333, "rental_uris": {"android": "https://dc.lft.to/lastmile_qr_scan", "ios": "https://dc.lft.to/lastmile_qr_scan"}}, {"name": "dcded460b56808701882099c81c00622", "is_disabled": 0, "fusion_lat": 0.0, "fusion_lon": 0.0, "type": "electric_scooter", "lat": 38.8933975, "bike_id": "dcded460b56808701882099c81c00622", "is_reserved": 0, "lon": -77.01227416666667, "rental_uris": {"android": "https://dc.lft.to/lastmile_qr_scan", "ios": "https://dc.lft.to/lastmile_qr_scan"}}, {"name": "5a1ad52e9832c258769d1b67c2f7a0a1", "is_disabled": 0, "fusion_lat": 0.0, "fusion_lon": 0.0, "type": "electric_scooter", "lat": 38.899144, "bike_id": "5a1ad52e9832c258769d1b67c2f7a0a1", "is_reserved": 0, "lon": -76.93365733333333, "rental_uris": {"android": "https://dc.lft.to/lastmile_qr_scan", "ios": "https://dc.lft.to/lastmile_qr_scan"}}, {"name": "e732d0740df1edad2c0b9a4255bef342", "is_disabled": 0, "fusion_lat": 0.0, "fusion_lon": 0.0, "type": "electric_scooter", "lat": 38.915633, "bike_id": "e732d0740df1edad2c0b9a4255bef342", "is_reserved": 0, "lon": -77.0238965, "rental_uris": {"android": "https://dc.lft.to/lastmile_qr_scan", "ios": "https://dc.lft.to/lastmile_qr_scan"}}, {"name": "a7e73157ff869955b730b841952d3c4a", "is_disabled": 0, "fusion_lat": 0.0, "fusion_lon": 0.0, "type": "electric_scooter", "lat": 38.9013685, "bike_id": "a7e73157ff869955b730b841952d3c4a", "is_reserved": 0, "lon": -77.000092, "rental_uris": {"android": "https://dc.lft.to/lastmile_qr_scan", "ios": "https://dc.lft.to/lastmile_qr_scan"}}, {"name": "6ed649e482a59ce9d39174d18a843a19", "is_disabled": 0, "fusion_lat": 0.0, "fusion_lon": 0.0, "type": "electric_scooter", "lat": 38.924001, "bike_id": "6ed649e482a59ce9d39174d18a843a19", "is_reserved": 0, "lon": -77.026922, "rental_uris": {"android": "https://dc.lft.to/lastmile_qr_scan", "ios": "https://dc.lft.to/lastmile_qr_scan"}}, {"name": "827b40c8c920d48232752e35db3b114f", "is_disabled": 0, "fusion_lat": 0.0, "fusion_lon": 0.0, "type": "electric_bike", "lat": 38.80119216666667, "bike_id": "827b40c8c920d48232752e35db3b114f", "is_reserved": 0, "lon": -77.070489, "rental_uris": {"android": "https://dc.lft.to/lastmile_qr_scan", "ios": "https://dc.lft.to/lastmile_qr_scan"}}, {"name": "761af470286cb97cebffdf49f8ee925b", "is_disabled": 0, "fusion_lat": 0.0, "fusion_lon": 0.0, "type": "electric_scooter", "lat": 38.915743166666665, "bike_id": "761af470286cb97cebffdf49f8ee925b", "is_reserved": 0, "lon": -77.03198333333333, "rental_uris": {"android": "https://dc.lft.to/lastmile_qr_scan", "ios": "https://dc.lft.to/lastmile_qr_scan"}}, {"name": "e1219ec1404d5339c0040b3ab4850bfa", "is_disabled": 0, "fusion_lat": 0.0, "fusion_lon": 0.0, "type": "electric_scooter", "lat": 38.9309275, "bike_id": "e1219ec1404d5339c0040b3ab4850bfa", "is_reserved": 0, "lon": -77.0381385, "rental_uris": {"android": "https://dc.lft.to/lastmile_qr_scan", "ios": "https://dc.lft.to/lastmile_qr_scan"}}, {"name": "74b808792696c5f1f8c665222040da20", "is_disabled": 0, "fusion_lat": 0.0, "fusion_lon": 0.0, "type": "electric_scooter", "lat": 38.89854533333333, "bike_id": "74b808792696c5f1f8c665222040da20", "is_reserved": 0, "lon": -77.041583, "rental_uris": {"android": "https://dc.lft.to/lastmile_qr_scan", "ios": "https://dc.lft.to/lastmile_qr_scan"}}, {"name": "7a3c3d6bc408cf7b9bc84987619ee8cf", "is_disabled": 0, "fusion_lat": 0.0, "fusion_lon": 0.0, "type": "electric_scooter", "lat": 38.92818666666667, "bike_id": "7a3c3d6bc408cf7b9bc84987619ee8cf", "is_reserved": 0, "lon": -77.02283816666667, "rental_uris": {"android": "https://dc.lft.to/lastmile_qr_scan", "ios": "https://dc.lft.to/lastmile_qr_scan"}}, {"name": "91ada627b2aff8670b33622b299f8c4f", "is_disabled": 0, "fusion_lat": 0.0, "fusion_lon": 0.0, "type": "electric_scooter", "lat": 38.9002065, "bike_id": "91ada627b2aff8670b33622b299f8c4f", "is_reserved": 0, "lon": -77.00196633333333, "rental_uris": {"android": "https://dc.lft.to/lastmile_qr_scan", "ios": "https://dc.lft.to/lastmile_qr_scan"}}, {"name": "ccf276ee769b1e838d0f7229a8a80cb7", "is_disabled": 0, "fusion_lat": 0.0, "fusion_lon": 0.0, "type": "electric_bike", "lat": 38.899598833333336, "bike_id": "ccf276ee769b1e838d0f7229a8a80cb7", "is_reserved": 0, "lon": -76.98692183333333, "rental_uris": {"android": "https://dc.lft.to/lastmile_qr_scan", "ios": "https://dc.lft.to/lastmile_qr_scan"}}, {"name": "b5275eca3050ac498b5275985016aa8d", "is_disabled": 0, "fusion_lat": 0.0, "fusion_lon": 0.0, "type": "electric_bike", "lat": 38.936256666666665, "bike_id": "b5275eca3050ac498b5275985016aa8d", "is_reserved": 0, "lon": -77.09009383333333, "rental_uris": {"android": "https://dc.lft.to/lastmile_qr_scan", "ios": "https://dc.lft.to/lastmile_qr_scan"}}, {"name": "0dcefc5a6796b036627d605eb6353ff9", "is_disabled": 0, "fusion_lat": 0.0, "fusion_lon": 0.0, "type": "electric_scooter", "lat": 38.890106833333334, "bike_id": "0dcefc5a6796b036627d605eb6353ff9", "is_reserved": 0, "lon": -76.93730183333334, "rental_uris": {"android": "https://dc.lft.to/lastmile_qr_scan", "ios": "https://dc.lft.to/lastmile_qr_scan"}}, {"name": "d82fa140026dda323c1fe017c7873427", "is_disabled": 0, "fusion_lat": 0.0, "fusion_lon": 0.0, "type": "electric_scooter", "lat": 38.910833, "bike_id": "d82fa140026dda323c1fe017c7873427", "is_reserved": 0, "lon": -76.99268316666667, "rental_uris": {"android": "https://dc.lft.to/lastmile_qr_scan", "ios": "https://dc.lft.to/lastmile_qr_scan"}}, {"name": "735f854dad0f34e053424d95c0301851", "is_disabled": 0, "fusion_lat": 0.0, "fusion_lon": 0.0, "type": "electric_scooter", "lat": 38.919032333333334, "bike_id": "735f854dad0f34e053424d95c0301851", "is_reserved": 0, "lon": -77.02098633333334, "rental_uris": {"android": "https://dc.lft.to/lastmile_qr_scan", "ios": "https://dc.lft.to/lastmile_qr_scan"}}, {"name": "6281794596d74fd30f72ae81f8c0dc1e", "is_disabled": 0, "fusion_lat": 0.0, "fusion_lon": 0.0, "type": "electric_scooter", "lat": 38.90679216666667, "bike_id": "6281794596d74fd30f72ae81f8c0dc1e", "is_reserved": 0, "lon": -77.037676, "rental_uris": {"android": "https://dc.lft.to/lastmile_qr_scan", "ios": "https://dc.lft.to/lastmile_qr_scan"}}, {"name": "ede664ba3e04cae09d171f180558e4b8", "is_disabled": 0, "fusion_lat": 0.0, "fusion_lon": 0.0, "type": "electric_scooter", "lat": 38.902589, "bike_id": "ede664ba3e04cae09d171f180558e4b8", "is_reserved": 0, "lon": -77.03029433333333, "rental_uris": {"android": "https://dc.lft.to/lastmile_qr_scan", "ios": "https://dc.lft.to/lastmile_qr_scan"}}, {"name": "552799e1312460790fc8335e81eb5f74", "is_disabled": 0, "fusion_lat": 0.0, "fusion_lon": 0.0, "type": "electric_scooter", "lat": 38.879410166666666, "bike_id": "552799e1312460790fc8335e81eb5f74", "is_reserved": 0, "lon": -77.0040745, "rental_uris": {"android": "https://dc.lft.to/lastmile_qr_scan", "ios": "https://dc.lft.to/lastmile_qr_scan"}}, {"name": "cfca2530880fc2f2fcd95325615d741c", "is_disabled": 0, "fusion_lat": 0.0, "fusion_lon": 0.0, "type": "electric_scooter", "lat": 38.9365135, "bike_id": "cfca2530880fc2f2fcd95325615d741c", "is_reserved": 0, "lon": -77.02637, "rental_uris": {"android": "https://dc.lft.to/lastmile_qr_scan", "ios": "https://dc.lft.to/lastmile_qr_scan"}}, {"name": "2d33d69ea5546271752c8f480ea153d2", "is_disabled": 0, "fusion_lat": 0.0, "fusion_lon": 0.0, "type": "electric_scooter", "lat": 38.9023975, "bike_id": "2d33d69ea5546271752c8f480ea153d2", "is_reserved": 0, "lon": -77.04404666666667, "rental_uris": {"android": "https://dc.lft.to/lastmile_qr_scan", "ios": "https://dc.lft.to/lastmile_qr_scan"}}, {"name": "75b03b872feca19d3b523651055353a7", "is_disabled": 0, "fusion_lat": 0.0, "fusion_lon": 0.0, "type": "electric_scooter", "lat": 38.907218, "bike_id": "75b03b872feca19d3b523651055353a7", "is_reserved": 0, "lon": -77.01639616666667, "rental_uris": {"android": "https://dc.lft.to/lastmile_qr_scan", "ios": "https://dc.lft.to/lastmile_qr_scan"}}, {"name": "ad7251348707b77ad6aaa1add2f4aeb1", "is_disabled": 0, "fusion_lat": 0.0, "fusion_lon": 0.0, "type": "electric_scooter", "lat": 38.916335833333335, "bike_id": "ad7251348707b77ad6aaa1add2f4aeb1", "is_reserved": 0, "lon": -77.01094633333334, "rental_uris": {"android": "https://dc.lft.to/lastmile_qr_scan", "ios": "https://dc.lft.to/lastmile_qr_scan"}}, {"name": "9b1a007da93445ee6ad03c6ac7da14b3", "is_disabled": 0, "fusion_lat": 0.0, "fusion_lon": 0.0, "type": "electric_scooter", "lat": 38.92409416666667, "bike_id": "9b1a007da93445ee6ad03c6ac7da14b3", "is_reserved": 0, "lon": -77.02011983333334, "rental_uris": {"android": "https://dc.lft.to/lastmile_qr_scan", "ios": "https://dc.lft.to/lastmile_qr_scan"}}, {"name": "db6121544d0735289696916e901222c9", "is_disabled": 0, "fusion_lat": 0.0, "fusion_lon": 0.0, "type": "electric_scooter", "lat": 38.9178235, "bike_id": "db6121544d0735289696916e901222c9", "is_reserved": 0, "lon": -77.0321765, "rental_uris": {"android": "https://dc.lft.to/lastmile_qr_scan", "ios": "https://dc.lft.to/lastmile_qr_scan"}}, {"name": "8e0dd7cd966ee454260b496047f3a652", "is_disabled": 0, "fusion_lat": 0.0, "fusion_lon": 0.0, "type": "electric_scooter", "lat": 38.901454333333334, "bike_id": "8e0dd7cd966ee454260b496047f3a652", "is_reserved": 0, "lon": -76.99015416666667, "rental_uris": {"android": "https://dc.lft.to/lastmile_qr_scan", "ios": "https://dc.lft.to/lastmile_qr_scan"}}, {"name": "118a6e74c5dec6a57aad0bd751a83434", "is_disabled": 0, "fusion_lat": 0.0, "fusion_lon": 0.0, "type": "electric_scooter", "lat": 38.87195466666667, "bike_id": "118a6e74c5dec6a57aad0bd751a83434", "is_reserved": 0, "lon": -77.005738, "rental_uris": {"android": "https://dc.lft.to/lastmile_qr_scan", "ios": "https://dc.lft.to/lastmile_qr_scan"}},