{"data": {"bikes": [{"is_reserved": 0, "type": "electric_scooter", "fusion_lat": 0.0, "is_disabled": 0, "rental_uris": {"ios": "https://dc.lft.to/lastmile_qr_scan", "android": "https://dc.lft.to/lastmile_qr_scan"}, "bike_id": "7606a87bc72b6e20df9f90b8ef4487aa", "lat": 38.92655166666667, "name": "7606a87bc72b6e20df9f90b8ef4487aa", "lon": -77.024342, "fusion_lon": 0.0}, {"is_reserved": 0, "type": "electric_scooter", "fusion_lat": 0.0, "is_disabled": 0, "rental_uris": {"ios": "https://dc.lft.to/lastmile_qr_scan", "android": "https://dc.lft.to/lastmile_qr_scan"}, "bike_id": "95a9c5bdbaba1c88b80a2bd9d8315519", "lat": 38.92406, "name": "95a9c5bdbaba1c88b80a2bd9d8315519", "lon": -77.0203635, "fusion_lon": 0.0}, {"is_reserved": 0, "type": "electric_scooter", "fusion_lat": 0.0, "is_disabled": 0, "rental_uris": {"ios": "https://dc.lft.to/lastmile_qr_scan", "android": "https://dc.lft.to/lastmile_qr_scan"}, "bike_id": "daf4a0b520b6cfd892fbc805552e48b4", "lat": 38.91332633333333, "name": "daf4a0b520b6cfd892fbc805552e48b4", "lon": -77.03045733333333, "fusion_lon": 0.0}, {"is_reserved": 0, "type": "electric_scooter", "fusion_lat": 0.0, "is_disabled": 0, "rental_uris": {"ios": "https://dc.lft.to/lastmile_qr_scan", "android": "https://dc.lft.to/lastmile_qr_scan"}, "bike_id": "6ca02c995c08340020d96f7cbd42cf6c", "lat": 38.918238, "name": "6ca02c995c08340020d96f7cbd42cf6c", "lon": -77.01206, "fusion_lon": 0.0}, {"is_reserved": 0, "type": "electric_scooter", "fusion_lat": 0.0, "is_disabled": 0, "rental_uris": {"ios": "https://dc.lft.to/lastmile_qr_scan", "android": "https://dc.lft.to/lastmile_qr_scan"}, "bike_id": "dc2d66ea490062b518bd6950e8dcf6b2", "lat": 38.92128616666667, "name": "dc2d66ea490062b518bd6950e8dcf6b2", "lon": -77.045752, "fusion_lon": 0.0}, {"is_reserved": 0, "type": "electric_scooter", "fusion_lat": 0.0, "is_disabled": 0, "rental_uris": {"ios": "https://dc.lft.to/lastmile_qr_scan", "android": "https://dc.lft.to/lastmile_qr_scan"}, "bike_id": "d3ffc316b083e276e694624d959d663c", "lat": 38.92045266666667, "name": "d3ffc316b083e276e694624d959d663c", "lon": -77.0338185, "fusion_lon": 0.0}, {"is_reserved": 0, "type": "electric_scooter", "fusion_lat": 0.0, "is_disabled": 0, "rental_uris": {"ios": "https://dc.lft.to/lastmile_qr_scan", "android": "https://dc.lft.to/lastmile_qr_scan"}, "bike_id": "13baa63386d0eed05dfe6c96653ce104", "lat": 38.88744333333333, "name": "13baa63386d0eed05dfe6c96653ce104", "lon": -77.02627933333333, "fusion_lon": 0.0}, {"is_reserved": 0, "type": "electric_scooter", "fusion_lat": 0.0, "is_disabled": 0, "rental_uris": {"ios": "https://dc.lft.to/lastmile_qr_scan", "android": "https://dc.lft.to/lastmile_qr_scan"}, "bike_id": "573046466b58566e82e4ce85d92d50d1", "lat": 38.9179415, "name": "573046466b58566e82e4ce85d92d50d1", "lon": -77.033357, "fusion_lon": 0.0}, {"is_reserved": 0, "type": "electric_scooter", "fusion_lat": 0.0, "is_disabled": 0, "rental_uris": {"ios": "https://dc.lft.to/lastmile_qr_scan", "android": "https://dc.lft.to/lastmile_qr_scan"}, "bike_id": "f2da797f3f6e2906726cd6ba9ebb8f79", "lat": 38.92269733333333, "name": "f2da797f3f6e2906726cd6ba9ebb8f79", "lon": -77.04248333333334, "fusion_lon": 0.0}, {"is_reserved": 0, "type": "electric_scooter", "fusion_lat": 0.0, "is_disabled": 0, "rental_uris": {"ios": "https://dc.lft.to/lastmile_qr_scan", "android": "https://dc.lft.to/lastmile_qr_scan"}, "bike_id": "02b64e22d598855e85395117184b51b3", "lat": 38.9244235, "name": "02b64e22d598855e85395117184b51b3", "lon": -77.02137933333333, "fusion_lon": 0.0}, {"is_reserved": 0, "type": "electric_scooter", "fusion_lat": 0.0, "is_disabled": 0, "rental_uris": {"ios": "https://dc.lft.to/lastmile_qr_scan", "android": "https://dc.lft.to/lastmile_qr_scan"}, "bike_id": "7b9eae8397695c670fea88e7618be257", "lat": 38.929009, "name": "7b9eae8397695c670fea88e7618be257", "lon": -77.03250116666666, "fusion_lon": 0.0}, {"is_reserved": 0, "type": "electric_scooter", "fusion_lat": 0.0, "is_disabled": 0, "rental_uris": {"ios": "https://dc.lft.to/lastmile_qr_scan", "android": "https://dc.lft.to/lastmile_qr_scan"}, "bike_id": "73a698668ee8b58ad141a2d1633b720b", "lat": 38.905376, "name": "73a698668ee8b58ad141a2d1633b720b", "lon": -77.0569985, "fusion_lon": 0.0}, {"is_reserved": 0, "type": "electric_bike", "fusion_lat": 0.0, "is_disabled": 0, "rental_uris": {"ios": "https://dc.lft.to/lastmile_qr_scan", "android": "https://dc.lft.to/lastmile_qr_scan"}, "bike_id": "0b0a2dfb32b76edad887b4ae0114dd99", "lat": 38.898323166666664, "name": "0b0a2dfb32b76edad887b4ae0114dd99", "lon": -76.942729, "fusion_lon": 0.0}, {"is_reserved": 0, "type": "electric_scooter", "fusion_lat": 0.0, "is_disabled": 0, "rental_uris": {"ios": "https://dc.lft.to/lastmile_qr_scan", "android": "https://dc.lft.to/lastmile_qr_scan"}, "bike_id": "8ff87f59b5fa7b33b1c81d413012f64f", "lat": 38.9111305, "name": "8ff87f59b5fa7b33b1c81d413012f64f", "lon": -77.043494, "fusion_lon": 0.0}, {"is_reserved": 0, "type": "electric_bike", "fusion_lat": 0.0, "is_disabled": 0, "rental_uris": {"ios": "https://dc.lft.to/lastmile_qr_scan", "android": "https://dc.lft.to/lastmile_qr_scan"}, "bike_id": "e00d5e0395087d329216221a008536cd", "lat": 38.881144666666664, "name": "e00d5e0395087d329216221a008536cd", "lon": -77.0167615, "fusion_lon": 0.0}, {"is_reserved": 0, "type": "electric_scooter", "fusion_lat": 0.0, "is_disabled": 0, "rental_uris": {"ios": "https://dc.lft.to/lastmile_qr_scan", "android": "https://dc.lft.to/lastmile_qr_scan"}, "bike_id": "1a4c7e74dc7d957b28a1fbab7bb49286", "lat": 38.93877, "name": "1a4c7e74dc7d957b28a1fbab7bb49286", "lon": -77.02923983333334, "fusion_lon": 0.0}, {"is_reserved": 0, "type": "electric_scooter", "fusion_lat": 0.0, "is_disabled": 0, "rental_uris": {"ios": "https://dc.lft.to/lastmile_qr_scan", "android": "https://dc.lft.to/lastmile_qr_scan"}, "bike_id": "ea579e72bb2382258741b5b0ff5c9d33", "lat": 38.87694966666667, "name": "ea579e72bb2382258741b5b0ff5c9d33", "lon": -76.9961825, "fusion_lon": 0.0}, {"is_reserved": 0, "type": "electric_scooter", "fusion_lat": 0.0, "is_disabled": 0, "rental_uris": {"ios": "https://dc.lft.to/lastmile_qr_scan", "android": "https://dc.lft.to/lastmile_qr_scan"}, "bike_id": "73465166c14cf5114ddc215b1e5a6115", "lat": 38.922147, "name": "73465166c14cf5114ddc215b1e5a6115", "lon": -77.038926, "fusion_lon": 0.0}, {"is_reserved": 0, "type": "electric_bike", "fusion_lat": 0.0, "is_disabled": 0, "rental_uris": {"ios": "https://dc.lft.to/lastmile_qr_scan", "android": "https://dc.lft.to/lastmile_qr_scan"}, "bike_id": "80383a9a2f759d76472eae2a16879940", "lat": 38.84469633333333, "name": "80383a9a2f759d76472eae2a16879940", "lon": -76.99600933333333, "fusion_lon": 0.0}, {"is_reserved": 0, "type": "electric_scooter", "fusion_lat": 0.0, "is_disabled": 0, "rental_uris": {"ios": "https://dc.lft.to/lastmile_qr_scan", "android": "https://dc.lft.to/lastmile_qr_scan"}, "bike_id": "461b19790e2f12561a793e6723553f68", "lat": 38.90235933333334, "name": "461b19790e2f12561a793e6723553f68", "lon": -76.99508583333333, "fusion_lon": 0.0}, {"is_reserved": 0, "type": "electric_scooter", "fusion_lat": 0.0, "is_disabled": 0, "rental_uris": {"ios": "https://dc.lft.to/lastmile_qr_scan", "android": "https://dc.lft.to/lastmile_qr_scan"}, "bike_id": "58d63b45ac6c386c74008feafa233c7b", "lat": 38.90723766666667, "name": "58d63b45ac6c386c74008feafa233c7b", "lon": -77.004978, "fusion_lon": 0.0}, {"is_reserved": 0, "type": "electric_bike", "fusion_lat": 0.0, "is_disabled": 0, "rental_uris": {"ios": "https://dc.lft.to/lastmile_qr_scan", "android": "https://dc.lft.to/lastmile_qr_scan"}, "bike_id": "d15da4ba4fe1a153243841ed0b2058c6", "lat": 38.90386266666667, "name": "d15da4ba4fe1a153243841ed0b2058c6", "lon": -77.063034, "fusion_lon": 0.0}, {"is_reserved": 0, "type": "electric_bike", "fusion_lat": 0.0, "is_disabled": 0, "rental_uris": {"ios": "https://dc.lft.to/lastmile_qr_scan", "android": "https://dc.lft.to/lastmile_qr_scan"}, "bike_id": "3288ef3004cb9aa8bb88c39c1380e710", "lat": 38.978476666666666, "name": "3288ef3004cb9aa8bb88c39c1380e710", "lon": -77.09097733333333, "fusion_lon": 0.0}, {"is_reserved": 0, "type": "electric_bike", "fusion_lat": 0.0, "is_disabled": 0, "rental_uris": {"ios": "https://dc.lft.to/lastmile_qr_scan", "android": "https://dc.lft.to/lastmile_qr_scan"}, "bike_id": "205c178dc5cbbdcfebf7e26d1c045685", "lat": 38.857984333333334, "name": "205c178dc5cbbdcfebf7e26d1c045685", "lon": -76.9875215, "fusion_lon": 0.0}, {"is_reserved": 0, "type": "electric_scooter", "fusion_lat": 0.0, "is_disabled": 0, "rental_uris": {"ios": "https://dc.lft.to/lastmile_qr_scan", "android": "https://dc.lft.to/lastmile_qr_scan"}, "bike_id": "dc5176e77bf5c775c6fca8b4a641b86f", "lat": 38.900390333333334, "name": "dc5176e77bf5c775c6fca8b4a641b86f", "lon": -77.03478083333333, "fusion_lon": 0.0}, {"is_reserved": 0, "type": "electric_bike", "fusion_lat": 0.0, "is_disabled": 0, "rental_uris": {"ios": "https://dc.lft.to/lastmile_qr_scan", "android": "https://dc.lft.to/lastmile_qr_scan"}, "bike_id": "1cfb2e45e3f6c0bca04d6b128b66eb79", "lat": 39.0262315, "name": "1cfb2e45e3f6c0bca04d6b128b66eb79", "lon": -77.0388025, "fusion_lon": 0.0}, {"is_reserved": 0, "type": "electric_scooter", "fusion_lat": 0.0, "is_disabled": 0, "rental_uris": {"ios": "https://dc.lft.to/lastmile_qr_scan", "android": "https://dc.lft.to/lastmile_qr_scan"}, "bike_id": "7a2eb37418532535f34a3556c900b09a", "lat": 38.90364533333333, "name": "7a2eb37418532535f34a3556c900b09a", "lon": -77.02580566666667, "fusion_lon": 0.0}, {"is_reserved": 0, "type": "electric_scooter", "fusion_lat": 0.0, "is_disabled": 0, "rental_uris": {"ios": "https://dc.lft.to/lastmile_qr_scan", "android": "https://dc.lft.to/lastmile_qr_scan"}, "bike_id": "7e362c184b3c78570526c6138f75fd9b", "lat": 38.93881733333333, "name": "7e362c184b3c78570526c6138f75fd9b", "lon": -77.0282985, "fusion_lon": 0.0}, {"is_reserved": 0, "type": "electric_scooter", "fusion_lat": 0.0, "is_disabled": 0, "rental_uris": {"ios": "https://dc.lft.to/lastmile_qr_scan", "android": "https://dc.lft.to/lastmile_qr_scan"}, "bike_id": "85b904f6e465107313dbaf252f832464", "lat": 38.89957316666667, "name": "85b904f6e465107313dbaf252f832464", "lon": -77.02719566666667, "fusion_lon": 0.0}, {"is_reserved": 0, "type": "electric_scooter", "fusion_lat": 0.0, "is_disabled": 0, "rental_uris": {"ios": "https://dc.lft.to/lastmile_qr_scan", "android": "https://dc.lft.to/lastmile_qr_scan"}, "bike_id": "45a8f01e03d57e76bb77741241c54f21", "lat": 38.89885483333333, "name": "45a8f01e03d57e76bb77741241c54f21", "lon": -77.0218985, "fusion_lon": 0.0}, {"is_reserved": 0, "type": "electric_scooter", "fusion_lat": 0.0, "is_disabled": 0, "rental_uris": {"ios": "https://dc.lft.to/lastmile_qr_scan", "android": "https://dc.lft.to/lastmile_qr_scan"}, "bike_id": "b3445bb2b9fab848ec020769b9457c5e", "lat": 38.9110585, "name": "b3445bb2b9fab848ec020769b9457c5e", "lon": -77.03845583333333, "fusion_lon": 0.0}, {"is_reserved": 0, "type": "electric_scooter", "fusion_lat": 0.0, "is_disabled": 0, "rental_uris": {"ios": "https://dc.lft.to/lastmile_qr_scan", "android": "https://dc.lft.to/lastmile_qr_scan"}, "bike_id": "05c4a2ba2b886f9218aeb1b0c171f290", "lat": 38.91034166666667, "name": "05c4a2ba2b886f9218aeb1b0c171f290", "lon": -77.03800016666666, "fusion_lon": 0.0}, {"is_reserved": 0, "type": "electric_scooter", "fusion_lat": 0.0, "is_disabled": 0, "rental_uris": {"ios": "https://dc.lft.to/lastmile_qr_scan", "android": "https://dc.lft.to/lastmile_qr_scan"}, "bike_id": "cdf364616c01d95e1346d902dafbbb86", "lat": 38.91338283333333, "name": "cdf364616c01d95e1346d902dafbbb86", "lon": -77.012119, "fusion_lon": 0.0}, {"is_reserved": 0, "type": "electric_scooter", "fusion_lat": 0.0, "is_disabled": 0, "rental_uris": {"ios": "https://dc.lft.to/lastmile_qr_scan", "android": "https://dc.lft.to/lastmile_qr_scan"}, "bike_id": "4fe5f593698db33f56c0a56d6d7ef48f", "lat": 38.89192, "name": "4fe5f593698db33f56c0a56d6d7ef48f", "lon": -77.02240483333334, "fusion_lon": 0.0}, {"is_reserved": 0, "type": "electric_scooter", "fusion_lat": 0.0, "is_disabled": 0, "rental_uris": {"ios": "https://dc.lft.to/lastmile_qr_scan", "android": "https://dc.lft.to/lastmile_qr_scan"}, "bike_id": "05191337bb7e0ccec47bff96ce324de7", "lat": 38.9032465, "name": "05191337bb7e0ccec47bff96ce324de7", "lon": -77.01759833333334, "fusion_lon": 0.0}, {"is_reserved": 0, "type": "electric_scooter", "fusion_lat": 0.0, "is_disabled": 0, "rental_uris": {"ios": "https://dc.lft.to/lastmile_qr_scan", "android": "https://dc.lft.to/lastmile_qr_scan"}, "bike_id": "7922cd9137e2d6a017431341a9d85291", "lat": 38.93583783333333, "name": "7922cd9137e2d6a017431341a9d85291", "lon": -77.07438566666667, "fusion_lon": 0.0}, {"is_reserved": 0, "type": "electric_scooter", "fusion_lat": 0.0, "is_disabled": 0, "rental_uris": {"ios": "https://dc.lft.to/lastmile_qr_scan", "android": "https://dc.lft.to/lastmile_qr_scan"}, "bike_id": "222470367ba9f68c39a6b07f94b94ec8", "lat": 38.88306383333333, "name": "222470367ba9f68c39a6b07f94b94ec8", "lon": -76.99491133333333, "fusion_lon": 0.0}, {"is_reserved": 0, "type": "electric_scooter", "fusion_lat": 0.0, "is_disabled": 0, "rental_uris": {"ios": "https://dc.lft.to/lastmile_qr_scan", "android": "https://dc.lft.to/lastmile_qr_scan"}, "bike_id": "b0fddace8d5db275fa0ffa2a29e3d705", "lat": 38.89336933333333, "name": "b0fddace8d5db275fa0ffa2a29e3d705", "lon": -76.9856055, "fusion_lon": 0.0}, {"is_reserved": 0, "type": "electric_scooter", "fusion_lat": 0.0, "is_disabled": 0, "rental_uris": {"ios": "https://dc.lft.to/lastmile_qr_scan", "android": "https://dc.lft.to/lastmile_qr_scan"}, "bike_id": "8d5ffa19d40fa4ef3b11b1e563376a02", "lat": 38.90786833333333, "name": "8d5ffa19d40fa4ef3b11b1e563376a02", "lon": -77.04343866666666, "fusion_lon": 0.0}, {"is_reserved": 0, "type": "electric_scooter", "fusion_lat": 0.0, "is_disabled": 0, "rental_uris": {"ios": "https://dc.lft.to/lastmile_qr_scan", "android": "https://dc.lft.to/lastmile_qr_scan"}, "bike_id": "efe9458e12c1a33ba222fe85c05005fc", "lat": 38.9280625, "name": "efe9458e12c1a33ba222fe85c05005fc", "lon": -77.03700066666667, "fusion_lon": 0.0}, {"is_reserved": 0, "type": "electric_scooter", "fusion_lat": 0.0, "is_disabled": 0, "rental_uris": {"ios": "https://dc.lft.to/lastmile_qr_scan", "android": "https://dc.lft.to/lastmile_qr_scan"}, "bike_id": "babb182aeb94e7cf1dabe0354b9f0a93", "lat": 38.918731333333334, "name": "babb182aeb94e7cf1dabe0354b9f0a93", "lon": -77.035214, "fusion_lon": 0.0}, {"is_reserved": 0, "type": "electric_scooter", "fusion_lat": 0.0, "is_disabled": 0, "rental_uris": {"ios": "https://dc.lft.to/lastmile_qr_scan", "android": "https://dc.lft.to/lastmile_qr_scan"}, "bike_id": "b67ce8094b5080d7e4e408bbdf8c7ab2", "lat": 38.956864, "name": "b67ce8094b5080d7e4e408bbdf8c7ab2", "lon": -77.022338, "fusion_lon": 0.0}, {"is_reserved": 0, "type": "electric_scooter", "fusion_lat": 0.0, "is_disabled": 0, "rental_uris": {"ios": "https://dc.lft.to/lastmile_qr_scan", "android": "https://dc.lft.to/lastmile_qr_scan"}, "bike_id": "dde940c641e4a1acf09651682a9ade25", "lat": 38.885116, "name": "dde940c641e4a1acf09651682a9ade25", "lon": -76.92444216666667, "fusion_lon": 0.0}, {"is_reserved": 0, "type": "electric_scooter", "fusion_lat": 0.0, "is_disabled": 0, "rental_uris": {"ios": "https://dc.lft.to/lastmile_qr_scan", "android": "https://dc.lft.to/lastmile_qr_scan"}, "bike_id": "4128f18c03f01a54a4e544273e0ed31a", "lat": 38.900912166666664, "name": "4128f18c03f01a54a4e544273e0ed31a", "lon": -77.0480545, "fusion_lon": 0.0}, {"is_reserved": 0, "type": "electric_scooter", "fusion_lat": 0.0, "is_disabled": 0, "rental_uris": {"ios": "https://dc.lft.to/lastmile_qr_scan", "android": "https://dc.lft.to/lastmile_qr_scan"}, "bike_id": "dedb32f52aa81700ba7ed87fcc211278", "lat": 38.8853095, "name": "dedb32f52aa81700ba7ed87fcc211278", "lon": -76.980569, "fusion_lon": 0.0}, {"is_reserved": 0, "type": "electric_scooter", "fusion_lat": 0.0, "is_disabled": 0, "rental_uris": {"ios": "https://dc.lft.to/lastmile_qr_scan", "android": "https://dc.lft.to/lastmile_qr_scan"}, "bike_id": "41f4626bdfec1851436859f393c31bb2", "lat": 38.8835905, "name": "41f4626bdfec1851436859f393c31bb2", "lon": -76.99502716666667, "fusion_lon": 0.0}, {"is_reserved": 0, "type": "electric_scooter", "fusion_lat": 0.0, "is_disabled": 0, "rental_uris": {"ios": "https://dc.lft.to/lastmile_qr_scan", "android": "https://dc.lft.to/lastmile_qr_scan"}, "bike_id": "7ada28a40f4b6f8882738d4e2338a080", "lat": 38.92165416666667, "name": "7ada28a40f4b6f8882738d4e2338a080", "lon": -77.04027266666667, "fusion_lon": 0.0}, {"is_reserved": 0, "type": "electric_bike", "fusion_lat": 0.0, "is_disabled": 0, "rental_uris": {"ios": "https://dc.lft.to/lastmile_qr_scan", "android": "https://dc.lft.to/lastmile_qr_scan"}, "bike_id": "25b86e2b881e07f91a1eee2ac12c0a40", "lat": 38.89615466666667, "name": "25b86e2b881e07f91a1eee2ac12c0a40", "lon": -76.9074485, "fusion_lon": 0.0}, {"is_reserved": 0, "type": "electric_scooter", "fusion_lat": 0.0, "is_disabled": 0, "rental_uris": {"ios": "https://dc.lft.to/lastmile_qr_scan", "android": "https://dc.lft.to/lastmile_qr_scan"}, "bike_id": "4617f9c5f744e7ddd017dc17a2e7d4be", "lat": 38.92401133333333, "name": "4617f9c5f744e7ddd017dc17a2e7d4be", "lon": -77.019994, "fusion_lon": 0.0}, {"is_reserved": 0, "type": "electric_scooter", "fusion_lat": 0.0, "is_disabled": 0, "rental_uris": {"ios": "https://dc.lft.to/lastmile_qr_scan", "android": "https://dc.lft.to/lastmile_qr_scan"}, "bike_id": "22b8a8c5271efa820611ece6c5bd9cad", "lat": 38.925382166666665, "name": "22b8a8c5271efa820611ece6c5bd9cad", "lon": -77.0323175, "fusion_lon": 0.0}, {"is_reserved": 0, "type": "electric_scooter", "fusion_lat": 0.0, "is_disabled": 0, "rental_uris": {"ios": "https://dc.lft.to/lastmile_qr_scan", "android": "https://dc.lft.to/lastmile_qr_scan"}, "bike_id": "97a486e037c92dd7a2dd7cc459336954", "lat": 38.91414816666666, "name": "97a486e037c92dd7a2dd7cc459336954", "lon": -77.03163833333333, "fusion_lon": 0.0}, {"is_reserved": 0, "type": "electric_scooter", "fusion_lat": 0.0, "is_disabled": 0, "rental_uris": {"ios": "https://dc.lft.to/lastmile_qr_scan", "android": "https://dc.lft.to/lastmile_qr_scan"}, "bike_id": "a067dbae87d0a49bdb1632555044c99a", "lat": 38.902669833333334, "name": "a067dbae87d0a49bdb1632555044c99a", "lon": -77.0347365, "fusion_lon": 0.0}, {"is_reserved": 0, "type": "electric_scooter", "fusion_lat": 0.0, "is_disabled": 0, "rental_uris": {"ios": "https://dc.lft.to/lastmile_qr_scan", "android": "https://dc.lft.to/lastmile_qr_scan"}, "bike_id": "4740552eeffc442bd7f423cb6cfb9c01", "lat": 38.95755316666666, "name": "4740552eeffc442bd7f423cb6cfb9c01", "lon": -77.02206983333333, "fusion_lon": 0.0}, {"is_reserved": 0, "type": "electric_scooter", "fusion_lat": 0.0, "is_disabled": 0, "rental_uris": {"ios": "https://dc.lft.to/lastmile_qr_scan", "android": "https://dc.lft.to/lastmile_qr_scan"}, "bike_id": "ea970a42416d23638449890ac85e4b0d", "lat": 38.9156485, "name": "ea970a42416d23638449890ac85e4b0d", "lon": -77.03222116666667, "fusion_lon": 0.0}, {"is_reserved": 0, "type": "electric_scooter", "fusion_lat": 0.0, "is_disabled": 0, "rental_uris": {"ios": "https://dc.lft.to/lastmile_qr_scan", "android": "https://dc.lft.to/lastmile_qr_scan"}, "bike_id": "6ff96c5b91586ab6d3388346f73aebab", "lat": 38.917853, "name": "6ff96c5b91586ab6d3388346f73aebab", "lon": -77.02396183333333, "fusion_lon": 0.0}, {"is_reserved": 0, "type": "electric_scooter", "fusion_lat": 0.0, "is_disabled": 0, "rental_uris": {"ios": "https://dc.lft.to/lastmile_qr_scan", "android": "https://dc.lft.to/lastmile_qr_scan"}, "bike_id": "bc115ffca4931d45990ee4a813f511e6", "lat": 38.903492166666666, "name": "bc115ffca4931d45990ee4a813f511e6", "lon": -77.040053, "fusion_lon": 0.0}, {"is_reserved": 0, "type": "electric_scooter", "fusion_lat": 0.0, "is_disabled": 0, "rental_uris": {"ios": "https://dc.lft.to/lastmile_qr_scan", "android": "https://dc.lft.to/lastmile_qr_scan"}, "bike_id": "21435cfc147a5e69aaa8e6635db516ec", "lat": 38.920456333333334, "name": "21435cfc147a5e69aaa8e6635db516ec", "lon": -77.03391166666667, "fusion_lon": 0.0}, {"is_reserved": 0, "type": "electric_scooter", "fusion_lat": 0.0, "is_disabled": 0, "rental_uris": {"ios": "https://dc.lft.to/lastmile_qr_scan", "android": "https://dc.lft.to/lastmile_qr_scan"}, "bike_id": "2a6e5002d0186d1dc4e14e23054fb2f5", "lat": 38.922312166666664, "name": "2a6e5002d0186d1dc4e14e23054fb2f5", "lon": -76.9753055, "fusion_lon": 0.0}, {"is_reserved": 0, "type": "electric_scooter", "fusion_lat": 0.0, "is_disabled": 0, "rental_uris": {"ios": "https://dc.lft.to/lastmile_qr_scan", "android": "https://dc.lft.to/lastmile_qr_scan"}, "bike_id": "5c899314a094529dad9207c31be35df3", "lat": 38.930929666666664, "name": "5c899314a094529dad9207c31be35df3", "lon": -77.03625216666667, "fusion_lon": 0.0}, {"is_reserved": 0, "type": "electric_scooter", "fusion_lat": 0.0, "is_disabled": 0, "rental_uris": {"ios": "https://dc.lft.to/lastmile_qr_scan", "android": "https://dc.lft.to/lastmile_qr_scan"}, "bike_id": "41d667237417e5c9525d9202ee1b797f", "lat": 38.897378, "name": "41d667237417e5c9525d9202ee1b797f", "lon": -77.0204865, "fusion_lon": 0.0}, {"is_reserved": 0, "type": "electric_scooter", "fusion_lat": 0.0, "is_disabled": 0, "rental_uris": {"ios": "https://dc.lft.to/lastmile_qr_scan", "android": "https://dc.lft.to/lastmile_qr_scan"}, "bike_id": "716263caaf14503843b770967a995f68", "lat": 38.93378166666667, "name": "716263caaf14503843b770967a995f68", "lon": -77.057613, "fusion_lon": 0.0}, {"is_reserved": 0, "type": "electric_scooter", "fusion_lat": 0.0, "is_disabled": 0, "rental_uris": {"ios": "https://dc.lft.to/lastmile_qr_scan", "android": "https://dc.lft.to/lastmile_qr_scan"}, "bike_id": "f0e4f805a5775d553b5b01e0cbdc7826", "lat": 38.938576166666664, "name": "f0e4f805a5775d553b5b01e0cbdc7826", "lon": -77.07823783333333, "fusion_lon": 0.0}, {"is_reserved": 0, "type": "electric_scooter", "fusion_lat": 0.0, "is_disabled": 0, "rental_uris": {"ios": "https://dc.lft.to/lastmile_qr_scan", "android": "https://dc.lft.to/lastmile_qr_scan"}, "bike_id": "da6e0f88a5a409a5ac3c34ff9e1a1d36", "lat": 38.900715, "name": "da6e0f88a5a409a5ac3c34ff9e1a1d36", "lon": -77.04344583333334, "fusion_lon": 0.0}, {"is_reserved": 0, "type": "electric_scooter", "fusion_lat": 0.0, "is_disabled": 0, "rental_uris": {"ios": "https://dc.lft.to/lastmile_qr_scan", "android": "https://dc.lft.to/lastmile_qr_scan"}, "bike_id": "9f8824d567f534c2db7e6f3a1219ee4f", "lat": 38.92691166666667, "name": "9f8824d567f534c2db7e6f3a1219ee4f", "lon": -77.022957, "fusion_lon": 0.0}, {"is_reserved": 0, "type": "electric_scooter", "fusion_lat": 0.0, "is_disabled": 0, "rental_uris": {"ios": "https://dc.lft.to/lastmile_qr_scan", "android": "https://dc.lft.to/lastmile_qr_scan"}, "bike_id": "4484e9a13ea35986e3a84fd5b2cb5c65", "lat": 38.9045805, "name": "4484e9a13ea35986e3a84fd5b2cb5c65", "lon": -76.93367366666666, "fusion_lon": 0.0}, {"is_reserved": 0, "type": "electric_bike", "fusion_lat": 0.0, "is_disabled": 0, "rental_uris": {"ios": "https://dc.lft.to/lastmile_qr_scan", "android": "https://dc.lft.to/lastmile_qr_scan"}, "bike_id": "8c7b852367b90631079efbf2a1817513", "lat": 38.94026783333333, "name": "8c7b852367b90631079efbf2a1817513", "lon": -76.97578166666666, "fusion_lon": 0.0}, {"is_reserved": 0, "type": "electric_bike", "fusion_lat": 0.0, "is_disabled": 0, "rental_uris": {"ios": "https://dc.lft.to/lastmile_qr_scan", "android": "https://dc.lft.to/lastmile_qr_scan"}, "bike_id": "d79b91f6b4d3818a06c19b571beee49c", "lat": 38.86548766666667, "name": "d79b91f6b4d3818a06c19b571beee49c", "lon": -76.94154933333333, "fusion_lon": 0.0}, {"is_reserved": 0, "type": "electric_scooter", "fusion_lat": 0.0, "is_disabled": 0, "rental_uris": {"ios": "https://dc.lft.to/lastmile_qr_scan", "android": "https://dc.lft.to/lastmile_qr_scan"}, "bike_id": "f6f0f6d3ee6123de7d8de8d10bf857e9", "lat": 38.89771133333333, "name": "f6f0f6d3ee6123de7d8de8d10bf857e9", "lon": -77.047864, "fusion_lon": 0.0}, {"is_reserved": 0, "type": "electric_scooter", "fusion_lat": 0.0, "is_disabled": 0, "rental_uris": {"ios": "https://dc.lft.to/lastmile_qr_scan", "android": "https://dc.lft.to/lastmile_qr_scan"}, "bike_id": "5cb66df4befae99b453da495a636a3ed", "lat": 38.897467166666665, "name": "5cb66df4befae99b453da495a636a3ed", "lon": -77.0246545, "fusion_lon": 0.0}, {"is_reserved": 0, "type": "electric_scooter", "fusion_lat": 0.0, "is_disabled": 0, "rental_uris": {"ios": "https://dc.lft.to/lastmile_qr_scan", "android": "https://dc.lft.to/lastmile_qr_scan"}, "bike_id": "c219ad0640f1ade7f9c2481e21b60052", "lat": 38.89728566666667, "name": "c219ad0640f1ade7f9c2481e21b60052", "lon": -77.00321, "fusion_lon": 0.0}, {"is_reserved": 0, "type": "electric_scooter", "fusion_lat": 0.0, "is_disabled": 0, "rental_uris": {"ios": "https://dc.lft.to/lastmile_qr_scan", "android": "https://dc.lft.to/lastmile_qr_scan"}, "bike_id": "0ce49821b2b3905ecbdd7425a5f0ffe5", "lat": 38.9217125, "name": "0ce49821b2b3905ecbdd7425a5f0ffe5", "lon": -77.0381895, "fusion_lon": 0.0}, {"is_reserved": 0, "type": "electric_scooter", "fusion_lat": 0.0, "is_disabled": 0, "rental_uris": {"ios": "https://dc.lft.to/lastmile_qr_scan", "android": "https://dc.lft.to/lastmile_qr_scan"}, "bike_id": "c5d11cbe9aba6e85f06b03c193a31941", "lat": 38.91250933333333, "name": "c5d11cbe9aba6e85f06b03c193a31941", "lon": -76.98668833333333, "fusion_lon": 0.0}, {"is_reserved": 0, "type": "electric_scooter", "fusion_lat": 0.0, "is_disabled": 0, "rental_uris": {"ios": "https://dc.lft.to/lastmile_qr_scan", "android": "https://dc.lft.to/lastmile_qr_scan"}, "bike_id": "52abc69a8073272ea4e304ba845785a3", "lat": 38.9750165, "name": "52abc69a8073272ea4e304ba845785a3", "lon": -77.01708666666667, "fusion_lon": 0.0}, {"is_reserved": 0, "type": "electric_bike", "fusion_lat": 0.0, "is_disabled": 0, "rental_uris": {"ios": "https://dc.lft.to/lastmile_qr_scan", "android": "https://dc.lft.to/lastmile_qr_scan"}, "bike_id": "d212897a8f0165ee196c67915da0ef3e", "lat": 38.80524883333333, "name": "d212897a8f0165ee196c67915da0ef3e", "lon": -77.04338983333334, "fusion_lon": 0.0}, {"is_reserved": 0, "type": "electric_bike", "fusion_lat": 0.0, "is_disabled": 0, "rental_uris": {"ios": "https://dc.lft.to/lastmile_qr_scan", "android": "https://dc.lft.to/lastmile_qr_scan"}, "bike_id": "c9af473cead1bbcf8326999adc8d5813", "lat": 38.93353583333333, "name": "c9af473cead1bbcf8326999adc8d5813", "lon": -77.0971565, "fusion_lon": 0.0}, {"is_reserved": 0, "type": "electric_scooter", "fusion_lat": 0.0, "is_disabled": 0, "rental_uris": {"ios": "https://dc.lft.to/lastmile_qr_scan", "android": "https://dc.lft.to/lastmile_qr_scan"}, "bike_id": "c03c0eb2439de1a937f6ca96e4fe7c86", "lat": 38.897216666666665, "name": "c03c0eb2439de1a937f6ca96e4fe7c86", "lon": -77.00321833333334, "fusion_lon": 0.0}, {"is_reserved": 0, "type": "electric_scooter", "fusion_lat": 0.0, "is_disabled": 0, "rental_uris": {"ios": "https://dc.lft.to/lastmile_qr_scan", "android": "https://dc.lft.to/lastmile_qr_scan"}, "bike_id": "8287ed3a3044b06099bd17c4127cd00c", "lat": 38.903769, "name": "8287ed3a3044b06099bd17c4127cd00c", "lon": -77.05202333333334, "fusion_lon": 0.0}, {"is_reserved": 0, "type": "electric_scooter", "fusion_lat": 0.0, "is_disabled": 0, "rental_uris": {"ios": "https://dc.lft.to/lastmile_qr_scan", "android": "https://dc.lft.to/lastmile_qr_scan"}, "bike_id": "27f0d0794553e9069c2c17ebb6739077", "lat": 38.92371333333333, "name": "27f0d0794553e9069c2c17ebb6739077", "lon": -77.02745333333333, "fusion_lon": 0.0}, {"is_reserved": 0, "type": "electric_scooter", "fusion_lat": 0.0, "is_disabled": 0, "rental_uris": {"ios": "https://dc.lft.to/lastmile_qr_scan", "android": "https://dc.lft.to/lastmile_qr_scan"}, "bike_id": "a8114370603213358869b6b7dc7dc125", "lat": 38.90585566666667, "name": "a8114370603213358869b6b7dc7dc125", "lon": -77.07274516666666, "fusion_lon": 0.0}, {"is_reserved": 0, "type": "electric_bike", "fusion_lat": 0.0, "is_disabled": 0, "rental_uris": {"ios": "https://dc.lft.to/lastmile_qr_scan", "android": "https://dc.lft.to/lastmile_qr_scan"}, "bike_id": "14ad2c2a823912159bd91843e71fea0d", "lat": 38.96433016666667, "name": "14ad2c2a823912159bd91843e71fea0d", "lon": -77.0319355, "fusion_lon": 0.0}, {"is_reserved": 0, "type": "electric_scooter", "fusion_lat": 0.0, "is_disabled": 0, "rental_uris": {"ios": "https://dc.lft.to/lastmile_qr_scan", "android": "https://dc.lft.to/lastmile_qr_scan"}, "bike_id": "299e723bb21cf2ba31161d509cfa3e29", "lat": 38.88742516666667, "name": "299e723bb21cf2ba31161d509cfa3e29", "lon": -77.026317, "fusion_lon": 0.0}, {"is_reserved": 0, "type": "electric_scooter", "fusion_lat": 0.0, "is_disabled": 0, "rental_uris": {"ios": "https://dc.lft.to/lastmile_qr_scan", "android": "https://dc.lft.to/lastmile_qr_scan"}, "bike_id": "fd21ebd3c9bb8a234c88251417c9d5ef", "lat": 38.89493266666667, "name": "fd21ebd3c9bb8a234c88251417c9d5ef", "lon": -77.02298283333333, "fusion_lon": 0.0}, {"is_reserved": 0, "type": "electric_scooter", "fusion_lat": 0.0, "is_disabled": 0, "rental_uris": {"ios": "https://dc.lft.to/lastmile_qr_scan", "android": "https://dc.lft.to/lastmile_qr_scan"}, "bike_id": "d13be1878594a6d78d5e6cbe781b7cdf", "lat": 38.892166833333334, "name": "d13be1878594a6d78d5e6cbe781b7cdf", "lon": -77.02819266666667, "fusion_lon": 0.0}, {"is_reserved": 0, "type": "electric_scooter", "fusion_lat": 0.0, "is_disabled": 0, "rental_uris": {"ios": "https://dc.lft.to/lastmile_qr_scan", "android": "https://dc.lft.to/lastmile_qr_scan"}, "bike_id": "08f141a5ea23166b8675a83df9718cf8", "lat": 38.90258516666667, "name": "08f141a5ea23166b8675a83df9718cf8", "lon": -77.02717216666667, "fusion_lon": 0.0}, {"is_reserved": 0, "type": "electric_scooter", "fusion_lat": 0.0, "is_disabled": 0, "rental_uris": {"ios": "https://dc.lft.to/lastmile_qr_scan", "android": "https://dc.lft.to/lastmile_qr_scan"}, "bike_id": "b59a31180928a9010ff67bd04e762ab8", "lat": 38.892205833333335, "name": "b59a31180928a9010ff67bd04e762ab8", "lon": -77.0223305, "fusion_lon": 0.0}, {"is_reserved": 0, "type": "electric_bike", "fusion_lat": 0.0, "is_disabled": 0, "rental_uris": {"ios": "https://dc.lft.to/lastmile_qr_scan", "android": "https://dc.lft.to/lastmile_qr_scan"}, "bike_id": "091b91479119d001161a28db97a653e1", "lat": 38.90128, "name": "091b91479119d001161a28db97a653e1", "lon": -76.99597016666667, "fusion_lon": 0.0}, {"is_reserved": 0, "type": "electric_scooter", "fusion_lat": 0.0, "is_disabled": 0, "rental_uris": {"ios": "https://dc.lft.to/lastmile_qr_scan", "android": "https://dc.lft.to/lastmile_qr_scan"}, "bike_id": "e1c940a0c31302ac81ec54f09b0e4d83", "lat": 38.9178285, "name": "e1c940a0c31302ac81ec54f09b0e4d83", "lon": -77.02371633333334, "fusion_lon": 0.0}, {"is_reserved": 0, "type": "electric_scooter", "fusion_lat": 0.0, "is_disabled": 0, "rental_uris": {"ios": "https://dc.lft.to/lastmile_qr_scan", "android": "https://dc.lft.to/lastmile_qr_scan"}, "bike_id": "1820f6d74df80bd6f75aea0c7f0cf971", "lat": 38.936551333333334, "name": "1820f6d74df80bd6f75aea0c7f0cf971", "lon": -77.06610766666667, "fusion_lon": 0.0}, {"is_reserved": 0, "type": "electric_scooter", "fusion_lat": 0.0, "is_disabled": 0, "rental_uris": {"ios": "https://dc.lft.to/lastmile_qr_scan", "android": "https://dc.lft.to/lastmile_qr_scan"}, "bike_id": "eea571408c4dd27609c8c8e7530ed4c9", "lat": 38.918708, "name": "eea571408c4dd27609c8c8e7530ed4c9", "lon": -76.96497600000001, "fusion_lon": 0.0}, {"is_reserved": 0, "type": "electric_scooter", "fusion_lat": 0.0, "is_disabled": 0, "rental_uris": {"ios": "https://dc.lft.to/lastmile_qr_scan", "android": "https://dc.lft.to/lastmile_qr_scan"}, "bike_id": "93a23e2c757de638aa8304d9e2bb791a", "lat": 38.8874505, "name": "93a23e2c757de638aa8304d9e2bb791a", "lon": -77.02628933333334, "fusion_lon": 0.0}, {"is_reserved": 0, "type": "electric_scooter", "fusion_lat": 0.0, "is_disabled": 0, "rental_uris": {"ios": "https://dc.lft.to/lastmile_qr_scan", "android": "https://dc.lft.to/lastmile_qr_scan"}, "bike_id": "a133290d672b2c09b97f3648cb196fdd", "lat": 38.903378000000004, "name": "a133290d672b2c09b97f3648cb196fdd", "lon": -77.02144433333333, "fusion_lon": 0.0}, {"is_reserved": 0, "type": "electric_scooter", "fusion_lat": 0.0, "is_disabled": 0, "rental_uris": {"ios": "https://dc.lft.to/lastmile_qr_scan", "android": "https://dc.lft.to/lastmile_qr_scan"}, "bike_id": "47a3e2dc54200d366846536fcfa1e8e3", "lat": 38.842732833333336, "name": "47a3e2dc54200d366846536fcfa1e8e3", "lon": -76.98842066666667, "fusion_lon": 0.0}, {"is_reserved": 0, "type": "electric_scooter", "fusion_lat": 0.0, "is_disabled": 0, "rental_uris": {"ios": "https://dc.lft.to/lastmile_qr_scan", "android": "https://dc.lft.to/lastmile_qr_scan"}, "bike_id": "7ea5f4dc6ee3642917a08d47425df2f3", "lat": 38.903130166666664, "name": "7ea5f4dc6ee3642917a08d47425df2f3", "lon": -76.97801216666667, "fusion_lon": 0.0}, {"is_reserved": 0, "type": "electric_scooter", "fusion_lat": 0.0, "is_disabled": 0, "rental_uris": {"ios": "https://dc.lft.to/lastmile_qr_scan", "android": "https://dc.lft.to/lastmile_qr_scan"}, "bike_id": "4cc07984ca3ba901b0e376b33caa796e", "lat": 38.8758925, "name": "4cc07984ca3ba901b0e376b33caa796e", "lon": -77.00573566666667, "fusion_lon": 0.0}, {"is_reserved": 0, "type": "electric_scooter", "fusion_lat": 0.0, "is_disabled": 0, "rental_uris": {"ios": "https://dc.lft.to/lastmile_qr_scan", "android": "https://dc.lft.to/lastmile_qr_scan"}, "bike_id": "5943fa9a033548c90938e3bac2fb584a", "lat": 38.88739483333333, "name": "5943fa9a033548c90938e3bac2fb584a", "lon": -77.01539616666666, "fusion_lon": 0.0}, {"is_reserved": 0, "type": "electric_scooter", "fusion_lat": 0.0, "is_disabled": 0, "rental_uris": {"ios": "https://dc.lft.to/lastmile_qr_scan", "android": "https://dc.lft.to/lastmile_qr_scan"}, "bike_id": "ee06c0ae74e3019208c9e704c12ff88a", "lat": 38.900533833333334, "name": "ee06c0ae74e3019208c9e704c12ff88a", "lon": -76.99337016666666, "fusion_lon": 0.0}, {"is_reserved": 0, "type": "electric_scooter", "fusion_lat": 0.0, "is_disabled": 0, "rental_uris": {"ios": "https://dc.lft.to/lastmile_qr_scan", "android": "https://dc.lft.to/lastmile_qr_scan"}, "bike_id": "3d9b87599b49e209770504ef0407117d", "lat": 38.92463766666667, "name": "3d9b87599b49e209770504ef0407117d", "lon": -77.02712733333334, "fusion_lon": 0.0}, {"is_reserved": 0, "type": "electric_scooter", "fusion_lat": 0.0, "is_disabled": 0, "rental_uris": {"ios": "https://dc.lft.to/lastmile_qr_scan", "android": "https://dc.lft.to/lastmile_qr_scan"}, "bike_id": "cb797a6b97746d9b7943baa22822fe16", "lat": 38.956427833333336, "name": "cb797a6b97746d9b7943baa22822fe16", "lon": -77.02822783333333, "fusion_lon": 0.0}, {"is_reserved": 0, "type": "electric_scooter", "fusion_lat": 0.0, "is_disabled": 0, "rental_uris": {"ios": "https://dc.lft.to/lastmile_qr_scan", "android": "https://dc.lft.to/lastmile_qr_scan"}, "bike_id": "719e68bc304af30d6b457b1d5a990f7c", "lat": 38.9003785, "name": "719e68bc304af30d6b457b1d5a990f7c", "lon": -77.012258, "fusion_lon": 0.0}, {"is_reserved": 0, "type": "electric_scooter", "fusion_lat": 0.0, "is_disabled": 0, "rental_uris": {"ios": "https://dc.lft.to/lastmile_qr_scan", "android": "https://dc.lft.to/lastmile_qr_scan"}, "bike_id": "1e7b4ce8c3a67e10b198a592cb890d84", "lat": 38.90383883333333, "name": "1e7b4ce8c3a67e10b198a592cb890d84", "lon": -77.05073733333333, "fusion_lon": 0.0}, {"is_reserved": 0, "type": "electric_scooter", "fusion_lat": 0.0, "is_disabled": 0, "rental_uris": {"ios": "https://dc.lft.to/lastmile_qr_scan", "android": "https://dc.lft.to/lastmile_qr_scan"}, "bike_id": "a10472d444d724ea9f4fa9320d67e6c1", "lat": 38.9215225, "name": "a10472d444d724ea9f4fa9320d67e6c1", "lon": -77.035068, "fusion_lon": 0.0}, {"is_reserved": 0, "type": "electric_scooter", "fusion_lat": 0.0, "is_disabled": 0, "rental_uris": {"ios": "https://dc.lft.to/lastmile_qr_scan", "android": "https://dc.lft.to/lastmile_qr_scan"}, "bike_id": "118399fc3d65b1fbfb5acb2e162c5b7b", "lat": 38.8811425, "name": "118399fc3d65b1fbfb5acb2e162c5b7b", "lon": -77.02655666666666, "fusion_lon": 0.0}, {"is_reserved": 0, "type": "electric_scooter", "fusion_lat": 0.0, "is_disabled": 0, "rental_uris": {"ios": "https://dc.lft.to/lastmile_qr_scan", "android": "https://dc.lft.to/lastmile_qr_scan"}, "bike_id": "a99a8ae7f0e231789427a263ed5d61c2", "lat": 38.9613835, "name": "a99a8ae7f0e231789427a263ed5d61c2", "lon": -77.02792116666667, "fusion_lon": 0.0}, {"is_reserved": 0, "type": "electric_scooter", "fusion_lat": 0.0, "is_disabled": 0, "rental_uris": {"ios": "https://dc.lft.to/lastmile_qr_scan", "android": "https://dc.lft.to/lastmile_qr_scan"}, "bike_id": "c37a9e67bfe3abd84b4ec9e318b40879", "lat": 38.918778, "name": "c37a9e67bfe3abd84b4ec9e318b40879", "lon": -77.0231135, "fusion_lon": 0.0}, {"is_reserved": 0, "type": "electric_scooter", "fusion_lat": 0.0, "is_disabled": 0, "rental_uris": {"ios": "https://dc.lft.to/lastmile_qr_scan", "android": "https://dc.lft.to/lastmile_qr_scan"}, "bike_id": "5c60c1c3b679d34de5df388ee5d131ea", "lat": 38.91042866666667, "name": "5c60c1c3b679d34de5df388ee5d131ea", "lon": -77.02697283333333, "fusion_lon": 0.0}, {"is_reserved": 0, "type": "electric_scooter", "fusion_lat": 0.0, "is_disabled": 0, "rental_uris": {"ios": "https://dc.lft.to/lastmile_qr_scan", "android": "https://dc.lft.to/lastmile_qr_scan"}, "bike_id": "da9c073bb4e542c2d12b7a4ce4f52fae", "lat": 38.9649945, "name": "da9c073bb4e542c2d12b7a4ce4f52fae", "lon": -77.0627765, "fusion_lon": 0.0}, {"is_reserved": 0, "type": "electric_scooter", "fusion_lat": 0.0, "is_disabled": 0, "rental_uris": {"ios": "https://dc.lft.to/lastmile_qr_scan", "android": "https://dc.lft.to/lastmile_qr_scan"}, "bike_id": "72c88b9ade24f9e2dac142c0b650976a", "lat": 38.912716333333336, "name": "72c88b9ade24f9e2dac142c0b650976a", "lon": -77.01673516666666, "fusion_lon": 0.0}, {"is_reserved": 0, "type": "electric_scooter", "fusion_lat": 0.0, "is_disabled": 0, "rental_uris": {"ios": "https://dc.lft.to/lastmile_qr_scan", "android": "https://dc.lft.to/lastmile_qr_scan"}, "bike_id": "12ad0ed339269b6a6bb81db14fce7f18", "lat": 38.88438333333333, "name": "12ad0ed339269b6a6bb81db14fce7f18", "lon": -77.02986233333333, "fusion_lon": 0.0}, {"is_reserved": 0, "type": "electric_scooter", "fusion_lat": 0.0, "is_disabled": 0, "rental_uris": {"ios": "https://dc.lft.to/lastmile_qr_scan", "android": "https://dc.lft.to/lastmile_qr_scan"}, "bike_id": "2f01f84d8b8308854a1d63dc4305f8d0", "lat": 38.895877666666664, "name": "2f01f84d8b8308854a1d63dc4305f8d0", "lon": -77.02508633333333, "fusion_lon": 0.0}, {"is_reserved": 0, "type": "electric_scooter", "fusion_lat": 0.0, "is_disabled": 0, "rental_uris": {"ios": "https://dc.lft.to/lastmile_qr_scan", "android": "https://dc.lft.to/lastmile_qr_scan"}, "bike_id": "19ad25027696e3f9825bab984ae1e48c", "lat": 38.9326525, "name": "19ad25027696e3f9825bab984ae1e48c", "lon": -77.03265466666667, "fusion_lon": 0.0}, {"is_reserved": 0, "type": "electric_scooter", "fusion_lat": 0.0, "is_disabled": 0, "rental_uris": {"ios": "https://dc.lft.to/lastmile_qr_scan", "android": "https://dc.lft.to/lastmile_qr_scan"}, "bike_id": "8cf18b0e351b8ccd7379b3570daf2586", "lat": 38.88573866666667, "name": "8cf18b0e351b8ccd7379b3570daf2586", "lon": -77.0121025, "fusion_lon": 0.0}, {"is_reserved": 0, "type": "electric_scooter", "fusion_lat": 0.0, "is_disabled": 0, "rental_uris": {"ios": "https://dc.lft.to/lastmile_qr_scan", "android": "https://dc.lft.to/lastmile_qr_scan"}, "bike_id": "e7f29a7c403da2574a21ab619b47114f", "lat": 38.90870116666667, "name": "e7f29a7c403da2574a21ab619b47114f", "lon": -77.0005515, "fusion_lon": 0.0}, {"is_reserved": 0, "type": "electric_scooter", "fusion_lat": 0.0, "is_disabled": 0, "rental_uris": {"ios": "https://dc.lft.to/lastmile_qr_scan", "android": "https://dc.lft.to/lastmile_qr_scan"}, "bike_id": "fdcd3f00f78e451bf5bee26d0c8ea338", "lat": 38.90949116666667, "name": "fdcd3f00f78e451bf5bee26d0c8ea338", "lon": -76.99585166666667, "fusion_lon": 0.0}, {"is_reserved": 0, "type": "electric_scooter", "fusion_lat": 0.0, "is_disabled": 0, "rental_uris": {"ios": "https://dc.lft.to/lastmile_qr_scan", "android": "https://dc.lft.to/lastmile_qr_scan"}, "bike_id": "e8917af073e581817e7f7803f8167405", "lat": 38.90433516666667, "name": "e8917af073e581817e7f7803f8167405", "lon": -76.99734333333333, "fusion_lon": 0.0}, {"is_reserved": 0, "type": "electric_scooter", "fusion_lat": 0.0, "is_disabled": 0, "rental_uris": {"ios": "https://dc.lft.to/lastmile_qr_scan", "android": "https://dc.lft.to/lastmile_qr_scan"}, "bike_id": "bc380d27dbe2b1717e558c56e2092988", "lat": 38.91692716666667, "name": "bc380d27dbe2b1717e558c56e2092988", "lon": -77.0260045, "fusion_lon": 0.0}, {"is_reserved": 0, "type": "electric_bike", "fusion_lat": 0.0, "is_disabled": 0, "rental_uris": {"ios": "https://dc.lft.to/lastmile_qr_scan", "android": "https://dc.lft.to/lastmile_qr_scan"}, "bike_id": "6a9edac4fd403d553b3a45c8d2b41ff3", "lat": 38.912904, "name": "6a9edac4fd403d553b3a45c8d2b41ff3", "lon": -77.04485683333333, "fusion_lon": 0.0}, {"is_reserved": 0, "type": "electric_scooter", "fusion_lat": 0.0, "is_disabled": 0, "rental_uris": {"ios": "https://dc.lft.to/lastmile_qr_scan", "android": "https://dc.lft.to/lastmile_qr_scan"}, "bike_id": "fb5ad7b741504b76e68f4e1580bb90d7", "lat": 38.905439333333334, "name": "fb5ad7b741504b76e68f4e1580bb90d7", "lon": -77.00344483333333, "fusion_lon": 0.0}, {"is_reserved": 0, "type": "electric_scooter", "fusion_lat": 0.0, "is_disabled": 0, "rental_uris": {"ios": "https://dc.lft.to/lastmile_qr_scan", "android": "https://dc.lft.to/lastmile_qr_scan"}, "bike_id": "53002f79305a4f417d3634c2253d007f", "lat": 38.860806333333336, "name": "53002f79305a4f417d3634c2253d007f", "lon": -76.9837615, "fusion_lon": 0.0}, {"is_reserved": 0, "type": "electric_scooter", "fusion_lat": 0.0, "is_disabled": 0, "rental_uris": {"ios": "https://dc.lft.to/lastmile_qr_scan", "android": "https://dc.lft.to/lastmile_qr_scan"}, "bike_id": "137916bf440c46d0edfb143d9fbf1749", "lat": 38.916919166666666, "name": "137916bf440c46d0edfb143d9fbf1749", "lon": -77.0410905, "fusion_lon": 0.0}, {"is_reserved": 0, "type": "electric_scooter", "fusion_lat": 0.0, "is_disabled": 0, "rental_uris": {"ios": "https://dc.lft.to/lastmile_qr_scan", "android": "https://dc.lft.to/lastmile_qr_scan"}, "bike_id": "b858ec5b9c74dc8a557b8d3a0ef3bb93", "lat": 38.91403666666667, "name": "b858ec5b9c74dc8a557b8d3a0ef3bb93", "lon": -77.02421366666667, "fusion_lon": 0.0}, {"is_reserved": 0, "type": "electric_bike", "fusion_lat": 0.0, "is_disabled": 0, "rental_uris": {"ios": "https://dc.lft.to/lastmile_qr_scan", "android": "https://dc.lft.to/lastmile_qr_scan"}, "bike_id": "334a8c376c5acb1891817b1f22f9a571", "lat": 38.85056016666667, "name": "334a8c376c5acb1891817b1f22f9a571", "lon": -76.95827566666667, "fusion_lon": 0.0}, {"is_reserved": 0, "type": "electric_scooter", "fusion_lat": 0.0, "is_disabled": 0, "rental_uris": {"ios": "https://dc.lft.to/lastmile_qr_scan", "android": "https://dc.lft.to/lastmile_qr_scan"}, "bike_id": "fe7e3f7e9e9e39f0a45bd6fbcaacd01a", "lat": 38.919160166666664, "name": "fe7e3f7e9e9e39f0a45bd6fbcaacd01a", "lon": -77.031089, "fusion_lon": 0.0}, {"is_reserved": 0, "type": "electric_scooter", "fusion_lat": 0.0, "is_disabled": 0, "rental_uris": {"ios": "https://dc.lft.to/lastmile_qr_scan", "android": "https://dc.lft.to/lastmile_qr_scan"}, "bike_id": "10dcece8003405b666b53f46ff36f3ac", "lat": 38.9023375, "name": "10dcece8003405b666b53f46ff36f3ac", "lon": -76.9936745, "fusion_lon": 0.0}, {"is_reserved": 0, "type": "electric_scooter", "fusion_lat": 0.0, "is_disabled": 0, "rental_uris": {"ios": "https://dc.lft.to/lastmile_qr_scan", "android": "https://dc.lft.to/lastmile_qr_scan"}, "bike_id": "550e43f7f4ee34105bec8b7f2ea7a5e7", "lat": 38.90822983333333, "name": "550e43f7f4ee34105bec8b7f2ea7a5e7", "lon": -77.04358466666666, "fusion_lon": 0.0}, {"is_reserved": 0, "type": "electric_bike", "fusion_lat": 0.0, "is_disabled": 0, "rental_uris": {"ios": "https://dc.lft.to/lastmile_qr_scan", "android": "https://dc.lft.to/lastmile_qr_scan"}, "bike_id": "833c16031fde73eb97fcbfff2a8c6cf2", "lat": 38.971540166666664, "name": "833c16031fde73eb97fcbfff2a8c6cf2", "lon": -76.98362383333334, "fusion_lon": 0.0}, {"is_reserved": 0, "type": "electric_scooter", "fusion_lat": 0.0, "is_disabled": 0, "rental_uris": {"ios": "https://dc.lft.to/lastmile_qr_scan", "android": "https://dc.lft.to/lastmile_qr_scan"}, "bike_id": "85c57a9a07e4f533eb2d9e10ff02cae6", "lat": 38.89682966666667, "name": "85c57a9a07e4f533eb2d9e10ff02cae6", "lon": -77.00495716666667, "fusion_lon": 0.0}, {"is_reserved": 0, "type": "electric_scooter", "fusion_lat": 0.0, "is_disabled": 0, "rental_uris": {"ios": "https://dc.lft.to/lastmile_qr_scan", "android": "https://dc.lft.to/lastmile_qr_scan"}, "bike_id": "51b81a7fda2e0c2d1cf7b1879e24798c", "lat": 38.923285166666666, "name": "51b81a7fda2e0c2d1cf7b1879e24798c", "lon": -77.028112, "fusion_lon": 0.0}, {"is_reserved": 0, "type": "electric_scooter", "fusion_lat": 0.0, "is_disabled": 0, "rental_uris": {"ios": "https://dc.lft.to/lastmile_qr_scan", "android": "https://dc.lft.to/lastmile_qr_scan"}, "bike_id": "485df76f16d86567cefed877ac1378cb", "lat": 38.92167333333333, "name": "485df76f16d86567cefed877ac1378cb", "lon": -77.03836466666667, "fusion_lon": 0.0}, {"is_reserved": 0, "type": "electric_scooter", "fusion_lat": 0.0, "is_disabled": 0, "rental_uris": {"ios": "https://dc.lft.to/lastmile_qr_scan", "android": "https://dc.lft.to/lastmile_qr_scan"}, "bike_id": "1ff06796538b4247dcb9041b1cbf1e89", "lat": 38.9034585, "name": "1ff06796538b4247dcb9041b1cbf1e89", "lon": -76.97491966666666, "fusion_lon": 0.0}, {"is_reserved": 0, "type": "electric_scooter", "fusion_lat": 0.0, "is_disabled": 0, "rental_uris": {"ios": "https://dc.lft.to/lastmile_qr_scan", "android": "https://dc.lft.to/lastmile_qr_scan"}, "bike_id": "4c626c45b087742896253ea65c5d7b8d", "lat": 38.92362, "name": "4c626c45b087742896253ea65c5d7b8d", "lon": -77.02918716666667, "fusion_lon": 0.0}, {"is_reserved": 0, "type": "electric_scooter", "fusion_lat": 0.0, "is_disabled": 0, "rental_uris": {"ios": "https://dc.lft.to/lastmile_qr_scan", "android": "https://dc.lft.to/lastmile_qr_scan"}, "bike_id": "fbfb62c03a00914449e928e1db4d6041", "lat": 38.904123, "name": "fbfb62c03a00914449e928e1db4d6041", "lon": -77.0325765, "fusion_lon": 0.0}, {"is_reserved": 0, "type": "electric_scooter", "fusion_lat": 0.0, "is_disabled": 0, "rental_uris": {"ios": "https://dc.lft.to/lastmile_qr_scan", "android": "https://dc.lft.to/lastmile_qr_scan"}, "bike_id": "687671010c32171418694ed8e52716b9", "lat": 38.90596583333333, "name": "687671010c32171418694ed8e52716b9", "lon": -77.0056495, "fusion_lon": 0.0}, {"is_reserved": 0, "type": "electric_scooter", "fusion_lat": 0.0, "is_disabled": 0, "rental_uris": {"ios": "https://dc.lft.to/lastmile_qr_scan", "android": "https://dc.lft.to/lastmile_qr_scan"}, "bike_id": "125db031814d4dbae541a5f340d88d88", "lat": 38.88639933333333, "name": "125db031814d4dbae541a5f340d88d88", "lon": -77.02214116666667, "fusion_lon": 0.0}, {"is_reserved": 0, "type": "electric_bike", "fusion_lat": 0.0, "is_disabled": 0, "rental_uris": {"ios": "https://dc.lft.to/lastmile_qr_scan", "android": "https://dc.lft.to/lastmile_qr_scan"}, "bike_id": "720280a25dd8a47a17733ebb789d5f55", "lat": 38.92643833333333, "name": "720280a25dd8a47a17733ebb789d5f55", "lon": -77.0902595, "fusion_lon": 0.0}, {"is_reserved": 0, "type": "electric_scooter", "fusion_lat": 0.0, "is_disabled": 0, "rental_uris": {"ios": "https://dc.lft.to/lastmile_qr_scan", "android": "https://dc.lft.to/lastmile_qr_scan"}, "bike_id": "240b2deb78db0bff68fb5c4099c72374", "lat": 38.90192716666667, "name": "240b2deb78db0bff68fb5c4099c72374", "lon": -76.99958366666667, "fusion_lon": 0.0}, {"is_reserved": 0, "type": "electric_scooter", "fusion_lat": 0.0, "is_disabled": 0, "rental_uris": {"ios": "https://dc.lft.to/lastmile_qr_scan", "android": "https://dc.lft.to/lastmile_qr_scan"}, "bike_id": "f1a205d83406384e8f079ad6e6f6c584", "lat": 38.91622916666667, "name": "f1a205d83406384e8f079ad6e6f6c584", "lon": -77.00498716666667, "fusion_lon": 0.0}, {"is_reserved": 0, "type": "electric_scooter", "fusion_lat": 0.0, "is_disabled": 0, "rental_uris": {"ios": "https://dc.lft.to/lastmile_qr_scan", "android": "https://dc.lft.to/lastmile_qr_scan"}, "bike_id": "b7f3f67aec611595ef57ec59eb8fb769", "lat": 38.92045433333333, "name": "b7f3f67aec611595ef57ec59eb8fb769", "lon": -77.02602383333333, "fusion_lon": 0.0}, {"is_reserved": 0, "type": "electric_scooter", "fusion_lat": 0.0, "is_disabled": 0, "rental_uris": {"ios": "https://dc.lft.to/lastmile_qr_scan", "android": "https://dc.lft.to/lastmile_qr_scan"}, "bike_id": "92e89b08da9df18a6eed20f9178d1583", "lat": 38.91122283333333, "name": "92e89b08da9df18a6eed20f9178d1583", "lon": -77.043694, "fusion_lon": 0.0}, {"is_reserved": 0, "type": "electric_scooter", "fusion_lat": 0.0, "is_disabled": 0, "rental_uris": {"ios": "https://dc.lft.to/lastmile_qr_scan", "android": "https://dc.lft.to/lastmile_qr_scan"}, "bike_id": "b94cffb628ab758ec74249494b080635", "lat": 38.929873, "name": "b94cffb628ab758ec74249494b080635", "lon": -77.034753, "fusion_lon": 0.0}, {"is_reserved": 0, "type": "electric_scooter", "fusion_lat": 0.0, "is_disabled": 0, "rental_uris": {"ios": "https://dc.lft.to/lastmile_qr_scan", "android": "https://dc.lft.to/lastmile_qr_scan"}, "bike_id": "8cfa21cb68b300c60b443eb6c8201aa9", "lat": 38.9221865, "name": "8cfa21cb68b300c60b443eb6c8201aa9", "lon": -77.0433585, "fusion_lon": 0.0}, {"is_reserved": 0, "type": "electric_scooter", "fusion_lat": 0.0, "is_disabled": 0, "rental_uris": {"ios": "https://dc.lft.to/lastmile_qr_scan", "android": "https://dc.lft.to/lastmile_qr_scan"}, "bike_id": "257463abbdb5fb9ee4eb4b43be3d9c2b", "lat": 38.8756625, "name": "257463abbdb5fb9ee4eb4b43be3d9c2b", "lon": -77.00594583333333, "fusion_lon": 0.0}, {"is_reserved": 0, "type": "electric_scooter", "fusion_lat": 0.0, "is_disabled": 0, "rental_uris": {"ios": "https://dc.lft.to/lastmile_qr_scan", "android": "https://dc.lft.to/lastmile_qr_scan"}, "bike_id": "2f8fdc237b609e1c202e13218e45b93c", "lat": 38.91046933333333, "name": "2f8fdc237b609e1c202e13218e45b93c", "lon": -77.026824, "fusion_lon": 0.0}, {"is_reserved": 0, "type": "electric_scooter", "fusion_lat": 0.0, "is_disabled": 0, "rental_uris": {"ios": "https://dc.lft.to/lastmile_qr_scan", "android": "https://dc.lft.to/lastmile_qr_scan"}, "bike_id": "f791cbc26d27135cc0d4ef902c7ba05a", "lat": 38.899500333333336, "name": "f791cbc26d27135cc0d4ef902c7ba05a", "lon": -77.04755583333333, "fusion_lon": 0.0}, {"is_reserved": 0, "type": "electric_scooter", "fusion_lat": 0.0, "is_disabled": 0, "rental_uris": {"ios": "https://dc.lft.to/lastmile_qr_scan", "android": "https://dc.lft.to/lastmile_qr_scan"}, "bike_id": "1c8245df616d4b6503e7705799fb939f", "lat": 38.8810605, "name": "1c8245df616d4b6503e7705799fb939f", "lon": -76.9877165, "fusion_lon": 0.0}, {"is_reserved": 0, "type": "electric_scooter", "fusion_lat": 0.0, "is_disabled": 0, "rental_uris": {"ios": "https://dc.lft.to/lastmile_qr_scan", "android": "https://dc.lft.to/lastmile_qr_scan"}, "bike_id": "fc5e153fd8ccbdba3af7c1c68054b627", "lat": 38.91086083333333, "name": "fc5e153fd8ccbdba3af7c1c68054b627", "lon": -77.0219165, "fusion_lon": 0.0}, {"is_reserved": 0, "type": "electric_scooter", "fusion_lat": 0.0, "is_disabled": 0, "rental_uris": {"ios": "https://dc.lft.to/lastmile_qr_scan", "android": "https://dc.lft.to/lastmile_qr_scan"}, "bike_id": "eb77f0f6c0b0dcf1a0289010e6f9e41a", "lat": 38.894972, "name": "eb77f0f6c0b0dcf1a0289010e6f9e41a", "lon": -77.02295016666666, "fusion_lon": 0.0}, {"is_reserved": 0, "type": "electric_scooter", "fusion_lat": 0.0, "is_disabled": 0, "rental_uris": {"ios": "https://dc.lft.to/lastmile_qr_scan", "android": "https://dc.lft.to/lastmile_qr_scan"}, "bike_id": "7b81bad339c1bc59f62e6491c770af81", "lat": 38.925025833333336, "name": "7b81bad339c1bc59f62e6491c770af81", "lon": -77.05107716666667, "fusion_lon": 0.0}, {"is_reserved": 0, "type": "electric_scooter", "fusion_lat": 0.0, "is_disabled": 0, "rental_uris": {"ios": "https://dc.lft.to/lastmile_qr_scan", "android": "https://dc.lft.to/lastmile_qr_scan"}, "bike_id": "4abdb521b4f84ea1d993f37ae40ca275", "lat": 38.87829383333333, "name": "4abdb521b4f84ea1d993f37ae40ca275", "lon": -77.00858316666667, "fusion_lon": 0.0}, {"is_reserved": 0, "type": "electric_bike", "fusion_lat": 0.0, "is_disabled": 0, "rental_uris": {"ios": "https://dc.lft.to/lastmile_qr_scan", "android": "https://dc.lft.to/lastmile_qr_scan"}, "bike_id": "d43b46d392235128bfb259d170579f20", "lat": 38.9524455, "name": "d43b46d392235128bfb259d170579f20", "lon": -77.0962465, "fusion_lon": 0.0}, {"is_reserved": 0, "type": "electric_bike", "fusion_lat": 0.0, "is_disabled": 0, "rental_uris": {"ios": "https://dc.lft.to/lastmile_qr_scan", "android": "https://dc.lft.to/lastmile_qr_scan"}, "bike_id": "db784af0c6f9307d164ac9c73796147d", "lat": 38.84289833333333, "name": "db784af0c6f9307d164ac9c73796147d", "lon": -77.06375666666666, "fusion_lon": 0.0}, {"is_reserved": 0, "type": "electric_scooter", "fusion_lat": 0.0, "is_disabled": 0, "rental_uris": {"ios": "https://dc.lft.to/lastmile_qr_scan", "android": "https://dc.lft.to/lastmile_qr_scan"}, "bike_id": "2a6a922915c162168c4d3d25cdf73b66", "lat": 38.92071816666667, "name": "2a6a922915c162168c4d3d25cdf73b66", "lon": -76.994778, "fusion_lon": 0.0}, {"is_reserved": 0, "type": "electric_scooter", "fusion_lat": 0.0, "is_disabled": 0, "rental_uris": {"ios": "https://dc.lft.to/lastmile_qr_scan", "android": "https://dc.lft.to/lastmile_qr_scan"}, "bike_id": "008ef9d9fad8df1fae11cd87fcc3af85", "lat": 38.909457833333335, "name": "008ef9d9fad8df1fae11cd87fcc3af85", "lon": -77.04661483333334, "fusion_lon": 0.0}, {"is_reserved": 0, "type": "electric_scooter", "fusion_lat": 0.0, "is_disabled": 0, "rental_uris": {"ios": "https://dc.lft.to/lastmile_qr_scan", "android": "https://dc.lft.to/lastmile_qr_scan"}, "bike_id": "0d71585264d5812d0aac2d29b2a579f2", "lat": 38.902839166666666, "name": "0d71585264d5812d0aac2d29b2a579f2", "lon": -77.045474, "fusion_lon": 0.0}, {"is_reserved": 0, "type": "electric_scooter", "fusion_lat": 0.0, "is_disabled": 0, "rental_uris": {"ios": "https://dc.lft.to/lastmile_qr_scan", "android": "https://dc.lft.to/lastmile_qr_scan"}, "bike_id": "d30c2130c22648f865298b69192019b8", "lat": 38.90684616666667, "name": "d30c2130c22648f865298b69192019b8", "lon": -77.06145933333333, "fusion_lon": 0.0}, {"is_reserved": 0, "type": "electric_bike", "fusion_lat": 0.0, "is_disabled": 0, "rental_uris": {"ios": "https://dc.lft.to/lastmile_qr_scan", "android": "https://dc.lft.to/lastmile_qr_scan"}, "bike_id": "f46f48dea121fe03b8b831b1d3617629", "lat": 38.97283483333333, "name": "f46f48dea121fe03b8b831b1d3617629", "lon": -77.03623733333333, "fusion_lon": 0.0}, {"is_reserved": 0, "type": "electric_bike", "fusion_lat": 0.0, "is_disabled": 0, "rental_uris": {"ios": "https://dc.lft.to/lastmile_qr_scan", "android": "https://dc.lft.to/lastmile_qr_scan"}, "bike_id": "b8c4267a0d13ba3ba5a5ae15ff68d08c", "lat": 38.89961133333333, "name": "b8c4267a0d13ba3ba5a5ae15ff68d08c", "lon": -77.04658833333333, "fusion_lon": 0.0}, {"is_reserved": 0, "type": "electric_scooter", "fusion_lat": 0.0, "is_disabled": 0, "rental_uris": {"ios": "https://dc.lft.to/lastmile_qr_scan", "android": "https://dc.lft.to/lastmile_qr_scan"}, "bike_id": "51753c9e783fb4a2f14cef94755284dc", "lat": 38.9291715, "name": "51753c9e783fb4a2f14cef94755284dc", "lon": -77.02638016666667, "fusion_lon": 0.0}, {"is_reserved": 0, "type": "electric_scooter", "fusion_lat": 0.0, "is_disabled": 0, "rental_uris": {"ios": "https://dc.lft.to/lastmile_qr_scan", "android": "https://dc.lft.to/lastmile_qr_scan"}, "bike_id": "742fed0fedb18852802af1da726223f3", "lat": 38.919057, "name": "742fed0fedb18852802af1da726223f3", "lon": -77.03128083333333, "fusion_lon": 0.0}, {"is_reserved": 0, "type": "electric_scooter", "fusion_lat": 0.0, "is_disabled": 0, "rental_uris": {"ios": "https://dc.lft.to/lastmile_qr_scan", "android": "https://dc.lft.to/lastmile_qr_scan"}, "bike_id": "f65861504d3a762f9ee2090b2951ec03", "lat": 38.898676333333334, "name": "f65861504d3a762f9ee2090b2951ec03", "lon": -77.04670516666667, "fusion_lon": 0.0}, {"is_reserved": 0, "type": "electric_scooter", "fusion_lat": 0.0, "is_disabled": 0, "rental_uris": {"ios": "https://dc.lft.to/lastmile_qr_scan", "android": "https://dc.lft.to/lastmile_qr_scan"}, "bike_id": "3de6e52326b4fbaf7f686779e00369b7", "lat": 38.89493733333333, "name": "3de6e52326b4fbaf7f686779e00369b7", "lon": -77.023057, "fusion_lon": 0.0}, {"is_reserved": 0, "type": "electric_scooter", "fusion_lat": 0.0, "is_disabled": 0, "rental_uris": {"ios": "https://dc.lft.to/lastmile_qr_scan", "android": "https://dc.lft.to/lastmile_qr_scan"}, "bike_id": "8e8de89766628fd92dd8e6c09c67c170", "lat": 38.88673516666667, "name": "8e8de89766628fd92dd8e6c09c67c170", "lon": -76.99714866666666, "fusion_lon": 0.0}, {"is_reserved": 0, "type": "electric_scooter", "fusion_lat": 0.0, "is_disabled": 0, "rental_uris": {"ios": "https://dc.lft.to/lastmile_qr_scan", "android": "https://dc.lft.to/lastmile_qr_scan"}, "bike_id": "89eb0161503ea72700ae1177feb9beaf", "lat": 38.9311215, "name": "89eb0161503ea72700ae1177feb9beaf", "lon": -77.02345083333333, "fusion_lon": 0.0}, {"is_reserved": 0, "type": "electric_scooter", "fusion_lat": 0.0, "is_disabled": 0, "rental_uris": {"ios": "https://dc.lft.to/lastmile_qr_scan", "android": "https://dc.lft.to/lastmile_qr_scan"}, "bike_id": "433be7f066d47f3674af0b66f16d55f0", "lat": 38.927909166666666, "name": "433be7f066d47f3674af0b66f16d55f0", "lon": -77.0315315, "fusion_lon": 0.0}, {"is_reserved": 0, "type": "electric_scooter", "fusion_lat": 0.0, "is_disabled": 0, "rental_uris": {"ios": "https://dc.lft.to/lastmile_qr_scan", "android": "https://dc.lft.to/lastmile_qr_scan"}, "bike_id": "d6fff21e77d42d8921810864736db7bf", "lat": 38.876705666666666, "name": "d6fff21e77d42d8921810864736db7bf", "lon": -77.00283866666666, "fusion_lon": 0.0}, {"is_reserved": 0, "type": "electric_scooter", "fusion_lat": 0.0, "is_disabled": 0, "rental_uris": {"ios": "https://dc.lft.to/lastmile_qr_scan", "android": "https://dc.lft.to/lastmile_qr_scan"}, "bike_id": "98e99371b9fa5fb5a1ead67ff3e9a94b", "lat": 38.8921765, "name": "98e99371b9fa5fb5a1ead67ff3e9a94b", "lon": -77.0255745, "fusion_lon": 0.0}, {"is_reserved": 0, "type": "electric_scooter", "fusion_lat": 0.0, "is_disabled": 0, "rental_uris": {"ios": "https://dc.lft.to/lastmile_qr_scan", "android": "https://dc.lft.to/lastmile_qr_scan"}, "bike_id": "48ab23d91b7d0262e9b52deb31bd3139", "lat": 38.92059, "name": "48ab23d91b7d0262e9b52deb31bd3139", "lon": -77.0423265, "fusion_lon": 0.0}, {"is_reserved": 0, "type": "electric_scooter", "fusion_lat": 0.0, "is_disabled": 0, "rental_uris": {"ios": "https://dc.lft.to/lastmile_qr_scan", "android": "https://dc.lft.to/lastmile_qr_scan"}, "bike_id": "00e1a01be44b644ff975df7f23ee9b86", "lat": 38.8838085, "name": "00e1a01be44b644ff975df7f23ee9b86", "lon": -77.04607016666667, "fusion_lon": 0.0}, {"is_reserved": 0, "type": "electric_scooter", "fusion_lat": 0.0, "is_disabled": 0, "rental_uris": {"ios": "https://dc.lft.to/lastmile_qr_scan", "android": "https://dc.lft.to/lastmile_qr_scan"}, "bike_id": "5814aa3251b9f751514626bf121edf77", "lat": 38.89221716666667, "name": "5814aa3251b9f751514626bf121edf77", "lon": -77.04326433333334, "fusion_lon": 0.0}, {"is_reserved": 0, "type": "electric_bike", "fusion_lat": 0.0, "is_disabled": 0, "rental_uris": {"ios": "https://dc.lft.to/lastmile_qr_scan", "android": "https://dc.lft.to/lastmile_qr_scan"}, "bike_id": "3dcdc43da6bfad5d49858ed53084426a", "lat": 38.87564583333333, "name": "3dcdc43da6bfad5d49858ed53084426a", "lon": -77.047066, "fusion_lon": 0.0}, {"is_reserved": 0, "type": "electric_bike", "fusion_lat": 0.0, "is_disabled": 0, "rental_uris": {"ios": "https://dc.lft.to/lastmile_qr_scan", "android": "https://dc.lft.to/lastmile_qr_scan"}, "bike_id": "5cb918581d3b3bb9055ed64ec0f46562", "lat": 38.998275666666665, "name": "5cb918581d3b3bb9055ed64ec0f46562", "lon": -76.99727466666667, "fusion_lon": 0.0}, {"is_reserved": 0, "type": "electric_scooter", "fusion_lat": 0.0, "is_disabled": 0, "rental_uris": {"ios": "https://dc.lft.to/lastmile_qr_scan", "android": "https://dc.lft.to/lastmile_qr_scan"}, "bike_id": "eecc96f1d2b966445022eec23aaf8c0d", "lat": 38.892082, "name": "eecc96f1d2b966445022eec23aaf8c0d", "lon": -76.961211, "fusion_lon": 0.0}, {"is_reserved": 0, "type": "electric_scooter", "fusion_lat": 0.0, "is_disabled": 0, "rental_uris": {"ios": "https://dc.lft.to/lastmile_qr_scan", "android": "https://dc.lft.to/lastmile_qr_scan"}, "bike_id": "c78a9817aa464e3ea762e7081a30f36a", "lat": 38.959515, "name": "c78a9817aa464e3ea762e7081a30f36a", "lon": -77.03320666666667, "fusion_lon": 0.0}, {"is_reserved": 0, "type": "electric_scooter", "fusion_lat": 0.0, "is_disabled": 0, "rental_uris": {"ios": "https://dc.lft.to/lastmile_qr_scan", "android": "https://dc.lft.to/lastmile_qr_scan"}, "bike_id": "50836f55bc876d292108830629d6b3c4", "lat": 38.912732, "name": "50836f55bc876d292108830629d6b3c4", "lon": -77.0465855, "fusion_lon": 0.0}, {"is_reserved": 0, "type": "electric_scooter", "fusion_lat": 0.0, "is_disabled": 0, "rental_uris": {"ios": "https://dc.lft.to/lastmile_qr_scan", "android": "https://dc.lft.to/lastmile_qr_scan"}, "bike_id": "45f30cebb0028fbb44538501ae9d03c2", "lat": 38.9288545, "name": "45f30cebb0028fbb44538501ae9d03c2", "lon": -77.03883066666667, "fusion_lon": 0.0}, {"is_reserved": 0, "type": "electric_scooter", "fusion_lat": 0.0, "is_disabled": 0, "rental_uris": {"ios": "https://dc.lft.to/lastmile_qr_scan", "android": "https://dc.lft.to/lastmile_qr_scan"}, "bike_id": "0aa1d8330278945f7171efd7fc1b8893", "lat": 38.93002533333333, "name": "0aa1d8330278945f7171efd7fc1b8893", "lon": -77.03787483333333, "fusion_lon": 0.0}, {"is_reserved": 0, "type": "electric_scooter", "fusion_lat": 0.0, "is_disabled": 0, "rental_uris": {"ios": "https://dc.lft.to/lastmile_qr_scan", "android": "https://dc.lft.to/lastmile_qr_scan"}, "bike_id": "62d5a41496b003f000f8258bcd399b59", "lat": 38.91042, "name": "62d5a41496b003f000f8258bcd399b59", "lon": -77.04341983333333, "fusion_lon": 0.0}, {"is_reserved": 0, "type": "electric_scooter", "fusion_lat": 0.0, "is_disabled": 0, "rental_uris": {"ios": "https://dc.lft.to/lastmile_qr_scan", "android": "https://dc.lft.to/lastmile_qr_scan"}, "bike_id": "19219c20759447b4fde701473ece4627", "lat": 38.936553833333335, "name": "19219c20759447b4fde701473ece4627", "lon": -77.06610016666667, "fusion_lon": 0.0}, {"is_reserved": 0, "type": "electric_scooter", "fusion_lat": 0.0, "is_disabled": 0, "rental_uris": {"ios": "https://dc.lft.to/lastmile_qr_scan", "android": "https://dc.lft.to/lastmile_qr_scan"}, "bike_id": "71e7c462f1db40c67a7f32ea99dc1673", "lat": 38.9254775, "name": "71e7c462f1db40c67a7f32ea99dc1673", "lon": -77.003242, "fusion_lon": 0.0}, {"is_reserved": 0, "type": "electric_scooter", "fusion_lat": 0.0, "is_disabled": 0, "rental_uris": {"ios": "https://dc.lft.to/lastmile_qr_scan", "android": "https://dc.lft.to/lastmile_qr_scan"}, "bike_id": "8d8a7d97b417a4373fd765a3df00aa3c", "lat": 38.9024345, "name": "8d8a7d97b417a4373fd765a3df00aa3c", "lon": -77.0345615, "fusion_lon": 0.0}, {"is_reserved": 0, "type": "electric_scooter", "fusion_lat": 0.0, "is_disabled": 0, "rental_uris": {"ios": "https://dc.lft.to/lastmile_qr_scan", "android": "https://dc.lft.to/lastmile_qr_scan"}, "bike_id": "a1685539d7dc2fdd2351b58f8ebcb31e", "lat": 38.882615, "name": "a1685539d7dc2fdd2351b58f8ebcb31e", "lon": -76.99017683333334, "fusion_lon": 0.0}, {"is_reserved": 0, "type": "electric_scooter", "fusion_lat": 0.0, "is_disabled": 0, "rental_uris": {"ios": "https://dc.lft.to/lastmile_qr_scan", "android": "https://dc.lft.to/lastmile_qr_scan"}, "bike_id": "cbcf1a832c336bb0fc066a0352719f62", "lat": 38.92540616666667, "name": "cbcf1a832c336bb0fc066a0352719f62", "lon": -77.03261866666666, "fusion_lon": 0.0}, {"is_reserved": 0, "type": "electric_scooter", "fusion_lat": 0.0, "is_disabled": 0, "rental_uris": {"ios": "https://dc.lft.to/lastmile_qr_scan", "android": "https://dc.lft.to/lastmile_qr_scan"}, "bike_id": "acb89dd0dc449c71e3c603729867918a", "lat": 38.90241283333334, "name": "acb89dd0dc449c71e3c603729867918a", "lon": -76.99207733333333, "fusion_lon": 0.0}, {"is_reserved": 0, "type": "electric_scooter", "fusion_lat": 0.0, "is_disabled": 0, "rental_uris": {"ios": "https://dc.lft.to/lastmile_qr_scan", "android": "https://dc.lft.to/lastmile_qr_scan"}, "bike_id": "8a02d46a6a8c4bc2252eb2b810403aef", "lat": 38.90459416666667, "name": "8a02d46a6a8c4bc2252eb2b810403aef", "lon": -77.01708066666667, "fusion_lon": 0.0}, {"is_reserved": 0, "type": "electric_scooter", "fusion_lat": 0.0, "is_disabled": 0, "rental_uris": {"ios": "https://dc.lft.to/lastmile_qr_scan", "android": "https://dc.lft.to/lastmile_qr_scan"}, "bike_id": "5117cabd2fbed3a9612d6ca620615778", "lat": 38.899636666666666, "name": "5117cabd2fbed3a9612d6ca620615778", "lon": -77.02189333333334, "fusion_lon": 0.0}, {"is_reserved": 0, "type": "electric_scooter", "fusion_lat": 0.0, "is_disabled": 0, "rental_uris": {"ios": "https://dc.lft.to/lastmile_qr_scan", "android": "https://dc.lft.to/lastmile_qr_scan"}, "bike_id": "537d5b581042c3a79d1ede82d4457a90", "lat": 38.9336415, "name": "537d5b581042c3a79d1ede82d4457a90", "lon": -77.07245983333334, "fusion_lon": 0.0}, {"is_reserved": 0, "type": "electric_scooter", "fusion_lat": 0.0, "is_disabled": 0, "rental_uris": {"ios": "https://dc.lft.to/lastmile_qr_scan", "android": "https://dc.lft.to/lastmile_qr_scan"}, "bike_id": "9e026dc97c541a975dba258776455991", "lat": 38.900604, "name": "9e026dc97c541a975dba258776455991", "lon": -77.04818283333333, "fusion_lon": 0.0}, {"is_reserved": 0, "type": "electric_scooter", "fusion_lat": 0.0, "is_disabled": 0, "rental_uris": {"ios": "https://dc.lft.to/lastmile_qr_scan", "android": "https://dc.lft.to/lastmile_qr_scan"}, "bike_id": "3efa758358d5eba8fcc8d99df14f722f", "lat": 38.94460866666667, "name": "3efa758358d5eba8fcc8d99df14f722f", "lon": -77.00655066666667, "fusion_lon": 0.0}, {"is_reserved": 0, "type": "electric_scooter", "fusion_lat": 0.0, "is_disabled": 0, "rental_uris": {"ios": "https://dc.lft.to/lastmile_qr_scan", "android": "https://dc.lft.to/lastmile_qr_scan"}, "bike_id": "ab453288c07ee996717684cc42c4db5b", "lat": 38.90265333333333, "name": "ab453288c07ee996717684cc42c4db5b", "lon": -76.9898195, "fusion_lon": 0.0}, {"is_reserved": 0, "type": "electric_scooter", "fusion_lat": 0.0, "is_disabled": 0, "rental_uris": {"ios": "https://dc.lft.to/lastmile_qr_scan", "android": "https://dc.lft.to/lastmile_qr_scan"}, "bike_id": "4af698f89ce5bfc079008957b746887a", "lat": 38.92082633333333, "name": "4af698f89ce5bfc079008957b746887a", "lon": -77.02503716666666, "fusion_lon": 0.0}, {"is_reserved": 0, "type": "electric_scooter", "fusion_lat": 0.0, "is_disabled": 0, "rental_uris": {"ios": "https://dc.lft.to/lastmile_qr_scan", "android": "https://dc.lft.to/lastmile_qr_scan"}, "bike_id": "49f78d12de711e6637bc09b7bb173676", "lat": 38.9120845, "name": "49f78d12de711e6637bc09b7bb173676", "lon": -77.00664166666667, "fusion_lon": 0.0}, {"is_reserved": 0, "type": "electric_scooter", "fusion_lat": 0.0, "is_disabled": 0, "rental_uris": {"ios": "https://dc.lft.to/lastmile_qr_scan", "android": "https://dc.lft.to/lastmile_qr_scan"}, "bike_id": "f9a7659a93962d3f422ad4647d27ecd5", "lat": 38.871128666666664, "name": "f9a7659a93962d3f422ad4647d27ecd5", "lon": -77.00754416666666, "fusion_lon": 0.0}, {"is_reserved": 0, "type": "electric_scooter", "fusion_lat": 0.0, "is_disabled": 0, "rental_uris": {"ios": "https://dc.lft.to/lastmile_qr_scan", "android": "https://dc.lft.to/lastmile_qr_scan"}, "bike_id": "d0ab4dd60862b9d3d6d7181012d14fe0", "lat": 38.9178585, "name": "d0ab4dd60862b9d3d6d7181012d14fe0", "lon": -77.02397166666667, "fusion_lon": 0.0}, {"is_reserved": 0, "type": "electric_bike", "fusion_lat": 0.0, "is_disabled": 0, "rental_uris": {"ios": "https://dc.lft.to/lastmile_qr_scan", "android": "https://dc.lft.to/lastmile_qr_scan"}, "bike_id": "237d009e76480dbaef2a036411d8387b", "lat": 38.974794833333334, "name": "237d009e76480dbaef2a036411d8387b", "lon": -76.98672383333333, "fusion_lon": 0.0}, {"is_reserved": 0, "type": "electric_scooter", "fusion_lat": 0.0, "is_disabled": 0, "rental_uris": {"ios": "https://dc.lft.to/lastmile_qr_scan", "android": "https://dc.lft.to/lastmile_qr_scan"}, "bike_id": "ec50252693b4192a90996f458de8e0de", "lat": 38.93484766666667, "name": "ec50252693b4192a90996f458de8e0de", "lon": -77.07327516666666, "fusion_lon": 0.0}, {"is_reserved": 0, "type": "electric_bike", "fusion_lat": 0.0, "is_disabled": 0, "rental_uris": {"ios": "https://dc.lft.to/lastmile_qr_scan", "android": "https://dc.lft.to/lastmile_qr_scan"}, "bike_id": "1162309afd9b3f79b3538679fa6755b3", "lat": 38.84085966666667, "name": "1162309afd9b3f79b3538679fa6755b3", "lon": -76.9702955, "fusion_lon": 0.0}, {"is_reserved": 0, "type": "electric_bike", "fusion_lat": 0.0, "is_disabled": 0, "rental_uris": {"ios": "https://dc.lft.to/lastmile_qr_scan", "android": "https://dc.lft.to/lastmile_qr_scan"}, "bike_id": "48df12614c807f2d70e949ade24c6494", "lat": 39.02294833333333, "name": "48df12614c807f2d70e949ade24c6494", "lon": -77.02106466666666, "fusion_lon": 0.0}, {"is_reserved": 0, "type": "electric_scooter", "fusion_lat": 0.0, "is_disabled": 0, "rental_uris": {"ios": "https://dc.lft.to/lastmile_qr_scan", "android": "https://dc.lft.to/lastmile_qr_scan"}, "bike_id": "2de703306fcdbb436c3631e9d7a86a48", "lat": 38.906531333333334, "name": "2de703306fcdbb436c3631e9d7a86a48", "lon": -77.01614633333334, "fusion_lon": 0.0}, {"is_reserved": 0, "type": "electric_bike", "fusion_lat": 0.0, "is_disabled": 0, "rental_uris": {"ios": "https://dc.lft.to/lastmile_qr_scan", "android": "https://dc.lft.to/lastmile_qr_scan"}, "bike_id": "8ded90e5d73f2c6aeeab3be759878f59", "lat": 38.834915, "name": "8ded90e5d73f2c6aeeab3be759878f59", "lon": -77.00436366666666, "fusion_lon": 0.0}, {"is_reserved": 0, "type": "electric_scooter", "fusion_lat": 0.0, "is_disabled": 0, "rental_uris": {"ios": "https://dc.lft.to/lastmile_qr_scan", "android": "https://dc.lft.to/lastmile_qr_scan"}, "bike_id": "6ed06916004f32683afd0e74ed861228", "lat": 38.898303, "name": "6ed06916004f32683afd0e74ed861228", "lon": -77.0188145, "fusion_lon": 0.0}, {"is_reserved": 0, "type": "electric_bike", "fusion_lat": 0.0, "is_disabled": 0, "rental_uris": {"ios": "https://dc.lft.to/lastmile_qr_scan", "android": "https://dc.lft.to/lastmile_qr_scan"}, "bike_id": "fb96fa90c5aa2242c26f0c1ee087b8c0", "lat": 38.90125966666667, "name": "fb96fa90c5aa2242c26f0c1ee087b8c0", "lon": -76.99635066666667, "fusion_lon": 0.0}, {"is_reserved": 0, "type": "electric_bike", "fusion_lat": 0.0, "is_disabled": 0, "rental_uris": {"ios": "https://dc.lft.to/lastmile_qr_scan", "android": "https://dc.lft.to/lastmile_qr_scan"}, "bike_id": "7a1f8bf7499d44e7c23f371b2d5202ab", "lat": 38.8995235, "name": "7a1f8bf7499d44e7c23f371b2d5202ab", "lon": -77.04771083333333, "fusion_lon": 0.0}, {"is_reserved": 0, "type": "electric_scooter", "fusion_lat": 0.0, "is_disabled": 0, "rental_uris": {"ios": "https://dc.lft.to/lastmile_qr_scan", "android": "https://dc.lft.to/lastmile_qr_scan"}, "bike_id": "97a0adbe9faca5931e5f80241563180d", "lat": 38.898423, "name": "97a0adbe9faca5931e5f80241563180d", "lon": -77.002116, "fusion_lon": 0.0}, {"is_reserved": 0, "type": "electric_scooter", "fusion_lat": 0.0, "is_disabled": 0, "rental_uris": {"ios": "https://dc.lft.to/lastmile_qr_scan", "android": "https://dc.lft.to/lastmile_qr_scan"}, "bike_id": "35861ffde6938f4d0f3a07761b70e403", "lat": 38.89904333333333, "name": "35861ffde6938f4d0f3a07761b70e403", "lon": -77.04057916666666, "fusion_lon": 0.0}, {"is_reserved": 0, "type": "electric_bike", "fusion_lat": 0.0, "is_disabled": 0, "rental_uris": {"ios": "https://dc.lft.to/lastmile_qr_scan", "android": "https://dc.lft.to/lastmile_qr_scan"}, "bike_id": "d15bcccdd2e86531bcbe7466530d7b82", "lat": 38.98222116666667, "name": "d15bcccdd2e86531bcbe7466530d7b82", "lon": -77.09566016666666, "fusion_lon": 0.0}, {"is_reserved": 0, "type": "electric_scooter", "fusion_lat": 0.0, "is_disabled": 0, "rental_uris": {"ios": "https://dc.lft.to/lastmile_qr_scan", "android": "https://dc.lft.to/lastmile_qr_scan"}, "bike_id": "f8a327864ff82b15e2bc732b313d4d0d", "lat": 38.91406816666667, "name": "f8a327864ff82b15e2bc732b313d4d0d", "lon": -77.04566016666666, "fusion_lon": 0.0}, {"is_reserved": 0, "type": "electric_scooter", "fusion_lat": 0.0, "is_disabled": 0, "rental_uris": {"ios": "https://dc.lft.to/lastmile_qr_scan", "android": "https://dc.lft.to/lastmile_qr_scan"}, "bike_id": "e5eb3f7fb6433ac54fa65ed29af9b2f0", "lat": 38.900451833333335, "name": "e5eb3f7fb6433ac54fa65ed29af9b2f0", "lon": -77.0025205, "fusion_lon": 0.0}, {"is_reserved": 0, "type": "electric_scooter", "fusion_lat": 0.0, "is_disabled": 0, "rental_uris": {"ios": "https://dc.lft.to/lastmile_qr_scan", "android": "https://dc.lft.to/lastmile_qr_scan"}, "bike_id": "2cd4caf2d9bd15759cd21a37d7cd3198", "lat": 38.89194466666667, "name": "2cd4caf2d9bd15759cd21a37d7cd3198", "lon": -77.02124833333333, "fusion_lon": 0.0}, {"is_reserved": 0, "type": "electric_scooter", "fusion_lat": 0.0, "is_disabled": 0, "rental_uris": {"ios": "https://dc.lft.to/lastmile_qr_scan", "android": "https://dc.lft.to/lastmile_qr_scan"}, "bike_id": "d7564138c192ca3951bbf3d9f9fe8e43", "lat": 38.8922505, "name": "d7564138c192ca3951bbf3d9f9fe8e43", "lon": -77.044651, "fusion_lon": 0.0}, {"is_reserved": 0, "type": "electric_bike", "fusion_lat": 0.0, "is_disabled": 0, "rental_uris": {"ios": "https://dc.lft.to/lastmile_qr_scan", "android": "https://dc.lft.to/lastmile_qr_scan"}, "bike_id": "69703347ab9b13219e7932cbb0e3725f", "lat": 38.82031966666667, "name": "69703347ab9b13219e7932cbb0e3725f", "lon": -77.05460433333333, "fusion_lon": 0.0}, {"is_reserved": 0, "type": "electric_scooter", "fusion_lat": 0.0, "is_disabled": 0, "rental_uris": {"ios": "https://dc.lft.to/lastmile_qr_scan", "android": "https://dc.lft.to/lastmile_qr_scan"}, "bike_id": "b6e5fe052d92326b509e3455645f1f1f", "lat": 38.8813405, "name": "b6e5fe052d92326b509e3455645f1f1f", "lon": -77.02271033333334, "fusion_lon": 0.0}, {"is_reserved": 0, "type": "electric_bike", "fusion_lat": 0.0, "is_disabled": 0, "rental_uris": {"ios": "https://dc.lft.to/lastmile_qr_scan", "android": "https://dc.lft.to/lastmile_qr_scan"}, "bike_id": "7b344cec4e96ce166d8d1909652d5d55", "lat": 38.96122016666666, "name": "7b344cec4e96ce166d8d1909652d5d55", "lon": -77.03277, "fusion_lon": 0.0}, {"is_reserved": 0, "type": "electric_scooter", "fusion_lat": 0.0, "is_disabled": 0, "rental_uris": {"ios": "https://dc.lft.to/lastmile_qr_scan", "android": "https://dc.lft.to/lastmile_qr_scan"}, "bike_id": "1c11a71089304db4971ec2e7cfa77b33", "lat": 38.8844785, "name": "1c11a71089304db4971ec2e7cfa77b33", "lon": -76.95096516666666, "fusion_lon": 0.0}, {"is_reserved": 0, "type": "electric_scooter", "fusion_lat": 0.0, "is_disabled": 0, "rental_uris": {"ios": "https://dc.lft.to/lastmile_qr_scan", "android": "https://dc.lft.to/lastmile_qr_scan"}, "bike_id": "a538198c21c75efbc44bf24ad38bcb86", "lat": 38.921472333333334, "name": "a538198c21c75efbc44bf24ad38bcb86", "lon": -77.03389033333333, "fusion_lon": 0.0}, {"is_reserved": 0, "type": "electric_scooter", "fusion_lat": 0.0, "is_disabled": 0, "rental_uris": {"ios": "https://dc.lft.to/lastmile_qr_scan", "android": "https://dc.lft.to/lastmile_qr_scan"}, "bike_id": "94432d229eb7b32c262ffda2eee62dd5", "lat": 38.93858516666667, "name": "94432d229eb7b32c262ffda2eee62dd5", "lon": -77.02460633333334, "fusion_lon": 0.0}, {"is_reserved": 0, "type": "electric_scooter", "fusion_lat": 0.0, "is_disabled": 0, "rental_uris": {"ios": "https://dc.lft.to/lastmile_qr_scan", "android": "https://dc.lft.to/lastmile_qr_scan"}, "bike_id": "e2d7f5a9eb7cd84737924fcb15fa5223", "lat": 38.9319605, "name": "e2d7f5a9eb7cd84737924fcb15fa5223", "lon": -77.03266516666666, "fusion_lon": 0.0}, {"is_reserved": 0, "type": "electric_scooter", "fusion_lat": 0.0, "is_disabled": 0, "rental_uris": {"ios": "https://dc.lft.to/lastmile_qr_scan", "android": "https://dc.lft.to/lastmile_qr_scan"}, "bike_id": "2ff39826929f568ac33b499e6ae92cfa", "lat": 38.946779666666664, "name": "2ff39826929f568ac33b499e6ae92cfa", "lon": -77.03284566666666, "fusion_lon": 0.0}, {"is_reserved": 0, "type": "electric_scooter", "fusion_lat": 0.0, "is_disabled": 0, "rental_uris": {"ios": "https://dc.lft.to/lastmile_qr_scan", "android": "https://dc.lft.to/lastmile_qr_scan"}, "bike_id": "211ff9e44d43d43df1719b745a3e506e", "lat": 38.92337766666667, "name": "211ff9e44d43d43df1719b745a3e506e", "lon": -76.9848615, "fusion_lon": 0.0}, {"is_reserved": 0, "type": "electric_scooter", "fusion_lat": 0.0, "is_disabled": 0, "rental_uris": {"ios": "https://dc.lft.to/lastmile_qr_scan", "android": "https://dc.lft.to/lastmile_qr_scan"}, "bike_id": "dfa08f211e090ae84a560ae87f3253b8", "lat": 38.88020733333333, "name": "dfa08f211e090ae84a560ae87f3253b8", "lon": -77.02466583333333, "fusion_lon": 0.0}, {"is_reserved": 0, "type": "electric_scooter", "fusion_lat": 0.0, "is_disabled": 0, "rental_uris": {"ios": "https://dc.lft.to/lastmile_qr_scan", "android": "https://dc.lft.to/lastmile_qr_scan"}, "bike_id": "51fa0bfbbea1726e8172b5f54999ad1e", "lat": 38.916639, "name": "51fa0bfbbea1726e8172b5f54999ad1e", "lon": -77.02694766666667, "fusion_lon": 0.0}, {"is_reserved": 0, "type": "electric_scooter", "fusion_lat": 0.0, "is_disabled": 0, "rental_uris": {"ios": "https://dc.lft.to/lastmile_qr_scan", "android": "https://dc.lft.to/lastmile_qr_scan"}, "bike_id": "0a0d9315690620eca0d28ec27d35b511", "lat": 38.93181883333333, "name": "0a0d9315690620eca0d28ec27d35b511", "lon": -77.0235165, "fusion_lon": 0.0}, {"is_reserved": 0, "type": "electric_scooter", "fusion_lat": 0.0, "is_disabled": 0, "rental_uris": {"ios": "https://dc.lft.to/lastmile_qr_scan", "android": "https://dc.lft.to/lastmile_qr_scan"}, "bike_id": "b506c8f91c77e974635b1160d8f08fe0", "lat": 38.9101385, "name": "b506c8f91c77e974635b1160d8f08fe0", "lon": -77.03182216666667, "fusion_lon": 0.0}, {"is_reserved": 0, "type": "electric_scooter", "fusion_lat": 0.0, "is_disabled": 0, "rental_uris": {"ios": "https://dc.lft.to/lastmile_qr_scan", "android": "https://dc.lft.to/lastmile_qr_scan"}, "bike_id": "a3e49c8a58b6dfc18e87611f841aa99c", "lat": 38.9264015, "name": "a3e49c8a58b6dfc18e87611f841aa99c", "lon": -77.038413, "fusion_lon": 0.0}, {"is_reserved": 0, "type": "electric_scooter", "fusion_lat": 0.0, "is_disabled": 0, "rental_uris": {"ios": "https://dc.lft.to/lastmile_qr_scan", "android": "https://dc.lft.to/lastmile_qr_scan"}, "bike_id": "a2b01d83cf67a42e9134285035963212", "lat": 38.89667216666667, "name": "a2b01d83cf67a42e9134285035963212", "lon": -76.93206866666667, "fusion_lon": 0.0}, {"is_reserved": 0, "type": "electric_bike", "fusion_lat": 0.0, "is_disabled": 0, "rental_uris": {"ios": "https://dc.lft.to/lastmile_qr_scan", "android": "https://dc.lft.to/lastmile_qr_scan"}, "bike_id": "65fc3766153526b5f5c9d85616755153", "lat": 38.868143833333335, "name": "65fc3766153526b5f5c9d85616755153", "lon": -76.98019383333333, "fusion_lon": 0.0}, {"is_reserved": 0, "type": "electric_scooter", "fusion_lat": 0.0, "is_disabled": 0, "rental_uris": {"ios": "https://dc.lft.to/lastmile_qr_scan", "android": "https://dc.lft.to/lastmile_qr_scan"}, "bike_id": "da682c507847a98e4ffddb913903e174", "lat": 38.943056166666665, "name": "da682c507847a98e4ffddb913903e174", "lon": -77.02530483333334, "fusion_lon": 0.0}, {"is_reserved": 0, "type": "electric_scooter", "fusion_lat": 0.0, "is_disabled": 0, "rental_uris": {"ios": "https://dc.lft.to/lastmile_qr_scan", "android": "https://dc.lft.to/lastmile_qr_scan"}, "bike_id": "68003730fdb80e1cb8f0ebfd3695f619", "lat": 38.937057333333335, "name": "68003730fdb80e1cb8f0ebfd3695f619", "lon": -77.02400833333333, "fusion_lon": 0.0}, {"is_reserved": 0, "type": "electric_scooter", "fusion_lat": 0.0, "is_disabled": 0, "rental_uris": {"ios": "https://dc.lft.to/lastmile_qr_scan", "android": "https://dc.lft.to/lastmile_qr_scan"}, "bike_id": "252a09a6d7820c9f649cc7b149112a26", "lat": 38.923565333333336, "name": "252a09a6d7820c9f649cc7b149112a26", "lon": -77.03451266666667, "fusion_lon": 0.0}, {"is_reserved": 0, "type": "electric_scooter", "fusion_lat": 0.0, "is_disabled": 0, "rental_uris": {"ios": "https://dc.lft.to/lastmile_qr_scan", "android": "https://dc.lft.to/lastmile_qr_scan"}, "bike_id": "4b36e71af713d99dc783ad7e5c2264a0", "lat": 38.93706183333333, "name": "4b36e71af713d99dc783ad7e5c2264a0", "lon": -77.0363835, "fusion_lon": 0.0}, {"is_reserved": 0, "type": "electric_scooter", "fusion_lat": 0.0, "is_disabled": 0, "rental_uris": {"ios": "https://dc.lft.to/lastmile_qr_scan", "android": "https://dc.lft.to/lastmile_qr_scan"}, "bike_id": "d78e0e2c163f17618a2b66e8c8ae7756", "lat": 38.928652166666666, "name": "d78e0e2c163f17618a2b66e8c8ae7756", "lon": -77.03479216666666, "fusion_lon": 0.0}, {"is_reserved": 0, "type": "electric_scooter", "fusion_lat": 0.0, "is_disabled": 0, "rental_uris": {"ios": "https://dc.lft.to/lastmile_qr_scan", "android": "https://dc.lft.to/lastmile_qr_scan"}, "bike_id": "94da95c68fb2e8ea9d7f759ca8060b61", "lat": 38.91730283333333, "name": "94da95c68fb2e8ea9d7f759ca8060b61", "lon": -77.026007, "fusion_lon": 0.0}, {"is_reserved": 0, "type": "electric_scooter", "fusion_lat": 0.0, "is_disabled": 0, "rental_uris": {"ios": "https://dc.lft.to/lastmile_qr_scan", "android": "https://dc.lft.to/lastmile_qr_scan"}, "bike_id": "f99552aac32cb23b9a3f00a5015cfca3", "lat": 38.8905355, "name": "f99552aac32cb23b9a3f00a5015cfca3", "lon": -77.01967583333334, "fusion_lon": 0.0}, {"is_reserved": 0, "type": "electric_scooter", "fusion_lat": 0.0, "is_disabled": 0, "rental_uris": {"ios": "https://dc.lft.to/lastmile_qr_scan", "android": "https://dc.lft.to/lastmile_qr_scan"}, "bike_id": "412aa9613650b6bfa4d58786c6ea190d", "lat": 38.95634733333333, "name": "412aa9613650b6bfa4d58786c6ea190d", "lon": -77.03628116666667, "fusion_lon": 0.0}, {"is_reserved": 0, "type": "electric_scooter", "fusion_lat": 0.0, "is_disabled": 0, "rental_uris": {"ios": "https://dc.lft.to/lastmile_qr_scan", "android": "https://dc.lft.to/lastmile_qr_scan"}, "bike_id": "7a52f935135b4d7614e248654f66f161", "lat": 38.92611433333333, "name": "7a52f935135b4d7614e248654f66f161", "lon": -77.02163933333334, "fusion_lon": 0.0}, {"is_reserved": 0, "type": "electric_scooter", "fusion_lat": 0.0, "is_disabled": 0, "rental_uris": {"ios": "https://dc.lft.to/lastmile_qr_scan", "android": "https://dc.lft.to/lastmile_qr_scan"}, "bike_id": "5caec1a8ba4f36e4ac86ba06e5f9001a", "lat": 38.9102365, "name": "5caec1a8ba4f36e4ac86ba06e5f9001a", "lon": -77.02816283333334, "fusion_lon": 0.0}, {"is_reserved": 0, "type": "electric_scooter", "fusion_lat": 0.0, "is_disabled": 0, "rental_uris": {"ios": "https://dc.lft.to/lastmile_qr_scan", "android": "https://dc.lft.to/lastmile_qr_scan"}, "bike_id": "f5e356df86e788f886035ed6727abd35", "lat": 38.929943, "name": "f5e356df86e788f886035ed6727abd35", "lon": -77.021722, "fusion_lon": 0.0}, {"is_reserved": 0, "type": "electric_scooter", "fusion_lat": 0.0, "is_disabled": 0, "rental_uris": {"ios": "https://dc.lft.to/lastmile_qr_scan", "android": "https://dc.lft.to/lastmile_qr_scan"}, "bike_id": "3010b2543c9c29293bc326ea729254cb", "lat": 38.95550633333333, "name": "3010b2543c9c29293bc326ea729254cb", "lon": -77.03339316666667, "fusion_lon": 0.0}, {"is_reserved": 0, "type": "electric_scooter", "fusion_lat": 0.0, "is_disabled": 0, "rental_uris": {"ios": "https://dc.lft.to/lastmile_qr_scan", "android": "https://dc.lft.to/lastmile_qr_scan"}, "bike_id": "916291d704ff6d6f4f54d1f6f85747fa", "lat": 38.89844816666667, "name": "916291d704ff6d6f4f54d1f6f85747fa", "lon": -77.00206066666667, "fusion_lon": 0.0}, {"is_reserved": 0, "type": "electric_bike", "fusion_lat": 0.0, "is_disabled": 0, "rental_uris": {"ios": "https://dc.lft.to/lastmile_qr_scan", "android": "https://dc.lft.to/lastmile_qr_scan"}, "bike_id": "d16dab0fc715b39208463a3840fdbb16", "lat": 38.97437216666667, "name": "d16dab0fc715b39208463a3840fdbb16", "lon": -77.096162, "fusion_lon": 0.0}, {"is_reserved": 0, "type": "electric_scooter", "fusion_lat": 0.0, "is_disabled": 0, "rental_uris": {"ios": "https://dc.lft.to/lastmile_qr_scan", "android": "https://dc.lft.to/lastmile_qr_scan"}, "bike_id": "b3efbc9b60ed7322ba948ba4d2dc3e58", "lat": 38.85553733333333, "name": "b3efbc9b60ed7322ba948ba4d2dc3e58", "lon": -76.986613, "fusion_lon": 0.0}, {"is_reserved": 0, "type": "electric_scooter", "fusion_lat": 0.0, "is_disabled": 0, "rental_uris": {"ios": "https://dc.lft.to/lastmile_qr_scan", "android": "https://dc.lft.to/lastmile_qr_scan"}, "bike_id": "3212ae8ad264d548c22358deb0533157", "lat": 38.892496666666666, "name": "3212ae8ad264d548c22358deb0533157", "lon": -77.03342566666667, "fusion_lon": 0.0}, {"is_reserved": 0, "type": "electric_scooter", "fusion_lat": 0.0, "is_disabled": 0, "rental_uris": {"ios": "https://dc.lft.to/lastmile_qr_scan", "android": "https://dc.lft.to/lastmile_qr_scan"}, "bike_id": "0007d67c8b5d01e3cc1d4dd595f1f356", "lat": 38.902796333333335, "name": "0007d67c8b5d01e3cc1d4dd595f1f356", "lon": -77.02274966666667, "fusion_lon": 0.0}, {"is_reserved": 0, "type": "electric_scooter", "fusion_lat": 0.0, "is_disabled": 0, "rental_uris": {"ios": "https://dc.lft.to/lastmile_qr_scan", "android": "https://dc.lft.to/lastmile_qr_scan"}, "bike_id": "dc1401b7c8cd00bd3bca6b588b6dd0e3", "lat": 38.942613333333334, "name": "dc1401b7c8cd00bd3bca6b588b6dd0e3", "lon": -76.984719, "fusion_lon": 0.0}, {"is_reserved": 0, "type": "electric_scooter", "fusion_lat": 0.0, "is_disabled": 0, "rental_uris": {"ios": "https://dc.lft.to/lastmile_qr_scan", "android": "https://dc.lft.to/lastmile_qr_scan"}, "bike_id": "cf2b7e87eb751c04ba60cef3a15d9683", "lat": 38.88355466666667, "name": "cf2b7e87eb751c04ba60cef3a15d9683", "lon": -76.95769833333334, "fusion_lon": 0.0}, {"is_reserved": 0, "type": "electric_scooter", "fusion_lat": 0.0, "is_disabled": 0, "rental_uris": {"ios": "https://dc.lft.to/lastmile_qr_scan", "android": "https://dc.lft.to/lastmile_qr_scan"}, "bike_id": "d3b33e0dd2bff4f55d1291e114bdf872", "lat": 38.94714066666667, "name": "d3b33e0dd2bff4f55d1291e114bdf872", "lon": -77.06803933333333, "fusion_lon": 0.0}, {"is_reserved": 0, "type": "electric_scooter", "fusion_lat": 0.0, "is_disabled": 0, "rental_uris": {"ios": "https://dc.lft.to/lastmile_qr_scan", "android": "https://dc.lft.to/lastmile_qr_scan"}, "bike_id": "6e99b30ffe3c488800a2f8344fc5ba95", "lat": 38.901891166666665, "name": "6e99b30ffe3c488800a2f8344fc5ba95", "lon": -76.98240583333333, "fusion_lon": 0.0}, {"is_reserved": 0, "type": "electric_bike", "fusion_lat": 0.0, "is_disabled": 0, "rental_uris": {"ios": "https://dc.lft.to/lastmile_qr_scan", "android": "https://dc.lft.to/lastmile_qr_scan"}, "bike_id": "2f4697f5982c00bc08e271985a574732", "lat": 38.90694233333333, "name": "2f4697f5982c00bc08e271985a574732", "lon": -76.95253016666666, "fusion_lon": 0.0}, {"is_reserved": 0, "type": "electric_scooter", "fusion_lat": 0.0, "is_disabled": 0, "rental_uris": {"ios": "https://dc.lft.to/lastmile_qr_scan", "android": "https://dc.lft.to/lastmile_qr_scan"}, "bike_id": "dd68ae2804ecb9896bbca02fc6e17a0f", "lat": 38.896657, "name": "dd68ae2804ecb9896bbca02fc6e17a0f", "lon": -77.03355066666667, "fusion_lon": 0.0}, {"is_reserved": 0, "type": "electric_scooter", "fusion_lat": 0.0, "is_disabled": 0, "rental_uris": {"ios": "https://dc.lft.to/lastmile_qr_scan", "android": "https://dc.lft.to/lastmile_qr_scan"}, "bike_id": "55c50c31d84b2be2513b2e2066296e59", "lat": 38.916676333333335, "name": "55c50c31d84b2be2513b2e2066296e59", "lon": -77.04163466666667, "fusion_lon": 0.0}, {"is_reserved": 0, "type": "electric_scooter", "fusion_lat": 0.0, "is_disabled": 0, "rental_uris": {"ios": "https://dc.lft.to/lastmile_qr_scan", "android": "https://dc.lft.to/lastmile_qr_scan"}, "bike_id": "75c31438613a9c49b1cd960eac4ac115", "lat": 38.9333635, "name": "75c31438613a9c49b1cd960eac4ac115", "lon": -77.03874083333334, "fusion_lon": 0.0}, {"is_reserved": 0, "type": "electric_scooter", "fusion_lat": 0.0, "is_disabled": 0, "rental_uris": {"ios": "https://dc.lft.to/lastmile_qr_scan", "android": "https://dc.lft.to/lastmile_qr_scan"}, "bike_id": "dfc6d3de9651ea415cfa685375d2ac26", "lat": 38.8973025, "name": "dfc6d3de9651ea415cfa685375d2ac26", "lon": -76.99137916666666, "fusion_lon": 0.0}, {"is_reserved": 0, "type": "electric_scooter", "fusion_lat": 0.0, "is_disabled": 0, "rental_uris": {"ios": "https://dc.lft.to/lastmile_qr_scan", "android": "https://dc.lft.to/lastmile_qr_scan"}, "bike_id": "432dfbc59b8fedf7176266945ec7b837", "lat": 38.92445466666667, "name": "432dfbc59b8fedf7176266945ec7b837", "lon": -77.029792, "fusion_lon": 0.0}, {"is_reserved": 0, "type": "electric_scooter", "fusion_lat": 0.0, "is_disabled": 0, "rental_uris": {"ios": "https://dc.lft.to/lastmile_qr_scan", "android": "https://dc.lft.to/lastmile_qr_scan"}, "bike_id": "41e7c26f0f6d3b9aafbc38b1c0d351cb", "lat": 38.951546666666665, "name": "41e7c26f0f6d3b9aafbc38b1c0d351cb", "lon": -77.018669, "fusion_lon": 0.0}, {"is_reserved": 0, "type": "electric_bike", "fusion_lat": 0.0, "is_disabled": 0, "rental_uris": {"ios": "https://dc.lft.to/lastmile_qr_scan", "android": "https://dc.lft.to/lastmile_qr_scan"}, "bike_id": "c964e13a842ed2d3cc40fde12aebe014", "lat": 38.95182783333333, "name": "c964e13a842ed2d3cc40fde12aebe014", "lon": -76.93547233333334, "fusion_lon": 0.0}, {"is_reserved": 0, "type": "electric_bike", "fusion_lat": 0.0, "is_disabled": 0, "rental_uris": {"ios": "https://dc.lft.to/lastmile_qr_scan", "android": "https://dc.lft.to/lastmile_qr_scan"}, "bike_id": "e3bc6a2dfc16d4d99e345e8bf6309ec0", "lat": 38.88634783333333, "name": "e3bc6a2dfc16d4d99e345e8bf6309ec0", "lon": -77.05794716666666, "fusion_lon": 0.0}, {"is_reserved": 0, "type": "electric_scooter", "fusion_lat": 0.0, "is_disabled": 0, "rental_uris": {"ios": "https://dc.lft.to/lastmile_qr_scan", "android": "https://dc.lft.to/lastmile_qr_scan"}, "bike_id": "cfaedb7c3d1638caa1d4a055fb48ebd1", "lat": 38.93002883333333, "name": "cfaedb7c3d1638caa1d4a055fb48ebd1", "lon": -77.055413, "fusion_lon": 0.0}, {"is_reserved": 0, "type": "electric_scooter", "fusion_lat": 0.0, "is_disabled": 0, "rental_uris": {"ios": "https://dc.lft.to/lastmile_qr_scan", "android": "https://dc.lft.to/lastmile_qr_scan"}, "bike_id": "4c2dde96aed993a7ffa4448ef3b59241", "lat": 38.91690716666667, "name": "4c2dde96aed993a7ffa4448ef3b59241", "lon": -77.0259375, "fusion_lon": 0.0}, {"is_reserved": 0, "type": "electric_bike", "fusion_lat": 0.0, "is_disabled": 0, "rental_uris": {"ios": "https://dc.lft.to/lastmile_qr_scan", "android": "https://dc.lft.to/lastmile_qr_scan"}, "bike_id": "16513fbb6c97217de5c619c9eed70ecc", "lat": 38.96380583333333, "name": "16513fbb6c97217de5c619c9eed70ecc", "lon": -77.01979016666667, "fusion_lon": 0.0}, {"is_reserved": 0, "type": "electric_scooter", "fusion_lat": 0.0, "is_disabled": 0, "rental_uris": {"ios": "https://dc.lft.to/lastmile_qr_scan", "android": "https://dc.lft.to/lastmile_qr_scan"}, "bike_id": "826a99e97674772886be535f246fe128", "lat": 38.92043616666667, "name": "826a99e97674772886be535f246fe128", "lon": -77.02434566666666, "fusion_lon": 0.0}, {"is_reserved": 0, "type": "electric_scooter", "fusion_lat": 0.0, "is_disabled": 0, "rental_uris": {"ios": "https://dc.lft.to/lastmile_qr_scan", "android": "https://dc.lft.to/lastmile_qr_scan"}, "bike_id": "d3a2e7b6def85b32d0bd5919532772f5", "lat": 38.923372, "name": "d3a2e7b6def85b32d0bd5919532772f5", "lon": -77.040306, "fusion_lon": 0.0}, {"is_reserved": 0, "type": "electric_scooter", "fusion_lat": 0.0, "is_disabled": 0, "rental_uris": {"ios": "https://dc.lft.to/lastmile_qr_scan", "android": "https://dc.lft.to/lastmile_qr_scan"}, "bike_id": "44703cc0f7a88e4e1e569b0c56fc33af", "lat": 38.923298333333335, "name": "44703cc0f7a88e4e1e569b0c56fc33af", "lon": -77.04305333333333, "fusion_lon": 0.0}, {"is_reserved": 0, "type": "electric_scooter", "fusion_lat": 0.0, "is_disabled": 0, "rental_uris": {"ios": "https://dc.lft.to/lastmile_qr_scan", "android": "https://dc.lft.to/lastmile_qr_scan"}, "bike_id": "132d1bfa8d5228a6ce061ab9ebec9ede", "lat": 38.883002833333336, "name": "132d1bfa8d5228a6ce061ab9ebec9ede", "lon": -76.9937105, "fusion_lon": 0.0}, {"is_reserved": 0, "type": "electric_scooter", "fusion_lat": 0.0, "is_disabled": 0, "rental_uris": {"ios": "https://dc.lft.to/lastmile_qr_scan", "android": "https://dc.lft.to/lastmile_qr_scan"}, "bike_id": "c717ae502167b16dc754a5c18795e5ee", "lat": 38.938437666666665, "name": "c717ae502167b16dc754a5c18795e5ee", "lon": -77.019513, "fusion_lon": 0.0}, {"is_reserved": 0, "type": "electric_scooter", "fusion_lat": 0.0, "is_disabled": 0, "rental_uris": {"ios": "https://dc.lft.to/lastmile_qr_scan", "android": "https://dc.lft.to/lastmile_qr_scan"}, "bike_id": "c1b42a1b5d0f91bca9e61cac2d7dbbc6", "lat": 38.90511433333333, "name": "c1b42a1b5d0f91bca9e61cac2d7dbbc6", "lon": -76.95198083333334, "fusion_lon": 0.0}, {"is_reserved": 0, "type": "electric_scooter", "fusion_lat": 0.0, "is_disabled": 0, "rental_uris": {"ios": "https://dc.lft.to/lastmile_qr_scan", "android": "https://dc.lft.to/lastmile_qr_scan"}, "bike_id": "e0858255f695efd4a73df46df054540e", "lat": 38.9247905, "name": "e0858255f695efd4a73df46df054540e", "lon": -77.02714916666666, "fusion_lon": 0.0}, {"is_reserved": 0, "type": "electric_scooter", "fusion_lat": 0.0, "is_disabled": 0, "rental_uris": {"ios": "https://dc.lft.to/lastmile_qr_scan", "android": "https://dc.lft.to/lastmile_qr_scan"}, "bike_id": "c77ec5f2f5835b0aade5f81145a6337d", "lat": 38.896668166666664, "name": "c77ec5f2f5835b0aade5f81145a6337d", "lon": -76.93207566666666, "fusion_lon": 0.0}, {"is_reserved": 0, "type": "electric_scooter", "fusion_lat": 0.0, "is_disabled": 0, "rental_uris": {"ios": "https://dc.lft.to/lastmile_qr_scan", "android": "https://dc.lft.to/lastmile_qr_scan"}, "bike_id": "7c9af193d97872acc20d998523eeba0e", "lat": 38.88078933333333, "name": "7c9af193d97872acc20d998523eeba0e", "lon": -76.98523933333334, "fusion_lon": 0.0}, {"is_reserved": 0, "type": "electric_scooter", "fusion_lat": 0.0, "is_disabled": 0, "rental_uris": {"ios": "https://dc.lft.to/lastmile_qr_scan", "android": "https://dc.lft.to/lastmile_qr_scan"}, "bike_id": "1d81ed716c99dbc410e4326045e9846b", "lat": 38.8854595, "name": "1d81ed716c99dbc410e4326045e9846b", "lon": -76.9597075, "fusion_lon": 0.0}, {"is_reserved": 0, "type": "electric_scooter", "fusion_lat": 0.0, "is_disabled": 0, "rental_uris": {"ios": "https://dc.lft.to/lastmile_qr_scan", "android": "https://dc.lft.to/lastmile_qr_scan"}, "bike_id": "d38cb9cdfb65d7605f5ea7a732e6e40e", "lat": 38.892334, "name": "d38cb9cdfb65d7605f5ea7a732e6e40e", "lon": -77.028275, "fusion_lon": 0.0}, {"is_reserved": 0, "type": "electric_bike", "fusion_lat": 0.0, "is_disabled": 0, "rental_uris": {"ios": "https://dc.lft.to/lastmile_qr_scan", "android": "https://dc.lft.to/lastmile_qr_scan"}, "bike_id": "4598a9241763686321f1a4b6d6809af8", "lat": 38.86007766666667, "name": "4598a9241763686321f1a4b6d6809af8", "lon": -77.06529383333333, "fusion_lon": 0.0}, {"is_reserved": 0, "type": "electric_scooter", "fusion_lat": 0.0, "is_disabled": 0, "rental_uris": {"ios": "https://dc.lft.to/lastmile_qr_scan", "android": "https://dc.lft.to/lastmile_qr_scan"}, "bike_id": "45650379990b539f99db4d5cb5ce0f47", "lat": 38.879463666666666, "name": "45650379990b539f99db4d5cb5ce0f47", "lon": -77.01268016666667, "fusion_lon": 0.0}, {"is_reserved": 0, "type": "electric_scooter", "fusion_lat": 0.0, "is_disabled": 0, "rental_uris": {"ios": "https://dc.lft.to/lastmile_qr_scan", "android": "https://dc.lft.to/lastmile_qr_scan"}, "bike_id": "4c29aefd63cbefb49acd049d647686d0", "lat": 38.89587566666667, "name": "4c29aefd63cbefb49acd049d647686d0", "lon": -77.0227315, "fusion_lon": 0.0}, {"is_reserved": 0, "type": "electric_scooter", "fusion_lat": 0.0, "is_disabled": 0, "rental_uris": {"ios": "https://dc.lft.to/lastmile_qr_scan", "android": "https://dc.lft.to/lastmile_qr_scan"}, "bike_id": "bd4335603d4ef8f5ddf9c0c83cf85ae8", "lat": 38.886987166666664, "name": "bd4335603d4ef8f5ddf9c0c83cf85ae8", "lon": -77.00056566666666, "fusion_lon": 0.0}, {"is_reserved": 0, "type": "electric_bike", "fusion_lat": 0.0, "is_disabled": 0, "rental_uris": {"ios": "https://dc.lft.to/lastmile_qr_scan", "android": "https://dc.lft.to/lastmile_qr_scan"}, "bike_id": "0f89808dd6d513beeadbba0b0fcf3997", "lat": 38.9677495, "name": "0f89808dd6d513beeadbba0b0fcf3997", "lon": -76.99656583333334, "fusion_lon": 0.0}, {"is_reserved": 0, "type": "electric_bike", "fusion_lat": 0.0, "is_disabled": 0, "rental_uris": {"ios": "https://dc.lft.to/lastmile_qr_scan", "android": "https://dc.lft.to/lastmile_qr_scan"}, "bike_id": "03cfcc58d106bf35ceee7848b8f0456f", "lat": 38.9166125, "name": "03cfcc58d106bf35ceee7848b8f0456f", "lon": -76.98122683333334, "fusion_lon": 0.0}, {"is_reserved": 0, "type": "electric_scooter", "fusion_lat": 0.0, "is_disabled": 0, "rental_uris": {"ios": "https://dc.lft.to/lastmile_qr_scan", "android": "https://dc.lft.to/lastmile_qr_scan"}, "bike_id": "64695fa030f41a0677b236cd5f49b525", "lat": 38.912484666666664, "name": "64695fa030f41a0677b236cd5f49b525", "lon": -77.00918216666666, "fusion_lon": 0.0}, {"is_reserved": 0, "type": "electric_scooter", "fusion_lat": 0.0, "is_disabled": 0, "rental_uris": {"ios": "https://dc.lft.to/lastmile_qr_scan", "android": "https://dc.lft.to/lastmile_qr_scan"}, "bike_id": "54bf1790d148cc7552c9a5dff7c1c124", "lat": 38.90032583333333, "name": "54bf1790d148cc7552c9a5dff7c1c124", "lon": -77.01183466666667, "fusion_lon": 0.0}, {"is_reserved": 0, "type": "electric_scooter", "fusion_lat": 0.0, "is_disabled": 0, "rental_uris": {"ios": "https://dc.lft.to/lastmile_qr_scan", "android": "https://dc.lft.to/lastmile_qr_scan"}, "bike_id": "e6d865a3462365499a90fd37f9c0e67f", "lat": 38.894979, "name": "e6d865a3462365499a90fd37f9c0e67f", "lon": -77.02299916666666, "fusion_lon": 0.0}, {"is_reserved": 0, "type": "electric_scooter", "fusion_lat": 0.0, "is_disabled": 0, "rental_uris": {"ios": "https://dc.lft.to/lastmile_qr_scan", "android": "https://dc.lft.to/lastmile_qr_scan"}, "bike_id": "50c2311be699490321c26a5270ac9e4b", "lat": 38.8426995, "name": "50c2311be699490321c26a5270ac9e4b", "lon": -76.98841783333333, "fusion_lon": 0.0}, {"is_reserved": 0, "type": "electric_scooter", "fusion_lat": 0.0, "is_disabled": 0, "rental_uris": {"ios": "https://dc.lft.to/lastmile_qr_scan", "android": "https://dc.lft.to/lastmile_qr_scan"}, "bike_id": "70c46882f01ecb89cffcbe835f81d93d", "lat": 38.9054555, "name": "70c46882f01ecb89cffcbe835f81d93d", "lon": -76.9863925, "fusion_lon": 0.0}, {"is_reserved": 0, "type": "electric_scooter", "fusion_lat": 0.0, "is_disabled": 0, "rental_uris": {"ios": "https://dc.lft.to/lastmile_qr_scan", "android": "https://dc.lft.to/lastmile_qr_scan"}, "bike_id": "68737a868f9d0404b1114475273f9a59", "lat": 38.952122, "name": "68737a868f9d0404b1114475273f9a59", "lon": -77.08864916666667, "fusion_lon": 0.0}, {"is_reserved": 0, "type": "electric_scooter", "fusion_lat": 0.0, "is_disabled": 0, "rental_uris": {"ios": "https://dc.lft.to/lastmile_qr_scan", "android": "https://dc.lft.to/lastmile_qr_scan"}, "bike_id": "60b7e0bb512108bf86b402a1e00eabec", "lat": 38.92468816666667, "name": "60b7e0bb512108bf86b402a1e00eabec", "lon": -77.02718216666666, "fusion_lon": 0.0}, {"is_reserved": 0, "type": "electric_scooter", "fusion_lat": 0.0, "is_disabled": 0, "rental_uris": {"ios": "https://dc.lft.to/lastmile_qr_scan", "android": "https://dc.lft.to/lastmile_qr_scan"}, "bike_id": "1c0513f087651ebf145a16030e684f27", "lat": 38.92421983333333, "name": "1c0513f087651ebf145a16030e684f27", "lon": -77.04485433333333, "fusion_lon": 0.0}, {"is_reserved": 0, "type": "electric_scooter", "fusion_lat": 0.0, "is_disabled": 0, "rental_uris": {"ios": "https://dc.lft.to/lastmile_qr_scan", "android": "https://dc.lft.to/lastmile_qr_scan"},