{"data": {"bikes": [{"type": "electric_scooter", "rental_uris": {"android": "https://dc.lft.to/lastmile_qr_scan", "ios": "https://dc.lft.to/lastmile_qr_scan"}, "name": "d428bb338d239c5dd4c74d70f0d05659", "lat": 38.899497333333336, "is_reserved": 0, "fusion_lon": 0.0, "fusion_lat": 0.0, "is_disabled": 0, "bike_id": "d428bb338d239c5dd4c74d70f0d05659", "lon": -77.0484535}, {"type": "electric_scooter", "rental_uris": {"android": "https://dc.lft.to/lastmile_qr_scan", "ios": "https://dc.lft.to/lastmile_qr_scan"}, "name": "fbdc357ba02609825e1157e0f76dd62a", "lat": 38.92665433333333, "is_reserved": 0, "fusion_lon": 0.0, "fusion_lat": 0.0, "is_disabled": 0, "bike_id": "fbdc357ba02609825e1157e0f76dd62a", "lon": -77.01500983333334}, {"type": "electric_scooter", "rental_uris": {"android": "https://dc.lft.to/lastmile_qr_scan", "ios": "https://dc.lft.to/lastmile_qr_scan"}, "name": "d51f5d0e9beb7210f59a9b3935240bf1", "lat": 38.9150825, "is_reserved": 0, "fusion_lon": 0.0, "fusion_lat": 0.0, "is_disabled": 0, "bike_id": "d51f5d0e9beb7210f59a9b3935240bf1", "lon": -77.032121}, {"type": "electric_bike", "rental_uris": {"android": "https://dc.lft.to/lastmile_qr_scan", "ios": "https://dc.lft.to/lastmile_qr_scan"}, "name": "5502a0aaa87590a747b34982d835fcf5", "lat": 38.838289833333334, "is_reserved": 0, "fusion_lon": 0.0, "fusion_lat": 0.0, "is_disabled": 0, "bike_id": "5502a0aaa87590a747b34982d835fcf5", "lon": -77.00567733333334}, {"type": "electric_scooter", "rental_uris": {"android": "https://dc.lft.to/lastmile_qr_scan", "ios": "https://dc.lft.to/lastmile_qr_scan"}, "name": "11f220eab1f877489979d4467087a082", "lat": 38.90117716666666, "is_reserved": 0, "fusion_lon": 0.0, "fusion_lat": 0.0, "is_disabled": 0, "bike_id": "11f220eab1f877489979d4467087a082", "lon": -77.04992566666667}, {"type": "electric_scooter", "rental_uris": {"android": "https://dc.lft.to/lastmile_qr_scan", "ios": "https://dc.lft.to/lastmile_qr_scan"}, "name": "70df51fb2ae017da9bbcf1fb21bbd216", "lat": 38.9015105, "is_reserved": 0, "fusion_lon": 0.0, "fusion_lat": 0.0, "is_disabled": 0, "bike_id": "70df51fb2ae017da9bbcf1fb21bbd216", "lon": -76.97419066666667}, {"type": "electric_scooter", "rental_uris": {"android": "https://dc.lft.to/lastmile_qr_scan", "ios": "https://dc.lft.to/lastmile_qr_scan"}, "name": "38c063e0171b328cb6989c5618cd903c", "lat": 38.8872385, "is_reserved": 0, "fusion_lon": 0.0, "fusion_lat": 0.0, "is_disabled": 0, "bike_id": "38c063e0171b328cb6989c5618cd903c", "lon": -76.98377566666667}, {"type": "electric_scooter", "rental_uris": {"android": "https://dc.lft.to/lastmile_qr_scan", "ios": "https://dc.lft.to/lastmile_qr_scan"}, "name": "b8ee5cf4e9f8fac7531616e40c0e9859", "lat": 38.902776333333335, "is_reserved": 0, "fusion_lon": 0.0, "fusion_lat": 0.0, "is_disabled": 0, "bike_id": "b8ee5cf4e9f8fac7531616e40c0e9859", "lon": -77.03469883333334}, {"type": "electric_bike", "rental_uris": {"android": "https://dc.lft.to/lastmile_qr_scan", "ios": "https://dc.lft.to/lastmile_qr_scan"}, "name": "2cf51a3d1286d14000e4a0d5a19d657c", "lat": 38.91858583333333, "is_reserved": 0, "fusion_lon": 0.0, "fusion_lat": 0.0, "is_disabled": 0, "bike_id": "2cf51a3d1286d14000e4a0d5a19d657c", "lon": -76.9608485}, {"type": "electric_scooter", "rental_uris": {"android": "https://dc.lft.to/lastmile_qr_scan", "ios": "https://dc.lft.to/lastmile_qr_scan"}, "name": "ffb86e9b6651c12bb19d73c113857984", "lat": 38.900097833333334, "is_reserved": 0, "fusion_lon": 0.0, "fusion_lat": 0.0, "is_disabled": 0, "bike_id": "ffb86e9b6651c12bb19d73c113857984", "lon": -77.04133566666667}, {"type": "electric_scooter", "rental_uris": {"android": "https://dc.lft.to/lastmile_qr_scan", "ios": "https://dc.lft.to/lastmile_qr_scan"}, "name": "90f8fb10b9e31c4c438e68e58482bec1", "lat": 38.895784, "is_reserved": 0, "fusion_lon": 0.0, "fusion_lat": 0.0, "is_disabled": 0, "bike_id": "90f8fb10b9e31c4c438e68e58482bec1", "lon": -77.04139133333334}, {"type": "electric_scooter", "rental_uris": {"android": "https://dc.lft.to/lastmile_qr_scan", "ios": "https://dc.lft.to/lastmile_qr_scan"}, "name": "bd706c8d2eb9e7b7cc32400ed0ea526c", "lat": 38.89846166666667, "is_reserved": 0, "fusion_lon": 0.0, "fusion_lat": 0.0, "is_disabled": 0, "bike_id": "bd706c8d2eb9e7b7cc32400ed0ea526c", "lon": -77.04108116666667}, {"type": "electric_scooter", "rental_uris": {"android": "https://dc.lft.to/lastmile_qr_scan", "ios": "https://dc.lft.to/lastmile_qr_scan"}, "name": "57c4ef74ee822d31fe9dd06b2294c9de", "lat": 38.914149, "is_reserved": 0, "fusion_lon": 0.0, "fusion_lat": 0.0, "is_disabled": 0, "bike_id": "57c4ef74ee822d31fe9dd06b2294c9de", "lon": -77.03173533333333}, {"type": "electric_scooter", "rental_uris": {"android": "https://dc.lft.to/lastmile_qr_scan", "ios": "https://dc.lft.to/lastmile_qr_scan"}, "name": "bb4d7009dc821473f17b1dfb875193d3", "lat": 38.907424, "is_reserved": 0, "fusion_lon": 0.0, "fusion_lat": 0.0, "is_disabled": 0, "bike_id": "bb4d7009dc821473f17b1dfb875193d3", "lon": -77.01531}, {"type": "electric_scooter", "rental_uris": {"android": "https://dc.lft.to/lastmile_qr_scan", "ios": "https://dc.lft.to/lastmile_qr_scan"}, "name": "a93a8cbbfb2277ae5402268d0573a3c9", "lat": 38.902092333333336, "is_reserved": 0, "fusion_lon": 0.0, "fusion_lat": 0.0, "is_disabled": 0, "bike_id": "a93a8cbbfb2277ae5402268d0573a3c9", "lon": -77.02165566666666}, {"type": "electric_bike", "rental_uris": {"android": "https://dc.lft.to/lastmile_qr_scan", "ios": "https://dc.lft.to/lastmile_qr_scan"}, "name": "ca095ab96a80c97e8d86bdd4b36b886c", "lat": 38.91958366666667, "is_reserved": 0, "fusion_lon": 0.0, "fusion_lat": 0.0, "is_disabled": 0, "bike_id": "ca095ab96a80c97e8d86bdd4b36b886c", "lon": -77.025103}, {"type": "electric_scooter", "rental_uris": {"android": "https://dc.lft.to/lastmile_qr_scan", "ios": "https://dc.lft.to/lastmile_qr_scan"}, "name": "f5bb8db895ec1bbdc334270755303599", "lat": 38.89475783333334, "is_reserved": 0, "fusion_lon": 0.0, "fusion_lat": 0.0, "is_disabled": 0, "bike_id": "f5bb8db895ec1bbdc334270755303599", "lon": -76.99487666666667}, {"type": "electric_scooter", "rental_uris": {"android": "https://dc.lft.to/lastmile_qr_scan", "ios": "https://dc.lft.to/lastmile_qr_scan"}, "name": "c4eec96ae8a5502fa6a69bc187555643", "lat": 38.8906145, "is_reserved": 0, "fusion_lon": 0.0, "fusion_lat": 0.0, "is_disabled": 0, "bike_id": "c4eec96ae8a5502fa6a69bc187555643", "lon": -77.03207933333333}, {"type": "electric_scooter", "rental_uris": {"android": "https://dc.lft.to/lastmile_qr_scan", "ios": "https://dc.lft.to/lastmile_qr_scan"}, "name": "cfaaad00ccb1102868c2e7e633db0a26", "lat": 38.914174333333335, "is_reserved": 0, "fusion_lon": 0.0, "fusion_lat": 0.0, "is_disabled": 0, "bike_id": "cfaaad00ccb1102868c2e7e633db0a26", "lon": -77.03171466666667}, {"type": "electric_bike", "rental_uris": {"android": "https://dc.lft.to/lastmile_qr_scan", "ios": "https://dc.lft.to/lastmile_qr_scan"}, "name": "d161584af3b7bdae89224157384f2edb", "lat": 38.9941355, "is_reserved": 0, "fusion_lon": 0.0, "fusion_lat": 0.0, "is_disabled": 0, "bike_id": "d161584af3b7bdae89224157384f2edb", "lon": -77.01797083333334}, {"type": "electric_scooter", "rental_uris": {"android": "https://dc.lft.to/lastmile_qr_scan", "ios": "https://dc.lft.to/lastmile_qr_scan"}, "name": "c7782c11570b221c41126c43c621a3fe", "lat": 38.9250035, "is_reserved": 0, "fusion_lon": 0.0, "fusion_lat": 0.0, "is_disabled": 0, "bike_id": "c7782c11570b221c41126c43c621a3fe", "lon": -77.02396966666667}, {"type": "electric_bike", "rental_uris": {"android": "https://dc.lft.to/lastmile_qr_scan", "ios": "https://dc.lft.to/lastmile_qr_scan"}, "name": "8a7e586672af200cc2ee2537ec6b942a", "lat": 38.944721333333334, "is_reserved": 0, "fusion_lon": 0.0, "fusion_lat": 0.0, "is_disabled": 0, "bike_id": "8a7e586672af200cc2ee2537ec6b942a", "lon": -76.98683583333333}, {"type": "electric_scooter", "rental_uris": {"android": "https://dc.lft.to/lastmile_qr_scan", "ios": "https://dc.lft.to/lastmile_qr_scan"}, "name": "10984e3445c1eaf903977420e42f3f8a", "lat": 38.89729616666666, "is_reserved": 0, "fusion_lon": 0.0, "fusion_lat": 0.0, "is_disabled": 0, "bike_id": "10984e3445c1eaf903977420e42f3f8a", "lon": -77.01271583333333}, {"type": "electric_bike", "rental_uris": {"android": "https://dc.lft.to/lastmile_qr_scan", "ios": "https://dc.lft.to/lastmile_qr_scan"}, "name": "d338c101a4a9709f8ac61c4efb41ec71", "lat": 38.83870016666667, "is_reserved": 0, "fusion_lon": 0.0, "fusion_lat": 0.0, "is_disabled": 0, "bike_id": "d338c101a4a9709f8ac61c4efb41ec71", "lon": -76.99531016666667}, {"type": "electric_scooter", "rental_uris": {"android": "https://dc.lft.to/lastmile_qr_scan", "ios": "https://dc.lft.to/lastmile_qr_scan"}, "name": "a0e47f245ca60c5146df5c8b668cdbed", "lat": 38.90472483333333, "is_reserved": 0, "fusion_lon": 0.0, "fusion_lat": 0.0, "is_disabled": 0, "bike_id": "a0e47f245ca60c5146df5c8b668cdbed", "lon": -77.032063}, {"type": "electric_scooter", "rental_uris": {"android": "https://dc.lft.to/lastmile_qr_scan", "ios": "https://dc.lft.to/lastmile_qr_scan"}, "name": "da4b58316f81a7a5eaf851ce2d6f8bf8", "lat": 38.91492483333333, "is_reserved": 0, "fusion_lon": 0.0, "fusion_lat": 0.0, "is_disabled": 0, "bike_id": "da4b58316f81a7a5eaf851ce2d6f8bf8", "lon": -77.02180966666667}, {"type": "electric_scooter", "rental_uris": {"android": "https://dc.lft.to/lastmile_qr_scan", "ios": "https://dc.lft.to/lastmile_qr_scan"}, "name": "861e0aa4e2db06cf203e19656d22d4ec", "lat": 38.90570783333333, "is_reserved": 0, "fusion_lon": 0.0, "fusion_lat": 0.0, "is_disabled": 0, "bike_id": "861e0aa4e2db06cf203e19656d22d4ec", "lon": -77.0039725}, {"type": "electric_scooter", "rental_uris": {"android": "https://dc.lft.to/lastmile_qr_scan", "ios": "https://dc.lft.to/lastmile_qr_scan"}, "name": "cd93616e915514083b45397f07c75332", "lat": 38.89827183333333, "is_reserved": 0, "fusion_lon": 0.0, "fusion_lat": 0.0, "is_disabled": 0, "bike_id": "cd93616e915514083b45397f07c75332", "lon": -77.02817666666667}, {"type": "electric_scooter", "rental_uris": {"android": "https://dc.lft.to/lastmile_qr_scan", "ios": "https://dc.lft.to/lastmile_qr_scan"}, "name": "cf590aab0b256b18bb152fab2f615f64", "lat": 38.875628, "is_reserved": 0, "fusion_lon": 0.0, "fusion_lat": 0.0, "is_disabled": 0, "bike_id": "cf590aab0b256b18bb152fab2f615f64", "lon": -77.00597233333333}, {"type": "electric_scooter", "rental_uris": {"android": "https://dc.lft.to/lastmile_qr_scan", "ios": "https://dc.lft.to/lastmile_qr_scan"}, "name": "ee0b41ce4bdb38ad86b4122b721522e2", "lat": 38.92599533333333, "is_reserved": 0, "fusion_lon": 0.0, "fusion_lat": 0.0, "is_disabled": 0, "bike_id": "ee0b41ce4bdb38ad86b4122b721522e2", "lon": -77.02484033333333}, {"type": "electric_scooter", "rental_uris": {"android": "https://dc.lft.to/lastmile_qr_scan", "ios": "https://dc.lft.to/lastmile_qr_scan"}, "name": "adf9763ae9898ee5fe4174173e8b6dd2", "lat": 38.918825, "is_reserved": 0, "fusion_lon": 0.0, "fusion_lat": 0.0, "is_disabled": 0, "bike_id": "adf9763ae9898ee5fe4174173e8b6dd2", "lon": -77.01893983333333}, {"type": "electric_scooter", "rental_uris": {"android": "https://dc.lft.to/lastmile_qr_scan", "ios": "https://dc.lft.to/lastmile_qr_scan"}, "name": "7ac76702aa9b6bdc59bf6a557388931f", "lat": 38.8647865, "is_reserved": 0, "fusion_lon": 0.0, "fusion_lat": 0.0, "is_disabled": 0, "bike_id": "7ac76702aa9b6bdc59bf6a557388931f", "lon": -76.98231733333333}, {"type": "electric_scooter", "rental_uris": {"android": "https://dc.lft.to/lastmile_qr_scan", "ios": "https://dc.lft.to/lastmile_qr_scan"}, "name": "7e59482953d308fac5897d05ed6f59bf", "lat": 38.8570715, "is_reserved": 0, "fusion_lon": 0.0, "fusion_lat": 0.0, "is_disabled": 0, "bike_id": "7e59482953d308fac5897d05ed6f59bf", "lon": -76.98213}, {"type": "electric_scooter", "rental_uris": {"android": "https://dc.lft.to/lastmile_qr_scan", "ios": "https://dc.lft.to/lastmile_qr_scan"}, "name": "f98febcc24902a813c2fea9d49e7c246", "lat": 38.88078083333333, "is_reserved": 0, "fusion_lon": 0.0, "fusion_lat": 0.0, "is_disabled": 0, "bike_id": "f98febcc24902a813c2fea9d49e7c246", "lon": -76.991571}, {"type": "electric_scooter", "rental_uris": {"android": "https://dc.lft.to/lastmile_qr_scan", "ios": "https://dc.lft.to/lastmile_qr_scan"}, "name": "4b3dde78a104f96e1b5d5415610e8652", "lat": 38.92418083333333, "is_reserved": 0, "fusion_lon": 0.0, "fusion_lat": 0.0, "is_disabled": 0, "bike_id": "4b3dde78a104f96e1b5d5415610e8652", "lon": -77.02005816666667}, {"type": "electric_scooter", "rental_uris": {"android": "https://dc.lft.to/lastmile_qr_scan", "ios": "https://dc.lft.to/lastmile_qr_scan"}, "name": "f442e927e75904a56e740299862e0a8b", "lat": 38.928596, "is_reserved": 0, "fusion_lon": 0.0, "fusion_lat": 0.0, "is_disabled": 0, "bike_id": "f442e927e75904a56e740299862e0a8b", "lon": -77.0543065}, {"type": "electric_scooter", "rental_uris": {"android": "https://dc.lft.to/lastmile_qr_scan", "ios": "https://dc.lft.to/lastmile_qr_scan"}, "name": "d6e7b7eb6fb024610b7b834ea0bd351a", "lat": 38.9043385, "is_reserved": 0, "fusion_lon": 0.0, "fusion_lat": 0.0, "is_disabled": 0, "bike_id": "d6e7b7eb6fb024610b7b834ea0bd351a", "lon": -77.02591333333334}, {"type": "electric_scooter", "rental_uris": {"android": "https://dc.lft.to/lastmile_qr_scan", "ios": "https://dc.lft.to/lastmile_qr_scan"}, "name": "c96f44fc9c0a8c29ba080a57ea171088", "lat": 38.90695316666667, "is_reserved": 0, "fusion_lon": 0.0, "fusion_lat": 0.0, "is_disabled": 0, "bike_id": "c96f44fc9c0a8c29ba080a57ea171088", "lon": -77.0269935}, {"type": "electric_scooter", "rental_uris": {"android": "https://dc.lft.to/lastmile_qr_scan", "ios": "https://dc.lft.to/lastmile_qr_scan"}, "name": "5efb2a83aa74c7a5c65f884dd9db83ec", "lat": 38.93084616666667, "is_reserved": 0, "fusion_lon": 0.0, "fusion_lat": 0.0, "is_disabled": 0, "bike_id": "5efb2a83aa74c7a5c65f884dd9db83ec", "lon": -77.03089}, {"type": "electric_scooter", "rental_uris": {"android": "https://dc.lft.to/lastmile_qr_scan", "ios": "https://dc.lft.to/lastmile_qr_scan"}, "name": "644a28f95c54a2b27818ea4995995dcc", "lat": 38.913661, "is_reserved": 0, "fusion_lon": 0.0, "fusion_lat": 0.0, "is_disabled": 0, "bike_id": "644a28f95c54a2b27818ea4995995dcc", "lon": -77.04657516666667}, {"type": "electric_bike", "rental_uris": {"android": "https://dc.lft.to/lastmile_qr_scan", "ios": "https://dc.lft.to/lastmile_qr_scan"}, "name": "f5b6ccef8e027f98c56a81c4205c1d82", "lat": 38.89349716666667, "is_reserved": 0, "fusion_lon": 0.0, "fusion_lat": 0.0, "is_disabled": 0, "bike_id": "f5b6ccef8e027f98c56a81c4205c1d82", "lon": -76.992555}, {"type": "electric_scooter", "rental_uris": {"android": "https://dc.lft.to/lastmile_qr_scan", "ios": "https://dc.lft.to/lastmile_qr_scan"}, "name": "1e77efec48f2d346cdf0fe02e0519201", "lat": 38.895308166666666, "is_reserved": 0, "fusion_lon": 0.0, "fusion_lat": 0.0, "is_disabled": 0, "bike_id": "1e77efec48f2d346cdf0fe02e0519201", "lon": -77.01186633333333}, {"type": "electric_scooter", "rental_uris": {"android": "https://dc.lft.to/lastmile_qr_scan", "ios": "https://dc.lft.to/lastmile_qr_scan"}, "name": "dc9953fd22d9547353826b1144e09f38", "lat": 38.924191, "is_reserved": 0, "fusion_lon": 0.0, "fusion_lat": 0.0, "is_disabled": 0, "bike_id": "dc9953fd22d9547353826b1144e09f38", "lon": -77.01943483333334}, {"type": "electric_bike", "rental_uris": {"android": "https://dc.lft.to/lastmile_qr_scan", "ios": "https://dc.lft.to/lastmile_qr_scan"}, "name": "7b31201e4c0e40acdb3e1d7218f87bcd", "lat": 38.85784966666667, "is_reserved": 0, "fusion_lon": 0.0, "fusion_lat": 0.0, "is_disabled": 0, "bike_id": "7b31201e4c0e40acdb3e1d7218f87bcd", "lon": -76.98747966666667}, {"type": "electric_scooter", "rental_uris": {"android": "https://dc.lft.to/lastmile_qr_scan", "ios": "https://dc.lft.to/lastmile_qr_scan"}, "name": "c55bae844ffe35704fb2fe55db4a0c95", "lat": 38.928785166666664, "is_reserved": 0, "fusion_lon": 0.0, "fusion_lat": 0.0, "is_disabled": 0, "bike_id": "c55bae844ffe35704fb2fe55db4a0c95", "lon": -77.012307}, {"type": "electric_scooter", "rental_uris": {"android": "https://dc.lft.to/lastmile_qr_scan", "ios": "https://dc.lft.to/lastmile_qr_scan"}, "name": "862b50e96274fa19b356bc0bf1900308", "lat": 38.90569433333334, "is_reserved": 0, "fusion_lon": 0.0, "fusion_lat": 0.0, "is_disabled": 0, "bike_id": "862b50e96274fa19b356bc0bf1900308", "lon": -77.041978}, {"type": "electric_scooter", "rental_uris": {"android": "https://dc.lft.to/lastmile_qr_scan", "ios": "https://dc.lft.to/lastmile_qr_scan"}, "name": "9f9c5aa123c4bd3c8b31e5a400d04728", "lat": 38.9243835, "is_reserved": 0, "fusion_lon": 0.0, "fusion_lat": 0.0, "is_disabled": 0, "bike_id": "9f9c5aa123c4bd3c8b31e5a400d04728", "lon": -77.052067}, {"type": "electric_scooter", "rental_uris": {"android": "https://dc.lft.to/lastmile_qr_scan", "ios": "https://dc.lft.to/lastmile_qr_scan"}, "name": "dff1df130676810b3943e14b9961e10c", "lat": 38.9602865, "is_reserved": 0, "fusion_lon": 0.0, "fusion_lat": 0.0, "is_disabled": 0, "bike_id": "dff1df130676810b3943e14b9961e10c", "lon": -77.02430183333334}, {"type": "electric_scooter", "rental_uris": {"android": "https://dc.lft.to/lastmile_qr_scan", "ios": "https://dc.lft.to/lastmile_qr_scan"}, "name": "d30f39cd58ec85898cc2dfe16322ce12", "lat": 38.8952865, "is_reserved": 0, "fusion_lon": 0.0, "fusion_lat": 0.0, "is_disabled": 0, "bike_id": "d30f39cd58ec85898cc2dfe16322ce12", "lon": -77.02282983333333}, {"type": "electric_scooter", "rental_uris": {"android": "https://dc.lft.to/lastmile_qr_scan", "ios": "https://dc.lft.to/lastmile_qr_scan"}, "name": "780dd8b5aec6a74f73dfba97db4042c0", "lat": 38.917097166666665, "is_reserved": 0, "fusion_lon": 0.0, "fusion_lat": 0.0, "is_disabled": 0, "bike_id": "780dd8b5aec6a74f73dfba97db4042c0", "lon": -77.03466233333333}, {"type": "electric_scooter", "rental_uris": {"android": "https://dc.lft.to/lastmile_qr_scan", "ios": "https://dc.lft.to/lastmile_qr_scan"}, "name": "8431a55587b23d9642b5ef5bf8e027a0", "lat": 38.8997215, "is_reserved": 0, "fusion_lon": 0.0, "fusion_lat": 0.0, "is_disabled": 0, "bike_id": "8431a55587b23d9642b5ef5bf8e027a0", "lon": -77.02181266666666}, {"type": "electric_scooter", "rental_uris": {"android": "https://dc.lft.to/lastmile_qr_scan", "ios": "https://dc.lft.to/lastmile_qr_scan"}, "name": "9d18df21f081980c018f9fd80c107759", "lat": 38.92171333333334, "is_reserved": 0, "fusion_lon": 0.0, "fusion_lat": 0.0, "is_disabled": 0, "bike_id": "9d18df21f081980c018f9fd80c107759", "lon": -76.9983955}, {"type": "electric_scooter", "rental_uris": {"android": "https://dc.lft.to/lastmile_qr_scan", "ios": "https://dc.lft.to/lastmile_qr_scan"}, "name": "bc2784320ea88464e1f2e7c0db573032", "lat": 38.915625666666664, "is_reserved": 0, "fusion_lon": 0.0, "fusion_lat": 0.0, "is_disabled": 0, "bike_id": "bc2784320ea88464e1f2e7c0db573032", "lon": -77.04712116666667}, {"type": "electric_scooter", "rental_uris": {"android": "https://dc.lft.to/lastmile_qr_scan", "ios": "https://dc.lft.to/lastmile_qr_scan"}, "name": "c29af96bb5daca1d688c2013bad3eb52", "lat": 38.876966333333336, "is_reserved": 0, "fusion_lon": 0.0, "fusion_lat": 0.0, "is_disabled": 0, "bike_id": "c29af96bb5daca1d688c2013bad3eb52", "lon": -77.00723383333333}, {"type": "electric_scooter", "rental_uris": {"android": "https://dc.lft.to/lastmile_qr_scan", "ios": "https://dc.lft.to/lastmile_qr_scan"}, "name": "8312c5992f49c7c20e2ab5d759dffe7f", "lat": 38.862480166666664, "is_reserved": 0, "fusion_lon": 0.0, "fusion_lat": 0.0, "is_disabled": 0, "bike_id": "8312c5992f49c7c20e2ab5d759dffe7f", "lon": -76.994829}, {"type": "electric_scooter", "rental_uris": {"android": "https://dc.lft.to/lastmile_qr_scan", "ios": "https://dc.lft.to/lastmile_qr_scan"}, "name": "3ea8ba3d37aca00bf8467ba41a0577fa", "lat": 38.90068, "is_reserved": 0, "fusion_lon": 0.0, "fusion_lat": 0.0, "is_disabled": 0, "bike_id": "3ea8ba3d37aca00bf8467ba41a0577fa", "lon": -77.02698616666666}, {"type": "electric_scooter", "rental_uris": {"android": "https://dc.lft.to/lastmile_qr_scan", "ios": "https://dc.lft.to/lastmile_qr_scan"}, "name": "37db131e91d282334e7dbeba9b11c66e", "lat": 38.885219666666664, "is_reserved": 0, "fusion_lon": 0.0, "fusion_lat": 0.0, "is_disabled": 0, "bike_id": "37db131e91d282334e7dbeba9b11c66e", "lon": -76.9771}, {"type": "electric_bike", "rental_uris": {"android": "https://dc.lft.to/lastmile_qr_scan", "ios": "https://dc.lft.to/lastmile_qr_scan"}, "name": "42233d4af269d4d6ea4c2231a4642d66", "lat": 38.897162333333334, "is_reserved": 0, "fusion_lon": 0.0, "fusion_lat": 0.0, "is_disabled": 0, "bike_id": "42233d4af269d4d6ea4c2231a4642d66", "lon": -77.01169783333333}, {"type": "electric_scooter", "rental_uris": {"android": "https://dc.lft.to/lastmile_qr_scan", "ios": "https://dc.lft.to/lastmile_qr_scan"}, "name": "b80246dd999bfd0c3b740b4c02c8d538", "lat": 38.89962283333333, "is_reserved": 0, "fusion_lon": 0.0, "fusion_lat": 0.0, "is_disabled": 0, "bike_id": "b80246dd999bfd0c3b740b4c02c8d538", "lon": -77.03080016666667}, {"type": "electric_scooter", "rental_uris": {"android": "https://dc.lft.to/lastmile_qr_scan", "ios": "https://dc.lft.to/lastmile_qr_scan"}, "name": "d16757b0c59420ff9021ccba08f10c2b", "lat": 38.8806085, "is_reserved": 0, "fusion_lon": 0.0, "fusion_lat": 0.0, "is_disabled": 0, "bike_id": "d16757b0c59420ff9021ccba08f10c2b", "lon": -77.01173783333333}, {"type": "electric_scooter", "rental_uris": {"android": "https://dc.lft.to/lastmile_qr_scan", "ios": "https://dc.lft.to/lastmile_qr_scan"}, "name": "3fcd640e755b0daed9746f26a4b86aae", "lat": 38.92486533333334, "is_reserved": 0, "fusion_lon": 0.0, "fusion_lat": 0.0, "is_disabled": 0, "bike_id": "3fcd640e755b0daed9746f26a4b86aae", "lon": -77.021561}, {"type": "electric_scooter", "rental_uris": {"android": "https://dc.lft.to/lastmile_qr_scan", "ios": "https://dc.lft.to/lastmile_qr_scan"}, "name": "1d96cd487a28df48c75b62dd4bb7f259", "lat": 38.901882666666666, "is_reserved": 0, "fusion_lon": 0.0, "fusion_lat": 0.0, "is_disabled": 0, "bike_id": "1d96cd487a28df48c75b62dd4bb7f259", "lon": -77.059036}, {"type": "electric_scooter", "rental_uris": {"android": "https://dc.lft.to/lastmile_qr_scan", "ios": "https://dc.lft.to/lastmile_qr_scan"}, "name": "9f41dfb2ab708efbee92d28674199674", "lat": 38.897087, "is_reserved": 0, "fusion_lon": 0.0, "fusion_lat": 0.0, "is_disabled": 0, "bike_id": "9f41dfb2ab708efbee92d28674199674", "lon": -77.028472}, {"type": "electric_scooter", "rental_uris": {"android": "https://dc.lft.to/lastmile_qr_scan", "ios": "https://dc.lft.to/lastmile_qr_scan"}, "name": "c414deb49e7bb10ad79331bdc6f5f941", "lat": 38.9256695, "is_reserved": 0, "fusion_lon": 0.0, "fusion_lat": 0.0, "is_disabled": 0, "bike_id": "c414deb49e7bb10ad79331bdc6f5f941", "lon": -76.99956333333333}, {"type": "electric_scooter", "rental_uris": {"android": "https://dc.lft.to/lastmile_qr_scan", "ios": "https://dc.lft.to/lastmile_qr_scan"}, "name": "f9d20de9fee577a4bbb148255034dc02", "lat": 38.9084185, "is_reserved": 0, "fusion_lon": 0.0, "fusion_lat": 0.0, "is_disabled": 0, "bike_id": "f9d20de9fee577a4bbb148255034dc02", "lon": -77.04010766666667}, {"type": "electric_scooter", "rental_uris": {"android": "https://dc.lft.to/lastmile_qr_scan", "ios": "https://dc.lft.to/lastmile_qr_scan"}, "name": "8969dd9bc0a396f48b8eff4664efcfd1", "lat": 38.86435683333333, "is_reserved": 0, "fusion_lon": 0.0, "fusion_lat": 0.0, "is_disabled": 0, "bike_id": "8969dd9bc0a396f48b8eff4664efcfd1", "lon": -76.99866166666666}, {"type": "electric_scooter", "rental_uris": {"android": "https://dc.lft.to/lastmile_qr_scan", "ios": "https://dc.lft.to/lastmile_qr_scan"}, "name": "de7854b86e2a38957d91d8d892b63b88", "lat": 38.901151166666665, "is_reserved": 0, "fusion_lon": 0.0, "fusion_lat": 0.0, "is_disabled": 0, "bike_id": "de7854b86e2a38957d91d8d892b63b88", "lon": -77.0498985}, {"type": "electric_scooter", "rental_uris": {"android": "https://dc.lft.to/lastmile_qr_scan", "ios": "https://dc.lft.to/lastmile_qr_scan"}, "name": "2550a973c638b523995e36750cb95c21", "lat": 38.900578833333334, "is_reserved": 0, "fusion_lon": 0.0, "fusion_lat": 0.0, "is_disabled": 0, "bike_id": "2550a973c638b523995e36750cb95c21", "lon": -76.986965}, {"type": "electric_scooter", "rental_uris": {"android": "https://dc.lft.to/lastmile_qr_scan", "ios": "https://dc.lft.to/lastmile_qr_scan"}, "name": "05411681141af261464d3a006959e8e3", "lat": 38.92431083333334, "is_reserved": 0, "fusion_lon": 0.0, "fusion_lat": 0.0, "is_disabled": 0, "bike_id": "05411681141af261464d3a006959e8e3", "lon": -77.03785983333333}, {"type": "electric_bike", "rental_uris": {"android": "https://dc.lft.to/lastmile_qr_scan", "ios": "https://dc.lft.to/lastmile_qr_scan"}, "name": "8d289d1b9f4c15e1a09791a547f5b71c", "lat": 38.905631166666666, "is_reserved": 0, "fusion_lon": 0.0, "fusion_lat": 0.0, "is_disabled": 0, "bike_id": "8d289d1b9f4c15e1a09791a547f5b71c", "lon": -77.0449605}, {"type": "electric_scooter", "rental_uris": {"android": "https://dc.lft.to/lastmile_qr_scan", "ios": "https://dc.lft.to/lastmile_qr_scan"}, "name": "2d5587078d945eaf6fe452b4c461e95d", "lat": 38.89639733333333, "is_reserved": 0, "fusion_lon": 0.0, "fusion_lat": 0.0, "is_disabled": 0, "bike_id": "2d5587078d945eaf6fe452b4c461e95d", "lon": -77.03218816666667}, {"type": "electric_bike", "rental_uris": {"android": "https://dc.lft.to/lastmile_qr_scan", "ios": "https://dc.lft.to/lastmile_qr_scan"}, "name": "376ca1b17981741fb679bcd0cd9d1f23", "lat": 38.906196666666666, "is_reserved": 0, "fusion_lon": 0.0, "fusion_lat": 0.0, "is_disabled": 0, "bike_id": "376ca1b17981741fb679bcd0cd9d1f23", "lon": -77.128835}, {"type": "electric_scooter", "rental_uris": {"android": "https://dc.lft.to/lastmile_qr_scan", "ios": "https://dc.lft.to/lastmile_qr_scan"}, "name": "57f2a3a55a194fd368c1037c738d617c", "lat": 38.90540216666667, "is_reserved": 0, "fusion_lon": 0.0, "fusion_lat": 0.0, "is_disabled": 0, "bike_id": "57f2a3a55a194fd368c1037c738d617c", "lon": -77.00680466666667}, {"type": "electric_scooter", "rental_uris": {"android": "https://dc.lft.to/lastmile_qr_scan", "ios": "https://dc.lft.to/lastmile_qr_scan"}, "name": "35f36bcd944a53ff00fb6360d6f31484", "lat": 38.8850195, "is_reserved": 0, "fusion_lon": 0.0, "fusion_lat": 0.0, "is_disabled": 0, "bike_id": "35f36bcd944a53ff00fb6360d6f31484", "lon": -77.002211}, {"type": "electric_scooter", "rental_uris": {"android": "https://dc.lft.to/lastmile_qr_scan", "ios": "https://dc.lft.to/lastmile_qr_scan"}, "name": "f2c124cdf891fe1802b88bfa11f1bff2", "lat": 38.92603283333333, "is_reserved": 0, "fusion_lon": 0.0, "fusion_lat": 0.0, "is_disabled": 0, "bike_id": "f2c124cdf891fe1802b88bfa11f1bff2", "lon": -77.02157683333333}, {"type": "electric_scooter", "rental_uris": {"android": "https://dc.lft.to/lastmile_qr_scan", "ios": "https://dc.lft.to/lastmile_qr_scan"}, "name": "442940b8cf35e9bb5209cf6a7710a2e2", "lat": 38.911755166666666, "is_reserved": 0, "fusion_lon": 0.0, "fusion_lat": 0.0, "is_disabled": 0, "bike_id": "442940b8cf35e9bb5209cf6a7710a2e2", "lon": -77.02331283333334}, {"type": "electric_bike", "rental_uris": {"android": "https://dc.lft.to/lastmile_qr_scan", "ios": "https://dc.lft.to/lastmile_qr_scan"}, "name": "2532f4d97511d44b0ab10134fcf61699", "lat": 38.81336683333333, "is_reserved": 0, "fusion_lon": 0.0, "fusion_lat": 0.0, "is_disabled": 0, "bike_id": "2532f4d97511d44b0ab10134fcf61699", "lon": -77.05083616666667}, {"type": "electric_scooter", "rental_uris": {"android": "https://dc.lft.to/lastmile_qr_scan", "ios": "https://dc.lft.to/lastmile_qr_scan"}, "name": "7c9d4e075bc64bad7bdd90b4478b7cfa", "lat": 38.914834166666665, "is_reserved": 0, "fusion_lon": 0.0, "fusion_lat": 0.0, "is_disabled": 0, "bike_id": "7c9d4e075bc64bad7bdd90b4478b7cfa", "lon": -77.0324455}, {"type": "electric_scooter", "rental_uris": {"android": "https://dc.lft.to/lastmile_qr_scan", "ios": "https://dc.lft.to/lastmile_qr_scan"}, "name": "459a89c270981408e05f40ecf3f2046b", "lat": 38.91258333333333, "is_reserved": 0, "fusion_lon": 0.0, "fusion_lat": 0.0, "is_disabled": 0, "bike_id": "459a89c270981408e05f40ecf3f2046b", "lon": -77.03925616666666}, {"type": "electric_bike", "rental_uris": {"android": "https://dc.lft.to/lastmile_qr_scan", "ios": "https://dc.lft.to/lastmile_qr_scan"}, "name": "078046f9936af01199da7bd5810cbbd5", "lat": 39.0109565, "is_reserved": 0, "fusion_lon": 0.0, "fusion_lat": 0.0, "is_disabled": 0, "bike_id": "078046f9936af01199da7bd5810cbbd5", "lon": -77.04952516666667}, {"type": "electric_scooter", "rental_uris": {"android": "https://dc.lft.to/lastmile_qr_scan", "ios": "https://dc.lft.to/lastmile_qr_scan"}, "name": "f6cc27820d8177d786f3aa12cf4923a6", "lat": 38.92503966666666, "is_reserved": 0, "fusion_lon": 0.0, "fusion_lat": 0.0, "is_disabled": 0, "bike_id": "f6cc27820d8177d786f3aa12cf4923a6", "lon": -77.03801733333333}, {"type": "electric_scooter", "rental_uris": {"android": "https://dc.lft.to/lastmile_qr_scan", "ios": "https://dc.lft.to/lastmile_qr_scan"}, "name": "6ad1b992efb6f68bbc0d73f48038987b", "lat": 38.903726, "is_reserved": 0, "fusion_lon": 0.0, "fusion_lat": 0.0, "is_disabled": 0, "bike_id": "6ad1b992efb6f68bbc0d73f48038987b", "lon": -77.02828183333334}, {"type": "electric_scooter", "rental_uris": {"android": "https://dc.lft.to/lastmile_qr_scan", "ios": "https://dc.lft.to/lastmile_qr_scan"}, "name": "d60591b8b0113e4ea4d1ac72043dd98e", "lat": 38.918178, "is_reserved": 0, "fusion_lon": 0.0, "fusion_lat": 0.0, "is_disabled": 0, "bike_id": "d60591b8b0113e4ea4d1ac72043dd98e", "lon": -77.034439}, {"type": "electric_scooter", "rental_uris": {"android": "https://dc.lft.to/lastmile_qr_scan", "ios": "https://dc.lft.to/lastmile_qr_scan"}, "name": "06fdeed34e3de2970601814b00a538ac", "lat": 38.90353133333333, "is_reserved": 0, "fusion_lon": 0.0, "fusion_lat": 0.0, "is_disabled": 0, "bike_id": "06fdeed34e3de2970601814b00a538ac", "lon": -77.0261455}, {"type": "electric_scooter", "rental_uris": {"android": "https://dc.lft.to/lastmile_qr_scan", "ios": "https://dc.lft.to/lastmile_qr_scan"}, "name": "eae629b4f6c6f1364025c9902e338b91", "lat": 38.93887433333333, "is_reserved": 0, "fusion_lon": 0.0, "fusion_lat": 0.0, "is_disabled": 0, "bike_id": "eae629b4f6c6f1364025c9902e338b91", "lon": -77.0331595}, {"type": "electric_scooter", "rental_uris": {"android": "https://dc.lft.to/lastmile_qr_scan", "ios": "https://dc.lft.to/lastmile_qr_scan"}, "name": "7834fdc2ca16522c3f581bb2cb3b7783", "lat": 38.893946666666665, "is_reserved": 0, "fusion_lon": 0.0, "fusion_lat": 0.0, "is_disabled": 0, "bike_id": "7834fdc2ca16522c3f581bb2cb3b7783", "lon": -77.00207533333334}, {"type": "electric_scooter", "rental_uris": {"android": "https://dc.lft.to/lastmile_qr_scan", "ios": "https://dc.lft.to/lastmile_qr_scan"}, "name": "414586a8889ccab69eb4e3eb3af97498", "lat": 38.919254333333335, "is_reserved": 0, "fusion_lon": 0.0, "fusion_lat": 0.0, "is_disabled": 0, "bike_id": "414586a8889ccab69eb4e3eb3af97498", "lon": -77.00972733333333}, {"type": "electric_scooter", "rental_uris": {"android": "https://dc.lft.to/lastmile_qr_scan", "ios": "https://dc.lft.to/lastmile_qr_scan"}, "name": "56e36d17f2544b3c0d280ac0a9edc828", "lat": 38.88511366666667, "is_reserved": 0, "fusion_lon": 0.0, "fusion_lat": 0.0, "is_disabled": 0, "bike_id": "56e36d17f2544b3c0d280ac0a9edc828", "lon": -77.01114533333333}, {"type": "electric_scooter", "rental_uris": {"android": "https://dc.lft.to/lastmile_qr_scan", "ios": "https://dc.lft.to/lastmile_qr_scan"}, "name": "7b260ac61d8e6b72daf02d330489b8ba", "lat": 38.88635266666667, "is_reserved": 0, "fusion_lon": 0.0, "fusion_lat": 0.0, "is_disabled": 0, "bike_id": "7b260ac61d8e6b72daf02d330489b8ba", "lon": -77.0153055}, {"type": "electric_scooter", "rental_uris": {"android": "https://dc.lft.to/lastmile_qr_scan", "ios": "https://dc.lft.to/lastmile_qr_scan"}, "name": "9ef0db2233fff3121fddefc07aede892", "lat": 38.909161833333336, "is_reserved": 0, "fusion_lon": 0.0, "fusion_lat": 0.0, "is_disabled": 0, "bike_id": "9ef0db2233fff3121fddefc07aede892", "lon": -77.0727225}, {"type": "electric_scooter", "rental_uris": {"android": "https://dc.lft.to/lastmile_qr_scan", "ios": "https://dc.lft.to/lastmile_qr_scan"}, "name": "99515907470ddc77e0efc3ec3549f31f", "lat": 38.90438233333333, "is_reserved": 0, "fusion_lon": 0.0, "fusion_lat": 0.0, "is_disabled": 0, "bike_id": "99515907470ddc77e0efc3ec3549f31f", "lon": -77.0514485}, {"type": "electric_scooter", "rental_uris": {"android": "https://dc.lft.to/lastmile_qr_scan", "ios": "https://dc.lft.to/lastmile_qr_scan"}, "name": "7f2f21e396556ccdd712dd181c7252a5", "lat": 38.920944666666664, "is_reserved": 0, "fusion_lon": 0.0, "fusion_lat": 0.0, "is_disabled": 0, "bike_id": "7f2f21e396556ccdd712dd181c7252a5", "lon": -77.02301633333333}, {"type": "electric_scooter", "rental_uris": {"android": "https://dc.lft.to/lastmile_qr_scan", "ios": "https://dc.lft.to/lastmile_qr_scan"}, "name": "0a52e55929e6b87972186c8a05c6aa65", "lat": 38.906167833333335, "is_reserved": 0, "fusion_lon": 0.0, "fusion_lat": 0.0, "is_disabled": 0, "bike_id": "0a52e55929e6b87972186c8a05c6aa65", "lon": -76.95010983333333}, {"type": "electric_scooter", "rental_uris": {"android": "https://dc.lft.to/lastmile_qr_scan", "ios": "https://dc.lft.to/lastmile_qr_scan"}, "name": "bc5832c56f083d2fb3c3decf43e093dd", "lat": 38.920944, "is_reserved": 0, "fusion_lon": 0.0, "fusion_lat": 0.0, "is_disabled": 0, "bike_id": "bc5832c56f083d2fb3c3decf43e093dd", "lon": -77.02300433333333}, {"type": "electric_scooter", "rental_uris": {"android": "https://dc.lft.to/lastmile_qr_scan", "ios": "https://dc.lft.to/lastmile_qr_scan"}, "name": "cea2826782e8f3d4467c6a0182a09d04", "lat": 38.90362233333333, "is_reserved": 0, "fusion_lon": 0.0, "fusion_lat": 0.0, "is_disabled": 0, "bike_id": "cea2826782e8f3d4467c6a0182a09d04", "lon": -77.03841883333334}, {"type": "electric_scooter", "rental_uris": {"android": "https://dc.lft.to/lastmile_qr_scan", "ios": "https://dc.lft.to/lastmile_qr_scan"}, "name": "d6052443c77e32f0e0bb0cb7ddbee33e", "lat": 38.90867083333333, "is_reserved": 0, "fusion_lon": 0.0, "fusion_lat": 0.0, "is_disabled": 0, "bike_id": "d6052443c77e32f0e0bb0cb7ddbee33e", "lon": -77.04067066666667}, {"type": "electric_scooter", "rental_uris": {"android": "https://dc.lft.to/lastmile_qr_scan", "ios": "https://dc.lft.to/lastmile_qr_scan"}, "name": "ed75da89d99675ded9dbb5ca448b81a2", "lat": 38.9260085, "is_reserved": 0, "fusion_lon": 0.0, "fusion_lat": 0.0, "is_disabled": 0, "bike_id": "ed75da89d99675ded9dbb5ca448b81a2", "lon": -77.02155483333334}, {"type": "electric_scooter", "rental_uris": {"android": "https://dc.lft.to/lastmile_qr_scan", "ios": "https://dc.lft.to/lastmile_qr_scan"}, "name": "8f566df88e4e75d4692f217f36cd2f2e", "lat": 38.90105666666667, "is_reserved": 0, "fusion_lon": 0.0, "fusion_lat": 0.0, "is_disabled": 0, "bike_id": "8f566df88e4e75d4692f217f36cd2f2e", "lon": -76.98001083333334}, {"type": "electric_scooter", "rental_uris": {"android": "https://dc.lft.to/lastmile_qr_scan", "ios": "https://dc.lft.to/lastmile_qr_scan"}, "name": "2a9015d827770f8f6ea8fb3991dc3460", "lat": 38.886330666666666, "is_reserved": 0, "fusion_lon": 0.0, "fusion_lat": 0.0, "is_disabled": 0, "bike_id": "2a9015d827770f8f6ea8fb3991dc3460", "lon": -77.02209583333334}, {"type": "electric_scooter", "rental_uris": {"android": "https://dc.lft.to/lastmile_qr_scan", "ios": "https://dc.lft.to/lastmile_qr_scan"}, "name": "eade4b6933769bb77ecc884a09a2d300", "lat": 38.90846616666666, "is_reserved": 0, "fusion_lon": 0.0, "fusion_lat": 0.0, "is_disabled": 0, "bike_id": "eade4b6933769bb77ecc884a09a2d300", "lon": -77.04355533333333}, {"type": "electric_bike", "rental_uris": {"android": "https://dc.lft.to/lastmile_qr_scan", "ios": "https://dc.lft.to/lastmile_qr_scan"}, "name": "03e95ddb9e6e85f8ab72c790c4737fab", "lat": 38.845072, "is_reserved": 0, "fusion_lon": 0.0, "fusion_lat": 0.0, "is_disabled": 0, "bike_id": "03e95ddb9e6e85f8ab72c790c4737fab", "lon": -76.99352833333333}, {"type": "electric_scooter", "rental_uris": {"android": "https://dc.lft.to/lastmile_qr_scan", "ios": "https://dc.lft.to/lastmile_qr_scan"}, "name": "be928ab13e974aa71385d39805625831", "lat": 38.897946166666664, "is_reserved": 0, "fusion_lon": 0.0, "fusion_lat": 0.0, "is_disabled": 0, "bike_id": "be928ab13e974aa71385d39805625831", "lon": -77.015873}, {"type": "electric_scooter", "rental_uris": {"android": "https://dc.lft.to/lastmile_qr_scan", "ios": "https://dc.lft.to/lastmile_qr_scan"}, "name": "4d4bcc1aeb3030851a372af9e669f756", "lat": 38.908438, "is_reserved": 0, "fusion_lon": 0.0, "fusion_lat": 0.0, "is_disabled": 0, "bike_id": "4d4bcc1aeb3030851a372af9e669f756", "lon": -77.00218166666667}, {"type": "electric_scooter", "rental_uris": {"android": "https://dc.lft.to/lastmile_qr_scan", "ios": "https://dc.lft.to/lastmile_qr_scan"}, "name": "4d6eefcd94ea4bd72a67d9c120ce3ecf", "lat": 38.910476833333334, "is_reserved": 0, "fusion_lon": 0.0, "fusion_lat": 0.0, "is_disabled": 0, "bike_id": "4d6eefcd94ea4bd72a67d9c120ce3ecf", "lon": -77.0219515}, {"type": "electric_scooter", "rental_uris": {"android": "https://dc.lft.to/lastmile_qr_scan", "ios": "https://dc.lft.to/lastmile_qr_scan"}, "name": "5f75952929d61678ae9c9aba6c6759bb", "lat": 38.898045333333336, "is_reserved": 0, "fusion_lon": 0.0, "fusion_lat": 0.0, "is_disabled": 0, "bike_id": "5f75952929d61678ae9c9aba6c6759bb", "lon": -77.046116}, {"type": "electric_scooter", "rental_uris": {"android": "https://dc.lft.to/lastmile_qr_scan", "ios": "https://dc.lft.to/lastmile_qr_scan"}, "name": "c5c721a7742c2de58e1713690a7933c3", "lat": 38.943857, "is_reserved": 0, "fusion_lon": 0.0, "fusion_lat": 0.0, "is_disabled": 0, "bike_id": "c5c721a7742c2de58e1713690a7933c3", "lon": -77.060232}, {"type": "electric_scooter", "rental_uris": {"android": "https://dc.lft.to/lastmile_qr_scan", "ios": "https://dc.lft.to/lastmile_qr_scan"}, "name": "09a67383620c68a978ca80eb07959b73", "lat": 38.90270783333333, "is_reserved": 0, "fusion_lon": 0.0, "fusion_lat": 0.0, "is_disabled": 0, "bike_id": "09a67383620c68a978ca80eb07959b73", "lon": -77.045202}, {"type": "electric_scooter", "rental_uris": {"android": "https://dc.lft.to/lastmile_qr_scan", "ios": "https://dc.lft.to/lastmile_qr_scan"}, "name": "f628b685027fcdc72783a3994c5ce5c3", "lat": 38.89242133333333, "is_reserved": 0, "fusion_lon": 0.0, "fusion_lat": 0.0, "is_disabled": 0, "bike_id": "f628b685027fcdc72783a3994c5ce5c3", "lon": -77.03180266666666}, {"type": "electric_scooter", "rental_uris": {"android": "https://dc.lft.to/lastmile_qr_scan", "ios": "https://dc.lft.to/lastmile_qr_scan"}, "name": "b13dc1ffb9bc9574bb1ca8179c7edda3", "lat": 38.91711383333333, "is_reserved": 0, "fusion_lon": 0.0, "fusion_lat": 0.0, "is_disabled": 0, "bike_id": "b13dc1ffb9bc9574bb1ca8179c7edda3", "lon": -77.03133666666666}, {"type": "electric_scooter", "rental_uris": {"android": "https://dc.lft.to/lastmile_qr_scan", "ios": "https://dc.lft.to/lastmile_qr_scan"}, "name": "cfc3a8d234db961e1ad3e195dbc19e4b", "lat": 38.92872466666667, "is_reserved": 0, "fusion_lon": 0.0, "fusion_lat": 0.0, "is_disabled": 0, "bike_id": "cfc3a8d234db961e1ad3e195dbc19e4b", "lon": -77.03354183333333}, {"type": "electric_scooter", "rental_uris": {"android": "https://dc.lft.to/lastmile_qr_scan", "ios": "https://dc.lft.to/lastmile_qr_scan"}, "name": "6231f1b2d31d176b85367c1f98e38be1", "lat": 38.9161365, "is_reserved": 0, "fusion_lon": 0.0, "fusion_lat": 0.0, "is_disabled": 0, "bike_id": "6231f1b2d31d176b85367c1f98e38be1", "lon": -77.03177766666667}, {"type": "electric_scooter", "rental_uris": {"android": "https://dc.lft.to/lastmile_qr_scan", "ios": "https://dc.lft.to/lastmile_qr_scan"}, "name": "a194d333ccb2c524bf30686d982fefeb", "lat": 38.9077535, "is_reserved": 0, "fusion_lon": 0.0, "fusion_lat": 0.0, "is_disabled": 0, "bike_id": "a194d333ccb2c524bf30686d982fefeb", "lon": -77.03762316666666}, {"type": "electric_scooter", "rental_uris": {"android": "https://dc.lft.to/lastmile_qr_scan", "ios": "https://dc.lft.to/lastmile_qr_scan"}, "name": "2a8571b6bee4d2ccff2151a34520d1f2", "lat": 38.887213333333335, "is_reserved": 0, "fusion_lon": 0.0, "fusion_lat": 0.0, "is_disabled": 0, "bike_id": "2a8571b6bee4d2ccff2151a34520d1f2", "lon": -77.02195783333333}, {"type": "electric_scooter", "rental_uris": {"android": "https://dc.lft.to/lastmile_qr_scan", "ios": "https://dc.lft.to/lastmile_qr_scan"}, "name": "fe37dc01fb615e5cd1046f589f009ed3", "lat": 38.88835816666667, "is_reserved": 0, "fusion_lon": 0.0, "fusion_lat": 0.0, "is_disabled": 0, "bike_id": "fe37dc01fb615e5cd1046f589f009ed3", "lon": -76.98686183333334}, {"type": "electric_scooter", "rental_uris": {"android": "https://dc.lft.to/lastmile_qr_scan", "ios": "https://dc.lft.to/lastmile_qr_scan"}, "name": "5a7d409f04815578b87af8d3c217d815", "lat": 38.920238166666664, "is_reserved": 0, "fusion_lon": 0.0, "fusion_lat": 0.0, "is_disabled": 0, "bike_id": "5a7d409f04815578b87af8d3c217d815", "lon": -77.028025}, {"type": "electric_scooter", "rental_uris": {"android": "https://dc.lft.to/lastmile_qr_scan", "ios": "https://dc.lft.to/lastmile_qr_scan"}, "name": "a509324724440481f8adeeb72cd4958c", "lat": 38.89898266666667, "is_reserved": 0, "fusion_lon": 0.0, "fusion_lat": 0.0, "is_disabled": 0, "bike_id": "a509324724440481f8adeeb72cd4958c", "lon": -77.033226}, {"type": "electric_scooter", "rental_uris": {"android": "https://dc.lft.to/lastmile_qr_scan", "ios": "https://dc.lft.to/lastmile_qr_scan"}, "name": "fac50f3e400d72055c2b0b4323f1932c", "lat": 38.919754833333336, "is_reserved": 0, "fusion_lon": 0.0, "fusion_lat": 0.0, "is_disabled": 0, "bike_id": "fac50f3e400d72055c2b0b4323f1932c", "lon": -77.02177483333334}, {"type": "electric_scooter", "rental_uris": {"android": "https://dc.lft.to/lastmile_qr_scan", "ios": "https://dc.lft.to/lastmile_qr_scan"}, "name": "6053d58b0ca8c72201a1a90cde264a67", "lat": 38.926547666666664, "is_reserved": 0, "fusion_lon": 0.0, "fusion_lat": 0.0, "is_disabled": 0, "bike_id": "6053d58b0ca8c72201a1a90cde264a67", "lon": -77.037294}, {"type": "electric_scooter", "rental_uris": {"android": "https://dc.lft.to/lastmile_qr_scan", "ios": "https://dc.lft.to/lastmile_qr_scan"}, "name": "bc16be927c0cc317c5975f53a06b854c", "lat": 38.91694316666667, "is_reserved": 0, "fusion_lon": 0.0, "fusion_lat": 0.0, "is_disabled": 0, "bike_id": "bc16be927c0cc317c5975f53a06b854c", "lon": -77.04336166666667}, {"type": "electric_scooter", "rental_uris": {"android": "https://dc.lft.to/lastmile_qr_scan", "ios": "https://dc.lft.to/lastmile_qr_scan"}, "name": "2cdbd3518a2042f51d4151a3b9c2c84c", "lat": 38.8839445, "is_reserved": 0, "fusion_lon": 0.0, "fusion_lat": 0.0, "is_disabled": 0, "bike_id": "2cdbd3518a2042f51d4151a3b9c2c84c", "lon": -76.98839616666666}, {"type": "electric_scooter", "rental_uris": {"android": "https://dc.lft.to/lastmile_qr_scan", "ios": "https://dc.lft.to/lastmile_qr_scan"}, "name": "9880aad8cd9c9a74500051b30555c817", "lat": 38.90512866666667, "is_reserved": 0, "fusion_lon": 0.0, "fusion_lat": 0.0, "is_disabled": 0, "bike_id": "9880aad8cd9c9a74500051b30555c817", "lon": -77.04498366666667}, {"type": "electric_scooter", "rental_uris": {"android": "https://dc.lft.to/lastmile_qr_scan", "ios": "https://dc.lft.to/lastmile_qr_scan"}, "name": "94ea884ec2256a4a8f874fc83055fc76", "lat": 38.890451, "is_reserved": 0, "fusion_lon": 0.0, "fusion_lat": 0.0, "is_disabled": 0, "bike_id": "94ea884ec2256a4a8f874fc83055fc76", "lon": -76.93755116666667}, {"type": "electric_scooter", "rental_uris": {"android": "https://dc.lft.to/lastmile_qr_scan", "ios": "https://dc.lft.to/lastmile_qr_scan"}, "name": "2fee498d4e8a9d144e25f3cc658dd724", "lat": 38.911754, "is_reserved": 0, "fusion_lon": 0.0, "fusion_lat": 0.0, "is_disabled": 0, "bike_id": "2fee498d4e8a9d144e25f3cc658dd724", "lon": -77.0295725}, {"type": "electric_bike", "rental_uris": {"android": "https://dc.lft.to/lastmile_qr_scan", "ios": "https://dc.lft.to/lastmile_qr_scan"}, "name": "1fc49ea89b6393caa51966318906dd40", "lat": 38.94925816666667, "is_reserved": 0, "fusion_lon": 0.0, "fusion_lat": 0.0, "is_disabled": 0, "bike_id": "1fc49ea89b6393caa51966318906dd40", "lon": -76.95914933333333}, {"type": "electric_scooter", "rental_uris": {"android": "https://dc.lft.to/lastmile_qr_scan", "ios": "https://dc.lft.to/lastmile_qr_scan"}, "name": "f3b5ca581389026da0a6cf209494ef4f", "lat": 38.880745833333336, "is_reserved": 0, "fusion_lon": 0.0, "fusion_lat": 0.0, "is_disabled": 0, "bike_id": "f3b5ca581389026da0a6cf209494ef4f", "lon": -77.03722833333333}, {"type": "electric_scooter", "rental_uris": {"android": "https://dc.lft.to/lastmile_qr_scan", "ios": "https://dc.lft.to/lastmile_qr_scan"}, "name": "f376255720c1ad484b81f01ece9cd426", "lat": 38.9156105, "is_reserved": 0, "fusion_lon": 0.0, "fusion_lat": 0.0, "is_disabled": 0, "bike_id": "f376255720c1ad484b81f01ece9cd426", "lon": -77.036572}, {"type": "electric_scooter", "rental_uris": {"android": "https://dc.lft.to/lastmile_qr_scan", "ios": "https://dc.lft.to/lastmile_qr_scan"}, "name": "47ebafd54e13f3c0368279fea014111a", "lat": 38.95631216666666, "is_reserved": 0, "fusion_lon": 0.0, "fusion_lat": 0.0, "is_disabled": 0, "bike_id": "47ebafd54e13f3c0368279fea014111a", "lon": -77.02953466666666}, {"type": "electric_bike", "rental_uris": {"android": "https://dc.lft.to/lastmile_qr_scan", "ios": "https://dc.lft.to/lastmile_qr_scan"}, "name": "14e74e0ed7c03643c23210c1e6897ff9", "lat": 38.926211333333335, "is_reserved": 0, "fusion_lon": 0.0, "fusion_lat": 0.0, "is_disabled": 0, "bike_id": "14e74e0ed7c03643c23210c1e6897ff9", "lon": -77.00584466666666}, {"type": "electric_scooter", "rental_uris": {"android": "https://dc.lft.to/lastmile_qr_scan", "ios": "https://dc.lft.to/lastmile_qr_scan"}, "name": "d31f21a744e02e0947ed1b282e91ed82", "lat": 38.883805333333335, "is_reserved": 0, "fusion_lon": 0.0, "fusion_lat": 0.0, "is_disabled": 0, "bike_id": "d31f21a744e02e0947ed1b282e91ed82", "lon": -77.01931633333334}, {"type": "electric_scooter", "rental_uris": {"android": "https://dc.lft.to/lastmile_qr_scan", "ios": "https://dc.lft.to/lastmile_qr_scan"}, "name": "a37b3675bbce26646edeb8b459e9d852", "lat": 38.902653, "is_reserved": 0, "fusion_lon": 0.0, "fusion_lat": 0.0, "is_disabled": 0, "bike_id": "a37b3675bbce26646edeb8b459e9d852", "lon": -77.02822383333333}, {"type": "electric_bike", "rental_uris": {"android": "https://dc.lft.to/lastmile_qr_scan", "ios": "https://dc.lft.to/lastmile_qr_scan"}, "name": "a3362b9668a2ef3cd19792683ed83595", "lat": 38.94153, "is_reserved": 0, "fusion_lon": 0.0, "fusion_lat": 0.0, "is_disabled": 0, "bike_id": "a3362b9668a2ef3cd19792683ed83595", "lon": -77.001953}, {"type": "electric_scooter", "rental_uris": {"android": "https://dc.lft.to/lastmile_qr_scan", "ios": "https://dc.lft.to/lastmile_qr_scan"}, "name": "ce8ac2b445596fc5f88ef71d9aa5cefd", "lat": 38.893662166666665, "is_reserved": 0, "fusion_lon": 0.0, "fusion_lat": 0.0, "is_disabled": 0, "bike_id": "ce8ac2b445596fc5f88ef71d9aa5cefd", "lon": -76.98460616666667}, {"type": "electric_scooter", "rental_uris": {"android": "https://dc.lft.to/lastmile_qr_scan", "ios": "https://dc.lft.to/lastmile_qr_scan"}, "name": "b80d0fe1ef6e07c1b6d2199ee1d83e96", "lat": 38.87315733333333, "is_reserved": 0, "fusion_lon": 0.0, "fusion_lat": 0.0, "is_disabled": 0, "bike_id": "b80d0fe1ef6e07c1b6d2199ee1d83e96", "lon": -77.01391083333333}, {"type": "electric_scooter", "rental_uris": {"android": "https://dc.lft.to/lastmile_qr_scan", "ios": "https://dc.lft.to/lastmile_qr_scan"}, "name": "5dd59a3f6c54c598c4abf2d21063c471", "lat": 38.907876333333334, "is_reserved": 0, "fusion_lon": 0.0, "fusion_lat": 0.0, "is_disabled": 0, "bike_id": "5dd59a3f6c54c598c4abf2d21063c471", "lon": -77.00952683333334}, {"type": "electric_scooter", "rental_uris": {"android": "https://dc.lft.to/lastmile_qr_scan", "ios": "https://dc.lft.to/lastmile_qr_scan"}, "name": "11e9c07488a62ebee3b3f3ed44c6da94", "lat": 38.91607616666667, "is_reserved": 0, "fusion_lon": 0.0, "fusion_lat": 0.0, "is_disabled": 0, "bike_id": "11e9c07488a62ebee3b3f3ed44c6da94", "lon": -77.03191016666666}, {"type": "electric_bike", "rental_uris": {"android": "https://dc.lft.to/lastmile_qr_scan", "ios": "https://dc.lft.to/lastmile_qr_scan"}, "name": "2bcaf273faabf05b04005ae7c3094042", "lat": 38.877170166666666, "is_reserved": 0, "fusion_lon": 0.0, "fusion_lat": 0.0, "is_disabled": 0, "bike_id": "2bcaf273faabf05b04005ae7c3094042", "lon": -77.12423483333333}, {"type": "electric_scooter", "rental_uris": {"android": "https://dc.lft.to/lastmile_qr_scan", "ios": "https://dc.lft.to/lastmile_qr_scan"}, "name": "d14c5f4cbb985b2509ada91aadf5bd3d", "lat": 38.90017866666667, "is_reserved": 0, "fusion_lon": 0.0, "fusion_lat": 0.0, "is_disabled": 0, "bike_id": "d14c5f4cbb985b2509ada91aadf5bd3d", "lon": -77.0433335}, {"type": "electric_scooter", "rental_uris": {"android": "https://dc.lft.to/lastmile_qr_scan", "ios": "https://dc.lft.to/lastmile_qr_scan"}, "name": "3e63e876075b9ce049dec37127dc7733", "lat": 38.896171333333335, "is_reserved": 0, "fusion_lon": 0.0, "fusion_lat": 0.0, "is_disabled": 0, "bike_id": "3e63e876075b9ce049dec37127dc7733", "lon": -76.92973933333333}, {"type": "electric_scooter", "rental_uris": {"android": "https://dc.lft.to/lastmile_qr_scan", "ios": "https://dc.lft.to/lastmile_qr_scan"}, "name": "dd4ed630baad4ea5ab7900f0c8260a07", "lat": 38.9027255, "is_reserved": 0, "fusion_lon": 0.0, "fusion_lat": 0.0, "is_disabled": 0, "bike_id": "dd4ed630baad4ea5ab7900f0c8260a07", "lon": -77.04200966666667}, {"type": "electric_scooter", "rental_uris": {"android": "https://dc.lft.to/lastmile_qr_scan", "ios": "https://dc.lft.to/lastmile_qr_scan"}, "name": "9a9abb4b139653ce6dfd5aa2efa1fc13", "lat": 38.92068316666666, "is_reserved": 0, "fusion_lon": 0.0, "fusion_lat": 0.0, "is_disabled": 0, "bike_id": "9a9abb4b139653ce6dfd5aa2efa1fc13", "lon": -77.02563666666667}, {"type": "electric_scooter", "rental_uris": {"android": "https://dc.lft.to/lastmile_qr_scan", "ios": "https://dc.lft.to/lastmile_qr_scan"}, "name": "86ee88a438cfbc080f5c4e8ecc48b67a", "lat": 38.896822, "is_reserved": 0, "fusion_lon": 0.0, "fusion_lat": 0.0, "is_disabled": 0, "bike_id": "86ee88a438cfbc080f5c4e8ecc48b67a", "lon": -76.93665783333333}, {"type": "electric_scooter", "rental_uris": {"android": "https://dc.lft.to/lastmile_qr_scan", "ios": "https://dc.lft.to/lastmile_qr_scan"}, "name": "b3d1a24cf77139d180df62ec6c94ec3f", "lat": 38.8922035, "is_reserved": 0, "fusion_lon": 0.0, "fusion_lat": 0.0, "is_disabled": 0, "bike_id": "b3d1a24cf77139d180df62ec6c94ec3f", "lon": -77.02631416666667}, {"type": "electric_scooter", "rental_uris": {"android": "https://dc.lft.to/lastmile_qr_scan", "ios": "https://dc.lft.to/lastmile_qr_scan"}, "name": "e3382493d0e50204475ea28d0e98d43d", "lat": 38.89014366666667, "is_reserved": 0, "fusion_lon": 0.0, "fusion_lat": 0.0, "is_disabled": 0, "bike_id": "e3382493d0e50204475ea28d0e98d43d", "lon": -76.9371745}, {"type": "electric_scooter", "rental_uris": {"android": "https://dc.lft.to/lastmile_qr_scan", "ios": "https://dc.lft.to/lastmile_qr_scan"}, "name": "a223d2c967f823eb5c0668c9e036dd66", "lat": 38.909575333333336, "is_reserved": 0, "fusion_lon": 0.0, "fusion_lat": 0.0, "is_disabled": 0, "bike_id": "a223d2c967f823eb5c0668c9e036dd66", "lon": -77.03303483333333}, {"type": "electric_bike", "rental_uris": {"android": "https://dc.lft.to/lastmile_qr_scan", "ios": "https://dc.lft.to/lastmile_qr_scan"}, "name": "495988d448611ebdfed13460fcb96208", "lat": 38.80384933333333, "is_reserved": 0, "fusion_lon": 0.0, "fusion_lat": 0.0, "is_disabled": 0, "bike_id": "495988d448611ebdfed13460fcb96208", "lon": -76.98815033333334}, {"type": "electric_bike", "rental_uris": {"android": "https://dc.lft.to/lastmile_qr_scan", "ios": "https://dc.lft.to/lastmile_qr_scan"}, "name": "589a6cf5f15727c79c4ea40d979965b5", "lat": 38.927989833333335, "is_reserved": 0, "fusion_lon": 0.0, "fusion_lat": 0.0, "is_disabled": 0, "bike_id": "589a6cf5f15727c79c4ea40d979965b5", "lon": -77.03622666666666}, {"type": "electric_scooter", "rental_uris": {"android": "https://dc.lft.to/lastmile_qr_scan", "ios": "https://dc.lft.to/lastmile_qr_scan"}, "name": "22376f1fe7d0b53a3692968dbc0427cd", "lat": 38.880236833333335, "is_reserved": 0, "fusion_lon": 0.0, "fusion_lat": 0.0, "is_disabled": 0, "bike_id": "22376f1fe7d0b53a3692968dbc0427cd", "lon": -76.94321366666667}, {"type": "electric_scooter", "rental_uris": {"android": "https://dc.lft.to/lastmile_qr_scan", "ios": "https://dc.lft.to/lastmile_qr_scan"}, "name": "52a3239eb1c49b6c892c79d1c0e54ead", "lat": 38.93532616666667, "is_reserved": 0, "fusion_lon": 0.0, "fusion_lat": 0.0, "is_disabled": 0, "bike_id": "52a3239eb1c49b6c892c79d1c0e54ead", "lon": -77.02856666666666}, {"type": "electric_scooter", "rental_uris": {"android": "https://dc.lft.to/lastmile_qr_scan", "ios": "https://dc.lft.to/lastmile_qr_scan"}, "name": "606e80e6ffda4a10f5c006065c8c6247", "lat": 38.905636666666666, "is_reserved": 0, "fusion_lon": 0.0, "fusion_lat": 0.0, "is_disabled": 0, "bike_id": "606e80e6ffda4a10f5c006065c8c6247", "lon": -77.03479883333333}, {"type": "electric_scooter", "rental_uris": {"android": "https://dc.lft.to/lastmile_qr_scan", "ios": "https://dc.lft.to/lastmile_qr_scan"}, "name": "2133d14abd112c2d3a436cce3a47770b", "lat": 38.918914666666666, "is_reserved": 0, "fusion_lon": 0.0, "fusion_lat": 0.0, "is_disabled": 0, "bike_id": "2133d14abd112c2d3a436cce3a47770b", "lon": -77.02755833333333}, {"type": "electric_scooter", "rental_uris": {"android": "https://dc.lft.to/lastmile_qr_scan", "ios": "https://dc.lft.to/lastmile_qr_scan"}, "name": "d01a6600c0b9b1bf43e404ac3bcee990", "lat": 38.923701333333334, "is_reserved": 0, "fusion_lon": 0.0, "fusion_lat": 0.0, "is_disabled": 0, "bike_id": "d01a6600c0b9b1bf43e404ac3bcee990", "lon": -77.03051683333334}, {"type": "electric_scooter", "rental_uris": {"android": "https://dc.lft.to/lastmile_qr_scan", "ios": "https://dc.lft.to/lastmile_qr_scan"}, "name": "4a5b00fb57cc602607a72b6c42989b0e", "lat": 38.895810166666664, "is_reserved": 0, "fusion_lon": 0.0, "fusion_lat": 0.0, "is_disabled": 0, "bike_id": "4a5b00fb57cc602607a72b6c42989b0e", "lon": -77.01106616666667}, {"type": "electric_scooter", "rental_uris": {"android": "https://dc.lft.to/lastmile_qr_scan", "ios": "https://dc.lft.to/lastmile_qr_scan"}, "name": "df88d5b142975cf52d79fd836f247a2f", "lat": 38.89970983333333, "is_reserved": 0, "fusion_lon": 0.0, "fusion_lat": 0.0, "is_disabled": 0, "bike_id": "df88d5b142975cf52d79fd836f247a2f", "lon": -77.03185116666667}, {"type": "electric_scooter", "rental_uris": {"android": "https://dc.lft.to/lastmile_qr_scan", "ios": "https://dc.lft.to/lastmile_qr_scan"}, "name": "f7a711e286c7b13e37c9e1f729c52bd1", "lat": 38.91291866666667, "is_reserved": 0, "fusion_lon": 0.0, "fusion_lat": 0.0, "is_disabled": 0, "bike_id": "f7a711e286c7b13e37c9e1f729c52bd1", "lon": -77.02690733333333}, {"type": "electric_scooter", "rental_uris": {"android": "https://dc.lft.to/lastmile_qr_scan", "ios": "https://dc.lft.to/lastmile_qr_scan"}, "name": "2d876aba7b86ebf815e6ec77e309d6b6", "lat": 38.927933333333335, "is_reserved": 0, "fusion_lon": 0.0, "fusion_lat": 0.0, "is_disabled": 0, "bike_id": "2d876aba7b86ebf815e6ec77e309d6b6", "lon": -77.05528083333333}, {"type": "electric_scooter", "rental_uris": {"android": "https://dc.lft.to/lastmile_qr_scan", "ios": "https://dc.lft.to/lastmile_qr_scan"}, "name": "26a768fd1b5304c2bcdf384ece5b6fc5", "lat": 38.91691616666667, "is_reserved": 0, "fusion_lon": 0.0, "fusion_lat": 0.0, "is_disabled": 0, "bike_id": "26a768fd1b5304c2bcdf384ece5b6fc5", "lon": -77.02595933333333}, {"type": "electric_scooter", "rental_uris": {"android": "https://dc.lft.to/lastmile_qr_scan", "ios": "https://dc.lft.to/lastmile_qr_scan"}, "name": "1c8087f44313360c7258031146c79b77", "lat": 38.87679383333333, "is_reserved": 0, "fusion_lon": 0.0, "fusion_lat": 0.0, "is_disabled": 0, "bike_id": "1c8087f44313360c7258031146c79b77", "lon": -77.02001566666667}, {"type": "electric_scooter", "rental_uris": {"android": "https://dc.lft.to/lastmile_qr_scan", "ios": "https://dc.lft.to/lastmile_qr_scan"}, "name": "e08fab089c31db4229e171ddcde9badc", "lat": 38.920626166666665, "is_reserved": 0, "fusion_lon": 0.0, "fusion_lat": 0.0, "is_disabled": 0, "bike_id": "e08fab089c31db4229e171ddcde9badc", "lon": -77.02303583333334}, {"type": "electric_scooter", "rental_uris": {"android": "https://dc.lft.to/lastmile_qr_scan", "ios": "https://dc.lft.to/lastmile_qr_scan"}, "name": "63233dd8ab6d4eb60cb8ec7d9e32f5f9", "lat": 38.89529516666666, "is_reserved": 0, "fusion_lon": 0.0, "fusion_lat": 0.0, "is_disabled": 0, "bike_id": "63233dd8ab6d4eb60cb8ec7d9e32f5f9", "lon": -77.03113166666667}, {"type": "electric_scooter", "rental_uris": {"android": "https://dc.lft.to/lastmile_qr_scan", "ios": "https://dc.lft.to/lastmile_qr_scan"}, "name": "7559ce6b9cdd8d348162ad1a78fadbfc", "lat": 38.9266145, "is_reserved": 0, "fusion_lon": 0.0, "fusion_lat": 0.0, "is_disabled": 0, "bike_id": "7559ce6b9cdd8d348162ad1a78fadbfc", "lon": -77.04077766666667}, {"type": "electric_scooter", "rental_uris": {"android": "https://dc.lft.to/lastmile_qr_scan", "ios": "https://dc.lft.to/lastmile_qr_scan"}, "name": "2cbe62d644c7528623af528cf84b6d35", "lat": 38.911043166666666, "is_reserved": 0, "fusion_lon": 0.0, "fusion_lat": 0.0, "is_disabled": 0, "bike_id": "2cbe62d644c7528623af528cf84b6d35", "lon": -77.04453116666667}, {"type": "electric_scooter", "rental_uris": {"android": "https://dc.lft.to/lastmile_qr_scan", "ios": "https://dc.lft.to/lastmile_qr_scan"}, "name": "d78c50016aaed1e13bfe369b890dfa61", "lat": 38.904337, "is_reserved": 0, "fusion_lon": 0.0, "fusion_lat": 0.0, "is_disabled": 0, "bike_id": "d78c50016aaed1e13bfe369b890dfa61", "lon": -77.0250735}, {"type": "electric_bike", "rental_uris": {"android": "https://dc.lft.to/lastmile_qr_scan", "ios": "https://dc.lft.to/lastmile_qr_scan"}, "name": "588585c20a14e7ed1cdfac7f7f21e276", "lat": 38.893998333333336, "is_reserved": 0, "fusion_lon": 0.0, "fusion_lat": 0.0, "is_disabled": 0, "bike_id": "588585c20a14e7ed1cdfac7f7f21e276", "lon": -76.86852}, {"type": "electric_scooter", "rental_uris": {"android": "https://dc.lft.to/lastmile_qr_scan", "ios": "https://dc.lft.to/lastmile_qr_scan"}, "name": "98d263bde3119eae182c4b69e1099ff8", "lat": 38.907683666666664, "is_reserved": 0, "fusion_lon": 0.0, "fusion_lat": 0.0, "is_disabled": 0, "bike_id": "98d263bde3119eae182c4b69e1099ff8", "lon": -77.02450716666667}, {"type": "electric_scooter", "rental_uris": {"android": "https://dc.lft.to/lastmile_qr_scan", "ios": "https://dc.lft.to/lastmile_qr_scan"}, "name": "ebec02cbf1d68113135119fde5beea8a", "lat": 38.90267583333333, "is_reserved": 0, "fusion_lon": 0.0, "fusion_lat": 0.0, "is_disabled": 0, "bike_id": "ebec02cbf1d68113135119fde5beea8a", "lon": -77.01765233333333}, {"type": "electric_scooter", "rental_uris": {"android": "https://dc.lft.to/lastmile_qr_scan", "ios": "https://dc.lft.to/lastmile_qr_scan"}, "name": "8a9b9ce07fa3d475af517acae107243c", "lat": 38.88772433333333, "is_reserved": 0, "fusion_lon": 0.0, "fusion_lat": 0.0, "is_disabled": 0, "bike_id": "8a9b9ce07fa3d475af517acae107243c", "lon": -76.9326075}, {"type": "electric_scooter", "rental_uris": {"android": "https://dc.lft.to/lastmile_qr_scan", "ios": "https://dc.lft.to/lastmile_qr_scan"}, "name": "aedc93a750eaae0e5b600d122ea9cfbc", "lat": 38.9206965, "is_reserved": 0, "fusion_lon": 0.0, "fusion_lat": 0.0, "is_disabled": 0, "bike_id": "aedc93a750eaae0e5b600d122ea9cfbc", "lon": -77.02560933333334}, {"type": "electric_scooter", "rental_uris": {"android": "https://dc.lft.to/lastmile_qr_scan", "ios": "https://dc.lft.to/lastmile_qr_scan"}, "name": "644d205e584bc0b61e06284939965f26", "lat": 38.90557666666667, "is_reserved": 0, "fusion_lon": 0.0, "fusion_lat": 0.0, "is_disabled": 0, "bike_id": "644d205e584bc0b61e06284939965f26", "lon": -77.03439483333334}, {"type": "electric_scooter", "rental_uris": {"android": "https://dc.lft.to/lastmile_qr_scan", "ios": "https://dc.lft.to/lastmile_qr_scan"}, "name": "26e6fa2066d93357430b40fc11ad608a", "lat": 38.901840666666665, "is_reserved": 0, "fusion_lon": 0.0, "fusion_lat": 0.0, "is_disabled": 0, "bike_id": "26e6fa2066d93357430b40fc11ad608a", "lon": -77.03380533333333}, {"type": "electric_scooter", "rental_uris": {"android": "https://dc.lft.to/lastmile_qr_scan", "ios": "https://dc.lft.to/lastmile_qr_scan"}, "name": "3453e6578a647defaf912bf77d93c6fd", "lat": 38.90379083333333, "is_reserved": 0, "fusion_lon": 0.0, "fusion_lat": 0.0, "is_disabled": 0, "bike_id": "3453e6578a647defaf912bf77d93c6fd", "lon": -77.0365525}, {"type": "electric_scooter", "rental_uris": {"android": "https://dc.lft.to/lastmile_qr_scan", "ios": "https://dc.lft.to/lastmile_qr_scan"}, "name": "7c28e8c0b5a9eaf4c2e98c6442a0415f", "lat": 38.924913833333335, "is_reserved": 0, "fusion_lon": 0.0, "fusion_lat": 0.0, "is_disabled": 0, "bike_id": "7c28e8c0b5a9eaf4c2e98c6442a0415f", "lon": -77.03904366666667}, {"type": "electric_scooter", "rental_uris": {"android": "https://dc.lft.to/lastmile_qr_scan", "ios": "https://dc.lft.to/lastmile_qr_scan"}, "name": "5ef5791922f41c7facb6d9df2798e83b", "lat": 38.922402166666664, "is_reserved": 0, "fusion_lon": 0.0, "fusion_lat": 0.0, "is_disabled": 0, "bike_id": "5ef5791922f41c7facb6d9df2798e83b", "lon": -77.04267433333334}, {"type": "electric_scooter", "rental_uris": {"android": "https://dc.lft.to/lastmile_qr_scan", "ios": "https://dc.lft.to/lastmile_qr_scan"}, "name": "8ea9bd9b694755a9254aefe8e3a7867a", "lat": 38.91115833333333, "is_reserved": 0, "fusion_lon": 0.0, "fusion_lat": 0.0, "is_disabled": 0, "bike_id": "8ea9bd9b694755a9254aefe8e3a7867a", "lon": -77.04359883333333}, {"type": "electric_scooter", "rental_uris": {"android": "https://dc.lft.to/lastmile_qr_scan", "ios": "https://dc.lft.to/lastmile_qr_scan"}, "name": "ce68dad5dab688bd3343ace59e0f2b36", "lat": 38.900663333333334, "is_reserved": 0, "fusion_lon": 0.0, "fusion_lat": 0.0, "is_disabled": 0, "bike_id": "ce68dad5dab688bd3343ace59e0f2b36", "lon": -77.0073965}, {"type": "electric_scooter", "rental_uris": {"android": "https://dc.lft.to/lastmile_qr_scan", "ios": "https://dc.lft.to/lastmile_qr_scan"}, "name": "1d0822c6b249fe98e5247aa52a65f0c2", "lat": 38.887214, "is_reserved": 0, "fusion_lon": 0.0, "fusion_lat": 0.0, "is_disabled": 0, "bike_id": "1d0822c6b249fe98e5247aa52a65f0c2", "lon": -76.99678783333333}, {"type": "electric_scooter", "rental_uris": {"android": "https://dc.lft.to/lastmile_qr_scan", "ios": "https://dc.lft.to/lastmile_qr_scan"}, "name": "326638c0d0b78fc6e4cf44eaf8cffc6a", "lat": 38.89618266666667, "is_reserved": 0, "fusion_lon": 0.0, "fusion_lat": 0.0, "is_disabled": 0, "bike_id": "326638c0d0b78fc6e4cf44eaf8cffc6a", "lon": -77.0303295}, {"type": "electric_scooter", "rental_uris": {"android": "https://dc.lft.to/lastmile_qr_scan", "ios": "https://dc.lft.to/lastmile_qr_scan"}, "name": "e91d6f11138d7b53aa8a126b276bcc55", "lat": 38.906784, "is_reserved": 0, "fusion_lon": 0.0, "fusion_lat": 0.0, "is_disabled": 0, "bike_id": "e91d6f11138d7b53aa8a126b276bcc55", "lon": -77.0268985}, {"type": "electric_scooter", "rental_uris": {"android": "https://dc.lft.to/lastmile_qr_scan", "ios": "https://dc.lft.to/lastmile_qr_scan"}, "name": "002d1793bc80885fba6a3c3a4810b7ae", "lat": 38.9216795, "is_reserved": 0, "fusion_lon": 0.0, "fusion_lat": 0.0, "is_disabled": 0, "bike_id": "002d1793bc80885fba6a3c3a4810b7ae", "lon": -77.02024166666666}, {"type": "electric_scooter", "rental_uris": {"android": "https://dc.lft.to/lastmile_qr_scan", "ios": "https://dc.lft.to/lastmile_qr_scan"}, "name": "c69a6eab2847d64ac336c074cc66e501", "lat": 38.88876416666667, "is_reserved": 0, "fusion_lon": 0.0, "fusion_lat": 0.0, "is_disabled": 0, "bike_id": "c69a6eab2847d64ac336c074cc66e501", "lon": -76.99034733333333}, {"type": "electric_bike", "rental_uris": {"android": "https://dc.lft.to/lastmile_qr_scan", "ios": "https://dc.lft.to/lastmile_qr_scan"}, "name": "e1abdd0de5fe1fb60af8a8ddc7f919e8", "lat": 38.895989166666666, "is_reserved": 0, "fusion_lon": 0.0, "fusion_lat": 0.0, "is_disabled": 0, "bike_id": "e1abdd0de5fe1fb60af8a8ddc7f919e8", "lon": -76.96782583333334}, {"type": "electric_scooter", "rental_uris": {"android": "https://dc.lft.to/lastmile_qr_scan", "ios": "https://dc.lft.to/lastmile_qr_scan"}, "name": "c8b3ac264776608e42293198d1c4e37f", "lat": 38.93195816666667, "is_reserved": 0, "fusion_lon": 0.0, "fusion_lat": 0.0, "is_disabled": 0, "bike_id": "c8b3ac264776608e42293198d1c4e37f", "lon": -77.028259}, {"type": "electric_scooter", "rental_uris": {"android": "https://dc.lft.to/lastmile_qr_scan", "ios": "https://dc.lft.to/lastmile_qr_scan"}, "name": "2285ad20057ce534b18857e78df1c022", "lat": 38.918195, "is_reserved": 0, "fusion_lon": 0.0, "fusion_lat": 0.0, "is_disabled": 0, "bike_id": "2285ad20057ce534b18857e78df1c022", "lon": -77.034425}, {"type": "electric_scooter", "rental_uris": {"android": "https://dc.lft.to/lastmile_qr_scan", "ios": "https://dc.lft.to/lastmile_qr_scan"}, "name": "a6f6d14ba6ac3dfc2f7f6c4b54bd889b", "lat": 38.897122833333334, "is_reserved": 0, "fusion_lon": 0.0, "fusion_lat": 0.0, "is_disabled": 0, "bike_id": "a6f6d14ba6ac3dfc2f7f6c4b54bd889b", "lon": -77.02681933333334}, {"type": "electric_scooter", "rental_uris": {"android": "https://dc.lft.to/lastmile_qr_scan", "ios": "https://dc.lft.to/lastmile_qr_scan"}, "name": "929a8178f98591f2731a95974f59986c", "lat": 38.939091, "is_reserved": 0, "fusion_lon": 0.0, "fusion_lat": 0.0, "is_disabled": 0, "bike_id": "929a8178f98591f2731a95974f59986c", "lon": -77.0603995}, {"type": "electric_scooter", "rental_uris": {"android": "https://dc.lft.to/lastmile_qr_scan", "ios": "https://dc.lft.to/lastmile_qr_scan"}, "name": "676d2a862ea7d4ce9b16d9c146ff8bcc", "lat": 38.908879, "is_reserved": 0, "fusion_lon": 0.0, "fusion_lat": 0.0, "is_disabled": 0, "bike_id": "676d2a862ea7d4ce9b16d9c146ff8bcc", "lon": -77.07280016666667}, {"type": "electric_scooter", "rental_uris": {"android": "https://dc.lft.to/lastmile_qr_scan", "ios": "https://dc.lft.to/lastmile_qr_scan"}, "name": "b1ffa088bc38094af674e243b6987944", "lat": 38.924386, "is_reserved": 0, "fusion_lon": 0.0, "fusion_lat": 0.0, "is_disabled": 0, "bike_id": "b1ffa088bc38094af674e243b6987944", "lon": -77.00062333333334}, {"type": "electric_scooter", "rental_uris": {"android": "https://dc.lft.to/lastmile_qr_scan", "ios": "https://dc.lft.to/lastmile_qr_scan"}, "name": "e3c43661f50c703deecf1784581bc279", "lat": 38.90000833333333, "is_reserved": 0, "fusion_lon": 0.0, "fusion_lat": 0.0, "is_disabled": 0, "bike_id": "e3c43661f50c703deecf1784581bc279", "lon": -77.002845}, {"type": "electric_scooter", "rental_uris": {"android": "https://dc.lft.to/lastmile_qr_scan", "ios": "https://dc.lft.to/lastmile_qr_scan"}, "name": "7b488a4a829a6698225eb0b13d4eb189", "lat": 38.927941833333335, "is_reserved": 0, "fusion_lon": 0.0, "fusion_lat": 0.0, "is_disabled": 0, "bike_id": "7b488a4a829a6698225eb0b13d4eb189", "lon": -77.03081966666667}, {"type": "electric_bike", "rental_uris": {"android": "https://dc.lft.to/lastmile_qr_scan", "ios": "https://dc.lft.to/lastmile_qr_scan"}, "name": "e175b6408c42652c71f285415684d921", "lat": 38.9203805, "is_reserved": 0, "fusion_lon": 0.0, "fusion_lat": 0.0, "is_disabled": 0, "bike_id": "e175b6408c42652c71f285415684d921", "lon": -76.97958766666666}, {"type": "electric_scooter", "rental_uris": {"android": "https://dc.lft.to/lastmile_qr_scan", "ios": "https://dc.lft.to/lastmile_qr_scan"}, "name": "ccd167a32bcee987a7176e3126eafe2f", "lat": 38.900231166666664, "is_reserved": 0, "fusion_lon": 0.0, "fusion_lat": 0.0, "is_disabled": 0, "bike_id": "ccd167a32bcee987a7176e3126eafe2f", "lon": -77.040859}, {"type": "electric_scooter", "rental_uris": {"android": "https://dc.lft.to/lastmile_qr_scan", "ios": "https://dc.lft.to/lastmile_qr_scan"}, "name": "9e3be2f482e70f06c51066b3a122eeab", "lat": 38.902092, "is_reserved": 0, "fusion_lon": 0.0, "fusion_lat": 0.0, "is_disabled": 0, "bike_id": "9e3be2f482e70f06c51066b3a122eeab", "lon": -77.04614416666666}, {"type": "electric_scooter", "rental_uris": {"android": "https://dc.lft.to/lastmile_qr_scan", "ios": "https://dc.lft.to/lastmile_qr_scan"}, "name": "9c371e887f93642300c699b3863f4a11", "lat": 38.929121333333335, "is_reserved": 0, "fusion_lon": 0.0, "fusion_lat": 0.0, "is_disabled": 0, "bike_id": "9c371e887f93642300c699b3863f4a11", "lon": -77.03254216666667}, {"type": "electric_scooter", "rental_uris": {"android": "https://dc.lft.to/lastmile_qr_scan", "ios": "https://dc.lft.to/lastmile_qr_scan"}, "name": "33b6273fbe6a4d54eb1dc3ad765a14e5", "lat": 38.91679, "is_reserved": 0, "fusion_lon": 0.0, "fusion_lat": 0.0, "is_disabled": 0, "bike_id": "33b6273fbe6a4d54eb1dc3ad765a14e5", "lon": -77.029664}, {"type": "electric_bike", "rental_uris": {"android": "https://dc.lft.to/lastmile_qr_scan", "ios": "https://dc.lft.to/lastmile_qr_scan"}, "name": "0ffc98489d4ca8538c93790a6feb101a", "lat": 38.89048833333333, "is_reserved": 0, "fusion_lon": 0.0, "fusion_lat": 0.0, "is_disabled": 0, "bike_id": "0ffc98489d4ca8538c93790a6feb101a", "lon": -77.01414616666666}, {"type": "electric_scooter", "rental_uris": {"android": "https://dc.lft.to/lastmile_qr_scan", "ios": "https://dc.lft.to/lastmile_qr_scan"}, "name": "3c9b086c2c7fa79d1401a61344fed8e0", "lat": 38.9156465, "is_reserved": 0, "fusion_lon": 0.0, "fusion_lat": 0.0, "is_disabled": 0, "bike_id": "3c9b086c2c7fa79d1401a61344fed8e0", "lon": -77.0071855}, {"type": "electric_scooter", "rental_uris": {"android": "https://dc.lft.to/lastmile_qr_scan", "ios": "https://dc.lft.to/lastmile_qr_scan"}, "name": "7029ddce168c61b767f4f6f452aae2bb", "lat": 38.884975833333336, "is_reserved": 0, "fusion_lon": 0.0, "fusion_lat": 0.0, "is_disabled": 0, "bike_id": "7029ddce168c61b767f4f6f452aae2bb", "lon": -77.008949}, {"type": "electric_scooter", "rental_uris": {"android": "https://dc.lft.to/lastmile_qr_scan", "ios": "https://dc.lft.to/lastmile_qr_scan"}, "name": "3e4c102279188305c5c6ed30b8dfefd8", "lat": 38.90366016666667, "is_reserved": 0, "fusion_lon": 0.0, "fusion_lat": 0.0, "is_disabled": 0, "bike_id": "3e4c102279188305c5c6ed30b8dfefd8", "lon": -76.98489533333333}, {"type": "electric_scooter", "rental_uris": {"android": "https://dc.lft.to/lastmile_qr_scan", "ios": "https://dc.lft.to/lastmile_qr_scan"}, "name": "e73878c85a96e48841cacc589f69755a", "lat": 38.89355416666667, "is_reserved": 0, "fusion_lon": 0.0, "fusion_lat": 0.0, "is_disabled": 0, "bike_id": "e73878c85a96e48841cacc589f69755a", "lon": -77.00335516666667}, {"type": "electric_scooter", "rental_uris": {"android": "https://dc.lft.to/lastmile_qr_scan", "ios": "https://dc.lft.to/lastmile_qr_scan"}, "name": "4b637c1ba51cb670f9b3f12a7910b50c", "lat": 38.930621333333335, "is_reserved": 0, "fusion_lon": 0.0, "fusion_lat": 0.0, "is_disabled": 0, "bike_id": "4b637c1ba51cb670f9b3f12a7910b50c", "lon": -77.0321185}, {"type": "electric_scooter", "rental_uris": {"android": "https://dc.lft.to/lastmile_qr_scan", "ios": "https://dc.lft.to/lastmile_qr_scan"}, "name": "7b5296c2c9face21a75c4e9dbba958e7", "lat": 38.92476766666667, "is_reserved": 0, "fusion_lon": 0.0, "fusion_lat": 0.0, "is_disabled": 0, "bike_id": "7b5296c2c9face21a75c4e9dbba958e7", "lon": -77.02185366666667}, {"type": "electric_scooter", "rental_uris": {"android": "https://dc.lft.to/lastmile_qr_scan", "ios": "https://dc.lft.to/lastmile_qr_scan"}, "name": "d9c15724e6a343c45e737833e38bfefe", "lat": 38.9025, "is_reserved": 0, "fusion_lon": 0.0, "fusion_lat": 0.0, "is_disabled": 0, "bike_id": "d9c15724e6a343c45e737833e38bfefe", "lon": -77.037808}, {"type": "electric_scooter", "rental_uris": {"android": "https://dc.lft.to/lastmile_qr_scan", "ios": "https://dc.lft.to/lastmile_qr_scan"}, "name": "24c2c7918d1a3723a6393a90c35773c4", "lat": 38.911053333333335, "is_reserved": 0, "fusion_lon": 0.0, "fusion_lat": 0.0, "is_disabled": 0, "bike_id": "24c2c7918d1a3723a6393a90c35773c4", "lon": -77.0734415}, {"type": "electric_scooter", "rental_uris": {"android": "https://dc.lft.to/lastmile_qr_scan", "ios": "https://dc.lft.to/lastmile_qr_scan"}, "name": "9d632fe8a53bf92a1054da986f6eb9d8", "lat": 38.92859083333333, "is_reserved": 0, "fusion_lon": 0.0, "fusion_lat": 0.0, "is_disabled": 0, "bike_id": "9d632fe8a53bf92a1054da986f6eb9d8", "lon": -77.0218195}, {"type": "electric_scooter", "rental_uris": {"android": "https://dc.lft.to/lastmile_qr_scan", "ios": "https://dc.lft.to/lastmile_qr_scan"}, "name": "451fa20de05602a11e617e02e8564b1c", "lat": 38.905649, "is_reserved": 0, "fusion_lon": 0.0, "fusion_lat": 0.0, "is_disabled": 0, "bike_id": "451fa20de05602a11e617e02e8564b1c", "lon": -77.03481083333334}, {"type": "electric_scooter", "rental_uris": {"android": "https://dc.lft.to/lastmile_qr_scan", "ios": "https://dc.lft.to/lastmile_qr_scan"}, "name": "2dfd489b27ea3856c0b16a79697bacd7", "lat": 38.905727, "is_reserved": 0, "fusion_lon": 0.0, "fusion_lat": 0.0, "is_disabled": 0, "bike_id": "2dfd489b27ea3856c0b16a79697bacd7", "lon": -77.04383866666667}, {"type": "electric_scooter", "rental_uris": {"android": "https://dc.lft.to/lastmile_qr_scan", "ios": "https://dc.lft.to/lastmile_qr_scan"}, "name": "28d40890439b20baab862714c1f8ce72", "lat": 38.91120633333333, "is_reserved": 0, "fusion_lon": 0.0, "fusion_lat": 0.0, "is_disabled": 0, "bike_id": "28d40890439b20baab862714c1f8ce72", "lon": -77.04360583333333}, {"type": "electric_scooter", "rental_uris": {"android": "https://dc.lft.to/lastmile_qr_scan", "ios": "https://dc.lft.to/lastmile_qr_scan"}, "name": "7485c2d83fae699c4232767b7bead9cf", "lat": 38.8945855, "is_reserved": 0, "fusion_lon": 0.0, "fusion_lat": 0.0, "is_disabled": 0, "bike_id": "7485c2d83fae699c4232767b7bead9cf", "lon": -77.03371616666666}, {"type": "electric_scooter", "rental_uris": {"android": "https://dc.lft.to/lastmile_qr_scan", "ios": "https://dc.lft.to/lastmile_qr_scan"}, "name": "7a72011949f3982cf5fcfa9014684bfc", "lat": 38.944473333333335, "is_reserved": 0, "fusion_lon": 0.0, "fusion_lat": 0.0, "is_disabled": 0, "bike_id": "7a72011949f3982cf5fcfa9014684bfc", "lon": -77.02338366666666}, {"type": "electric_scooter", "rental_uris": {"android": "https://dc.lft.to/lastmile_qr_scan", "ios": "https://dc.lft.to/lastmile_qr_scan"}, "name": "642b5ce78885557131d6ba6d01603c45", "lat": 38.90341933333333, "is_reserved": 0, "fusion_lon": 0.0, "fusion_lat": 0.0, "is_disabled": 0, "bike_id": "642b5ce78885557131d6ba6d01603c45", "lon": -77.062007}, {"type": "electric_scooter", "rental_uris": {"android": "https://dc.lft.to/lastmile_qr_scan", "ios": "https://dc.lft.to/lastmile_qr_scan"}, "name": "cb4d4f8888cf410d64a2762b6ce7a1f8", "lat": 38.904185, "is_reserved": 0, "fusion_lon": 0.0, "fusion_lat": 0.0, "is_disabled": 0, "bike_id": "cb4d4f8888cf410d64a2762b6ce7a1f8", "lon": -77.024029}, {"type": "electric_scooter", "rental_uris": {"android": "https://dc.lft.to/lastmile_qr_scan", "ios": "https://dc.lft.to/lastmile_qr_scan"}, "name": "d2124f044dfa6d0695c83ab502f4803f", "lat": 38.914048333333334, "is_reserved": 0, "fusion_lon": 0.0, "fusion_lat": 0.0, "is_disabled": 0, "bike_id": "d2124f044dfa6d0695c83ab502f4803f", "lon": -77.01841416666667}, {"type": "electric_bike", "rental_uris": {"android": "https://dc.lft.to/lastmile_qr_scan", "ios": "https://dc.lft.to/lastmile_qr_scan"}, "name": "4d3479eb3b0206d484725209dfa171e6", "lat": 38.8523975, "is_reserved": 0, "fusion_lon": 0.0, "fusion_lat": 0.0, "is_disabled": 0, "bike_id": "4d3479eb3b0206d484725209dfa171e6", "lon": -77.05308366666667}, {"type": "electric_scooter", "rental_uris": {"android": "https://dc.lft.to/lastmile_qr_scan", "ios": "https://dc.lft.to/lastmile_qr_scan"}, "name": "d8b27a4c893dc7bb2931f5e605f1f59a", "lat": 38.92951266666667, "is_reserved": 0, "fusion_lon": 0.0, "fusion_lat": 0.0, "is_disabled": 0, "bike_id": "d8b27a4c893dc7bb2931f5e605f1f59a", "lon": -77.03260916666666}, {"type": "electric_scooter", "rental_uris": {"android": "https://dc.lft.to/lastmile_qr_scan", "ios": "https://dc.lft.to/lastmile_qr_scan"}, "name": "b4611dc50d4abbc819d92172ac4b3c95", "lat": 38.89467783333333, "is_reserved": 0, "fusion_lon": 0.0, "fusion_lat": 0.0, "is_disabled": 0, "bike_id": "b4611dc50d4abbc819d92172ac4b3c95", "lon": -76.99709266666666}, {"type": "electric_scooter", "rental_uris": {"android": "https://dc.lft.to/lastmile_qr_scan", "ios": "https://dc.lft.to/lastmile_qr_scan"}, "name": "7113699e052e6521e2f38b073b1416d5", "lat": 38.89355166666667, "is_reserved": 0, "fusion_lon": 0.0, "fusion_lat": 0.0, "is_disabled": 0, "bike_id": "7113699e052e6521e2f38b073b1416d5", "lon": -77.00333683333334}, {"type": "electric_scooter", "rental_uris": {"android": "https://dc.lft.to/lastmile_qr_scan", "ios": "https://dc.lft.to/lastmile_qr_scan"}, "name": "bb2f8df81bfbb8ee45ff79fea0e4f6bc", "lat": 38.9591315, "is_reserved": 0, "fusion_lon": 0.0, "fusion_lat": 0.0, "is_disabled": 0, "bike_id": "bb2f8df81bfbb8ee45ff79fea0e4f6bc", "lon": -77.00013416666667}, {"type": "electric_scooter", "rental_uris": {"android": "https://dc.lft.to/lastmile_qr_scan", "ios": "https://dc.lft.to/lastmile_qr_scan"}, "name": "7b6b9a587e5da1fcd01b5f4268a7a48a", "lat": 38.87621933333333, "is_reserved": 0, "fusion_lon": 0.0, "fusion_lat": 0.0, "is_disabled": 0, "bike_id": "7b6b9a587e5da1fcd01b5f4268a7a48a", "lon": -77.0026305}, {"type": "electric_bike", "rental_uris": {"android": "https://dc.lft.to/lastmile_qr_scan", "ios": "https://dc.lft.to/lastmile_qr_scan"}, "name": "46420e278386157e1a5f8a60b7409ac3", "lat": 38.8723495, "is_reserved": 0, "fusion_lon": 0.0, "fusion_lat": 0.0, "is_disabled": 0, "bike_id": "46420e278386157e1a5f8a60b7409ac3", "lon": -76.931988}, {"type": "electric_scooter", "rental_uris": {"android": "https://dc.lft.to/lastmile_qr_scan", "ios": "https://dc.lft.to/lastmile_qr_scan"}, "name": "fee29bf9b00eccf93831c5672796c694", "lat": 38.904922166666665, "is_reserved": 0, "fusion_lon": 0.0, "fusion_lat": 0.0, "is_disabled": 0, "bike_id": "fee29bf9b00eccf93831c5672796c694", "lon": -76.97736616666667}, {"type": "electric_scooter", "rental_uris": {"android": "https://dc.lft.to/lastmile_qr_scan", "ios": "https://dc.lft.to/lastmile_qr_scan"}, "name": "19ab795e831134b978789e8524d0a906", "lat": 38.91562316666667, "is_reserved": 0, "fusion_lon": 0.0, "fusion_lat": 0.0, "is_disabled": 0, "bike_id": "19ab795e831134b978789e8524d0a906", "lon": -77.04883383333333}, {"type": "electric_scooter", "rental_uris": {"android": "https://dc.lft.to/lastmile_qr_scan", "ios": "https://dc.lft.to/lastmile_qr_scan"}, "name": "0d051539ef7e20a261443fd7c79481b2", "lat": 38.9032275, "is_reserved": 0, "fusion_lon": 0.0, "fusion_lat": 0.0, "is_disabled": 0, "bike_id": "0d051539ef7e20a261443fd7c79481b2", "lon": -76.98213433333333}, {"type": "electric_scooter", "rental_uris": {"android": "https://dc.lft.to/lastmile_qr_scan", "ios": "https://dc.lft.to/lastmile_qr_scan"}, "name": "fec3624557d6c7370814a834785dca07", "lat": 38.92892333333333, "is_reserved": 0, "fusion_lon": 0.0, "fusion_lat": 0.0, "is_disabled": 0, "bike_id": "fec3624557d6c7370814a834785dca07", "lon": -77.03460566666666}, {"type": "electric_scooter", "rental_uris": {"android": "https://dc.lft.to/lastmile_qr_scan", "ios": "https://dc.lft.to/lastmile_qr_scan"}, "name": "7c311090eef238f0cec2d07d31a0eeef", "lat": 38.90441966666667, "is_reserved": 0, "fusion_lon": 0.0, "fusion_lat": 0.0, "is_disabled": 0, "bike_id": "7c311090eef238f0cec2d07d31a0eeef", "lon": -77.0532285}, {"type": "electric_scooter", "rental_uris": {"android": "https://dc.lft.to/lastmile_qr_scan", "ios": "https://dc.lft.to/lastmile_qr_scan"}, "name": "0f0c4a32fcfad09744a93cb401563d3f", "lat": 38.9234265, "is_reserved": 0, "fusion_lon": 0.0, "fusion_lat": 0.0, "is_disabled": 0, "bike_id": "0f0c4a32fcfad09744a93cb401563d3f", "lon": -77.036461}, {"type": "electric_scooter", "rental_uris": {"android": "https://dc.lft.to/lastmile_qr_scan", "ios": "https://dc.lft.to/lastmile_qr_scan"}, "name": "25b47fa86670418be5139f75431acb6b", "lat": 38.92251266666667, "is_reserved": 0, "fusion_lon": 0.0, "fusion_lat": 0.0, "is_disabled": 0, "bike_id": "25b47fa86670418be5139f75431acb6b", "lon": -77.072024}, {"type": "electric_scooter", "rental_uris": {"android": "https://dc.lft.to/lastmile_qr_scan", "ios": "https://dc.lft.to/lastmile_qr_scan"}, "name": "3dc4441756261e5747b0e5e5afe12c42", "lat": 38.9057065, "is_reserved": 0, "fusion_lon": 0.0, "fusion_lat": 0.0, "is_disabled": 0, "bike_id": "3dc4441756261e5747b0e5e5afe12c42", "lon": -77.02181583333333}, {"type": "electric_scooter", "rental_uris": {"android": "https://dc.lft.to/lastmile_qr_scan", "ios": "https://dc.lft.to/lastmile_qr_scan"}, "name": "48c06a348f667a1173e1dc3484bb8ff4", "lat": 38.90174533333333, "is_reserved": 0, "fusion_lon": 0.0, "fusion_lat": 0.0, "is_disabled": 0, "bike_id": "48c06a348f667a1173e1dc3484bb8ff4", "lon": -77.04663616666667}, {"type": "electric_scooter", "rental_uris": {"android": "https://dc.lft.to/lastmile_qr_scan", "ios": "https://dc.lft.to/lastmile_qr_scan"}, "name": "26fb26f8c75811b870fd73a0fcc0431b", "lat": 38.90738666666667, "is_reserved": 0, "fusion_lon": 0.0, "fusion_lat": 0.0, "is_disabled": 0, "bike_id": "26fb26f8c75811b870fd73a0fcc0431b", "lon": -76.9348095}, {"type": "electric_scooter", "rental_uris": {"android": "https://dc.lft.to/lastmile_qr_scan", "ios": "https://dc.lft.to/lastmile_qr_scan"}, "name": "625efbed029ba89dfac3894f46f463ae", "lat": 38.91194816666667, "is_reserved": 0, "fusion_lon": 0.0, "fusion_lat": 0.0, "is_disabled": 0, "bike_id": "625efbed029ba89dfac3894f46f463ae", "lon": -77.03858466666667}, {"type": "electric_scooter", "rental_uris": {"android": "https://dc.lft.to/lastmile_qr_scan", "ios": "https://dc.lft.to/lastmile_qr_scan"}, "name": "a57edf6e27366c23f7e4f95f287cf3e3", "lat": 38.923863, "is_reserved": 0, "fusion_lon": 0.0, "fusion_lat": 0.0, "is_disabled": 0, "bike_id": "a57edf6e27366c23f7e4f95f287cf3e3", "lon": -77.02680016666666}, {"type": "electric_scooter", "rental_uris": {"android": "https://dc.lft.to/lastmile_qr_scan", "ios": "https://dc.lft.to/lastmile_qr_scan"}, "name": "7b300121084dcc9819441268bc0a2df7", "lat": 38.901563833333334, "is_reserved": 0, "fusion_lon": 0.0, "fusion_lat": 0.0, "is_disabled": 0, "bike_id": "7b300121084dcc9819441268bc0a2df7", "lon": -76.92131816666667}, {"type": "electric_scooter", "rental_uris": {"android": "https://dc.lft.to/lastmile_qr_scan", "ios": "https://dc.lft.to/lastmile_qr_scan"}, "name": "27c66ed12531c724c0d06e3d7d86fec5", "lat": 38.85216283333333, "is_reserved": 0, "fusion_lon": 0.0, "fusion_lat": 0.0, "is_disabled": 0, "bike_id": "27c66ed12531c724c0d06e3d7d86fec5", "lon": -76.99429933333333}, {"type": "electric_scooter", "rental_uris": {"android": "https://dc.lft.to/lastmile_qr_scan", "ios": "https://dc.lft.to/lastmile_qr_scan"}, "name": "e64b84329ad2c5668f3f77545528420f", "lat": 38.87857966666667, "is_reserved": 0, "fusion_lon": 0.0, "fusion_lat": 0.0, "is_disabled": 0, "bike_id": "e64b84329ad2c5668f3f77545528420f", "lon": -77.01760483333334}, {"type": "electric_scooter", "rental_uris": {"android": "https://dc.lft.to/lastmile_qr_scan", "ios": "https://dc.lft.to/lastmile_qr_scan"}, "name": "ea57cca71ff754d0eb3d688c7763eaa1", "lat": 38.936145833333335, "is_reserved": 0, "fusion_lon": 0.0, "fusion_lat": 0.0, "is_disabled": 0, "bike_id": "ea57cca71ff754d0eb3d688c7763eaa1", "lon": -77.032099}, {"type": "electric_scooter", "rental_uris": {"android": "https://dc.lft.to/lastmile_qr_scan", "ios": "https://dc.lft.to/lastmile_qr_scan"}, "name": "adf63b52ae44424f169fed91cf7702b6", "lat": 38.91344433333333, "is_reserved": 0, "fusion_lon": 0.0, "fusion_lat": 0.0, "is_disabled": 0, "bike_id": "adf63b52ae44424f169fed91cf7702b6", "lon": -76.98894766666666}, {"type": "electric_scooter", "rental_uris": {"android": "https://dc.lft.to/lastmile_qr_scan", "ios": "https://dc.lft.to/lastmile_qr_scan"}, "name": "de5880aa16239682e8b0fef4f191f732", "lat": 38.87654766666667, "is_reserved": 0, "fusion_lon": 0.0, "fusion_lat": 0.0, "is_disabled": 0, "bike_id": "de5880aa16239682e8b0fef4f191f732", "lon": -77.0006305}, {"type": "electric_scooter", "rental_uris": {"android": "https://dc.lft.to/lastmile_qr_scan", "ios": "https://dc.lft.to/lastmile_qr_scan"}, "name": "27282246f197685ddfafcd00da38add4", "lat": 38.928548, "is_reserved": 0, "fusion_lon": 0.0, "fusion_lat": 0.0, "is_disabled": 0, "bike_id": "27282246f197685ddfafcd00da38add4", "lon": -77.05427383333334}, {"type": "electric_scooter", "rental_uris": {"android": "https://dc.lft.to/lastmile_qr_scan", "ios": "https://dc.lft.to/lastmile_qr_scan"}, "name": "1d0fcc84631ec2b20f76eae9fb2b5b70", "lat": 38.902498666666666, "is_reserved": 0, "fusion_lon": 0.0, "fusion_lat": 0.0, "is_disabled": 0, "bike_id": "1d0fcc84631ec2b20f76eae9fb2b5b70", "lon": -77.0334325}, {"type": "electric_scooter", "rental_uris": {"android": "https://dc.lft.to/lastmile_qr_scan", "ios": "https://dc.lft.to/lastmile_qr_scan"}, "name": "1457944be6e864017f16ed6559a7561d", "lat": 38.875538, "is_reserved": 0, "fusion_lon": 0.0, "fusion_lat": 0.0, "is_disabled": 0, "bike_id": "1457944be6e864017f16ed6559a7561d", "lon": -77.00587216666666}, {"type": "electric_bike", "rental_uris": {"android": "https://dc.lft.to/lastmile_qr_scan", "ios": "https://dc.lft.to/lastmile_qr_scan"}, "name": "a910155ae33b8cb869c6ee24beb9d0aa", "lat": 38.942600666666664, "is_reserved": 0, "fusion_lon": 0.0, "fusion_lat": 0.0, "is_disabled": 0, "bike_id": "a910155ae33b8cb869c6ee24beb9d0aa", "lon": -76.9906915}, {"type": "electric_scooter", "rental_uris": {"android": "https://dc.lft.to/lastmile_qr_scan", "ios": "https://dc.lft.to/lastmile_qr_scan"}, "name": "2a2c635474da3b52aafaadc56fd17be4", "lat": 38.91674233333333, "is_reserved": 0, "fusion_lon": 0.0, "fusion_lat": 0.0, "is_disabled": 0, "bike_id": "2a2c635474da3b52aafaadc56fd17be4", "lon": -77.0460275}, {"type": "electric_scooter", "rental_uris": {"android": "https://dc.lft.to/lastmile_qr_scan", "ios": "https://dc.lft.to/lastmile_qr_scan"}, "name": "897dff3a24dfb6a547d07a991bfc4953", "lat": 38.9036055, "is_reserved": 0, "fusion_lon": 0.0, "fusion_lat": 0.0, "is_disabled": 0, "bike_id": "897dff3a24dfb6a547d07a991bfc4953", "lon": -77.03715233333334}, {"type": "electric_scooter", "rental_uris": {"android": "https://dc.lft.to/lastmile_qr_scan", "ios": "https://dc.lft.to/lastmile_qr_scan"}, "name": "ed89ef14229f2478a8f29979ac962b19", "lat": 38.906738833333335, "is_reserved": 0, "fusion_lon": 0.0, "fusion_lat": 0.0, "is_disabled": 0, "bike_id": "ed89ef14229f2478a8f29979ac962b19", "lon": -77.028099}, {"type": "electric_scooter", "rental_uris": {"android": "https://dc.lft.to/lastmile_qr_scan", "ios": "https://dc.lft.to/lastmile_qr_scan"}, "name": "7331536380b99780c3b758dd05957609", "lat": 38.91560416666667, "is_reserved": 0, "fusion_lon": 0.0, "fusion_lat": 0.0, "is_disabled": 0, "bike_id": "7331536380b99780c3b758dd05957609", "lon": -77.03195033333333}, {"type": "electric_bike", "rental_uris": {"android": "https://dc.lft.to/lastmile_qr_scan", "ios": "https://dc.lft.to/lastmile_qr_scan"}, "name": "62ec42eb8679887087a96f1d43d9c49a", "lat": 38.8068535, "is_reserved": 0, "fusion_lon": 0.0, "fusion_lat": 0.0, "is_disabled": 0, "bike_id": "62ec42eb8679887087a96f1d43d9c49a", "lon": -77.13378766666666}, {"type": "electric_scooter", "rental_uris": {"android": "https://dc.lft.to/lastmile_qr_scan", "ios": "https://dc.lft.to/lastmile_qr_scan"}, "name": "1268bb01817318418c36bd4aa2d079a0", "lat": 38.903458, "is_reserved": 0, "fusion_lon": 0.0, "fusion_lat": 0.0, "is_disabled": 0, "bike_id": "1268bb01817318418c36bd4aa2d079a0", "lon": -77.0533405}, {"type": "electric_scooter", "rental_uris": {"android": "https://dc.lft.to/lastmile_qr_scan", "ios": "https://dc.lft.to/lastmile_qr_scan"}, "name": "9dc3406a66b9576a4c110dbb9359ee7b", "lat": 38.96403266666667, "is_reserved": 0, "fusion_lon": 0.0, "fusion_lat": 0.0, "is_disabled": 0, "bike_id": "9dc3406a66b9576a4c110dbb9359ee7b", "lon": -77.02766416666667}, {"type": "electric_scooter", "rental_uris": {"android": "https://dc.lft.to/lastmile_qr_scan", "ios": "https://dc.lft.to/lastmile_qr_scan"}, "name": "3043c9184d22a91ce959774301160171", "lat": 38.93880633333333, "is_reserved": 0, "fusion_lon": 0.0, "fusion_lat": 0.0, "is_disabled": 0, "bike_id": "3043c9184d22a91ce959774301160171", "lon": -77.024826}, {"type": "electric_scooter", "rental_uris": {"android": "https://dc.lft.to/lastmile_qr_scan", "ios": "https://dc.lft.to/lastmile_qr_scan"}, "name": "3459b94d7dcb6863f28c697c625dfcba", "lat": 38.9170895, "is_reserved": 0, "fusion_lon": 0.0, "fusion_lat": 0.0, "is_disabled": 0, "bike_id": "3459b94d7dcb6863f28c697c625dfcba", "lon": -77.04216083333333}, {"type": "electric_scooter", "rental_uris": {"android": "https://dc.lft.to/lastmile_qr_scan", "ios": "https://dc.lft.to/lastmile_qr_scan"}, "name": "470a93ca2e8d70adb624d60bf8cf7bd8", "lat": 38.901781, "is_reserved": 0, "fusion_lon": 0.0, "fusion_lat": 0.0, "is_disabled": 0, "bike_id": "470a93ca2e8d70adb624d60bf8cf7bd8", "lon": -77.02405183333333}, {"type": "electric_scooter", "rental_uris": {"android": "https://dc.lft.to/lastmile_qr_scan", "ios": "https://dc.lft.to/lastmile_qr_scan"}, "name": "4e169d951b8ca510cf2dba0c303b3adb", "lat": 38.899025333333334, "is_reserved": 0, "fusion_lon": 0.0, "fusion_lat": 0.0, "is_disabled": 0, "bike_id": "4e169d951b8ca510cf2dba0c303b3adb", "lon": -77.03296133333333}, {"type": "electric_scooter", "rental_uris": {"android": "https://dc.lft.to/lastmile_qr_scan", "ios": "https://dc.lft.to/lastmile_qr_scan"}, "name": "fa084d274a971e0d80cf30bc0a69ed2d", "lat": 38.898348666666664, "is_reserved": 0, "fusion_lon": 0.0, "fusion_lat": 0.0, "is_disabled": 0, "bike_id": "fa084d274a971e0d80cf30bc0a69ed2d", "lon": -77.01244033333333}, {"type": "electric_scooter", "rental_uris": {"android": "https://dc.lft.to/lastmile_qr_scan", "ios": "https://dc.lft.to/lastmile_qr_scan"}, "name": "4e66f3c04255b490f43e6c68114ca18a", "lat": 38.92611333333333, "is_reserved": 0, "fusion_lon": 0.0, "fusion_lat": 0.0, "is_disabled": 0, "bike_id": "4e66f3c04255b490f43e6c68114ca18a", "lon": -77.021608}, {"type": "electric_scooter", "rental_uris": {"android": "https://dc.lft.to/lastmile_qr_scan", "ios": "https://dc.lft.to/lastmile_qr_scan"}, "name": "6be9623347196f95cdf38e3b259d5e01", "lat": 38.89572883333334, "is_reserved": 0, "fusion_lon": 0.0, "fusion_lat": 0.0, "is_disabled": 0, "bike_id": "6be9623347196f95cdf38e3b259d5e01", "lon": -77.0110225}, {"type": "electric_scooter", "rental_uris": {"android": "https://dc.lft.to/lastmile_qr_scan", "ios": "https://dc.lft.to/lastmile_qr_scan"}, "name": "85ccb25b7d869cffb4580fcd1541b74b", "lat": 38.911287333333334, "is_reserved": 0, "fusion_lon": 0.0, "fusion_lat": 0.0, "is_disabled": 0, "bike_id": "85ccb25b7d869cffb4580fcd1541b74b", "lon": -77.02194916666667}, {"type": "electric_scooter", "rental_uris": {"android": "https://dc.lft.to/lastmile_qr_scan", "ios": "https://dc.lft.to/lastmile_qr_scan"}, "name": "fb76099ee1ebf3724de641f0831f9db8", "lat": 38.91788716666667, "is_reserved": 0, "fusion_lon": 0.0, "fusion_lat": 0.0, "is_disabled": 0, "bike_id": "fb76099ee1ebf3724de641f0831f9db8", "lon": -77.04019966666667}, {"type": "electric_scooter", "rental_uris": {"android": "https://dc.lft.to/lastmile_qr_scan", "ios": "https://dc.lft.to/lastmile_qr_scan"}, "name": "4d0df28669c9cd43ac44dddc0586ea47", "lat": 38.92652483333333, "is_reserved": 0, "fusion_lon": 0.0, "fusion_lat": 0.0, "is_disabled": 0, "bike_id": "4d0df28669c9cd43ac44dddc0586ea47", "lon": -76.99751866666666}, {"type": "electric_scooter", "rental_uris": {"android": "https://dc.lft.to/lastmile_qr_scan", "ios": "https://dc.lft.to/lastmile_qr_scan"}, "name": "de7c965795f4a922f0342a43f00386f6", "lat": 38.9005465, "is_reserved": 0, "fusion_lon": 0.0, "fusion_lat": 0.0, "is_disabled": 0, "bike_id": "de7c965795f4a922f0342a43f00386f6", "lon": -77.03360133333334}, {"type": "electric_scooter", "rental_uris": {"android": "https://dc.lft.to/lastmile_qr_scan", "ios": "https://dc.lft.to/lastmile_qr_scan"}, "name": "5240f088ebbee4fe442eb2daa560c8cd", "lat": 38.91978133333333, "is_reserved": 0, "fusion_lon": 0.0, "fusion_lat": 0.0, "is_disabled": 0, "bike_id": "5240f088ebbee4fe442eb2daa560c8cd", "lon": -77.07100766666667}, {"type": "electric_scooter", "rental_uris": {"android": "https://dc.lft.to/lastmile_qr_scan", "ios": "https://dc.lft.to/lastmile_qr_scan"}, "name": "2c97af6c64e6391d7081915047de3626", "lat": 38.89501966666667, "is_reserved": 0, "fusion_lon": 0.0, "fusion_lat": 0.0, "is_disabled": 0, "bike_id": "2c97af6c64e6391d7081915047de3626", "lon": -77.04638566666667}, {"type": "electric_scooter", "rental_uris": {"android": "https://dc.lft.to/lastmile_qr_scan", "ios": "https://dc.lft.to/lastmile_qr_scan"}, "name": "72aa0c9e1bd23de7df49d0ab39be0d17", "lat": 38.90038666666667, "is_reserved": 0, "fusion_lon": 0.0, "fusion_lat": 0.0, "is_disabled": 0, "bike_id": "72aa0c9e1bd23de7df49d0ab39be0d17", "lon": -76.98829483333333}, {"type": "electric_scooter", "rental_uris": {"android": "https://dc.lft.to/lastmile_qr_scan", "ios": "https://dc.lft.to/lastmile_qr_scan"}, "name": "30f2d52bc8403d8537d40cdc3855d451", "lat": 38.90291966666667, "is_reserved": 0, "fusion_lon": 0.0, "fusion_lat": 0.0, "is_disabled": 0, "bike_id": "30f2d52bc8403d8537d40cdc3855d451", "lon": -77.03317433333333}, {"type": "electric_scooter", "rental_uris": {"android": "https://dc.lft.to/lastmile_qr_scan", "ios": "https://dc.lft.to/lastmile_qr_scan"}, "name": "3b495682bb93ad5115f3aa08cf943c46", "lat": 38.89349433333334, "is_reserved": 0, "fusion_lon": 0.0, "fusion_lat": 0.0, "is_disabled": 0, "bike_id": "3b495682bb93ad5115f3aa08cf943c46", "lon": -76.9524325}, {"type": "electric_scooter", "rental_uris": {"android": "https://dc.lft.to/lastmile_qr_scan", "ios": "https://dc.lft.to/lastmile_qr_scan"}, "name": "b29e645e3c95d39e95e23f4d94d89d9e", "lat": 38.925152833333335, "is_reserved": 0, "fusion_lon": 0.0, "fusion_lat": 0.0, "is_disabled": 0, "bike_id": "b29e645e3c95d39e95e23f4d94d89d9e", "lon": -77.02142066666667}, {"type": "electric_scooter", "rental_uris": {"android": "https://dc.lft.to/lastmile_qr_scan", "ios": "https://dc.lft.to/lastmile_qr_scan"}, "name": "b8aa8ab164e4c4a8bee491e560cddd9e", "lat": 38.903831333333336, "is_reserved": 0, "fusion_lon": 0.0, "fusion_lat": 0.0, "is_disabled": 0, "bike_id": "b8aa8ab164e4c4a8bee491e560cddd9e", "lon": -77.06858466666667}, {"type": "electric_scooter", "rental_uris": {"android": "https://dc.lft.to/lastmile_qr_scan", "ios": "https://dc.lft.to/lastmile_qr_scan"}, "name": "257cf2e02cb63ad1a6dd3b94bec4a6e6", "lat": 38.9215405, "is_reserved": 0, "fusion_lon": 0.0, "fusion_lat": 0.0, "is_disabled": 0, "bike_id": "257cf2e02cb63ad1a6dd3b94bec4a6e6", "lon": -77.035269}, {"type": "electric_scooter", "rental_uris": {"android": "https://dc.lft.to/lastmile_qr_scan", "ios": "https://dc.lft.to/lastmile_qr_scan"}, "name": "ffae81ab75889297d1da83a6a054c48f", "lat": 38.9048625, "is_reserved": 0, "fusion_lon": 0.0, "fusion_lat": 0.0, "is_disabled": 0, "bike_id": "ffae81ab75889297d1da83a6a054c48f", "lon": -76.97626916666667}, {"type": "electric_scooter", "rental_uris": {"android": "https://dc.lft.to/lastmile_qr_scan", "ios": "https://dc.lft.to/lastmile_qr_scan"}, "name": "41bb54a7497f2974308f2051e3ecb821", "lat": 38.916382, "is_reserved": 0, "fusion_lon": 0.0, "fusion_lat": 0.0, "is_disabled": 0, "bike_id": "41bb54a7497f2974308f2051e3ecb821", "lon": -77.046081}, {"type": "electric_bike", "rental_uris": {"android": "https://dc.lft.to/lastmile_qr_scan", "ios": "https://dc.lft.to/lastmile_qr_scan"}, "name": "c9ad425cbd5fc9a2eeccd6625c76da8d", "lat": 38.918972833333335, "is_reserved": 0, "fusion_lon": 0.0, "fusion_lat": 0.0, "is_disabled": 0, "bike_id": "c9ad425cbd5fc9a2eeccd6625c76da8d", "lon": -77.10168216666666}, {"type": "electric_scooter", "rental_uris": {"android": "https://dc.lft.to/lastmile_qr_scan", "ios": "https://dc.lft.to/lastmile_qr_scan"}, "name": "6a93d1c061fd3fbfe259c1b8a786fe6c", "lat": 38.924223, "is_reserved": 0, "fusion_lon": 0.0, "fusion_lat": 0.0, "is_disabled": 0, "bike_id": "6a93d1c061fd3fbfe259c1b8a786fe6c", "lon": -77.03618783333333}, {"type": "electric_scooter", "rental_uris": {"android": "https://dc.lft.to/lastmile_qr_scan", "ios": "https://dc.lft.to/lastmile_qr_scan"}, "name": "13275d54a3a501bbec68d61058c0e129", "lat": 38.893632, "is_reserved": 0, "fusion_lon": 0.0, "fusion_lat": 0.0, "is_disabled": 0, "bike_id": "13275d54a3a501bbec68d61058c0e129", "lon": -77.00331116666666}, {"type": "electric_scooter", "rental_uris": {"android": "https://dc.lft.to/lastmile_qr_scan", "ios": "https://dc.lft.to/lastmile_qr_scan"}, "name": "bd8c41989c9e99d2d456042c8864fbf5", "lat": 38.92342416666666, "is_reserved": 0, "fusion_lon": 0.0, "fusion_lat": 0.0, "is_disabled": 0, "bike_id": "bd8c41989c9e99d2d456042c8864fbf5", "lon": -77.0508075}, {"type": "electric_scooter", "rental_uris": {"android": "https://dc.lft.to/lastmile_qr_scan", "ios": "https://dc.lft.to/lastmile_qr_scan"}, "name": "2176706caa23759c6724ae6bfb6f983a", "lat": 38.891033666666665, "is_reserved": 0, "fusion_lon": 0.0, "fusion_lat": 0.0, "is_disabled": 0, "bike_id": "2176706caa23759c6724ae6bfb6f983a", "lon": -77.00208333333333}, {"type": "electric_scooter", "rental_uris": {"android": "https://dc.lft.to/lastmile_qr_scan", "ios": "https://dc.lft.to/lastmile_qr_scan"}, "name": "89bd4ab3c154ad6e455f56dedd954ede", "lat": 38.9242145, "is_reserved": 0, "fusion_lon": 0.0, "fusion_lat": 0.0, "is_disabled": 0, "bike_id": "89bd4ab3c154ad6e455f56dedd954ede", "lon": -77.0195155}, {"type": "electric_bike", "rental_uris": {"android": "https://dc.lft.to/lastmile_qr_scan", "ios": "https://dc.lft.to/lastmile_qr_scan"}, "name": "933b21dc6734eb1ffc65951fd554895e", "lat": 38.838264333333335, "is_reserved": 0, "fusion_lon": 0.0, "fusion_lat": 0.0, "is_disabled": 0, "bike_id": "933b21dc6734eb1ffc65951fd554895e", "lon": -77.079116}, {"type": "electric_scooter", "rental_uris": {"android": "https://dc.lft.to/lastmile_qr_scan", "ios": "https://dc.lft.to/lastmile_qr_scan"}, "name": "f308dd845ed41235fd66d2e431389ae8", "lat": 38.96121333333333, "is_reserved": 0, "fusion_lon": 0.0, "fusion_lat": 0.0, "is_disabled": 0, "bike_id": "f308dd845ed41235fd66d2e431389ae8", "lon": -77.02792366666667}, {"type": "electric_scooter", "rental_uris": {"android": "https://dc.lft.to/lastmile_qr_scan", "ios": "https://dc.lft.to/lastmile_qr_scan"}, "name": "a3df281f2528c0ac231820cca3bfdcd8", "lat": 38.88988783333333, "is_reserved": 0, "fusion_lon": 0.0, "fusion_lat": 0.0, "is_disabled": 0, "bike_id": "a3df281f2528c0ac231820cca3bfdcd8", "lon": -77.00313333333334}, {"type": "electric_scooter", "rental_uris": {"android": "https://dc.lft.to/lastmile_qr_scan", "ios": "https://dc.lft.to/lastmile_qr_scan"}, "name": "d7ef5259b31934b45e6c81ee1eaaf2ad", "lat": 38.895355333333335, "is_reserved": 0, "fusion_lon": 0.0, "fusion_lat": 0.0, "is_disabled": 0, "bike_id": "d7ef5259b31934b45e6c81ee1eaaf2ad", "lon": -77.03348383333334}, {"type": "electric_scooter", "rental_uris": {"android": "https://dc.lft.to/lastmile_qr_scan", "ios": "https://dc.lft.to/lastmile_qr_scan"}, "name": "88ca9ab8f7593e1435a4265aa5c0cc09", "lat": 38.928796, "is_reserved": 0, "fusion_lon": 0.0, "fusion_lat": 0.0, "is_disabled": 0, "bike_id": "88ca9ab8f7593e1435a4265aa5c0cc09", "lon": -77.01379966666667}, {"type": "electric_scooter", "rental_uris": {"android": "https://dc.lft.to/lastmile_qr_scan", "ios": "https://dc.lft.to/lastmile_qr_scan"}, "name": "7d81244c5f5f84568c3f74d669429dfb", "lat": 38.903025166666666, "is_reserved": 0, "fusion_lon": 0.0, "fusion_lat": 0.0, "is_disabled": 0, "bike_id": "7d81244c5f5f84568c3f74d669429dfb", "lon": -77.057989}, {"type": "electric_scooter", "rental_uris": {"android": "https://dc.lft.to/lastmile_qr_scan", "ios": "https://dc.lft.to/lastmile_qr_scan"}, "name": "ceaf09d142074305e4bf100fff8e8461", "lat": 38.921555833333336, "is_reserved": 0, "fusion_lon": 0.0, "fusion_lat": 0.0, "is_disabled": 0, "bike_id": "ceaf09d142074305e4bf100fff8e8461", "lon": -77.04233233333333}, {"type": "electric_scooter", "rental_uris": {"android": "https://dc.lft.to/lastmile_qr_scan", "ios": "https://dc.lft.to/lastmile_qr_scan"}, "name": "a1f4c11af3709cec0d4118f0391e62fd", "lat": 38.884936833333335, "is_reserved": 0, "fusion_lon": 0.0, "fusion_lat": 0.0, "is_disabled": 0, "bike_id": "a1f4c11af3709cec0d4118f0391e62fd", "lon": -77.007111},