{"data": {"bikes": [{"is_disabled": 0, "fusion_lon": 0.0, "fusion_lat": 0.0, "lat": 38.89372483333333, "type": "electric_scooter", "lon": -76.9499135, "bike_id": "5dcc4dddbeb628490b41f7beb72a58d5", "rental_uris": {"android": "https://dc.lft.to/lastmile_qr_scan", "ios": "https://dc.lft.to/lastmile_qr_scan"}, "name": "5dcc4dddbeb628490b41f7beb72a58d5", "is_reserved": 0}, {"is_disabled": 0, "fusion_lon": 0.0, "fusion_lat": 0.0, "lat": 38.92728616666667, "type": "electric_scooter", "lon": -77.022424, "bike_id": "8c6b93a6c2e351ac1e703d6ec1e5cd5f", "rental_uris": {"android": "https://dc.lft.to/lastmile_qr_scan", "ios": "https://dc.lft.to/lastmile_qr_scan"}, "name": "8c6b93a6c2e351ac1e703d6ec1e5cd5f", "is_reserved": 0}, {"is_disabled": 0, "fusion_lon": 0.0, "fusion_lat": 0.0, "lat": 38.93304933333334, "type": "electric_scooter", "lon": -77.03267, "bike_id": "85f927991d569838b0b094046dca29e4", "rental_uris": {"android": "https://dc.lft.to/lastmile_qr_scan", "ios": "https://dc.lft.to/lastmile_qr_scan"}, "name": "85f927991d569838b0b094046dca29e4", "is_reserved": 0}, {"is_disabled": 0, "fusion_lon": 0.0, "fusion_lat": 0.0, "lat": 38.905700333333336, "type": "electric_scooter", "lon": -77.02486516666667, "bike_id": "271ba8c6ca0feba37f2b310d2f196a5a", "rental_uris": {"android": "https://dc.lft.to/lastmile_qr_scan", "ios": "https://dc.lft.to/lastmile_qr_scan"}, "name": "271ba8c6ca0feba37f2b310d2f196a5a", "is_reserved": 0}, {"is_disabled": 0, "fusion_lon": 0.0, "fusion_lat": 0.0, "lat": 38.9287635, "type": "electric_scooter", "lon": -77.014197, "bike_id": "bc697dea9a949598e57f0b570983140b", "rental_uris": {"android": "https://dc.lft.to/lastmile_qr_scan", "ios": "https://dc.lft.to/lastmile_qr_scan"}, "name": "bc697dea9a949598e57f0b570983140b", "is_reserved": 0}, {"is_disabled": 0, "fusion_lon": 0.0, "fusion_lat": 0.0, "lat": 38.918433666666665, "type": "electric_scooter", "lon": -77.02537616666666, "bike_id": "09e1da3df3175581b8e8fdb5870f0214", "rental_uris": {"android": "https://dc.lft.to/lastmile_qr_scan", "ios": "https://dc.lft.to/lastmile_qr_scan"}, "name": "09e1da3df3175581b8e8fdb5870f0214", "is_reserved": 0}, {"is_disabled": 0, "fusion_lon": 0.0, "fusion_lat": 0.0, "lat": 38.9302675, "type": "electric_scooter", "lon": -77.0380375, "bike_id": "4002576b110176b704930c0544473cb2", "rental_uris": {"android": "https://dc.lft.to/lastmile_qr_scan", "ios": "https://dc.lft.to/lastmile_qr_scan"}, "name": "4002576b110176b704930c0544473cb2", "is_reserved": 0}, {"is_disabled": 0, "fusion_lon": 0.0, "fusion_lat": 0.0, "lat": 38.85427816666667, "type": "electric_bike", "lon": -76.90941566666666, "bike_id": "e575b8e9084a2f091002d4bf12ede25b", "rental_uris": {"android": "https://dc.lft.to/lastmile_qr_scan", "ios": "https://dc.lft.to/lastmile_qr_scan"}, "name": "e575b8e9084a2f091002d4bf12ede25b", "is_reserved": 0}, {"is_disabled": 0, "fusion_lon": 0.0, "fusion_lat": 0.0, "lat": 38.861331666666665, "type": "electric_scooter", "lon": -76.985668, "bike_id": "76d3e489179b2330db9a2f7e6c0ba50d", "rental_uris": {"android": "https://dc.lft.to/lastmile_qr_scan", "ios": "https://dc.lft.to/lastmile_qr_scan"}, "name": "76d3e489179b2330db9a2f7e6c0ba50d", "is_reserved": 0}, {"is_disabled": 0, "fusion_lon": 0.0, "fusion_lat": 0.0, "lat": 38.906442, "type": "electric_scooter", "lon": -77.0295975, "bike_id": "b83c5187054e222abc0f87922e7456d6", "rental_uris": {"android": "https://dc.lft.to/lastmile_qr_scan", "ios": "https://dc.lft.to/lastmile_qr_scan"}, "name": "b83c5187054e222abc0f87922e7456d6", "is_reserved": 0}, {"is_disabled": 0, "fusion_lon": 0.0, "fusion_lat": 0.0, "lat": 38.885123166666666, "type": "electric_scooter", "lon": -76.99848733333333, "bike_id": "af80dc76dc1b6606cbe430ff89c38c23", "rental_uris": {"android": "https://dc.lft.to/lastmile_qr_scan", "ios": "https://dc.lft.to/lastmile_qr_scan"}, "name": "af80dc76dc1b6606cbe430ff89c38c23", "is_reserved": 0}, {"is_disabled": 0, "fusion_lon": 0.0, "fusion_lat": 0.0, "lat": 38.8801965, "type": "electric_scooter", "lon": -76.93117466666666, "bike_id": "832d3903a69bd6ab7872affbfae7d046", "rental_uris": {"android": "https://dc.lft.to/lastmile_qr_scan", "ios": "https://dc.lft.to/lastmile_qr_scan"}, "name": "832d3903a69bd6ab7872affbfae7d046", "is_reserved": 0}, {"is_disabled": 0, "fusion_lon": 0.0, "fusion_lat": 0.0, "lat": 38.9058605, "type": "electric_scooter", "lon": -77.02379266666667, "bike_id": "f346c01ff877f5c5e290cc01aeeab290", "rental_uris": {"android": "https://dc.lft.to/lastmile_qr_scan", "ios": "https://dc.lft.to/lastmile_qr_scan"}, "name": "f346c01ff877f5c5e290cc01aeeab290", "is_reserved": 0}, {"is_disabled": 0, "fusion_lon": 0.0, "fusion_lat": 0.0, "lat": 38.9203395, "type": "electric_scooter", "lon": -77.02584666666667, "bike_id": "c52a47540dbdc5adc780eb60b34dec8d", "rental_uris": {"android": "https://dc.lft.to/lastmile_qr_scan", "ios": "https://dc.lft.to/lastmile_qr_scan"}, "name": "c52a47540dbdc5adc780eb60b34dec8d", "is_reserved": 0}, {"is_disabled": 0, "fusion_lon": 0.0, "fusion_lat": 0.0, "lat": 38.8952195, "type": "electric_scooter", "lon": -77.028367, "bike_id": "3c499283d9f2d672c0d584382c5c411a", "rental_uris": {"android": "https://dc.lft.to/lastmile_qr_scan", "ios": "https://dc.lft.to/lastmile_qr_scan"}, "name": "3c499283d9f2d672c0d584382c5c411a", "is_reserved": 0}, {"is_disabled": 0, "fusion_lon": 0.0, "fusion_lat": 0.0, "lat": 38.915337666666666, "type": "electric_scooter", "lon": -77.03195816666667, "bike_id": "1539e3997f986bea98913bee2e74a3e9", "rental_uris": {"android": "https://dc.lft.to/lastmile_qr_scan", "ios": "https://dc.lft.to/lastmile_qr_scan"}, "name": "1539e3997f986bea98913bee2e74a3e9", "is_reserved": 0}, {"is_disabled": 0, "fusion_lon": 0.0, "fusion_lat": 0.0, "lat": 38.85333166666667, "type": "electric_scooter", "lon": -76.96602733333333, "bike_id": "e2ed5e52db0530a8a98c3b7c24318f0b", "rental_uris": {"android": "https://dc.lft.to/lastmile_qr_scan", "ios": "https://dc.lft.to/lastmile_qr_scan"}, "name": "e2ed5e52db0530a8a98c3b7c24318f0b", "is_reserved": 0}, {"is_disabled": 0, "fusion_lon": 0.0, "fusion_lat": 0.0, "lat": 38.98830183333333, "type": "electric_bike", "lon": -76.9874535, "bike_id": "becc1bcb89085606b933b6a212a38da2", "rental_uris": {"android": "https://dc.lft.to/lastmile_qr_scan", "ios": "https://dc.lft.to/lastmile_qr_scan"}, "name": "becc1bcb89085606b933b6a212a38da2", "is_reserved": 0}, {"is_disabled": 0, "fusion_lon": 0.0, "fusion_lat": 0.0, "lat": 38.884203166666666, "type": "electric_scooter", "lon": -77.0247495, "bike_id": "bc2ff67c589984fd26cec319d8bd5a88", "rental_uris": {"android": "https://dc.lft.to/lastmile_qr_scan", "ios": "https://dc.lft.to/lastmile_qr_scan"}, "name": "bc2ff67c589984fd26cec319d8bd5a88", "is_reserved": 0}, {"is_disabled": 0, "fusion_lon": 0.0, "fusion_lat": 0.0, "lat": 38.923805, "type": "electric_scooter", "lon": -77.030246, "bike_id": "2474213427c69797a19ea06954265094", "rental_uris": {"android": "https://dc.lft.to/lastmile_qr_scan", "ios": "https://dc.lft.to/lastmile_qr_scan"}, "name": "2474213427c69797a19ea06954265094", "is_reserved": 0}, {"is_disabled": 0, "fusion_lon": 0.0, "fusion_lat": 0.0, "lat": 38.91814933333333, "type": "electric_scooter", "lon": -77.02692866666666, "bike_id": "473838d92c576fb2147fff2a215782ef", "rental_uris": {"android": "https://dc.lft.to/lastmile_qr_scan", "ios": "https://dc.lft.to/lastmile_qr_scan"}, "name": "473838d92c576fb2147fff2a215782ef", "is_reserved": 0}, {"is_disabled": 0, "fusion_lon": 0.0, "fusion_lat": 0.0, "lat": 38.943336, "type": "electric_bike", "lon": -77.01476516666666, "bike_id": "83bdad36a1b835983621c9ae236b3f76", "rental_uris": {"android": "https://dc.lft.to/lastmile_qr_scan", "ios": "https://dc.lft.to/lastmile_qr_scan"}, "name": "83bdad36a1b835983621c9ae236b3f76", "is_reserved": 0}, {"is_disabled": 0, "fusion_lon": 0.0, "fusion_lat": 0.0, "lat": 38.89535466666667, "type": "electric_scooter", "lon": -77.01520416666666, "bike_id": "ea7541a395ffa01a5b8b2547e210513d", "rental_uris": {"android": "https://dc.lft.to/lastmile_qr_scan", "ios": "https://dc.lft.to/lastmile_qr_scan"}, "name": "ea7541a395ffa01a5b8b2547e210513d", "is_reserved": 0}, {"is_disabled": 0, "fusion_lon": 0.0, "fusion_lat": 0.0, "lat": 38.85286, "type": "electric_bike", "lon": -76.98154716666667, "bike_id": "6fc1a38c2c0143dd5c03a8168f66d531", "rental_uris": {"android": "https://dc.lft.to/lastmile_qr_scan", "ios": "https://dc.lft.to/lastmile_qr_scan"}, "name": "6fc1a38c2c0143dd5c03a8168f66d531", "is_reserved": 0}, {"is_disabled": 0, "fusion_lon": 0.0, "fusion_lat": 0.0, "lat": 38.92111333333333, "type": "electric_scooter", "lon": -77.042215, "bike_id": "c45bc1aa8aa9dcc254757728d1993e99", "rental_uris": {"android": "https://dc.lft.to/lastmile_qr_scan", "ios": "https://dc.lft.to/lastmile_qr_scan"}, "name": "c45bc1aa8aa9dcc254757728d1993e99", "is_reserved": 0}, {"is_disabled": 0, "fusion_lon": 0.0, "fusion_lat": 0.0, "lat": 38.858411333333336, "type": "electric_bike", "lon": -76.99286533333333, "bike_id": "3cebb4a4ea861084b30f359dc2bf5f5c", "rental_uris": {"android": "https://dc.lft.to/lastmile_qr_scan", "ios": "https://dc.lft.to/lastmile_qr_scan"}, "name": "3cebb4a4ea861084b30f359dc2bf5f5c", "is_reserved": 0}, {"is_disabled": 0, "fusion_lon": 0.0, "fusion_lat": 0.0, "lat": 38.883204166666665, "type": "electric_scooter", "lon": -76.94944233333334, "bike_id": "3ec39916ee4dd99d3496ff349471da4a", "rental_uris": {"android": "https://dc.lft.to/lastmile_qr_scan", "ios": "https://dc.lft.to/lastmile_qr_scan"}, "name": "3ec39916ee4dd99d3496ff349471da4a", "is_reserved": 0}, {"is_disabled": 0, "fusion_lon": 0.0, "fusion_lat": 0.0, "lat": 38.90546333333333, "type": "electric_scooter", "lon": -77.04880433333334, "bike_id": "a3bafe64c4bbf20dbc3ec56a26fd8c4c", "rental_uris": {"android": "https://dc.lft.to/lastmile_qr_scan", "ios": "https://dc.lft.to/lastmile_qr_scan"}, "name": "a3bafe64c4bbf20dbc3ec56a26fd8c4c", "is_reserved": 0}, {"is_disabled": 0, "fusion_lon": 0.0, "fusion_lat": 0.0, "lat": 38.914820666666664, "type": "electric_scooter", "lon": -77.03471883333333, "bike_id": "5036d7efb909fbddabc5c8bafba7f557", "rental_uris": {"android": "https://dc.lft.to/lastmile_qr_scan", "ios": "https://dc.lft.to/lastmile_qr_scan"}, "name": "5036d7efb909fbddabc5c8bafba7f557", "is_reserved": 0}, {"is_disabled": 0, "fusion_lon": 0.0, "fusion_lat": 0.0, "lat": 38.8982525, "type": "electric_scooter", "lon": -77.03348366666667, "bike_id": "c09e3a23d8f4f6241ff1fc0f3f64b6f8", "rental_uris": {"android": "https://dc.lft.to/lastmile_qr_scan", "ios": "https://dc.lft.to/lastmile_qr_scan"}, "name": "c09e3a23d8f4f6241ff1fc0f3f64b6f8", "is_reserved": 0}, {"is_disabled": 0, "fusion_lon": 0.0, "fusion_lat": 0.0, "lat": 38.91339116666666, "type": "electric_scooter", "lon": -77.032899, "bike_id": "7ee5737d19f835e45d11dea0693e423f", "rental_uris": {"android": "https://dc.lft.to/lastmile_qr_scan", "ios": "https://dc.lft.to/lastmile_qr_scan"}, "name": "7ee5737d19f835e45d11dea0693e423f", "is_reserved": 0}, {"is_disabled": 0, "fusion_lon": 0.0, "fusion_lat": 0.0, "lat": 38.884248166666666, "type": "electric_scooter", "lon": -76.9541775, "bike_id": "407ebba19278d266173ea0f9f8bf1b31", "rental_uris": {"android": "https://dc.lft.to/lastmile_qr_scan", "ios": "https://dc.lft.to/lastmile_qr_scan"}, "name": "407ebba19278d266173ea0f9f8bf1b31", "is_reserved": 0}, {"is_disabled": 0, "fusion_lon": 0.0, "fusion_lat": 0.0, "lat": 38.918017, "type": "electric_scooter", "lon": -77.0345345, "bike_id": "43d57caa772698290444369f6192c539", "rental_uris": {"android": "https://dc.lft.to/lastmile_qr_scan", "ios": "https://dc.lft.to/lastmile_qr_scan"}, "name": "43d57caa772698290444369f6192c539", "is_reserved": 0}, {"is_disabled": 0, "fusion_lon": 0.0, "fusion_lat": 0.0, "lat": 38.892091, "type": "electric_scooter", "lon": -76.98813283333334, "bike_id": "523a24868f38bd0d02a74279f278949f", "rental_uris": {"android": "https://dc.lft.to/lastmile_qr_scan", "ios": "https://dc.lft.to/lastmile_qr_scan"}, "name": "523a24868f38bd0d02a74279f278949f", "is_reserved": 0}, {"is_disabled": 0, "fusion_lon": 0.0, "fusion_lat": 0.0, "lat": 38.931927, "type": "electric_scooter", "lon": -77.028369, "bike_id": "32ff701d2d5df1a6446ca014063699c2", "rental_uris": {"android": "https://dc.lft.to/lastmile_qr_scan", "ios": "https://dc.lft.to/lastmile_qr_scan"}, "name": "32ff701d2d5df1a6446ca014063699c2", "is_reserved": 0}, {"is_disabled": 0, "fusion_lon": 0.0, "fusion_lat": 0.0, "lat": 39.08847216666667, "type": "electric_bike", "lon": -77.17799283333333, "bike_id": "0a809a351e9069aa59a84fb14c16b240", "rental_uris": {"android": "https://dc.lft.to/lastmile_qr_scan", "ios": "https://dc.lft.to/lastmile_qr_scan"}, "name": "0a809a351e9069aa59a84fb14c16b240", "is_reserved": 0}, {"is_disabled": 0, "fusion_lon": 0.0, "fusion_lat": 0.0, "lat": 38.937003, "type": "electric_bike", "lon": -77.0297815, "bike_id": "b4c3fa7d073b8f1716eaa221a41391d1", "rental_uris": {"android": "https://dc.lft.to/lastmile_qr_scan", "ios": "https://dc.lft.to/lastmile_qr_scan"}, "name": "b4c3fa7d073b8f1716eaa221a41391d1", "is_reserved": 0}, {"is_disabled": 0, "fusion_lon": 0.0, "fusion_lat": 0.0, "lat": 38.9095495, "type": "electric_scooter", "lon": -77.02383133333333, "bike_id": "72f8c80f5ccf83246c45eccfbcd5b378", "rental_uris": {"android": "https://dc.lft.to/lastmile_qr_scan", "ios": "https://dc.lft.to/lastmile_qr_scan"}, "name": "72f8c80f5ccf83246c45eccfbcd5b378", "is_reserved": 0}, {"is_disabled": 0, "fusion_lon": 0.0, "fusion_lat": 0.0, "lat": 38.897489666666665, "type": "electric_scooter", "lon": -77.03345216666666, "bike_id": "da11721891dba8cb6307e90b03cacd79", "rental_uris": {"android": "https://dc.lft.to/lastmile_qr_scan", "ios": "https://dc.lft.to/lastmile_qr_scan"}, "name": "da11721891dba8cb6307e90b03cacd79", "is_reserved": 0}, {"is_disabled": 0, "fusion_lon": 0.0, "fusion_lat": 0.0, "lat": 38.89719066666667, "type": "electric_scooter", "lon": -77.02150816666666, "bike_id": "2b72f3232744cacd7437b8fb2460f945", "rental_uris": {"android": "https://dc.lft.to/lastmile_qr_scan", "ios": "https://dc.lft.to/lastmile_qr_scan"}, "name": "2b72f3232744cacd7437b8fb2460f945", "is_reserved": 0}, {"is_disabled": 0, "fusion_lon": 0.0, "fusion_lat": 0.0, "lat": 38.87719333333333, "type": "electric_scooter", "lon": -77.0174915, "bike_id": "1e98b6791aefab918cad2e3ad5031f1b", "rental_uris": {"android": "https://dc.lft.to/lastmile_qr_scan", "ios": "https://dc.lft.to/lastmile_qr_scan"}, "name": "1e98b6791aefab918cad2e3ad5031f1b", "is_reserved": 0}, {"is_disabled": 0, "fusion_lon": 0.0, "fusion_lat": 0.0, "lat": 38.9121015, "type": "electric_scooter", "lon": -77.000879, "bike_id": "90e7c6a938abb7c53bc7a028745a649a", "rental_uris": {"android": "https://dc.lft.to/lastmile_qr_scan", "ios": "https://dc.lft.to/lastmile_qr_scan"}, "name": "90e7c6a938abb7c53bc7a028745a649a", "is_reserved": 0}, {"is_disabled": 0, "fusion_lon": 0.0, "fusion_lat": 0.0, "lat": 38.884416, "type": "electric_scooter", "lon": -76.9519065, "bike_id": "996d6fda5e32f68f27b45c73afbb088d", "rental_uris": {"android": "https://dc.lft.to/lastmile_qr_scan", "ios": "https://dc.lft.to/lastmile_qr_scan"}, "name": "996d6fda5e32f68f27b45c73afbb088d", "is_reserved": 0}, {"is_disabled": 0, "fusion_lon": 0.0, "fusion_lat": 0.0, "lat": 38.918166, "type": "electric_scooter", "lon": -77.03452266666666, "bike_id": "55841e96d0947ce0653ab00ee203297a", "rental_uris": {"android": "https://dc.lft.to/lastmile_qr_scan", "ios": "https://dc.lft.to/lastmile_qr_scan"}, "name": "55841e96d0947ce0653ab00ee203297a", "is_reserved": 0}, {"is_disabled": 0, "fusion_lon": 0.0, "fusion_lat": 0.0, "lat": 38.9104195, "type": "electric_scooter", "lon": -77.01490116666666, "bike_id": "3b0c7c054526b2ff0d9c122100fc6ace", "rental_uris": {"android": "https://dc.lft.to/lastmile_qr_scan", "ios": "https://dc.lft.to/lastmile_qr_scan"}, "name": "3b0c7c054526b2ff0d9c122100fc6ace", "is_reserved": 0}, {"is_disabled": 0, "fusion_lon": 0.0, "fusion_lat": 0.0, "lat": 38.91347966666667, "type": "electric_scooter", "lon": -77.032094, "bike_id": "669cdf275f85831567882ccf6cb7e28f", "rental_uris": {"android": "https://dc.lft.to/lastmile_qr_scan", "ios": "https://dc.lft.to/lastmile_qr_scan"}, "name": "669cdf275f85831567882ccf6cb7e28f", "is_reserved": 0}, {"is_disabled": 0, "fusion_lon": 0.0, "fusion_lat": 0.0, "lat": 38.92232683333334, "type": "electric_scooter", "lon": -76.97533783333333, "bike_id": "20144d649138b99e1823e64d24894c03", "rental_uris": {"android": "https://dc.lft.to/lastmile_qr_scan", "ios": "https://dc.lft.to/lastmile_qr_scan"}, "name": "20144d649138b99e1823e64d24894c03", "is_reserved": 0}, {"is_disabled": 0, "fusion_lon": 0.0, "fusion_lat": 0.0, "lat": 38.91685733333333, "type": "electric_scooter", "lon": -77.03170383333334, "bike_id": "93309c7634b4d41672150b1f7de54a22", "rental_uris": {"android": "https://dc.lft.to/lastmile_qr_scan", "ios": "https://dc.lft.to/lastmile_qr_scan"}, "name": "93309c7634b4d41672150b1f7de54a22", "is_reserved": 0}, {"is_disabled": 0, "fusion_lon": 0.0, "fusion_lat": 0.0, "lat": 38.91194016666667, "type": "electric_scooter", "lon": -77.03975866666667, "bike_id": "f60b84266517742431347cd3bbb8cde6", "rental_uris": {"android": "https://dc.lft.to/lastmile_qr_scan", "ios": "https://dc.lft.to/lastmile_qr_scan"}, "name": "f60b84266517742431347cd3bbb8cde6", "is_reserved": 0}, {"is_disabled": 0, "fusion_lon": 0.0, "fusion_lat": 0.0, "lat": 38.89734716666667, "type": "electric_scooter", "lon": -77.007482, "bike_id": "c0d4bb4adebf886cfecd2445034c0293", "rental_uris": {"android": "https://dc.lft.to/lastmile_qr_scan", "ios": "https://dc.lft.to/lastmile_qr_scan"}, "name": "c0d4bb4adebf886cfecd2445034c0293", "is_reserved": 0}, {"is_disabled": 0, "fusion_lon": 0.0, "fusion_lat": 0.0, "lat": 38.91267766666667, "type": "electric_scooter", "lon": -77.04155483333334, "bike_id": "99a4a4e9d3e37be4735e5340ec398085", "rental_uris": {"android": "https://dc.lft.to/lastmile_qr_scan", "ios": "https://dc.lft.to/lastmile_qr_scan"}, "name": "99a4a4e9d3e37be4735e5340ec398085", "is_reserved": 0}, {"is_disabled": 0, "fusion_lon": 0.0, "fusion_lat": 0.0, "lat": 38.91697216666667, "type": "electric_scooter", "lon": -77.03587866666666, "bike_id": "15da5239bf9ac6de95ce62bd00d9bb73", "rental_uris": {"android": "https://dc.lft.to/lastmile_qr_scan", "ios": "https://dc.lft.to/lastmile_qr_scan"}, "name": "15da5239bf9ac6de95ce62bd00d9bb73", "is_reserved": 0}, {"is_disabled": 0, "fusion_lon": 0.0, "fusion_lat": 0.0, "lat": 38.91621283333333, "type": "electric_scooter", "lon": -77.04866083333333, "bike_id": "f92d0da61a9adaad46566a0dce302ef3", "rental_uris": {"android": "https://dc.lft.to/lastmile_qr_scan", "ios": "https://dc.lft.to/lastmile_qr_scan"}, "name": "f92d0da61a9adaad46566a0dce302ef3", "is_reserved": 0}, {"is_disabled": 0, "fusion_lon": 0.0, "fusion_lat": 0.0, "lat": 38.833817333333336, "type": "electric_scooter", "lon": -76.993233, "bike_id": "d4e42e33dfb8ee0aa22cde3ccc4d75a3", "rental_uris": {"android": "https://dc.lft.to/lastmile_qr_scan", "ios": "https://dc.lft.to/lastmile_qr_scan"}, "name": "d4e42e33dfb8ee0aa22cde3ccc4d75a3", "is_reserved": 0}, {"is_disabled": 0, "fusion_lon": 0.0, "fusion_lat": 0.0, "lat": 38.917187, "type": "electric_scooter", "lon": -77.03218616666666, "bike_id": "7ec9264bb3c274eb94ff31223f78cb1a", "rental_uris": {"android": "https://dc.lft.to/lastmile_qr_scan", "ios": "https://dc.lft.to/lastmile_qr_scan"}, "name": "7ec9264bb3c274eb94ff31223f78cb1a", "is_reserved": 0}, {"is_disabled": 0, "fusion_lon": 0.0, "fusion_lat": 0.0, "lat": 38.905715, "type": "electric_scooter", "lon": -77.00598966666666, "bike_id": "f7d46871512615681d602479aa18ba6c", "rental_uris": {"android": "https://dc.lft.to/lastmile_qr_scan", "ios": "https://dc.lft.to/lastmile_qr_scan"}, "name": "f7d46871512615681d602479aa18ba6c", "is_reserved": 0}, {"is_disabled": 0, "fusion_lon": 0.0, "fusion_lat": 0.0, "lat": 38.92289433333333, "type": "electric_scooter", "lon": -77.03189466666667, "bike_id": "afbc6d87af10975dd662c7b5c53346ae", "rental_uris": {"android": "https://dc.lft.to/lastmile_qr_scan", "ios": "https://dc.lft.to/lastmile_qr_scan"}, "name": "afbc6d87af10975dd662c7b5c53346ae", "is_reserved": 0}, {"is_disabled": 0, "fusion_lon": 0.0, "fusion_lat": 0.0, "lat": 38.91907583333333, "type": "electric_scooter", "lon": -77.01753566666666, "bike_id": "d21b3fd87728ed522339c096e1badff1", "rental_uris": {"android": "https://dc.lft.to/lastmile_qr_scan", "ios": "https://dc.lft.to/lastmile_qr_scan"}, "name": "d21b3fd87728ed522339c096e1badff1", "is_reserved": 0}, {"is_disabled": 0, "fusion_lon": 0.0, "fusion_lat": 0.0, "lat": 38.91871233333333, "type": "electric_scooter", "lon": -77.036721, "bike_id": "97ecfdcb715ae4b64a380054c0f3dd7f", "rental_uris": {"android": "https://dc.lft.to/lastmile_qr_scan", "ios": "https://dc.lft.to/lastmile_qr_scan"}, "name": "97ecfdcb715ae4b64a380054c0f3dd7f", "is_reserved": 0}, {"is_disabled": 0, "fusion_lon": 0.0, "fusion_lat": 0.0, "lat": 38.926077166666666, "type": "electric_scooter", "lon": -77.02420416666666, "bike_id": "6e427120489aee1f8815c22323058dfa", "rental_uris": {"android": "https://dc.lft.to/lastmile_qr_scan", "ios": "https://dc.lft.to/lastmile_qr_scan"}, "name": "6e427120489aee1f8815c22323058dfa", "is_reserved": 0}, {"is_disabled": 0, "fusion_lon": 0.0, "fusion_lat": 0.0, "lat": 38.913232666666666, "type": "electric_scooter", "lon": -77.03840383333333, "bike_id": "3a90a973c52a29a0e1006483bf41e48b", "rental_uris": {"android": "https://dc.lft.to/lastmile_qr_scan", "ios": "https://dc.lft.to/lastmile_qr_scan"}, "name": "3a90a973c52a29a0e1006483bf41e48b", "is_reserved": 0}, {"is_disabled": 0, "fusion_lon": 0.0, "fusion_lat": 0.0, "lat": 38.90382183333333, "type": "electric_scooter", "lon": -77.04867716666666, "bike_id": "f65c177409f5ab6e3203079aec827d06", "rental_uris": {"android": "https://dc.lft.to/lastmile_qr_scan", "ios": "https://dc.lft.to/lastmile_qr_scan"}, "name": "f65c177409f5ab6e3203079aec827d06", "is_reserved": 0}, {"is_disabled": 0, "fusion_lon": 0.0, "fusion_lat": 0.0, "lat": 38.9143035, "type": "electric_scooter", "lon": -77.031846, "bike_id": "ebee11e9e0e24320deeaf916e47774c5", "rental_uris": {"android": "https://dc.lft.to/lastmile_qr_scan", "ios": "https://dc.lft.to/lastmile_qr_scan"}, "name": "ebee11e9e0e24320deeaf916e47774c5", "is_reserved": 0}, {"is_disabled": 0, "fusion_lon": 0.0, "fusion_lat": 0.0, "lat": 38.905515, "type": "electric_scooter", "lon": -77.05090583333333, "bike_id": "296c1ea27b7839a43727b13beddd1c57", "rental_uris": {"android": "https://dc.lft.to/lastmile_qr_scan", "ios": "https://dc.lft.to/lastmile_qr_scan"}, "name": "296c1ea27b7839a43727b13beddd1c57", "is_reserved": 0}, {"is_disabled": 0, "fusion_lon": 0.0, "fusion_lat": 0.0, "lat": 38.92531483333333, "type": "electric_scooter", "lon": -77.04415, "bike_id": "20b9fd41d12acb139806830278f549ed", "rental_uris": {"android": "https://dc.lft.to/lastmile_qr_scan", "ios": "https://dc.lft.to/lastmile_qr_scan"}, "name": "20b9fd41d12acb139806830278f549ed", "is_reserved": 0}, {"is_disabled": 0, "fusion_lon": 0.0, "fusion_lat": 0.0, "lat": 38.900148, "type": "electric_scooter", "lon": -76.998821, "bike_id": "3aec5103af7d788bc5e1dbd89de8f4f7", "rental_uris": {"android": "https://dc.lft.to/lastmile_qr_scan", "ios": "https://dc.lft.to/lastmile_qr_scan"}, "name": "3aec5103af7d788bc5e1dbd89de8f4f7", "is_reserved": 0}, {"is_disabled": 0, "fusion_lon": 0.0, "fusion_lat": 0.0, "lat": 38.91560583333333, "type": "electric_scooter", "lon": -77.03150616666667, "bike_id": "e85c9cc1ab5ef9dc0b94bc953b3e71cc", "rental_uris": {"android": "https://dc.lft.to/lastmile_qr_scan", "ios": "https://dc.lft.to/lastmile_qr_scan"}, "name": "e85c9cc1ab5ef9dc0b94bc953b3e71cc", "is_reserved": 0}, {"is_disabled": 0, "fusion_lon": 0.0, "fusion_lat": 0.0, "lat": 38.9162715, "type": "electric_scooter", "lon": -77.04023633333334, "bike_id": "1df5d3434044b2a90dfe05c74d503960", "rental_uris": {"android": "https://dc.lft.to/lastmile_qr_scan", "ios": "https://dc.lft.to/lastmile_qr_scan"}, "name": "1df5d3434044b2a90dfe05c74d503960", "is_reserved": 0}, {"is_disabled": 0, "fusion_lon": 0.0, "fusion_lat": 0.0, "lat": 38.89538666666667, "type": "electric_scooter", "lon": -77.04124816666666, "bike_id": "20acef63290881c56d625b6170a40ef4", "rental_uris": {"android": "https://dc.lft.to/lastmile_qr_scan", "ios": "https://dc.lft.to/lastmile_qr_scan"}, "name": "20acef63290881c56d625b6170a40ef4", "is_reserved": 0}, {"is_disabled": 0, "fusion_lon": 0.0, "fusion_lat": 0.0, "lat": 38.8983375, "type": "electric_scooter", "lon": -76.94635066666666, "bike_id": "d5c65b346ba6a1139e85f2fd1f3e48a7", "rental_uris": {"android": "https://dc.lft.to/lastmile_qr_scan", "ios": "https://dc.lft.to/lastmile_qr_scan"}, "name": "d5c65b346ba6a1139e85f2fd1f3e48a7", "is_reserved": 0}, {"is_disabled": 0, "fusion_lon": 0.0, "fusion_lat": 0.0, "lat": 38.9112975, "type": "electric_scooter", "lon": -77.05937866666666, "bike_id": "010285fbf027adaee3186c75724fce7a", "rental_uris": {"android": "https://dc.lft.to/lastmile_qr_scan", "ios": "https://dc.lft.to/lastmile_qr_scan"}, "name": "010285fbf027adaee3186c75724fce7a", "is_reserved": 0}, {"is_disabled": 0, "fusion_lon": 0.0, "fusion_lat": 0.0, "lat": 38.884877, "type": "electric_scooter", "lon": -76.92958633333333, "bike_id": "fcdc3fd8960436f1ce374e4cb2a4c79c", "rental_uris": {"android": "https://dc.lft.to/lastmile_qr_scan", "ios": "https://dc.lft.to/lastmile_qr_scan"}, "name": "fcdc3fd8960436f1ce374e4cb2a4c79c", "is_reserved": 0}, {"is_disabled": 0, "fusion_lon": 0.0, "fusion_lat": 0.0, "lat": 38.9059065, "type": "electric_scooter", "lon": -77.033621, "bike_id": "312800cfee0d285bdcd627855d03ceca", "rental_uris": {"android": "https://dc.lft.to/lastmile_qr_scan", "ios": "https://dc.lft.to/lastmile_qr_scan"}, "name": "312800cfee0d285bdcd627855d03ceca", "is_reserved": 0}, {"is_disabled": 0, "fusion_lon": 0.0, "fusion_lat": 0.0, "lat": 38.90362966666667, "type": "electric_scooter", "lon": -77.062737, "bike_id": "af7206154e2de948489a1eb2b9d8a5e7", "rental_uris": {"android": "https://dc.lft.to/lastmile_qr_scan", "ios": "https://dc.lft.to/lastmile_qr_scan"}, "name": "af7206154e2de948489a1eb2b9d8a5e7", "is_reserved": 0}, {"is_disabled": 0, "fusion_lon": 0.0, "fusion_lat": 0.0, "lat": 38.91858233333333, "type": "electric_scooter", "lon": -77.04166783333334, "bike_id": "9a610bce3328f5002691064d1a12b623", "rental_uris": {"android": "https://dc.lft.to/lastmile_qr_scan", "ios": "https://dc.lft.to/lastmile_qr_scan"}, "name": "9a610bce3328f5002691064d1a12b623", "is_reserved": 0}, {"is_disabled": 0, "fusion_lon": 0.0, "fusion_lat": 0.0, "lat": 38.84517983333333, "type": "electric_bike", "lon": -77.07792933333333, "bike_id": "3772b271550bd1269b05963457462372", "rental_uris": {"android": "https://dc.lft.to/lastmile_qr_scan", "ios": "https://dc.lft.to/lastmile_qr_scan"}, "name": "3772b271550bd1269b05963457462372", "is_reserved": 0}, {"is_disabled": 0, "fusion_lon": 0.0, "fusion_lat": 0.0, "lat": 38.90141066666666, "type": "electric_scooter", "lon": -77.01790733333333, "bike_id": "74bc66bcb9e1318c872779a24f891349", "rental_uris": {"android": "https://dc.lft.to/lastmile_qr_scan", "ios": "https://dc.lft.to/lastmile_qr_scan"}, "name": "74bc66bcb9e1318c872779a24f891349", "is_reserved": 0}, {"is_disabled": 0, "fusion_lon": 0.0, "fusion_lat": 0.0, "lat": 38.91823933333333, "type": "electric_scooter", "lon": -77.01209816666666, "bike_id": "4e6bf30c12b3315421ed0526ccc21ba4", "rental_uris": {"android": "https://dc.lft.to/lastmile_qr_scan", "ios": "https://dc.lft.to/lastmile_qr_scan"}, "name": "4e6bf30c12b3315421ed0526ccc21ba4", "is_reserved": 0}, {"is_disabled": 0, "fusion_lon": 0.0, "fusion_lat": 0.0, "lat": 38.92474, "type": "electric_scooter", "lon": -77.0298715, "bike_id": "73933306e7ed1ca0e11a64aa2c41b991", "rental_uris": {"android": "https://dc.lft.to/lastmile_qr_scan", "ios": "https://dc.lft.to/lastmile_qr_scan"}, "name": "73933306e7ed1ca0e11a64aa2c41b991", "is_reserved": 0}, {"is_disabled": 0, "fusion_lon": 0.0, "fusion_lat": 0.0, "lat": 38.920522166666665, "type": "electric_scooter", "lon": -77.02614833333334, "bike_id": "aa46e945d6b4b14b2f73e37f729358b7", "rental_uris": {"android": "https://dc.lft.to/lastmile_qr_scan", "ios": "https://dc.lft.to/lastmile_qr_scan"}, "name": "aa46e945d6b4b14b2f73e37f729358b7", "is_reserved": 0}, {"is_disabled": 0, "fusion_lon": 0.0, "fusion_lat": 0.0, "lat": 38.908375666666664, "type": "electric_scooter", "lon": -76.996995, "bike_id": "b5a222b2b0d674794f5b77b547db49f7", "rental_uris": {"android": "https://dc.lft.to/lastmile_qr_scan", "ios": "https://dc.lft.to/lastmile_qr_scan"}, "name": "b5a222b2b0d674794f5b77b547db49f7", "is_reserved": 0}, {"is_disabled": 0, "fusion_lon": 0.0, "fusion_lat": 0.0, "lat": 38.90218016666667, "type": "electric_scooter", "lon": -77.02365333333333, "bike_id": "fcf05fd404786fca0939b1e85ffea8f5", "rental_uris": {"android": "https://dc.lft.to/lastmile_qr_scan", "ios": "https://dc.lft.to/lastmile_qr_scan"}, "name": "fcf05fd404786fca0939b1e85ffea8f5", "is_reserved": 0}, {"is_disabled": 0, "fusion_lon": 0.0, "fusion_lat": 0.0, "lat": 38.900343666666664, "type": "electric_scooter", "lon": -76.99832283333333, "bike_id": "a81011fe70ea3967cb22a88fe1a4e7eb", "rental_uris": {"android": "https://dc.lft.to/lastmile_qr_scan", "ios": "https://dc.lft.to/lastmile_qr_scan"}, "name": "a81011fe70ea3967cb22a88fe1a4e7eb", "is_reserved": 0}, {"is_disabled": 0, "fusion_lon": 0.0, "fusion_lat": 0.0, "lat": 38.90407316666667, "type": "electric_scooter", "lon": -77.04637766666667, "bike_id": "fdeb52e855e4593eb0028b4f50c9ac8d", "rental_uris": {"android": "https://dc.lft.to/lastmile_qr_scan", "ios": "https://dc.lft.to/lastmile_qr_scan"}, "name": "fdeb52e855e4593eb0028b4f50c9ac8d", "is_reserved": 0}, {"is_disabled": 0, "fusion_lon": 0.0, "fusion_lat": 0.0, "lat": 38.895848666666666, "type": "electric_scooter", "lon": -77.02306233333333, "bike_id": "b2be24f2700aa84af1562030741fc857", "rental_uris": {"android": "https://dc.lft.to/lastmile_qr_scan", "ios": "https://dc.lft.to/lastmile_qr_scan"}, "name": "b2be24f2700aa84af1562030741fc857", "is_reserved": 0}, {"is_disabled": 0, "fusion_lon": 0.0, "fusion_lat": 0.0, "lat": 38.88744066666667, "type": "electric_scooter", "lon": -76.9962045, "bike_id": "1d02efa46248a7235820dfb5d2376537", "rental_uris": {"android": "https://dc.lft.to/lastmile_qr_scan", "ios": "https://dc.lft.to/lastmile_qr_scan"}, "name": "1d02efa46248a7235820dfb5d2376537", "is_reserved": 0}, {"is_disabled": 0, "fusion_lon": 0.0, "fusion_lat": 0.0, "lat": 38.9325035, "type": "electric_scooter", "lon": -77.0387935, "bike_id": "14042c53a84492452c27aa8f9b53294a", "rental_uris": {"android": "https://dc.lft.to/lastmile_qr_scan", "ios": "https://dc.lft.to/lastmile_qr_scan"}, "name": "14042c53a84492452c27aa8f9b53294a", "is_reserved": 0}, {"is_disabled": 0, "fusion_lon": 0.0, "fusion_lat": 0.0, "lat": 38.92156666666666, "type": "electric_scooter", "lon": -77.03461183333333, "bike_id": "c5111bf4569319909d903d1a52cb930b", "rental_uris": {"android": "https://dc.lft.to/lastmile_qr_scan", "ios": "https://dc.lft.to/lastmile_qr_scan"}, "name": "c5111bf4569319909d903d1a52cb930b", "is_reserved": 0}, {"is_disabled": 0, "fusion_lon": 0.0, "fusion_lat": 0.0, "lat": 38.91034466666667, "type": "electric_scooter", "lon": -77.01476016666666, "bike_id": "da0bd3142cda2d62b3da63b808d97331", "rental_uris": {"android": "https://dc.lft.to/lastmile_qr_scan", "ios": "https://dc.lft.to/lastmile_qr_scan"}, "name": "da0bd3142cda2d62b3da63b808d97331", "is_reserved": 0}, {"is_disabled": 0, "fusion_lon": 0.0, "fusion_lat": 0.0, "lat": 38.936423, "type": "electric_scooter", "lon": -77.03667933333334, "bike_id": "750dea63fc05da1fc0b31b830c5e7df8", "rental_uris": {"android": "https://dc.lft.to/lastmile_qr_scan", "ios": "https://dc.lft.to/lastmile_qr_scan"}, "name": "750dea63fc05da1fc0b31b830c5e7df8", "is_reserved": 0}, {"is_disabled": 0, "fusion_lon": 0.0, "fusion_lat": 0.0, "lat": 38.934170333333334, "type": "electric_scooter", "lon": -77.01965633333333, "bike_id": "cca5b56ea0495bb321a96c1c5bfa303e", "rental_uris": {"android": "https://dc.lft.to/lastmile_qr_scan", "ios": "https://dc.lft.to/lastmile_qr_scan"}, "name": "cca5b56ea0495bb321a96c1c5bfa303e", "is_reserved": 0}, {"is_disabled": 0, "fusion_lon": 0.0, "fusion_lat": 0.0, "lat": 38.865059333333335, "type": "electric_scooter", "lon": -76.99003666666667, "bike_id": "aacbda7306bdbbdbfb91461618480f2c", "rental_uris": {"android": "https://dc.lft.to/lastmile_qr_scan", "ios": "https://dc.lft.to/lastmile_qr_scan"}, "name": "aacbda7306bdbbdbfb91461618480f2c", "is_reserved": 0}, {"is_disabled": 0, "fusion_lon": 0.0, "fusion_lat": 0.0, "lat": 38.925016666666664, "type": "electric_scooter", "lon": -77.039275, "bike_id": "7fd2b13bdb8f58254b5b998350c9a477", "rental_uris": {"android": "https://dc.lft.to/lastmile_qr_scan", "ios": "https://dc.lft.to/lastmile_qr_scan"}, "name": "7fd2b13bdb8f58254b5b998350c9a477", "is_reserved": 0}, {"is_disabled": 0, "fusion_lon": 0.0, "fusion_lat": 0.0, "lat": 39.0526575, "type": "electric_bike", "lon": -77.043854, "bike_id": "2cbcef3b340775b32136da2bde50d525", "rental_uris": {"android": "https://dc.lft.to/lastmile_qr_scan", "ios": "https://dc.lft.to/lastmile_qr_scan"}, "name": "2cbcef3b340775b32136da2bde50d525", "is_reserved": 0}, {"is_disabled": 0, "fusion_lon": 0.0, "fusion_lat": 0.0, "lat": 38.8997155, "type": "electric_scooter", "lon": -77.01637383333333, "bike_id": "e5c659aa3dae50b7ea5204f47d5375bf", "rental_uris": {"android": "https://dc.lft.to/lastmile_qr_scan", "ios": "https://dc.lft.to/lastmile_qr_scan"}, "name": "e5c659aa3dae50b7ea5204f47d5375bf", "is_reserved": 0}, {"is_disabled": 0, "fusion_lon": 0.0, "fusion_lat": 0.0, "lat": 38.9337055, "type": "electric_scooter", "lon": -77.05741466666667, "bike_id": "290d2b70db9247271e2aea6629743a13", "rental_uris": {"android": "https://dc.lft.to/lastmile_qr_scan", "ios": "https://dc.lft.to/lastmile_qr_scan"}, "name": "290d2b70db9247271e2aea6629743a13", "is_reserved": 0}, {"is_disabled": 0, "fusion_lon": 0.0, "fusion_lat": 0.0, "lat": 38.917026, "type": "electric_bike", "lon": -77.09566616666666, "bike_id": "df81fa3551520bbf8fc9fb8b3a025ef3", "rental_uris": {"android": "https://dc.lft.to/lastmile_qr_scan", "ios": "https://dc.lft.to/lastmile_qr_scan"}, "name": "df81fa3551520bbf8fc9fb8b3a025ef3", "is_reserved": 0}, {"is_disabled": 0, "fusion_lon": 0.0, "fusion_lat": 0.0, "lat": 38.94898233333333, "type": "electric_bike", "lon": -76.96363483333333, "bike_id": "becce7f440f855bc81d9b9a7d05dd362", "rental_uris": {"android": "https://dc.lft.to/lastmile_qr_scan", "ios": "https://dc.lft.to/lastmile_qr_scan"}, "name": "becce7f440f855bc81d9b9a7d05dd362", "is_reserved": 0}, {"is_disabled": 0, "fusion_lon": 0.0, "fusion_lat": 0.0, "lat": 38.909599666666665, "type": "electric_scooter", "lon": -77.039557, "bike_id": "7c82f0c767f29704adb7e24ff4598e95", "rental_uris": {"android": "https://dc.lft.to/lastmile_qr_scan", "ios": "https://dc.lft.to/lastmile_qr_scan"}, "name": "7c82f0c767f29704adb7e24ff4598e95", "is_reserved": 0}, {"is_disabled": 0, "fusion_lon": 0.0, "fusion_lat": 0.0, "lat": 38.927692666666665, "type": "electric_scooter", "lon": -77.027879, "bike_id": "faedd406fb29bfcd03f88d395b1a12b3", "rental_uris": {"android": "https://dc.lft.to/lastmile_qr_scan", "ios": "https://dc.lft.to/lastmile_qr_scan"}, "name": "faedd406fb29bfcd03f88d395b1a12b3", "is_reserved": 0}, {"is_disabled": 0, "fusion_lon": 0.0, "fusion_lat": 0.0, "lat": 38.92814416666667, "type": "electric_scooter", "lon": -77.02346383333334, "bike_id": "29526b1f994d61681e9012afd54e3345", "rental_uris": {"android": "https://dc.lft.to/lastmile_qr_scan", "ios": "https://dc.lft.to/lastmile_qr_scan"}, "name": "29526b1f994d61681e9012afd54e3345", "is_reserved": 0}, {"is_disabled": 0, "fusion_lon": 0.0, "fusion_lat": 0.0, "lat": 38.911787333333336, "type": "electric_scooter", "lon": -77.02691183333333, "bike_id": "95565c8d120a7dfa9729f6e4af2b21b9", "rental_uris": {"android": "https://dc.lft.to/lastmile_qr_scan", "ios": "https://dc.lft.to/lastmile_qr_scan"}, "name": "95565c8d120a7dfa9729f6e4af2b21b9", "is_reserved": 0}, {"is_disabled": 0, "fusion_lon": 0.0, "fusion_lat": 0.0, "lat": 38.9066595, "type": "electric_scooter", "lon": -77.00909433333334, "bike_id": "c3a64747baaeb517a780386970b1c812", "rental_uris": {"android": "https://dc.lft.to/lastmile_qr_scan", "ios": "https://dc.lft.to/lastmile_qr_scan"}, "name": "c3a64747baaeb517a780386970b1c812", "is_reserved": 0}, {"is_disabled": 0, "fusion_lon": 0.0, "fusion_lat": 0.0, "lat": 38.9037065, "type": "electric_scooter", "lon": -76.98966883333334, "bike_id": "1e329569475fba939df7b9f1e8f10c4e", "rental_uris": {"android": "https://dc.lft.to/lastmile_qr_scan", "ios": "https://dc.lft.to/lastmile_qr_scan"}, "name": "1e329569475fba939df7b9f1e8f10c4e", "is_reserved": 0}, {"is_disabled": 0, "fusion_lon": 0.0, "fusion_lat": 0.0, "lat": 38.8950825, "type": "electric_scooter", "lon": -76.94880283333333, "bike_id": "07c53974aa1af65ea362ed4a06959ca7", "rental_uris": {"android": "https://dc.lft.to/lastmile_qr_scan", "ios": "https://dc.lft.to/lastmile_qr_scan"}, "name": "07c53974aa1af65ea362ed4a06959ca7", "is_reserved": 0}, {"is_disabled": 0, "fusion_lon": 0.0, "fusion_lat": 0.0, "lat": 38.90881316666667, "type": "electric_scooter", "lon": -77.02689883333333, "bike_id": "7b937d391f4790f53d19b4170652435f", "rental_uris": {"android": "https://dc.lft.to/lastmile_qr_scan", "ios": "https://dc.lft.to/lastmile_qr_scan"}, "name": "7b937d391f4790f53d19b4170652435f", "is_reserved": 0}, {"is_disabled": 0, "fusion_lon": 0.0, "fusion_lat": 0.0, "lat": 38.9420055, "type": "electric_scooter", "lon": -77.01829616666667, "bike_id": "8c503c0c614dd5b9d631836f23c10cdb", "rental_uris": {"android": "https://dc.lft.to/lastmile_qr_scan", "ios": "https://dc.lft.to/lastmile_qr_scan"}, "name": "8c503c0c614dd5b9d631836f23c10cdb", "is_reserved": 0}, {"is_disabled": 0, "fusion_lon": 0.0, "fusion_lat": 0.0, "lat": 38.9146985, "type": "electric_scooter", "lon": -77.01982866666667, "bike_id": "3eb3df2ed58d78f238e813424c8d3f88", "rental_uris": {"android": "https://dc.lft.to/lastmile_qr_scan", "ios": "https://dc.lft.to/lastmile_qr_scan"}, "name": "3eb3df2ed58d78f238e813424c8d3f88", "is_reserved": 0}, {"is_disabled": 0, "fusion_lon": 0.0, "fusion_lat": 0.0, "lat": 38.923616, "type": "electric_bike", "lon": -77.05132633333334, "bike_id": "5ca4f827034ddeed07587bca2c1a1e5a", "rental_uris": {"android": "https://dc.lft.to/lastmile_qr_scan", "ios": "https://dc.lft.to/lastmile_qr_scan"}, "name": "5ca4f827034ddeed07587bca2c1a1e5a", "is_reserved": 0}, {"is_disabled": 0, "fusion_lon": 0.0, "fusion_lat": 0.0, "lat": 38.903628833333336, "type": "electric_scooter", "lon": -77.00343233333334, "bike_id": "632443f7d17536c1249922c746e8ac66", "rental_uris": {"android": "https://dc.lft.to/lastmile_qr_scan", "ios": "https://dc.lft.to/lastmile_qr_scan"}, "name": "632443f7d17536c1249922c746e8ac66", "is_reserved": 0}, {"is_disabled": 0, "fusion_lon": 0.0, "fusion_lat": 0.0, "lat": 38.916991833333334, "type": "electric_scooter", "lon": -77.03340033333333, "bike_id": "008c4331c8e938e0fb8179dd46423a97", "rental_uris": {"android": "https://dc.lft.to/lastmile_qr_scan", "ios": "https://dc.lft.to/lastmile_qr_scan"}, "name": "008c4331c8e938e0fb8179dd46423a97", "is_reserved": 0}, {"is_disabled": 0, "fusion_lon": 0.0, "fusion_lat": 0.0, "lat": 38.93066066666667, "type": "electric_scooter", "lon": -77.02974816666666, "bike_id": "689a3363d11524d241c343951f5b4326", "rental_uris": {"android": "https://dc.lft.to/lastmile_qr_scan", "ios": "https://dc.lft.to/lastmile_qr_scan"}, "name": "689a3363d11524d241c343951f5b4326", "is_reserved": 0}, {"is_disabled": 0, "fusion_lon": 0.0, "fusion_lat": 0.0, "lat": 38.92312066666667, "type": "electric_scooter", "lon": -77.039155, "bike_id": "5f0194cf5d4aca9a87c16ae2ea1ae727", "rental_uris": {"android": "https://dc.lft.to/lastmile_qr_scan", "ios": "https://dc.lft.to/lastmile_qr_scan"}, "name": "5f0194cf5d4aca9a87c16ae2ea1ae727", "is_reserved": 0}, {"is_disabled": 0, "fusion_lon": 0.0, "fusion_lat": 0.0, "lat": 38.89649883333333, "type": "electric_scooter", "lon": -77.0118405, "bike_id": "4baef0f6445a22ee76cc7152ee9cae73", "rental_uris": {"android": "https://dc.lft.to/lastmile_qr_scan", "ios": "https://dc.lft.to/lastmile_qr_scan"}, "name": "4baef0f6445a22ee76cc7152ee9cae73", "is_reserved": 0}, {"is_disabled": 0, "fusion_lon": 0.0, "fusion_lat": 0.0, "lat": 38.8923575, "type": "electric_scooter", "lon": -77.025857, "bike_id": "d1ce3ff455ad582dd8d2b0892f957893", "rental_uris": {"android": "https://dc.lft.to/lastmile_qr_scan", "ios": "https://dc.lft.to/lastmile_qr_scan"}, "name": "d1ce3ff455ad582dd8d2b0892f957893", "is_reserved": 0}, {"is_disabled": 0, "fusion_lon": 0.0, "fusion_lat": 0.0, "lat": 38.90569383333333, "type": "electric_scooter", "lon": -77.03646283333333, "bike_id": "6fe08ec40c740c67ed5117181acdecf7", "rental_uris": {"android": "https://dc.lft.to/lastmile_qr_scan", "ios": "https://dc.lft.to/lastmile_qr_scan"}, "name": "6fe08ec40c740c67ed5117181acdecf7", "is_reserved": 0}, {"is_disabled": 0, "fusion_lon": 0.0, "fusion_lat": 0.0, "lat": 38.92218716666667, "type": "electric_scooter", "lon": -77.03294716666667, "bike_id": "011720d20b03fef0770cf0544c3e1b79", "rental_uris": {"android": "https://dc.lft.to/lastmile_qr_scan", "ios": "https://dc.lft.to/lastmile_qr_scan"}, "name": "011720d20b03fef0770cf0544c3e1b79", "is_reserved": 0}, {"is_disabled": 0, "fusion_lon": 0.0, "fusion_lat": 0.0, "lat": 38.92253933333333, "type": "electric_scooter", "lon": -77.04141816666667, "bike_id": "e4cb772569cec6ca6ec45b6c4a9cf34f", "rental_uris": {"android": "https://dc.lft.to/lastmile_qr_scan", "ios": "https://dc.lft.to/lastmile_qr_scan"}, "name": "e4cb772569cec6ca6ec45b6c4a9cf34f", "is_reserved": 0}, {"is_disabled": 0, "fusion_lon": 0.0, "fusion_lat": 0.0, "lat": 38.921371, "type": "electric_bike", "lon": -76.97532833333334, "bike_id": "b644902643f5bba28e65979a11333813", "rental_uris": {"android": "https://dc.lft.to/lastmile_qr_scan", "ios": "https://dc.lft.to/lastmile_qr_scan"}, "name": "b644902643f5bba28e65979a11333813", "is_reserved": 0}, {"is_disabled": 0, "fusion_lon": 0.0, "fusion_lat": 0.0, "lat": 38.92579416666667, "type": "electric_scooter", "lon": -76.99493583333333, "bike_id": "1087405f912a7eb9e6059c63ba481350", "rental_uris": {"android": "https://dc.lft.to/lastmile_qr_scan", "ios": "https://dc.lft.to/lastmile_qr_scan"}, "name": "1087405f912a7eb9e6059c63ba481350", "is_reserved": 0}, {"is_disabled": 0, "fusion_lon": 0.0, "fusion_lat": 0.0, "lat": 38.920033833333335, "type": "electric_scooter", "lon": -77.025274, "bike_id": "56336c04c39dd91f50fd975f1c1cbc29", "rental_uris": {"android": "https://dc.lft.to/lastmile_qr_scan", "ios": "https://dc.lft.to/lastmile_qr_scan"}, "name": "56336c04c39dd91f50fd975f1c1cbc29", "is_reserved": 0}, {"is_disabled": 0, "fusion_lon": 0.0, "fusion_lat": 0.0, "lat": 38.90797233333333, "type": "electric_scooter", "lon": -77.04988166666666, "bike_id": "c49d8879b1507aef07059ab3d099997e", "rental_uris": {"android": "https://dc.lft.to/lastmile_qr_scan", "ios": "https://dc.lft.to/lastmile_qr_scan"}, "name": "c49d8879b1507aef07059ab3d099997e", "is_reserved": 0}, {"is_disabled": 0, "fusion_lon": 0.0, "fusion_lat": 0.0, "lat": 38.92310883333333, "type": "electric_scooter", "lon": -77.042163, "bike_id": "5cdbd2370a2f402d3030e87cd7443199", "rental_uris": {"android": "https://dc.lft.to/lastmile_qr_scan", "ios": "https://dc.lft.to/lastmile_qr_scan"}, "name": "5cdbd2370a2f402d3030e87cd7443199", "is_reserved": 0}, {"is_disabled": 0, "fusion_lon": 0.0, "fusion_lat": 0.0, "lat": 38.907684833333334, "type": "electric_scooter", "lon": -77.0281825, "bike_id": "5746d78f3c940207eb0ca977ff63a53b", "rental_uris": {"android": "https://dc.lft.to/lastmile_qr_scan", "ios": "https://dc.lft.to/lastmile_qr_scan"}, "name": "5746d78f3c940207eb0ca977ff63a53b", "is_reserved": 0}, {"is_disabled": 0, "fusion_lon": 0.0, "fusion_lat": 0.0, "lat": 38.90043383333333, "type": "electric_scooter", "lon": -76.98846133333333, "bike_id": "8abacc82dff67a13cc979fc23b27d785", "rental_uris": {"android": "https://dc.lft.to/lastmile_qr_scan", "ios": "https://dc.lft.to/lastmile_qr_scan"}, "name": "8abacc82dff67a13cc979fc23b27d785", "is_reserved": 0}, {"is_disabled": 0, "fusion_lon": 0.0, "fusion_lat": 0.0, "lat": 38.91998916666667, "type": "electric_scooter", "lon": -77.03268233333333, "bike_id": "c373f2b72ff96b59245740cb25dc9e2f", "rental_uris": {"android": "https://dc.lft.to/lastmile_qr_scan", "ios": "https://dc.lft.to/lastmile_qr_scan"}, "name": "c373f2b72ff96b59245740cb25dc9e2f", "is_reserved": 0}, {"is_disabled": 0, "fusion_lon": 0.0, "fusion_lat": 0.0, "lat": 38.900011166666665, "type": "electric_scooter", "lon": -76.9223225, "bike_id": "bcfdc850de5f7c3d6d0d7ce2f043209f", "rental_uris": {"android": "https://dc.lft.to/lastmile_qr_scan", "ios": "https://dc.lft.to/lastmile_qr_scan"}, "name": "bcfdc850de5f7c3d6d0d7ce2f043209f", "is_reserved": 0}, {"is_disabled": 0, "fusion_lon": 0.0, "fusion_lat": 0.0, "lat": 38.91811583333333, "type": "electric_scooter", "lon": -77.01020366666667, "bike_id": "221f1c7fc1c74592f20cef98fc0c1327", "rental_uris": {"android": "https://dc.lft.to/lastmile_qr_scan", "ios": "https://dc.lft.to/lastmile_qr_scan"}, "name": "221f1c7fc1c74592f20cef98fc0c1327", "is_reserved": 0}, {"is_disabled": 0, "fusion_lon": 0.0, "fusion_lat": 0.0, "lat": 38.910415666666665, "type": "electric_scooter", "lon": -77.04336983333333, "bike_id": "9cbce93ccada56fb11576dc5468072ef", "rental_uris": {"android": "https://dc.lft.to/lastmile_qr_scan", "ios": "https://dc.lft.to/lastmile_qr_scan"}, "name": "9cbce93ccada56fb11576dc5468072ef", "is_reserved": 0}, {"is_disabled": 0, "fusion_lon": 0.0, "fusion_lat": 0.0, "lat": 38.918064666666666, "type": "electric_scooter", "lon": -77.04034783333333, "bike_id": "ff81146df6ecc4f6b4614d454852ee4a", "rental_uris": {"android": "https://dc.lft.to/lastmile_qr_scan", "ios": "https://dc.lft.to/lastmile_qr_scan"}, "name": "ff81146df6ecc4f6b4614d454852ee4a", "is_reserved": 0}, {"is_disabled": 0, "fusion_lon": 0.0, "fusion_lat": 0.0, "lat": 38.881887666666664, "type": "electric_bike", "lon": -77.10732816666666, "bike_id": "45c11fd6c7150c3b33013b222e0f6ef5", "rental_uris": {"android": "https://dc.lft.to/lastmile_qr_scan", "ios": "https://dc.lft.to/lastmile_qr_scan"}, "name": "45c11fd6c7150c3b33013b222e0f6ef5", "is_reserved": 0}, {"is_disabled": 0, "fusion_lon": 0.0, "fusion_lat": 0.0, "lat": 38.90244366666667, "type": "electric_scooter", "lon": -77.01953566666667, "bike_id": "e6e41b1b2fee2408f6229312a33ca911", "rental_uris": {"android": "https://dc.lft.to/lastmile_qr_scan", "ios": "https://dc.lft.to/lastmile_qr_scan"}, "name": "e6e41b1b2fee2408f6229312a33ca911", "is_reserved": 0}, {"is_disabled": 0, "fusion_lon": 0.0, "fusion_lat": 0.0, "lat": 38.8834415, "type": "electric_scooter", "lon": -76.94177566666667, "bike_id": "4c70b6c3e676e76b1783fa9ebdbc62ef", "rental_uris": {"android": "https://dc.lft.to/lastmile_qr_scan", "ios": "https://dc.lft.to/lastmile_qr_scan"}, "name": "4c70b6c3e676e76b1783fa9ebdbc62ef", "is_reserved": 0}, {"is_disabled": 0, "fusion_lon": 0.0, "fusion_lat": 0.0, "lat": 38.92497783333334, "type": "electric_scooter", "lon": -76.99570783333333, "bike_id": "35aa3a2d78244a29b50a5a59da31e426", "rental_uris": {"android": "https://dc.lft.to/lastmile_qr_scan", "ios": "https://dc.lft.to/lastmile_qr_scan"}, "name": "35aa3a2d78244a29b50a5a59da31e426", "is_reserved": 0}, {"is_disabled": 0, "fusion_lon": 0.0, "fusion_lat": 0.0, "lat": 38.85212833333333, "type": "electric_bike", "lon": -77.10131666666666, "bike_id": "ee0e281da17bd64777a5ced8273cd4b8", "rental_uris": {"android": "https://dc.lft.to/lastmile_qr_scan", "ios": "https://dc.lft.to/lastmile_qr_scan"}, "name": "ee0e281da17bd64777a5ced8273cd4b8", "is_reserved": 0}, {"is_disabled": 0, "fusion_lon": 0.0, "fusion_lat": 0.0, "lat": 38.9297215, "type": "electric_scooter", "lon": -77.04204183333333, "bike_id": "4b397d2266278cae9dbc83e780acd21e", "rental_uris": {"android": "https://dc.lft.to/lastmile_qr_scan", "ios": "https://dc.lft.to/lastmile_qr_scan"}, "name": "4b397d2266278cae9dbc83e780acd21e", "is_reserved": 0}, {"is_disabled": 0, "fusion_lon": 0.0, "fusion_lat": 0.0, "lat": 38.916158333333335, "type": "electric_scooter", "lon": -77.03152466666667, "bike_id": "7a253e2d933f01f3b914cfffd098dc1a", "rental_uris": {"android": "https://dc.lft.to/lastmile_qr_scan", "ios": "https://dc.lft.to/lastmile_qr_scan"}, "name": "7a253e2d933f01f3b914cfffd098dc1a", "is_reserved": 0}, {"is_disabled": 0, "fusion_lon": 0.0, "fusion_lat": 0.0, "lat": 38.94620583333333, "type": "electric_scooter", "lon": -77.03624266666667, "bike_id": "f3ab2aad8bf63fc2178c4b84acbe5dda", "rental_uris": {"android": "https://dc.lft.to/lastmile_qr_scan", "ios": "https://dc.lft.to/lastmile_qr_scan"}, "name": "f3ab2aad8bf63fc2178c4b84acbe5dda", "is_reserved": 0}, {"is_disabled": 0, "fusion_lon": 0.0, "fusion_lat": 0.0, "lat": 38.8669875, "type": "electric_scooter", "lon": -76.9870965, "bike_id": "6dd6ce3176d5948e78cff4826e2253ef", "rental_uris": {"android": "https://dc.lft.to/lastmile_qr_scan", "ios": "https://dc.lft.to/lastmile_qr_scan"}, "name": "6dd6ce3176d5948e78cff4826e2253ef", "is_reserved": 0}, {"is_disabled": 0, "fusion_lon": 0.0, "fusion_lat": 0.0, "lat": 38.93098966666667, "type": "electric_scooter", "lon": -77.02658966666667, "bike_id": "57f58c353b8906cdb2bd4f7e49faa547", "rental_uris": {"android": "https://dc.lft.to/lastmile_qr_scan", "ios": "https://dc.lft.to/lastmile_qr_scan"}, "name": "57f58c353b8906cdb2bd4f7e49faa547", "is_reserved": 0}, {"is_disabled": 0, "fusion_lon": 0.0, "fusion_lat": 0.0, "lat": 38.90388933333333, "type": "electric_scooter", "lon": -77.03018516666667, "bike_id": "9f7c4dd3eb768b07a16fadc9a8fee853", "rental_uris": {"android": "https://dc.lft.to/lastmile_qr_scan", "ios": "https://dc.lft.to/lastmile_qr_scan"}, "name": "9f7c4dd3eb768b07a16fadc9a8fee853", "is_reserved": 0}, {"is_disabled": 0, "fusion_lon": 0.0, "fusion_lat": 0.0, "lat": 38.9202815, "type": "electric_scooter", "lon": -77.03136, "bike_id": "31d284d47ef6e748d0b6bb42c688da07", "rental_uris": {"android": "https://dc.lft.to/lastmile_qr_scan", "ios": "https://dc.lft.to/lastmile_qr_scan"}, "name": "31d284d47ef6e748d0b6bb42c688da07", "is_reserved": 0}, {"is_disabled": 0, "fusion_lon": 0.0, "fusion_lat": 0.0, "lat": 38.869089833333334, "type": "electric_scooter", "lon": -77.01369966666667, "bike_id": "4ac8ac07d9b07cbe3c51fe24e852f266", "rental_uris": {"android": "https://dc.lft.to/lastmile_qr_scan", "ios": "https://dc.lft.to/lastmile_qr_scan"}, "name": "4ac8ac07d9b07cbe3c51fe24e852f266", "is_reserved": 0}, {"is_disabled": 0, "fusion_lon": 0.0, "fusion_lat": 0.0, "lat": 38.9319375, "type": "electric_scooter", "lon": -77.02833816666667, "bike_id": "26562771fba23acf773bba6c50a7581e", "rental_uris": {"android": "https://dc.lft.to/lastmile_qr_scan", "ios": "https://dc.lft.to/lastmile_qr_scan"}, "name": "26562771fba23acf773bba6c50a7581e", "is_reserved": 0}, {"is_disabled": 0, "fusion_lon": 0.0, "fusion_lat": 0.0, "lat": 38.933393833333334, "type": "electric_bike", "lon": -77.0420915, "bike_id": "9c3dbbb831dbb83ca9a943946b5ee108", "rental_uris": {"android": "https://dc.lft.to/lastmile_qr_scan", "ios": "https://dc.lft.to/lastmile_qr_scan"}, "name": "9c3dbbb831dbb83ca9a943946b5ee108", "is_reserved": 0}, {"is_disabled": 0, "fusion_lon": 0.0, "fusion_lat": 0.0, "lat": 38.897775333333335, "type": "electric_scooter", "lon": -77.05010883333334, "bike_id": "69afe881107020a192b0f7b40eebb466", "rental_uris": {"android": "https://dc.lft.to/lastmile_qr_scan", "ios": "https://dc.lft.to/lastmile_qr_scan"}, "name": "69afe881107020a192b0f7b40eebb466", "is_reserved": 0}, {"is_disabled": 0, "fusion_lon": 0.0, "fusion_lat": 0.0, "lat": 38.9001945, "type": "electric_scooter", "lon": -77.0336275, "bike_id": "8939224dd3220726a0db71bb38bd9458", "rental_uris": {"android": "https://dc.lft.to/lastmile_qr_scan", "ios": "https://dc.lft.to/lastmile_qr_scan"}, "name": "8939224dd3220726a0db71bb38bd9458", "is_reserved": 0}, {"is_disabled": 0, "fusion_lon": 0.0, "fusion_lat": 0.0, "lat": 38.924163, "type": "electric_scooter", "lon": -77.02007116666667, "bike_id": "0f11f48fafcae595b89c4490b0b5b350", "rental_uris": {"android": "https://dc.lft.to/lastmile_qr_scan", "ios": "https://dc.lft.to/lastmile_qr_scan"}, "name": "0f11f48fafcae595b89c4490b0b5b350", "is_reserved": 0}, {"is_disabled": 0, "fusion_lon": 0.0, "fusion_lat": 0.0, "lat": 38.917120833333335, "type": "electric_scooter", "lon": -77.032228, "bike_id": "fcd50a636567e8fcbc596864030d3578", "rental_uris": {"android": "https://dc.lft.to/lastmile_qr_scan", "ios": "https://dc.lft.to/lastmile_qr_scan"}, "name": "fcd50a636567e8fcbc596864030d3578", "is_reserved": 0}, {"is_disabled": 0, "fusion_lon": 0.0, "fusion_lat": 0.0, "lat": 38.89683566666667, "type": "electric_scooter", "lon": -76.93530433333333, "bike_id": "57ec76209cd34b8cb1498aaef353fb64", "rental_uris": {"android": "https://dc.lft.to/lastmile_qr_scan", "ios": "https://dc.lft.to/lastmile_qr_scan"}, "name": "57ec76209cd34b8cb1498aaef353fb64", "is_reserved": 0}, {"is_disabled": 0, "fusion_lon": 0.0, "fusion_lat": 0.0, "lat": 38.89732583333333, "type": "electric_scooter", "lon": -77.04682533333333, "bike_id": "d5e0c4ff9a8f9f49f994e2a627c05b2f", "rental_uris": {"android": "https://dc.lft.to/lastmile_qr_scan", "ios": "https://dc.lft.to/lastmile_qr_scan"}, "name": "d5e0c4ff9a8f9f49f994e2a627c05b2f", "is_reserved": 0}, {"is_disabled": 0, "fusion_lon": 0.0, "fusion_lat": 0.0, "lat": 38.87292733333334, "type": "electric_scooter", "lon": -77.00988666666667, "bike_id": "62118eb47385efa00ce94013df55cf43", "rental_uris": {"android": "https://dc.lft.to/lastmile_qr_scan", "ios": "https://dc.lft.to/lastmile_qr_scan"}, "name": "62118eb47385efa00ce94013df55cf43", "is_reserved": 0}, {"is_disabled": 0, "fusion_lon": 0.0, "fusion_lat": 0.0, "lat": 38.90569466666667, "type": "electric_scooter", "lon": -77.0056665, "bike_id": "fd676cd42f87355f45371ee9c7eda009", "rental_uris": {"android": "https://dc.lft.to/lastmile_qr_scan", "ios": "https://dc.lft.to/lastmile_qr_scan"}, "name": "fd676cd42f87355f45371ee9c7eda009", "is_reserved": 0}, {"is_disabled": 0, "fusion_lon": 0.0, "fusion_lat": 0.0, "lat": 38.915671833333334, "type": "electric_scooter", "lon": -77.04167716666667, "bike_id": "9481401b66c8e7d09233bb6afe8de114", "rental_uris": {"android": "https://dc.lft.to/lastmile_qr_scan", "ios": "https://dc.lft.to/lastmile_qr_scan"}, "name": "9481401b66c8e7d09233bb6afe8de114", "is_reserved": 0}, {"is_disabled": 0, "fusion_lon": 0.0, "fusion_lat": 0.0, "lat": 38.904358333333334, "type": "electric_scooter", "lon": -77.02583533333333, "bike_id": "c49ed58ed7b403f9a27d10eb086a4cc4", "rental_uris": {"android": "https://dc.lft.to/lastmile_qr_scan", "ios": "https://dc.lft.to/lastmile_qr_scan"}, "name": "c49ed58ed7b403f9a27d10eb086a4cc4", "is_reserved": 0}, {"is_disabled": 0, "fusion_lon": 0.0, "fusion_lat": 0.0, "lat": 38.917828666666665, "type": "electric_scooter", "lon": -77.0231155, "bike_id": "2d810629f6737be9bca62bc9c5fc346e", "rental_uris": {"android": "https://dc.lft.to/lastmile_qr_scan", "ios": "https://dc.lft.to/lastmile_qr_scan"}, "name": "2d810629f6737be9bca62bc9c5fc346e", "is_reserved": 0}, {"is_disabled": 0, "fusion_lon": 0.0, "fusion_lat": 0.0, "lat": 38.928617833333334, "type": "electric_bike", "lon": -76.98933916666667, "bike_id": "fea3aa2d8f3bd8a8119b3c1a3cdc4210", "rental_uris": {"android": "https://dc.lft.to/lastmile_qr_scan", "ios": "https://dc.lft.to/lastmile_qr_scan"}, "name": "fea3aa2d8f3bd8a8119b3c1a3cdc4210", "is_reserved": 0}, {"is_disabled": 0, "fusion_lon": 0.0, "fusion_lat": 0.0, "lat": 38.88673983333333, "type": "electric_scooter", "lon": -77.0036055, "bike_id": "15db4ab87a9474ec8181753d9dc26eb2", "rental_uris": {"android": "https://dc.lft.to/lastmile_qr_scan", "ios": "https://dc.lft.to/lastmile_qr_scan"}, "name": "15db4ab87a9474ec8181753d9dc26eb2", "is_reserved": 0}, {"is_disabled": 0, "fusion_lon": 0.0, "fusion_lat": 0.0, "lat": 38.9130975, "type": "electric_scooter", "lon": -77.020273, "bike_id": "068830d58f5b757c42aefbc984d1c2cf", "rental_uris": {"android": "https://dc.lft.to/lastmile_qr_scan", "ios": "https://dc.lft.to/lastmile_qr_scan"}, "name": "068830d58f5b757c42aefbc984d1c2cf", "is_reserved": 0}, {"is_disabled": 0, "fusion_lon": 0.0, "fusion_lat": 0.0, "lat": 38.968192, "type": "electric_scooter", "lon": -77.00885666666667, "bike_id": "4a76297ea3468d8cda695f1514e32449", "rental_uris": {"android": "https://dc.lft.to/lastmile_qr_scan", "ios": "https://dc.lft.to/lastmile_qr_scan"}, "name": "4a76297ea3468d8cda695f1514e32449", "is_reserved": 0}, {"is_disabled": 0, "fusion_lon": 0.0, "fusion_lat": 0.0, "lat": 38.89729483333333, "type": "electric_bike", "lon": -76.90537716666667, "bike_id": "bfbc26b7eba2c10b39e0f3bb9697fb08", "rental_uris": {"android": "https://dc.lft.to/lastmile_qr_scan", "ios": "https://dc.lft.to/lastmile_qr_scan"}, "name": "bfbc26b7eba2c10b39e0f3bb9697fb08", "is_reserved": 0}, {"is_disabled": 0, "fusion_lon": 0.0, "fusion_lat": 0.0, "lat": 38.9168445, "type": "electric_scooter", "lon": -77.02697716666667, "bike_id": "baaa1b6287086087ad510778b5899c62", "rental_uris": {"android": "https://dc.lft.to/lastmile_qr_scan", "ios": "https://dc.lft.to/lastmile_qr_scan"}, "name": "baaa1b6287086087ad510778b5899c62", "is_reserved": 0}, {"is_disabled": 0, "fusion_lon": 0.0, "fusion_lat": 0.0, "lat": 38.913605833333335, "type": "electric_scooter", "lon": -77.04154983333333, "bike_id": "bbefa1534d045519c1481ff147d09122", "rental_uris": {"android": "https://dc.lft.to/lastmile_qr_scan", "ios": "https://dc.lft.to/lastmile_qr_scan"}, "name": "bbefa1534d045519c1481ff147d09122", "is_reserved": 0}, {"is_disabled": 0, "fusion_lon": 0.0, "fusion_lat": 0.0, "lat": 38.909798333333335, "type": "electric_scooter", "lon": -77.03440283333333, "bike_id": "46eb5b2deabb2c4ffd6ed16e91b25f90", "rental_uris": {"android": "https://dc.lft.to/lastmile_qr_scan", "ios": "https://dc.lft.to/lastmile_qr_scan"}, "name": "46eb5b2deabb2c4ffd6ed16e91b25f90", "is_reserved": 0}, {"is_disabled": 0, "fusion_lon": 0.0, "fusion_lat": 0.0, "lat": 38.91659966666667, "type": "electric_scooter", "lon": -77.0465375, "bike_id": "4abf9e52b71220d04dbda937de7900d8", "rental_uris": {"android": "https://dc.lft.to/lastmile_qr_scan", "ios": "https://dc.lft.to/lastmile_qr_scan"}, "name": "4abf9e52b71220d04dbda937de7900d8", "is_reserved": 0}, {"is_disabled": 0, "fusion_lon": 0.0, "fusion_lat": 0.0, "lat": 38.91699216666667, "type": "electric_scooter", "lon": -77.04275733333333, "bike_id": "6aa27269d6f8ec568a31ff5e8e38e0ef", "rental_uris": {"android": "https://dc.lft.to/lastmile_qr_scan", "ios": "https://dc.lft.to/lastmile_qr_scan"}, "name": "6aa27269d6f8ec568a31ff5e8e38e0ef", "is_reserved": 0}, {"is_disabled": 0, "fusion_lon": 0.0, "fusion_lat": 0.0, "lat": 38.911139, "type": "electric_scooter", "lon": -77.009222, "bike_id": "551d44334adb41c352a3c3fb5b70ba35", "rental_uris": {"android": "https://dc.lft.to/lastmile_qr_scan", "ios": "https://dc.lft.to/lastmile_qr_scan"}, "name": "551d44334adb41c352a3c3fb5b70ba35", "is_reserved": 0}, {"is_disabled": 0, "fusion_lon": 0.0, "fusion_lat": 0.0, "lat": 39.0521095, "type": "electric_bike", "lon": -77.04411866666666, "bike_id": "6fbae3b8d590c008babcc48b5b91a88c", "rental_uris": {"android": "https://dc.lft.to/lastmile_qr_scan", "ios": "https://dc.lft.to/lastmile_qr_scan"}, "name": "6fbae3b8d590c008babcc48b5b91a88c", "is_reserved": 0}, {"is_disabled": 0, "fusion_lon": 0.0, "fusion_lat": 0.0, "lat": 38.91118266666667, "type": "electric_scooter", "lon": -77.04093766666666, "bike_id": "08ea50d196962801292fb3dbf41f8d27", "rental_uris": {"android": "https://dc.lft.to/lastmile_qr_scan", "ios": "https://dc.lft.to/lastmile_qr_scan"}, "name": "08ea50d196962801292fb3dbf41f8d27", "is_reserved": 0}, {"is_disabled": 0, "fusion_lon": 0.0, "fusion_lat": 0.0, "lat": 38.92753616666667, "type": "electric_scooter", "lon": -77.07594616666667, "bike_id": "aa29ce49cc74a05e393b5b6dc2c6d683", "rental_uris": {"android": "https://dc.lft.to/lastmile_qr_scan", "ios": "https://dc.lft.to/lastmile_qr_scan"}, "name": "aa29ce49cc74a05e393b5b6dc2c6d683", "is_reserved": 0}, {"is_disabled": 0, "fusion_lon": 0.0, "fusion_lat": 0.0, "lat": 38.956332333333336, "type": "electric_scooter", "lon": -77.0298265, "bike_id": "6cf8d10dc49d3c61bcc88ba68ee5d4ca", "rental_uris": {"android": "https://dc.lft.to/lastmile_qr_scan", "ios": "https://dc.lft.to/lastmile_qr_scan"}, "name": "6cf8d10dc49d3c61bcc88ba68ee5d4ca", "is_reserved": 0}, {"is_disabled": 0, "fusion_lon": 0.0, "fusion_lat": 0.0, "lat": 38.932516, "type": "electric_scooter", "lon": -77.03269383333334, "bike_id": "5894ec81588a96db16a730b09e1b4aa4", "rental_uris": {"android": "https://dc.lft.to/lastmile_qr_scan", "ios": "https://dc.lft.to/lastmile_qr_scan"}, "name": "5894ec81588a96db16a730b09e1b4aa4", "is_reserved": 0}, {"is_disabled": 0, "fusion_lon": 0.0, "fusion_lat": 0.0, "lat": 38.91367866666667, "type": "electric_scooter", "lon": -77.03954816666666, "bike_id": "ae62f19719c19a252447567cc414840a", "rental_uris": {"android": "https://dc.lft.to/lastmile_qr_scan", "ios": "https://dc.lft.to/lastmile_qr_scan"}, "name": "ae62f19719c19a252447567cc414840a", "is_reserved": 0}, {"is_disabled": 0, "fusion_lon": 0.0, "fusion_lat": 0.0, "lat": 38.883706833333335, "type": "electric_bike", "lon": -77.03082116666667, "bike_id": "46c33ad2e23a80a7189ce270ddbc10a2", "rental_uris": {"android": "https://dc.lft.to/lastmile_qr_scan", "ios": "https://dc.lft.to/lastmile_qr_scan"}, "name": "46c33ad2e23a80a7189ce270ddbc10a2", "is_reserved": 0}, {"is_disabled": 0, "fusion_lon": 0.0, "fusion_lat": 0.0, "lat": 38.87917366666667, "type": "electric_scooter", "lon": -77.0068565, "bike_id": "55a329b7b618f88fb0d4e04f230141cb", "rental_uris": {"android": "https://dc.lft.to/lastmile_qr_scan", "ios": "https://dc.lft.to/lastmile_qr_scan"}, "name": "55a329b7b618f88fb0d4e04f230141cb", "is_reserved": 0}, {"is_disabled": 0, "fusion_lon": 0.0, "fusion_lat": 0.0, "lat": 38.846057, "type": "electric_bike", "lon": -76.96888416666667, "bike_id": "9777a14100ea9fa4f6d45532753756e7", "rental_uris": {"android": "https://dc.lft.to/lastmile_qr_scan", "ios": "https://dc.lft.to/lastmile_qr_scan"}, "name": "9777a14100ea9fa4f6d45532753756e7", "is_reserved": 0}, {"is_disabled": 0, "fusion_lon": 0.0, "fusion_lat": 0.0, "lat": 38.88739366666667, "type": "electric_scooter", "lon": -77.01534266666667, "bike_id": "471376df72332c478823228a786e5c20", "rental_uris": {"android": "https://dc.lft.to/lastmile_qr_scan", "ios": "https://dc.lft.to/lastmile_qr_scan"}, "name": "471376df72332c478823228a786e5c20", "is_reserved": 0}, {"is_disabled": 0, "fusion_lon": 0.0, "fusion_lat": 0.0, "lat": 38.91072966666667, "type": "electric_scooter", "lon": -76.98523533333334, "bike_id": "843245bd180314b39880bab82cb6b001", "rental_uris": {"android": "https://dc.lft.to/lastmile_qr_scan", "ios": "https://dc.lft.to/lastmile_qr_scan"}, "name": "843245bd180314b39880bab82cb6b001", "is_reserved": 0}, {"is_disabled": 0, "fusion_lon": 0.0, "fusion_lat": 0.0, "lat": 38.87385366666667, "type": "electric_scooter", "lon": -77.00197283333334, "bike_id": "6bbcdb515c80606c622961758563356f", "rental_uris": {"android": "https://dc.lft.to/lastmile_qr_scan", "ios": "https://dc.lft.to/lastmile_qr_scan"}, "name": "6bbcdb515c80606c622961758563356f", "is_reserved": 0}, {"is_disabled": 0, "fusion_lon": 0.0, "fusion_lat": 0.0, "lat": 38.963096, "type": "electric_bike", "lon": -77.057622, "bike_id": "1b466f92bee2a4f7df6406277894a834", "rental_uris": {"android": "https://dc.lft.to/lastmile_qr_scan", "ios": "https://dc.lft.to/lastmile_qr_scan"}, "name": "1b466f92bee2a4f7df6406277894a834", "is_reserved": 0}, {"is_disabled": 0, "fusion_lon": 0.0, "fusion_lat": 0.0, "lat": 38.89239033333333, "type": "electric_scooter", "lon": -77.03176883333333, "bike_id": "73d324e362de75533d298f96b8699f3d", "rental_uris": {"android": "https://dc.lft.to/lastmile_qr_scan", "ios": "https://dc.lft.to/lastmile_qr_scan"}, "name": "73d324e362de75533d298f96b8699f3d", "is_reserved": 0}, {"is_disabled": 0, "fusion_lon": 0.0, "fusion_lat": 0.0, "lat": 38.86843866666667, "type": "electric_bike", "lon": -77.097309, "bike_id": "86299af7075800aa9681aaca47cdf301", "rental_uris": {"android": "https://dc.lft.to/lastmile_qr_scan", "ios": "https://dc.lft.to/lastmile_qr_scan"}, "name": "86299af7075800aa9681aaca47cdf301", "is_reserved": 0}, {"is_disabled": 0, "fusion_lon": 0.0, "fusion_lat": 0.0, "lat": 38.905549, "type": "electric_scooter", "lon": -77.02966683333334, "bike_id": "63419072f5ba04c53a546ce57fb9c9e3", "rental_uris": {"android": "https://dc.lft.to/lastmile_qr_scan", "ios": "https://dc.lft.to/lastmile_qr_scan"}, "name": "63419072f5ba04c53a546ce57fb9c9e3", "is_reserved": 0}, {"is_disabled": 0, "fusion_lon": 0.0, "fusion_lat": 0.0, "lat": 38.8825545, "type": "electric_scooter", "lon": -77.00344433333333, "bike_id": "5f56a7bf40eac3664130ec2dcfe0f54e", "rental_uris": {"android": "https://dc.lft.to/lastmile_qr_scan", "ios": "https://dc.lft.to/lastmile_qr_scan"}, "name": "5f56a7bf40eac3664130ec2dcfe0f54e", "is_reserved": 0}, {"is_disabled": 0, "fusion_lon": 0.0, "fusion_lat": 0.0, "lat": 38.833512999999996, "type": "electric_bike", "lon": -76.96558966666667, "bike_id": "cb9814de371f223003b606a218a8294b", "rental_uris": {"android": "https://dc.lft.to/lastmile_qr_scan", "ios": "https://dc.lft.to/lastmile_qr_scan"}, "name": "cb9814de371f223003b606a218a8294b", "is_reserved": 0}, {"is_disabled": 0, "fusion_lon": 0.0, "fusion_lat": 0.0, "lat": 38.87922183333333, "type": "electric_scooter", "lon": -77.0081885, "bike_id": "b6ddc468cf151018b8c035410236bc6a", "rental_uris": {"android": "https://dc.lft.to/lastmile_qr_scan", "ios": "https://dc.lft.to/lastmile_qr_scan"}, "name": "b6ddc468cf151018b8c035410236bc6a", "is_reserved": 0}, {"is_disabled": 0, "fusion_lon": 0.0, "fusion_lat": 0.0, "lat": 38.901371166666664, "type": "electric_scooter", "lon": -77.03048183333334, "bike_id": "890911216c33399502ab67716876164d", "rental_uris": {"android": "https://dc.lft.to/lastmile_qr_scan", "ios": "https://dc.lft.to/lastmile_qr_scan"}, "name": "890911216c33399502ab67716876164d", "is_reserved": 0}, {"is_disabled": 0, "fusion_lon": 0.0, "fusion_lat": 0.0, "lat": 38.879237, "type": "electric_scooter", "lon": -77.00054583333333, "bike_id": "a7aa1758084ca2f84fd31f31af8eafc5", "rental_uris": {"android": "https://dc.lft.to/lastmile_qr_scan", "ios": "https://dc.lft.to/lastmile_qr_scan"}, "name": "a7aa1758084ca2f84fd31f31af8eafc5", "is_reserved": 0}, {"is_disabled": 0, "fusion_lon": 0.0, "fusion_lat": 0.0, "lat": 38.922481166666664, "type": "electric_scooter", "lon": -77.03074583333333, "bike_id": "05836a34a4b328b37bac3966d95ae36d", "rental_uris": {"android": "https://dc.lft.to/lastmile_qr_scan", "ios": "https://dc.lft.to/lastmile_qr_scan"}, "name": "05836a34a4b328b37bac3966d95ae36d", "is_reserved": 0}, {"is_disabled": 0, "fusion_lon": 0.0, "fusion_lat": 0.0, "lat": 38.9049595, "type": "electric_scooter", "lon": -77.02941416666667, "bike_id": "8e794f9c57b99b09d90cf667ad531a82", "rental_uris": {"android": "https://dc.lft.to/lastmile_qr_scan", "ios": "https://dc.lft.to/lastmile_qr_scan"}, "name": "8e794f9c57b99b09d90cf667ad531a82", "is_reserved": 0}, {"is_disabled": 0, "fusion_lon": 0.0, "fusion_lat": 0.0, "lat": 38.9455445, "type": "electric_scooter", "lon": -77.04236883333333, "bike_id": "85c842754ceb404a08b8de4398f41f70", "rental_uris": {"android": "https://dc.lft.to/lastmile_qr_scan", "ios": "https://dc.lft.to/lastmile_qr_scan"}, "name": "85c842754ceb404a08b8de4398f41f70", "is_reserved": 0}, {"is_disabled": 0, "fusion_lon": 0.0, "fusion_lat": 0.0, "lat": 38.91874216666667, "type": "electric_bike", "lon": -76.960925, "bike_id": "085161d25f3eaf168c214a1b6ea25472", "rental_uris": {"android": "https://dc.lft.to/lastmile_qr_scan", "ios": "https://dc.lft.to/lastmile_qr_scan"}, "name": "085161d25f3eaf168c214a1b6ea25472", "is_reserved": 0}, {"is_disabled": 0, "fusion_lon": 0.0, "fusion_lat": 0.0, "lat": 38.95060016666667, "type": "electric_bike", "lon": -76.96736416666667, "bike_id": "77fb04ef020bf36c7637d22fe8bf0ea2", "rental_uris": {"android": "https://dc.lft.to/lastmile_qr_scan", "ios": "https://dc.lft.to/lastmile_qr_scan"}, "name": "77fb04ef020bf36c7637d22fe8bf0ea2", "is_reserved": 0}, {"is_disabled": 0, "fusion_lon": 0.0, "fusion_lat": 0.0, "lat": 38.90427433333333, "type": "electric_scooter", "lon": -77.02571083333333, "bike_id": "e94e3c327fe80d248dc8fff018a61839", "rental_uris": {"android": "https://dc.lft.to/lastmile_qr_scan", "ios": "https://dc.lft.to/lastmile_qr_scan"}, "name": "e94e3c327fe80d248dc8fff018a61839", "is_reserved": 0}, {"is_disabled": 0, "fusion_lon": 0.0, "fusion_lat": 0.0, "lat": 38.93307566666667, "type": "electric_scooter", "lon": -77.02133866666667, "bike_id": "6dadc7390297867b4a6b977b32b293f1", "rental_uris": {"android": "https://dc.lft.to/lastmile_qr_scan", "ios": "https://dc.lft.to/lastmile_qr_scan"}, "name": "6dadc7390297867b4a6b977b32b293f1", "is_reserved": 0}, {"is_disabled": 0, "fusion_lon": 0.0, "fusion_lat": 0.0, "lat": 38.94579266666667, "type": "electric_bike", "lon": -76.96030016666667, "bike_id": "cb7d6353c2b8a2ea9e4a5b42c32730d3", "rental_uris": {"android": "https://dc.lft.to/lastmile_qr_scan", "ios": "https://dc.lft.to/lastmile_qr_scan"}, "name": "cb7d6353c2b8a2ea9e4a5b42c32730d3", "is_reserved": 0}, {"is_disabled": 0, "fusion_lon": 0.0, "fusion_lat": 0.0, "lat": 38.990658, "type": "electric_bike", "lon": -77.10029033333333, "bike_id": "94b0bda4797ebaef2c289692408f6d4e", "rental_uris": {"android": "https://dc.lft.to/lastmile_qr_scan", "ios": "https://dc.lft.to/lastmile_qr_scan"}, "name": "94b0bda4797ebaef2c289692408f6d4e", "is_reserved": 0}, {"is_disabled": 0, "fusion_lon": 0.0, "fusion_lat": 0.0, "lat": 38.86358833333333, "type": "electric_scooter", "lon": -76.9907285, "bike_id": "3c5eee2a79a940329379bf8571bc0728", "rental_uris": {"android": "https://dc.lft.to/lastmile_qr_scan", "ios": "https://dc.lft.to/lastmile_qr_scan"}, "name": "3c5eee2a79a940329379bf8571bc0728", "is_reserved": 0}, {"is_disabled": 0, "fusion_lon": 0.0, "fusion_lat": 0.0, "lat": 38.90363833333333, "type": "electric_scooter", "lon": -77.03984266666667, "bike_id": "de55688784f26850ded31ff9c63c1fcb", "rental_uris": {"android": "https://dc.lft.to/lastmile_qr_scan", "ios": "https://dc.lft.to/lastmile_qr_scan"}, "name": "de55688784f26850ded31ff9c63c1fcb", "is_reserved": 0}, {"is_disabled": 0, "fusion_lon": 0.0, "fusion_lat": 0.0, "lat": 38.95601683333334, "type": "electric_scooter", "lon": -77.0098225, "bike_id": "8c2839d4390a313edaf618977f58ef35", "rental_uris": {"android": "https://dc.lft.to/lastmile_qr_scan", "ios": "https://dc.lft.to/lastmile_qr_scan"}, "name": "8c2839d4390a313edaf618977f58ef35", "is_reserved": 0}, {"is_disabled": 0, "fusion_lon": 0.0, "fusion_lat": 0.0, "lat": 38.91136083333333, "type": "electric_scooter", "lon": -77.02193733333333, "bike_id": "b7a88c75f450708de9085da349a83b47", "rental_uris": {"android": "https://dc.lft.to/lastmile_qr_scan", "ios": "https://dc.lft.to/lastmile_qr_scan"}, "name": "b7a88c75f450708de9085da349a83b47", "is_reserved": 0}, {"is_disabled": 0, "fusion_lon": 0.0, "fusion_lat": 0.0, "lat": 38.918372, "type": "electric_scooter", "lon": -77.03514883333334, "bike_id": "70faf2516949b570b1b67b3d940f12ea", "rental_uris": {"android": "https://dc.lft.to/lastmile_qr_scan", "ios": "https://dc.lft.to/lastmile_qr_scan"}, "name": "70faf2516949b570b1b67b3d940f12ea", "is_reserved": 0}, {"is_disabled": 0, "fusion_lon": 0.0, "fusion_lat": 0.0, "lat": 38.9122125, "type": "electric_scooter", "lon": -77.032057, "bike_id": "3779a957a34631191aeb26a716ad2dda", "rental_uris": {"android": "https://dc.lft.to/lastmile_qr_scan", "ios": "https://dc.lft.to/lastmile_qr_scan"}, "name": "3779a957a34631191aeb26a716ad2dda", "is_reserved": 0}, {"is_disabled": 0, "fusion_lon": 0.0, "fusion_lat": 0.0, "lat": 38.91546666666667, "type": "electric_scooter", "lon": -77.03851433333334, "bike_id": "b6a9c03c48884cfd9b1717e195be3e82", "rental_uris": {"android": "https://dc.lft.to/lastmile_qr_scan", "ios": "https://dc.lft.to/lastmile_qr_scan"}, "name": "b6a9c03c48884cfd9b1717e195be3e82", "is_reserved": 0}, {"is_disabled": 0, "fusion_lon": 0.0, "fusion_lat": 0.0, "lat": 38.874972166666666, "type": "electric_bike", "lon": -77.049042, "bike_id": "ad13ec7fb1c15a61d4fdc390ebe27571", "rental_uris": {"android": "https://dc.lft.to/lastmile_qr_scan", "ios": "https://dc.lft.to/lastmile_qr_scan"}, "name": "ad13ec7fb1c15a61d4fdc390ebe27571", "is_reserved": 0}, {"is_disabled": 0, "fusion_lon": 0.0, "fusion_lat": 0.0, "lat": 38.90249583333333, "type": "electric_scooter", "lon": -77.06255116666667, "bike_id": "62e4c077afa7a957b495a5083739c9ac", "rental_uris": {"android": "https://dc.lft.to/lastmile_qr_scan", "ios": "https://dc.lft.to/lastmile_qr_scan"}, "name": "62e4c077afa7a957b495a5083739c9ac", "is_reserved": 0}, {"is_disabled": 0, "fusion_lon": 0.0, "fusion_lat": 0.0, "lat": 38.911309833333334, "type": "electric_scooter", "lon": -77.037521, "bike_id": "0c230a285bb467c138d94d21beaeea4e", "rental_uris": {"android": "https://dc.lft.to/lastmile_qr_scan", "ios": "https://dc.lft.to/lastmile_qr_scan"}, "name": "0c230a285bb467c138d94d21beaeea4e", "is_reserved": 0}, {"is_disabled": 0, "fusion_lon": 0.0, "fusion_lat": 0.0, "lat": 38.96209133333333, "type": "electric_scooter", "lon": -77.02798566666667, "bike_id": "fa8a1b18a6e25d8c7fe28fa0b42baa8f", "rental_uris": {"android": "https://dc.lft.to/lastmile_qr_scan", "ios": "https://dc.lft.to/lastmile_qr_scan"}, "name": "fa8a1b18a6e25d8c7fe28fa0b42baa8f", "is_reserved": 0}, {"is_disabled": 0, "fusion_lon": 0.0, "fusion_lat": 0.0, "lat": 38.92784183333333, "type": "electric_scooter", "lon": -77.01411266666666, "bike_id": "1a227f5cbc0f994ae354fcd893d43138", "rental_uris": {"android": "https://dc.lft.to/lastmile_qr_scan", "ios": "https://dc.lft.to/lastmile_qr_scan"}, "name": "1a227f5cbc0f994ae354fcd893d43138", "is_reserved": 0}, {"is_disabled": 0, "fusion_lon": 0.0, "fusion_lat": 0.0, "lat": 38.990897333333336, "type": "electric_bike", "lon": -76.87495433333333, "bike_id": "727872d5201cd36c55ee1726c7f22f4e", "rental_uris": {"android": "https://dc.lft.to/lastmile_qr_scan", "ios": "https://dc.lft.to/lastmile_qr_scan"}, "name": "727872d5201cd36c55ee1726c7f22f4e", "is_reserved": 0}, {"is_disabled": 0, "fusion_lon": 0.0, "fusion_lat": 0.0, "lat": 38.925918833333334, "type": "electric_scooter", "lon": -77.02563433333333, "bike_id": "2ad87bfc6bc047c5d99cbb707a00e33c", "rental_uris": {"android": "https://dc.lft.to/lastmile_qr_scan", "ios": "https://dc.lft.to/lastmile_qr_scan"}, "name": "2ad87bfc6bc047c5d99cbb707a00e33c", "is_reserved": 0}, {"is_disabled": 0, "fusion_lon": 0.0, "fusion_lat": 0.0, "lat": 38.918386, "type": "electric_scooter", "lon": -77.032185, "bike_id": "3a5014c1090c225d5767cfe9f9734f81", "rental_uris": {"android": "https://dc.lft.to/lastmile_qr_scan", "ios": "https://dc.lft.to/lastmile_qr_scan"}, "name": "3a5014c1090c225d5767cfe9f9734f81", "is_reserved": 0}, {"is_disabled": 0, "fusion_lon": 0.0, "fusion_lat": 0.0, "lat": 38.90049883333333, "type": "electric_scooter", "lon": -77.00192016666666, "bike_id": "36785fc92cdc46272d11afdbcf761446", "rental_uris": {"android": "https://dc.lft.to/lastmile_qr_scan", "ios": "https://dc.lft.to/lastmile_qr_scan"}, "name": "36785fc92cdc46272d11afdbcf761446", "is_reserved": 0}, {"is_disabled": 0, "fusion_lon": 0.0, "fusion_lat": 0.0, "lat": 38.90700316666667, "type": "electric_bike", "lon": -76.9519645, "bike_id": "810ea46bccf7efc5eab5f25ca869d762", "rental_uris": {"android": "https://dc.lft.to/lastmile_qr_scan", "ios": "https://dc.lft.to/lastmile_qr_scan"}, "name": "810ea46bccf7efc5eab5f25ca869d762", "is_reserved": 0}, {"is_disabled": 0, "fusion_lon": 0.0, "fusion_lat": 0.0, "lat": 38.92092783333333, "type": "electric_scooter", "lon": -77.02595683333334, "bike_id": "07947d4d69bf8c779827ee28042c0467", "rental_uris": {"android": "https://dc.lft.to/lastmile_qr_scan", "ios": "https://dc.lft.to/lastmile_qr_scan"}, "name": "07947d4d69bf8c779827ee28042c0467", "is_reserved": 0}, {"is_disabled": 0, "fusion_lon": 0.0, "fusion_lat": 0.0, "lat": 38.92241583333333, "type": "electric_scooter", "lon": -77.0366615, "bike_id": "77e1ee0ad8a839f0f25d1e18173e8e89", "rental_uris": {"android": "https://dc.lft.to/lastmile_qr_scan", "ios": "https://dc.lft.to/lastmile_qr_scan"}, "name": "77e1ee0ad8a839f0f25d1e18173e8e89", "is_reserved": 0}, {"is_disabled": 0, "fusion_lon": 0.0, "fusion_lat": 0.0, "lat": 38.9198655, "type": "electric_scooter", "lon": -77.04163566666666, "bike_id": "8229b30f3a57fc1da15e0fea1f0810fa", "rental_uris": {"android": "https://dc.lft.to/lastmile_qr_scan", "ios": "https://dc.lft.to/lastmile_qr_scan"}, "name": "8229b30f3a57fc1da15e0fea1f0810fa", "is_reserved": 0}, {"is_disabled": 0, "fusion_lon": 0.0, "fusion_lat": 0.0, "lat": 38.908428666666666, "type": "electric_scooter", "lon": -77.03446483333333, "bike_id": "775f3d8ad6ccd9a15b0a9204ae40c88c", "rental_uris": {"android": "https://dc.lft.to/lastmile_qr_scan", "ios": "https://dc.lft.to/lastmile_qr_scan"}, "name": "775f3d8ad6ccd9a15b0a9204ae40c88c", "is_reserved": 0}, {"is_disabled": 0, "fusion_lon": 0.0, "fusion_lat": 0.0, "lat": 38.89579833333333, "type": "electric_bike", "lon": -76.9761665, "bike_id": "12c3dd20f9ba667b0cfd50eeb10c3e18", "rental_uris": {"android": "https://dc.lft.to/lastmile_qr_scan", "ios": "https://dc.lft.to/lastmile_qr_scan"}, "name": "12c3dd20f9ba667b0cfd50eeb10c3e18", "is_reserved": 0}, {"is_disabled": 0, "fusion_lon": 0.0, "fusion_lat": 0.0, "lat": 38.9068785, "type": "electric_scooter", "lon": -77.037627, "bike_id": "4f63d69165bf6dd916f3f678870d5b57", "rental_uris": {"android": "https://dc.lft.to/lastmile_qr_scan", "ios": "https://dc.lft.to/lastmile_qr_scan"}, "name": "4f63d69165bf6dd916f3f678870d5b57", "is_reserved": 0}, {"is_disabled": 0, "fusion_lon": 0.0, "fusion_lat": 0.0, "lat": 38.88450516666666, "type": "electric_scooter", "lon": -76.95101633333333, "bike_id": "84907732f8a7a14c3c1e8bdc8977915d", "rental_uris": {"android": "https://dc.lft.to/lastmile_qr_scan", "ios": "https://dc.lft.to/lastmile_qr_scan"}, "name": "84907732f8a7a14c3c1e8bdc8977915d", "is_reserved": 0}, {"is_disabled": 0, "fusion_lon": 0.0, "fusion_lat": 0.0, "lat": 38.923508, "type": "electric_scooter", "lon": -77.039012, "bike_id": "59f522c3364d473c03741812109a6f20", "rental_uris": {"android": "https://dc.lft.to/lastmile_qr_scan", "ios": "https://dc.lft.to/lastmile_qr_scan"}, "name": "59f522c3364d473c03741812109a6f20", "is_reserved": 0}, {"is_disabled": 0, "fusion_lon": 0.0, "fusion_lat": 0.0, "lat": 38.90098966666667, "type": "electric_scooter", "lon": -77.04761166666667, "bike_id": "b3488749437876cde9df81df902af761", "rental_uris": {"android": "https://dc.lft.to/lastmile_qr_scan", "ios": "https://dc.lft.to/lastmile_qr_scan"}, "name": "b3488749437876cde9df81df902af761", "is_reserved": 0}, {"is_disabled": 0, "fusion_lon": 0.0, "fusion_lat": 0.0, "lat": 38.877135, "type": "electric_scooter", "lon": -77.017472, "bike_id": "888b0c4a991c072176f201cdc6cffb81", "rental_uris": {"android": "https://dc.lft.to/lastmile_qr_scan", "ios": "https://dc.lft.to/lastmile_qr_scan"}, "name": "888b0c4a991c072176f201cdc6cffb81", "is_reserved": 0}, {"is_disabled": 0, "fusion_lon": 0.0, "fusion_lat": 0.0, "lat": 38.90855166666667, "type": "electric_scooter", "lon": -77.04361316666666, "bike_id": "5122ceae2c028dc6b81e8cc45cd63d00", "rental_uris": {"android": "https://dc.lft.to/lastmile_qr_scan", "ios": "https://dc.lft.to/lastmile_qr_scan"}, "name": "5122ceae2c028dc6b81e8cc45cd63d00", "is_reserved": 0}, {"is_disabled": 0, "fusion_lon": 0.0, "fusion_lat": 0.0, "lat": 38.93416466666667, "type": "electric_scooter", "lon": -77.04269583333334, "bike_id": "d6981d9428b6218d4b5f291590a98b22", "rental_uris": {"android": "https://dc.lft.to/lastmile_qr_scan", "ios": "https://dc.lft.to/lastmile_qr_scan"}, "name": "d6981d9428b6218d4b5f291590a98b22", "is_reserved": 0}, {"is_disabled": 0, "fusion_lon": 0.0, "fusion_lat": 0.0, "lat": 38.935636833333334, "type": "electric_scooter", "lon": -77.02493, "bike_id": "907635b76cc5a2f1c99edf6c7af5fe54", "rental_uris": {"android": "https://dc.lft.to/lastmile_qr_scan", "ios": "https://dc.lft.to/lastmile_qr_scan"}, "name": "907635b76cc5a2f1c99edf6c7af5fe54", "is_reserved": 0}, {"is_disabled": 0, "fusion_lon": 0.0, "fusion_lat": 0.0, "lat": 38.91190433333333, "type": "electric_scooter", "lon": -77.04160083333333, "bike_id": "ec2a9ffb699645ae85fe9030e854cd6e", "rental_uris": {"android": "https://dc.lft.to/lastmile_qr_scan", "ios": "https://dc.lft.to/lastmile_qr_scan"}, "name": "ec2a9ffb699645ae85fe9030e854cd6e", "is_reserved": 0}, {"is_disabled": 0, "fusion_lon": 0.0, "fusion_lat": 0.0, "lat": 38.89427116666667, "type": "electric_scooter", "lon": -76.91218233333333, "bike_id": "6a884e29311d5549b5d5ef368efe364e", "rental_uris": {"android": "https://dc.lft.to/lastmile_qr_scan", "ios": "https://dc.lft.to/lastmile_qr_scan"}, "name": "6a884e29311d5549b5d5ef368efe364e", "is_reserved": 0}, {"is_disabled": 0, "fusion_lon": 0.0, "fusion_lat": 0.0, "lat": 38.937071333333336, "type": "electric_scooter", "lon": -77.0610135, "bike_id": "a988bb6cd9337537da727d47a17efc9c", "rental_uris": {"android": "https://dc.lft.to/lastmile_qr_scan", "ios": "https://dc.lft.to/lastmile_qr_scan"}, "name": "a988bb6cd9337537da727d47a17efc9c", "is_reserved": 0}, {"is_disabled": 0, "fusion_lon": 0.0, "fusion_lat": 0.0, "lat": 38.838157833333334, "type": "electric_scooter", "lon": -77.0043325, "bike_id": "75856ae0ee2bf994db320cb3fbc2f885", "rental_uris": {"android": "https://dc.lft.to/lastmile_qr_scan", "ios": "https://dc.lft.to/lastmile_qr_scan"}, "name": "75856ae0ee2bf994db320cb3fbc2f885", "is_reserved": 0}, {"is_disabled": 0, "fusion_lon": 0.0, "fusion_lat": 0.0, "lat": 38.920751333333335, "type": "electric_scooter", "lon": -77.02406083333334, "bike_id": "0a664bcc161a39e3c5258605a961e6a4", "rental_uris": {"android": "https://dc.lft.to/lastmile_qr_scan", "ios": "https://dc.lft.to/lastmile_qr_scan"}, "name": "0a664bcc161a39e3c5258605a961e6a4", "is_reserved": 0}, {"is_disabled": 0, "fusion_lon": 0.0, "fusion_lat": 0.0, "lat": 38.9369615, "type": "electric_scooter", "lon": -77.02373166666666, "bike_id": "b7e64c8e4f5049867f8096b12f762b63", "rental_uris": {"android": "https://dc.lft.to/lastmile_qr_scan", "ios": "https://dc.lft.to/lastmile_qr_scan"}, "name": "b7e64c8e4f5049867f8096b12f762b63", "is_reserved": 0}, {"is_disabled": 0, "fusion_lon": 0.0, "fusion_lat": 0.0, "lat": 38.89533083333333, "type": "electric_scooter", "lon": -77.01128616666666, "bike_id": "510645eb53d7bb5b74711b99ef7138b6", "rental_uris": {"android": "https://dc.lft.to/lastmile_qr_scan", "ios": "https://dc.lft.to/lastmile_qr_scan"}, "name": "510645eb53d7bb5b74711b99ef7138b6", "is_reserved": 0}, {"is_disabled": 0, "fusion_lon": 0.0, "fusion_lat": 0.0, "lat": 38.89225366666667, "type": "electric_scooter", "lon": -77.0435905, "bike_id": "1b53788bac87f6be0bf9eb18e0218f05", "rental_uris": {"android": "https://dc.lft.to/lastmile_qr_scan", "ios": "https://dc.lft.to/lastmile_qr_scan"}, "name": "1b53788bac87f6be0bf9eb18e0218f05", "is_reserved": 0}, {"is_disabled": 0, "fusion_lon": 0.0, "fusion_lat": 0.0, "lat": 38.905023666666665, "type": "electric_scooter", "lon": -77.0295225, "bike_id": "8e3f0d0fb728318bf00d258671ee3757", "rental_uris": {"android": "https://dc.lft.to/lastmile_qr_scan", "ios": "https://dc.lft.to/lastmile_qr_scan"}, "name": "8e3f0d0fb728318bf00d258671ee3757", "is_reserved": 0}, {"is_disabled": 0, "fusion_lon": 0.0, "fusion_lat": 0.0, "lat": 38.92828033333333, "type": "electric_scooter", "lon": -77.0370465, "bike_id": "f97985a01c328f8e92a75a9b67f4ef1c", "rental_uris": {"android": "https://dc.lft.to/lastmile_qr_scan", "ios": "https://dc.lft.to/lastmile_qr_scan"}, "name": "f97985a01c328f8e92a75a9b67f4ef1c", "is_reserved": 0}, {"is_disabled": 0, "fusion_lon": 0.0, "fusion_lat": 0.0, "lat": 38.92597766666667, "type": "electric_scooter", "lon": -77.0553415, "bike_id": "83aa1e042d18a048f1aab1ee4c280a82", "rental_uris": {"android": "https://dc.lft.to/lastmile_qr_scan", "ios": "https://dc.lft.to/lastmile_qr_scan"}, "name": "83aa1e042d18a048f1aab1ee4c280a82", "is_reserved": 0}, {"is_disabled": 0, "fusion_lon": 0.0, "fusion_lat": 0.0, "lat": 38.8766155, "type": "electric_scooter", "lon": -77.00392916666667, "bike_id": "84dfc03c3cbf70b6473033cafc0e7366", "rental_uris": {"android": "https://dc.lft.to/lastmile_qr_scan", "ios": "https://dc.lft.to/lastmile_qr_scan"}, "name": "84dfc03c3cbf70b6473033cafc0e7366", "is_reserved": 0}, {"is_disabled": 0, "fusion_lon": 0.0, "fusion_lat": 0.0, "lat": 38.91710116666667, "type": "electric_scooter", "lon": -77.0243765, "bike_id": "078f8590b66d0bce2a4dc36d18782bb0", "rental_uris": {"android": "https://dc.lft.to/lastmile_qr_scan", "ios": "https://dc.lft.to/lastmile_qr_scan"}, "name": "078f8590b66d0bce2a4dc36d18782bb0", "is_reserved": 0}, {"is_disabled": 0, "fusion_lon": 0.0, "fusion_lat": 0.0, "lat": 38.91887666666667, "type": "electric_scooter", "lon": -77.04176616666666, "bike_id": "c961d855845bb2684dbcdf385bca8e0b", "rental_uris": {"android": "https://dc.lft.to/lastmile_qr_scan", "ios": "https://dc.lft.to/lastmile_qr_scan"}, "name": "c961d855845bb2684dbcdf385bca8e0b", "is_reserved": 0}, {"is_disabled": 0, "fusion_lon": 0.0, "fusion_lat": 0.0, "lat": 38.82877666666667, "type": "electric_bike", "lon": -77.11223916666667, "bike_id": "ed079f97fab801f537994d1d73be3217", "rental_uris": {"android": "https://dc.lft.to/lastmile_qr_scan", "ios": "https://dc.lft.to/lastmile_qr_scan"}, "name": "ed079f97fab801f537994d1d73be3217", "is_reserved": 0}, {"is_disabled": 0, "fusion_lon": 0.0, "fusion_lat": 0.0, "lat": 38.90729533333333, "type": "electric_scooter", "lon": -77.04247583333333, "bike_id": "08b28e3ce5e4f48bbb95bc6f4418af82", "rental_uris": {"android": "https://dc.lft.to/lastmile_qr_scan", "ios": "https://dc.lft.to/lastmile_qr_scan"}, "name": "08b28e3ce5e4f48bbb95bc6f4418af82", "is_reserved": 0}, {"is_disabled": 0, "fusion_lon": 0.0, "fusion_lat": 0.0, "lat": 38.90735866666667, "type": "electric_scooter", "lon": -77.03183516666667, "bike_id": "8efabf3ac4368e2a2f57f7dca784e3d9", "rental_uris": {"android": "https://dc.lft.to/lastmile_qr_scan", "ios": "https://dc.lft.to/lastmile_qr_scan"}, "name": "8efabf3ac4368e2a2f57f7dca784e3d9", "is_reserved": 0}, {"is_disabled": 0, "fusion_lon": 0.0, "fusion_lat": 0.0, "lat": 38.90270116666667, "type": "electric_scooter", "lon": -77.03458783333333, "bike_id": "c4ddcdcc133c3e100a75b52fe4344adc", "rental_uris": {"android": "https://dc.lft.to/lastmile_qr_scan", "ios": "https://dc.lft.to/lastmile_qr_scan"}, "name": "c4ddcdcc133c3e100a75b52fe4344adc", "is_reserved": 0}, {"is_disabled": 0, "fusion_lon": 0.0, "fusion_lat": 0.0, "lat": 38.831937, "type": "electric_bike", "lon": -77.07685566666666, "bike_id": "534c4857596afceaada09f69c5580013", "rental_uris": {"android": "https://dc.lft.to/lastmile_qr_scan", "ios": "https://dc.lft.to/lastmile_qr_scan"}, "name": "534c4857596afceaada09f69c5580013", "is_reserved": 0}, {"is_disabled": 0, "fusion_lon": 0.0, "fusion_lat": 0.0, "lat": 38.91340066666667, "type": "electric_scooter", "lon": -77.04860983333333, "bike_id": "cc08ced1786fe97fd3999adbce58ad7b", "rental_uris": {"android": "https://dc.lft.to/lastmile_qr_scan", "ios": "https://dc.lft.to/lastmile_qr_scan"}, "name": "cc08ced1786fe97fd3999adbce58ad7b", "is_reserved": 0}, {"is_disabled": 0, "fusion_lon": 0.0, "fusion_lat": 0.0, "lat": 38.955543666666664, "type": "electric_bike", "lon": -76.9354045, "bike_id": "e045b9aa3b1de495c0d05f9af49b30f8", "rental_uris": {"android": "https://dc.lft.to/lastmile_qr_scan", "ios": "https://dc.lft.to/lastmile_qr_scan"}, "name": "e045b9aa3b1de495c0d05f9af49b30f8", "is_reserved": 0}, {"is_disabled": 0, "fusion_lon": 0.0, "fusion_lat": 0.0, "lat": 38.833184333333335, "type": "electric_scooter", "lon": -77.00003383333333, "bike_id": "edefef36815c15bc0ec6c9fa31835841", "rental_uris": {"android": "https://dc.lft.to/lastmile_qr_scan", "ios": "https://dc.lft.to/lastmile_qr_scan"}, "name": "edefef36815c15bc0ec6c9fa31835841", "is_reserved": 0}, {"is_disabled": 0, "fusion_lon": 0.0, "fusion_lat": 0.0, "lat": 38.91808133333333, "type": "electric_scooter", "lon": -77.034405, "bike_id": "9d2b9365f815f6c1bbbc646f39dc7b4a", "rental_uris": {"android": "https://dc.lft.to/lastmile_qr_scan", "ios": "https://dc.lft.to/lastmile_qr_scan"}, "name": "9d2b9365f815f6c1bbbc646f39dc7b4a", "is_reserved": 0}, {"is_disabled": 0, "fusion_lon": 0.0, "fusion_lat": 0.0, "lat": 38.906006166666664, "type": "electric_scooter", "lon": -77.0637265, "bike_id": "05c5a9151fd3374422a5add7098cc1ac", "rental_uris": {"android": "https://dc.lft.to/lastmile_qr_scan", "ios": "https://dc.lft.to/lastmile_qr_scan"}, "name": "05c5a9151fd3374422a5add7098cc1ac", "is_reserved": 0}, {"is_disabled": 0, "fusion_lon": 0.0, "fusion_lat": 0.0, "lat": 38.8986955, "type": "electric_scooter", "lon": -77.03136716666667, "bike_id": "a8b08f5ed030f9f8fceb9a711d2caaad", "rental_uris": {"android": "https://dc.lft.to/lastmile_qr_scan", "ios": "https://dc.lft.to/lastmile_qr_scan"}, "name": "a8b08f5ed030f9f8fceb9a711d2caaad", "is_reserved": 0}, {"is_disabled": 0, "fusion_lon": 0.0, "fusion_lat": 0.0, "lat": 38.945265, "type": "electric_scooter", "lon": -77.02978983333334, "bike_id": "4c04a05d2a68c809936157aceada795c", "rental_uris": {"android": "https://dc.lft.to/lastmile_qr_scan", "ios": "https://dc.lft.to/lastmile_qr_scan"}, "name": "4c04a05d2a68c809936157aceada795c", "is_reserved": 0}, {"is_disabled": 0, "fusion_lon": 0.0, "fusion_lat": 0.0, "lat": 38.901252666666664, "type": "electric_scooter", "lon": -77.041708, "bike_id": "84238ac64e3ecd0de50b58073e0c933a", "rental_uris": {"android": "https://dc.lft.to/lastmile_qr_scan", "ios": "https://dc.lft.to/lastmile_qr_scan"}, "name": "84238ac64e3ecd0de50b58073e0c933a", "is_reserved": 0}, {"is_disabled": 0, "fusion_lon": 0.0, "fusion_lat": 0.0, "lat": 38.907692, "type": "electric_scooter", "lon": -77.03840516666666, "bike_id": "aec7d0f5556e4cc37e5eb98c8bcdbaa0", "rental_uris": {"android": "https://dc.lft.to/lastmile_qr_scan", "ios": "https://dc.lft.to/lastmile_qr_scan"}, "name": "aec7d0f5556e4cc37e5eb98c8bcdbaa0", "is_reserved": 0}, {"is_disabled": 0, "fusion_lon": 0.0, "fusion_lat": 0.0, "lat": 38.910241666666664, "type": "electric_scooter", "lon": -77.03649183333333, "bike_id": "8e51b071b9f21904714a38e0b3de123e", "rental_uris": {"android": "https://dc.lft.to/lastmile_qr_scan", "ios": "https://dc.lft.to/lastmile_qr_scan"}, "name": "8e51b071b9f21904714a38e0b3de123e", "is_reserved": 0}, {"is_disabled": 0, "fusion_lon": 0.0, "fusion_lat": 0.0, "lat": 38.88378616666667, "type": "electric_scooter", "lon": -76.92375016666666, "bike_id": "d8598a60ca670ab4529b15dbea896698", "rental_uris": {"android": "https://dc.lft.to/lastmile_qr_scan", "ios": "https://dc.lft.to/lastmile_qr_scan"}, "name": "d8598a60ca670ab4529b15dbea896698", "is_reserved": 0}, {"is_disabled": 0, "fusion_lon": 0.0, "fusion_lat": 0.0, "lat": 38.88375216666667, "type": "electric_scooter", "lon": -77.01950866666667, "bike_id": "9e457dcbaff59b4d5c03092d74c1bc06", "rental_uris": {"android": "https://dc.lft.to/lastmile_qr_scan", "ios": "https://dc.lft.to/lastmile_qr_scan"}, "name": "9e457dcbaff59b4d5c03092d74c1bc06", "is_reserved": 0}, {"is_disabled": 0, "fusion_lon": 0.0, "fusion_lat": 0.0, "lat": 38.924142833333335, "type": "electric_scooter", "lon": -76.9974205, "bike_id": "7294f4e94bb2be9e2da1b4752af45f84", "rental_uris": {"android": "https://dc.lft.to/lastmile_qr_scan", "ios": "https://dc.lft.to/lastmile_qr_scan"}, "name": "7294f4e94bb2be9e2da1b4752af45f84", "is_reserved": 0}, {"is_disabled": 0, "fusion_lon": 0.0, "fusion_lat": 0.0, "lat": 38.90274183333333, "type": "electric_scooter", "lon": -77.03625733333334, "bike_id": "6871c366291dbbca235f34b9569555a2", "rental_uris": {"android": "https://dc.lft.to/lastmile_qr_scan", "ios": "https://dc.lft.to/lastmile_qr_scan"}, "name": "6871c366291dbbca235f34b9569555a2", "is_reserved": 0}, {"is_disabled": 0, "fusion_lon": 0.0, "fusion_lat": 0.0, "lat": 38.90688383333333, "type": "electric_scooter", "lon": -77.03115083333333, "bike_id": "76c4d8e5fc75dd6b201862ac820219c5", "rental_uris": {"android": "https://dc.lft.to/lastmile_qr_scan", "ios": "https://dc.lft.to/lastmile_qr_scan"}, "name": "76c4d8e5fc75dd6b201862ac820219c5", "is_reserved": 0}, {"is_disabled": 0, "fusion_lon": 0.0, "fusion_lat": 0.0, "lat": 38.902084333333335, "type": "electric_scooter", "lon": -76.9818625, "bike_id": "35519caf8fbb6f19fbbf79cee657ba84", "rental_uris": {"android": "https://dc.lft.to/lastmile_qr_scan", "ios": "https://dc.lft.to/lastmile_qr_scan"}, "name": "35519caf8fbb6f19fbbf79cee657ba84", "is_reserved": 0}, {"is_disabled": 0, "fusion_lon": 0.0, "fusion_lat": 0.0, "lat": 38.9267185, "type": "electric_bike", "lon": -77.00814583333333, "bike_id": "829e8d89668f7b7b1045340cd6ba4643", "rental_uris": {"android": "https://dc.lft.to/lastmile_qr_scan", "ios": "https://dc.lft.to/lastmile_qr_scan"}, "name": "829e8d89668f7b7b1045340cd6ba4643", "is_reserved": 0}, {"is_disabled": 0, "fusion_lon": 0.0, "fusion_lat": 0.0, "lat": 38.900673166666664, "type": "electric_scooter", "lon": -77.0489045, "bike_id": "cab5f06826cd6e6f1222308612ea94ea", "rental_uris": {"android": "https://dc.lft.to/lastmile_qr_scan", "ios": "https://dc.lft.to/lastmile_qr_scan"}, "name": "cab5f06826cd6e6f1222308612ea94ea", "is_reserved": 0}, {"is_disabled": 0, "fusion_lon": 0.0, "fusion_lat": 0.0, "lat": 38.922921, "type": "electric_scooter", "lon": -77.029567, "bike_id": "a7dda1261c0d94da0379afaa23a643a5", "rental_uris": {"android": "https://dc.lft.to/lastmile_qr_scan", "ios": "https://dc.lft.to/lastmile_qr_scan"}, "name": "a7dda1261c0d94da0379afaa23a643a5", "is_reserved": 0}, {"is_disabled": 0, "fusion_lon": 0.0, "fusion_lat": 0.0, "lat": 38.92599366666666, "type": "electric_scooter", "lon": -77.02526816666666, "bike_id": "a816620fb08dd8fb616a34486301cb6f", "rental_uris": {"android": "https://dc.lft.to/lastmile_qr_scan", "ios": "https://dc.lft.to/lastmile_qr_scan"}, "name": "a816620fb08dd8fb616a34486301cb6f", "is_reserved": 0}, {"is_disabled": 0, "fusion_lon": 0.0, "fusion_lat": 0.0, "lat": 38.9095425, "type": "electric_scooter", "lon": -77.04875683333333, "bike_id": "4694bbf8c0bccf888125296f96637eb6", "rental_uris": {"android": "https://dc.lft.to/lastmile_qr_scan", "ios": "https://dc.lft.to/lastmile_qr_scan"}, "name": "4694bbf8c0bccf888125296f96637eb6", "is_reserved": 0}, {"is_disabled": 0, "fusion_lon": 0.0, "fusion_lat": 0.0, "lat": 38.91457533333333, "type": "electric_scooter", "lon": -76.984432, "bike_id": "951b353d0eb015faaa2cfd7a00b5b792", "rental_uris": {"android": "https://dc.lft.to/lastmile_qr_scan", "ios": "https://dc.lft.to/lastmile_qr_scan"}, "name": "951b353d0eb015faaa2cfd7a00b5b792", "is_reserved": 0}, {"is_disabled": 0, "fusion_lon": 0.0, "fusion_lat": 0.0, "lat": 38.92576616666667, "type": "electric_scooter", "lon": -77.08063816666666, "bike_id": "e093fffb3c28a2a6404acdd4fd4437a7", "rental_uris": {"android": "https://dc.lft.to/lastmile_qr_scan", "ios": "https://dc.lft.to/lastmile_qr_scan"}, "name": "e093fffb3c28a2a6404acdd4fd4437a7", "is_reserved": 0}, {"is_disabled": 0, "fusion_lon": 0.0, "fusion_lat": 0.0, "lat": 38.939672, "type": "electric_bike", "lon": -77.360937, "bike_id": "3a7241aaa1a93a07afc1271f4aaaf442", "rental_uris": {"android": "https://dc.lft.to/lastmile_qr_scan", "ios": "https://dc.lft.to/lastmile_qr_scan"}, "name": "3a7241aaa1a93a07afc1271f4aaaf442", "is_reserved": 0}, {"is_disabled": 0, "fusion_lon": 0.0, "fusion_lat": 0.0, "lat": 38.8952305, "type": "electric_scooter", "lon": -77.04853533333333, "bike_id": "87938bceb8eeb17e2e3c255266631e8f", "rental_uris": {"android": "https://dc.lft.to/lastmile_qr_scan", "ios": "https://dc.lft.to/lastmile_qr_scan"}, "name": "87938bceb8eeb17e2e3c255266631e8f", "is_reserved": 0}, {"is_disabled": 0, "fusion_lon": 0.0, "fusion_lat": 0.0, "lat": 38.92975, "type": "electric_scooter", "lon": -77.02796866666667, "bike_id": "09849e07e038b2eb907a6f3351c63326", "rental_uris": {"android": "https://dc.lft.to/lastmile_qr_scan", "ios": "https://dc.lft.to/lastmile_qr_scan"}, "name": "09849e07e038b2eb907a6f3351c63326", "is_reserved": 0}, {"is_disabled": 0, "fusion_lon": 0.0, "fusion_lat": 0.0, "lat": 38.924649, "type": "electric_scooter", "lon": -77.07859183333333, "bike_id": "76fbfe512d626ec6cd843935d0417173", "rental_uris": {"android": "https://dc.lft.to/lastmile_qr_scan", "ios": "https://dc.lft.to/lastmile_qr_scan"}, "name": "76fbfe512d626ec6cd843935d0417173", "is_reserved": 0}, {"is_disabled": 0, "fusion_lon": 0.0, "fusion_lat": 0.0, "lat": 38.91221, "type": "electric_scooter", "lon": -77.0384375, "bike_id": "5ca3e6aa30788b97cad3c4ec0b1fee9d", "rental_uris": {"android": "https://dc.lft.to/lastmile_qr_scan", "ios": "https://dc.lft.to/lastmile_qr_scan"}, "name": "5ca3e6aa30788b97cad3c4ec0b1fee9d", "is_reserved": 0}, {"is_disabled": 0, "fusion_lon": 0.0, "fusion_lat": 0.0, "lat": 38.877595166666666, "type": "electric_bike", "lon": -76.97998733333333, "bike_id": "2510a6d724f2963164b02de86baa89de", "rental_uris": {"android": "https://dc.lft.to/lastmile_qr_scan", "ios": "https://dc.lft.to/lastmile_qr_scan"}, "name": "2510a6d724f2963164b02de86baa89de", "is_reserved": 0}, {"is_disabled": 0, "fusion_lon": 0.0, "fusion_lat": 0.0, "lat": 38.9265275, "type": "electric_scooter", "lon": -77.03716666666666, "bike_id": "05535a3bc034310f480a0232e079561b", "rental_uris": {"android": "https://dc.lft.to/lastmile_qr_scan", "ios": "https://dc.lft.to/lastmile_qr_scan"}, "name": "05535a3bc034310f480a0232e079561b", "is_reserved": 0}, {"is_disabled": 0, "fusion_lon": 0.0, "fusion_lat": 0.0, "lat": 38.87719666666667, "type": "electric_scooter", "lon": -77.01750766666666, "bike_id": "35317e678cb25371f40f21bd79e62cd6", "rental_uris": {"android": "https://dc.lft.to/lastmile_qr_scan", "ios": "https://dc.lft.to/lastmile_qr_scan"}, "name": "35317e678cb25371f40f21bd79e62cd6", "is_reserved": 0}, {"is_disabled": 0, "fusion_lon": 0.0, "fusion_lat": 0.0, "lat": 38.90592783333334, "type": "electric_scooter", "lon": -77.02392416666666, "bike_id": "3c066d26066828c6a69729735220267f", "rental_uris": {"android": "https://dc.lft.to/lastmile_qr_scan", "ios": "https://dc.lft.to/lastmile_qr_scan"}, "name": "3c066d26066828c6a69729735220267f", "is_reserved": 0}, {"is_disabled": 0, "fusion_lon": 0.0, "fusion_lat": 0.0, "lat": 38.9085415, "type": "electric_scooter", "lon": -77.0550945, "bike_id": "f7542d3dd45e090238f5e724bc7e0035", "rental_uris": {"android": "https://dc.lft.to/lastmile_qr_scan", "ios": "https://dc.lft.to/lastmile_qr_scan"}, "name": "f7542d3dd45e090238f5e724bc7e0035", "is_reserved": 0}, {"is_disabled": 0, "fusion_lon": 0.0, "fusion_lat": 0.0, "lat": 38.898234333333335, "type": "electric_scooter", "lon": -77.02955366666667, "bike_id": "80d1de6a582f89a918268b2903c3a03b", "rental_uris": {"android": "https://dc.lft.to/lastmile_qr_scan", "ios": "https://dc.lft.to/lastmile_qr_scan"}, "name": "80d1de6a582f89a918268b2903c3a03b", "is_reserved": 0}, {"is_disabled": 0, "fusion_lon": 0.0, "fusion_lat": 0.0, "lat": 38.887491833333335, "type": "electric_scooter", "lon": -77.014315, "bike_id": "bddea69fa836d01209c546bf552b67b3", "rental_uris": {"android": "https://dc.lft.to/lastmile_qr_scan", "ios": "https://dc.lft.to/lastmile_qr_scan"}, "name": "bddea69fa836d01209c546bf552b67b3", "is_reserved": 0}, {"is_disabled": 0, "fusion_lon": 0.0, "fusion_lat": 0.0, "lat": 38.92660266666667, "type": "electric_bike", "lon": -76.99754483333334, "bike_id": "f8d9121716c62f506cd615a11c9266be", "rental_uris": {"android": "https://dc.lft.to/lastmile_qr_scan", "ios": "https://dc.lft.to/lastmile_qr_scan"}, "name": "f8d9121716c62f506cd615a11c9266be", "is_reserved": 0},