{"data": {"bikes": [{"lat": 38.88334616666667, "is_disabled": 0, "type": "electric_scooter", "lon": -77.0314845, "bike_id": "46bbf7b7793b14d31d68d70c66ed8ffc", "fusion_lat": 0.0, "name": "46bbf7b7793b14d31d68d70c66ed8ffc", "is_reserved": 0, "rental_uris": {"android": "https://dc.lft.to/lastmile_qr_scan", "ios": "https://dc.lft.to/lastmile_qr_scan"}, "fusion_lon": 0.0}, {"lat": 38.923386, "is_disabled": 0, "type": "electric_scooter", "lon": -77.01901483333333, "bike_id": "f1c1c7a66fd273d0698e7fa9876703a8", "fusion_lat": 0.0, "name": "f1c1c7a66fd273d0698e7fa9876703a8", "is_reserved": 0, "rental_uris": {"android": "https://dc.lft.to/lastmile_qr_scan", "ios": "https://dc.lft.to/lastmile_qr_scan"}, "fusion_lon": 0.0}, {"lat": 38.900323666666665, "is_disabled": 0, "type": "electric_scooter", "lon": -76.9873915, "bike_id": "561394496fbebd8045e29842eb2a0fe1", "fusion_lat": 0.0, "name": "561394496fbebd8045e29842eb2a0fe1", "is_reserved": 0, "rental_uris": {"android": "https://dc.lft.to/lastmile_qr_scan", "ios": "https://dc.lft.to/lastmile_qr_scan"}, "fusion_lon": 0.0}, {"lat": 38.91118816666667, "is_disabled": 0, "type": "electric_scooter", "lon": -77.0024125, "bike_id": "7b095badebda10c7c5f42911f8f394df", "fusion_lat": 0.0, "name": "7b095badebda10c7c5f42911f8f394df", "is_reserved": 0, "rental_uris": {"android": "https://dc.lft.to/lastmile_qr_scan", "ios": "https://dc.lft.to/lastmile_qr_scan"}, "fusion_lon": 0.0}, {"lat": 38.8972895, "is_disabled": 0, "type": "electric_scooter", "lon": -77.05524416666667, "bike_id": "0df9b9c4d7bac0bf48dd6a57ebed461f", "fusion_lat": 0.0, "name": "0df9b9c4d7bac0bf48dd6a57ebed461f", "is_reserved": 0, "rental_uris": {"android": "https://dc.lft.to/lastmile_qr_scan", "ios": "https://dc.lft.to/lastmile_qr_scan"}, "fusion_lon": 0.0}, {"lat": 38.8610655, "is_disabled": 0, "type": "electric_scooter", "lon": -76.98359166666667, "bike_id": "77776b80fd2f6a0273ff4e5124afe83f", "fusion_lat": 0.0, "name": "77776b80fd2f6a0273ff4e5124afe83f", "is_reserved": 0, "rental_uris": {"android": "https://dc.lft.to/lastmile_qr_scan", "ios": "https://dc.lft.to/lastmile_qr_scan"}, "fusion_lon": 0.0}, {"lat": 38.91012766666667, "is_disabled": 0, "type": "electric_scooter", "lon": -76.99389533333333, "bike_id": "2cf8c4f502453134aa24c145ba9e6005", "fusion_lat": 0.0, "name": "2cf8c4f502453134aa24c145ba9e6005", "is_reserved": 0, "rental_uris": {"android": "https://dc.lft.to/lastmile_qr_scan", "ios": "https://dc.lft.to/lastmile_qr_scan"}, "fusion_lon": 0.0}, {"lat": 38.900857, "is_disabled": 0, "type": "electric_scooter", "lon": -77.04991433333333, "bike_id": "39cbdf6cd702c1a35a331b1446416bd8", "fusion_lat": 0.0, "name": "39cbdf6cd702c1a35a331b1446416bd8", "is_reserved": 0, "rental_uris": {"android": "https://dc.lft.to/lastmile_qr_scan", "ios": "https://dc.lft.to/lastmile_qr_scan"}, "fusion_lon": 0.0}, {"lat": 38.91262016666667, "is_disabled": 0, "type": "electric_scooter", "lon": -77.002862, "bike_id": "1486946d64585b4eb59da96b1842f860", "fusion_lat": 0.0, "name": "1486946d64585b4eb59da96b1842f860", "is_reserved": 0, "rental_uris": {"android": "https://dc.lft.to/lastmile_qr_scan", "ios": "https://dc.lft.to/lastmile_qr_scan"}, "fusion_lon": 0.0}, {"lat": 38.913404, "is_disabled": 0, "type": "electric_scooter", "lon": -77.00220533333334, "bike_id": "f612cf78710bd2b1d75061a861b8d10c", "fusion_lat": 0.0, "name": "f612cf78710bd2b1d75061a861b8d10c", "is_reserved": 0, "rental_uris": {"android": "https://dc.lft.to/lastmile_qr_scan", "ios": "https://dc.lft.to/lastmile_qr_scan"}, "fusion_lon": 0.0}, {"lat": 38.86441966666667, "is_disabled": 0, "type": "electric_bike", "lon": -76.9453665, "bike_id": "6dd4dd3700055e4c8a6a93e93e11f5c1", "fusion_lat": 0.0, "name": "6dd4dd3700055e4c8a6a93e93e11f5c1", "is_reserved": 0, "rental_uris": {"android": "https://dc.lft.to/lastmile_qr_scan", "ios": "https://dc.lft.to/lastmile_qr_scan"}, "fusion_lon": 0.0}, {"lat": 38.95808683333333, "is_disabled": 0, "type": "electric_scooter", "lon": -77.03160883333334, "bike_id": "998c31bfea61b5e5d53857b37aae0a63", "fusion_lat": 0.0, "name": "998c31bfea61b5e5d53857b37aae0a63", "is_reserved": 0, "rental_uris": {"android": "https://dc.lft.to/lastmile_qr_scan", "ios": "https://dc.lft.to/lastmile_qr_scan"}, "fusion_lon": 0.0}, {"lat": 38.871456, "is_disabled": 0, "type": "electric_bike", "lon": -76.93705466666667, "bike_id": "80b04797ece55cae7816bac31159d0a6", "fusion_lat": 0.0, "name": "80b04797ece55cae7816bac31159d0a6", "is_reserved": 0, "rental_uris": {"android": "https://dc.lft.to/lastmile_qr_scan", "ios": "https://dc.lft.to/lastmile_qr_scan"}, "fusion_lon": 0.0}, {"lat": 38.8545085, "is_disabled": 0, "type": "electric_scooter", "lon": -76.985807, "bike_id": "76200caa97eeed3b76eae3c6bd173e0f", "fusion_lat": 0.0, "name": "76200caa97eeed3b76eae3c6bd173e0f", "is_reserved": 0, "rental_uris": {"android": "https://dc.lft.to/lastmile_qr_scan", "ios": "https://dc.lft.to/lastmile_qr_scan"}, "fusion_lon": 0.0}, {"lat": 38.918311833333334, "is_disabled": 0, "type": "electric_scooter", "lon": -77.0318485, "bike_id": "a39dd2f3e0f36f478410ff940fbc3193", "fusion_lat": 0.0, "name": "a39dd2f3e0f36f478410ff940fbc3193", "is_reserved": 0, "rental_uris": {"android": "https://dc.lft.to/lastmile_qr_scan", "ios": "https://dc.lft.to/lastmile_qr_scan"}, "fusion_lon": 0.0}, {"lat": 38.88969516666667, "is_disabled": 0, "type": "electric_scooter", "lon": -76.97938016666667, "bike_id": "b8c7632bf616013c3a6595e69c0ebe19", "fusion_lat": 0.0, "name": "b8c7632bf616013c3a6595e69c0ebe19", "is_reserved": 0, "rental_uris": {"android": "https://dc.lft.to/lastmile_qr_scan", "ios": "https://dc.lft.to/lastmile_qr_scan"}, "fusion_lon": 0.0}, {"lat": 38.895026, "is_disabled": 0, "type": "electric_scooter", "lon": -77.0217445, "bike_id": "29a8472ef078490b3169e693c4115ec9", "fusion_lat": 0.0, "name": "29a8472ef078490b3169e693c4115ec9", "is_reserved": 0, "rental_uris": {"android": "https://dc.lft.to/lastmile_qr_scan", "ios": "https://dc.lft.to/lastmile_qr_scan"}, "fusion_lon": 0.0}, {"lat": 38.90180133333333, "is_disabled": 0, "type": "electric_scooter", "lon": -77.023653, "bike_id": "d95e327152ae407d2d8e0aae885081fc", "fusion_lat": 0.0, "name": "d95e327152ae407d2d8e0aae885081fc", "is_reserved": 0, "rental_uris": {"android": "https://dc.lft.to/lastmile_qr_scan", "ios": "https://dc.lft.to/lastmile_qr_scan"}, "fusion_lon": 0.0}, {"lat": 38.91403416666667, "is_disabled": 0, "type": "electric_scooter", "lon": -77.02933133333333, "bike_id": "bbea4feb4011b2794f5fa1292d64d7fc", "fusion_lat": 0.0, "name": "bbea4feb4011b2794f5fa1292d64d7fc", "is_reserved": 0, "rental_uris": {"android": "https://dc.lft.to/lastmile_qr_scan", "ios": "https://dc.lft.to/lastmile_qr_scan"}, "fusion_lon": 0.0}, {"lat": 38.91620983333333, "is_disabled": 0, "type": "electric_scooter", "lon": -77.02960083333333, "bike_id": "7fbe70a858d6eb42c8d169aa84db3cd7", "fusion_lat": 0.0, "name": "7fbe70a858d6eb42c8d169aa84db3cd7", "is_reserved": 0, "rental_uris": {"android": "https://dc.lft.to/lastmile_qr_scan", "ios": "https://dc.lft.to/lastmile_qr_scan"}, "fusion_lon": 0.0}, {"lat": 38.929491666666664, "is_disabled": 0, "type": "electric_scooter", "lon": -77.0130455, "bike_id": "36bf68b3bc4a81104462aeb294278e4b", "fusion_lat": 0.0, "name": "36bf68b3bc4a81104462aeb294278e4b", "is_reserved": 0, "rental_uris": {"android": "https://dc.lft.to/lastmile_qr_scan", "ios": "https://dc.lft.to/lastmile_qr_scan"}, "fusion_lon": 0.0}, {"lat": 38.91026166666666, "is_disabled": 0, "type": "electric_scooter", "lon": -76.9981, "bike_id": "0e7fd66adc33ffadc9d7802e235ec975", "fusion_lat": 0.0, "name": "0e7fd66adc33ffadc9d7802e235ec975", "is_reserved": 0, "rental_uris": {"android": "https://dc.lft.to/lastmile_qr_scan", "ios": "https://dc.lft.to/lastmile_qr_scan"}, "fusion_lon": 0.0}, {"lat": 38.9274995, "is_disabled": 0, "type": "electric_scooter", "lon": -77.03210833333333, "bike_id": "3ecb1a8301cf7dd14cd468edfd7b8bf2", "fusion_lat": 0.0, "name": "3ecb1a8301cf7dd14cd468edfd7b8bf2", "is_reserved": 0, "rental_uris": {"android": "https://dc.lft.to/lastmile_qr_scan", "ios": "https://dc.lft.to/lastmile_qr_scan"}, "fusion_lon": 0.0}, {"lat": 38.911132333333335, "is_disabled": 0, "type": "electric_scooter", "lon": -77.03771766666667, "bike_id": "998d8842e26e20ee502407bca963170e", "fusion_lat": 0.0, "name": "998d8842e26e20ee502407bca963170e", "is_reserved": 0, "rental_uris": {"android": "https://dc.lft.to/lastmile_qr_scan", "ios": "https://dc.lft.to/lastmile_qr_scan"}, "fusion_lon": 0.0}, {"lat": 38.885785166666665, "is_disabled": 0, "type": "electric_scooter", "lon": -76.919092, "bike_id": "db0b7de4a7a2c10eae028dbfbb0c86db", "fusion_lat": 0.0, "name": "db0b7de4a7a2c10eae028dbfbb0c86db", "is_reserved": 0, "rental_uris": {"android": "https://dc.lft.to/lastmile_qr_scan", "ios": "https://dc.lft.to/lastmile_qr_scan"}, "fusion_lon": 0.0}, {"lat": 38.924793333333334, "is_disabled": 0, "type": "electric_scooter", "lon": -77.028414, "bike_id": "485dbe4e0b006189349b1a26a36409bd", "fusion_lat": 0.0, "name": "485dbe4e0b006189349b1a26a36409bd", "is_reserved": 0, "rental_uris": {"android": "https://dc.lft.to/lastmile_qr_scan", "ios": "https://dc.lft.to/lastmile_qr_scan"}, "fusion_lon": 0.0}, {"lat": 38.9561295, "is_disabled": 0, "type": "electric_scooter", "lon": -77.02760283333333, "bike_id": "0eda9ccaa851cd7cf03b4832187d3b18", "fusion_lat": 0.0, "name": "0eda9ccaa851cd7cf03b4832187d3b18", "is_reserved": 0, "rental_uris": {"android": "https://dc.lft.to/lastmile_qr_scan", "ios": "https://dc.lft.to/lastmile_qr_scan"}, "fusion_lon": 0.0}, {"lat": 38.911789666666664, "is_disabled": 0, "type": "electric_scooter", "lon": -77.06093733333333, "bike_id": "05c5b6bca8aef4bd55494185b379ed2d", "fusion_lat": 0.0, "name": "05c5b6bca8aef4bd55494185b379ed2d", "is_reserved": 0, "rental_uris": {"android": "https://dc.lft.to/lastmile_qr_scan", "ios": "https://dc.lft.to/lastmile_qr_scan"}, "fusion_lon": 0.0}, {"lat": 38.92896233333333, "is_disabled": 0, "type": "electric_scooter", "lon": -77.02218666666667, "bike_id": "add293439ec43b900d946a9714bf6eda", "fusion_lat": 0.0, "name": "add293439ec43b900d946a9714bf6eda", "is_reserved": 0, "rental_uris": {"android": "https://dc.lft.to/lastmile_qr_scan", "ios": "https://dc.lft.to/lastmile_qr_scan"}, "fusion_lon": 0.0}, {"lat": 38.927396333333334, "is_disabled": 0, "type": "electric_scooter", "lon": -77.03453183333333, "bike_id": "3a0f680735caa14562811fe4d3235e12", "fusion_lat": 0.0, "name": "3a0f680735caa14562811fe4d3235e12", "is_reserved": 0, "rental_uris": {"android": "https://dc.lft.to/lastmile_qr_scan", "ios": "https://dc.lft.to/lastmile_qr_scan"}, "fusion_lon": 0.0}, {"lat": 38.88635933333333, "is_disabled": 0, "type": "electric_bike", "lon": -76.95472733333334, "bike_id": "56f3687fe398e343c7f205a780456373", "fusion_lat": 0.0, "name": "56f3687fe398e343c7f205a780456373", "is_reserved": 0, "rental_uris": {"android": "https://dc.lft.to/lastmile_qr_scan", "ios": "https://dc.lft.to/lastmile_qr_scan"}, "fusion_lon": 0.0}, {"lat": 39.056337666666664, "is_disabled": 0, "type": "electric_bike", "lon": -77.12527516666667, "bike_id": "187caaa67550824837cd20990030f9ad", "fusion_lat": 0.0, "name": "187caaa67550824837cd20990030f9ad", "is_reserved": 0, "rental_uris": {"android": "https://dc.lft.to/lastmile_qr_scan", "ios": "https://dc.lft.to/lastmile_qr_scan"}, "fusion_lon": 0.0}, {"lat": 38.8981995, "is_disabled": 0, "type": "electric_scooter", "lon": -76.99695383333334, "bike_id": "eea1faef612861e64d8c40462cabaad6", "fusion_lat": 0.0, "name": "eea1faef612861e64d8c40462cabaad6", "is_reserved": 0, "rental_uris": {"android": "https://dc.lft.to/lastmile_qr_scan", "ios": "https://dc.lft.to/lastmile_qr_scan"}, "fusion_lon": 0.0}, {"lat": 38.90188216666667, "is_disabled": 0, "type": "electric_scooter", "lon": -77.023973, "bike_id": "815e2838d356a772acede7288f13ac69", "fusion_lat": 0.0, "name": "815e2838d356a772acede7288f13ac69", "is_reserved": 0, "rental_uris": {"android": "https://dc.lft.to/lastmile_qr_scan", "ios": "https://dc.lft.to/lastmile_qr_scan"}, "fusion_lon": 0.0}, {"lat": 38.91256833333333, "is_disabled": 0, "type": "electric_scooter", "lon": -77.03864916666667, "bike_id": "749bc7ee381926d6ab56a9eaf295afdb", "fusion_lat": 0.0, "name": "749bc7ee381926d6ab56a9eaf295afdb", "is_reserved": 0, "rental_uris": {"android": "https://dc.lft.to/lastmile_qr_scan", "ios": "https://dc.lft.to/lastmile_qr_scan"}, "fusion_lon": 0.0}, {"lat": 38.9227305, "is_disabled": 0, "type": "electric_scooter", "lon": -77.0424205, "bike_id": "ef056e97308f1b3c557788a3c11a421b", "fusion_lat": 0.0, "name": "ef056e97308f1b3c557788a3c11a421b", "is_reserved": 0, "rental_uris": {"android": "https://dc.lft.to/lastmile_qr_scan", "ios": "https://dc.lft.to/lastmile_qr_scan"}, "fusion_lon": 0.0}, {"lat": 38.8922195, "is_disabled": 0, "type": "electric_scooter", "lon": -77.02649266666667, "bike_id": "9ef5a57455edbd90900902b85d9293ca", "fusion_lat": 0.0, "name": "9ef5a57455edbd90900902b85d9293ca", "is_reserved": 0, "rental_uris": {"android": "https://dc.lft.to/lastmile_qr_scan", "ios": "https://dc.lft.to/lastmile_qr_scan"}, "fusion_lon": 0.0}, {"lat": 38.876797, "is_disabled": 0, "type": "electric_scooter", "lon": -77.01787116666667, "bike_id": "6d96891c49ec3a8350613d16a4ecd771", "fusion_lat": 0.0, "name": "6d96891c49ec3a8350613d16a4ecd771", "is_reserved": 0, "rental_uris": {"android": "https://dc.lft.to/lastmile_qr_scan", "ios": "https://dc.lft.to/lastmile_qr_scan"}, "fusion_lon": 0.0}, {"lat": 38.902939333333336, "is_disabled": 0, "type": "electric_scooter", "lon": -77.05336833333334, "bike_id": "2e44b88cb24da64583adca4e685269c0", "fusion_lat": 0.0, "name": "2e44b88cb24da64583adca4e685269c0", "is_reserved": 0, "rental_uris": {"android": "https://dc.lft.to/lastmile_qr_scan", "ios": "https://dc.lft.to/lastmile_qr_scan"}, "fusion_lon": 0.0}, {"lat": 38.91915066666667, "is_disabled": 0, "type": "electric_scooter", "lon": -77.033952, "bike_id": "32c925bdf3b52d59f25eb88b48da23d8", "fusion_lat": 0.0, "name": "32c925bdf3b52d59f25eb88b48da23d8", "is_reserved": 0, "rental_uris": {"android": "https://dc.lft.to/lastmile_qr_scan", "ios": "https://dc.lft.to/lastmile_qr_scan"}, "fusion_lon": 0.0}, {"lat": 38.926255166666664, "is_disabled": 0, "type": "electric_scooter", "lon": -77.03784966666667, "bike_id": "ff49932b6a37abe1a96a07144dd9c85a", "fusion_lat": 0.0, "name": "ff49932b6a37abe1a96a07144dd9c85a", "is_reserved": 0, "rental_uris": {"android": "https://dc.lft.to/lastmile_qr_scan", "ios": "https://dc.lft.to/lastmile_qr_scan"}, "fusion_lon": 0.0}, {"lat": 38.906969333333336, "is_disabled": 0, "type": "electric_scooter", "lon": -76.99960266666666, "bike_id": "d4bf161aab4de968538c28f2eafc3bfe", "fusion_lat": 0.0, "name": "d4bf161aab4de968538c28f2eafc3bfe", "is_reserved": 0, "rental_uris": {"android": "https://dc.lft.to/lastmile_qr_scan", "ios": "https://dc.lft.to/lastmile_qr_scan"}, "fusion_lon": 0.0}, {"lat": 38.90254316666667, "is_disabled": 0, "type": "electric_scooter", "lon": -77.02825, "bike_id": "2857dfa463c42634432d34f43cd8b1d6", "fusion_lat": 0.0, "name": "2857dfa463c42634432d34f43cd8b1d6", "is_reserved": 0, "rental_uris": {"android": "https://dc.lft.to/lastmile_qr_scan", "ios": "https://dc.lft.to/lastmile_qr_scan"}, "fusion_lon": 0.0}, {"lat": 38.8994755, "is_disabled": 0, "type": "electric_scooter", "lon": -77.05170516666666, "bike_id": "cd4f1cdee509160f8cdf2265b4d280da", "fusion_lat": 0.0, "name": "cd4f1cdee509160f8cdf2265b4d280da", "is_reserved": 0, "rental_uris": {"android": "https://dc.lft.to/lastmile_qr_scan", "ios": "https://dc.lft.to/lastmile_qr_scan"}, "fusion_lon": 0.0}, {"lat": 38.9242315, "is_disabled": 0, "type": "electric_scooter", "lon": -77.04449033333333, "bike_id": "64fb8fa30c51a669764e7420416957de", "fusion_lat": 0.0, "name": "64fb8fa30c51a669764e7420416957de", "is_reserved": 0, "rental_uris": {"android": "https://dc.lft.to/lastmile_qr_scan", "ios": "https://dc.lft.to/lastmile_qr_scan"}, "fusion_lon": 0.0}, {"lat": 38.946024666666666, "is_disabled": 0, "type": "electric_scooter", "lon": -77.02979166666667, "bike_id": "117d0045f5c4bb21cf23b79558820403", "fusion_lat": 0.0, "name": "117d0045f5c4bb21cf23b79558820403", "is_reserved": 0, "rental_uris": {"android": "https://dc.lft.to/lastmile_qr_scan", "ios": "https://dc.lft.to/lastmile_qr_scan"}, "fusion_lon": 0.0}, {"lat": 38.910521833333334, "is_disabled": 0, "type": "electric_scooter", "lon": -77.015212, "bike_id": "b1f8b63f186dc6d638f59eadf6b0b5ff", "fusion_lat": 0.0, "name": "b1f8b63f186dc6d638f59eadf6b0b5ff", "is_reserved": 0, "rental_uris": {"android": "https://dc.lft.to/lastmile_qr_scan", "ios": "https://dc.lft.to/lastmile_qr_scan"}, "fusion_lon": 0.0}, {"lat": 38.865233333333336, "is_disabled": 0, "type": "electric_scooter", "lon": -76.9741955, "bike_id": "5ab8244ba0ed86eb71adbb35118fb09c", "fusion_lat": 0.0, "name": "5ab8244ba0ed86eb71adbb35118fb09c", "is_reserved": 0, "rental_uris": {"android": "https://dc.lft.to/lastmile_qr_scan", "ios": "https://dc.lft.to/lastmile_qr_scan"}, "fusion_lon": 0.0}, {"lat": 38.874773166666664, "is_disabled": 0, "type": "electric_scooter", "lon": -77.01070166666666, "bike_id": "2d74e20eb1c25cba815da668aa3b996e", "fusion_lat": 0.0, "name": "2d74e20eb1c25cba815da668aa3b996e", "is_reserved": 0, "rental_uris": {"android": "https://dc.lft.to/lastmile_qr_scan", "ios": "https://dc.lft.to/lastmile_qr_scan"}, "fusion_lon": 0.0}, {"lat": 38.899600666666664, "is_disabled": 0, "type": "electric_scooter", "lon": -77.05099216666666, "bike_id": "720e41defff08e0489e779563146ef34", "fusion_lat": 0.0, "name": "720e41defff08e0489e779563146ef34", "is_reserved": 0, "rental_uris": {"android": "https://dc.lft.to/lastmile_qr_scan", "ios": "https://dc.lft.to/lastmile_qr_scan"}, "fusion_lon": 0.0}, {"lat": 38.897404333333334, "is_disabled": 0, "type": "electric_scooter", "lon": -77.04681466666666, "bike_id": "4fde842807ee534f743978d2fa7a2f25", "fusion_lat": 0.0, "name": "4fde842807ee534f743978d2fa7a2f25", "is_reserved": 0, "rental_uris": {"android": "https://dc.lft.to/lastmile_qr_scan", "ios": "https://dc.lft.to/lastmile_qr_scan"}, "fusion_lon": 0.0}, {"lat": 38.92539933333333, "is_disabled": 0, "type": "electric_scooter", "lon": -77.03331133333333, "bike_id": "026d47ac22edf71e0cc5436414f6a854", "fusion_lat": 0.0, "name": "026d47ac22edf71e0cc5436414f6a854", "is_reserved": 0, "rental_uris": {"android": "https://dc.lft.to/lastmile_qr_scan", "ios": "https://dc.lft.to/lastmile_qr_scan"}, "fusion_lon": 0.0}, {"lat": 38.85932366666667, "is_disabled": 0, "type": "electric_scooter", "lon": -76.99717416666667, "bike_id": "1038649d128dd28b367c1ca0c19192dc", "fusion_lat": 0.0, "name": "1038649d128dd28b367c1ca0c19192dc", "is_reserved": 0, "rental_uris": {"android": "https://dc.lft.to/lastmile_qr_scan", "ios": "https://dc.lft.to/lastmile_qr_scan"}, "fusion_lon": 0.0}, {"lat": 38.86996516666667, "is_disabled": 0, "type": "electric_bike", "lon": -77.065649, "bike_id": "54b57bf006f516a61fd445130ac76664", "fusion_lat": 0.0, "name": "54b57bf006f516a61fd445130ac76664", "is_reserved": 0, "rental_uris": {"android": "https://dc.lft.to/lastmile_qr_scan", "ios": "https://dc.lft.to/lastmile_qr_scan"}, "fusion_lon": 0.0}, {"lat": 38.907822833333334, "is_disabled": 0, "type": "electric_scooter", "lon": -77.03859316666667, "bike_id": "db27f081c770476957a4476d18764ba0", "fusion_lat": 0.0, "name": "db27f081c770476957a4476d18764ba0", "is_reserved": 0, "rental_uris": {"android": "https://dc.lft.to/lastmile_qr_scan", "ios": "https://dc.lft.to/lastmile_qr_scan"}, "fusion_lon": 0.0}, {"lat": 38.91568616666667, "is_disabled": 0, "type": "electric_scooter", "lon": -77.0119785, "bike_id": "019d4d6566f7731458a364f98c5c9a1c", "fusion_lat": 0.0, "name": "019d4d6566f7731458a364f98c5c9a1c", "is_reserved": 0, "rental_uris": {"android": "https://dc.lft.to/lastmile_qr_scan", "ios": "https://dc.lft.to/lastmile_qr_scan"}, "fusion_lon": 0.0}, {"lat": 38.89049, "is_disabled": 0, "type": "electric_scooter", "lon": -76.93752716666667, "bike_id": "44b93ed082e2502da694ee149df8376b", "fusion_lat": 0.0, "name": "44b93ed082e2502da694ee149df8376b", "is_reserved": 0, "rental_uris": {"android": "https://dc.lft.to/lastmile_qr_scan", "ios": "https://dc.lft.to/lastmile_qr_scan"}, "fusion_lon": 0.0}, {"lat": 38.94630083333333, "is_disabled": 0, "type": "electric_scooter", "lon": -77.01844833333334, "bike_id": "335e44d920f5c36822c200672bd58e83", "fusion_lat": 0.0, "name": "335e44d920f5c36822c200672bd58e83", "is_reserved": 0, "rental_uris": {"android": "https://dc.lft.to/lastmile_qr_scan", "ios": "https://dc.lft.to/lastmile_qr_scan"}, "fusion_lon": 0.0}, {"lat": 38.924118, "is_disabled": 0, "type": "electric_scooter", "lon": -77.02740666666666, "bike_id": "34cd5fe029922ae741ee024dc250bbb4", "fusion_lat": 0.0, "name": "34cd5fe029922ae741ee024dc250bbb4", "is_reserved": 0, "rental_uris": {"android": "https://dc.lft.to/lastmile_qr_scan", "ios": "https://dc.lft.to/lastmile_qr_scan"}, "fusion_lon": 0.0}, {"lat": 38.9026775, "is_disabled": 0, "type": "electric_scooter", "lon": -77.01757783333333, "bike_id": "a67f544222c1096caae1842d38a74cbf", "fusion_lat": 0.0, "name": "a67f544222c1096caae1842d38a74cbf", "is_reserved": 0, "rental_uris": {"android": "https://dc.lft.to/lastmile_qr_scan", "ios": "https://dc.lft.to/lastmile_qr_scan"}, "fusion_lon": 0.0}, {"lat": 38.9540485, "is_disabled": 0, "type": "electric_scooter", "lon": -77.0275005, "bike_id": "ca61ee8fd1ba4557c913de3f92aa0ab3", "fusion_lat": 0.0, "name": "ca61ee8fd1ba4557c913de3f92aa0ab3", "is_reserved": 0, "rental_uris": {"android": "https://dc.lft.to/lastmile_qr_scan", "ios": "https://dc.lft.to/lastmile_qr_scan"}, "fusion_lon": 0.0}, {"lat": 38.83812866666667, "is_disabled": 0, "type": "electric_bike", "lon": -77.09521666666667, "bike_id": "9040fce350eed56ca594030e0317643e", "fusion_lat": 0.0, "name": "9040fce350eed56ca594030e0317643e", "is_reserved": 0, "rental_uris": {"android": "https://dc.lft.to/lastmile_qr_scan", "ios": "https://dc.lft.to/lastmile_qr_scan"}, "fusion_lon": 0.0}, {"lat": 38.904602833333335, "is_disabled": 0, "type": "electric_scooter", "lon": -77.03627033333333, "bike_id": "8a2a36b15a80fb18a607f47cb1e04f75", "fusion_lat": 0.0, "name": "8a2a36b15a80fb18a607f47cb1e04f75", "is_reserved": 0, "rental_uris": {"android": "https://dc.lft.to/lastmile_qr_scan", "ios": "https://dc.lft.to/lastmile_qr_scan"}, "fusion_lon": 0.0}, {"lat": 38.90275333333334, "is_disabled": 0, "type": "electric_scooter", "lon": -77.04034833333333, "bike_id": "4a32df7ff1fcc18d22600580aa4425e9", "fusion_lat": 0.0, "name": "4a32df7ff1fcc18d22600580aa4425e9", "is_reserved": 0, "rental_uris": {"android": "https://dc.lft.to/lastmile_qr_scan", "ios": "https://dc.lft.to/lastmile_qr_scan"}, "fusion_lon": 0.0}, {"lat": 38.86524466666667, "is_disabled": 0, "type": "electric_scooter", "lon": -76.99036916666667, "bike_id": "8300b048c9fa87002a11147cc48d5824", "fusion_lat": 0.0, "name": "8300b048c9fa87002a11147cc48d5824", "is_reserved": 0, "rental_uris": {"android": "https://dc.lft.to/lastmile_qr_scan", "ios": "https://dc.lft.to/lastmile_qr_scan"}, "fusion_lon": 0.0}, {"lat": 38.923452, "is_disabled": 0, "type": "electric_scooter", "lon": -77.0349615, "bike_id": "7a82461219fc3baf5eb227dfb9b66747", "fusion_lat": 0.0, "name": "7a82461219fc3baf5eb227dfb9b66747", "is_reserved": 0, "rental_uris": {"android": "https://dc.lft.to/lastmile_qr_scan", "ios": "https://dc.lft.to/lastmile_qr_scan"}, "fusion_lon": 0.0}, {"lat": 38.876267, "is_disabled": 0, "type": "electric_scooter", "lon": -76.965263, "bike_id": "6fe684b4a28519faf6d0cccb2c778c88", "fusion_lat": 0.0, "name": "6fe684b4a28519faf6d0cccb2c778c88", "is_reserved": 0, "rental_uris": {"android": "https://dc.lft.to/lastmile_qr_scan", "ios": "https://dc.lft.to/lastmile_qr_scan"}, "fusion_lon": 0.0}, {"lat": 38.879112666666664, "is_disabled": 0, "type": "electric_scooter", "lon": -77.00725166666666, "bike_id": "1ad9aafaf9655751ae1ed3b7447b5c4d", "fusion_lat": 0.0, "name": "1ad9aafaf9655751ae1ed3b7447b5c4d", "is_reserved": 0, "rental_uris": {"android": "https://dc.lft.to/lastmile_qr_scan", "ios": "https://dc.lft.to/lastmile_qr_scan"}, "fusion_lon": 0.0}, {"lat": 38.918633666666665, "is_disabled": 0, "type": "electric_scooter", "lon": -77.07420283333333, "bike_id": "80c3faca5eb1b1fff64394fe0a0b0b28", "fusion_lat": 0.0, "name": "80c3faca5eb1b1fff64394fe0a0b0b28", "is_reserved": 0, "rental_uris": {"android": "https://dc.lft.to/lastmile_qr_scan", "ios": "https://dc.lft.to/lastmile_qr_scan"}, "fusion_lon": 0.0}, {"lat": 38.923679666666665, "is_disabled": 0, "type": "electric_scooter", "lon": -77.07681383333333, "bike_id": "2edb4f05fbc8fc1ad02f5b0de5d43a4a", "fusion_lat": 0.0, "name": "2edb4f05fbc8fc1ad02f5b0de5d43a4a", "is_reserved": 0, "rental_uris": {"android": "https://dc.lft.to/lastmile_qr_scan", "ios": "https://dc.lft.to/lastmile_qr_scan"}, "fusion_lon": 0.0}, {"lat": 38.934786333333335, "is_disabled": 0, "type": "electric_scooter", "lon": -77.0365655, "bike_id": "9765b0e3df622da46375e8ec3b9ae736", "fusion_lat": 0.0, "name": "9765b0e3df622da46375e8ec3b9ae736", "is_reserved": 0, "rental_uris": {"android": "https://dc.lft.to/lastmile_qr_scan", "ios": "https://dc.lft.to/lastmile_qr_scan"}, "fusion_lon": 0.0}, {"lat": 38.9147415, "is_disabled": 0, "type": "electric_scooter", "lon": -77.01894383333334, "bike_id": "b01145320fd8bf6ebe294a561d968517", "fusion_lat": 0.0, "name": "b01145320fd8bf6ebe294a561d968517", "is_reserved": 0, "rental_uris": {"android": "https://dc.lft.to/lastmile_qr_scan", "ios": "https://dc.lft.to/lastmile_qr_scan"}, "fusion_lon": 0.0}, {"lat": 38.9299645, "is_disabled": 0, "type": "electric_bike", "lon": -77.02318683333333, "bike_id": "c00b0b03a9db6a1c8fe8e1539d9afe15", "fusion_lat": 0.0, "name": "c00b0b03a9db6a1c8fe8e1539d9afe15", "is_reserved": 0, "rental_uris": {"android": "https://dc.lft.to/lastmile_qr_scan", "ios": "https://dc.lft.to/lastmile_qr_scan"}, "fusion_lon": 0.0}, {"lat": 38.906054833333336, "is_disabled": 0, "type": "electric_scooter", "lon": -77.05858466666666, "bike_id": "93661d5c1759c8fb56155d1fa4e3cb94", "fusion_lat": 0.0, "name": "93661d5c1759c8fb56155d1fa4e3cb94", "is_reserved": 0, "rental_uris": {"android": "https://dc.lft.to/lastmile_qr_scan", "ios": "https://dc.lft.to/lastmile_qr_scan"}, "fusion_lon": 0.0}, {"lat": 38.90721216666667, "is_disabled": 0, "type": "electric_scooter", "lon": -77.04401, "bike_id": "ce60a4232930c2d804f41a30f54a49e8", "fusion_lat": 0.0, "name": "ce60a4232930c2d804f41a30f54a49e8", "is_reserved": 0, "rental_uris": {"android": "https://dc.lft.to/lastmile_qr_scan", "ios": "https://dc.lft.to/lastmile_qr_scan"}, "fusion_lon": 0.0}, {"lat": 38.926731333333336, "is_disabled": 0, "type": "electric_scooter", "lon": -76.995336, "bike_id": "3850ec849ef5ec947ca1d03ea82c98c8", "fusion_lat": 0.0, "name": "3850ec849ef5ec947ca1d03ea82c98c8", "is_reserved": 0, "rental_uris": {"android": "https://dc.lft.to/lastmile_qr_scan", "ios": "https://dc.lft.to/lastmile_qr_scan"}, "fusion_lon": 0.0}, {"lat": 38.89292183333333, "is_disabled": 0, "type": "electric_bike", "lon": -77.00144633333333, "bike_id": "3ff653bc1968898640863b82b42538b3", "fusion_lat": 0.0, "name": "3ff653bc1968898640863b82b42538b3", "is_reserved": 0, "rental_uris": {"android": "https://dc.lft.to/lastmile_qr_scan", "ios": "https://dc.lft.to/lastmile_qr_scan"}, "fusion_lon": 0.0}, {"lat": 38.891989333333335, "is_disabled": 0, "type": "electric_bike", "lon": -76.97051583333334, "bike_id": "24b3f8a900dfe7e0752a3816e1e5438f", "fusion_lat": 0.0, "name": "24b3f8a900dfe7e0752a3816e1e5438f", "is_reserved": 0, "rental_uris": {"android": "https://dc.lft.to/lastmile_qr_scan", "ios": "https://dc.lft.to/lastmile_qr_scan"}, "fusion_lon": 0.0}, {"lat": 38.89532, "is_disabled": 0, "type": "electric_scooter", "lon": -77.01122533333333, "bike_id": "09879b9e3a5fee9de5110622cb15016a", "fusion_lat": 0.0, "name": "09879b9e3a5fee9de5110622cb15016a", "is_reserved": 0, "rental_uris": {"android": "https://dc.lft.to/lastmile_qr_scan", "ios": "https://dc.lft.to/lastmile_qr_scan"}, "fusion_lon": 0.0}, {"lat": 38.8842485, "is_disabled": 0, "type": "electric_bike", "lon": -76.98086883333333, "bike_id": "9895cb4bc3b41960912b3d8776178733", "fusion_lat": 0.0, "name": "9895cb4bc3b41960912b3d8776178733", "is_reserved": 0, "rental_uris": {"android": "https://dc.lft.to/lastmile_qr_scan", "ios": "https://dc.lft.to/lastmile_qr_scan"}, "fusion_lon": 0.0}, {"lat": 38.905371, "is_disabled": 0, "type": "electric_scooter", "lon": -76.98645433333333, "bike_id": "b53dc9be194def3666b2e770a29f2f73", "fusion_lat": 0.0, "name": "b53dc9be194def3666b2e770a29f2f73", "is_reserved": 0, "rental_uris": {"android": "https://dc.lft.to/lastmile_qr_scan", "ios": "https://dc.lft.to/lastmile_qr_scan"}, "fusion_lon": 0.0}, {"lat": 38.90672166666667, "is_disabled": 0, "type": "electric_scooter", "lon": -77.02711933333333, "bike_id": "4d8f7d031f8199855ad078c55cadaf0e", "fusion_lat": 0.0, "name": "4d8f7d031f8199855ad078c55cadaf0e", "is_reserved": 0, "rental_uris": {"android": "https://dc.lft.to/lastmile_qr_scan", "ios": "https://dc.lft.to/lastmile_qr_scan"}, "fusion_lon": 0.0}, {"lat": 38.900022666666665, "is_disabled": 0, "type": "electric_scooter", "lon": -76.98805333333334, "bike_id": "7581ef4f75750428bfce5da15e44e81a", "fusion_lat": 0.0, "name": "7581ef4f75750428bfce5da15e44e81a", "is_reserved": 0, "rental_uris": {"android": "https://dc.lft.to/lastmile_qr_scan", "ios": "https://dc.lft.to/lastmile_qr_scan"}, "fusion_lon": 0.0}, {"lat": 38.8734265, "is_disabled": 0, "type": "electric_scooter", "lon": -76.99165583333334, "bike_id": "8e94ea05cdc6c496ce0959b20e087379", "fusion_lat": 0.0, "name": "8e94ea05cdc6c496ce0959b20e087379", "is_reserved": 0, "rental_uris": {"android": "https://dc.lft.to/lastmile_qr_scan", "ios": "https://dc.lft.to/lastmile_qr_scan"}, "fusion_lon": 0.0}, {"lat": 38.89747033333333, "is_disabled": 0, "type": "electric_scooter", "lon": -77.032651, "bike_id": "b1b2b0648b5ab66d8776a951b0df4ce1", "fusion_lat": 0.0, "name": "b1b2b0648b5ab66d8776a951b0df4ce1", "is_reserved": 0, "rental_uris": {"android": "https://dc.lft.to/lastmile_qr_scan", "ios": "https://dc.lft.to/lastmile_qr_scan"}, "fusion_lon": 0.0}, {"lat": 38.904274, "is_disabled": 0, "type": "electric_scooter", "lon": -77.0208855, "bike_id": "401ed428cdf66a24801f63c0ab00e8e2", "fusion_lat": 0.0, "name": "401ed428cdf66a24801f63c0ab00e8e2", "is_reserved": 0, "rental_uris": {"android": "https://dc.lft.to/lastmile_qr_scan", "ios": "https://dc.lft.to/lastmile_qr_scan"}, "fusion_lon": 0.0}, {"lat": 38.899128, "is_disabled": 0, "type": "electric_scooter", "lon": -76.93355583333333, "bike_id": "0f9108df9b9cfe9d505ddb850fe99830", "fusion_lat": 0.0, "name": "0f9108df9b9cfe9d505ddb850fe99830", "is_reserved": 0, "rental_uris": {"android": "https://dc.lft.to/lastmile_qr_scan", "ios": "https://dc.lft.to/lastmile_qr_scan"}, "fusion_lon": 0.0}, {"lat": 38.8926055, "is_disabled": 0, "type": "electric_scooter", "lon": -76.941585, "bike_id": "fd822b1fb091056c8c3c021e0302f2ec", "fusion_lat": 0.0, "name": "fd822b1fb091056c8c3c021e0302f2ec", "is_reserved": 0, "rental_uris": {"android": "https://dc.lft.to/lastmile_qr_scan", "ios": "https://dc.lft.to/lastmile_qr_scan"}, "fusion_lon": 0.0}, {"lat": 38.89793, "is_disabled": 0, "type": "electric_scooter", "lon": -77.03215266666666, "bike_id": "53d14f84d63d109206f357f490ee4363", "fusion_lat": 0.0, "name": "53d14f84d63d109206f357f490ee4363", "is_reserved": 0, "rental_uris": {"android": "https://dc.lft.to/lastmile_qr_scan", "ios": "https://dc.lft.to/lastmile_qr_scan"}, "fusion_lon": 0.0}, {"lat": 38.903767, "is_disabled": 0, "type": "electric_scooter", "lon": -77.01642516666666, "bike_id": "601601ac7e5e0f70299c55838d357c25", "fusion_lat": 0.0, "name": "601601ac7e5e0f70299c55838d357c25", "is_reserved": 0, "rental_uris": {"android": "https://dc.lft.to/lastmile_qr_scan", "ios": "https://dc.lft.to/lastmile_qr_scan"}, "fusion_lon": 0.0}, {"lat": 38.916987166666665, "is_disabled": 0, "type": "electric_scooter", "lon": -77.04336366666666, "bike_id": "abd9591c6cd7be5926081f8dc4f2e156", "fusion_lat": 0.0, "name": "abd9591c6cd7be5926081f8dc4f2e156", "is_reserved": 0, "rental_uris": {"android": "https://dc.lft.to/lastmile_qr_scan", "ios": "https://dc.lft.to/lastmile_qr_scan"}, "fusion_lon": 0.0}, {"lat": 38.8581525, "is_disabled": 0, "type": "electric_scooter", "lon": -76.98993883333333, "bike_id": "15e04ccd5556611e0cb5876303088528", "fusion_lat": 0.0, "name": "15e04ccd5556611e0cb5876303088528", "is_reserved": 0, "rental_uris": {"android": "https://dc.lft.to/lastmile_qr_scan", "ios": "https://dc.lft.to/lastmile_qr_scan"}, "fusion_lon": 0.0}, {"lat": 38.88516766666667, "is_disabled": 0, "type": "electric_scooter", "lon": -77.03353583333333, "bike_id": "69425b70f51abe8a7fab867635287773", "fusion_lat": 0.0, "name": "69425b70f51abe8a7fab867635287773", "is_reserved": 0, "rental_uris": {"android": "https://dc.lft.to/lastmile_qr_scan", "ios": "https://dc.lft.to/lastmile_qr_scan"}, "fusion_lon": 0.0}, {"lat": 38.916084833333336, "is_disabled": 0, "type": "electric_scooter", "lon": -77.04876916666667, "bike_id": "f9a88fa270071cb9bc2d76819ef3504c", "fusion_lat": 0.0, "name": "f9a88fa270071cb9bc2d76819ef3504c", "is_reserved": 0, "rental_uris": {"android": "https://dc.lft.to/lastmile_qr_scan", "ios": "https://dc.lft.to/lastmile_qr_scan"}, "fusion_lon": 0.0}, {"lat": 38.9398885, "is_disabled": 0, "type": "electric_scooter", "lon": -77.07175266666667, "bike_id": "3b9a11f53b2daf333124a94cbc436cca", "fusion_lat": 0.0, "name": "3b9a11f53b2daf333124a94cbc436cca", "is_reserved": 0, "rental_uris": {"android": "https://dc.lft.to/lastmile_qr_scan", "ios": "https://dc.lft.to/lastmile_qr_scan"}, "fusion_lon": 0.0}, {"lat": 38.897339833333334, "is_disabled": 0, "type": "electric_scooter", "lon": -77.04528666666667, "bike_id": "97d9fe0f6e7cbf38b398395bbe8a356c", "fusion_lat": 0.0, "name": "97d9fe0f6e7cbf38b398395bbe8a356c", "is_reserved": 0, "rental_uris": {"android": "https://dc.lft.to/lastmile_qr_scan", "ios": "https://dc.lft.to/lastmile_qr_scan"}, "fusion_lon": 0.0}, {"lat": 38.912194, "is_disabled": 0, "type": "electric_scooter", "lon": -77.02182733333333, "bike_id": "d2d2fb4e3a8db23b39e1d10d116800e0", "fusion_lat": 0.0, "name": "d2d2fb4e3a8db23b39e1d10d116800e0", "is_reserved": 0, "rental_uris": {"android": "https://dc.lft.to/lastmile_qr_scan", "ios": "https://dc.lft.to/lastmile_qr_scan"}, "fusion_lon": 0.0}, {"lat": 38.93253416666667, "is_disabled": 0, "type": "electric_scooter", "lon": -77.04015066666666, "bike_id": "7f1a1194b081809455ca948ae9d6eac0", "fusion_lat": 0.0, "name": "7f1a1194b081809455ca948ae9d6eac0", "is_reserved": 0, "rental_uris": {"android": "https://dc.lft.to/lastmile_qr_scan", "ios": "https://dc.lft.to/lastmile_qr_scan"}, "fusion_lon": 0.0}, {"lat": 38.917036833333334, "is_disabled": 0, "type": "electric_scooter", "lon": -77.03034383333333, "bike_id": "a535572db6ea41a93ca1da70478f563e", "fusion_lat": 0.0, "name": "a535572db6ea41a93ca1da70478f563e", "is_reserved": 0, "rental_uris": {"android": "https://dc.lft.to/lastmile_qr_scan", "ios": "https://dc.lft.to/lastmile_qr_scan"}, "fusion_lon": 0.0}, {"lat": 38.90630766666666, "is_disabled": 0, "type": "electric_scooter", "lon": -77.00825166666667, "bike_id": "b460554520d77029b650e826539f1880", "fusion_lat": 0.0, "name": "b460554520d77029b650e826539f1880", "is_reserved": 0, "rental_uris": {"android": "https://dc.lft.to/lastmile_qr_scan", "ios": "https://dc.lft.to/lastmile_qr_scan"}, "fusion_lon": 0.0}, {"lat": 38.8974225, "is_disabled": 0, "type": "electric_scooter", "lon": -77.000086, "bike_id": "0f7055889a8c613639e3d6ec1042d5ac", "fusion_lat": 0.0, "name": "0f7055889a8c613639e3d6ec1042d5ac", "is_reserved": 0, "rental_uris": {"android": "https://dc.lft.to/lastmile_qr_scan", "ios": "https://dc.lft.to/lastmile_qr_scan"}, "fusion_lon": 0.0}, {"lat": 38.90973733333333, "is_disabled": 0, "type": "electric_scooter", "lon": -77.05261783333333, "bike_id": "52917760886020e8f98fbeb0e23e5e4e", "fusion_lat": 0.0, "name": "52917760886020e8f98fbeb0e23e5e4e", "is_reserved": 0, "rental_uris": {"android": "https://dc.lft.to/lastmile_qr_scan", "ios": "https://dc.lft.to/lastmile_qr_scan"}, "fusion_lon": 0.0}, {"lat": 38.86662283333333, "is_disabled": 0, "type": "electric_scooter", "lon": -76.9891285, "bike_id": "93ceecbef749647631dbe3bebe3fa35b", "fusion_lat": 0.0, "name": "93ceecbef749647631dbe3bebe3fa35b", "is_reserved": 0, "rental_uris": {"android": "https://dc.lft.to/lastmile_qr_scan", "ios": "https://dc.lft.to/lastmile_qr_scan"}, "fusion_lon": 0.0}, {"lat": 38.92134816666667, "is_disabled": 0, "type": "electric_scooter", "lon": -77.03658283333333, "bike_id": "e9151ffe950ca964769ef9a557d7425b", "fusion_lat": 0.0, "name": "e9151ffe950ca964769ef9a557d7425b", "is_reserved": 0, "rental_uris": {"android": "https://dc.lft.to/lastmile_qr_scan", "ios": "https://dc.lft.to/lastmile_qr_scan"}, "fusion_lon": 0.0}, {"lat": 38.929694833333336, "is_disabled": 0, "type": "electric_scooter", "lon": -77.03186316666667, "bike_id": "2e5fcd18e25de7bd02cd5d7ab03cd82f", "fusion_lat": 0.0, "name": "2e5fcd18e25de7bd02cd5d7ab03cd82f", "is_reserved": 0, "rental_uris": {"android": "https://dc.lft.to/lastmile_qr_scan", "ios": "https://dc.lft.to/lastmile_qr_scan"}, "fusion_lon": 0.0}, {"lat": 38.896412833333336, "is_disabled": 0, "type": "electric_scooter", "lon": -77.04667633333334, "bike_id": "b11d2328293a8aa87a6ab428f6c5b6cd", "fusion_lat": 0.0, "name": "b11d2328293a8aa87a6ab428f6c5b6cd", "is_reserved": 0, "rental_uris": {"android": "https://dc.lft.to/lastmile_qr_scan", "ios": "https://dc.lft.to/lastmile_qr_scan"}, "fusion_lon": 0.0}, {"lat": 38.91013733333333, "is_disabled": 0, "type": "electric_scooter", "lon": -77.03011866666667, "bike_id": "69ef04ede0a082d6971f4f6351f5e21f", "fusion_lat": 0.0, "name": "69ef04ede0a082d6971f4f6351f5e21f", "is_reserved": 0, "rental_uris": {"android": "https://dc.lft.to/lastmile_qr_scan", "ios": "https://dc.lft.to/lastmile_qr_scan"}, "fusion_lon": 0.0}, {"lat": 38.9284095, "is_disabled": 0, "type": "electric_scooter", "lon": -77.05421366666667, "bike_id": "b4cde08fbe9af89519dca6b02f96d5f3", "fusion_lat": 0.0, "name": "b4cde08fbe9af89519dca6b02f96d5f3", "is_reserved": 0, "rental_uris": {"android": "https://dc.lft.to/lastmile_qr_scan", "ios": "https://dc.lft.to/lastmile_qr_scan"}, "fusion_lon": 0.0}, {"lat": 38.938502666666665, "is_disabled": 0, "type": "electric_scooter", "lon": -77.0339575, "bike_id": "01ead491125da06e471ec414eeae01bb", "fusion_lat": 0.0, "name": "01ead491125da06e471ec414eeae01bb", "is_reserved": 0, "rental_uris": {"android": "https://dc.lft.to/lastmile_qr_scan", "ios": "https://dc.lft.to/lastmile_qr_scan"}, "fusion_lon": 0.0}, {"lat": 38.934844, "is_disabled": 0, "type": "electric_bike", "lon": -77.03014366666666, "bike_id": "6dc60128388cea0cef64837b7dccc516", "fusion_lat": 0.0, "name": "6dc60128388cea0cef64837b7dccc516", "is_reserved": 0, "rental_uris": {"android": "https://dc.lft.to/lastmile_qr_scan", "ios": "https://dc.lft.to/lastmile_qr_scan"}, "fusion_lon": 0.0}, {"lat": 38.917836333333334, "is_disabled": 0, "type": "electric_scooter", "lon": -77.02311033333334, "bike_id": "4ca9fb40e09c93c501ff9df5707a9a63", "fusion_lat": 0.0, "name": "4ca9fb40e09c93c501ff9df5707a9a63", "is_reserved": 0, "rental_uris": {"android": "https://dc.lft.to/lastmile_qr_scan", "ios": "https://dc.lft.to/lastmile_qr_scan"}, "fusion_lon": 0.0}, {"lat": 38.846283666666665, "is_disabled": 0, "type": "electric_bike", "lon": -77.06942466666666, "bike_id": "ce3bfacbff048ce8d152f81a5a11c820", "fusion_lat": 0.0, "name": "ce3bfacbff048ce8d152f81a5a11c820", "is_reserved": 0, "rental_uris": {"android": "https://dc.lft.to/lastmile_qr_scan", "ios": "https://dc.lft.to/lastmile_qr_scan"}, "fusion_lon": 0.0}, {"lat": 38.9363385, "is_disabled": 0, "type": "electric_scooter", "lon": -77.03659133333333, "bike_id": "68cb5bc451e88d39ed7dbdb0d89bca26", "fusion_lat": 0.0, "name": "68cb5bc451e88d39ed7dbdb0d89bca26", "is_reserved": 0, "rental_uris": {"android": "https://dc.lft.to/lastmile_qr_scan", "ios": "https://dc.lft.to/lastmile_qr_scan"}, "fusion_lon": 0.0}, {"lat": 38.91841483333333, "is_disabled": 0, "type": "electric_scooter", "lon": -76.96542666666667, "bike_id": "4b72bcf37cc05bef46a727890f61556d", "fusion_lat": 0.0, "name": "4b72bcf37cc05bef46a727890f61556d", "is_reserved": 0, "rental_uris": {"android": "https://dc.lft.to/lastmile_qr_scan", "ios": "https://dc.lft.to/lastmile_qr_scan"}, "fusion_lon": 0.0}, {"lat": 38.923815166666664, "is_disabled": 0, "type": "electric_scooter", "lon": -77.03074166666667, "bike_id": "ce3298dce3a838bd8af6e17cb15509de", "fusion_lat": 0.0, "name": "ce3298dce3a838bd8af6e17cb15509de", "is_reserved": 0, "rental_uris": {"android": "https://dc.lft.to/lastmile_qr_scan", "ios": "https://dc.lft.to/lastmile_qr_scan"}, "fusion_lon": 0.0}, {"lat": 38.9099235, "is_disabled": 0, "type": "electric_scooter", "lon": -77.0227855, "bike_id": "df81f6e944fc80b03688d543e5ebf43d", "fusion_lat": 0.0, "name": "df81f6e944fc80b03688d543e5ebf43d", "is_reserved": 0, "rental_uris": {"android": "https://dc.lft.to/lastmile_qr_scan", "ios": "https://dc.lft.to/lastmile_qr_scan"}, "fusion_lon": 0.0}, {"lat": 38.92311766666667, "is_disabled": 0, "type": "electric_bike", "lon": -77.0365985, "bike_id": "f948a8bcdad74229b5a8f1ae4a466c7e", "fusion_lat": 0.0, "name": "f948a8bcdad74229b5a8f1ae4a466c7e", "is_reserved": 0, "rental_uris": {"android": "https://dc.lft.to/lastmile_qr_scan", "ios": "https://dc.lft.to/lastmile_qr_scan"}, "fusion_lon": 0.0}, {"lat": 38.917167166666665, "is_disabled": 0, "type": "electric_scooter", "lon": -77.03464833333334, "bike_id": "35ccf140a35f4defbfc21938f6a8c270", "fusion_lat": 0.0, "name": "35ccf140a35f4defbfc21938f6a8c270", "is_reserved": 0, "rental_uris": {"android": "https://dc.lft.to/lastmile_qr_scan", "ios": "https://dc.lft.to/lastmile_qr_scan"}, "fusion_lon": 0.0}, {"lat": 38.894898166666664, "is_disabled": 0, "type": "electric_scooter", "lon": -77.02763566666667, "bike_id": "720608bfcef7a387b007a2f6bd79376d", "fusion_lat": 0.0, "name": "720608bfcef7a387b007a2f6bd79376d", "is_reserved": 0, "rental_uris": {"android": "https://dc.lft.to/lastmile_qr_scan", "ios": "https://dc.lft.to/lastmile_qr_scan"}, "fusion_lon": 0.0}, {"lat": 38.892795666666665, "is_disabled": 0, "type": "electric_scooter", "lon": -77.05033566666667, "bike_id": "551c52dfb70a46b71086cea7225076b4", "fusion_lat": 0.0, "name": "551c52dfb70a46b71086cea7225076b4", "is_reserved": 0, "rental_uris": {"android": "https://dc.lft.to/lastmile_qr_scan", "ios": "https://dc.lft.to/lastmile_qr_scan"}, "fusion_lon": 0.0}, {"lat": 38.92410516666666, "is_disabled": 0, "type": "electric_scooter", "lon": -77.02976216666667, "bike_id": "ea9aaa81ca8d19284a5c2d1f52b681a4", "fusion_lat": 0.0, "name": "ea9aaa81ca8d19284a5c2d1f52b681a4", "is_reserved": 0, "rental_uris": {"android": "https://dc.lft.to/lastmile_qr_scan", "ios": "https://dc.lft.to/lastmile_qr_scan"}, "fusion_lon": 0.0}, {"lat": 38.866576, "is_disabled": 0, "type": "electric_scooter", "lon": -76.99012333333333, "bike_id": "885bd4feb3ca34f7f835bcbaba5da774", "fusion_lat": 0.0, "name": "885bd4feb3ca34f7f835bcbaba5da774", "is_reserved": 0, "rental_uris": {"android": "https://dc.lft.to/lastmile_qr_scan", "ios": "https://dc.lft.to/lastmile_qr_scan"}, "fusion_lon": 0.0}, {"lat": 38.8873595, "is_disabled": 0, "type": "electric_scooter", "lon": -77.03203233333333, "bike_id": "b41e988fd2f6b4f1bdff76d3364c4fad", "fusion_lat": 0.0, "name": "b41e988fd2f6b4f1bdff76d3364c4fad", "is_reserved": 0, "rental_uris": {"android": "https://dc.lft.to/lastmile_qr_scan", "ios": "https://dc.lft.to/lastmile_qr_scan"}, "fusion_lon": 0.0}, {"lat": 38.908273333333334, "is_disabled": 0, "type": "electric_scooter", "lon": -76.94143783333334, "bike_id": "f9cbdc2bcefd490d9059bc51180f644d", "fusion_lat": 0.0, "name": "f9cbdc2bcefd490d9059bc51180f644d", "is_reserved": 0, "rental_uris": {"android": "https://dc.lft.to/lastmile_qr_scan", "ios": "https://dc.lft.to/lastmile_qr_scan"}, "fusion_lon": 0.0}, {"lat": 38.90498016666667, "is_disabled": 0, "type": "electric_scooter", "lon": -77.00934416666666, "bike_id": "50ff8a777f99f02cc9acf75abe1f6a10", "fusion_lat": 0.0, "name": "50ff8a777f99f02cc9acf75abe1f6a10", "is_reserved": 0, "rental_uris": {"android": "https://dc.lft.to/lastmile_qr_scan", "ios": "https://dc.lft.to/lastmile_qr_scan"}, "fusion_lon": 0.0}, {"lat": 38.92481466666667, "is_disabled": 0, "type": "electric_scooter", "lon": -77.027241, "bike_id": "616531ae9e7be25cbf66a93a11ad6985", "fusion_lat": 0.0, "name": "616531ae9e7be25cbf66a93a11ad6985", "is_reserved": 0, "rental_uris": {"android": "https://dc.lft.to/lastmile_qr_scan", "ios": "https://dc.lft.to/lastmile_qr_scan"}, "fusion_lon": 0.0}, {"lat": 38.9215525, "is_disabled": 0, "type": "electric_scooter", "lon": -77.04239916666667, "bike_id": "ed00462ed99d306266316f8675db2713", "fusion_lat": 0.0, "name": "ed00462ed99d306266316f8675db2713", "is_reserved": 0, "rental_uris": {"android": "https://dc.lft.to/lastmile_qr_scan", "ios": "https://dc.lft.to/lastmile_qr_scan"}, "fusion_lon": 0.0}, {"lat": 38.91729733333333, "is_disabled": 0, "type": "electric_scooter", "lon": -77.040939, "bike_id": "caaf1354b5ba1d1363e7ff15e5455a1e", "fusion_lat": 0.0, "name": "caaf1354b5ba1d1363e7ff15e5455a1e", "is_reserved": 0, "rental_uris": {"android": "https://dc.lft.to/lastmile_qr_scan", "ios": "https://dc.lft.to/lastmile_qr_scan"}, "fusion_lon": 0.0}, {"lat": 38.89616616666667, "is_disabled": 0, "type": "electric_scooter", "lon": -77.021804, "bike_id": "3343f014b985f829262aebc77082d4f8", "fusion_lat": 0.0, "name": "3343f014b985f829262aebc77082d4f8", "is_reserved": 0, "rental_uris": {"android": "https://dc.lft.to/lastmile_qr_scan", "ios": "https://dc.lft.to/lastmile_qr_scan"}, "fusion_lon": 0.0}, {"lat": 38.908177333333335, "is_disabled": 0, "type": "electric_scooter", "lon": -76.98296183333333, "bike_id": "a21321e48f2876857de119a307609f9c", "fusion_lat": 0.0, "name": "a21321e48f2876857de119a307609f9c", "is_reserved": 0, "rental_uris": {"android": "https://dc.lft.to/lastmile_qr_scan", "ios": "https://dc.lft.to/lastmile_qr_scan"}, "fusion_lon": 0.0}, {"lat": 38.9053425, "is_disabled": 0, "type": "electric_scooter", "lon": -77.00576266666667, "bike_id": "38ef45187dfc8e0dfaf756297ab7770f", "fusion_lat": 0.0, "name": "38ef45187dfc8e0dfaf756297ab7770f", "is_reserved": 0, "rental_uris": {"android": "https://dc.lft.to/lastmile_qr_scan", "ios": "https://dc.lft.to/lastmile_qr_scan"}, "fusion_lon": 0.0}, {"lat": 38.896003666666665, "is_disabled": 0, "type": "electric_scooter", "lon": -76.95519766666666, "bike_id": "e22b4f8a33cd3a41a808efa1d6564876", "fusion_lat": 0.0, "name": "e22b4f8a33cd3a41a808efa1d6564876", "is_reserved": 0, "rental_uris": {"android": "https://dc.lft.to/lastmile_qr_scan", "ios": "https://dc.lft.to/lastmile_qr_scan"}, "fusion_lon": 0.0}, {"lat": 38.933593, "is_disabled": 0, "type": "electric_scooter", "lon": -77.0372535, "bike_id": "0113cf3880fd237f0fc8c33c16c89524", "fusion_lat": 0.0, "name": "0113cf3880fd237f0fc8c33c16c89524", "is_reserved": 0, "rental_uris": {"android": "https://dc.lft.to/lastmile_qr_scan", "ios": "https://dc.lft.to/lastmile_qr_scan"}, "fusion_lon": 0.0}, {"lat": 38.88479866666667, "is_disabled": 0, "type": "electric_scooter", "lon": -76.945235, "bike_id": "47a38fccb59b2477718549670ba41150", "fusion_lat": 0.0, "name": "47a38fccb59b2477718549670ba41150", "is_reserved": 0, "rental_uris": {"android": "https://dc.lft.to/lastmile_qr_scan", "ios": "https://dc.lft.to/lastmile_qr_scan"}, "fusion_lon": 0.0}, {"lat": 38.8996785, "is_disabled": 0, "type": "electric_scooter", "lon": -77.01607266666667, "bike_id": "31907f847c85ec17167c2c4d6143d7fd", "fusion_lat": 0.0, "name": "31907f847c85ec17167c2c4d6143d7fd", "is_reserved": 0, "rental_uris": {"android": "https://dc.lft.to/lastmile_qr_scan", "ios": "https://dc.lft.to/lastmile_qr_scan"}, "fusion_lon": 0.0}, {"lat": 38.92475316666667, "is_disabled": 0, "type": "electric_scooter", "lon": -77.03377016666667, "bike_id": "bbfb25fdeb798213d62b199b4bc2e3a3", "fusion_lat": 0.0, "name": "bbfb25fdeb798213d62b199b4bc2e3a3", "is_reserved": 0, "rental_uris": {"android": "https://dc.lft.to/lastmile_qr_scan", "ios": "https://dc.lft.to/lastmile_qr_scan"}, "fusion_lon": 0.0}, {"lat": 38.8961505, "is_disabled": 0, "type": "electric_scooter", "lon": -76.9929505, "bike_id": "fb4dc5844dea6bb9690b9265d1da25a0", "fusion_lat": 0.0, "name": "fb4dc5844dea6bb9690b9265d1da25a0", "is_reserved": 0, "rental_uris": {"android": "https://dc.lft.to/lastmile_qr_scan", "ios": "https://dc.lft.to/lastmile_qr_scan"}, "fusion_lon": 0.0}, {"lat": 38.935287333333335, "is_disabled": 0, "type": "electric_scooter", "lon": -77.03402166666666, "bike_id": "a55ec8cbd20be536f7932ec3f814d82d", "fusion_lat": 0.0, "name": "a55ec8cbd20be536f7932ec3f814d82d", "is_reserved": 0, "rental_uris": {"android": "https://dc.lft.to/lastmile_qr_scan", "ios": "https://dc.lft.to/lastmile_qr_scan"}, "fusion_lon": 0.0}, {"lat": 38.861089166666666, "is_disabled": 0, "type": "electric_scooter", "lon": -76.98383883333334, "bike_id": "41d9e9619c13ec314b69e2520018fb9d", "fusion_lat": 0.0, "name": "41d9e9619c13ec314b69e2520018fb9d", "is_reserved": 0, "rental_uris": {"android": "https://dc.lft.to/lastmile_qr_scan", "ios": "https://dc.lft.to/lastmile_qr_scan"}, "fusion_lon": 0.0}, {"lat": 38.90024966666667, "is_disabled": 0, "type": "electric_scooter", "lon": -77.04047933333334, "bike_id": "1abb1b53af2055f780ce8635201fb370", "fusion_lat": 0.0, "name": "1abb1b53af2055f780ce8635201fb370", "is_reserved": 0, "rental_uris": {"android": "https://dc.lft.to/lastmile_qr_scan", "ios": "https://dc.lft.to/lastmile_qr_scan"}, "fusion_lon": 0.0}, {"lat": 38.92540433333333, "is_disabled": 0, "type": "electric_scooter", "lon": -77.0344915, "bike_id": "3dfb31aa5eb7b8f941aa1de67c60f587", "fusion_lat": 0.0, "name": "3dfb31aa5eb7b8f941aa1de67c60f587", "is_reserved": 0, "rental_uris": {"android": "https://dc.lft.to/lastmile_qr_scan", "ios": "https://dc.lft.to/lastmile_qr_scan"}, "fusion_lon": 0.0}, {"lat": 38.930832, "is_disabled": 0, "type": "electric_scooter", "lon": -77.077476, "bike_id": "32c25a8dc55ef12c9fb8d1a2ff470795", "fusion_lat": 0.0, "name": "32c25a8dc55ef12c9fb8d1a2ff470795", "is_reserved": 0, "rental_uris": {"android": "https://dc.lft.to/lastmile_qr_scan", "ios": "https://dc.lft.to/lastmile_qr_scan"}, "fusion_lon": 0.0}, {"lat": 38.902620166666665, "is_disabled": 0, "type": "electric_scooter", "lon": -77.029019, "bike_id": "3c3b5087a6314f05a46968beba64bcf6", "fusion_lat": 0.0, "name": "3c3b5087a6314f05a46968beba64bcf6", "is_reserved": 0, "rental_uris": {"android": "https://dc.lft.to/lastmile_qr_scan", "ios": "https://dc.lft.to/lastmile_qr_scan"}, "fusion_lon": 0.0}, {"lat": 38.89190983333334, "is_disabled": 0, "type": "electric_scooter", "lon": -76.99623383333333, "bike_id": "043e4f19aaa7cbb3df3bcf587ca20ff1", "fusion_lat": 0.0, "name": "043e4f19aaa7cbb3df3bcf587ca20ff1", "is_reserved": 0, "rental_uris": {"android": "https://dc.lft.to/lastmile_qr_scan", "ios": "https://dc.lft.to/lastmile_qr_scan"}, "fusion_lon": 0.0}, {"lat": 39.05812866666667, "is_disabled": 0, "type": "electric_bike", "lon": -77.12624866666667, "bike_id": "71305efcd0f0d819846c50f36dd523b0", "fusion_lat": 0.0, "name": "71305efcd0f0d819846c50f36dd523b0", "is_reserved": 0, "rental_uris": {"android": "https://dc.lft.to/lastmile_qr_scan", "ios": "https://dc.lft.to/lastmile_qr_scan"}, "fusion_lon": 0.0}, {"lat": 38.8403085, "is_disabled": 0, "type": "electric_bike", "lon": -76.975862, "bike_id": "f61ffc723360bd2699a01f697127b099", "fusion_lat": 0.0, "name": "f61ffc723360bd2699a01f697127b099", "is_reserved": 0, "rental_uris": {"android": "https://dc.lft.to/lastmile_qr_scan", "ios": "https://dc.lft.to/lastmile_qr_scan"}, "fusion_lon": 0.0}, {"lat": 38.9072265, "is_disabled": 0, "type": "electric_scooter", "lon": -76.98929016666666, "bike_id": "58dc5d9c605a87a6d117778127ac8b38", "fusion_lat": 0.0, "name": "58dc5d9c605a87a6d117778127ac8b38", "is_reserved": 0, "rental_uris": {"android": "https://dc.lft.to/lastmile_qr_scan", "ios": "https://dc.lft.to/lastmile_qr_scan"}, "fusion_lon": 0.0}, {"lat": 38.91706383333333, "is_disabled": 0, "type": "electric_scooter", "lon": -77.00117233333333, "bike_id": "2c381c414d3e2cc96ecc11d9b888db30", "fusion_lat": 0.0, "name": "2c381c414d3e2cc96ecc11d9b888db30", "is_reserved": 0, "rental_uris": {"android": "https://dc.lft.to/lastmile_qr_scan", "ios": "https://dc.lft.to/lastmile_qr_scan"}, "fusion_lon": 0.0}, {"lat": 38.898706833333335, "is_disabled": 0, "type": "electric_scooter", "lon": -77.02377066666666, "bike_id": "7bd8cc1b126d1813070b7ff22cb3a952", "fusion_lat": 0.0, "name": "7bd8cc1b126d1813070b7ff22cb3a952", "is_reserved": 0, "rental_uris": {"android": "https://dc.lft.to/lastmile_qr_scan", "ios": "https://dc.lft.to/lastmile_qr_scan"}, "fusion_lon": 0.0}, {"lat": 38.90150083333333, "is_disabled": 0, "type": "electric_scooter", "lon": -77.02394583333333, "bike_id": "ea71962f36b1db58353ebf62c522a49d", "fusion_lat": 0.0, "name": "ea71962f36b1db58353ebf62c522a49d", "is_reserved": 0, "rental_uris": {"android": "https://dc.lft.to/lastmile_qr_scan", "ios": "https://dc.lft.to/lastmile_qr_scan"}, "fusion_lon": 0.0}, {"lat": 38.895567, "is_disabled": 0, "type": "electric_scooter", "lon": -76.930787, "bike_id": "43bc0e16f27e581fbeeb0973c4eeabd8", "fusion_lat": 0.0, "name": "43bc0e16f27e581fbeeb0973c4eeabd8", "is_reserved": 0, "rental_uris": {"android": "https://dc.lft.to/lastmile_qr_scan", "ios": "https://dc.lft.to/lastmile_qr_scan"}, "fusion_lon": 0.0}, {"lat": 38.920033833333335, "is_disabled": 0, "type": "electric_scooter", "lon": -77.038743, "bike_id": "b0d0891425d1582b40eeda544c938e6f", "fusion_lat": 0.0, "name": "b0d0891425d1582b40eeda544c938e6f", "is_reserved": 0, "rental_uris": {"android": "https://dc.lft.to/lastmile_qr_scan", "ios": "https://dc.lft.to/lastmile_qr_scan"}, "fusion_lon": 0.0}, {"lat": 38.92657583333333, "is_disabled": 0, "type": "electric_scooter", "lon": -77.02435333333334, "bike_id": "a94a4f4f7310eb641da6c03266fd889e", "fusion_lat": 0.0, "name": "a94a4f4f7310eb641da6c03266fd889e", "is_reserved": 0, "rental_uris": {"android": "https://dc.lft.to/lastmile_qr_scan", "ios": "https://dc.lft.to/lastmile_qr_scan"}, "fusion_lon": 0.0}, {"lat": 38.93936183333334, "is_disabled": 0, "type": "electric_scooter", "lon": -77.03679033333333, "bike_id": "8ba1707b5920a52c7dab527bd8e448b8", "fusion_lat": 0.0, "name": "8ba1707b5920a52c7dab527bd8e448b8", "is_reserved": 0, "rental_uris": {"android": "https://dc.lft.to/lastmile_qr_scan", "ios": "https://dc.lft.to/lastmile_qr_scan"}, "fusion_lon": 0.0}, {"lat": 38.939653, "is_disabled": 0, "type": "electric_bike", "lon": -77.36087316666666, "bike_id": "b5ae812e6789da414c50cb959f26c746", "fusion_lat": 0.0, "name": "b5ae812e6789da414c50cb959f26c746", "is_reserved": 0, "rental_uris": {"android": "https://dc.lft.to/lastmile_qr_scan", "ios": "https://dc.lft.to/lastmile_qr_scan"}, "fusion_lon": 0.0}, {"lat": 38.899697333333336, "is_disabled": 0, "type": "electric_scooter", "lon": -77.05706566666667, "bike_id": "e4231e8e0923ca5cba3905362dc1ceac", "fusion_lat": 0.0, "name": "e4231e8e0923ca5cba3905362dc1ceac", "is_reserved": 0, "rental_uris": {"android": "https://dc.lft.to/lastmile_qr_scan", "ios": "https://dc.lft.to/lastmile_qr_scan"}, "fusion_lon": 0.0}, {"lat": 38.927566666666664, "is_disabled": 0, "type": "electric_scooter", "lon": -77.03214483333333, "bike_id": "30737b73050555bb03013848374acde1", "fusion_lat": 0.0, "name": "30737b73050555bb03013848374acde1", "is_reserved": 0, "rental_uris": {"android": "https://dc.lft.to/lastmile_qr_scan", "ios": "https://dc.lft.to/lastmile_qr_scan"}, "fusion_lon": 0.0}, {"lat": 38.897346, "is_disabled": 0, "type": "electric_scooter", "lon": -77.04680716666667, "bike_id": "76775bfd6ac08078626caf596de791e5", "fusion_lat": 0.0, "name": "76775bfd6ac08078626caf596de791e5", "is_reserved": 0, "rental_uris": {"android": "https://dc.lft.to/lastmile_qr_scan", "ios": "https://dc.lft.to/lastmile_qr_scan"}, "fusion_lon": 0.0}, {"lat": 38.952894666666666, "is_disabled": 0, "type": "electric_bike", "lon": -76.9459575, "bike_id": "243cbf3480e0dab4b93b6db05eed5772", "fusion_lat": 0.0, "name": "243cbf3480e0dab4b93b6db05eed5772", "is_reserved": 0, "rental_uris": {"android": "https://dc.lft.to/lastmile_qr_scan", "ios": "https://dc.lft.to/lastmile_qr_scan"}, "fusion_lon": 0.0}, {"lat": 38.91719766666667, "is_disabled": 0, "type": "electric_scooter", "lon": -77.03119333333333, "bike_id": "9df7ce1a45dc89a6b0ec5db20308d8e9", "fusion_lat": 0.0, "name": "9df7ce1a45dc89a6b0ec5db20308d8e9", "is_reserved": 0, "rental_uris": {"android": "https://dc.lft.to/lastmile_qr_scan", "ios": "https://dc.lft.to/lastmile_qr_scan"}, "fusion_lon": 0.0}, {"lat": 38.909918, "is_disabled": 0, "type": "electric_scooter", "lon": -77.0226895, "bike_id": "0d3bcea06ca88d510b042ccb2edc87be", "fusion_lat": 0.0, "name": "0d3bcea06ca88d510b042ccb2edc87be", "is_reserved": 0, "rental_uris": {"android": "https://dc.lft.to/lastmile_qr_scan", "ios": "https://dc.lft.to/lastmile_qr_scan"}, "fusion_lon": 0.0}, {"lat": 38.9118035, "is_disabled": 0, "type": "electric_scooter", "lon": -77.00646916666666, "bike_id": "fd3eda7ab5445f0eb1da64bfdb20205f", "fusion_lat": 0.0, "name": "fd3eda7ab5445f0eb1da64bfdb20205f", "is_reserved": 0, "rental_uris": {"android": "https://dc.lft.to/lastmile_qr_scan", "ios": "https://dc.lft.to/lastmile_qr_scan"}, "fusion_lon": 0.0}, {"lat": 38.87066883333333, "is_disabled": 0, "type": "electric_scooter", "lon": -77.00844166666667, "bike_id": "29c8fb89acc3aa918c37b4670f14f4a8", "fusion_lat": 0.0, "name": "29c8fb89acc3aa918c37b4670f14f4a8", "is_reserved": 0, "rental_uris": {"android": "https://dc.lft.to/lastmile_qr_scan", "ios": "https://dc.lft.to/lastmile_qr_scan"}, "fusion_lon": 0.0}, {"lat": 38.91822666666667, "is_disabled": 0, "type": "electric_scooter", "lon": -77.01273633333334, "bike_id": "96dc56cc0519094112de8e7eb784cd45", "fusion_lat": 0.0, "name": "96dc56cc0519094112de8e7eb784cd45", "is_reserved": 0, "rental_uris": {"android": "https://dc.lft.to/lastmile_qr_scan", "ios": "https://dc.lft.to/lastmile_qr_scan"}, "fusion_lon": 0.0}, {"lat": 38.9036405, "is_disabled": 0, "type": "electric_scooter", "lon": -77.03925, "bike_id": "ae980187d9de62a7dc8cb5136971755a", "fusion_lat": 0.0, "name": "ae980187d9de62a7dc8cb5136971755a", "is_reserved": 0, "rental_uris": {"android": "https://dc.lft.to/lastmile_qr_scan", "ios": "https://dc.lft.to/lastmile_qr_scan"}, "fusion_lon": 0.0}, {"lat": 38.87473333333333, "is_disabled": 0, "type": "electric_scooter", "lon": -77.00939666666666, "bike_id": "d7fe8ab6c10208ddd5b39366722465da", "fusion_lat": 0.0, "name": "d7fe8ab6c10208ddd5b39366722465da", "is_reserved": 0, "rental_uris": {"android": "https://dc.lft.to/lastmile_qr_scan", "ios": "https://dc.lft.to/lastmile_qr_scan"}, "fusion_lon": 0.0}, {"lat": 38.902828666666665, "is_disabled": 0, "type": "electric_scooter", "lon": -76.97392483333333, "bike_id": "0ea2946e1dece9d6dc5d6f8d07a72af0", "fusion_lat": 0.0, "name": "0ea2946e1dece9d6dc5d6f8d07a72af0", "is_reserved": 0, "rental_uris": {"android": "https://dc.lft.to/lastmile_qr_scan", "ios": "https://dc.lft.to/lastmile_qr_scan"}, "fusion_lon": 0.0}, {"lat": 38.895946, "is_disabled": 0, "type": "electric_scooter", "lon": -77.02911666666667, "bike_id": "22ec7e45f3cc8d15778cc45f6c3b54f5", "fusion_lat": 0.0, "name": "22ec7e45f3cc8d15778cc45f6c3b54f5", "is_reserved": 0, "rental_uris": {"android": "https://dc.lft.to/lastmile_qr_scan", "ios": "https://dc.lft.to/lastmile_qr_scan"}, "fusion_lon": 0.0}, {"lat": 38.92854633333334, "is_disabled": 0, "type": "electric_bike", "lon": -77.22225916666666, "bike_id": "79bfc73902490ab5e6efce019083d78e", "fusion_lat": 0.0, "name": "79bfc73902490ab5e6efce019083d78e", "is_reserved": 0, "rental_uris": {"android": "https://dc.lft.to/lastmile_qr_scan", "ios": "https://dc.lft.to/lastmile_qr_scan"}, "fusion_lon": 0.0}, {"lat": 38.906591, "is_disabled": 0, "type": "electric_scooter", "lon": -77.00850383333334, "bike_id": "98d3fb5ffdb36e0a9d8d0374809f6747", "fusion_lat": 0.0, "name": "98d3fb5ffdb36e0a9d8d0374809f6747", "is_reserved": 0, "rental_uris": {"android": "https://dc.lft.to/lastmile_qr_scan", "ios": "https://dc.lft.to/lastmile_qr_scan"}, "fusion_lon": 0.0}, {"lat": 38.9037865, "is_disabled": 0, "type": "electric_scooter", "lon": -77.0177995, "bike_id": "18aab59687dc9cfa903a8fb6d039ba10", "fusion_lat": 0.0, "name": "18aab59687dc9cfa903a8fb6d039ba10", "is_reserved": 0, "rental_uris": {"android": "https://dc.lft.to/lastmile_qr_scan", "ios": "https://dc.lft.to/lastmile_qr_scan"}, "fusion_lon": 0.0}, {"lat": 38.923462666666666, "is_disabled": 0, "type": "electric_scooter", "lon": -77.05118366666666, "bike_id": "b71c848f1e42acbd031a9cec5868811e", "fusion_lat": 0.0, "name": "b71c848f1e42acbd031a9cec5868811e", "is_reserved": 0, "rental_uris": {"android": "https://dc.lft.to/lastmile_qr_scan", "ios": "https://dc.lft.to/lastmile_qr_scan"}, "fusion_lon": 0.0}, {"lat": 38.9177155, "is_disabled": 0, "type": "electric_scooter", "lon": -77.0288395, "bike_id": "908b04cc105b291405d2d524c7fe0ef0", "fusion_lat": 0.0, "name": "908b04cc105b291405d2d524c7fe0ef0", "is_reserved": 0, "rental_uris": {"android": "https://dc.lft.to/lastmile_qr_scan", "ios": "https://dc.lft.to/lastmile_qr_scan"}, "fusion_lon": 0.0}, {"lat": 38.95921766666667, "is_disabled": 0, "type": "electric_bike", "lon": -77.03115149999999, "bike_id": "e0bdcda31fe99e85d3e7f093a2bd8d27", "fusion_lat": 0.0, "name": "e0bdcda31fe99e85d3e7f093a2bd8d27", "is_reserved": 0, "rental_uris": {"android": "https://dc.lft.to/lastmile_qr_scan", "ios": "https://dc.lft.to/lastmile_qr_scan"}, "fusion_lon": 0.0}, {"lat": 39.08856166666666, "is_disabled": 0, "type": "electric_bike", "lon": -77.1784225, "bike_id": "c83e9bdd57ae83952dfb57d686079aa4", "fusion_lat": 0.0, "name": "c83e9bdd57ae83952dfb57d686079aa4", "is_reserved": 0, "rental_uris": {"android": "https://dc.lft.to/lastmile_qr_scan", "ios": "https://dc.lft.to/lastmile_qr_scan"}, "fusion_lon": 0.0}, {"lat": 38.96506, "is_disabled": 0, "type": "electric_bike", "lon": -77.028208, "bike_id": "cd776c3a405cbd2346928021c3aef8fc", "fusion_lat": 0.0, "name": "cd776c3a405cbd2346928021c3aef8fc", "is_reserved": 0, "rental_uris": {"android": "https://dc.lft.to/lastmile_qr_scan", "ios": "https://dc.lft.to/lastmile_qr_scan"}, "fusion_lon": 0.0}, {"lat": 38.878838333333334, "is_disabled": 0, "type": "electric_scooter", "lon": -77.02278366666667, "bike_id": "6dbef0ae6a713125341eb96335eca08a", "fusion_lat": 0.0, "name": "6dbef0ae6a713125341eb96335eca08a", "is_reserved": 0, "rental_uris": {"android": "https://dc.lft.to/lastmile_qr_scan", "ios": "https://dc.lft.to/lastmile_qr_scan"}, "fusion_lon": 0.0}, {"lat": 38.90506366666666, "is_disabled": 0, "type": "electric_scooter", "lon": -77.043478, "bike_id": "eb60ab5df36d4a47346a9e2bada14d4f", "fusion_lat": 0.0, "name": "eb60ab5df36d4a47346a9e2bada14d4f", "is_reserved": 0, "rental_uris": {"android": "https://dc.lft.to/lastmile_qr_scan", "ios": "https://dc.lft.to/lastmile_qr_scan"}, "fusion_lon": 0.0}, {"lat": 38.92589666666667, "is_disabled": 0, "type": "electric_scooter", "lon": -77.02435783333334, "bike_id": "2189d8ba8317cba716708cab026c60ca", "fusion_lat": 0.0, "name": "2189d8ba8317cba716708cab026c60ca", "is_reserved": 0, "rental_uris": {"android": "https://dc.lft.to/lastmile_qr_scan", "ios": "https://dc.lft.to/lastmile_qr_scan"}, "fusion_lon": 0.0}, {"lat": 38.902487666666666, "is_disabled": 0, "type": "electric_bike", "lon": -77.0056705, "bike_id": "69e3fc9d2f906ba03d78113ae1cd7cd1", "fusion_lat": 0.0, "name": "69e3fc9d2f906ba03d78113ae1cd7cd1", "is_reserved": 0, "rental_uris": {"android": "https://dc.lft.to/lastmile_qr_scan", "ios": "https://dc.lft.to/lastmile_qr_scan"}, "fusion_lon": 0.0}, {"lat": 38.98366333333333, "is_disabled": 0, "type": "electric_scooter", "lon": -77.02645933333334, "bike_id": "95a59454abe2c3e2a044825c5d44631e", "fusion_lat": 0.0, "name": "95a59454abe2c3e2a044825c5d44631e", "is_reserved": 0, "rental_uris": {"android": "https://dc.lft.to/lastmile_qr_scan", "ios": "https://dc.lft.to/lastmile_qr_scan"}, "fusion_lon": 0.0}, {"lat": 38.876373666666666, "is_disabled": 0, "type": "electric_scooter", "lon": -76.99321133333333, "bike_id": "7453b1e1e459f6577cb38ba44f7a342d", "fusion_lat": 0.0, "name": "7453b1e1e459f6577cb38ba44f7a342d", "is_reserved": 0, "rental_uris": {"android": "https://dc.lft.to/lastmile_qr_scan", "ios": "https://dc.lft.to/lastmile_qr_scan"}, "fusion_lon": 0.0}, {"lat": 38.92731066666666, "is_disabled": 0, "type": "electric_bike", "lon": -76.9936275, "bike_id": "06ef55004ec422fba4eb9eb2c2b40edd", "fusion_lat": 0.0, "name": "06ef55004ec422fba4eb9eb2c2b40edd", "is_reserved": 0, "rental_uris": {"android": "https://dc.lft.to/lastmile_qr_scan", "ios": "https://dc.lft.to/lastmile_qr_scan"}, "fusion_lon": 0.0}, {"lat": 38.903297333333335, "is_disabled": 0, "type": "electric_scooter", "lon": -77.03786333333333, "bike_id": "11ed6ab7aa37b4258f21bea9cce1edd0", "fusion_lat": 0.0, "name": "11ed6ab7aa37b4258f21bea9cce1edd0", "is_reserved": 0, "rental_uris": {"android": "https://dc.lft.to/lastmile_qr_scan", "ios": "https://dc.lft.to/lastmile_qr_scan"}, "fusion_lon": 0.0}, {"lat": 38.916092, "is_disabled": 0, "type": "electric_scooter", "lon": -77.04858733333333, "bike_id": "4f9d4fb78aeed9d52e2ef68a03683290", "fusion_lat": 0.0, "name": "4f9d4fb78aeed9d52e2ef68a03683290", "is_reserved": 0, "rental_uris": {"android": "https://dc.lft.to/lastmile_qr_scan", "ios": "https://dc.lft.to/lastmile_qr_scan"}, "fusion_lon": 0.0}, {"lat": 38.860525333333335, "is_disabled": 0, "type": "electric_scooter", "lon": -77.05745083333333, "bike_id": "b32cb0144f471a00a9824fc9a076d368", "fusion_lat": 0.0, "name": "b32cb0144f471a00a9824fc9a076d368", "is_reserved": 0, "rental_uris": {"android": "https://dc.lft.to/lastmile_qr_scan", "ios": "https://dc.lft.to/lastmile_qr_scan"}, "fusion_lon": 0.0}, {"lat": 38.91870883333333, "is_disabled": 0, "type": "electric_scooter", "lon": -77.042524, "bike_id": "428cfa388ff8a1aaa4df59ce4d60949d", "fusion_lat": 0.0, "name": "428cfa388ff8a1aaa4df59ce4d60949d", "is_reserved": 0, "rental_uris": {"android": "https://dc.lft.to/lastmile_qr_scan", "ios": "https://dc.lft.to/lastmile_qr_scan"}, "fusion_lon": 0.0}, {"lat": 38.90044016666667, "is_disabled": 0, "type": "electric_scooter", "lon": -77.0336835, "bike_id": "4171853aa473a1e30f15ded46c1f30f1", "fusion_lat": 0.0, "name": "4171853aa473a1e30f15ded46c1f30f1", "is_reserved": 0, "rental_uris": {"android": "https://dc.lft.to/lastmile_qr_scan", "ios": "https://dc.lft.to/lastmile_qr_scan"}, "fusion_lon": 0.0}, {"lat": 38.916058666666665, "is_disabled": 0, "type": "electric_scooter", "lon": -77.03855483333334, "bike_id": "5937c6567f3880a506b562df13092c85", "fusion_lat": 0.0, "name": "5937c6567f3880a506b562df13092c85", "is_reserved": 0, "rental_uris": {"android": "https://dc.lft.to/lastmile_qr_scan", "ios": "https://dc.lft.to/lastmile_qr_scan"}, "fusion_lon": 0.0}, {"lat": 38.92150266666667, "is_disabled": 0, "type": "electric_scooter", "lon": -77.03655366666666, "bike_id": "72c02b15b054f58e471c22c7a2ace7d2", "fusion_lat": 0.0, "name": "72c02b15b054f58e471c22c7a2ace7d2", "is_reserved": 0, "rental_uris": {"android": "https://dc.lft.to/lastmile_qr_scan", "ios": "https://dc.lft.to/lastmile_qr_scan"}, "fusion_lon": 0.0}, {"lat": 38.972283166666664, "is_disabled": 0, "type": "electric_bike", "lon": -76.99345583333333, "bike_id": "b7fea94494ef9e4a6de00eed1bbb3e9b", "fusion_lat": 0.0, "name": "b7fea94494ef9e4a6de00eed1bbb3e9b", "is_reserved": 0, "rental_uris": {"android": "https://dc.lft.to/lastmile_qr_scan", "ios": "https://dc.lft.to/lastmile_qr_scan"}, "fusion_lon": 0.0}, {"lat": 38.93860266666667, "is_disabled": 0, "type": "electric_scooter", "lon": -77.025629, "bike_id": "ec00c064eca4ec6ce9249d91a4f27578", "fusion_lat": 0.0, "name": "ec00c064eca4ec6ce9249d91a4f27578", "is_reserved": 0, "rental_uris": {"android": "https://dc.lft.to/lastmile_qr_scan", "ios": "https://dc.lft.to/lastmile_qr_scan"}, "fusion_lon": 0.0}, {"lat": 38.8954555, "is_disabled": 0, "type": "electric_scooter", "lon": -77.01108716666667, "bike_id": "7679759ff160537f1d5fca0127163575", "fusion_lat": 0.0, "name": "7679759ff160537f1d5fca0127163575", "is_reserved": 0, "rental_uris": {"android": "https://dc.lft.to/lastmile_qr_scan", "ios": "https://dc.lft.to/lastmile_qr_scan"}, "fusion_lon": 0.0}, {"lat": 38.90528316666666, "is_disabled": 0, "type": "electric_scooter", "lon": -77.06059883333333, "bike_id": "e794e9b6808c6c24007d97b6d6832f07", "fusion_lat": 0.0, "name": "e794e9b6808c6c24007d97b6d6832f07", "is_reserved": 0, "rental_uris": {"android": "https://dc.lft.to/lastmile_qr_scan", "ios": "https://dc.lft.to/lastmile_qr_scan"}, "fusion_lon": 0.0}, {"lat": 38.918648833333336, "is_disabled": 0, "type": "electric_scooter", "lon": -77.04592433333333, "bike_id": "9ff3abb989e7fa6a8a721d4290f42dd7", "fusion_lat": 0.0, "name": "9ff3abb989e7fa6a8a721d4290f42dd7", "is_reserved": 0, "rental_uris": {"android": "https://dc.lft.to/lastmile_qr_scan", "ios": "https://dc.lft.to/lastmile_qr_scan"}, "fusion_lon": 0.0}, {"lat": 38.912543666666664, "is_disabled": 0, "type": "electric_scooter", "lon": -77.00626066666666, "bike_id": "14134e37b853ab2a4004cda04cc59510", "fusion_lat": 0.0, "name": "14134e37b853ab2a4004cda04cc59510", "is_reserved": 0, "rental_uris": {"android": "https://dc.lft.to/lastmile_qr_scan", "ios": "https://dc.lft.to/lastmile_qr_scan"}, "fusion_lon": 0.0}, {"lat": 38.9051485, "is_disabled": 0, "type": "electric_scooter", "lon": -77.04732833333334, "bike_id": "e3aad44754a4ab19457480a92a910114", "fusion_lat": 0.0, "name": "e3aad44754a4ab19457480a92a910114", "is_reserved": 0, "rental_uris": {"android": "https://dc.lft.to/lastmile_qr_scan", "ios": "https://dc.lft.to/lastmile_qr_scan"}, "fusion_lon": 0.0}, {"lat": 38.91955383333333, "is_disabled": 0, "type": "electric_scooter", "lon": -76.98084366666667, "bike_id": "aba59a277f25d58eabce122fc234b756", "fusion_lat": 0.0, "name": "aba59a277f25d58eabce122fc234b756", "is_reserved": 0, "rental_uris": {"android": "https://dc.lft.to/lastmile_qr_scan", "ios": "https://dc.lft.to/lastmile_qr_scan"}, "fusion_lon": 0.0}, {"lat": 38.928862333333335, "is_disabled": 0, "type": "electric_scooter", "lon": -77.03331683333333, "bike_id": "81e0dfe63a05672ffe12d5f7cdbb80af", "fusion_lat": 0.0, "name": "81e0dfe63a05672ffe12d5f7cdbb80af", "is_reserved": 0, "rental_uris": {"android": "https://dc.lft.to/lastmile_qr_scan", "ios": "https://dc.lft.to/lastmile_qr_scan"}, "fusion_lon": 0.0}, {"lat": 38.878779, "is_disabled": 0, "type": "electric_scooter", "lon": -77.02312383333333, "bike_id": "5297f7ce25c77534e25e1ecacb4c9da6", "fusion_lat": 0.0, "name": "5297f7ce25c77534e25e1ecacb4c9da6", "is_reserved": 0, "rental_uris": {"android": "https://dc.lft.to/lastmile_qr_scan", "ios": "https://dc.lft.to/lastmile_qr_scan"}, "fusion_lon": 0.0}, {"lat": 38.87649866666667, "is_disabled": 0, "type": "electric_scooter", "lon": -77.0147755, "bike_id": "a09535c9d6dc0d7e7eeeb03f59a11079", "fusion_lat": 0.0, "name": "a09535c9d6dc0d7e7eeeb03f59a11079", "is_reserved": 0, "rental_uris": {"android": "https://dc.lft.to/lastmile_qr_scan", "ios": "https://dc.lft.to/lastmile_qr_scan"}, "fusion_lon": 0.0}, {"lat": 38.92895733333334, "is_disabled": 0, "type": "electric_scooter", "lon": -77.074468, "bike_id": "988fcb5e99e69dea57a33af71b32b66c", "fusion_lat": 0.0, "name": "988fcb5e99e69dea57a33af71b32b66c", "is_reserved": 0, "rental_uris": {"android": "https://dc.lft.to/lastmile_qr_scan", "ios": "https://dc.lft.to/lastmile_qr_scan"}, "fusion_lon": 0.0}, {"lat": 38.90309116666667, "is_disabled": 0, "type": "electric_scooter", "lon": -77.02085916666667, "bike_id": "239914d6a9f98b9963ca99b7c11c36ac", "fusion_lat": 0.0, "name": "239914d6a9f98b9963ca99b7c11c36ac", "is_reserved": 0, "rental_uris": {"android": "https://dc.lft.to/lastmile_qr_scan", "ios": "https://dc.lft.to/lastmile_qr_scan"}, "fusion_lon": 0.0}, {"lat": 38.88432433333333, "is_disabled": 0, "type": "electric_scooter", "lon": -77.03037616666667, "bike_id": "c3d45085c275eb98047c8c6f7a6cd050", "fusion_lat": 0.0, "name": "c3d45085c275eb98047c8c6f7a6cd050", "is_reserved": 0, "rental_uris": {"android": "https://dc.lft.to/lastmile_qr_scan", "ios": "https://dc.lft.to/lastmile_qr_scan"}, "fusion_lon": 0.0}, {"lat": 38.922834, "is_disabled": 0, "type": "electric_scooter", "lon": -77.02976516666666, "bike_id": "a3dc00ebf12672f26d7aee1cd4d58a17", "fusion_lat": 0.0, "name": "a3dc00ebf12672f26d7aee1cd4d58a17", "is_reserved": 0, "rental_uris": {"android": "https://dc.lft.to/lastmile_qr_scan", "ios": "https://dc.lft.to/lastmile_qr_scan"}, "fusion_lon": 0.0}, {"lat": 38.92584166666666, "is_disabled": 0, "type": "electric_scooter", "lon": -77.05756116666667, "bike_id": "975ba6edf5e52459fdd464ec57eafaa3", "fusion_lat": 0.0, "name": "975ba6edf5e52459fdd464ec57eafaa3", "is_reserved": 0, "rental_uris": {"android": "https://dc.lft.to/lastmile_qr_scan", "ios": "https://dc.lft.to/lastmile_qr_scan"}, "fusion_lon": 0.0}, {"lat": 38.87704683333333, "is_disabled": 0, "type": "electric_scooter", "lon": -77.01677966666666, "bike_id": "9e94506d55d189e4b5b69e99d10ad5f4", "fusion_lat": 0.0, "name": "9e94506d55d189e4b5b69e99d10ad5f4", "is_reserved": 0, "rental_uris": {"android": "https://dc.lft.to/lastmile_qr_scan", "ios": "https://dc.lft.to/lastmile_qr_scan"}, "fusion_lon": 0.0}, {"lat": 38.88397466666667, "is_disabled": 0, "type": "electric_scooter", "lon": -77.02415916666666, "bike_id": "9bfe17ce19abb83b7480340007bdd729", "fusion_lat": 0.0, "name": "9bfe17ce19abb83b7480340007bdd729", "is_reserved": 0, "rental_uris": {"android": "https://dc.lft.to/lastmile_qr_scan", "ios": "https://dc.lft.to/lastmile_qr_scan"}, "fusion_lon": 0.0}, {"lat": 38.929864333333335, "is_disabled": 0, "type": "electric_scooter", "lon": -77.03835166666667, "bike_id": "6cf718781d68d835ba52ffa0bae6640c", "fusion_lat": 0.0, "name": "6cf718781d68d835ba52ffa0bae6640c", "is_reserved": 0, "rental_uris": {"android": "https://dc.lft.to/lastmile_qr_scan", "ios": "https://dc.lft.to/lastmile_qr_scan"}, "fusion_lon": 0.0}, {"lat": 38.882649, "is_disabled": 0, "type": "electric_scooter", "lon": -76.98821316666667, "bike_id": "3aba0ba178e56d96d0884bbd88db3a98", "fusion_lat": 0.0, "name": "3aba0ba178e56d96d0884bbd88db3a98", "is_reserved": 0, "rental_uris": {"android": "https://dc.lft.to/lastmile_qr_scan", "ios": "https://dc.lft.to/lastmile_qr_scan"}, "fusion_lon": 0.0}, {"lat": 38.91044483333334, "is_disabled": 0, "type": "electric_scooter", "lon": -77.041178, "bike_id": "5c68f00bc085b94c4cd36ee3e7f2749e", "fusion_lat": 0.0, "name": "5c68f00bc085b94c4cd36ee3e7f2749e", "is_reserved": 0, "rental_uris": {"android": "https://dc.lft.to/lastmile_qr_scan", "ios": "https://dc.lft.to/lastmile_qr_scan"}, "fusion_lon": 0.0}, {"lat": 38.93599533333333, "is_disabled": 0, "type": "electric_scooter", "lon": -77.05636283333334, "bike_id": "38e22737267e9f0b51e60b22cb888b84", "fusion_lat": 0.0, "name": "38e22737267e9f0b51e60b22cb888b84", "is_reserved": 0, "rental_uris": {"android": "https://dc.lft.to/lastmile_qr_scan", "ios": "https://dc.lft.to/lastmile_qr_scan"}, "fusion_lon": 0.0}, {"lat": 38.910685666666666, "is_disabled": 0, "type": "electric_scooter", "lon": -77.0291465, "bike_id": "dbd7382976cd3281843ed2235c890796", "fusion_lat": 0.0, "name": "dbd7382976cd3281843ed2235c890796", "is_reserved": 0, "rental_uris": {"android": "https://dc.lft.to/lastmile_qr_scan", "ios": "https://dc.lft.to/lastmile_qr_scan"}, "fusion_lon": 0.0}, {"lat": 38.905060666666664, "is_disabled": 0, "type": "electric_scooter", "lon": -77.04480883333333, "bike_id": "70e6b48106fb7761ca7447d0fa479cc0", "fusion_lat": 0.0, "name": "70e6b48106fb7761ca7447d0fa479cc0", "is_reserved": 0, "rental_uris": {"android": "https://dc.lft.to/lastmile_qr_scan", "ios": "https://dc.lft.to/lastmile_qr_scan"}, "fusion_lon": 0.0}, {"lat": 38.903714, "is_disabled": 0, "type": "electric_scooter", "lon": -77.0410555, "bike_id": "d17b7eb34c563970f58acb71ddba90c6", "fusion_lat": 0.0, "name": "d17b7eb34c563970f58acb71ddba90c6", "is_reserved": 0, "rental_uris": {"android": "https://dc.lft.to/lastmile_qr_scan", "ios": "https://dc.lft.to/lastmile_qr_scan"}, "fusion_lon": 0.0}, {"lat": 38.91708666666667, "is_disabled": 0, "type": "electric_scooter", "lon": -77.04027666666667, "bike_id": "ce71effcf6b7d0296b7b9e35b981503f", "fusion_lat": 0.0, "name": "ce71effcf6b7d0296b7b9e35b981503f", "is_reserved": 0, "rental_uris": {"android": "https://dc.lft.to/lastmile_qr_scan", "ios": "https://dc.lft.to/lastmile_qr_scan"}, "fusion_lon": 0.0}, {"lat": 38.90730416666667, "is_disabled": 0, "type": "electric_scooter", "lon": -77.023731, "bike_id": "42865cecb3b3debf0083b173f259a1b7", "fusion_lat": 0.0, "name": "42865cecb3b3debf0083b173f259a1b7", "is_reserved": 0, "rental_uris": {"android": "https://dc.lft.to/lastmile_qr_scan", "ios": "https://dc.lft.to/lastmile_qr_scan"}, "fusion_lon": 0.0}, {"lat": 38.919047166666665, "is_disabled": 0, "type": "electric_scooter", "lon": -77.03207983333333, "bike_id": "fa196b6e83dd0094644b80a5aab2c0e7", "fusion_lat": 0.0, "name": "fa196b6e83dd0094644b80a5aab2c0e7", "is_reserved": 0, "rental_uris": {"android": "https://dc.lft.to/lastmile_qr_scan", "ios": "https://dc.lft.to/lastmile_qr_scan"}, "fusion_lon": 0.0}, {"lat": 38.933335, "is_disabled": 0, "type": "electric_scooter", "lon": -77.05708233333333, "bike_id": "12860f2990a18a0e330dce3d5ef928f3", "fusion_lat": 0.0, "name": "12860f2990a18a0e330dce3d5ef928f3", "is_reserved": 0, "rental_uris": {"android": "https://dc.lft.to/lastmile_qr_scan", "ios": "https://dc.lft.to/lastmile_qr_scan"}, "fusion_lon": 0.0}, {"lat": 38.91170916666667, "is_disabled": 0, "type": "electric_scooter", "lon": -77.03864133333333, "bike_id": "0476cc0022d113c1d3d7305cb46f9ba1", "fusion_lat": 0.0, "name": "0476cc0022d113c1d3d7305cb46f9ba1", "is_reserved": 0, "rental_uris": {"android": "https://dc.lft.to/lastmile_qr_scan", "ios": "https://dc.lft.to/lastmile_qr_scan"}, "fusion_lon": 0.0}, {"lat": 38.921290166666665, "is_disabled": 0, "type": "electric_scooter", "lon": -77.0400575, "bike_id": "a621e29ba5187ea078707f33e3c45647", "fusion_lat": 0.0, "name": "a621e29ba5187ea078707f33e3c45647", "is_reserved": 0, "rental_uris": {"android": "https://dc.lft.to/lastmile_qr_scan", "ios": "https://dc.lft.to/lastmile_qr_scan"}, "fusion_lon": 0.0}, {"lat": 38.856479, "is_disabled": 0, "type": "electric_bike", "lon": -77.11247016666667, "bike_id": "09ed69eb8e5b6c9ef1c5472fe9c5a469", "fusion_lat": 0.0, "name": "09ed69eb8e5b6c9ef1c5472fe9c5a469", "is_reserved": 0, "rental_uris": {"android": "https://dc.lft.to/lastmile_qr_scan", "ios": "https://dc.lft.to/lastmile_qr_scan"}, "fusion_lon": 0.0}, {"lat": 38.931161333333336, "is_disabled": 0, "type": "electric_scooter", "lon": -77.03811033333334, "bike_id": "8205f3e14d1574f666c1c07a5e50e335", "fusion_lat": 0.0, "name": "8205f3e14d1574f666c1c07a5e50e335", "is_reserved": 0, "rental_uris": {"android": "https://dc.lft.to/lastmile_qr_scan", "ios": "https://dc.lft.to/lastmile_qr_scan"}, "fusion_lon": 0.0}, {"lat": 38.923810833333334, "is_disabled": 0, "type": "electric_scooter", "lon": -77.03124933333334, "bike_id": "d02ba956e34c61370743ab1da037b463", "fusion_lat": 0.0, "name": "d02ba956e34c61370743ab1da037b463", "is_reserved": 0, "rental_uris": {"android": "https://dc.lft.to/lastmile_qr_scan", "ios": "https://dc.lft.to/lastmile_qr_scan"}, "fusion_lon": 0.0}, {"lat": 38.93037183333333, "is_disabled": 0, "type": "electric_bike", "lon": -77.08289983333333, "bike_id": "b20d118d78d522e7e03241e6a0e88037", "fusion_lat": 0.0, "name": "b20d118d78d522e7e03241e6a0e88037", "is_reserved": 0, "rental_uris": {"android": "https://dc.lft.to/lastmile_qr_scan", "ios": "https://dc.lft.to/lastmile_qr_scan"}, "fusion_lon": 0.0}, {"lat": 38.938581, "is_disabled": 0, "type": "electric_scooter", "lon": -77.0256395, "bike_id": "69326f3e39f1342934248a1af5890634", "fusion_lat": 0.0, "name": "69326f3e39f1342934248a1af5890634", "is_reserved": 0, "rental_uris": {"android": "https://dc.lft.to/lastmile_qr_scan", "ios": "https://dc.lft.to/lastmile_qr_scan"}, "fusion_lon": 0.0}, {"lat": 38.90725916666667, "is_disabled": 0, "type": "electric_scooter", "lon": -77.02975216666667, "bike_id": "c358cb75e5c2e175867ddde6d0d7c868", "fusion_lat": 0.0, "name": "c358cb75e5c2e175867ddde6d0d7c868", "is_reserved": 0, "rental_uris": {"android": "https://dc.lft.to/lastmile_qr_scan", "ios": "https://dc.lft.to/lastmile_qr_scan"}, "fusion_lon": 0.0}, {"lat": 38.902041833333335, "is_disabled": 0, "type": "electric_scooter", "lon": -77.023643, "bike_id": "bb47d78f4352cdc5e5ce53ff8c323719", "fusion_lat": 0.0, "name": "bb47d78f4352cdc5e5ce53ff8c323719", "is_reserved": 0, "rental_uris": {"android": "https://dc.lft.to/lastmile_qr_scan", "ios": "https://dc.lft.to/lastmile_qr_scan"}, "fusion_lon": 0.0}, {"lat": 38.89371533333333, "is_disabled": 0, "type": "electric_scooter", "lon": -76.949993, "bike_id": "649004e51dccf5f3a2de34c67072ad67", "fusion_lat": 0.0, "name": "649004e51dccf5f3a2de34c67072ad67", "is_reserved": 0, "rental_uris": {"android": "https://dc.lft.to/lastmile_qr_scan", "ios": "https://dc.lft.to/lastmile_qr_scan"}, "fusion_lon": 0.0}, {"lat": 38.90978, "is_disabled": 0, "type": "electric_scooter", "lon": -77.0479675, "bike_id": "162e3895de8d17f148ba35c319431842", "fusion_lat": 0.0, "name": "162e3895de8d17f148ba35c319431842", "is_reserved": 0, "rental_uris": {"android": "https://dc.lft.to/lastmile_qr_scan", "ios": "https://dc.lft.to/lastmile_qr_scan"}, "fusion_lon": 0.0}, {"lat": 38.884910166666664, "is_disabled": 0, "type": "electric_scooter", "lon": -77.0071295, "bike_id": "ad9e0416d095a1e5ef478e3885d4c6bb", "fusion_lat": 0.0, "name": "ad9e0416d095a1e5ef478e3885d4c6bb", "is_reserved": 0, "rental_uris": {"android": "https://dc.lft.to/lastmile_qr_scan", "ios": "https://dc.lft.to/lastmile_qr_scan"}, "fusion_lon": 0.0}, {"lat": 38.93264966666667, "is_disabled": 0, "type": "electric_scooter", "lon": -77.038894, "bike_id": "1103cfafe8997bef45ac395d826988cf", "fusion_lat": 0.0, "name": "1103cfafe8997bef45ac395d826988cf", "is_reserved": 0, "rental_uris": {"android": "https://dc.lft.to/lastmile_qr_scan", "ios": "https://dc.lft.to/lastmile_qr_scan"}, "fusion_lon": 0.0}, {"lat": 38.8429205, "is_disabled": 0, "type": "electric_scooter", "lon": -76.99947916666666, "bike_id": "460facbe907145785a59c2550331c01c", "fusion_lat": 0.0, "name": "460facbe907145785a59c2550331c01c", "is_reserved": 0, "rental_uris": {"android": "https://dc.lft.to/lastmile_qr_scan", "ios": "https://dc.lft.to/lastmile_qr_scan"}, "fusion_lon": 0.0}, {"lat": 38.8427095, "is_disabled": 0, "type": "electric_bike", "lon": -76.98842466666666, "bike_id": "2abfa5c7c748a12ae496ef33d98a4c12", "fusion_lat": 0.0, "name": "2abfa5c7c748a12ae496ef33d98a4c12", "is_reserved": 0, "rental_uris": {"android": "https://dc.lft.to/lastmile_qr_scan", "ios": "https://dc.lft.to/lastmile_qr_scan"}, "fusion_lon": 0.0}, {"lat": 38.9310795, "is_disabled": 0, "type": "electric_scooter", "lon": -77.03811216666666, "bike_id": "a8c6ab9a8109650e39a1f5138659c039", "fusion_lat": 0.0, "name": "a8c6ab9a8109650e39a1f5138659c039", "is_reserved": 0, "rental_uris": {"android": "https://dc.lft.to/lastmile_qr_scan", "ios": "https://dc.lft.to/lastmile_qr_scan"}, "fusion_lon": 0.0}, {"lat": 38.92481033333333, "is_disabled": 0, "type": "electric_scooter", "lon": -77.0263275, "bike_id": "6d3f31bfad61dcd5b1f69e2542e7dd79", "fusion_lat": 0.0, "name": "6d3f31bfad61dcd5b1f69e2542e7dd79", "is_reserved": 0, "rental_uris": {"android": "https://dc.lft.to/lastmile_qr_scan", "ios": "https://dc.lft.to/lastmile_qr_scan"}, "fusion_lon": 0.0}, {"lat": 38.9185505, "is_disabled": 0, "type": "electric_scooter", "lon": -77.01651066666666, "bike_id": "8aaa5bef7ae1270ede61e9ff6063acb1", "fusion_lat": 0.0, "name": "8aaa5bef7ae1270ede61e9ff6063acb1", "is_reserved": 0, "rental_uris": {"android": "https://dc.lft.to/lastmile_qr_scan", "ios": "https://dc.lft.to/lastmile_qr_scan"}, "fusion_lon": 0.0}, {"lat": 38.909840833333334, "is_disabled": 0, "type": "electric_scooter", "lon": -77.02276616666667, "bike_id": "b4961054c8b42b78b06f5b02ae081c44", "fusion_lat": 0.0, "name": "b4961054c8b42b78b06f5b02ae081c44", "is_reserved": 0, "rental_uris": {"android": "https://dc.lft.to/lastmile_qr_scan", "ios": "https://dc.lft.to/lastmile_qr_scan"}, "fusion_lon": 0.0}, {"lat": 38.866242, "is_disabled": 0, "type": "electric_scooter", "lon": -76.98696166666667, "bike_id": "4a4248421225b59275e4f47137a65963", "fusion_lat": 0.0, "name": "4a4248421225b59275e4f47137a65963", "is_reserved": 0, "rental_uris": {"android": "https://dc.lft.to/lastmile_qr_scan", "ios": "https://dc.lft.to/lastmile_qr_scan"}, "fusion_lon": 0.0}, {"lat": 38.924094333333336, "is_disabled": 0, "type": "electric_scooter", "lon": -77.02560783333334, "bike_id": "f048086d831e9784aa4d6d8ad52f4953", "fusion_lat": 0.0, "name": "f048086d831e9784aa4d6d8ad52f4953", "is_reserved": 0, "rental_uris": {"android": "https://dc.lft.to/lastmile_qr_scan", "ios": "https://dc.lft.to/lastmile_qr_scan"}, "fusion_lon": 0.0}, {"lat": 38.93834016666667, "is_disabled": 0, "type": "electric_scooter", "lon": -77.02571716666667, "bike_id": "c8aa63e26e0c42db7f4f6f7aa620cf0e", "fusion_lat": 0.0, "name": "c8aa63e26e0c42db7f4f6f7aa620cf0e", "is_reserved": 0, "rental_uris": {"android": "https://dc.lft.to/lastmile_qr_scan", "ios": "https://dc.lft.to/lastmile_qr_scan"}, "fusion_lon": 0.0}, {"lat": 38.93422666666667, "is_disabled": 0, "type": "electric_scooter", "lon": -77.04139266666667, "bike_id": "3cfc81edba216cbe00170a4fca0e52ed", "fusion_lat": 0.0, "name": "3cfc81edba216cbe00170a4fca0e52ed", "is_reserved": 0, "rental_uris": {"android": "https://dc.lft.to/lastmile_qr_scan", "ios": "https://dc.lft.to/lastmile_qr_scan"}, "fusion_lon": 0.0}, {"lat": 38.85681133333333, "is_disabled": 0, "type": "electric_scooter", "lon": -76.98162066666667, "bike_id": "109d273339da06167a47ae9fbc719fce", "fusion_lat": 0.0, "name": "109d273339da06167a47ae9fbc719fce", "is_reserved": 0, "rental_uris": {"android": "https://dc.lft.to/lastmile_qr_scan", "ios": "https://dc.lft.to/lastmile_qr_scan"}, "fusion_lon": 0.0}, {"lat": 38.889936166666665, "is_disabled": 0, "type": "electric_scooter", "lon": -76.955665, "bike_id": "d4ec1f2fdacb39e6ed72be3913ec1037", "fusion_lat": 0.0, "name": "d4ec1f2fdacb39e6ed72be3913ec1037", "is_reserved": 0, "rental_uris": {"android": "https://dc.lft.to/lastmile_qr_scan", "ios": "https://dc.lft.to/lastmile_qr_scan"}, "fusion_lon": 0.0}, {"lat": 38.90571466666667, "is_disabled": 0, "type": "electric_scooter", "lon": -77.06271566666666, "bike_id": "b26736af045adcfc0f4bbd91399fc8ea", "fusion_lat": 0.0, "name": "b26736af045adcfc0f4bbd91399fc8ea", "is_reserved": 0, "rental_uris": {"android": "https://dc.lft.to/lastmile_qr_scan", "ios": "https://dc.lft.to/lastmile_qr_scan"}, "fusion_lon": 0.0}, {"lat": 38.905618, "is_disabled": 0, "type": "electric_scooter", "lon": -77.00606233333333, "bike_id": "f9cee43b35a80b45cacd6678ed3f1e9c", "fusion_lat": 0.0, "name": "f9cee43b35a80b45cacd6678ed3f1e9c", "is_reserved": 0, "rental_uris": {"android": "https://dc.lft.to/lastmile_qr_scan", "ios": "https://dc.lft.to/lastmile_qr_scan"}, "fusion_lon": 0.0}, {"lat": 38.906709166666666, "is_disabled": 0, "type": "electric_scooter", "lon": -77.07188616666667, "bike_id": "8b830f3d5b38bd2ad1d26d75a28b70c2", "fusion_lat": 0.0, "name": "8b830f3d5b38bd2ad1d26d75a28b70c2", "is_reserved": 0, "rental_uris": {"android": "https://dc.lft.to/lastmile_qr_scan", "ios": "https://dc.lft.to/lastmile_qr_scan"}, "fusion_lon": 0.0}, {"lat": 38.88617383333333, "is_disabled": 0, "type": "electric_scooter", "lon": -77.00370283333334, "bike_id": "b578a19d887bbdcce8a2a21e44863238", "fusion_lat": 0.0, "name": "b578a19d887bbdcce8a2a21e44863238", "is_reserved": 0, "rental_uris": {"android": "https://dc.lft.to/lastmile_qr_scan", "ios": "https://dc.lft.to/lastmile_qr_scan"}, "fusion_lon": 0.0}, {"lat": 38.90778433333333, "is_disabled": 0, "type": "electric_scooter", "lon": -77.03863633333333, "bike_id": "bc584e12078bab2c1583c37e81f0c2d5", "fusion_lat": 0.0, "name": "bc584e12078bab2c1583c37e81f0c2d5", "is_reserved": 0, "rental_uris": {"android": "https://dc.lft.to/lastmile_qr_scan", "ios": "https://dc.lft.to/lastmile_qr_scan"}, "fusion_lon": 0.0}, {"lat": 38.916197, "is_disabled": 0, "type": "electric_scooter", "lon": -77.02570616666667, "bike_id": "1d03b843eff42a62e57035350e8bef74", "fusion_lat": 0.0, "name": "1d03b843eff42a62e57035350e8bef74", "is_reserved": 0, "rental_uris": {"android": "https://dc.lft.to/lastmile_qr_scan", "ios": "https://dc.lft.to/lastmile_qr_scan"}, "fusion_lon": 0.0}, {"lat": 38.9217325, "is_disabled": 0, "type": "electric_scooter", "lon": -77.04017016666667, "bike_id": "3e124a1afdeb780cb4627fbd53b294a5", "fusion_lat": 0.0, "name": "3e124a1afdeb780cb4627fbd53b294a5", "is_reserved": 0, "rental_uris": {"android": "https://dc.lft.to/lastmile_qr_scan", "ios": "https://dc.lft.to/lastmile_qr_scan"}, "fusion_lon": 0.0}, {"lat": 38.937008166666665, "is_disabled": 0, "type": "electric_bike", "lon": -77.02980516666666, "bike_id": "df0874cd0ead7b4d6e114c4de40871d9", "fusion_lat": 0.0, "name": "df0874cd0ead7b4d6e114c4de40871d9", "is_reserved": 0, "rental_uris": {"android": "https://dc.lft.to/lastmile_qr_scan", "ios": "https://dc.lft.to/lastmile_qr_scan"}, "fusion_lon": 0.0}, {"lat": 38.8372595, "is_disabled": 0, "type": "electric_bike", "lon": -76.99759683333333, "bike_id": "bc1668d3a69048b5647441aa70ea546f", "fusion_lat": 0.0, "name": "bc1668d3a69048b5647441aa70ea546f", "is_reserved": 0, "rental_uris": {"android": "https://dc.lft.to/lastmile_qr_scan", "ios": "https://dc.lft.to/lastmile_qr_scan"}, "fusion_lon": 0.0}, {"lat": 38.855224666666665, "is_disabled": 0, "type": "electric_bike", "lon": -76.9844075, "bike_id": "aa8c6b29c47f3e7f63f1e9cc3af94352", "fusion_lat": 0.0, "name": "aa8c6b29c47f3e7f63f1e9cc3af94352", "is_reserved": 0, "rental_uris": {"android": "https://dc.lft.to/lastmile_qr_scan", "ios": "https://dc.lft.to/lastmile_qr_scan"}, "fusion_lon": 0.0}, {"lat": 38.91752266666667, "is_disabled": 0, "type": "electric_bike", "lon": -77.04766266666667, "bike_id": "af1b9d6fc3638b7ebad3e1a66e4c2f42", "fusion_lat": 0.0, "name": "af1b9d6fc3638b7ebad3e1a66e4c2f42", "is_reserved": 0, "rental_uris": {"android": "https://dc.lft.to/lastmile_qr_scan", "ios": "https://dc.lft.to/lastmile_qr_scan"}, "fusion_lon": 0.0}, {"lat": 38.89123266666667, "is_disabled": 0, "type": "electric_scooter", "lon": -76.940889, "bike_id": "0cc36958583e7ca96ac4566578e68fa9", "fusion_lat": 0.0, "name": "0cc36958583e7ca96ac4566578e68fa9", "is_reserved": 0, "rental_uris": {"android": "https://dc.lft.to/lastmile_qr_scan", "ios": "https://dc.lft.to/lastmile_qr_scan"}, "fusion_lon": 0.0}, {"lat": 38.910838166666665, "is_disabled": 0, "type": "electric_scooter", "lon": -77.0764315, "bike_id": "f8dfa58b3f548358553330eb34d3f7ce", "fusion_lat": 0.0, "name": "f8dfa58b3f548358553330eb34d3f7ce", "is_reserved": 0, "rental_uris": {"android": "https://dc.lft.to/lastmile_qr_scan", "ios": "https://dc.lft.to/lastmile_qr_scan"}, "fusion_lon": 0.0}, {"lat": 38.900091333333336, "is_disabled": 0, "type": "electric_scooter", "lon": -76.9985035, "bike_id": "ad0a20e35efa83ab9ff6375c52091ec4", "fusion_lat": 0.0, "name": "ad0a20e35efa83ab9ff6375c52091ec4", "is_reserved": 0, "rental_uris": {"android": "https://dc.lft.to/lastmile_qr_scan", "ios": "https://dc.lft.to/lastmile_qr_scan"}, "fusion_lon": 0.0}, {"lat": 38.94804366666666, "is_disabled": 0, "type": "electric_scooter", "lon": -77.0790655, "bike_id": "dc8e546b23ec8edc837eb1693f4cc821", "fusion_lat": 0.0, "name": "dc8e546b23ec8edc837eb1693f4cc821", "is_reserved": 0, "rental_uris": {"android": "https://dc.lft.to/lastmile_qr_scan", "ios": "https://dc.lft.to/lastmile_qr_scan"}, "fusion_lon": 0.0}, {"lat": 38.905133, "is_disabled": 0, "type": "electric_scooter", "lon": -77.068851, "bike_id": "b25a298b07fa4fa8a1cedc44163ae5db", "fusion_lat": 0.0, "name": "b25a298b07fa4fa8a1cedc44163ae5db", "is_reserved": 0, "rental_uris": {"android": "https://dc.lft.to/lastmile_qr_scan", "ios": "https://dc.lft.to/lastmile_qr_scan"}, "fusion_lon": 0.0}, {"lat": 38.93329683333333, "is_disabled": 0, "type": "electric_scooter", "lon": -77.05699016666667, "bike_id": "9863fcd7deafaccf7437370f7bdfe129", "fusion_lat": 0.0, "name": "9863fcd7deafaccf7437370f7bdfe129", "is_reserved": 0, "rental_uris": {"android": "https://dc.lft.to/lastmile_qr_scan", "ios": "https://dc.lft.to/lastmile_qr_scan"}, "fusion_lon": 0.0}, {"lat": 38.93540866666667, "is_disabled": 0, "type": "electric_scooter", "lon": -77.03417916666666, "bike_id": "29479127028cacb12c1f5af2ad85fe8c", "fusion_lat": 0.0, "name": "29479127028cacb12c1f5af2ad85fe8c", "is_reserved": 0, "rental_uris": {"android": "https://dc.lft.to/lastmile_qr_scan", "ios": "https://dc.lft.to/lastmile_qr_scan"}, "fusion_lon": 0.0}, {"lat": 39.0159555, "is_disabled": 0, "type": "electric_bike", "lon": -77.04423766666666, "bike_id": "6f70228d38c0ca14cce85f8545acf06d", "fusion_lat": 0.0, "name": "6f70228d38c0ca14cce85f8545acf06d", "is_reserved": 0, "rental_uris": {"android": "https://dc.lft.to/lastmile_qr_scan", "ios": "https://dc.lft.to/lastmile_qr_scan"}, "fusion_lon": 0.0}, {"lat": 38.90471, "is_disabled": 0, "type": "electric_scooter", "lon": -77.03221783333333, "bike_id": "c7e780939528363bdb4138696b278678", "fusion_lat": 0.0, "name": "c7e780939528363bdb4138696b278678", "is_reserved": 0, "rental_uris": {"android": "https://dc.lft.to/lastmile_qr_scan", "ios": "https://dc.lft.to/lastmile_qr_scan"}, "fusion_lon": 0.0}, {"lat": 38.91675083333333, "is_disabled": 0, "type": "electric_scooter", "lon": -77.02284833333333, "bike_id": "a92b4720cbdfd4bf361733ee283f0232", "fusion_lat": 0.0, "name": "a92b4720cbdfd4bf361733ee283f0232", "is_reserved": 0, "rental_uris": {"android": "https://dc.lft.to/lastmile_qr_scan", "ios": "https://dc.lft.to/lastmile_qr_scan"}, "fusion_lon": 0.0}, {"lat": 38.9014415, "is_disabled": 0, "type": "electric_scooter", "lon": -77.01808966666667, "bike_id": "702b71e7aa5c96356f9645ccd1bd993e", "fusion_lat": 0.0, "name": "702b71e7aa5c96356f9645ccd1bd993e", "is_reserved": 0, "rental_uris": {"android": "https://dc.lft.to/lastmile_qr_scan", "ios": "https://dc.lft.to/lastmile_qr_scan"}, "fusion_lon": 0.0}, {"lat": 38.88423133333333, "is_disabled": 0, "type": "electric_scooter", "lon": -77.0305165, "bike_id": "bdba2c4f751d2c1ac39c492e9fb7de30", "fusion_lat": 0.0, "name": "bdba2c4f751d2c1ac39c492e9fb7de30", "is_reserved": 0, "rental_uris": {"android": "https://dc.lft.to/lastmile_qr_scan", "ios": "https://dc.lft.to/lastmile_qr_scan"}, "fusion_lon": 0.0}, {"lat": 38.91974, "is_disabled": 0, "type": "electric_scooter", "lon": -77.04317433333334, "bike_id": "2c71317eac0ab89892d29c5f09164b33", "fusion_lat": 0.0, "name": "2c71317eac0ab89892d29c5f09164b33", "is_reserved": 0, "rental_uris": {"android": "https://dc.lft.to/lastmile_qr_scan", "ios": "https://dc.lft.to/lastmile_qr_scan"}, "fusion_lon": 0.0}, {"lat": 38.91720266666667, "is_disabled": 0, "type": "electric_scooter", "lon": -77.04103133333334, "bike_id": "a892b5ffe9aae07a51a476a1e16c3b7f", "fusion_lat": 0.0, "name": "a892b5ffe9aae07a51a476a1e16c3b7f", "is_reserved": 0, "rental_uris": {"android": "https://dc.lft.to/lastmile_qr_scan", "ios": "https://dc.lft.to/lastmile_qr_scan"}, "fusion_lon": 0.0}, {"lat": 38.92347216666667, "is_disabled": 0, "type": "electric_scooter", "lon": -77.03366116666666, "bike_id": "a56b59abbd60a6319afccc011c10c999", "fusion_lat": 0.0, "name": "a56b59abbd60a6319afccc011c10c999", "is_reserved": 0, "rental_uris": {"android": "https://dc.lft.to/lastmile_qr_scan", "ios": "https://dc.lft.to/lastmile_qr_scan"}, "fusion_lon": 0.0}, {"lat": 38.919861166666664, "is_disabled": 0, "type": "electric_scooter", "lon": -76.97312216666667, "bike_id": "7557e111daf9b9542582149b1c7d99f1", "fusion_lat": 0.0, "name": "7557e111daf9b9542582149b1c7d99f1", "is_reserved": 0, "rental_uris": {"android": "https://dc.lft.to/lastmile_qr_scan", "ios": "https://dc.lft.to/lastmile_qr_scan"}, "fusion_lon": 0.0}, {"lat": 38.8847125, "is_disabled": 0, "type": "electric_scooter", "lon": -76.992634, "bike_id": "22ba633d5c3579d4675b242dc51b147e", "fusion_lat": 0.0, "name": "22ba633d5c3579d4675b242dc51b147e", "is_reserved": 0, "rental_uris": {"android": "https://dc.lft.to/lastmile_qr_scan", "ios": "https://dc.lft.to/lastmile_qr_scan"}, "fusion_lon": 0.0}, {"lat": 38.9602565, "is_disabled": 0, "type": "electric_bike", "lon": -77.01726166666667, "bike_id": "c27a7df48509aa488d9a7d325440ca9a", "fusion_lat": 0.0, "name": "c27a7df48509aa488d9a7d325440ca9a", "is_reserved": 0, "rental_uris": {"android": "https://dc.lft.to/lastmile_qr_scan", "ios": "https://dc.lft.to/lastmile_qr_scan"}, "fusion_lon": 0.0}, {"lat": 38.880804833333336, "is_disabled": 0, "type": "electric_scooter", "lon": -76.9853335, "bike_id": "4db5acd1f5aadd3d9bc8036ba75f4d66", "fusion_lat": 0.0, "name": "4db5acd1f5aadd3d9bc8036ba75f4d66", "is_reserved": 0, "rental_uris": {"android": "https://dc.lft.to/lastmile_qr_scan", "ios": "https://dc.lft.to/lastmile_qr_scan"}, "fusion_lon": 0.0}, {"lat": 38.95074416666667, "is_disabled": 0, "type": "electric_scooter", "lon": -77.00876466666666, "bike_id": "5d6ca9e073fd5318e4e76c71ffa42661", "fusion_lat": 0.0, "name": "5d6ca9e073fd5318e4e76c71ffa42661", "is_reserved": 0, "rental_uris": {"android": "https://dc.lft.to/lastmile_qr_scan", "ios": "https://dc.lft.to/lastmile_qr_scan"}, "fusion_lon": 0.0}, {"lat": 39.02934233333333, "is_disabled": 0, "type": "electric_bike", "lon": -77.04927016666667, "bike_id": "caf805ca389be031d0dc7b07aacc8863", "fusion_lat": 0.0, "name": "caf805ca389be031d0dc7b07aacc8863", "is_reserved": 0, "rental_uris": {"android": "https://dc.lft.to/lastmile_qr_scan", "ios": "https://dc.lft.to/lastmile_qr_scan"}, "fusion_lon": 0.0}, {"lat": 38.899906, "is_disabled": 0, "type": "electric_scooter", "lon": -77.02278066666666, "bike_id": "ab32395e8de847044e8be270c7949343", "fusion_lat": 0.0, "name": "ab32395e8de847044e8be270c7949343", "is_reserved": 0, "rental_uris": {"android": "https://dc.lft.to/lastmile_qr_scan", "ios": "https://dc.lft.to/lastmile_qr_scan"}, "fusion_lon": 0.0}, {"lat": 38.95402766666667, "is_disabled": 0, "type": "electric_scooter", "lon": -77.02750283333333, "bike_id": "4033935b314ac8730fd07541b31bb82f", "fusion_lat": 0.0, "name": "4033935b314ac8730fd07541b31bb82f", "is_reserved": 0, "rental_uris": {"android": "https://dc.lft.to/lastmile_qr_scan", "ios": "https://dc.lft.to/lastmile_qr_scan"}, "fusion_lon": 0.0}, {"lat": 38.87675866666667, "is_disabled": 0, "type": "electric_scooter", "lon": -77.0039845, "bike_id": "54623042d234643979d043fb994331b3", "fusion_lat": 0.0, "name": "54623042d234643979d043fb994331b3", "is_reserved": 0, "rental_uris": {"android": "https://dc.lft.to/lastmile_qr_scan", "ios": "https://dc.lft.to/lastmile_qr_scan"}, "fusion_lon": 0.0}, {"lat": 38.959246666666665, "is_disabled": 0, "type": "electric_bike", "lon": -77.031225, "bike_id": "76caec1c1be1af41d3b7518b0c028c30", "fusion_lat": 0.0, "name": "76caec1c1be1af41d3b7518b0c028c30", "is_reserved": 0, "rental_uris": {"android": "https://dc.lft.to/lastmile_qr_scan", "ios": "https://dc.lft.to/lastmile_qr_scan"}, "fusion_lon": 0.0}, {"lat": 38.9085715, "is_disabled": 0, "type": "electric_bike", "lon": -77.08078033333334, "bike_id": "a91f47af98a1c37a114c7fa1888e501d", "fusion_lat": 0.0, "name": "a91f47af98a1c37a114c7fa1888e501d", "is_reserved": 0, "rental_uris": {"android": "https://dc.lft.to/lastmile_qr_scan", "ios": "https://dc.lft.to/lastmile_qr_scan"}, "fusion_lon": 0.0}, {"lat": 38.909133, "is_disabled": 0, "type": "electric_scooter", "lon": -77.03648083333333, "bike_id": "f89e756f9b2db69bcdea3127cbb43b24", "fusion_lat": 0.0, "name": "f89e756f9b2db69bcdea3127cbb43b24", "is_reserved": 0, "rental_uris": {"android": "https://dc.lft.to/lastmile_qr_scan", "ios": "https://dc.lft.to/lastmile_qr_scan"}, "fusion_lon": 0.0},