{"data": {"bikes": [{"lon": -77.0231385, "bike_id": "7b0451ebde76714caa0d0b533fc1f03c", "lat": 38.909695, "fusion_lon": 0.0, "fusion_lat": 0.0, "type": "electric_scooter", "name": "7b0451ebde76714caa0d0b533fc1f03c", "is_disabled": 0, "rental_uris": {"ios": "https://dc.lft.to/lastmile_qr_scan", "android": "https://dc.lft.to/lastmile_qr_scan"}, "is_reserved": 0}, {"lon": -77.05131883333334, "bike_id": "e3b0710f32b519df6efc659221f9a011", "lat": 38.92365433333333, "fusion_lon": 0.0, "fusion_lat": 0.0, "type": "electric_scooter", "name": "e3b0710f32b519df6efc659221f9a011", "is_disabled": 0, "rental_uris": {"ios": "https://dc.lft.to/lastmile_qr_scan", "android": "https://dc.lft.to/lastmile_qr_scan"}, "is_reserved": 0}, {"lon": -77.0586195, "bike_id": "374b1ee4222ec83a6fe4cd8f85b957bb", "lat": 38.936054666666664, "fusion_lon": 0.0, "fusion_lat": 0.0, "type": "electric_scooter", "name": "374b1ee4222ec83a6fe4cd8f85b957bb", "is_disabled": 0, "rental_uris": {"ios": "https://dc.lft.to/lastmile_qr_scan", "android": "https://dc.lft.to/lastmile_qr_scan"}, "is_reserved": 0}, {"lon": -77.003412, "bike_id": "0c6a629eca0a317fa7c71fc05e8acfcd", "lat": 38.895230166666664, "fusion_lon": 0.0, "fusion_lat": 0.0, "type": "electric_scooter", "name": "0c6a629eca0a317fa7c71fc05e8acfcd", "is_disabled": 0, "rental_uris": {"ios": "https://dc.lft.to/lastmile_qr_scan", "android": "https://dc.lft.to/lastmile_qr_scan"}, "is_reserved": 0}, {"lon": -77.0307145, "bike_id": "e8428a2ae71ccacffa1676bae9b5d740", "lat": 38.88584933333333, "fusion_lon": 0.0, "fusion_lat": 0.0, "type": "electric_scooter", "name": "e8428a2ae71ccacffa1676bae9b5d740", "is_disabled": 0, "rental_uris": {"ios": "https://dc.lft.to/lastmile_qr_scan", "android": "https://dc.lft.to/lastmile_qr_scan"}, "is_reserved": 0}, {"lon": -77.021115, "bike_id": "a4d7e016679cbe0a4ac7365e5d8618a8", "lat": 38.930046, "fusion_lon": 0.0, "fusion_lat": 0.0, "type": "electric_scooter", "name": "a4d7e016679cbe0a4ac7365e5d8618a8", "is_disabled": 0, "rental_uris": {"ios": "https://dc.lft.to/lastmile_qr_scan", "android": "https://dc.lft.to/lastmile_qr_scan"}, "is_reserved": 0}, {"lon": -77.05009033333333, "bike_id": "5b3b1adbf5c672c36cf4fed1956b944e", "lat": 38.897847166666665, "fusion_lon": 0.0, "fusion_lat": 0.0, "type": "electric_scooter", "name": "5b3b1adbf5c672c36cf4fed1956b944e", "is_disabled": 0, "rental_uris": {"ios": "https://dc.lft.to/lastmile_qr_scan", "android": "https://dc.lft.to/lastmile_qr_scan"}, "is_reserved": 0}, {"lon": -77.04745333333334, "bike_id": "22d0fb9f6cc05767831258dfeca6d5d8", "lat": 38.909567, "fusion_lon": 0.0, "fusion_lat": 0.0, "type": "electric_scooter", "name": "22d0fb9f6cc05767831258dfeca6d5d8", "is_disabled": 0, "rental_uris": {"ios": "https://dc.lft.to/lastmile_qr_scan", "android": "https://dc.lft.to/lastmile_qr_scan"}, "is_reserved": 0}, {"lon": -77.00046516666667, "bike_id": "fc7198e3c586ebe55420e309dc074df2", "lat": 38.900119833333335, "fusion_lon": 0.0, "fusion_lat": 0.0, "type": "electric_scooter", "name": "fc7198e3c586ebe55420e309dc074df2", "is_disabled": 0, "rental_uris": {"ios": "https://dc.lft.to/lastmile_qr_scan", "android": "https://dc.lft.to/lastmile_qr_scan"}, "is_reserved": 0}, {"lon": -77.02992, "bike_id": "4186eb0ad0e7d86c244e1d23c186f0b6", "lat": 38.9744035, "fusion_lon": 0.0, "fusion_lat": 0.0, "type": "electric_bike", "name": "4186eb0ad0e7d86c244e1d23c186f0b6", "is_disabled": 0, "rental_uris": {"ios": "https://dc.lft.to/lastmile_qr_scan", "android": "https://dc.lft.to/lastmile_qr_scan"}, "is_reserved": 0}, {"lon": -77.04869916666667, "bike_id": "eb91e41a82865b1ef38c8cc2883a9da7", "lat": 38.8922255, "fusion_lon": 0.0, "fusion_lat": 0.0, "type": "electric_scooter", "name": "eb91e41a82865b1ef38c8cc2883a9da7", "is_disabled": 0, "rental_uris": {"ios": "https://dc.lft.to/lastmile_qr_scan", "android": "https://dc.lft.to/lastmile_qr_scan"}, "is_reserved": 0}, {"lon": -77.018903, "bike_id": "4011ed4da55855bd8aac7ba102e055ff", "lat": 38.914859666666665, "fusion_lon": 0.0, "fusion_lat": 0.0, "type": "electric_scooter", "name": "4011ed4da55855bd8aac7ba102e055ff", "is_disabled": 0, "rental_uris": {"ios": "https://dc.lft.to/lastmile_qr_scan", "android": "https://dc.lft.to/lastmile_qr_scan"}, "is_reserved": 0}, {"lon": -76.99773383333333, "bike_id": "a313b603d5f51438c4714b802e4c3af0", "lat": 38.9245245, "fusion_lon": 0.0, "fusion_lat": 0.0, "type": "electric_scooter", "name": "a313b603d5f51438c4714b802e4c3af0", "is_disabled": 0, "rental_uris": {"ios": "https://dc.lft.to/lastmile_qr_scan", "android": "https://dc.lft.to/lastmile_qr_scan"}, "is_reserved": 0}, {"lon": -77.00579666666667, "bike_id": "409e1f7a6e4afd5a0f4b0cfa6fd7b005", "lat": 38.88436183333334, "fusion_lon": 0.0, "fusion_lat": 0.0, "type": "electric_scooter", "name": "409e1f7a6e4afd5a0f4b0cfa6fd7b005", "is_disabled": 0, "rental_uris": {"ios": "https://dc.lft.to/lastmile_qr_scan", "android": "https://dc.lft.to/lastmile_qr_scan"}, "is_reserved": 0}, {"lon": -77.03702166666666, "bike_id": "2f73e624fc31bf9c71c9e0a14ddfb1c4", "lat": 38.92636683333333, "fusion_lon": 0.0, "fusion_lat": 0.0, "type": "electric_scooter", "name": "2f73e624fc31bf9c71c9e0a14ddfb1c4", "is_disabled": 0, "rental_uris": {"ios": "https://dc.lft.to/lastmile_qr_scan", "android": "https://dc.lft.to/lastmile_qr_scan"}, "is_reserved": 0}, {"lon": -77.04204666666666, "bike_id": "7b09a10ca8f434442126a7c1bfe2414e", "lat": 38.920913, "fusion_lon": 0.0, "fusion_lat": 0.0, "type": "electric_scooter", "name": "7b09a10ca8f434442126a7c1bfe2414e", "is_disabled": 0, "rental_uris": {"ios": "https://dc.lft.to/lastmile_qr_scan", "android": "https://dc.lft.to/lastmile_qr_scan"}, "is_reserved": 0}, {"lon": -76.96783666666667, "bike_id": "8626cdf6f57fd999896d0790b2ac2cf1", "lat": 38.8685275, "fusion_lon": 0.0, "fusion_lat": 0.0, "type": "electric_scooter", "name": "8626cdf6f57fd999896d0790b2ac2cf1", "is_disabled": 0, "rental_uris": {"ios": "https://dc.lft.to/lastmile_qr_scan", "android": "https://dc.lft.to/lastmile_qr_scan"}, "is_reserved": 0}, {"lon": -77.00251516666667, "bike_id": "33daa113bad1f0a9d35537250bd23062", "lat": 38.9085575, "fusion_lon": 0.0, "fusion_lat": 0.0, "type": "electric_scooter", "name": "33daa113bad1f0a9d35537250bd23062", "is_disabled": 0, "rental_uris": {"ios": "https://dc.lft.to/lastmile_qr_scan", "android": "https://dc.lft.to/lastmile_qr_scan"}, "is_reserved": 0}, {"lon": -76.961531, "bike_id": "7aa33da518aab1f5b63cb3889d578328", "lat": 38.88356383333333, "fusion_lon": 0.0, "fusion_lat": 0.0, "type": "electric_scooter", "name": "7aa33da518aab1f5b63cb3889d578328", "is_disabled": 0, "rental_uris": {"ios": "https://dc.lft.to/lastmile_qr_scan", "android": "https://dc.lft.to/lastmile_qr_scan"}, "is_reserved": 0}, {"lon": -77.038632, "bike_id": "14f82506bdca5fea42d2414a410b768c", "lat": 38.94502816666667, "fusion_lon": 0.0, "fusion_lat": 0.0, "type": "electric_scooter", "name": "14f82506bdca5fea42d2414a410b768c", "is_disabled": 0, "rental_uris": {"ios": "https://dc.lft.to/lastmile_qr_scan", "android": "https://dc.lft.to/lastmile_qr_scan"}, "is_reserved": 0}, {"lon": -77.03267983333333, "bike_id": "7b8465b0f698c62649870c72f56f6dd8", "lat": 38.9372055, "fusion_lon": 0.0, "fusion_lat": 0.0, "type": "electric_scooter", "name": "7b8465b0f698c62649870c72f56f6dd8", "is_disabled": 0, "rental_uris": {"ios": "https://dc.lft.to/lastmile_qr_scan", "android": "https://dc.lft.to/lastmile_qr_scan"}, "is_reserved": 0}, {"lon": -76.98723283333334, "bike_id": "c7053cde8ba4f28661a15f5d3e4386ac", "lat": 38.866862, "fusion_lon": 0.0, "fusion_lat": 0.0, "type": "electric_scooter", "name": "c7053cde8ba4f28661a15f5d3e4386ac", "is_disabled": 0, "rental_uris": {"ios": "https://dc.lft.to/lastmile_qr_scan", "android": "https://dc.lft.to/lastmile_qr_scan"}, "is_reserved": 0}, {"lon": -76.95368633333334, "bike_id": "16c57496d8d82a3bc1da8c197b65e066", "lat": 38.8920505, "fusion_lon": 0.0, "fusion_lat": 0.0, "type": "electric_scooter", "name": "16c57496d8d82a3bc1da8c197b65e066", "is_disabled": 0, "rental_uris": {"ios": "https://dc.lft.to/lastmile_qr_scan", "android": "https://dc.lft.to/lastmile_qr_scan"}, "is_reserved": 0}, {"lon": -77.03890816666667, "bike_id": "1b3346fb19c34bf91be5d6e9975e1dc9", "lat": 38.910055, "fusion_lon": 0.0, "fusion_lat": 0.0, "type": "electric_scooter", "name": "1b3346fb19c34bf91be5d6e9975e1dc9", "is_disabled": 0, "rental_uris": {"ios": "https://dc.lft.to/lastmile_qr_scan", "android": "https://dc.lft.to/lastmile_qr_scan"}, "is_reserved": 0}, {"lon": -76.99840083333333, "bike_id": "8a3992800a97c917718f173bd488c1de", "lat": 38.90213033333333, "fusion_lon": 0.0, "fusion_lat": 0.0, "type": "electric_scooter", "name": "8a3992800a97c917718f173bd488c1de", "is_disabled": 0, "rental_uris": {"ios": "https://dc.lft.to/lastmile_qr_scan", "android": "https://dc.lft.to/lastmile_qr_scan"}, "is_reserved": 0}, {"lon": -77.03479066666667, "bike_id": "cfc7d7621b27fce655ffdbb7de2e701a", "lat": 38.928654, "fusion_lon": 0.0, "fusion_lat": 0.0, "type": "electric_scooter", "name": "cfc7d7621b27fce655ffdbb7de2e701a", "is_disabled": 0, "rental_uris": {"ios": "https://dc.lft.to/lastmile_qr_scan", "android": "https://dc.lft.to/lastmile_qr_scan"}, "is_reserved": 0}, {"lon": -77.03170333333334, "bike_id": "467c25b0c9a4319d42984b112aed5a53", "lat": 38.89218833333334, "fusion_lon": 0.0, "fusion_lat": 0.0, "type": "electric_scooter", "name": "467c25b0c9a4319d42984b112aed5a53", "is_disabled": 0, "rental_uris": {"ios": "https://dc.lft.to/lastmile_qr_scan", "android": "https://dc.lft.to/lastmile_qr_scan"}, "is_reserved": 0}, {"lon": -77.05448583333333, "bike_id": "d4c505c675709074c22b5975fad94228", "lat": 38.92860733333333, "fusion_lon": 0.0, "fusion_lat": 0.0, "type": "electric_scooter", "name": "d4c505c675709074c22b5975fad94228", "is_disabled": 0, "rental_uris": {"ios": "https://dc.lft.to/lastmile_qr_scan", "android": "https://dc.lft.to/lastmile_qr_scan"}, "is_reserved": 0}, {"lon": -77.04877116666667, "bike_id": "a0ccb8f84749148ba8bfe96e3858dba2", "lat": 38.9034445, "fusion_lon": 0.0, "fusion_lat": 0.0, "type": "electric_scooter", "name": "a0ccb8f84749148ba8bfe96e3858dba2", "is_disabled": 0, "rental_uris": {"ios": "https://dc.lft.to/lastmile_qr_scan", "android": "https://dc.lft.to/lastmile_qr_scan"}, "is_reserved": 0}, {"lon": -77.016588, "bike_id": "848b914c1ed344a3a20cdf02c7333fd9", "lat": 38.9289685, "fusion_lon": 0.0, "fusion_lat": 0.0, "type": "electric_scooter", "name": "848b914c1ed344a3a20cdf02c7333fd9", "is_disabled": 0, "rental_uris": {"ios": "https://dc.lft.to/lastmile_qr_scan", "android": "https://dc.lft.to/lastmile_qr_scan"}, "is_reserved": 0}, {"lon": -76.99546033333333, "bike_id": "dd001267dc2c3a13de04d448edfcf1d0", "lat": 38.86256616666667, "fusion_lon": 0.0, "fusion_lat": 0.0, "type": "electric_scooter", "name": "dd001267dc2c3a13de04d448edfcf1d0", "is_disabled": 0, "rental_uris": {"ios": "https://dc.lft.to/lastmile_qr_scan", "android": "https://dc.lft.to/lastmile_qr_scan"}, "is_reserved": 0}, {"lon": -76.99541983333333, "bike_id": "3de5840cfc1e29c88053c704e68658ec", "lat": 38.92673633333333, "fusion_lon": 0.0, "fusion_lat": 0.0, "type": "electric_scooter", "name": "3de5840cfc1e29c88053c704e68658ec", "is_disabled": 0, "rental_uris": {"ios": "https://dc.lft.to/lastmile_qr_scan", "android": "https://dc.lft.to/lastmile_qr_scan"}, "is_reserved": 0}, {"lon": -77.02347216666666, "bike_id": "7ea1b774de6dcd4a8a8841bf3f0734bf", "lat": 38.93534066666667, "fusion_lon": 0.0, "fusion_lat": 0.0, "type": "electric_scooter", "name": "7ea1b774de6dcd4a8a8841bf3f0734bf", "is_disabled": 0, "rental_uris": {"ios": "https://dc.lft.to/lastmile_qr_scan", "android": "https://dc.lft.to/lastmile_qr_scan"}, "is_reserved": 0}, {"lon": -76.93732766666666, "bike_id": "adf918a0d0a94bacb84c61cdfa97a04c", "lat": 38.89007983333333, "fusion_lon": 0.0, "fusion_lat": 0.0, "type": "electric_scooter", "name": "adf918a0d0a94bacb84c61cdfa97a04c", "is_disabled": 0, "rental_uris": {"ios": "https://dc.lft.to/lastmile_qr_scan", "android": "https://dc.lft.to/lastmile_qr_scan"}, "is_reserved": 0}, {"lon": -77.0261855, "bike_id": "3bb06f9f7f39040fe58a429eaaf10231", "lat": 38.896275, "fusion_lon": 0.0, "fusion_lat": 0.0, "type": "electric_scooter", "name": "3bb06f9f7f39040fe58a429eaaf10231", "is_disabled": 0, "rental_uris": {"ios": "https://dc.lft.to/lastmile_qr_scan", "android": "https://dc.lft.to/lastmile_qr_scan"}, "is_reserved": 0}, {"lon": -77.02997483333333, "bike_id": "b2d5f88e5dce177657d1aa845d109352", "lat": 38.9247155, "fusion_lon": 0.0, "fusion_lat": 0.0, "type": "electric_scooter", "name": "b2d5f88e5dce177657d1aa845d109352", "is_disabled": 0, "rental_uris": {"ios": "https://dc.lft.to/lastmile_qr_scan", "android": "https://dc.lft.to/lastmile_qr_scan"}, "is_reserved": 0}, {"lon": -77.02803866666666, "bike_id": "a86b3abb38f62873c88e743fee32708a", "lat": 38.911017333333334, "fusion_lon": 0.0, "fusion_lat": 0.0, "type": "electric_scooter", "name": "a86b3abb38f62873c88e743fee32708a", "is_disabled": 0, "rental_uris": {"ios": "https://dc.lft.to/lastmile_qr_scan", "android": "https://dc.lft.to/lastmile_qr_scan"}, "is_reserved": 0}, {"lon": -76.931318, "bike_id": "30005ac4ee64a8c62afc18116a3c8a93", "lat": 38.876125333333334, "fusion_lon": 0.0, "fusion_lat": 0.0, "type": "electric_scooter", "name": "30005ac4ee64a8c62afc18116a3c8a93", "is_disabled": 0, "rental_uris": {"ios": "https://dc.lft.to/lastmile_qr_scan", "android": "https://dc.lft.to/lastmile_qr_scan"}, "is_reserved": 0}, {"lon": -77.04893433333334, "bike_id": "2f76230828be87204c0e7cf06493fd48", "lat": 38.892352, "fusion_lon": 0.0, "fusion_lat": 0.0, "type": "electric_scooter", "name": "2f76230828be87204c0e7cf06493fd48", "is_disabled": 0, "rental_uris": {"ios": "https://dc.lft.to/lastmile_qr_scan", "android": "https://dc.lft.to/lastmile_qr_scan"}, "is_reserved": 0}, {"lon": -76.97975316666667, "bike_id": "77de2f572a3f9e920f110b969de279f0", "lat": 38.95374916666667, "fusion_lon": 0.0, "fusion_lat": 0.0, "type": "electric_bike", "name": "77de2f572a3f9e920f110b969de279f0", "is_disabled": 0, "rental_uris": {"ios": "https://dc.lft.to/lastmile_qr_scan", "android": "https://dc.lft.to/lastmile_qr_scan"}, "is_reserved": 0}, {"lon": -77.05603766666667, "bike_id": "8c87b14353f46d867e7405e68f9da086", "lat": 38.923277166666665, "fusion_lon": 0.0, "fusion_lat": 0.0, "type": "electric_scooter", "name": "8c87b14353f46d867e7405e68f9da086", "is_disabled": 0, "rental_uris": {"ios": "https://dc.lft.to/lastmile_qr_scan", "android": "https://dc.lft.to/lastmile_qr_scan"}, "is_reserved": 0}, {"lon": -77.02209966666666, "bike_id": "1687355a52e7127b76a448c106f7aa38", "lat": 38.914182333333336, "fusion_lon": 0.0, "fusion_lat": 0.0, "type": "electric_scooter", "name": "1687355a52e7127b76a448c106f7aa38", "is_disabled": 0, "rental_uris": {"ios": "https://dc.lft.to/lastmile_qr_scan", "android": "https://dc.lft.to/lastmile_qr_scan"}, "is_reserved": 0}, {"lon": -77.0468635, "bike_id": "1fe2622857208140ee1467d392cbc9fa", "lat": 38.906204333333335, "fusion_lon": 0.0, "fusion_lat": 0.0, "type": "electric_scooter", "name": "1fe2622857208140ee1467d392cbc9fa", "is_disabled": 0, "rental_uris": {"ios": "https://dc.lft.to/lastmile_qr_scan", "android": "https://dc.lft.to/lastmile_qr_scan"}, "is_reserved": 0}, {"lon": -77.05810283333334, "bike_id": "d4c55b7de6893c45df3cbb10426d5ab0", "lat": 38.93527366666667, "fusion_lon": 0.0, "fusion_lat": 0.0, "type": "electric_bike", "name": "d4c55b7de6893c45df3cbb10426d5ab0", "is_disabled": 0, "rental_uris": {"ios": "https://dc.lft.to/lastmile_qr_scan", "android": "https://dc.lft.to/lastmile_qr_scan"}, "is_reserved": 0}, {"lon": -77.02493983333333, "bike_id": "6bc01ec35115ae62f3ba36546f488de2", "lat": 38.94824966666667, "fusion_lon": 0.0, "fusion_lat": 0.0, "type": "electric_scooter", "name": "6bc01ec35115ae62f3ba36546f488de2", "is_disabled": 0, "rental_uris": {"ios": "https://dc.lft.to/lastmile_qr_scan", "android": "https://dc.lft.to/lastmile_qr_scan"}, "is_reserved": 0}, {"lon": -77.0222215, "bike_id": "1ec3851772b343a39b2d115129ea7750", "lat": 38.926148833333336, "fusion_lon": 0.0, "fusion_lat": 0.0, "type": "electric_scooter", "name": "1ec3851772b343a39b2d115129ea7750", "is_disabled": 0, "rental_uris": {"ios": "https://dc.lft.to/lastmile_qr_scan", "android": "https://dc.lft.to/lastmile_qr_scan"}, "is_reserved": 0}, {"lon": -77.0260225, "bike_id": "e10e940966d169bf3d89888fd6aec041", "lat": 38.982692666666665, "fusion_lon": 0.0, "fusion_lat": 0.0, "type": "electric_bike", "name": "e10e940966d169bf3d89888fd6aec041", "is_disabled": 0, "rental_uris": {"ios": "https://dc.lft.to/lastmile_qr_scan", "android": "https://dc.lft.to/lastmile_qr_scan"}, "is_reserved": 0}, {"lon": -77.02184616666666, "bike_id": "49b933c74535192f9d2c108878c35ba2", "lat": 38.939481, "fusion_lon": 0.0, "fusion_lat": 0.0, "type": "electric_scooter", "name": "49b933c74535192f9d2c108878c35ba2", "is_disabled": 0, "rental_uris": {"ios": "https://dc.lft.to/lastmile_qr_scan", "android": "https://dc.lft.to/lastmile_qr_scan"}, "is_reserved": 0}, {"lon": -77.01266383333333, "bike_id": "928c31316484e61ebf8fe7a5f9c9a45a", "lat": 38.915395833333335, "fusion_lon": 0.0, "fusion_lat": 0.0, "type": "electric_scooter", "name": "928c31316484e61ebf8fe7a5f9c9a45a", "is_disabled": 0, "rental_uris": {"ios": "https://dc.lft.to/lastmile_qr_scan", "android": "https://dc.lft.to/lastmile_qr_scan"}, "is_reserved": 0}, {"lon": -77.07920133333333, "bike_id": "d5cecffb46bc5edea48c31650f0f516b", "lat": 38.9480775, "fusion_lon": 0.0, "fusion_lat": 0.0, "type": "electric_scooter", "name": "d5cecffb46bc5edea48c31650f0f516b", "is_disabled": 0, "rental_uris": {"ios": "https://dc.lft.to/lastmile_qr_scan", "android": "https://dc.lft.to/lastmile_qr_scan"}, "is_reserved": 0}, {"lon": -77.044036, "bike_id": "66c9be12e2871a9d740cb10d6a8b9da2", "lat": 38.924487, "fusion_lon": 0.0, "fusion_lat": 0.0, "type": "electric_scooter", "name": "66c9be12e2871a9d740cb10d6a8b9da2", "is_disabled": 0, "rental_uris": {"ios": "https://dc.lft.to/lastmile_qr_scan", "android": "https://dc.lft.to/lastmile_qr_scan"}, "is_reserved": 0}, {"lon": -77.0210995, "bike_id": "b2a4ca67b88a31691745f89695b37508", "lat": 38.905988666666666, "fusion_lon": 0.0, "fusion_lat": 0.0, "type": "electric_scooter", "name": "b2a4ca67b88a31691745f89695b37508", "is_disabled": 0, "rental_uris": {"ios": "https://dc.lft.to/lastmile_qr_scan", "android": "https://dc.lft.to/lastmile_qr_scan"}, "is_reserved": 0}, {"lon": -76.98923116666667, "bike_id": "c7da24b21f956e013695eb24c1bad228", "lat": 38.85809533333333, "fusion_lon": 0.0, "fusion_lat": 0.0, "type": "electric_scooter", "name": "c7da24b21f956e013695eb24c1bad228", "is_disabled": 0, "rental_uris": {"ios": "https://dc.lft.to/lastmile_qr_scan", "android": "https://dc.lft.to/lastmile_qr_scan"}, "is_reserved": 0}, {"lon": -77.0438785, "bike_id": "8ce8b3321597b9ce093b7d101008d380", "lat": 39.04713983333333, "fusion_lon": 0.0, "fusion_lat": 0.0, "type": "electric_bike", "name": "8ce8b3321597b9ce093b7d101008d380", "is_disabled": 0, "rental_uris": {"ios": "https://dc.lft.to/lastmile_qr_scan", "android": "https://dc.lft.to/lastmile_qr_scan"}, "is_reserved": 0}, {"lon": -77.029005, "bike_id": "dfd9bccbb9970bd8f7e69ef399ae4351", "lat": 38.928196666666665, "fusion_lon": 0.0, "fusion_lat": 0.0, "type": "electric_scooter", "name": "dfd9bccbb9970bd8f7e69ef399ae4351", "is_disabled": 0, "rental_uris": {"ios": "https://dc.lft.to/lastmile_qr_scan", "android": "https://dc.lft.to/lastmile_qr_scan"}, "is_reserved": 0}, {"lon": -77.02353533333333, "bike_id": "23307d6db44a5dfa1ba25945c7c90489", "lat": 38.9353595, "fusion_lon": 0.0, "fusion_lat": 0.0, "type": "electric_scooter", "name": "23307d6db44a5dfa1ba25945c7c90489", "is_disabled": 0, "rental_uris": {"ios": "https://dc.lft.to/lastmile_qr_scan", "android": "https://dc.lft.to/lastmile_qr_scan"}, "is_reserved": 0}, {"lon": -76.99881216666667, "bike_id": "56abd158e7437f8d0f9a7c814266531e", "lat": 38.9012285, "fusion_lon": 0.0, "fusion_lat": 0.0, "type": "electric_scooter", "name": "56abd158e7437f8d0f9a7c814266531e", "is_disabled": 0, "rental_uris": {"ios": "https://dc.lft.to/lastmile_qr_scan", "android": "https://dc.lft.to/lastmile_qr_scan"}, "is_reserved": 0}, {"lon": -77.0177325, "bike_id": "abecb311b03ed08cdcb8fe62d6936cc2", "lat": 38.9212665, "fusion_lon": 0.0, "fusion_lat": 0.0, "type": "electric_scooter", "name": "abecb311b03ed08cdcb8fe62d6936cc2", "is_disabled": 0, "rental_uris": {"ios": "https://dc.lft.to/lastmile_qr_scan", "android": "https://dc.lft.to/lastmile_qr_scan"}, "is_reserved": 0}, {"lon": -77.036763, "bike_id": "c2b76aa773ed50d0d4b4dc47c0c8a934", "lat": 38.93921566666667, "fusion_lon": 0.0, "fusion_lat": 0.0, "type": "electric_scooter", "name": "c2b76aa773ed50d0d4b4dc47c0c8a934", "is_disabled": 0, "rental_uris": {"ios": "https://dc.lft.to/lastmile_qr_scan", "android": "https://dc.lft.to/lastmile_qr_scan"}, "is_reserved": 0}, {"lon": -77.03492283333334, "bike_id": "2c0d38c19fe2987cc796fd0219bb8e49", "lat": 38.93538983333333, "fusion_lon": 0.0, "fusion_lat": 0.0, "type": "electric_scooter", "name": "2c0d38c19fe2987cc796fd0219bb8e49", "is_disabled": 0, "rental_uris": {"ios": "https://dc.lft.to/lastmile_qr_scan", "android": "https://dc.lft.to/lastmile_qr_scan"}, "is_reserved": 0}, {"lon": -77.00771, "bike_id": "ed2bb6f0107c4186fad149afdf5b5964", "lat": 38.981297, "fusion_lon": 0.0, "fusion_lat": 0.0, "type": "electric_bike", "name": "ed2bb6f0107c4186fad149afdf5b5964", "is_disabled": 0, "rental_uris": {"ios": "https://dc.lft.to/lastmile_qr_scan", "android": "https://dc.lft.to/lastmile_qr_scan"}, "is_reserved": 0}, {"lon": -77.02555016666666, "bike_id": "8c635f60cccb7ae43cc02c8d6138433a", "lat": 38.91495333333334, "fusion_lon": 0.0, "fusion_lat": 0.0, "type": "electric_scooter", "name": "8c635f60cccb7ae43cc02c8d6138433a", "is_disabled": 0, "rental_uris": {"ios": "https://dc.lft.to/lastmile_qr_scan", "android": "https://dc.lft.to/lastmile_qr_scan"}, "is_reserved": 0}, {"lon": -77.00200266666667, "bike_id": "56cafb8647f72cb65be02df9765c0722", "lat": 38.91592, "fusion_lon": 0.0, "fusion_lat": 0.0, "type": "electric_scooter", "name": "56cafb8647f72cb65be02df9765c0722", "is_disabled": 0, "rental_uris": {"ios": "https://dc.lft.to/lastmile_qr_scan", "android": "https://dc.lft.to/lastmile_qr_scan"}, "is_reserved": 0}, {"lon": -76.98021116666666, "bike_id": "bcb6b2e68f72acfd88f7166ee81fd412", "lat": 38.9029545, "fusion_lon": 0.0, "fusion_lat": 0.0, "type": "electric_scooter", "name": "bcb6b2e68f72acfd88f7166ee81fd412", "is_disabled": 0, "rental_uris": {"ios": "https://dc.lft.to/lastmile_qr_scan", "android": "https://dc.lft.to/lastmile_qr_scan"}, "is_reserved": 0}, {"lon": -76.98201133333333, "bike_id": "017fa6853c1a10b6e93b2235816cbca5", "lat": 38.89944333333333, "fusion_lon": 0.0, "fusion_lat": 0.0, "type": "electric_scooter", "name": "017fa6853c1a10b6e93b2235816cbca5", "is_disabled": 0, "rental_uris": {"ios": "https://dc.lft.to/lastmile_qr_scan", "android": "https://dc.lft.to/lastmile_qr_scan"}, "is_reserved": 0}, {"lon": -77.02838616666666, "bike_id": "be6fb8922a5108b9a0d0987d98cc6eac", "lat": 38.89223283333333, "fusion_lon": 0.0, "fusion_lat": 0.0, "type": "electric_scooter", "name": "be6fb8922a5108b9a0d0987d98cc6eac", "is_disabled": 0, "rental_uris": {"ios": "https://dc.lft.to/lastmile_qr_scan", "android": "https://dc.lft.to/lastmile_qr_scan"}, "is_reserved": 0}, {"lon": -77.04924, "bike_id": "cd928f16bebfe0b5c0ab465a0ec9e31d", "lat": 38.90370083333333, "fusion_lon": 0.0, "fusion_lat": 0.0, "type": "electric_scooter", "name": "cd928f16bebfe0b5c0ab465a0ec9e31d", "is_disabled": 0, "rental_uris": {"ios": "https://dc.lft.to/lastmile_qr_scan", "android": "https://dc.lft.to/lastmile_qr_scan"}, "is_reserved": 0}, {"lon": -76.95183266666666, "bike_id": "aee170d76d07f8488646f882fae49ba7", "lat": 38.907383333333335, "fusion_lon": 0.0, "fusion_lat": 0.0, "type": "electric_scooter", "name": "aee170d76d07f8488646f882fae49ba7", "is_disabled": 0, "rental_uris": {"ios": "https://dc.lft.to/lastmile_qr_scan", "android": "https://dc.lft.to/lastmile_qr_scan"}, "is_reserved": 0}, {"lon": -76.98003, "bike_id": "75ddc70c5998c49462431c376e17f871", "lat": 38.9068225, "fusion_lon": 0.0, "fusion_lat": 0.0, "type": "electric_scooter", "name": "75ddc70c5998c49462431c376e17f871", "is_disabled": 0, "rental_uris": {"ios": "https://dc.lft.to/lastmile_qr_scan", "android": "https://dc.lft.to/lastmile_qr_scan"}, "is_reserved": 0}, {"lon": -77.03163466666666, "bike_id": "333bc63052496314462a4b5bd5c5bccc", "lat": 38.892214, "fusion_lon": 0.0, "fusion_lat": 0.0, "type": "electric_scooter", "name": "333bc63052496314462a4b5bd5c5bccc", "is_disabled": 0, "rental_uris": {"ios": "https://dc.lft.to/lastmile_qr_scan", "android": "https://dc.lft.to/lastmile_qr_scan"}, "is_reserved": 0}, {"lon": -76.98266283333334, "bike_id": "5d6d59c62f34acb3cf641b3d71852ab4", "lat": 38.908575, "fusion_lon": 0.0, "fusion_lat": 0.0, "type": "electric_scooter", "name": "5d6d59c62f34acb3cf641b3d71852ab4", "is_disabled": 0, "rental_uris": {"ios": "https://dc.lft.to/lastmile_qr_scan", "android": "https://dc.lft.to/lastmile_qr_scan"}, "is_reserved": 0}, {"lon": -76.982254, "bike_id": "8bf70ccec3d576b27634c9e78091656a", "lat": 38.91641666666666, "fusion_lon": 0.0, "fusion_lat": 0.0, "type": "electric_scooter", "name": "8bf70ccec3d576b27634c9e78091656a", "is_disabled": 0, "rental_uris": {"ios": "https://dc.lft.to/lastmile_qr_scan", "android": "https://dc.lft.to/lastmile_qr_scan"}, "is_reserved": 0}, {"lon": -77.0177265, "bike_id": "3f9c3883e52676c13ad984d83e005a72", "lat": 38.9026185, "fusion_lon": 0.0, "fusion_lat": 0.0, "type": "electric_scooter", "name": "3f9c3883e52676c13ad984d83e005a72", "is_disabled": 0, "rental_uris": {"ios": "https://dc.lft.to/lastmile_qr_scan", "android": "https://dc.lft.to/lastmile_qr_scan"}, "is_reserved": 0}, {"lon": -77.0367335, "bike_id": "0afc94df018c23244428f49d9a477333", "lat": 38.9095925, "fusion_lon": 0.0, "fusion_lat": 0.0, "type": "electric_scooter", "name": "0afc94df018c23244428f49d9a477333", "is_disabled": 0, "rental_uris": {"ios": "https://dc.lft.to/lastmile_qr_scan", "android": "https://dc.lft.to/lastmile_qr_scan"}, "is_reserved": 0}, {"lon": -76.987139, "bike_id": "5bc1b4ce9d8f2191c6953886bf4b1605", "lat": 38.8662665, "fusion_lon": 0.0, "fusion_lat": 0.0, "type": "electric_scooter", "name": "5bc1b4ce9d8f2191c6953886bf4b1605", "is_disabled": 0, "rental_uris": {"ios": "https://dc.lft.to/lastmile_qr_scan", "android": "https://dc.lft.to/lastmile_qr_scan"}, "is_reserved": 0}, {"lon": -77.03264316666667, "bike_id": "0f4d9a5584da2146b3eff658f4552869", "lat": 38.93524633333333, "fusion_lon": 0.0, "fusion_lat": 0.0, "type": "electric_scooter", "name": "0f4d9a5584da2146b3eff658f4552869", "is_disabled": 0, "rental_uris": {"ios": "https://dc.lft.to/lastmile_qr_scan", "android": "https://dc.lft.to/lastmile_qr_scan"}, "is_reserved": 0}, {"lon": -76.98951533333333, "bike_id": "96988c05638f758c3515541c00942f40", "lat": 38.85691816666667, "fusion_lon": 0.0, "fusion_lat": 0.0, "type": "electric_scooter", "name": "96988c05638f758c3515541c00942f40", "is_disabled": 0, "rental_uris": {"ios": "https://dc.lft.to/lastmile_qr_scan", "android": "https://dc.lft.to/lastmile_qr_scan"}, "is_reserved": 0}, {"lon": -76.99454333333334, "bike_id": "b3b49a9f95ddeb8673f406657f12d027", "lat": 38.966143833333334, "fusion_lon": 0.0, "fusion_lat": 0.0, "type": "electric_bike", "name": "b3b49a9f95ddeb8673f406657f12d027", "is_disabled": 0, "rental_uris": {"ios": "https://dc.lft.to/lastmile_qr_scan", "android": "https://dc.lft.to/lastmile_qr_scan"}, "is_reserved": 0}, {"lon": -77.0132025, "bike_id": "f87b0d1066a3882bcaec0b4a6165a013", "lat": 38.8714645, "fusion_lon": 0.0, "fusion_lat": 0.0, "type": "electric_scooter", "name": "f87b0d1066a3882bcaec0b4a6165a013", "is_disabled": 0, "rental_uris": {"ios": "https://dc.lft.to/lastmile_qr_scan", "android": "https://dc.lft.to/lastmile_qr_scan"}, "is_reserved": 0}, {"lon": -77.09872466666667, "bike_id": "896882ee87828511b2ca284136d47d1f", "lat": 38.94967316666666, "fusion_lon": 0.0, "fusion_lat": 0.0, "type": "electric_scooter", "name": "896882ee87828511b2ca284136d47d1f", "is_disabled": 0, "rental_uris": {"ios": "https://dc.lft.to/lastmile_qr_scan", "android": "https://dc.lft.to/lastmile_qr_scan"}, "is_reserved": 0}, {"lon": -77.0457785, "bike_id": "3f44338de7630b56a78999305e8bb5a1", "lat": 38.92127133333334, "fusion_lon": 0.0, "fusion_lat": 0.0, "type": "electric_scooter", "name": "3f44338de7630b56a78999305e8bb5a1", "is_disabled": 0, "rental_uris": {"ios": "https://dc.lft.to/lastmile_qr_scan", "android": "https://dc.lft.to/lastmile_qr_scan"}, "is_reserved": 0}, {"lon": -77.00835066666667, "bike_id": "d4c52803b95972c9ed48e27a05d28016", "lat": 38.915616666666665, "fusion_lon": 0.0, "fusion_lat": 0.0, "type": "electric_scooter", "name": "d4c52803b95972c9ed48e27a05d28016", "is_disabled": 0, "rental_uris": {"ios": "https://dc.lft.to/lastmile_qr_scan", "android": "https://dc.lft.to/lastmile_qr_scan"}, "is_reserved": 0}, {"lon": -76.990062, "bike_id": "587388043c07ddf84082c0673c16766d", "lat": 38.86506083333333, "fusion_lon": 0.0, "fusion_lat": 0.0, "type": "electric_scooter", "name": "587388043c07ddf84082c0673c16766d", "is_disabled": 0, "rental_uris": {"ios": "https://dc.lft.to/lastmile_qr_scan", "android": "https://dc.lft.to/lastmile_qr_scan"}, "is_reserved": 0}, {"lon": -77.04158566666666, "bike_id": "1858ed59e911d572dac2832d81fd72fe", "lat": 38.915487166666665, "fusion_lon": 0.0, "fusion_lat": 0.0, "type": "electric_scooter", "name": "1858ed59e911d572dac2832d81fd72fe", "is_disabled": 0, "rental_uris": {"ios": "https://dc.lft.to/lastmile_qr_scan", "android": "https://dc.lft.to/lastmile_qr_scan"}, "is_reserved": 0}, {"lon": -77.006202, "bike_id": "7a0584a08c4d88ca2d9fbce2398e8a6e", "lat": 38.87627033333333, "fusion_lon": 0.0, "fusion_lat": 0.0, "type": "electric_scooter", "name": "7a0584a08c4d88ca2d9fbce2398e8a6e", "is_disabled": 0, "rental_uris": {"ios": "https://dc.lft.to/lastmile_qr_scan", "android": "https://dc.lft.to/lastmile_qr_scan"}, "is_reserved": 0}, {"lon": -77.0037735, "bike_id": "103a53a266aef45cde3b591ca03e9011", "lat": 38.89729783333333, "fusion_lon": 0.0, "fusion_lat": 0.0, "type": "electric_scooter", "name": "103a53a266aef45cde3b591ca03e9011", "is_disabled": 0, "rental_uris": {"ios": "https://dc.lft.to/lastmile_qr_scan", "android": "https://dc.lft.to/lastmile_qr_scan"}, "is_reserved": 0}, {"lon": -77.05548083333333, "bike_id": "96820660c4a1ea129026ad4cfd50f700", "lat": 38.8996275, "fusion_lon": 0.0, "fusion_lat": 0.0, "type": "electric_scooter", "name": "96820660c4a1ea129026ad4cfd50f700", "is_disabled": 0, "rental_uris": {"ios": "https://dc.lft.to/lastmile_qr_scan", "android": "https://dc.lft.to/lastmile_qr_scan"}, "is_reserved": 0}, {"lon": -76.99549333333333, "bike_id": "fb2ff0232e13a1dbb6b2a80fc7b804d2", "lat": 38.8625915, "fusion_lon": 0.0, "fusion_lat": 0.0, "type": "electric_scooter", "name": "fb2ff0232e13a1dbb6b2a80fc7b804d2", "is_disabled": 0, "rental_uris": {"ios": "https://dc.lft.to/lastmile_qr_scan", "android": "https://dc.lft.to/lastmile_qr_scan"}, "is_reserved": 0}, {"lon": -77.00676516666667, "bike_id": "9ab39c312b62b9f85643d84e0e1c01dd", "lat": 38.87642816666666, "fusion_lon": 0.0, "fusion_lat": 0.0, "type": "electric_scooter", "name": "9ab39c312b62b9f85643d84e0e1c01dd", "is_disabled": 0, "rental_uris": {"ios": "https://dc.lft.to/lastmile_qr_scan", "android": "https://dc.lft.to/lastmile_qr_scan"}, "is_reserved": 0}, {"lon": -77.00824933333334, "bike_id": "a262e6a453f0f0b25afc0f186e537e4c", "lat": 38.90656083333333, "fusion_lon": 0.0, "fusion_lat": 0.0, "type": "electric_scooter", "name": "a262e6a453f0f0b25afc0f186e537e4c", "is_disabled": 0, "rental_uris": {"ios": "https://dc.lft.to/lastmile_qr_scan", "android": "https://dc.lft.to/lastmile_qr_scan"}, "is_reserved": 0}, {"lon": -77.0343485, "bike_id": "7fcdd5d0fa834461c7fccc4cada84f2e", "lat": 38.9103385, "fusion_lon": 0.0, "fusion_lat": 0.0, "type": "electric_scooter", "name": "7fcdd5d0fa834461c7fccc4cada84f2e", "is_disabled": 0, "rental_uris": {"ios": "https://dc.lft.to/lastmile_qr_scan", "android": "https://dc.lft.to/lastmile_qr_scan"}, "is_reserved": 0}, {"lon": -77.02478133333334, "bike_id": "43e41de0651882469064e47399892f9d", "lat": 38.919170333333334, "fusion_lon": 0.0, "fusion_lat": 0.0, "type": "electric_scooter", "name": "43e41de0651882469064e47399892f9d", "is_disabled": 0, "rental_uris": {"ios": "https://dc.lft.to/lastmile_qr_scan", "android": "https://dc.lft.to/lastmile_qr_scan"}, "is_reserved": 0}, {"lon": -77.00057916666667, "bike_id": "fede430369d4d9405d386308788e6a12", "lat": 38.8964835, "fusion_lon": 0.0, "fusion_lat": 0.0, "type": "electric_scooter", "name": "fede430369d4d9405d386308788e6a12", "is_disabled": 0, "rental_uris": {"ios": "https://dc.lft.to/lastmile_qr_scan", "android": "https://dc.lft.to/lastmile_qr_scan"}, "is_reserved": 0}, {"lon": -77.03546333333334, "bike_id": "1189310c4c3186d2703251100d0f841a", "lat": 38.91711266666667, "fusion_lon": 0.0, "fusion_lat": 0.0, "type": "electric_scooter", "name": "1189310c4c3186d2703251100d0f841a", "is_disabled": 0, "rental_uris": {"ios": "https://dc.lft.to/lastmile_qr_scan", "android": "https://dc.lft.to/lastmile_qr_scan"}, "is_reserved": 0}, {"lon": -77.02559766666667, "bike_id": "c872f0c29f457addc9572206b792eb8d", "lat": 38.92536966666667, "fusion_lon": 0.0, "fusion_lat": 0.0, "type": "electric_scooter", "name": "c872f0c29f457addc9572206b792eb8d", "is_disabled": 0, "rental_uris": {"ios": "https://dc.lft.to/lastmile_qr_scan", "android": "https://dc.lft.to/lastmile_qr_scan"}, "is_reserved": 0}, {"lon": -77.11711366666667, "bike_id": "389dadd0b0b360ab7396875da34c8f15", "lat": 38.86745633333334, "fusion_lon": 0.0, "fusion_lat": 0.0, "type": "electric_bike", "name": "389dadd0b0b360ab7396875da34c8f15", "is_disabled": 0, "rental_uris": {"ios": "https://dc.lft.to/lastmile_qr_scan", "android": "https://dc.lft.to/lastmile_qr_scan"}, "is_reserved": 0}, {"lon": -77.0427875, "bike_id": "2eaad5bd63e168e0be23d84cef3d1671", "lat": 38.92245416666667, "fusion_lon": 0.0, "fusion_lat": 0.0, "type": "electric_scooter", "name": "2eaad5bd63e168e0be23d84cef3d1671", "is_disabled": 0, "rental_uris": {"ios": "https://dc.lft.to/lastmile_qr_scan", "android": "https://dc.lft.to/lastmile_qr_scan"}, "is_reserved": 0}, {"lon": -77.01798216666667, "bike_id": "49036724be17eccf0a5b2f02b2a4be58", "lat": 38.92131416666667, "fusion_lon": 0.0, "fusion_lat": 0.0, "type": "electric_scooter", "name": "49036724be17eccf0a5b2f02b2a4be58", "is_disabled": 0, "rental_uris": {"ios": "https://dc.lft.to/lastmile_qr_scan", "android": "https://dc.lft.to/lastmile_qr_scan"}, "is_reserved": 0}, {"lon": -77.04746566666667, "bike_id": "1fcd79cbf5d8a0d7ca83292539b3545c", "lat": 38.9177405, "fusion_lon": 0.0, "fusion_lat": 0.0, "type": "electric_scooter", "name": "1fcd79cbf5d8a0d7ca83292539b3545c", "is_disabled": 0, "rental_uris": {"ios": "https://dc.lft.to/lastmile_qr_scan", "android": "https://dc.lft.to/lastmile_qr_scan"}, "is_reserved": 0}, {"lon": -76.9852735, "bike_id": "8e2597b09a1f5d6ad0d92aacdb077e79", "lat": 38.904546833333335, "fusion_lon": 0.0, "fusion_lat": 0.0, "type": "electric_scooter", "name": "8e2597b09a1f5d6ad0d92aacdb077e79", "is_disabled": 0, "rental_uris": {"ios": "https://dc.lft.to/lastmile_qr_scan", "android": "https://dc.lft.to/lastmile_qr_scan"}, "is_reserved": 0}, {"lon": -77.04823583333334, "bike_id": "0f57a2e915624b085ac6ce7aca2f3081", "lat": 38.90731916666667, "fusion_lon": 0.0, "fusion_lat": 0.0, "type": "electric_scooter", "name": "0f57a2e915624b085ac6ce7aca2f3081", "is_disabled": 0, "rental_uris": {"ios": "https://dc.lft.to/lastmile_qr_scan", "android": "https://dc.lft.to/lastmile_qr_scan"}, "is_reserved": 0}, {"lon": -77.02460766666667, "bike_id": "b191ffb204eb3ec3a4852f72f14db003", "lat": 38.92063, "fusion_lon": 0.0, "fusion_lat": 0.0, "type": "electric_scooter", "name": "b191ffb204eb3ec3a4852f72f14db003", "is_disabled": 0, "rental_uris": {"ios": "https://dc.lft.to/lastmile_qr_scan", "android": "https://dc.lft.to/lastmile_qr_scan"}, "is_reserved": 0}, {"lon": -77.08975983333333, "bike_id": "e6f6e4207a9af68e44a5e9247cc06fde", "lat": 38.87478483333334, "fusion_lon": 0.0, "fusion_lat": 0.0, "type": "electric_bike", "name": "e6f6e4207a9af68e44a5e9247cc06fde", "is_disabled": 0, "rental_uris": {"ios": "https://dc.lft.to/lastmile_qr_scan", "android": "https://dc.lft.to/lastmile_qr_scan"}, "is_reserved": 0}, {"lon": -77.03843266666667, "bike_id": "4edd6c7a4e1e985eeb4578ce255458f7", "lat": 38.906824666666665, "fusion_lon": 0.0, "fusion_lat": 0.0, "type": "electric_scooter", "name": "4edd6c7a4e1e985eeb4578ce255458f7", "is_disabled": 0, "rental_uris": {"ios": "https://dc.lft.to/lastmile_qr_scan", "android": "https://dc.lft.to/lastmile_qr_scan"}, "is_reserved": 0}, {"lon": -77.055247, "bike_id": "7b6d4827ba5f5b084a51743eed5ed28f", "lat": 38.9297195, "fusion_lon": 0.0, "fusion_lat": 0.0, "type": "electric_scooter", "name": "7b6d4827ba5f5b084a51743eed5ed28f", "is_disabled": 0, "rental_uris": {"ios": "https://dc.lft.to/lastmile_qr_scan", "android": "https://dc.lft.to/lastmile_qr_scan"}, "is_reserved": 0}, {"lon": -77.0298955, "bike_id": "86c84ea03706e304253331aa485ca34e", "lat": 38.907399, "fusion_lon": 0.0, "fusion_lat": 0.0, "type": "electric_scooter", "name": "86c84ea03706e304253331aa485ca34e", "is_disabled": 0, "rental_uris": {"ios": "https://dc.lft.to/lastmile_qr_scan", "android": "https://dc.lft.to/lastmile_qr_scan"}, "is_reserved": 0}, {"lon": -77.029694, "bike_id": "6c12bc1a3ff236f3bd06cec3829385f7", "lat": 38.89690233333334, "fusion_lon": 0.0, "fusion_lat": 0.0, "type": "electric_scooter", "name": "6c12bc1a3ff236f3bd06cec3829385f7", "is_disabled": 0, "rental_uris": {"ios": "https://dc.lft.to/lastmile_qr_scan", "android": "https://dc.lft.to/lastmile_qr_scan"}, "is_reserved": 0}, {"lon": -77.01345716666667, "bike_id": "f7e299109d74e6411a72d8dc0aa98a1f", "lat": 38.878122, "fusion_lon": 0.0, "fusion_lat": 0.0, "type": "electric_scooter", "name": "f7e299109d74e6411a72d8dc0aa98a1f", "is_disabled": 0, "rental_uris": {"ios": "https://dc.lft.to/lastmile_qr_scan", "android": "https://dc.lft.to/lastmile_qr_scan"}, "is_reserved": 0}, {"lon": -77.02717166666666, "bike_id": "fe893e61a44c54cd0063cb585988e41c", "lat": 38.906655666666666, "fusion_lon": 0.0, "fusion_lat": 0.0, "type": "electric_scooter", "name": "fe893e61a44c54cd0063cb585988e41c", "is_disabled": 0, "rental_uris": {"ios": "https://dc.lft.to/lastmile_qr_scan", "android": "https://dc.lft.to/lastmile_qr_scan"}, "is_reserved": 0}, {"lon": -77.001, "bike_id": "d47adcac5791c03fc183cd84c3cb704e", "lat": 38.916353666666666, "fusion_lon": 0.0, "fusion_lat": 0.0, "type": "electric_scooter", "name": "d47adcac5791c03fc183cd84c3cb704e", "is_disabled": 0, "rental_uris": {"ios": "https://dc.lft.to/lastmile_qr_scan", "android": "https://dc.lft.to/lastmile_qr_scan"}, "is_reserved": 0}, {"lon": -77.03277466666667, "bike_id": "8e71462db0d2dd0bd970f6dc04ebdbbb", "lat": 38.928337166666665, "fusion_lon": 0.0, "fusion_lat": 0.0, "type": "electric_scooter", "name": "8e71462db0d2dd0bd970f6dc04ebdbbb", "is_disabled": 0, "rental_uris": {"ios": "https://dc.lft.to/lastmile_qr_scan", "android": "https://dc.lft.to/lastmile_qr_scan"}, "is_reserved": 0}, {"lon": -76.99612283333333, "bike_id": "d9afc1f53776ddd35220b2cfa730c0c4", "lat": 38.925497166666666, "fusion_lon": 0.0, "fusion_lat": 0.0, "type": "electric_scooter", "name": "d9afc1f53776ddd35220b2cfa730c0c4", "is_disabled": 0, "rental_uris": {"ios": "https://dc.lft.to/lastmile_qr_scan", "android": "https://dc.lft.to/lastmile_qr_scan"}, "is_reserved": 0}, {"lon": -77.0063805, "bike_id": "d1b94d99aba6f6ab6469f0f05ba14a0b", "lat": 38.955988, "fusion_lon": 0.0, "fusion_lat": 0.0, "type": "electric_scooter", "name": "d1b94d99aba6f6ab6469f0f05ba14a0b", "is_disabled": 0, "rental_uris": {"ios": "https://dc.lft.to/lastmile_qr_scan", "android": "https://dc.lft.to/lastmile_qr_scan"}, "is_reserved": 0}, {"lon": -77.01107033333334, "bike_id": "5565ecb2841532000b8ccfd32343d15c", "lat": 38.903666666666666, "fusion_lon": 0.0, "fusion_lat": 0.0, "type": "electric_scooter", "name": "5565ecb2841532000b8ccfd32343d15c", "is_disabled": 0, "rental_uris": {"ios": "https://dc.lft.to/lastmile_qr_scan", "android": "https://dc.lft.to/lastmile_qr_scan"}, "is_reserved": 0}, {"lon": -77.027175, "bike_id": "8a4257c94a780b56c3eea98fc9e3651a", "lat": 38.911838833333334, "fusion_lon": 0.0, "fusion_lat": 0.0, "type": "electric_scooter", "name": "8a4257c94a780b56c3eea98fc9e3651a", "is_disabled": 0, "rental_uris": {"ios": "https://dc.lft.to/lastmile_qr_scan", "android": "https://dc.lft.to/lastmile_qr_scan"}, "is_reserved": 0}, {"lon": -77.0335395, "bike_id": "0bf43bd1e27fafbd824558e4a865e4d1", "lat": 38.917024, "fusion_lon": 0.0, "fusion_lat": 0.0, "type": "electric_scooter", "name": "0bf43bd1e27fafbd824558e4a865e4d1", "is_disabled": 0, "rental_uris": {"ios": "https://dc.lft.to/lastmile_qr_scan", "android": "https://dc.lft.to/lastmile_qr_scan"}, "is_reserved": 0}, {"lon": -77.023775, "bike_id": "2c7421afb2077cded4bed92778d2713a", "lat": 38.926579833333335, "fusion_lon": 0.0, "fusion_lat": 0.0, "type": "electric_scooter", "name": "2c7421afb2077cded4bed92778d2713a", "is_disabled": 0, "rental_uris": {"ios": "https://dc.lft.to/lastmile_qr_scan", "android": "https://dc.lft.to/lastmile_qr_scan"}, "is_reserved": 0}, {"lon": -77.048995, "bike_id": "ae4659612cdbe2dc007b4074b2b46b6c", "lat": 38.89002683333333, "fusion_lon": 0.0, "fusion_lat": 0.0, "type": "electric_scooter", "name": "ae4659612cdbe2dc007b4074b2b46b6c", "is_disabled": 0, "rental_uris": {"ios": "https://dc.lft.to/lastmile_qr_scan", "android": "https://dc.lft.to/lastmile_qr_scan"}, "is_reserved": 0}, {"lon": -77.03346766666667, "bike_id": "83395e5d0b47d9fc417968510937afb2", "lat": 38.89971833333333, "fusion_lon": 0.0, "fusion_lat": 0.0, "type": "electric_scooter", "name": "83395e5d0b47d9fc417968510937afb2", "is_disabled": 0, "rental_uris": {"ios": "https://dc.lft.to/lastmile_qr_scan", "android": "https://dc.lft.to/lastmile_qr_scan"}, "is_reserved": 0}, {"lon": -77.0229135, "bike_id": "c89fa415516ad24b9360d00d6ce0ac3a", "lat": 38.90978066666667, "fusion_lon": 0.0, "fusion_lat": 0.0, "type": "electric_scooter", "name": "c89fa415516ad24b9360d00d6ce0ac3a", "is_disabled": 0, "rental_uris": {"ios": "https://dc.lft.to/lastmile_qr_scan", "android": "https://dc.lft.to/lastmile_qr_scan"}, "is_reserved": 0}, {"lon": -76.98180516666666, "bike_id": "7bacd63fcf6b5bb47506dc2e8c8e8d29", "lat": 38.89576366666667, "fusion_lon": 0.0, "fusion_lat": 0.0, "type": "electric_scooter", "name": "7bacd63fcf6b5bb47506dc2e8c8e8d29", "is_disabled": 0, "rental_uris": {"ios": "https://dc.lft.to/lastmile_qr_scan", "android": "https://dc.lft.to/lastmile_qr_scan"}, "is_reserved": 0}, {"lon": -77.02690733333333, "bike_id": "18157f2fdfc47446a9e87d75b644d7e2", "lat": 38.91354833333333, "fusion_lon": 0.0, "fusion_lat": 0.0, "type": "electric_scooter", "name": "18157f2fdfc47446a9e87d75b644d7e2", "is_disabled": 0, "rental_uris": {"ios": "https://dc.lft.to/lastmile_qr_scan", "android": "https://dc.lft.to/lastmile_qr_scan"}, "is_reserved": 0}, {"lon": -77.03623666666667, "bike_id": "27f3bac44f38da4a2bf5435e96a1665c", "lat": 38.93679383333333, "fusion_lon": 0.0, "fusion_lat": 0.0, "type": "electric_scooter", "name": "27f3bac44f38da4a2bf5435e96a1665c", "is_disabled": 0, "rental_uris": {"ios": "https://dc.lft.to/lastmile_qr_scan", "android": "https://dc.lft.to/lastmile_qr_scan"}, "is_reserved": 0}, {"lon": -77.04872, "bike_id": "13dc289cb3623677fac136293c80bdd7", "lat": 38.90978716666667, "fusion_lon": 0.0, "fusion_lat": 0.0, "type": "electric_scooter", "name": "13dc289cb3623677fac136293c80bdd7", "is_disabled": 0, "rental_uris": {"ios": "https://dc.lft.to/lastmile_qr_scan", "android": "https://dc.lft.to/lastmile_qr_scan"}, "is_reserved": 0}, {"lon": -77.0364245, "bike_id": "736f12da38a592ca6c9248c9c5efa420", "lat": 38.9246315, "fusion_lon": 0.0, "fusion_lat": 0.0, "type": "electric_scooter", "name": "736f12da38a592ca6c9248c9c5efa420", "is_disabled": 0, "rental_uris": {"ios": "https://dc.lft.to/lastmile_qr_scan", "android": "https://dc.lft.to/lastmile_qr_scan"}, "is_reserved": 0}, {"lon": -77.02446266666666, "bike_id": "ec3b91c8c5367469d9385fb189a0f4b3", "lat": 38.91939466666667, "fusion_lon": 0.0, "fusion_lat": 0.0, "type": "electric_scooter", "name": "ec3b91c8c5367469d9385fb189a0f4b3", "is_disabled": 0, "rental_uris": {"ios": "https://dc.lft.to/lastmile_qr_scan", "android": "https://dc.lft.to/lastmile_qr_scan"}, "is_reserved": 0}, {"lon": -77.04118116666666, "bike_id": "1efb0090a734001239dd036667624a01", "lat": 38.92115283333333, "fusion_lon": 0.0, "fusion_lat": 0.0, "type": "electric_scooter", "name": "1efb0090a734001239dd036667624a01", "is_disabled": 0, "rental_uris": {"ios": "https://dc.lft.to/lastmile_qr_scan", "android": "https://dc.lft.to/lastmile_qr_scan"}, "is_reserved": 0}, {"lon": -77.0228125, "bike_id": "f647c1b4786dd09535329a63e8402c90", "lat": 38.909544833333335, "fusion_lon": 0.0, "fusion_lat": 0.0, "type": "electric_scooter", "name": "f647c1b4786dd09535329a63e8402c90", "is_disabled": 0, "rental_uris": {"ios": "https://dc.lft.to/lastmile_qr_scan", "android": "https://dc.lft.to/lastmile_qr_scan"}, "is_reserved": 0}, {"lon": -76.93370216666666, "bike_id": "f0a70438cb2809a1e9d60bbaeff2b37b", "lat": 38.899152, "fusion_lon": 0.0, "fusion_lat": 0.0, "type": "electric_scooter", "name": "f0a70438cb2809a1e9d60bbaeff2b37b", "is_disabled": 0, "rental_uris": {"ios": "https://dc.lft.to/lastmile_qr_scan", "android": "https://dc.lft.to/lastmile_qr_scan"}, "is_reserved": 0}, {"lon": -77.02159283333333, "bike_id": "eadf1f65f8cc65256e65141a63786306", "lat": 38.89219383333333, "fusion_lon": 0.0, "fusion_lat": 0.0, "type": "electric_scooter", "name": "eadf1f65f8cc65256e65141a63786306", "is_disabled": 0, "rental_uris": {"ios": "https://dc.lft.to/lastmile_qr_scan", "android": "https://dc.lft.to/lastmile_qr_scan"}, "is_reserved": 0}, {"lon": -76.99040783333334, "bike_id": "8e64944dba8dde051c4c6cc9a1aa0ebb", "lat": 38.86374566666667, "fusion_lon": 0.0, "fusion_lat": 0.0, "type": "electric_scooter", "name": "8e64944dba8dde051c4c6cc9a1aa0ebb", "is_disabled": 0, "rental_uris": {"ios": "https://dc.lft.to/lastmile_qr_scan", "android": "https://dc.lft.to/lastmile_qr_scan"}, "is_reserved": 0}, {"lon": -77.0228045, "bike_id": "f6f3af2dfba2f0a084aac73471c725e3", "lat": 38.909575, "fusion_lon": 0.0, "fusion_lat": 0.0, "type": "electric_scooter", "name": "f6f3af2dfba2f0a084aac73471c725e3", "is_disabled": 0, "rental_uris": {"ios": "https://dc.lft.to/lastmile_qr_scan", "android": "https://dc.lft.to/lastmile_qr_scan"}, "is_reserved": 0}, {"lon": -77.03853866666667, "bike_id": "63a1fcbb4cc092e26997d500396dfa13", "lat": 38.91666416666666, "fusion_lon": 0.0, "fusion_lat": 0.0, "type": "electric_scooter", "name": "63a1fcbb4cc092e26997d500396dfa13", "is_disabled": 0, "rental_uris": {"ios": "https://dc.lft.to/lastmile_qr_scan", "android": "https://dc.lft.to/lastmile_qr_scan"}, "is_reserved": 0}, {"lon": -76.92204816666667, "bike_id": "34470d0d2b2a4cd25b6d1baa378d75ee", "lat": 38.89495133333333, "fusion_lon": 0.0, "fusion_lat": 0.0, "type": "electric_bike", "name": "34470d0d2b2a4cd25b6d1baa378d75ee", "is_disabled": 0, "rental_uris": {"ios": "https://dc.lft.to/lastmile_qr_scan", "android": "https://dc.lft.to/lastmile_qr_scan"}, "is_reserved": 0}, {"lon": -77.031855, "bike_id": "709fd1ceeb238e8195c156f710bcf247", "lat": 38.91175366666667, "fusion_lon": 0.0, "fusion_lat": 0.0, "type": "electric_scooter", "name": "709fd1ceeb238e8195c156f710bcf247", "is_disabled": 0, "rental_uris": {"ios": "https://dc.lft.to/lastmile_qr_scan", "android": "https://dc.lft.to/lastmile_qr_scan"}, "is_reserved": 0}, {"lon": -77.00329483333333, "bike_id": "3b0f2aeff43205da1caa850f61131918", "lat": 38.9026725, "fusion_lon": 0.0, "fusion_lat": 0.0, "type": "electric_scooter", "name": "3b0f2aeff43205da1caa850f61131918", "is_disabled": 0, "rental_uris": {"ios": "https://dc.lft.to/lastmile_qr_scan", "android": "https://dc.lft.to/lastmile_qr_scan"}, "is_reserved": 0}, {"lon": -77.02470133333334, "bike_id": "35f083897751890bb596b5ebfd93ed04", "lat": 38.930889, "fusion_lon": 0.0, "fusion_lat": 0.0, "type": "electric_scooter", "name": "35f083897751890bb596b5ebfd93ed04", "is_disabled": 0, "rental_uris": {"ios": "https://dc.lft.to/lastmile_qr_scan", "android": "https://dc.lft.to/lastmile_qr_scan"}, "is_reserved": 0}, {"lon": -77.0008535, "bike_id": "b543cf18b2f6101512857bebab7a99d4", "lat": 38.894751166666666, "fusion_lon": 0.0, "fusion_lat": 0.0, "type": "electric_scooter", "name": "b543cf18b2f6101512857bebab7a99d4", "is_disabled": 0, "rental_uris": {"ios": "https://dc.lft.to/lastmile_qr_scan", "android": "https://dc.lft.to/lastmile_qr_scan"}, "is_reserved": 0}, {"lon": -76.9903585, "bike_id": "cdf60d6f2bc594cbb9cbc05a8476da56", "lat": 38.90290316666667, "fusion_lon": 0.0, "fusion_lat": 0.0, "type": "electric_scooter", "name": "cdf60d6f2bc594cbb9cbc05a8476da56", "is_disabled": 0, "rental_uris": {"ios": "https://dc.lft.to/lastmile_qr_scan", "android": "https://dc.lft.to/lastmile_qr_scan"}, "is_reserved": 0}, {"lon": -77.04156983333333, "bike_id": "944a52fd0b162016a9390e04d90d4796", "lat": 38.90747783333333, "fusion_lon": 0.0, "fusion_lat": 0.0, "type": "electric_scooter", "name": "944a52fd0b162016a9390e04d90d4796", "is_disabled": 0, "rental_uris": {"ios": "https://dc.lft.to/lastmile_qr_scan", "android": "https://dc.lft.to/lastmile_qr_scan"}, "is_reserved": 0}, {"lon": -77.03268616666666, "bike_id": "b846ce03a487a207ca66c5f78316213d", "lat": 38.9344445, "fusion_lon": 0.0, "fusion_lat": 0.0, "type": "electric_scooter", "name": "b846ce03a487a207ca66c5f78316213d", "is_disabled": 0, "rental_uris": {"ios": "https://dc.lft.to/lastmile_qr_scan", "android": "https://dc.lft.to/lastmile_qr_scan"}, "is_reserved": 0}, {"lon": -77.063996, "bike_id": "2c0756c05dc74c0c9e10f3f7869c5928", "lat": 38.9432495, "fusion_lon": 0.0, "fusion_lat": 0.0, "type": "electric_scooter", "name": "2c0756c05dc74c0c9e10f3f7869c5928", "is_disabled": 0, "rental_uris": {"ios": "https://dc.lft.to/lastmile_qr_scan", "android": "https://dc.lft.to/lastmile_qr_scan"}, "is_reserved": 0}, {"lon": -77.02261083333333, "bike_id": "fb694c234ec864ae2511b5bca0a2c336", "lat": 38.89376133333333, "fusion_lon": 0.0, "fusion_lat": 0.0, "type": "electric_scooter", "name": "fb694c234ec864ae2511b5bca0a2c336", "is_disabled": 0, "rental_uris": {"ios": "https://dc.lft.to/lastmile_qr_scan", "android": "https://dc.lft.to/lastmile_qr_scan"}, "is_reserved": 0}, {"lon": -76.96056833333333, "bike_id": "afb8c4839358b00d65ea31d509f6ee5f", "lat": 38.8840615, "fusion_lon": 0.0, "fusion_lat": 0.0, "type": "electric_bike", "name": "afb8c4839358b00d65ea31d509f6ee5f", "is_disabled": 0, "rental_uris": {"ios": "https://dc.lft.to/lastmile_qr_scan", "android": "https://dc.lft.to/lastmile_qr_scan"}, "is_reserved": 0}, {"lon": -77.03345266666666, "bike_id": "602c56ba0b58de6ada5a48e9009765e8", "lat": 38.90723783333333, "fusion_lon": 0.0, "fusion_lat": 0.0, "type": "electric_scooter", "name": "602c56ba0b58de6ada5a48e9009765e8", "is_disabled": 0, "rental_uris": {"ios": "https://dc.lft.to/lastmile_qr_scan", "android": "https://dc.lft.to/lastmile_qr_scan"}, "is_reserved": 0}, {"lon": -77.01189033333333, "bike_id": "1230542e5a7db9a4bb9908eeb78290a9", "lat": 38.900305833333334, "fusion_lon": 0.0, "fusion_lat": 0.0, "type": "electric_scooter", "name": "1230542e5a7db9a4bb9908eeb78290a9", "is_disabled": 0, "rental_uris": {"ios": "https://dc.lft.to/lastmile_qr_scan", "android": "https://dc.lft.to/lastmile_qr_scan"}, "is_reserved": 0}, {"lon": -77.014319, "bike_id": "d5af8dbe94327423f671e4f02c6cce99", "lat": 38.8774755, "fusion_lon": 0.0, "fusion_lat": 0.0, "type": "electric_scooter", "name": "d5af8dbe94327423f671e4f02c6cce99", "is_disabled": 0, "rental_uris": {"ios": "https://dc.lft.to/lastmile_qr_scan", "android": "https://dc.lft.to/lastmile_qr_scan"}, "is_reserved": 0}, {"lon": -77.05443783333334, "bike_id": "fb6facfb8fd0577468d437027494df86", "lat": 38.92860066666667, "fusion_lon": 0.0, "fusion_lat": 0.0, "type": "electric_scooter", "name": "fb6facfb8fd0577468d437027494df86", "is_disabled": 0, "rental_uris": {"ios": "https://dc.lft.to/lastmile_qr_scan", "android": "https://dc.lft.to/lastmile_qr_scan"}, "is_reserved": 0}, {"lon": -77.02178683333334, "bike_id": "023540ee3b774e3fae8cfce7aad29d2b", "lat": 38.9148015, "fusion_lon": 0.0, "fusion_lat": 0.0, "type": "electric_scooter", "name": "023540ee3b774e3fae8cfce7aad29d2b", "is_disabled": 0, "rental_uris": {"ios": "https://dc.lft.to/lastmile_qr_scan", "android": "https://dc.lft.to/lastmile_qr_scan"}, "is_reserved": 0}, {"lon": -76.9540615, "bike_id": "044cd35da057db7fb82b60558a94b0f6", "lat": 38.884675666666666, "fusion_lon": 0.0, "fusion_lat": 0.0, "type": "electric_scooter", "name": "044cd35da057db7fb82b60558a94b0f6", "is_disabled": 0, "rental_uris": {"ios": "https://dc.lft.to/lastmile_qr_scan", "android": "https://dc.lft.to/lastmile_qr_scan"}, "is_reserved": 0}, {"lon": -76.91804316666666, "bike_id": "9dec6a9045d9e0399b536819deeda85d", "lat": 38.99998683333333, "fusion_lon": 0.0, "fusion_lat": 0.0, "type": "electric_bike", "name": "9dec6a9045d9e0399b536819deeda85d", "is_disabled": 0, "rental_uris": {"ios": "https://dc.lft.to/lastmile_qr_scan", "android": "https://dc.lft.to/lastmile_qr_scan"}, "is_reserved": 0}, {"lon": -76.98718833333334, "bike_id": "7c8c699b5157a5aa1cc37a93b0730a44", "lat": 38.86627133333333, "fusion_lon": 0.0, "fusion_lat": 0.0, "type": "electric_scooter", "name": "7c8c699b5157a5aa1cc37a93b0730a44", "is_disabled": 0, "rental_uris": {"ios": "https://dc.lft.to/lastmile_qr_scan", "android": "https://dc.lft.to/lastmile_qr_scan"}, "is_reserved": 0}, {"lon": -76.99177183333333, "bike_id": "c0754a803bfa7063a4f9aa2de0087b06", "lat": 38.889911, "fusion_lon": 0.0, "fusion_lat": 0.0, "type": "electric_scooter", "name": "c0754a803bfa7063a4f9aa2de0087b06", "is_disabled": 0, "rental_uris": {"ios": "https://dc.lft.to/lastmile_qr_scan", "android": "https://dc.lft.to/lastmile_qr_scan"}, "is_reserved": 0}, {"lon": -77.01631266666666, "bike_id": "c24ee1a82526501db6d835978ea8e77a", "lat": 38.899465, "fusion_lon": 0.0, "fusion_lat": 0.0, "type": "electric_scooter", "name": "c24ee1a82526501db6d835978ea8e77a", "is_disabled": 0, "rental_uris": {"ios": "https://dc.lft.to/lastmile_qr_scan", "android": "https://dc.lft.to/lastmile_qr_scan"}, "is_reserved": 0}, {"lon": -76.99646466666667, "bike_id": "aa95014aa2e40633885f871fe689f8d8", "lat": 38.98829933333333, "fusion_lon": 0.0, "fusion_lat": 0.0, "type": "electric_bike", "name": "aa95014aa2e40633885f871fe689f8d8", "is_disabled": 0, "rental_uris": {"ios": "https://dc.lft.to/lastmile_qr_scan", "android": "https://dc.lft.to/lastmile_qr_scan"}, "is_reserved": 0}, {"lon": -77.05044683333334, "bike_id": "007795157e244d14205f2290b8e51345", "lat": 38.923965, "fusion_lon": 0.0, "fusion_lat": 0.0, "type": "electric_scooter", "name": "007795157e244d14205f2290b8e51345", "is_disabled": 0, "rental_uris": {"ios": "https://dc.lft.to/lastmile_qr_scan", "android": "https://dc.lft.to/lastmile_qr_scan"}, "is_reserved": 0}, {"lon": -77.00972066666667, "bike_id": "554616b304c5442960b149ed206eb37b", "lat": 38.911812166666664, "fusion_lon": 0.0, "fusion_lat": 0.0, "type": "electric_scooter", "name": "554616b304c5442960b149ed206eb37b", "is_disabled": 0, "rental_uris": {"ios": "https://dc.lft.to/lastmile_qr_scan", "android": "https://dc.lft.to/lastmile_qr_scan"}, "is_reserved": 0}, {"lon": -77.03547366666666, "bike_id": "3d4c1088a026c4f04ff3aa3d6239737c", "lat": 38.924138166666665, "fusion_lon": 0.0, "fusion_lat": 0.0, "type": "electric_scooter", "name": "3d4c1088a026c4f04ff3aa3d6239737c", "is_disabled": 0, "rental_uris": {"ios": "https://dc.lft.to/lastmile_qr_scan", "android": "https://dc.lft.to/lastmile_qr_scan"}, "is_reserved": 0}, {"lon": -77.03273683333333, "bike_id": "fa02f5bdeef49e4d802f1cb901e83617", "lat": 38.909537, "fusion_lon": 0.0, "fusion_lat": 0.0, "type": "electric_scooter", "name": "fa02f5bdeef49e4d802f1cb901e83617", "is_disabled": 0, "rental_uris": {"ios": "https://dc.lft.to/lastmile_qr_scan", "android": "https://dc.lft.to/lastmile_qr_scan"}, "is_reserved": 0}, {"lon": -76.98153983333333, "bike_id": "5e98c83bbe5c59a4597272bb7ff7e431", "lat": 38.925648, "fusion_lon": 0.0, "fusion_lat": 0.0, "type": "electric_scooter", "name": "5e98c83bbe5c59a4597272bb7ff7e431", "is_disabled": 0, "rental_uris": {"ios": "https://dc.lft.to/lastmile_qr_scan", "android": "https://dc.lft.to/lastmile_qr_scan"}, "is_reserved": 0}, {"lon": -77.02582483333333, "bike_id": "cd62b177c7e6993ce35da467cd006c07", "lat": 38.89227533333333, "fusion_lon": 0.0, "fusion_lat": 0.0, "type": "electric_scooter", "name": "cd62b177c7e6993ce35da467cd006c07", "is_disabled": 0, "rental_uris": {"ios": "https://dc.lft.to/lastmile_qr_scan", "android": "https://dc.lft.to/lastmile_qr_scan"}, "is_reserved": 0}, {"lon": -77.02283316666667, "bike_id": "34ec04e0c831b8da3e2a44fcd3f333f8", "lat": 38.92687383333333, "fusion_lon": 0.0, "fusion_lat": 0.0, "type": "electric_scooter", "name": "34ec04e0c831b8da3e2a44fcd3f333f8", "is_disabled": 0, "rental_uris": {"ios": "https://dc.lft.to/lastmile_qr_scan", "android": "https://dc.lft.to/lastmile_qr_scan"}, "is_reserved": 0}, {"lon": -77.00785566666667, "bike_id": "8cd0d7b1b160fce5917a57f76c181f49", "lat": 38.9006345, "fusion_lon": 0.0, "fusion_lat": 0.0, "type": "electric_scooter", "name": "8cd0d7b1b160fce5917a57f76c181f49", "is_disabled": 0, "rental_uris": {"ios": "https://dc.lft.to/lastmile_qr_scan", "android": "https://dc.lft.to/lastmile_qr_scan"}, "is_reserved": 0}, {"lon": -77.0498805, "bike_id": "5dcf9d28ea371119f89fdb5235547a9f", "lat": 38.896042, "fusion_lon": 0.0, "fusion_lat": 0.0, "type": "electric_scooter", "name": "5dcf9d28ea371119f89fdb5235547a9f", "is_disabled": 0, "rental_uris": {"ios": "https://dc.lft.to/lastmile_qr_scan", "android": "https://dc.lft.to/lastmile_qr_scan"}, "is_reserved": 0}, {"lon": -77.03752883333334, "bike_id": "01e69d24cbc9333df68e7e4d4ce1e379", "lat": 38.91115333333333, "fusion_lon": 0.0, "fusion_lat": 0.0, "type": "electric_scooter", "name": "01e69d24cbc9333df68e7e4d4ce1e379", "is_disabled": 0, "rental_uris": {"ios": "https://dc.lft.to/lastmile_qr_scan", "android": "https://dc.lft.to/lastmile_qr_scan"}, "is_reserved": 0}, {"lon": -77.115905, "bike_id": "f2b5ded30bebb080e16acb8cc68e6e6a", "lat": 39.07492633333333, "fusion_lon": 0.0, "fusion_lat": 0.0, "type": "electric_bike", "name": "f2b5ded30bebb080e16acb8cc68e6e6a", "is_disabled": 0, "rental_uris": {"ios": "https://dc.lft.to/lastmile_qr_scan", "android": "https://dc.lft.to/lastmile_qr_scan"}, "is_reserved": 0}, {"lon": -77.0240655, "bike_id": "8e8c3ff2e5b45a91f44b73a6106e17a2", "lat": 38.904241999999996, "fusion_lon": 0.0, "fusion_lat": 0.0, "type": "electric_scooter", "name": "8e8c3ff2e5b45a91f44b73a6106e17a2", "is_disabled": 0, "rental_uris": {"ios": "https://dc.lft.to/lastmile_qr_scan", "android": "https://dc.lft.to/lastmile_qr_scan"}, "is_reserved": 0}, {"lon": -77.02375883333333, "bike_id": "54416e282f91097cbf077f39d3714b34", "lat": 38.89973233333333, "fusion_lon": 0.0, "fusion_lat": 0.0, "type": "electric_scooter", "name": "54416e282f91097cbf077f39d3714b34", "is_disabled": 0, "rental_uris": {"ios": "https://dc.lft.to/lastmile_qr_scan", "android": "https://dc.lft.to/lastmile_qr_scan"}, "is_reserved": 0}, {"lon": -77.012138, "bike_id": "e330918645baea9c44e517cb036c200e", "lat": 38.9164525, "fusion_lon": 0.0, "fusion_lat": 0.0, "type": "electric_scooter", "name": "e330918645baea9c44e517cb036c200e", "is_disabled": 0, "rental_uris": {"ios": "https://dc.lft.to/lastmile_qr_scan", "android": "https://dc.lft.to/lastmile_qr_scan"}, "is_reserved": 0}, {"lon": -77.01415116666666, "bike_id": "aa772c5f7015d6e888309d469ad039e6", "lat": 38.9286735, "fusion_lon": 0.0, "fusion_lat": 0.0, "type": "electric_scooter", "name": "aa772c5f7015d6e888309d469ad039e6", "is_disabled": 0, "rental_uris": {"ios": "https://dc.lft.to/lastmile_qr_scan", "android": "https://dc.lft.to/lastmile_qr_scan"}, "is_reserved": 0}, {"lon": -76.96911016666667, "bike_id": "bbf9aa39c8ff322572df05c8c5991f25", "lat": 38.846105, "fusion_lon": 0.0, "fusion_lat": 0.0, "type": "electric_bike", "name": "bbf9aa39c8ff322572df05c8c5991f25", "is_disabled": 0, "rental_uris": {"ios": "https://dc.lft.to/lastmile_qr_scan", "android": "https://dc.lft.to/lastmile_qr_scan"}, "is_reserved": 0}, {"lon": -77.0227465, "bike_id": "8cc9db10816f487679f948e21de4a166", "lat": 38.926873, "fusion_lon": 0.0, "fusion_lat": 0.0, "type": "electric_scooter", "name": "8cc9db10816f487679f948e21de4a166", "is_disabled": 0, "rental_uris": {"ios": "https://dc.lft.to/lastmile_qr_scan", "android": "https://dc.lft.to/lastmile_qr_scan"}, "is_reserved": 0}, {"lon": -77.04196166666667, "bike_id": "9f509749ed16ef60c0a66c3db2082dea", "lat": 38.92619783333333, "fusion_lon": 0.0, "fusion_lat": 0.0, "type": "electric_scooter", "name": "9f509749ed16ef60c0a66c3db2082dea", "is_disabled": 0, "rental_uris": {"ios": "https://dc.lft.to/lastmile_qr_scan", "android": "https://dc.lft.to/lastmile_qr_scan"}, "is_reserved": 0}, {"lon": -76.93368966666667, "bike_id": "9f03bf310ebef00c049b3ee7b212d229", "lat": 38.89913983333334, "fusion_lon": 0.0, "fusion_lat": 0.0, "type": "electric_scooter", "name": "9f03bf310ebef00c049b3ee7b212d229", "is_disabled": 0, "rental_uris": {"ios": "https://dc.lft.to/lastmile_qr_scan", "android": "https://dc.lft.to/lastmile_qr_scan"}, "is_reserved": 0}, {"lon": -77.0483245, "bike_id": "07955d1a79e9ee42650d56647a10edfe", "lat": 38.9188905, "fusion_lon": 0.0, "fusion_lat": 0.0, "type": "electric_scooter", "name": "07955d1a79e9ee42650d56647a10edfe", "is_disabled": 0, "rental_uris": {"ios": "https://dc.lft.to/lastmile_qr_scan", "android": "https://dc.lft.to/lastmile_qr_scan"}, "is_reserved": 0}, {"lon": -77.04118933333334, "bike_id": "1d020a5f56f3a24553bf9e6d30016904", "lat": 38.92548566666667, "fusion_lon": 0.0, "fusion_lat": 0.0, "type": "electric_scooter", "name": "1d020a5f56f3a24553bf9e6d30016904", "is_disabled": 0, "rental_uris": {"ios": "https://dc.lft.to/lastmile_qr_scan", "android": "https://dc.lft.to/lastmile_qr_scan"}, "is_reserved": 0}, {"lon": -77.04105683333333, "bike_id": "930c3f5b271fd9d287e1753170cd6e86", "lat": 38.9185375, "fusion_lon": 0.0, "fusion_lat": 0.0, "type": "electric_scooter", "name": "930c3f5b271fd9d287e1753170cd6e86", "is_disabled": 0, "rental_uris": {"ios": "https://dc.lft.to/lastmile_qr_scan", "android": "https://dc.lft.to/lastmile_qr_scan"}, "is_reserved": 0}, {"lon": -77.0238055, "bike_id": "ac2ba58745bb44ca2b99588d414f1549", "lat": 38.91828566666667, "fusion_lon": 0.0, "fusion_lat": 0.0, "type": "electric_scooter", "name": "ac2ba58745bb44ca2b99588d414f1549", "is_disabled": 0, "rental_uris": {"ios": "https://dc.lft.to/lastmile_qr_scan", "android": "https://dc.lft.to/lastmile_qr_scan"}, "is_reserved": 0}, {"lon": -76.99837683333334, "bike_id": "12bf0e3b23fa64165166ca02578865f1", "lat": 38.902351833333334, "fusion_lon": 0.0, "fusion_lat": 0.0, "type": "electric_scooter", "name": "12bf0e3b23fa64165166ca02578865f1", "is_disabled": 0, "rental_uris": {"ios": "https://dc.lft.to/lastmile_qr_scan", "android": "https://dc.lft.to/lastmile_qr_scan"}, "is_reserved": 0}, {"lon": -77.038347, "bike_id": "9b73f1c10c81315addc97108bc53579a", "lat": 38.90776966666667, "fusion_lon": 0.0, "fusion_lat": 0.0, "type": "electric_scooter", "name": "9b73f1c10c81315addc97108bc53579a", "is_disabled": 0, "rental_uris": {"ios": "https://dc.lft.to/lastmile_qr_scan", "android": "https://dc.lft.to/lastmile_qr_scan"}, "is_reserved": 0}, {"lon": -77.00549433333333, "bike_id": "8d879b6839a24dcf35fa7ec67a60a8b9", "lat": 38.87848966666667, "fusion_lon": 0.0, "fusion_lat": 0.0, "type": "electric_scooter", "name": "8d879b6839a24dcf35fa7ec67a60a8b9", "is_disabled": 0, "rental_uris": {"ios": "https://dc.lft.to/lastmile_qr_scan", "android": "https://dc.lft.to/lastmile_qr_scan"}, "is_reserved": 0}, {"lon": -76.93176816666667, "bike_id": "84d19b8c2ca2df0bcdd072e8531404a7", "lat": 38.89886333333333, "fusion_lon": 0.0, "fusion_lat": 0.0, "type": "electric_scooter", "name": "84d19b8c2ca2df0bcdd072e8531404a7", "is_disabled": 0, "rental_uris": {"ios": "https://dc.lft.to/lastmile_qr_scan", "android": "https://dc.lft.to/lastmile_qr_scan"}, "is_reserved": 0}, {"lon": -77.03479733333333, "bike_id": "bd535ac33fafc596c228923488b1138d", "lat": 38.9287245, "fusion_lon": 0.0, "fusion_lat": 0.0, "type": "electric_scooter", "name": "bd535ac33fafc596c228923488b1138d", "is_disabled": 0, "rental_uris": {"ios": "https://dc.lft.to/lastmile_qr_scan", "android": "https://dc.lft.to/lastmile_qr_scan"}, "is_reserved": 0}, {"lon": -76.9495585, "bike_id": "661d0ece4da4ed5ba84f307890acbd3f", "lat": 38.894364, "fusion_lon": 0.0, "fusion_lat": 0.0, "type": "electric_scooter", "name": "661d0ece4da4ed5ba84f307890acbd3f", "is_disabled": 0, "rental_uris": {"ios": "https://dc.lft.to/lastmile_qr_scan", "android": "https://dc.lft.to/lastmile_qr_scan"}, "is_reserved": 0}, {"lon": -76.9946795, "bike_id": "0c2af36410593f647862c32eafaffdc8", "lat": 38.86213333333333, "fusion_lon": 0.0, "fusion_lat": 0.0, "type": "electric_scooter", "name": "0c2af36410593f647862c32eafaffdc8", "is_disabled": 0, "rental_uris": {"ios": "https://dc.lft.to/lastmile_qr_scan", "android": "https://dc.lft.to/lastmile_qr_scan"}, "is_reserved": 0}, {"lon": -77.04720433333334, "bike_id": "2a1bedae6da4e5c6b428016627c29391", "lat": 38.92234033333333, "fusion_lon": 0.0, "fusion_lat": 0.0, "type": "electric_scooter", "name": "2a1bedae6da4e5c6b428016627c29391", "is_disabled": 0, "rental_uris": {"ios": "https://dc.lft.to/lastmile_qr_scan", "android": "https://dc.lft.to/lastmile_qr_scan"}, "is_reserved": 0}, {"lon": -76.980919, "bike_id": "2d5e3e57a9ff3bb550b7396a4240c9e5", "lat": 38.88133416666667, "fusion_lon": 0.0, "fusion_lat": 0.0, "type": "electric_bike", "name": "2d5e3e57a9ff3bb550b7396a4240c9e5", "is_disabled": 0, "rental_uris": {"ios": "https://dc.lft.to/lastmile_qr_scan", "android": "https://dc.lft.to/lastmile_qr_scan"}, "is_reserved": 0}, {"lon": -77.03327516666667, "bike_id": "b0640fa40ffa651c387121fb4b876a9c", "lat": 38.947137833333336, "fusion_lon": 0.0, "fusion_lat": 0.0, "type": "electric_scooter", "name": "b0640fa40ffa651c387121fb4b876a9c", "is_disabled": 0, "rental_uris": {"ios": "https://dc.lft.to/lastmile_qr_scan", "android": "https://dc.lft.to/lastmile_qr_scan"}, "is_reserved": 0}, {"lon": -77.005294, "bike_id": "138b2b50b2c1290499db2dc89b297c3a", "lat": 38.879224, "fusion_lon": 0.0, "fusion_lat": 0.0, "type": "electric_scooter", "name": "138b2b50b2c1290499db2dc89b297c3a", "is_disabled": 0, "rental_uris": {"ios": "https://dc.lft.to/lastmile_qr_scan", "android": "https://dc.lft.to/lastmile_qr_scan"}, "is_reserved": 0}, {"lon": -77.01146666666666, "bike_id": "d05f134a216fe2071d5b2a4097a9e298", "lat": 38.912571, "fusion_lon": 0.0, "fusion_lat": 0.0, "type": "electric_scooter", "name": "d05f134a216fe2071d5b2a4097a9e298", "is_disabled": 0, "rental_uris": {"ios": "https://dc.lft.to/lastmile_qr_scan", "android": "https://dc.lft.to/lastmile_qr_scan"}, "is_reserved": 0}, {"lon": -76.95193633333334, "bike_id": "7916e6798750353797fd877277a56c08", "lat": 38.90000533333333, "fusion_lon": 0.0, "fusion_lat": 0.0, "type": "electric_scooter", "name": "7916e6798750353797fd877277a56c08", "is_disabled": 0, "rental_uris": {"ios": "https://dc.lft.to/lastmile_qr_scan", "android": "https://dc.lft.to/lastmile_qr_scan"}, "is_reserved": 0}, {"lon": -77.00506133333333, "bike_id": "27409955d4daf7216520d2af55afa244", "lat": 38.916890333333335, "fusion_lon": 0.0, "fusion_lat": 0.0, "type": "electric_scooter", "name": "27409955d4daf7216520d2af55afa244", "is_disabled": 0, "rental_uris": {"ios": "https://dc.lft.to/lastmile_qr_scan", "android": "https://dc.lft.to/lastmile_qr_scan"}, "is_reserved": 0}, {"lon": -77.00100583333334, "bike_id": "62ac505a8a1a1aed9dfd02df7e17c62f", "lat": 38.900210333333334, "fusion_lon": 0.0, "fusion_lat": 0.0, "type": "electric_scooter", "name": "62ac505a8a1a1aed9dfd02df7e17c62f", "is_disabled": 0, "rental_uris": {"ios": "https://dc.lft.to/lastmile_qr_scan", "android": "https://dc.lft.to/lastmile_qr_scan"}, "is_reserved": 0}, {"lon": -77.02596966666667, "bike_id": "775856bcbfbf4278549212beb3426ce3", "lat": 38.9001395, "fusion_lon": 0.0, "fusion_lat": 0.0, "type": "electric_scooter", "name": "775856bcbfbf4278549212beb3426ce3", "is_disabled": 0, "rental_uris": {"ios": "https://dc.lft.to/lastmile_qr_scan", "android": "https://dc.lft.to/lastmile_qr_scan"}, "is_reserved": 0}, {"lon": -76.995152, "bike_id": "28ab6ddc6ba41fd9a5bc8deaf44187b8", "lat": 38.922588833333336, "fusion_lon": 0.0, "fusion_lat": 0.0, "type": "electric_scooter", "name": "28ab6ddc6ba41fd9a5bc8deaf44187b8", "is_disabled": 0, "rental_uris": {"ios": "https://dc.lft.to/lastmile_qr_scan", "android": "https://dc.lft.to/lastmile_qr_scan"}, "is_reserved": 0}, {"lon": -77.00749, "bike_id": "a0366b55098bad985baa44e65508d906", "lat": 38.897334, "fusion_lon": 0.0, "fusion_lat": 0.0, "type": "electric_scooter", "name": "a0366b55098bad985baa44e65508d906", "is_disabled": 0, "rental_uris": {"ios": "https://dc.lft.to/lastmile_qr_scan", "android": "https://dc.lft.to/lastmile_qr_scan"}, "is_reserved": 0}, {"lon": -77.06477033333333, "bike_id": "b00ad852452a6d9d3e1a2036e13fd96b", "lat": 38.9464, "fusion_lon": 0.0, "fusion_lat": 0.0, "type": "electric_scooter", "name": "b00ad852452a6d9d3e1a2036e13fd96b", "is_disabled": 0, "rental_uris": {"ios": "https://dc.lft.to/lastmile_qr_scan", "android": "https://dc.lft.to/lastmile_qr_scan"}, "is_reserved": 0}, {"lon": -77.02826366666666, "bike_id": "8d9c0e7961f964a3073ef5309550dc21", "lat": 38.887358, "fusion_lon": 0.0, "fusion_lat": 0.0, "type": "electric_scooter", "name": "8d9c0e7961f964a3073ef5309550dc21", "is_disabled": 0, "rental_uris": {"ios": "https://dc.lft.to/lastmile_qr_scan", "android": "https://dc.lft.to/lastmile_qr_scan"}, "is_reserved": 0}, {"lon": -76.98687266666667, "bike_id": "ae1408dc0eeb7967c9bab38bad8edfdd", "lat": 38.8625045, "fusion_lon": 0.0, "fusion_lat": 0.0, "type": "electric_scooter", "name": "ae1408dc0eeb7967c9bab38bad8edfdd", "is_disabled": 0, "rental_uris": {"ios": "https://dc.lft.to/lastmile_qr_scan", "android": "https://dc.lft.to/lastmile_qr_scan"}, "is_reserved": 0}, {"lon": -76.97603, "bike_id": "a256adc70cfa9494fa24e06108a8a56a", "lat": 38.90566333333334, "fusion_lon": 0.0, "fusion_lat": 0.0, "type": "electric_scooter", "name": "a256adc70cfa9494fa24e06108a8a56a", "is_disabled": 0, "rental_uris": {"ios": "https://dc.lft.to/lastmile_qr_scan", "android": "https://dc.lft.to/lastmile_qr_scan"}, "is_reserved": 0}, {"lon": -77.0246655, "bike_id": "e175ad31bc53534a8ac06217dd1a370b", "lat": 38.9387965, "fusion_lon": 0.0, "fusion_lat": 0.0, "type": "electric_scooter", "name": "e175ad31bc53534a8ac06217dd1a370b", "is_disabled": 0, "rental_uris": {"ios": "https://dc.lft.to/lastmile_qr_scan", "android": "https://dc.lft.to/lastmile_qr_scan"}, "is_reserved": 0}, {"lon": -77.03448916666666, "bike_id": "62489905268ed71053ebc29216c05955", "lat": 38.917309833333334, "fusion_lon": 0.0, "fusion_lat": 0.0, "type": "electric_scooter", "name": "62489905268ed71053ebc29216c05955", "is_disabled": 0, "rental_uris": {"ios": "https://dc.lft.to/lastmile_qr_scan", "android": "https://dc.lft.to/lastmile_qr_scan"}, "is_reserved": 0}, {"lon": -77.00210466666667, "bike_id": "a9ff315d4e0c361f5f2d9d7987a17006", "lat": 38.89541466666667, "fusion_lon": 0.0, "fusion_lat": 0.0, "type": "electric_scooter", "name": "a9ff315d4e0c361f5f2d9d7987a17006", "is_disabled": 0, "rental_uris": {"ios": "https://dc.lft.to/lastmile_qr_scan", "android": "https://dc.lft.to/lastmile_qr_scan"}, "is_reserved": 0}, {"lon": -77.005249, "bike_id": "cd82141c59d345df3368a8c325968e55", "lat": 38.92974866666667, "fusion_lon": 0.0, "fusion_lat": 0.0, "type": "electric_scooter", "name": "cd82141c59d345df3368a8c325968e55", "is_disabled": 0, "rental_uris": {"ios": "https://dc.lft.to/lastmile_qr_scan", "android": "https://dc.lft.to/lastmile_qr_scan"}, "is_reserved": 0}, {"lon": -77.02187516666666, "bike_id": "466b55cc4cd8236c1dd3773e104bcdb8", "lat": 38.91289, "fusion_lon": 0.0, "fusion_lat": 0.0, "type": "electric_scooter", "name": "466b55cc4cd8236c1dd3773e104bcdb8", "is_disabled": 0, "rental_uris": {"ios": "https://dc.lft.to/lastmile_qr_scan", "android": "https://dc.lft.to/lastmile_qr_scan"}, "is_reserved": 0}, {"lon": -77.04654583333334, "bike_id": "72fa6d81d64bcd6f0b965a577294e66b", "lat": 38.909711333333334, "fusion_lon": 0.0, "fusion_lat": 0.0, "type": "electric_scooter", "name": "72fa6d81d64bcd6f0b965a577294e66b", "is_disabled": 0, "rental_uris": {"ios": "https://dc.lft.to/lastmile_qr_scan", "android": "https://dc.lft.to/lastmile_qr_scan"}, "is_reserved": 0}, {"lon": -76.9373215, "bike_id": "d52dd6e869b097ef3217335a0bdb8327", "lat": 38.890016333333335, "fusion_lon": 0.0, "fusion_lat": 0.0, "type": "electric_scooter", "name": "d52dd6e869b097ef3217335a0bdb8327", "is_disabled": 0, "rental_uris": {"ios": "https://dc.lft.to/lastmile_qr_scan", "android": "https://dc.lft.to/lastmile_qr_scan"}, "is_reserved": 0}, {"lon": -77.02403866666667, "bike_id": "50dbc8cb853c0cc2da6228d14ffab310", "lat": 38.909484666666664, "fusion_lon": 0.0, "fusion_lat": 0.0, "type": "electric_scooter", "name": "50dbc8cb853c0cc2da6228d14ffab310", "is_disabled": 0, "rental_uris": {"ios": "https://dc.lft.to/lastmile_qr_scan", "android": "https://dc.lft.to/lastmile_qr_scan"}, "is_reserved": 0}, {"lon": -77.02685633333333, "bike_id": "18ec40f266987cc4a4b9790312644a7c", "lat": 38.902332333333334, "fusion_lon": 0.0, "fusion_lat": 0.0, "type": "electric_scooter", "name": "18ec40f266987cc4a4b9790312644a7c", "is_disabled": 0, "rental_uris": {"ios": "https://dc.lft.to/lastmile_qr_scan", "android": "https://dc.lft.to/lastmile_qr_scan"}, "is_reserved": 0}, {"lon": -77.01998516666667, "bike_id": "019cf95e397b86fae056c7fa8b355d7d", "lat": 38.87593416666667, "fusion_lon": 0.0, "fusion_lat": 0.0, "type": "electric_scooter", "name": "019cf95e397b86fae056c7fa8b355d7d", "is_disabled": 0, "rental_uris": {"ios": "https://dc.lft.to/lastmile_qr_scan", "android": "https://dc.lft.to/lastmile_qr_scan"}, "is_reserved": 0}, {"lon": -77.03473583333333, "bike_id": "68ebcf5754fc84d68bdd8cfd7cc0b68a", "lat": 38.884887166666665, "fusion_lon": 0.0, "fusion_lat": 0.0, "type": "electric_scooter", "name": "68ebcf5754fc84d68bdd8cfd7cc0b68a", "is_disabled": 0, "rental_uris": {"ios": "https://dc.lft.to/lastmile_qr_scan", "android": "https://dc.lft.to/lastmile_qr_scan"}, "is_reserved": 0}, {"lon": -77.041589, "bike_id": "c21d8c8b7031aaed6981656bcef3899e", "lat": 38.90291116666667, "fusion_lon": 0.0, "fusion_lat": 0.0, "type": "electric_scooter", "name": "c21d8c8b7031aaed6981656bcef3899e", "is_disabled": 0, "rental_uris": {"ios": "https://dc.lft.to/lastmile_qr_scan", "android": "https://dc.lft.to/lastmile_qr_scan"}, "is_reserved": 0}, {"lon": -76.97683433333333, "bike_id": "7c07a4660fd8bc3512f0aef6c537ee0b", "lat": 38.89617916666667, "fusion_lon": 0.0, "fusion_lat": 0.0, "type": "electric_scooter", "name": "7c07a4660fd8bc3512f0aef6c537ee0b", "is_disabled": 0, "rental_uris": {"ios": "https://dc.lft.to/lastmile_qr_scan", "android": "https://dc.lft.to/lastmile_qr_scan"}, "is_reserved": 0}, {"lon": -77.03344816666667, "bike_id": "de4f81bd5b04896c1a32f799b3450696", "lat": 38.902843, "fusion_lon": 0.0, "fusion_lat": 0.0, "type": "electric_scooter", "name": "de4f81bd5b04896c1a32f799b3450696", "is_disabled": 0, "rental_uris": {"ios": "https://dc.lft.to/lastmile_qr_scan", "android": "https://dc.lft.to/lastmile_qr_scan"}, "is_reserved": 0}, {"lon": -76.98742933333334, "bike_id": "3c13920aacf66d38ac989d11aca51fa2", "lat": 38.886107833333334, "fusion_lon": 0.0, "fusion_lat": 0.0, "type": "electric_scooter", "name": "3c13920aacf66d38ac989d11aca51fa2", "is_disabled": 0, "rental_uris": {"ios": "https://dc.lft.to/lastmile_qr_scan", "android": "https://dc.lft.to/lastmile_qr_scan"}, "is_reserved": 0}, {"lon": -77.0217255, "bike_id": "76dff7b65a0782635650c2f95685319c", "lat": 38.94290916666667, "fusion_lon": 0.0, "fusion_lat": 0.0, "type": "electric_scooter", "name": "76dff7b65a0782635650c2f95685319c", "is_disabled": 0, "rental_uris": {"ios": "https://dc.lft.to/lastmile_qr_scan", "android": "https://dc.lft.to/lastmile_qr_scan"}, "is_reserved": 0}, {"lon": -77.02984016666667, "bike_id": "487a57d0013613f07a0546a6bd419f99", "lat": 38.93063983333333, "fusion_lon": 0.0, "fusion_lat": 0.0, "type": "electric_scooter", "name": "487a57d0013613f07a0546a6bd419f99", "is_disabled": 0, "rental_uris": {"ios": "https://dc.lft.to/lastmile_qr_scan", "android": "https://dc.lft.to/lastmile_qr_scan"}, "is_reserved": 0}, {"lon": -77.0265745, "bike_id": "4561d47051e364834d7e02feaaf89fe5", "lat": 38.929778666666664, "fusion_lon": 0.0, "fusion_lat": 0.0, "type": "electric_scooter", "name": "4561d47051e364834d7e02feaaf89fe5", "is_disabled": 0, "rental_uris": {"ios": "https://dc.lft.to/lastmile_qr_scan", "android": "https://dc.lft.to/lastmile_qr_scan"}, "is_reserved": 0}, {"lon": -77.0299005, "bike_id": "ccb8b6d86efd48663a773153713758bb", "lat": 38.9073805, "fusion_lon": 0.0, "fusion_lat": 0.0, "type": "electric_scooter", "name": "ccb8b6d86efd48663a773153713758bb", "is_disabled": 0, "rental_uris": {"ios": "https://dc.lft.to/lastmile_qr_scan", "android": "https://dc.lft.to/lastmile_qr_scan"}, "is_reserved": 0}, {"lon": -77.00025566666666, "bike_id": "88d0e322bf1d405e24583f64c1dff1a0", "lat": 38.9680195, "fusion_lon": 0.0, "fusion_lat": 0.0, "type": "electric_bike", "name": "88d0e322bf1d405e24583f64c1dff1a0", "is_disabled": 0, "rental_uris": {"ios": "https://dc.lft.to/lastmile_qr_scan", "android": "https://dc.lft.to/lastmile_qr_scan"}, "is_reserved": 0}, {"lon": -77.054128, "bike_id": "c5fa2f1f17a1f611ed37297aafa43c75", "lat": 38.90151783333334, "fusion_lon": 0.0, "fusion_lat": 0.0, "type": "electric_scooter", "name": "c5fa2f1f17a1f611ed37297aafa43c75", "is_disabled": 0, "rental_uris": {"ios": "https://dc.lft.to/lastmile_qr_scan", "android": "https://dc.lft.to/lastmile_qr_scan"}, "is_reserved": 0}, {"lon": -76.98883833333333, "bike_id": "fda0df2ae8d76c579319417c16d85332", "lat": 38.8665435, "fusion_lon": 0.0, "fusion_lat": 0.0, "type": "electric_scooter", "name": "fda0df2ae8d76c579319417c16d85332", "is_disabled": 0, "rental_uris": {"ios": "https://dc.lft.to/lastmile_qr_scan", "android": "https://dc.lft.to/lastmile_qr_scan"}, "is_reserved": 0}, {"lon": -77.020799, "bike_id": "9b7dd280f6512efb3b4729588af51708", "lat": 38.93632483333333, "fusion_lon": 0.0, "fusion_lat": 0.0, "type": "electric_scooter", "name": "9b7dd280f6512efb3b4729588af51708", "is_disabled": 0, "rental_uris": {"ios": "https://dc.lft.to/lastmile_qr_scan", "android": "https://dc.lft.to/lastmile_qr_scan"}, "is_reserved": 0}, {"lon": -77.038252, "bike_id": "f6523ae529b73ef6c97dd636e9fa50a2", "lat": 38.916911999999996, "fusion_lon": 0.0, "fusion_lat": 0.0, "type": "electric_scooter", "name": "f6523ae529b73ef6c97dd636e9fa50a2", "is_disabled": 0, "rental_uris": {"ios": "https://dc.lft.to/lastmile_qr_scan", "android": "https://dc.lft.to/lastmile_qr_scan"}, "is_reserved": 0}, {"lon": -77.04504383333334, "bike_id": "ce643e97eed30d97572f2444e91b8d50", "lat": 38.90507366666667, "fusion_lon": 0.0, "fusion_lat": 0.0, "type": "electric_scooter", "name": "ce643e97eed30d97572f2444e91b8d50", "is_disabled": 0, "rental_uris": {"ios": "https://dc.lft.to/lastmile_qr_scan", "android": "https://dc.lft.to/lastmile_qr_scan"}, "is_reserved": 0}, {"lon": -77.02309883333334, "bike_id": "eacdbb9d4f6b950f76abfff717441e13", "lat": 38.927274833333335, "fusion_lon": 0.0, "fusion_lat": 0.0, "type": "electric_scooter", "name": "eacdbb9d4f6b950f76abfff717441e13", "is_disabled": 0, "rental_uris": {"ios": "https://dc.lft.to/lastmile_qr_scan", "android": "https://dc.lft.to/lastmile_qr_scan"}, "is_reserved": 0}, {"lon": -76.946841, "bike_id": "aae0539870dc7385157fd65fb4669483", "lat": 38.886289166666664, "fusion_lon": 0.0, "fusion_lat": 0.0, "type": "electric_scooter", "name": "aae0539870dc7385157fd65fb4669483", "is_disabled": 0, "rental_uris": {"ios": "https://dc.lft.to/lastmile_qr_scan", "android": "https://dc.lft.to/lastmile_qr_scan"}, "is_reserved": 0}, {"lon": -77.05756466666666, "bike_id": "a9c2f588113e28e5733e37d9b7fdceeb", "lat": 38.924947333333336, "fusion_lon": 0.0, "fusion_lat": 0.0, "type": "electric_bike", "name": "a9c2f588113e28e5733e37d9b7fdceeb", "is_disabled": 0, "rental_uris": {"ios": "https://dc.lft.to/lastmile_qr_scan", "android": "https://dc.lft.to/lastmile_qr_scan"}, "is_reserved": 0}, {"lon": -77.0283755, "bike_id": "483b5c1e971d8c501e2ca5535538a7f8", "lat": 38.88769383333333, "fusion_lon": 0.0, "fusion_lat": 0.0, "type": "electric_scooter", "name": "483b5c1e971d8c501e2ca5535538a7f8", "is_disabled": 0, "rental_uris": {"ios": "https://dc.lft.to/lastmile_qr_scan", "android": "https://dc.lft.to/lastmile_qr_scan"}, "is_reserved": 0}, {"lon": -77.10840316666666, "bike_id": "931ab6ab50cfdd8730f38a312cee2535", "lat": 38.812004333333334, "fusion_lon": 0.0, "fusion_lat": 0.0, "type": "electric_bike", "name": "931ab6ab50cfdd8730f38a312cee2535", "is_disabled": 0, "rental_uris": {"ios": "https://dc.lft.to/lastmile_qr_scan", "android": "https://dc.lft.to/lastmile_qr_scan"}, "is_reserved": 0}, {"lon": -77.0000675, "bike_id": "69387aef2a6617c4a9b41b90074b4894", "lat": 38.89741716666666, "fusion_lon": 0.0, "fusion_lat": 0.0, "type": "electric_scooter", "name": "69387aef2a6617c4a9b41b90074b4894", "is_disabled": 0, "rental_uris": {"ios": "https://dc.lft.to/lastmile_qr_scan", "android": "https://dc.lft.to/lastmile_qr_scan"}, "is_reserved": 0}, {"lon": -77.04128783333333, "bike_id": "ab1c4023b1d0dcd1ccd43b4f2f3dd649", "lat": 38.915527, "fusion_lon": 0.0, "fusion_lat": 0.0, "type": "electric_scooter", "name": "ab1c4023b1d0dcd1ccd43b4f2f3dd649", "is_disabled": 0, "rental_uris": {"ios": "https://dc.lft.to/lastmile_qr_scan", "android": "https://dc.lft.to/lastmile_qr_scan"}, "is_reserved": 0}, {"lon": -76.96499116666666, "bike_id": "c18ee45847d3b15e0ce90238bfccc56b", "lat": 38.876468333333335, "fusion_lon": 0.0, "fusion_lat": 0.0, "type": "electric_scooter", "name": "c18ee45847d3b15e0ce90238bfccc56b", "is_disabled": 0, "rental_uris": {"ios": "https://dc.lft.to/lastmile_qr_scan", "android": "https://dc.lft.to/lastmile_qr_scan"}, "is_reserved": 0}, {"lon": -77.02804266666666, "bike_id": "c1d1dea887b97f1949c2430bc7876409", "lat": 38.907362, "fusion_lon": 0.0, "fusion_lat": 0.0, "type": "electric_scooter", "name": "c1d1dea887b97f1949c2430bc7876409", "is_disabled": 0, "rental_uris": {"ios": "https://dc.lft.to/lastmile_qr_scan", "android": "https://dc.lft.to/lastmile_qr_scan"}, "is_reserved": 0}, {"lon": -76.99756716666667, "bike_id": "716a191419e55353df7adcbdf36207ed", "lat": 38.88770133333333, "fusion_lon": 0.0, "fusion_lat": 0.0, "type": "electric_scooter", "name": "716a191419e55353df7adcbdf36207ed", "is_disabled": 0, "rental_uris": {"ios": "https://dc.lft.to/lastmile_qr_scan", "android": "https://dc.lft.to/lastmile_qr_scan"}, "is_reserved": 0}, {"lon": -76.94198383333334, "bike_id": "dfad360fc5270768355497d8d8f825a0", "lat": 38.89373716666667, "fusion_lon": 0.0, "fusion_lat": 0.0, "type": "electric_scooter", "name": "dfad360fc5270768355497d8d8f825a0", "is_disabled": 0, "rental_uris": {"ios": "https://dc.lft.to/lastmile_qr_scan", "android": "https://dc.lft.to/lastmile_qr_scan"}, "is_reserved": 0}, {"lon": -77.015294, "bike_id": "6f82f05a25059fcde7df313f21f75ab5", "lat": 38.88497566666667, "fusion_lon": 0.0, "fusion_lat": 0.0, "type": "electric_scooter", "name": "6f82f05a25059fcde7df313f21f75ab5", "is_disabled": 0, "rental_uris": {"ios": "https://dc.lft.to/lastmile_qr_scan", "android": "https://dc.lft.to/lastmile_qr_scan"}, "is_reserved": 0}, {"lon": -77.03422516666667, "bike_id": "5578fed016132c9327b5380917deb3ec", "lat": 38.9273825, "fusion_lon": 0.0, "fusion_lat": 0.0, "type": "electric_scooter", "name": "5578fed016132c9327b5380917deb3ec", "is_disabled": 0, "rental_uris": {"ios": "https://dc.lft.to/lastmile_qr_scan", "android": "https://dc.lft.to/lastmile_qr_scan"}, "is_reserved": 0}, {"lon": -76.98840366666667, "bike_id": "cde67f486f8b19d6db74927230b039d8", "lat": 38.8966965, "fusion_lon": 0.0, "fusion_lat": 0.0, "type": "electric_scooter", "name": "cde67f486f8b19d6db74927230b039d8", "is_disabled": 0, "rental_uris": {"ios": "https://dc.lft.to/lastmile_qr_scan", "android": "https://dc.lft.to/lastmile_qr_scan"}, "is_reserved": 0}, {"lon": -77.0200365, "bike_id": "3343ad567f2912502fd69ab92677d680", "lat": 38.895318333333336, "fusion_lon": 0.0, "fusion_lat": 0.0, "type": "electric_scooter", "name": "3343ad567f2912502fd69ab92677d680", "is_disabled": 0, "rental_uris": {"ios": "https://dc.lft.to/lastmile_qr_scan", "android": "https://dc.lft.to/lastmile_qr_scan"}, "is_reserved": 0}, {"lon": -76.98510366666666, "bike_id": "b0fc9acc00fed876420b922a2dfdcd7d", "lat": 38.90345533333333, "fusion_lon": 0.0, "fusion_lat": 0.0, "type": "electric_scooter", "name": "b0fc9acc00fed876420b922a2dfdcd7d", "is_disabled": 0, "rental_uris": {"ios": "https://dc.lft.to/lastmile_qr_scan", "android": "https://dc.lft.to/lastmile_qr_scan"}, "is_reserved": 0}, {"lon": -77.0245845, "bike_id": "f520187f530364080ee172a47664a7d3", "lat": 38.93709833333333, "fusion_lon": 0.0, "fusion_lat": 0.0, "type": "electric_scooter", "name": "f520187f530364080ee172a47664a7d3", "is_disabled": 0, "rental_uris": {"ios": "https://dc.lft.to/lastmile_qr_scan", "android": "https://dc.lft.to/lastmile_qr_scan"}, "is_reserved": 0}, {"lon": -77.02091133333333, "bike_id": "28a93bf1346072e5ef4feb7ba5fe22a9", "lat": 38.88181516666667, "fusion_lon": 0.0, "fusion_lat": 0.0, "type": "electric_scooter", "name": "28a93bf1346072e5ef4feb7ba5fe22a9", "is_disabled": 0, "rental_uris": {"ios": "https://dc.lft.to/lastmile_qr_scan", "android": "https://dc.lft.to/lastmile_qr_scan"}, "is_reserved": 0}, {"lon": -77.024841, "bike_id": "615dae1b1e9dfa093cc3fb6a30496127", "lat": 38.88012616666666, "fusion_lon": 0.0, "fusion_lat": 0.0, "type": "electric_scooter", "name": "615dae1b1e9dfa093cc3fb6a30496127", "is_disabled": 0, "rental_uris": {"ios": "https://dc.lft.to/lastmile_qr_scan", "android": "https://dc.lft.to/lastmile_qr_scan"}, "is_reserved": 0}, {"lon": -77.0404225, "bike_id": "35915d50aa686253fd014c69352a90a2", "lat": 38.91266, "fusion_lon": 0.0, "fusion_lat": 0.0, "type": "electric_scooter", "name": "35915d50aa686253fd014c69352a90a2", "is_disabled": 0, "rental_uris": {"ios": "https://dc.lft.to/lastmile_qr_scan", "android": "https://dc.lft.to/lastmile_qr_scan"}, "is_reserved": 0}, {"lon": -76.94586733333334, "bike_id": "c95d6e4ed6ffdb62427230c9c15e2de6", "lat": 38.937413, "fusion_lon": 0.0, "fusion_lat": 0.0, "type": "electric_bike", "name": "c95d6e4ed6ffdb62427230c9c15e2de6", "is_disabled": 0, "rental_uris": {"ios": "https://dc.lft.to/lastmile_qr_scan", "android": "https://dc.lft.to/lastmile_qr_scan"}, "is_reserved": 0}, {"lon": -77.034677, "bike_id": "4bae189e62dd43542e94479ad605bd0e", "lat": 38.916677166666666, "fusion_lon": 0.0, "fusion_lat": 0.0, "type": "electric_scooter", "name": "4bae189e62dd43542e94479ad605bd0e", "is_disabled": 0, "rental_uris": {"ios": "https://dc.lft.to/lastmile_qr_scan", "android": "https://dc.lft.to/lastmile_qr_scan"}, "is_reserved": 0}, {"lon": -77.02320916666666, "bike_id": "277e6949559717e7cd4e557ae8dd5a08", "lat": 38.95524116666667, "fusion_lon": 0.0, "fusion_lat": 0.0, "type": "electric_scooter", "name": "277e6949559717e7cd4e557ae8dd5a08", "is_disabled": 0, "rental_uris": {"ios": "https://dc.lft.to/lastmile_qr_scan", "android": "https://dc.lft.to/lastmile_qr_scan"}, "is_reserved": 0}, {"lon": -77.04328733333334, "bike_id": "19aebe85fdf0bc5f165fe09ca0b1342c", "lat": 38.91880833333333, "fusion_lon": 0.0, "fusion_lat": 0.0, "type": "electric_scooter", "name": "19aebe85fdf0bc5f165fe09ca0b1342c", "is_disabled": 0, "rental_uris": {"ios": "https://dc.lft.to/lastmile_qr_scan", "android": "https://dc.lft.to/lastmile_qr_scan"}, "is_reserved": 0}, {"lon": -77.0388155, "bike_id": "b0c93519e9044f9205df454cc4b88c4f", "lat": 38.907234333333335, "fusion_lon": 0.0, "fusion_lat": 0.0, "type": "electric_scooter", "name": "b0c93519e9044f9205df454cc4b88c4f", "is_disabled": 0, "rental_uris": {"ios": "https://dc.lft.to/lastmile_qr_scan", "android": "https://dc.lft.to/lastmile_qr_scan"}, "is_reserved": 0}, {"lon": -77.02376733333334, "bike_id": "97fb7738752ac61eff621f158c0c117b", "lat": 38.90631583333333, "fusion_lon": 0.0, "fusion_lat": 0.0, "type": "electric_scooter", "name": "97fb7738752ac61eff621f158c0c117b", "is_disabled": 0, "rental_uris": {"ios": "https://dc.lft.to/lastmile_qr_scan", "android": "https://dc.lft.to/lastmile_qr_scan"}, "is_reserved": 0}, {"lon": -77.010732, "bike_id": "ac345f2a7142bd7510e227ee65b7210a", "lat": 38.866674, "fusion_lon": 0.0, "fusion_lat": 0.0, "type": "electric_scooter", "name": "ac345f2a7142bd7510e227ee65b7210a", "is_disabled": 0, "rental_uris": {"ios": "https://dc.lft.to/lastmile_qr_scan", "android": "https://dc.lft.to/lastmile_qr_scan"}, "is_reserved": 0}, {"lon": -77.025774, "bike_id": "ab3264cc63ac5115f67f760254d50f15", "lat": 38.91406683333334, "fusion_lon": 0.0, "fusion_lat": 0.0, "type": "electric_scooter", "name": "ab3264cc63ac5115f67f760254d50f15", "is_disabled": 0, "rental_uris": {"ios": "https://dc.lft.to/lastmile_qr_scan", "android": "https://dc.lft.to/lastmile_qr_scan"}, "is_reserved": 0}, {"lon": -77.03979983333333, "bike_id": "dd74a65cb2d3b5ea2ff5ab808d284fa7", "lat": 38.920796333333335, "fusion_lon": 0.0, "fusion_lat": 0.0, "type": "electric_scooter", "name": "dd74a65cb2d3b5ea2ff5ab808d284fa7", "is_disabled": 0, "rental_uris": {"ios": "https://dc.lft.to/lastmile_qr_scan", "android": "https://dc.lft.to/lastmile_qr_scan"}, "is_reserved": 0}, {"lon": -77.02637466666667, "bike_id": "50c1a013249b8ee1a857dd91ab6b00af", "lat": 38.90425666666667, "fusion_lon": 0.0, "fusion_lat": 0.0, "type": "electric_scooter", "name": "50c1a013249b8ee1a857dd91ab6b00af", "is_disabled": 0, "rental_uris": {"ios": "https://dc.lft.to/lastmile_qr_scan", "android": "https://dc.lft.to/lastmile_qr_scan"}, "is_reserved": 0}, {"lon": -77.00314866666666, "bike_id": "8ad086d77899063b30a44a71f278a75e", "lat": 38.8949425, "fusion_lon": 0.0, "fusion_lat": 0.0, "type": "electric_scooter", "name": "8ad086d77899063b30a44a71f278a75e", "is_disabled": 0, "rental_uris": {"ios": "https://dc.lft.to/lastmile_qr_scan", "android": "https://dc.lft.to/lastmile_qr_scan"}, "is_reserved": 0}, {"lon": -77.011126, "bike_id": "a533ce28cd7647bac93ce831fc06c9ac", "lat": 38.903500666666666, "fusion_lon": 0.0, "fusion_lat": 0.0, "type": "electric_scooter", "name": "a533ce28cd7647bac93ce831fc06c9ac", "is_disabled": 0, "rental_uris": {"ios": "https://dc.lft.to/lastmile_qr_scan", "android": "https://dc.lft.to/lastmile_qr_scan"}, "is_reserved": 0}, {"lon": -77.03888166666667, "bike_id": "0dfaa9da872489af871dd7cd88c3be66", "lat": 38.925258, "fusion_lon": 0.0, "fusion_lat": 0.0, "type": "electric_scooter", "name": "0dfaa9da872489af871dd7cd88c3be66", "is_disabled": 0, "rental_uris": {"ios": "https://dc.lft.to/lastmile_qr_scan", "android": "https://dc.lft.to/lastmile_qr_scan"}, "is_reserved": 0}, {"lon": -77.08492083333333, "bike_id": "4adf000d36a4833203ce28d58994896e", "lat": 38.95936916666667, "fusion_lon": 0.0, "fusion_lat": 0.0, "type": "electric_scooter", "name": "4adf000d36a4833203ce28d58994896e", "is_disabled": 0, "rental_uris": {"ios": "https://dc.lft.to/lastmile_qr_scan", "android": "https://dc.lft.to/lastmile_qr_scan"}, "is_reserved": 0}, {"lon": -77.020105, "bike_id": "8a4fd74be52f8f3ed3868ce264d838aa", "lat": 38.924171, "fusion_lon": 0.0, "fusion_lat": 0.0, "type": "electric_scooter", "name": "8a4fd74be52f8f3ed3868ce264d838aa", "is_disabled": 0, "rental_uris": {"ios": "https://dc.lft.to/lastmile_qr_scan", "android": "https://dc.lft.to/lastmile_qr_scan"}, "is_reserved": 0}, {"lon": -77.02501433333333, "bike_id": "69137b2679e80313c5165095e8e60939", "lat": 38.90734466666667, "fusion_lon": 0.0, "fusion_lat": 0.0, "type": "electric_scooter", "name": "69137b2679e80313c5165095e8e60939", "is_disabled": 0, "rental_uris": {"ios": "https://dc.lft.to/lastmile_qr_scan", "android": "https://dc.lft.to/lastmile_qr_scan"}, "is_reserved": 0}, {"lon": -77.01818466666667, "bike_id": "c21aee0f49636a548b72b089caeaae20", "lat": 38.923671166666665, "fusion_lon": 0.0, "fusion_lat": 0.0, "type": "electric_scooter", "name": "c21aee0f49636a548b72b089caeaae20", "is_disabled": 0, "rental_uris": {"ios": "https://dc.lft.to/lastmile_qr_scan", "android": "https://dc.lft.to/lastmile_qr_scan"}, "is_reserved": 0}, {"lon": -77.04147483333334, "bike_id": "b23ecd5a20c0f7094ea4d6fed6dbb91b", "lat": 38.90619566666667, "fusion_lon": 0.0, "fusion_lat": 0.0, "type": "electric_scooter", "name": "b23ecd5a20c0f7094ea4d6fed6dbb91b", "is_disabled": 0, "rental_uris": {"ios": "https://dc.lft.to/lastmile_qr_scan", "android": "https://dc.lft.to/lastmile_qr_scan"}, "is_reserved": 0}, {"lon": -77.03042833333333, "bike_id": "667586466f99ddabba71e5a3e0fa6eb0", "lat": 38.87835666666667, "fusion_lon": 0.0, "fusion_lat": 0.0, "type": "electric_scooter", "name": "667586466f99ddabba71e5a3e0fa6eb0", "is_disabled": 0, "rental_uris": {"ios": "https://dc.lft.to/lastmile_qr_scan", "android": "https://dc.lft.to/lastmile_qr_scan"}, "is_reserved": 0}, {"lon": -77.050973, "bike_id": "156653a42302f376e170f2c9fae83a10", "lat": 38.92307916666667, "fusion_lon": 0.0, "fusion_lat": 0.0, "type": "electric_scooter", "name": "156653a42302f376e170f2c9fae83a10", "is_disabled": 0, "rental_uris": {"ios": "https://dc.lft.to/lastmile_qr_scan", "android": "https://dc.lft.to/lastmile_qr_scan"}, "is_reserved": 0}, {"lon": -77.005527, "bike_id": "ed04aa3f4efddb9679c53b907e1b0943", "lat": 38.88754633333333, "fusion_lon": 0.0, "fusion_lat": 0.0, "type": "electric_scooter", "name": "ed04aa3f4efddb9679c53b907e1b0943", "is_disabled": 0, "rental_uris": {"ios": "https://dc.lft.to/lastmile_qr_scan", "android": "https://dc.lft.to/lastmile_qr_scan"}, "is_reserved": 0}, {"lon": -77.01312833333333, "bike_id": "aac32f0f3735e2d5bc061c258033515e", "lat": 38.90735133333333, "fusion_lon": 0.0, "fusion_lat": 0.0, "type": "electric_scooter", "name": "aac32f0f3735e2d5bc061c258033515e", "is_disabled": 0, "rental_uris": {"ios": "https://dc.lft.to/lastmile_qr_scan", "android": "https://dc.lft.to/lastmile_qr_scan"}, "is_reserved": 0}, {"lon": -77.00069, "bike_id": "c2ff579767c0d728ece38f16dc716238", "lat": 38.92433966666667, "fusion_lon": 0.0, "fusion_lat": 0.0, "type": "electric_scooter", "name": "c2ff579767c0d728ece38f16dc716238", "is_disabled": 0, "rental_uris": {"ios": "https://dc.lft.to/lastmile_qr_scan", "android": "https://dc.lft.to/lastmile_qr_scan"}, "is_reserved": 0}, {"lon": -77.052077, "bike_id": "d02974ebeac3ccc2175200131874f105", "lat": 38.90007333333333, "fusion_lon": 0.0, "fusion_lat": 0.0, "type": "electric_scooter", "name": "d02974ebeac3ccc2175200131874f105", "is_disabled": 0, "rental_uris": {"ios": "https://dc.lft.to/lastmile_qr_scan", "android": "https://dc.lft.to/lastmile_qr_scan"}, "is_reserved": 0}, {"lon": -77.0240585, "bike_id": "d02b07be0d7bc7a2fc680c16679a61be", "lat": 38.91758883333333, "fusion_lon": 0.0, "fusion_lat": 0.0, "type": "electric_scooter", "name": "d02b07be0d7bc7a2fc680c16679a61be", "is_disabled": 0, "rental_uris": {"ios": "https://dc.lft.to/lastmile_qr_scan", "android": "https://dc.lft.to/lastmile_qr_scan"}, "is_reserved": 0}, {"lon": -76.97617533333333, "bike_id": "6d8d46a11e3efe2ca97cc6b447394f00", "lat": 38.903822166666664, "fusion_lon": 0.0, "fusion_lat": 0.0, "type": "electric_scooter", "name": "6d8d46a11e3efe2ca97cc6b447394f00", "is_disabled": 0, "rental_uris": {"ios": "https://dc.lft.to/lastmile_qr_scan", "android": "https://dc.lft.to/lastmile_qr_scan"}, "is_reserved": 0}, {"lon": -76.93610416666667, "bike_id": "5b860c457edc46d28c061f0d43d1551a", "lat": 38.8968305, "fusion_lon": 0.0, "fusion_lat": 0.0, "type": "electric_scooter", "name": "5b860c457edc46d28c061f0d43d1551a", "is_disabled": 0, "rental_uris": {"ios": "https://dc.lft.to/lastmile_qr_scan", "android": "https://dc.lft.to/lastmile_qr_scan"}, "is_reserved": 0}, {"lon": -77.02921483333333, "bike_id": "3cbc4007e964c1db111c34ae72a845bc", "lat": 38.903982166666665, "fusion_lon": 0.0, "fusion_lat": 0.0, "type": "electric_scooter", "name": "3cbc4007e964c1db111c34ae72a845bc", "is_disabled": 0, "rental_uris": {"ios": "https://dc.lft.to/lastmile_qr_scan", "android": "https://dc.lft.to/lastmile_qr_scan"}, "is_reserved": 0}, {"lon": -76.99929066666667, "bike_id": "78c0ade153227f85525c806f588d8e51", "lat": 38.909085833333336, "fusion_lon": 0.0, "fusion_lat": 0.0, "type": "electric_scooter", "name": "78c0ade153227f85525c806f588d8e51", "is_disabled": 0, "rental_uris": {"ios": "https://dc.lft.to/lastmile_qr_scan", "android": "https://dc.lft.to/lastmile_qr_scan"}, "is_reserved": 0}, {"lon": -77.0119165, "bike_id": "6b9530dbcd7eb8879f14f267e54d2030", "lat": 38.900244666666666, "fusion_lon": 0.0, "fusion_lat": 0.0, "type": "electric_scooter", "name": "6b9530dbcd7eb8879f14f267e54d2030", "is_disabled": 0, "rental_uris": {"ios": "https://dc.lft.to/lastmile_qr_scan", "android": "https://dc.lft.to/lastmile_qr_scan"}, "is_reserved": 0}, {"lon": -76.98669633333333, "bike_id": "e6d123798d9b047e3223ac1b218ed4ab", "lat": 38.902479, "fusion_lon": 0.0, "fusion_lat": 0.0, "type": "electric_scooter", "name": "e6d123798d9b047e3223ac1b218ed4ab", "is_disabled": 0, "rental_uris": {"ios": "https://dc.lft.to/lastmile_qr_scan", "android": "https://dc.lft.to/lastmile_qr_scan"}, "is_reserved": 0}, {"lon": -77.03846133333333, "bike_id": "d18e4bcd07f0b13b554a06ae437a1505", "lat": 38.906706666666665, "fusion_lon": 0.0, "fusion_lat": 0.0, "type": "electric_scooter", "name": "d18e4bcd07f0b13b554a06ae437a1505", "is_disabled": 0, "rental_uris": {"ios": "https://dc.lft.to/lastmile_qr_scan", "android": "https://dc.lft.to/lastmile_qr_scan"}, "is_reserved": 0}, {"lon": -77.0471355, "bike_id": "9642c0563c6b96bfffe9dcdf21dac74f", "lat": 38.922338333333336, "fusion_lon": 0.0, "fusion_lat": 0.0, "type": "electric_scooter", "name": "9642c0563c6b96bfffe9dcdf21dac74f", "is_disabled": 0, "rental_uris": {"ios": "https://dc.lft.to/lastmile_qr_scan", "android": "https://dc.lft.to/lastmile_qr_scan"}, "is_reserved": 0}, {"lon": -77.02735666666666, "bike_id": "c9c933ef14bee45bfd1ea97e51e26af4", "lat": 38.92838183333333, "fusion_lon": 0.0, "fusion_lat": 0.0, "type": "electric_scooter", "name": "c9c933ef14bee45bfd1ea97e51e26af4", "is_disabled": 0, "rental_uris": {"ios": "https://dc.lft.to/lastmile_qr_scan", "android": "https://dc.lft.to/lastmile_qr_scan"}, "is_reserved": 0}, {"lon": -77.04271033333333, "bike_id": "53a0fb3bba9e06c8acd9357b2708fe53", "lat": 38.9179715, "fusion_lon": 0.0, "fusion_lat": 0.0, "type": "electric_scooter", "name": "53a0fb3bba9e06c8acd9357b2708fe53", "is_disabled": 0, "rental_uris": {"ios": "https://dc.lft.to/lastmile_qr_scan", "android": "https://dc.lft.to/lastmile_qr_scan"}, "is_reserved": 0}, {"lon": -77.02301066666666, "bike_id": "0495d0227ee9117fe9965c23d9d1dcec", "lat": 38.90887633333333, "fusion_lon": 0.0, "fusion_lat": 0.0, "type": "electric_scooter", "name": "0495d0227ee9117fe9965c23d9d1dcec", "is_disabled": 0, "rental_uris": {"ios": "https://dc.lft.to/lastmile_qr_scan", "android": "https://dc.lft.to/lastmile_qr_scan"}, "is_reserved": 0}, {"lon": -76.99859783333333, "bike_id": "e62ad1be1749703890ee0edf7407f66d", "lat": 38.89411716666667, "fusion_lon": 0.0, "fusion_lat": 0.0, "type": "electric_scooter", "name": "e62ad1be1749703890ee0edf7407f66d", "is_disabled": 0, "rental_uris": {"ios": "https://dc.lft.to/lastmile_qr_scan", "android": "https://dc.lft.to/lastmile_qr_scan"}, "is_reserved": 0},