{"data": {"bikes": [{"bike_id": "491e85c7691f6990151ef5ac5f866baf", "type": "electric_scooter", "is_disabled": 0, "lat": 38.86469533333333, "rental_uris": {"ios": "https://dc.lft.to/lastmile_qr_scan", "android": "https://dc.lft.to/lastmile_qr_scan"}, "is_reserved": 0, "fusion_lon": 0.0, "fusion_lat": 0.0, "lon": -76.97751666666667, "name": "491e85c7691f6990151ef5ac5f866baf"}, {"bike_id": "f85cfbb4aede0afc890e3199d68c8173", "type": "electric_scooter", "is_disabled": 0, "lat": 38.9215375, "rental_uris": {"ios": "https://dc.lft.to/lastmile_qr_scan", "android": "https://dc.lft.to/lastmile_qr_scan"}, "is_reserved": 0, "fusion_lon": 0.0, "fusion_lat": 0.0, "lon": -77.04235083333333, "name": "f85cfbb4aede0afc890e3199d68c8173"}, {"bike_id": "bbf1a93a369350e0cfd78e0d9ad5a893", "type": "electric_scooter", "is_disabled": 0, "lat": 38.9354485, "rental_uris": {"ios": "https://dc.lft.to/lastmile_qr_scan", "android": "https://dc.lft.to/lastmile_qr_scan"}, "is_reserved": 0, "fusion_lon": 0.0, "fusion_lat": 0.0, "lon": -77.05858866666667, "name": "bbf1a93a369350e0cfd78e0d9ad5a893"}, {"bike_id": "828dfe6f5d09caf013e2481e7b28176b", "type": "electric_bike", "is_disabled": 0, "lat": 38.969537, "rental_uris": {"ios": "https://dc.lft.to/lastmile_qr_scan", "android": "https://dc.lft.to/lastmile_qr_scan"}, "is_reserved": 0, "fusion_lon": 0.0, "fusion_lat": 0.0, "lon": -76.95750366666667, "name": "828dfe6f5d09caf013e2481e7b28176b"}, {"bike_id": "8d3a4fc0970f7f2a97d44685498de14d", "type": "electric_scooter", "is_disabled": 0, "lat": 38.882962166666665, "rental_uris": {"ios": "https://dc.lft.to/lastmile_qr_scan", "android": "https://dc.lft.to/lastmile_qr_scan"}, "is_reserved": 0, "fusion_lon": 0.0, "fusion_lat": 0.0, "lon": -76.9485805, "name": "8d3a4fc0970f7f2a97d44685498de14d"}, {"bike_id": "18c088f90c49e54cb550988204b54bb8", "type": "electric_scooter", "is_disabled": 0, "lat": 38.92462183333333, "rental_uris": {"ios": "https://dc.lft.to/lastmile_qr_scan", "android": "https://dc.lft.to/lastmile_qr_scan"}, "is_reserved": 0, "fusion_lon": 0.0, "fusion_lat": 0.0, "lon": -77.028349, "name": "18c088f90c49e54cb550988204b54bb8"}, {"bike_id": "6f385711d77424634312ea365d4328e1", "type": "electric_scooter", "is_disabled": 0, "lat": 38.92331766666667, "rental_uris": {"ios": "https://dc.lft.to/lastmile_qr_scan", "android": "https://dc.lft.to/lastmile_qr_scan"}, "is_reserved": 0, "fusion_lon": 0.0, "fusion_lat": 0.0, "lon": -77.05615816666666, "name": "6f385711d77424634312ea365d4328e1"}, {"bike_id": "3ebf4121ba4c38605371ac4ed2c553b1", "type": "electric_scooter", "is_disabled": 0, "lat": 38.924686, "rental_uris": {"ios": "https://dc.lft.to/lastmile_qr_scan", "android": "https://dc.lft.to/lastmile_qr_scan"}, "is_reserved": 0, "fusion_lon": 0.0, "fusion_lat": 0.0, "lon": -77.02251633333333, "name": "3ebf4121ba4c38605371ac4ed2c553b1"}, {"bike_id": "65dc8f0ab410f3296190d4fc97bf64be", "type": "electric_scooter", "is_disabled": 0, "lat": 38.92397883333334, "rental_uris": {"ios": "https://dc.lft.to/lastmile_qr_scan", "android": "https://dc.lft.to/lastmile_qr_scan"}, "is_reserved": 0, "fusion_lon": 0.0, "fusion_lat": 0.0, "lon": -77.05059983333334, "name": "65dc8f0ab410f3296190d4fc97bf64be"}, {"bike_id": "5cd5a1aa04597b46182145af255050bd", "type": "electric_scooter", "is_disabled": 0, "lat": 38.925146, "rental_uris": {"ios": "https://dc.lft.to/lastmile_qr_scan", "android": "https://dc.lft.to/lastmile_qr_scan"}, "is_reserved": 0, "fusion_lon": 0.0, "fusion_lat": 0.0, "lon": -77.04125583333334, "name": "5cd5a1aa04597b46182145af255050bd"}, {"bike_id": "2e6ed149e3f76b905db28d168e56220c", "type": "electric_scooter", "is_disabled": 0, "lat": 38.933712166666666, "rental_uris": {"ios": "https://dc.lft.to/lastmile_qr_scan", "android": "https://dc.lft.to/lastmile_qr_scan"}, "is_reserved": 0, "fusion_lon": 0.0, "fusion_lat": 0.0, "lon": -77.05736133333333, "name": "2e6ed149e3f76b905db28d168e56220c"}, {"bike_id": "18116aa936b89a807380d9d2096a290e", "type": "electric_bike", "is_disabled": 0, "lat": 38.87697816666667, "rental_uris": {"ios": "https://dc.lft.to/lastmile_qr_scan", "android": "https://dc.lft.to/lastmile_qr_scan"}, "is_reserved": 0, "fusion_lon": 0.0, "fusion_lat": 0.0, "lon": -77.01760633333333, "name": "18116aa936b89a807380d9d2096a290e"}, {"bike_id": "31815583362893b08ced5074e5400e9e", "type": "electric_scooter", "is_disabled": 0, "lat": 38.911038, "rental_uris": {"ios": "https://dc.lft.to/lastmile_qr_scan", "android": "https://dc.lft.to/lastmile_qr_scan"}, "is_reserved": 0, "fusion_lon": 0.0, "fusion_lat": 0.0, "lon": -77.02445333333333, "name": "31815583362893b08ced5074e5400e9e"}, {"bike_id": "c3258f0c82d421f118067e4dd070b866", "type": "electric_scooter", "is_disabled": 0, "lat": 38.927896, "rental_uris": {"ios": "https://dc.lft.to/lastmile_qr_scan", "android": "https://dc.lft.to/lastmile_qr_scan"}, "is_reserved": 0, "fusion_lon": 0.0, "fusion_lat": 0.0, "lon": -77.05263316666667, "name": "c3258f0c82d421f118067e4dd070b866"}, {"bike_id": "4213ddb0af4db186bf9101ba8e1fd9c8", "type": "electric_scooter", "is_disabled": 0, "lat": 38.90373916666667, "rental_uris": {"ios": "https://dc.lft.to/lastmile_qr_scan", "android": "https://dc.lft.to/lastmile_qr_scan"}, "is_reserved": 0, "fusion_lon": 0.0, "fusion_lat": 0.0, "lon": -77.0088705, "name": "4213ddb0af4db186bf9101ba8e1fd9c8"}, {"bike_id": "99e7296477d640a4c3db94d8a322e594", "type": "electric_scooter", "is_disabled": 0, "lat": 38.947145166666665, "rental_uris": {"ios": "https://dc.lft.to/lastmile_qr_scan", "android": "https://dc.lft.to/lastmile_qr_scan"}, "is_reserved": 0, "fusion_lon": 0.0, "fusion_lat": 0.0, "lon": -77.02776283333333, "name": "99e7296477d640a4c3db94d8a322e594"}, {"bike_id": "fc6fd2c7c3307361b9d03d778b0bcd6e", "type": "electric_scooter", "is_disabled": 0, "lat": 38.862052166666665, "rental_uris": {"ios": "https://dc.lft.to/lastmile_qr_scan", "android": "https://dc.lft.to/lastmile_qr_scan"}, "is_reserved": 0, "fusion_lon": 0.0, "fusion_lat": 0.0, "lon": -76.9946945, "name": "fc6fd2c7c3307361b9d03d778b0bcd6e"}, {"bike_id": "1cedf7962d08550939f025d7c9f2202f", "type": "electric_scooter", "is_disabled": 0, "lat": 38.88345433333333, "rental_uris": {"ios": "https://dc.lft.to/lastmile_qr_scan", "android": "https://dc.lft.to/lastmile_qr_scan"}, "is_reserved": 0, "fusion_lon": 0.0, "fusion_lat": 0.0, "lon": -76.99508216666666, "name": "1cedf7962d08550939f025d7c9f2202f"}, {"bike_id": "91e20361d2632ceaf615b315fe130fb3", "type": "electric_scooter", "is_disabled": 0, "lat": 38.921117833333334, "rental_uris": {"ios": "https://dc.lft.to/lastmile_qr_scan", "android": "https://dc.lft.to/lastmile_qr_scan"}, "is_reserved": 0, "fusion_lon": 0.0, "fusion_lat": 0.0, "lon": -77.03657833333334, "name": "91e20361d2632ceaf615b315fe130fb3"}, {"bike_id": "d52f682ebdb79abd32ee3a48a1789aa7", "type": "electric_scooter", "is_disabled": 0, "lat": 38.866948, "rental_uris": {"ios": "https://dc.lft.to/lastmile_qr_scan", "android": "https://dc.lft.to/lastmile_qr_scan"}, "is_reserved": 0, "fusion_lon": 0.0, "fusion_lat": 0.0, "lon": -76.98709133333334, "name": "d52f682ebdb79abd32ee3a48a1789aa7"}, {"bike_id": "a76181f9022b1e9e16dc8fcdf1d2809f", "type": "electric_scooter", "is_disabled": 0, "lat": 38.913315833333336, "rental_uris": {"ios": "https://dc.lft.to/lastmile_qr_scan", "android": "https://dc.lft.to/lastmile_qr_scan"}, "is_reserved": 0, "fusion_lon": 0.0, "fusion_lat": 0.0, "lon": -77.03171483333334, "name": "a76181f9022b1e9e16dc8fcdf1d2809f"}, {"bike_id": "e074a2d717e3af5a497a1eff366ceaae", "type": "electric_scooter", "is_disabled": 0, "lat": 38.918297833333334, "rental_uris": {"ios": "https://dc.lft.to/lastmile_qr_scan", "android": "https://dc.lft.to/lastmile_qr_scan"}, "is_reserved": 0, "fusion_lon": 0.0, "fusion_lat": 0.0, "lon": -77.0456085, "name": "e074a2d717e3af5a497a1eff366ceaae"}, {"bike_id": "0f83628322492d3a70c6ac047c5d3b9d", "type": "electric_scooter", "is_disabled": 0, "lat": 38.93816616666667, "rental_uris": {"ios": "https://dc.lft.to/lastmile_qr_scan", "android": "https://dc.lft.to/lastmile_qr_scan"}, "is_reserved": 0, "fusion_lon": 0.0, "fusion_lat": 0.0, "lon": -77.02712366666667, "name": "0f83628322492d3a70c6ac047c5d3b9d"}, {"bike_id": "3cae92aabf96d5c3284e0b2343106a02", "type": "electric_scooter", "is_disabled": 0, "lat": 38.90847333333333, "rental_uris": {"ios": "https://dc.lft.to/lastmile_qr_scan", "android": "https://dc.lft.to/lastmile_qr_scan"}, "is_reserved": 0, "fusion_lon": 0.0, "fusion_lat": 0.0, "lon": -76.99952, "name": "3cae92aabf96d5c3284e0b2343106a02"}, {"bike_id": "a4ca7166c98f80b61adad8bf98c24607", "type": "electric_scooter", "is_disabled": 0, "lat": 38.931308666666666, "rental_uris": {"ios": "https://dc.lft.to/lastmile_qr_scan", "android": "https://dc.lft.to/lastmile_qr_scan"}, "is_reserved": 0, "fusion_lon": 0.0, "fusion_lat": 0.0, "lon": -77.05732516666667, "name": "a4ca7166c98f80b61adad8bf98c24607"}, {"bike_id": "ee0d590dbdf713245129ab58ae762099", "type": "electric_scooter", "is_disabled": 0, "lat": 38.907036833333336, "rental_uris": {"ios": "https://dc.lft.to/lastmile_qr_scan", "android": "https://dc.lft.to/lastmile_qr_scan"}, "is_reserved": 0, "fusion_lon": 0.0, "fusion_lat": 0.0, "lon": -77.03828766666666, "name": "ee0d590dbdf713245129ab58ae762099"}, {"bike_id": "523aad16d0060a9cb5495b43dd06c8b8", "type": "electric_scooter", "is_disabled": 0, "lat": 38.86670483333333, "rental_uris": {"ios": "https://dc.lft.to/lastmile_qr_scan", "android": "https://dc.lft.to/lastmile_qr_scan"}, "is_reserved": 0, "fusion_lon": 0.0, "fusion_lat": 0.0, "lon": -76.98524883333333, "name": "523aad16d0060a9cb5495b43dd06c8b8"}, {"bike_id": "c91493b144bf99459ae0dd86fe06aea8", "type": "electric_scooter", "is_disabled": 0, "lat": 38.8620615, "rental_uris": {"ios": "https://dc.lft.to/lastmile_qr_scan", "android": "https://dc.lft.to/lastmile_qr_scan"}, "is_reserved": 0, "fusion_lon": 0.0, "fusion_lat": 0.0, "lon": -76.99471166666666, "name": "c91493b144bf99459ae0dd86fe06aea8"}, {"bike_id": "2111b7a39ae263890879e50dc8de0dc2", "type": "electric_scooter", "is_disabled": 0, "lat": 38.9153145, "rental_uris": {"ios": "https://dc.lft.to/lastmile_qr_scan", "android": "https://dc.lft.to/lastmile_qr_scan"}, "is_reserved": 0, "fusion_lon": 0.0, "fusion_lat": 0.0, "lon": -77.03193133333333, "name": "2111b7a39ae263890879e50dc8de0dc2"}, {"bike_id": "fabe11ede8ac95f936f37948d7f4762b", "type": "electric_bike", "is_disabled": 0, "lat": 38.85893333333333, "rental_uris": {"ios": "https://dc.lft.to/lastmile_qr_scan", "android": "https://dc.lft.to/lastmile_qr_scan"}, "is_reserved": 0, "fusion_lon": 0.0, "fusion_lat": 0.0, "lon": -77.11865116666667, "name": "fabe11ede8ac95f936f37948d7f4762b"}, {"bike_id": "5d697086ee706047b8af85494a64a86f", "type": "electric_scooter", "is_disabled": 0, "lat": 38.90493, "rental_uris": {"ios": "https://dc.lft.to/lastmile_qr_scan", "android": "https://dc.lft.to/lastmile_qr_scan"}, "is_reserved": 0, "fusion_lon": 0.0, "fusion_lat": 0.0, "lon": -76.98976016666667, "name": "5d697086ee706047b8af85494a64a86f"}, {"bike_id": "a199fcddd252c8dd6bf006427d03d3f5", "type": "electric_bike", "is_disabled": 0, "lat": 38.95783566666667, "rental_uris": {"ios": "https://dc.lft.to/lastmile_qr_scan", "android": "https://dc.lft.to/lastmile_qr_scan"}, "is_reserved": 0, "fusion_lon": 0.0, "fusion_lat": 0.0, "lon": -77.02004416666666, "name": "a199fcddd252c8dd6bf006427d03d3f5"}, {"bike_id": "ed575250173102d386c7831be9377c38", "type": "electric_scooter", "is_disabled": 0, "lat": 38.919156, "rental_uris": {"ios": "https://dc.lft.to/lastmile_qr_scan", "android": "https://dc.lft.to/lastmile_qr_scan"}, "is_reserved": 0, "fusion_lon": 0.0, "fusion_lat": 0.0, "lon": -77.04159616666666, "name": "ed575250173102d386c7831be9377c38"}, {"bike_id": "78110f2e5d9e6e9d6ff7af6b40b3f7e0", "type": "electric_scooter", "is_disabled": 0, "lat": 38.90234816666667, "rental_uris": {"ios": "https://dc.lft.to/lastmile_qr_scan", "android": "https://dc.lft.to/lastmile_qr_scan"}, "is_reserved": 0, "fusion_lon": 0.0, "fusion_lat": 0.0, "lon": -77.00200866666667, "name": "78110f2e5d9e6e9d6ff7af6b40b3f7e0"}, {"bike_id": "ae72e1da93a609a0aa244b20e76c9bdf", "type": "electric_scooter", "is_disabled": 0, "lat": 38.94556733333334, "rental_uris": {"ios": "https://dc.lft.to/lastmile_qr_scan", "android": "https://dc.lft.to/lastmile_qr_scan"}, "is_reserved": 0, "fusion_lon": 0.0, "fusion_lat": 0.0, "lon": -77.07118883333334, "name": "ae72e1da93a609a0aa244b20e76c9bdf"}, {"bike_id": "c4a668322c4f45f91c2e888c77c065b9", "type": "electric_scooter", "is_disabled": 0, "lat": 38.8845075, "rental_uris": {"ios": "https://dc.lft.to/lastmile_qr_scan", "android": "https://dc.lft.to/lastmile_qr_scan"}, "is_reserved": 0, "fusion_lon": 0.0, "fusion_lat": 0.0, "lon": -76.95099983333333, "name": "c4a668322c4f45f91c2e888c77c065b9"}, {"bike_id": "d49bc6edf67f6fc29aca94dc11a84497", "type": "electric_bike", "is_disabled": 0, "lat": 38.871036833333335, "rental_uris": {"ios": "https://dc.lft.to/lastmile_qr_scan", "android": "https://dc.lft.to/lastmile_qr_scan"}, "is_reserved": 0, "fusion_lon": 0.0, "fusion_lat": 0.0, "lon": -77.01212733333334, "name": "d49bc6edf67f6fc29aca94dc11a84497"}, {"bike_id": "665ad2e983ebe10aa2a966275befca27", "type": "electric_scooter", "is_disabled": 0, "lat": 38.90550833333333, "rental_uris": {"ios": "https://dc.lft.to/lastmile_qr_scan", "android": "https://dc.lft.to/lastmile_qr_scan"}, "is_reserved": 0, "fusion_lon": 0.0, "fusion_lat": 0.0, "lon": -77.0062725, "name": "665ad2e983ebe10aa2a966275befca27"}, {"bike_id": "d956a879f596ca5af5d56899437662cb", "type": "electric_scooter", "is_disabled": 0, "lat": 38.9069395, "rental_uris": {"ios": "https://dc.lft.to/lastmile_qr_scan", "android": "https://dc.lft.to/lastmile_qr_scan"}, "is_reserved": 0, "fusion_lon": 0.0, "fusion_lat": 0.0, "lon": -77.03829733333333, "name": "d956a879f596ca5af5d56899437662cb"}, {"bike_id": "8741470396b6e3f3ef7661da990fb72b", "type": "electric_scooter", "is_disabled": 0, "lat": 38.8995775, "rental_uris": {"ios": "https://dc.lft.to/lastmile_qr_scan", "android": "https://dc.lft.to/lastmile_qr_scan"}, "is_reserved": 0, "fusion_lon": 0.0, "fusion_lat": 0.0, "lon": -76.98302816666667, "name": "8741470396b6e3f3ef7661da990fb72b"}, {"bike_id": "c6a831e798f93d2d57e5179e9d03ac0e", "type": "electric_scooter", "is_disabled": 0, "lat": 38.9192115, "rental_uris": {"ios": "https://dc.lft.to/lastmile_qr_scan", "android": "https://dc.lft.to/lastmile_qr_scan"}, "is_reserved": 0, "fusion_lon": 0.0, "fusion_lat": 0.0, "lon": -77.04171716666667, "name": "c6a831e798f93d2d57e5179e9d03ac0e"}, {"bike_id": "8b0f80f962fde502f7c6c651a6fb39a9", "type": "electric_scooter", "is_disabled": 0, "lat": 38.90969283333333, "rental_uris": {"ios": "https://dc.lft.to/lastmile_qr_scan", "android": "https://dc.lft.to/lastmile_qr_scan"}, "is_reserved": 0, "fusion_lon": 0.0, "fusion_lat": 0.0, "lon": -77.02811816666667, "name": "8b0f80f962fde502f7c6c651a6fb39a9"}, {"bike_id": "4c80efb50944f0d3526a10c3df3f1d8d", "type": "electric_scooter", "is_disabled": 0, "lat": 38.874764, "rental_uris": {"ios": "https://dc.lft.to/lastmile_qr_scan", "android": "https://dc.lft.to/lastmile_qr_scan"}, "is_reserved": 0, "fusion_lon": 0.0, "fusion_lat": 0.0, "lon": -77.01070483333334, "name": "4c80efb50944f0d3526a10c3df3f1d8d"}, {"bike_id": "b1622f75f5618439d36e82e06674c55e", "type": "electric_bike", "is_disabled": 0, "lat": 38.838513166666665, "rental_uris": {"ios": "https://dc.lft.to/lastmile_qr_scan", "android": "https://dc.lft.to/lastmile_qr_scan"}, "is_reserved": 0, "fusion_lon": 0.0, "fusion_lat": 0.0, "lon": -77.050475, "name": "b1622f75f5618439d36e82e06674c55e"}, {"bike_id": "881c5bfcd64e86a4f5f793f0d0ee6ee1", "type": "electric_scooter", "is_disabled": 0, "lat": 38.9285835, "rental_uris": {"ios": "https://dc.lft.to/lastmile_qr_scan", "android": "https://dc.lft.to/lastmile_qr_scan"}, "is_reserved": 0, "fusion_lon": 0.0, "fusion_lat": 0.0, "lon": -77.02314883333334, "name": "881c5bfcd64e86a4f5f793f0d0ee6ee1"}, {"bike_id": "2fb2fd500d74a158f4381a13260c7a7f", "type": "electric_scooter", "is_disabled": 0, "lat": 38.89018, "rental_uris": {"ios": "https://dc.lft.to/lastmile_qr_scan", "android": "https://dc.lft.to/lastmile_qr_scan"}, "is_reserved": 0, "fusion_lon": 0.0, "fusion_lat": 0.0, "lon": -76.93703066666667, "name": "2fb2fd500d74a158f4381a13260c7a7f"}, {"bike_id": "5e1ec2a5ca2b3413c1bbb1709868412c", "type": "electric_scooter", "is_disabled": 0, "lat": 38.936485833333336, "rental_uris": {"ios": "https://dc.lft.to/lastmile_qr_scan", "android": "https://dc.lft.to/lastmile_qr_scan"}, "is_reserved": 0, "fusion_lon": 0.0, "fusion_lat": 0.0, "lon": -77.0264035, "name": "5e1ec2a5ca2b3413c1bbb1709868412c"}, {"bike_id": "6e5d830b1c6a649b7c203b30959f60eb", "type": "electric_scooter", "is_disabled": 0, "lat": 38.903774166666665, "rental_uris": {"ios": "https://dc.lft.to/lastmile_qr_scan", "android": "https://dc.lft.to/lastmile_qr_scan"}, "is_reserved": 0, "fusion_lon": 0.0, "fusion_lat": 0.0, "lon": -76.981998, "name": "6e5d830b1c6a649b7c203b30959f60eb"}, {"bike_id": "ecf9e06526b21750033f2d00beaba58f", "type": "electric_scooter", "is_disabled": 0, "lat": 38.918158, "rental_uris": {"ios": "https://dc.lft.to/lastmile_qr_scan", "android": "https://dc.lft.to/lastmile_qr_scan"}, "is_reserved": 0, "fusion_lon": 0.0, "fusion_lat": 0.0, "lon": -77.0242945, "name": "ecf9e06526b21750033f2d00beaba58f"}, {"bike_id": "ae4d608c5e7953b232d5fa2a41183e1d", "type": "electric_scooter", "is_disabled": 0, "lat": 38.9123665, "rental_uris": {"ios": "https://dc.lft.to/lastmile_qr_scan", "android": "https://dc.lft.to/lastmile_qr_scan"}, "is_reserved": 0, "fusion_lon": 0.0, "fusion_lat": 0.0, "lon": -77.00917566666666, "name": "ae4d608c5e7953b232d5fa2a41183e1d"}, {"bike_id": "5c486ad23b5f9864d5a6afb05b35b63e", "type": "electric_scooter", "is_disabled": 0, "lat": 38.88432233333333, "rental_uris": {"ios": "https://dc.lft.to/lastmile_qr_scan", "android": "https://dc.lft.to/lastmile_qr_scan"}, "is_reserved": 0, "fusion_lon": 0.0, "fusion_lat": 0.0, "lon": -76.95747716666666, "name": "5c486ad23b5f9864d5a6afb05b35b63e"}, {"bike_id": "06cf00190c3aa2bea6b5014fc35cf8b5", "type": "electric_scooter", "is_disabled": 0, "lat": 38.9182485, "rental_uris": {"ios": "https://dc.lft.to/lastmile_qr_scan", "android": "https://dc.lft.to/lastmile_qr_scan"}, "is_reserved": 0, "fusion_lon": 0.0, "fusion_lat": 0.0, "lon": -77.02423266666666, "name": "06cf00190c3aa2bea6b5014fc35cf8b5"}, {"bike_id": "65f34c3d04e1547e1cbbb7411d36fe23", "type": "electric_scooter", "is_disabled": 0, "lat": 38.911291166666665, "rental_uris": {"ios": "https://dc.lft.to/lastmile_qr_scan", "android": "https://dc.lft.to/lastmile_qr_scan"}, "is_reserved": 0, "fusion_lon": 0.0, "fusion_lat": 0.0, "lon": -77.03655216666667, "name": "65f34c3d04e1547e1cbbb7411d36fe23"}, {"bike_id": "39fb7a78b7e9fe7f23855b90584aee50", "type": "electric_scooter", "is_disabled": 0, "lat": 38.95734866666667, "rental_uris": {"ios": "https://dc.lft.to/lastmile_qr_scan", "android": "https://dc.lft.to/lastmile_qr_scan"}, "is_reserved": 0, "fusion_lon": 0.0, "fusion_lat": 0.0, "lon": -77.02423566666667, "name": "39fb7a78b7e9fe7f23855b90584aee50"}, {"bike_id": "06015d779b6af087354223577fa25d9b", "type": "electric_bike", "is_disabled": 0, "lat": 38.87640416666667, "rental_uris": {"ios": "https://dc.lft.to/lastmile_qr_scan", "android": "https://dc.lft.to/lastmile_qr_scan"}, "is_reserved": 0, "fusion_lon": 0.0, "fusion_lat": 0.0, "lon": -77.00091866666666, "name": "06015d779b6af087354223577fa25d9b"}, {"bike_id": "e2ddb460f5073c72fa9eae7aac7001ea", "type": "electric_scooter", "is_disabled": 0, "lat": 38.887328833333335, "rental_uris": {"ios": "https://dc.lft.to/lastmile_qr_scan", "android": "https://dc.lft.to/lastmile_qr_scan"}, "is_reserved": 0, "fusion_lon": 0.0, "fusion_lat": 0.0, "lon": -77.01509883333334, "name": "e2ddb460f5073c72fa9eae7aac7001ea"}, {"bike_id": "3ae6b14b1ef69fe9ca733536a14c679e", "type": "electric_scooter", "is_disabled": 0, "lat": 38.9163085, "rental_uris": {"ios": "https://dc.lft.to/lastmile_qr_scan", "android": "https://dc.lft.to/lastmile_qr_scan"}, "is_reserved": 0, "fusion_lon": 0.0, "fusion_lat": 0.0, "lon": -77.03221266666667, "name": "3ae6b14b1ef69fe9ca733536a14c679e"}, {"bike_id": "31d70c6c3b7fca0c3ec71ddeee8ea373", "type": "electric_scooter", "is_disabled": 0, "lat": 38.919545666666664, "rental_uris": {"ios": "https://dc.lft.to/lastmile_qr_scan", "android": "https://dc.lft.to/lastmile_qr_scan"}, "is_reserved": 0, "fusion_lon": 0.0, "fusion_lat": 0.0, "lon": -77.04501216666667, "name": "31d70c6c3b7fca0c3ec71ddeee8ea373"}, {"bike_id": "18784b52e9b98d7eb4a5a40f176c305c", "type": "electric_scooter", "is_disabled": 0, "lat": 38.86886916666667, "rental_uris": {"ios": "https://dc.lft.to/lastmile_qr_scan", "android": "https://dc.lft.to/lastmile_qr_scan"}, "is_reserved": 0, "fusion_lon": 0.0, "fusion_lat": 0.0, "lon": -76.98449116666667, "name": "18784b52e9b98d7eb4a5a40f176c305c"}, {"bike_id": "a9a663dedf9f3aef1bed698dccd5191b", "type": "electric_scooter", "is_disabled": 0, "lat": 38.96543883333333, "rental_uris": {"ios": "https://dc.lft.to/lastmile_qr_scan", "android": "https://dc.lft.to/lastmile_qr_scan"}, "is_reserved": 0, "fusion_lon": 0.0, "fusion_lat": 0.0, "lon": -77.03634233333334, "name": "a9a663dedf9f3aef1bed698dccd5191b"}, {"bike_id": "6d6b6eee32492d955bb394c4948763b4", "type": "electric_scooter", "is_disabled": 0, "lat": 38.9344475, "rental_uris": {"ios": "https://dc.lft.to/lastmile_qr_scan", "android": "https://dc.lft.to/lastmile_qr_scan"}, "is_reserved": 0, "fusion_lon": 0.0, "fusion_lat": 0.0, "lon": -77.03881966666667, "name": "6d6b6eee32492d955bb394c4948763b4"}, {"bike_id": "f87eaba18d5910d2853149af6a5a077d", "type": "electric_scooter", "is_disabled": 0, "lat": 38.955312, "rental_uris": {"ios": "https://dc.lft.to/lastmile_qr_scan", "android": "https://dc.lft.to/lastmile_qr_scan"}, "is_reserved": 0, "fusion_lon": 0.0, "fusion_lat": 0.0, "lon": -77.02780383333334, "name": "f87eaba18d5910d2853149af6a5a077d"}, {"bike_id": "4f7d9b74d0a772b81e65236e9be43124", "type": "electric_scooter", "is_disabled": 0, "lat": 38.929105, "rental_uris": {"ios": "https://dc.lft.to/lastmile_qr_scan", "android": "https://dc.lft.to/lastmile_qr_scan"}, "is_reserved": 0, "fusion_lon": 0.0, "fusion_lat": 0.0, "lon": -77.03190616666667, "name": "4f7d9b74d0a772b81e65236e9be43124"}, {"bike_id": "6e97c57ef05d8ed7b2a162bbc6245a45", "type": "electric_bike", "is_disabled": 0, "lat": 38.838061, "rental_uris": {"ios": "https://dc.lft.to/lastmile_qr_scan", "android": "https://dc.lft.to/lastmile_qr_scan"}, "is_reserved": 0, "fusion_lon": 0.0, "fusion_lat": 0.0, "lon": -77.095223, "name": "6e97c57ef05d8ed7b2a162bbc6245a45"}, {"bike_id": "8d0a0abc93822356ffb082cd87318202", "type": "electric_scooter", "is_disabled": 0, "lat": 38.89893566666667, "rental_uris": {"ios": "https://dc.lft.to/lastmile_qr_scan", "android": "https://dc.lft.to/lastmile_qr_scan"}, "is_reserved": 0, "fusion_lon": 0.0, "fusion_lat": 0.0, "lon": -77.01527916666667, "name": "8d0a0abc93822356ffb082cd87318202"}, {"bike_id": "887fe7479c46c0fe77181ca20d22fc7c", "type": "electric_scooter", "is_disabled": 0, "lat": 38.89009766666667, "rental_uris": {"ios": "https://dc.lft.to/lastmile_qr_scan", "android": "https://dc.lft.to/lastmile_qr_scan"}, "is_reserved": 0, "fusion_lon": 0.0, "fusion_lat": 0.0, "lon": -76.9375195, "name": "887fe7479c46c0fe77181ca20d22fc7c"}, {"bike_id": "cb2631ceff44c7ce028e758121232d3f", "type": "electric_scooter", "is_disabled": 0, "lat": 38.90961583333333, "rental_uris": {"ios": "https://dc.lft.to/lastmile_qr_scan", "android": "https://dc.lft.to/lastmile_qr_scan"}, "is_reserved": 0, "fusion_lon": 0.0, "fusion_lat": 0.0, "lon": -77.0231085, "name": "cb2631ceff44c7ce028e758121232d3f"}, {"bike_id": "024a5e223e587b2fea8aa4f3d7c6e57d", "type": "electric_scooter", "is_disabled": 0, "lat": 38.89327766666667, "rental_uris": {"ios": "https://dc.lft.to/lastmile_qr_scan", "android": "https://dc.lft.to/lastmile_qr_scan"}, "is_reserved": 0, "fusion_lon": 0.0, "fusion_lat": 0.0, "lon": -77.04863066666667, "name": "024a5e223e587b2fea8aa4f3d7c6e57d"}, {"bike_id": "e395b9087d4c6251c4ba19a21b943811", "type": "electric_scooter", "is_disabled": 0, "lat": 38.95144, "rental_uris": {"ios": "https://dc.lft.to/lastmile_qr_scan", "android": "https://dc.lft.to/lastmile_qr_scan"}, "is_reserved": 0, "fusion_lon": 0.0, "fusion_lat": 0.0, "lon": -77.01872983333334, "name": "e395b9087d4c6251c4ba19a21b943811"}, {"bike_id": "09fc23651977510faf5486db7b529776", "type": "electric_scooter", "is_disabled": 0, "lat": 38.89535583333333, "rental_uris": {"ios": "https://dc.lft.to/lastmile_qr_scan", "android": "https://dc.lft.to/lastmile_qr_scan"}, "is_reserved": 0, "fusion_lon": 0.0, "fusion_lat": 0.0, "lon": -76.94893216666667, "name": "09fc23651977510faf5486db7b529776"}, {"bike_id": "05e449c34e51610a2bc450d3c2cbd06e", "type": "electric_scooter", "is_disabled": 0, "lat": 38.8935445, "rental_uris": {"ios": "https://dc.lft.to/lastmile_qr_scan", "android": "https://dc.lft.to/lastmile_qr_scan"}, "is_reserved": 0, "fusion_lon": 0.0, "fusion_lat": 0.0, "lon": -76.99785983333334, "name": "05e449c34e51610a2bc450d3c2cbd06e"}, {"bike_id": "f0cf8e14758a55c797da35473c5251c2", "type": "electric_bike", "is_disabled": 0, "lat": 38.8973905, "rental_uris": {"ios": "https://dc.lft.to/lastmile_qr_scan", "android": "https://dc.lft.to/lastmile_qr_scan"}, "is_reserved": 0, "fusion_lon": 0.0, "fusion_lat": 0.0, "lon": -76.92048216666667, "name": "f0cf8e14758a55c797da35473c5251c2"}, {"bike_id": "55fe46eedde21996ad611c8fb62ee9cd", "type": "electric_scooter", "is_disabled": 0, "lat": 38.90538466666667, "rental_uris": {"ios": "https://dc.lft.to/lastmile_qr_scan", "android": "https://dc.lft.to/lastmile_qr_scan"}, "is_reserved": 0, "fusion_lon": 0.0, "fusion_lat": 0.0, "lon": -77.038164, "name": "55fe46eedde21996ad611c8fb62ee9cd"}, {"bike_id": "8641204d69c072b3c1e160aef10b9f28", "type": "electric_scooter", "is_disabled": 0, "lat": 38.90594816666667, "rental_uris": {"ios": "https://dc.lft.to/lastmile_qr_scan", "android": "https://dc.lft.to/lastmile_qr_scan"}, "is_reserved": 0, "fusion_lon": 0.0, "fusion_lat": 0.0, "lon": -77.07015483333333, "name": "8641204d69c072b3c1e160aef10b9f28"}, {"bike_id": "3500b604e4f472356ccd012ba7e4db54", "type": "electric_scooter", "is_disabled": 0, "lat": 38.9221015, "rental_uris": {"ios": "https://dc.lft.to/lastmile_qr_scan", "android": "https://dc.lft.to/lastmile_qr_scan"}, "is_reserved": 0, "fusion_lon": 0.0, "fusion_lat": 0.0, "lon": -77.03291966666667, "name": "3500b604e4f472356ccd012ba7e4db54"}, {"bike_id": "cc910bc5732e365ea6bdb99917e2a64e", "type": "electric_scooter", "is_disabled": 0, "lat": 38.9191415, "rental_uris": {"ios": "https://dc.lft.to/lastmile_qr_scan", "android": "https://dc.lft.to/lastmile_qr_scan"}, "is_reserved": 0, "fusion_lon": 0.0, "fusion_lat": 0.0, "lon": -77.0336125, "name": "cc910bc5732e365ea6bdb99917e2a64e"}, {"bike_id": "147e0494ec21503fa0bbccb736bdb634", "type": "electric_scooter", "is_disabled": 0, "lat": 38.920828666666665, "rental_uris": {"ios": "https://dc.lft.to/lastmile_qr_scan", "android": "https://dc.lft.to/lastmile_qr_scan"}, "is_reserved": 0, "fusion_lon": 0.0, "fusion_lat": 0.0, "lon": -77.02370883333333, "name": "147e0494ec21503fa0bbccb736bdb634"}, {"bike_id": "f7e6b0f876f424b121bf3271407be562", "type": "electric_scooter", "is_disabled": 0, "lat": 38.918226, "rental_uris": {"ios": "https://dc.lft.to/lastmile_qr_scan", "android": "https://dc.lft.to/lastmile_qr_scan"}, "is_reserved": 0, "fusion_lon": 0.0, "fusion_lat": 0.0, "lon": -77.0494565, "name": "f7e6b0f876f424b121bf3271407be562"}, {"bike_id": "391de618f5cacb09429f0c7b19420fa4", "type": "electric_scooter", "is_disabled": 0, "lat": 38.91400466666666, "rental_uris": {"ios": "https://dc.lft.to/lastmile_qr_scan", "android": "https://dc.lft.to/lastmile_qr_scan"}, "is_reserved": 0, "fusion_lon": 0.0, "fusion_lat": 0.0, "lon": -77.03175866666666, "name": "391de618f5cacb09429f0c7b19420fa4"}, {"bike_id": "8ceb6c7d2b1d14933a3361196780f88e", "type": "electric_scooter", "is_disabled": 0, "lat": 38.964158, "rental_uris": {"ios": "https://dc.lft.to/lastmile_qr_scan", "android": "https://dc.lft.to/lastmile_qr_scan"}, "is_reserved": 0, "fusion_lon": 0.0, "fusion_lat": 0.0, "lon": -77.02430016666666, "name": "8ceb6c7d2b1d14933a3361196780f88e"}, {"bike_id": "507a801f19ca99fbb6e20a1d7db2b86e", "type": "electric_scooter", "is_disabled": 0, "lat": 38.90692083333333, "rental_uris": {"ios": "https://dc.lft.to/lastmile_qr_scan", "android": "https://dc.lft.to/lastmile_qr_scan"}, "is_reserved": 0, "fusion_lon": 0.0, "fusion_lat": 0.0, "lon": -77.03677716666667, "name": "507a801f19ca99fbb6e20a1d7db2b86e"}, {"bike_id": "0c0b26293cae6041297ed190f779d792", "type": "electric_scooter", "is_disabled": 0, "lat": 38.915223833333336, "rental_uris": {"ios": "https://dc.lft.to/lastmile_qr_scan", "android": "https://dc.lft.to/lastmile_qr_scan"}, "is_reserved": 0, "fusion_lon": 0.0, "fusion_lat": 0.0, "lon": -77.012208, "name": "0c0b26293cae6041297ed190f779d792"}, {"bike_id": "ce82e4a00691faf5ba270fe9bc8b1f31", "type": "electric_scooter", "is_disabled": 0, "lat": 38.9244335, "rental_uris": {"ios": "https://dc.lft.to/lastmile_qr_scan", "android": "https://dc.lft.to/lastmile_qr_scan"}, "is_reserved": 0, "fusion_lon": 0.0, "fusion_lat": 0.0, "lon": -77.04196116666667, "name": "ce82e4a00691faf5ba270fe9bc8b1f31"}, {"bike_id": "eaf720a91e252b2fcf486380cb66ac36", "type": "electric_scooter", "is_disabled": 0, "lat": 38.919235666666665, "rental_uris": {"ios": "https://dc.lft.to/lastmile_qr_scan", "android": "https://dc.lft.to/lastmile_qr_scan"}, "is_reserved": 0, "fusion_lon": 0.0, "fusion_lat": 0.0, "lon": -77.04630733333333, "name": "eaf720a91e252b2fcf486380cb66ac36"}, {"bike_id": "46c43f8abbe54b4216384d7660a34900", "type": "electric_scooter", "is_disabled": 0, "lat": 38.9366775, "rental_uris": {"ios": "https://dc.lft.to/lastmile_qr_scan", "android": "https://dc.lft.to/lastmile_qr_scan"}, "is_reserved": 0, "fusion_lon": 0.0, "fusion_lat": 0.0, "lon": -77.03569483333334, "name": "46c43f8abbe54b4216384d7660a34900"}, {"bike_id": "291a4625038dbb53e912d80bb6ea6dd8", "type": "electric_scooter", "is_disabled": 0, "lat": 38.86246766666667, "rental_uris": {"ios": "https://dc.lft.to/lastmile_qr_scan", "android": "https://dc.lft.to/lastmile_qr_scan"}, "is_reserved": 0, "fusion_lon": 0.0, "fusion_lat": 0.0, "lon": -76.99503583333333, "name": "291a4625038dbb53e912d80bb6ea6dd8"}, {"bike_id": "336e85756400a2f78d3f544b32d07732", "type": "electric_scooter", "is_disabled": 0, "lat": 38.86678766666667, "rental_uris": {"ios": "https://dc.lft.to/lastmile_qr_scan", "android": "https://dc.lft.to/lastmile_qr_scan"}, "is_reserved": 0, "fusion_lon": 0.0, "fusion_lat": 0.0, "lon": -76.98582266666666, "name": "336e85756400a2f78d3f544b32d07732"}, {"bike_id": "6f8693bef9ebf8bc9c740b243b11248d", "type": "electric_bike", "is_disabled": 0, "lat": 38.9349535, "rental_uris": {"ios": "https://dc.lft.to/lastmile_qr_scan", "android": "https://dc.lft.to/lastmile_qr_scan"}, "is_reserved": 0, "fusion_lon": 0.0, "fusion_lat": 0.0, "lon": -76.99130366666667, "name": "6f8693bef9ebf8bc9c740b243b11248d"}, {"bike_id": "6a39b60ef5a56fa19ba6b488aee74197", "type": "electric_bike", "is_disabled": 0, "lat": 38.94363216666667, "rental_uris": {"ios": "https://dc.lft.to/lastmile_qr_scan", "android": "https://dc.lft.to/lastmile_qr_scan"}, "is_reserved": 0, "fusion_lon": 0.0, "fusion_lat": 0.0, "lon": -76.96778783333333, "name": "6a39b60ef5a56fa19ba6b488aee74197"}, {"bike_id": "4dd1508600bf1f0bf8812b6f034f9b8d", "type": "electric_scooter", "is_disabled": 0, "lat": 38.850136, "rental_uris": {"ios": "https://dc.lft.to/lastmile_qr_scan", "android": "https://dc.lft.to/lastmile_qr_scan"}, "is_reserved": 0, "fusion_lon": 0.0, "fusion_lat": 0.0, "lon": -76.97534816666666, "name": "4dd1508600bf1f0bf8812b6f034f9b8d"}, {"bike_id": "fd335d6fc9cfcf30cde02a16a4a95dea", "type": "electric_scooter", "is_disabled": 0, "lat": 38.90516266666667, "rental_uris": {"ios": "https://dc.lft.to/lastmile_qr_scan", "android": "https://dc.lft.to/lastmile_qr_scan"}, "is_reserved": 0, "fusion_lon": 0.0, "fusion_lat": 0.0, "lon": -77.06299366666667, "name": "fd335d6fc9cfcf30cde02a16a4a95dea"}, {"bike_id": "31e73bebc076dd2ebff39b8f467125b4", "type": "electric_scooter", "is_disabled": 0, "lat": 38.96206566666667, "rental_uris": {"ios": "https://dc.lft.to/lastmile_qr_scan", "android": "https://dc.lft.to/lastmile_qr_scan"}, "is_reserved": 0, "fusion_lon": 0.0, "fusion_lat": 0.0, "lon": -77.02235883333333, "name": "31e73bebc076dd2ebff39b8f467125b4"}, {"bike_id": "00b477ac2b75d39a00823974361682b8", "type": "electric_bike", "is_disabled": 0, "lat": 38.92355116666667, "rental_uris": {"ios": "https://dc.lft.to/lastmile_qr_scan", "android": "https://dc.lft.to/lastmile_qr_scan"}, "is_reserved": 0, "fusion_lon": 0.0, "fusion_lat": 0.0, "lon": -76.97136783333333, "name": "00b477ac2b75d39a00823974361682b8"}, {"bike_id": "1a2a3bc0aaf52b1e3d638c24f53a3a6a", "type": "electric_scooter", "is_disabled": 0, "lat": 38.9274465, "rental_uris": {"ios": "https://dc.lft.to/lastmile_qr_scan", "android": "https://dc.lft.to/lastmile_qr_scan"}, "is_reserved": 0, "fusion_lon": 0.0, "fusion_lat": 0.0, "lon": -77.02530433333334, "name": "1a2a3bc0aaf52b1e3d638c24f53a3a6a"}, {"bike_id": "312862973be9e383a983c34000fae58d", "type": "electric_bike", "is_disabled": 0, "lat": 38.98358233333333, "rental_uris": {"ios": "https://dc.lft.to/lastmile_qr_scan", "android": "https://dc.lft.to/lastmile_qr_scan"}, "is_reserved": 0, "fusion_lon": 0.0, "fusion_lat": 0.0, "lon": -76.97214316666667, "name": "312862973be9e383a983c34000fae58d"}, {"bike_id": "b464a302a3c2521b121244cc12db1ef5", "type": "electric_scooter", "is_disabled": 0, "lat": 38.914033333333336, "rental_uris": {"ios": "https://dc.lft.to/lastmile_qr_scan", "android": "https://dc.lft.to/lastmile_qr_scan"}, "is_reserved": 0, "fusion_lon": 0.0, "fusion_lat": 0.0, "lon": -77.0413165, "name": "b464a302a3c2521b121244cc12db1ef5"}, {"bike_id": "2c8c7c24858334db1eca70af5355936c", "type": "electric_bike", "is_disabled": 0, "lat": 38.898164666666666, "rental_uris": {"ios": "https://dc.lft.to/lastmile_qr_scan", "android": "https://dc.lft.to/lastmile_qr_scan"}, "is_reserved": 0, "fusion_lon": 0.0, "fusion_lat": 0.0, "lon": -76.9908225, "name": "2c8c7c24858334db1eca70af5355936c"}, {"bike_id": "34e55274fdeaab2415df9c67349a9480", "type": "electric_scooter", "is_disabled": 0, "lat": 38.91495316666666, "rental_uris": {"ios": "https://dc.lft.to/lastmile_qr_scan", "android": "https://dc.lft.to/lastmile_qr_scan"}, "is_reserved": 0, "fusion_lon": 0.0, "fusion_lat": 0.0, "lon": -77.03209283333334, "name": "34e55274fdeaab2415df9c67349a9480"}, {"bike_id": "e1ae88522f547c1d25e38c3dcd6d0e54", "type": "electric_scooter", "is_disabled": 0, "lat": 38.90584283333333, "rental_uris": {"ios": "https://dc.lft.to/lastmile_qr_scan", "android": "https://dc.lft.to/lastmile_qr_scan"}, "is_reserved": 0, "fusion_lon": 0.0, "fusion_lat": 0.0, "lon": -77.068058, "name": "e1ae88522f547c1d25e38c3dcd6d0e54"}, {"bike_id": "c288b8e22388234679f2b94017531ed2", "type": "electric_scooter", "is_disabled": 0, "lat": 38.92280733333333, "rental_uris": {"ios": "https://dc.lft.to/lastmile_qr_scan", "android": "https://dc.lft.to/lastmile_qr_scan"}, "is_reserved": 0, "fusion_lon": 0.0, "fusion_lat": 0.0, "lon": -77.0422475, "name": "c288b8e22388234679f2b94017531ed2"}, {"bike_id": "72f2f1093db89903e5a7f974c53d7314", "type": "electric_bike", "is_disabled": 0, "lat": 38.859354333333336, "rental_uris": {"ios": "https://dc.lft.to/lastmile_qr_scan", "android": "https://dc.lft.to/lastmile_qr_scan"}, "is_reserved": 0, "fusion_lon": 0.0, "fusion_lat": 0.0, "lon": -77.1182925, "name": "72f2f1093db89903e5a7f974c53d7314"}, {"bike_id": "fb2206faec6341bb53b6aa359bb8d398", "type": "electric_bike", "is_disabled": 0, "lat": 38.82368816666666, "rental_uris": {"ios": "https://dc.lft.to/lastmile_qr_scan", "android": "https://dc.lft.to/lastmile_qr_scan"}, "is_reserved": 0, "fusion_lon": 0.0, "fusion_lat": 0.0, "lon": -77.00216133333333, "name": "fb2206faec6341bb53b6aa359bb8d398"}, {"bike_id": "aeb03764aa3bbf8366aa1da4e966ebdc", "type": "electric_scooter", "is_disabled": 0, "lat": 38.91114433333333, "rental_uris": {"ios": "https://dc.lft.to/lastmile_qr_scan", "android": "https://dc.lft.to/lastmile_qr_scan"}, "is_reserved": 0, "fusion_lon": 0.0, "fusion_lat": 0.0, "lon": -77.049075, "name": "aeb03764aa3bbf8366aa1da4e966ebdc"}, {"bike_id": "fd066d3768960f9cfef9dc4f953a8bec", "type": "electric_scooter", "is_disabled": 0, "lat": 38.90498516666667, "rental_uris": {"ios": "https://dc.lft.to/lastmile_qr_scan", "android": "https://dc.lft.to/lastmile_qr_scan"}, "is_reserved": 0, "fusion_lon": 0.0, "fusion_lat": 0.0, "lon": -77.0600515, "name": "fd066d3768960f9cfef9dc4f953a8bec"}, {"bike_id": "bdbfe1c5acd9e583674a43d1e613f332", "type": "electric_scooter", "is_disabled": 0, "lat": 38.902439, "rental_uris": {"ios": "https://dc.lft.to/lastmile_qr_scan", "android": "https://dc.lft.to/lastmile_qr_scan"}, "is_reserved": 0, "fusion_lon": 0.0, "fusion_lat": 0.0, "lon": -77.04705566666667, "name": "bdbfe1c5acd9e583674a43d1e613f332"}, {"bike_id": "6933e39552cf64997d9401bfac1f8936", "type": "electric_bike", "is_disabled": 0, "lat": 38.990884333333334, "rental_uris": {"ios": "https://dc.lft.to/lastmile_qr_scan", "android": "https://dc.lft.to/lastmile_qr_scan"}, "is_reserved": 0, "fusion_lon": 0.0, "fusion_lat": 0.0, "lon": -76.87498633333334, "name": "6933e39552cf64997d9401bfac1f8936"}, {"bike_id": "ffaca7b85d5cbbb216d2d90e970c032f", "type": "electric_scooter", "is_disabled": 0, "lat": 38.9026535, "rental_uris": {"ios": "https://dc.lft.to/lastmile_qr_scan", "android": "https://dc.lft.to/lastmile_qr_scan"}, "is_reserved": 0, "fusion_lon": 0.0, "fusion_lat": 0.0, "lon": -77.00348366666667, "name": "ffaca7b85d5cbbb216d2d90e970c032f"}, {"bike_id": "a3e19809fea579dd4b965aca62019a02", "type": "electric_scooter", "is_disabled": 0, "lat": 38.843148666666664, "rental_uris": {"ios": "https://dc.lft.to/lastmile_qr_scan", "android": "https://dc.lft.to/lastmile_qr_scan"}, "is_reserved": 0, "fusion_lon": 0.0, "fusion_lat": 0.0, "lon": -76.999305, "name": "a3e19809fea579dd4b965aca62019a02"}, {"bike_id": "680bd4991bf5516216e6036b378a4937", "type": "electric_scooter", "is_disabled": 0, "lat": 38.90090033333333, "rental_uris": {"ios": "https://dc.lft.to/lastmile_qr_scan", "android": "https://dc.lft.to/lastmile_qr_scan"}, "is_reserved": 0, "fusion_lon": 0.0, "fusion_lat": 0.0, "lon": -77.01777666666666, "name": "680bd4991bf5516216e6036b378a4937"}, {"bike_id": "d450b0476b53bebcbb2228e08dbc0173", "type": "electric_scooter", "is_disabled": 0, "lat": 38.900180666666664, "rental_uris": {"ios": "https://dc.lft.to/lastmile_qr_scan", "android": "https://dc.lft.to/lastmile_qr_scan"}, "is_reserved": 0, "fusion_lon": 0.0, "fusion_lat": 0.0, "lon": -76.98156, "name": "d450b0476b53bebcbb2228e08dbc0173"}, {"bike_id": "df2626007450d98def944699e21fa474", "type": "electric_scooter", "is_disabled": 0, "lat": 38.928928166666665, "rental_uris": {"ios": "https://dc.lft.to/lastmile_qr_scan", "android": "https://dc.lft.to/lastmile_qr_scan"}, "is_reserved": 0, "fusion_lon": 0.0, "fusion_lat": 0.0, "lon": -77.03250416666667, "name": "df2626007450d98def944699e21fa474"}, {"bike_id": "6a4c3ceeba66b96c94f85a2df43f9152", "type": "electric_scooter", "is_disabled": 0, "lat": 38.843110833333334, "rental_uris": {"ios": "https://dc.lft.to/lastmile_qr_scan", "android": "https://dc.lft.to/lastmile_qr_scan"}, "is_reserved": 0, "fusion_lon": 0.0, "fusion_lat": 0.0, "lon": -76.99934916666666, "name": "6a4c3ceeba66b96c94f85a2df43f9152"}, {"bike_id": "73ee0b5929095d8b43944bb97c7b588d", "type": "electric_scooter", "is_disabled": 0, "lat": 38.920308166666665, "rental_uris": {"ios": "https://dc.lft.to/lastmile_qr_scan", "android": "https://dc.lft.to/lastmile_qr_scan"}, "is_reserved": 0, "fusion_lon": 0.0, "fusion_lat": 0.0, "lon": -77.0179225, "name": "73ee0b5929095d8b43944bb97c7b588d"}, {"bike_id": "8adb33fe2147b634e771aecf5ff20b2e", "type": "electric_scooter", "is_disabled": 0, "lat": 38.887365833333334, "rental_uris": {"ios": "https://dc.lft.to/lastmile_qr_scan", "android": "https://dc.lft.to/lastmile_qr_scan"}, "is_reserved": 0, "fusion_lon": 0.0, "fusion_lat": 0.0, "lon": -77.017674, "name": "8adb33fe2147b634e771aecf5ff20b2e"}, {"bike_id": "e26e83d83943435e39bca010615ab868", "type": "electric_scooter", "is_disabled": 0, "lat": 38.908166, "rental_uris": {"ios": "https://dc.lft.to/lastmile_qr_scan", "android": "https://dc.lft.to/lastmile_qr_scan"}, "is_reserved": 0, "fusion_lon": 0.0, "fusion_lat": 0.0, "lon": -77.044781, "name": "e26e83d83943435e39bca010615ab868"}, {"bike_id": "710503e44601db6c8e4bcc8cf446a51a", "type": "electric_scooter", "is_disabled": 0, "lat": 38.86734716666667, "rental_uris": {"ios": "https://dc.lft.to/lastmile_qr_scan", "android": "https://dc.lft.to/lastmile_qr_scan"}, "is_reserved": 0, "fusion_lon": 0.0, "fusion_lat": 0.0, "lon": -76.97863666666667, "name": "710503e44601db6c8e4bcc8cf446a51a"}, {"bike_id": "45f9a22b8123008db3021356bc471c65", "type": "electric_scooter", "is_disabled": 0, "lat": 38.90731316666667, "rental_uris": {"ios": "https://dc.lft.to/lastmile_qr_scan", "android": "https://dc.lft.to/lastmile_qr_scan"}, "is_reserved": 0, "fusion_lon": 0.0, "fusion_lat": 0.0, "lon": -76.97973983333333, "name": "45f9a22b8123008db3021356bc471c65"}, {"bike_id": "d1140015c0dfe99bcb3e6ac80bf1344f", "type": "electric_scooter", "is_disabled": 0, "lat": 38.91770416666667, "rental_uris": {"ios": "https://dc.lft.to/lastmile_qr_scan", "android": "https://dc.lft.to/lastmile_qr_scan"}, "is_reserved": 0, "fusion_lon": 0.0, "fusion_lat": 0.0, "lon": -77.034414, "name": "d1140015c0dfe99bcb3e6ac80bf1344f"}, {"bike_id": "5b091d08cd998d3439ee3484f03a3c6d", "type": "electric_scooter", "is_disabled": 0, "lat": 38.90750833333333, "rental_uris": {"ios": "https://dc.lft.to/lastmile_qr_scan", "android": "https://dc.lft.to/lastmile_qr_scan"}, "is_reserved": 0, "fusion_lon": 0.0, "fusion_lat": 0.0, "lon": -77.0318195, "name": "5b091d08cd998d3439ee3484f03a3c6d"}, {"bike_id": "719ee45627a59d5452777235de71988a", "type": "electric_bike", "is_disabled": 0, "lat": 38.96114983333333, "rental_uris": {"ios": "https://dc.lft.to/lastmile_qr_scan", "android": "https://dc.lft.to/lastmile_qr_scan"}, "is_reserved": 0, "fusion_lon": 0.0, "fusion_lat": 0.0, "lon": -77.0692265, "name": "719ee45627a59d5452777235de71988a"}, {"bike_id": "07c9b072781e5b6f0c59be29b96c983b", "type": "electric_scooter", "is_disabled": 0, "lat": 38.91443616666667, "rental_uris": {"ios": "https://dc.lft.to/lastmile_qr_scan", "android": "https://dc.lft.to/lastmile_qr_scan"}, "is_reserved": 0, "fusion_lon": 0.0, "fusion_lat": 0.0, "lon": -77.01998766666667, "name": "07c9b072781e5b6f0c59be29b96c983b"}, {"bike_id": "b83edffb2b6b7e9bb22323e0c10814d6", "type": "electric_scooter", "is_disabled": 0, "lat": 38.831033166666664, "rental_uris": {"ios": "https://dc.lft.to/lastmile_qr_scan", "android": "https://dc.lft.to/lastmile_qr_scan"}, "is_reserved": 0, "fusion_lon": 0.0, "fusion_lat": 0.0, "lon": -77.051597, "name": "b83edffb2b6b7e9bb22323e0c10814d6"}, {"bike_id": "4d77daf04ec18e038d34e5fc9cbeced7", "type": "electric_scooter", "is_disabled": 0, "lat": 38.91688083333333, "rental_uris": {"ios": "https://dc.lft.to/lastmile_qr_scan", "android": "https://dc.lft.to/lastmile_qr_scan"}, "is_reserved": 0, "fusion_lon": 0.0, "fusion_lat": 0.0, "lon": -77.03222, "name": "4d77daf04ec18e038d34e5fc9cbeced7"}, {"bike_id": "055e73a702b4731a0a82dab15cdfb79b", "type": "electric_scooter", "is_disabled": 0, "lat": 38.91678516666666, "rental_uris": {"ios": "https://dc.lft.to/lastmile_qr_scan", "android": "https://dc.lft.to/lastmile_qr_scan"}, "is_reserved": 0, "fusion_lon": 0.0, "fusion_lat": 0.0, "lon": -77.0296825, "name": "055e73a702b4731a0a82dab15cdfb79b"}, {"bike_id": "83b87190929a5dd39af052c8aefeec52", "type": "electric_scooter", "is_disabled": 0, "lat": 38.902735166666666, "rental_uris": {"ios": "https://dc.lft.to/lastmile_qr_scan", "android": "https://dc.lft.to/lastmile_qr_scan"}, "is_reserved": 0, "fusion_lon": 0.0, "fusion_lat": 0.0, "lon": -77.00345833333333, "name": "83b87190929a5dd39af052c8aefeec52"}, {"bike_id": "5e743055129f5153a14ab4212c573fdc", "type": "electric_scooter", "is_disabled": 0, "lat": 38.89881783333333, "rental_uris": {"ios": "https://dc.lft.to/lastmile_qr_scan", "android": "https://dc.lft.to/lastmile_qr_scan"}, "is_reserved": 0, "fusion_lon": 0.0, "fusion_lat": 0.0, "lon": -76.93177883333334, "name": "5e743055129f5153a14ab4212c573fdc"}, {"bike_id": "1e918b4a5f9b94a9c6fa6bade37562b5", "type": "electric_scooter", "is_disabled": 0, "lat": 38.93369966666667, "rental_uris": {"ios": "https://dc.lft.to/lastmile_qr_scan", "android": "https://dc.lft.to/lastmile_qr_scan"}, "is_reserved": 0, "fusion_lon": 0.0, "fusion_lat": 0.0, "lon": -77.05732116666667, "name": "1e918b4a5f9b94a9c6fa6bade37562b5"}, {"bike_id": "716eb2cbfc66295553defec21671ab60", "type": "electric_scooter", "is_disabled": 0, "lat": 38.90813966666666, "rental_uris": {"ios": "https://dc.lft.to/lastmile_qr_scan", "android": "https://dc.lft.to/lastmile_qr_scan"}, "is_reserved": 0, "fusion_lon": 0.0, "fusion_lat": 0.0, "lon": -77.06351966666666, "name": "716eb2cbfc66295553defec21671ab60"}, {"bike_id": "defc6bba5ba5e4abf8e14688b98cdc3e", "type": "electric_scooter", "is_disabled": 0, "lat": 38.925749, "rental_uris": {"ios": "https://dc.lft.to/lastmile_qr_scan", "android": "https://dc.lft.to/lastmile_qr_scan"}, "is_reserved": 0, "fusion_lon": 0.0, "fusion_lat": 0.0, "lon": -77.03056366666667, "name": "defc6bba5ba5e4abf8e14688b98cdc3e"}, {"bike_id": "e3ccb7a423274ceff900ac9309c0ae75", "type": "electric_bike", "is_disabled": 0, "lat": 38.809008666666664, "rental_uris": {"ios": "https://dc.lft.to/lastmile_qr_scan", "android": "https://dc.lft.to/lastmile_qr_scan"}, "is_reserved": 0, "fusion_lon": 0.0, "fusion_lat": 0.0, "lon": -77.08659833333333, "name": "e3ccb7a423274ceff900ac9309c0ae75"}, {"bike_id": "6de279ac1d609d887bbfbb1f7610d89a", "type": "electric_scooter", "is_disabled": 0, "lat": 38.906843333333335, "rental_uris": {"ios": "https://dc.lft.to/lastmile_qr_scan", "android": "https://dc.lft.to/lastmile_qr_scan"}, "is_reserved": 0, "fusion_lon": 0.0, "fusion_lat": 0.0, "lon": -77.05331516666666, "name": "6de279ac1d609d887bbfbb1f7610d89a"}, {"bike_id": "f2c603e2edc8da9a32dfe8f696bfc2da", "type": "electric_scooter", "is_disabled": 0, "lat": 38.901337, "rental_uris": {"ios": "https://dc.lft.to/lastmile_qr_scan", "android": "https://dc.lft.to/lastmile_qr_scan"}, "is_reserved": 0, "fusion_lon": 0.0, "fusion_lat": 0.0, "lon": -77.0151295, "name": "f2c603e2edc8da9a32dfe8f696bfc2da"}, {"bike_id": "8869a3a1f8a375ea61728961755d5076", "type": "electric_scooter", "is_disabled": 0, "lat": 38.9207745, "rental_uris": {"ios": "https://dc.lft.to/lastmile_qr_scan", "android": "https://dc.lft.to/lastmile_qr_scan"}, "is_reserved": 0, "fusion_lon": 0.0, "fusion_lat": 0.0, "lon": -77.02539233333333, "name": "8869a3a1f8a375ea61728961755d5076"}, {"bike_id": "50b428c5e5ca9e9b8dd60099197f9928", "type": "electric_scooter", "is_disabled": 0, "lat": 38.924184833333335, "rental_uris": {"ios": "https://dc.lft.to/lastmile_qr_scan", "android": "https://dc.lft.to/lastmile_qr_scan"}, "is_reserved": 0, "fusion_lon": 0.0, "fusion_lat": 0.0, "lon": -77.0297035, "name": "50b428c5e5ca9e9b8dd60099197f9928"}, {"bike_id": "f9e0b8fa09c7a4ecfe40af1a5c9235b9", "type": "electric_scooter", "is_disabled": 0, "lat": 38.90498816666667, "rental_uris": {"ios": "https://dc.lft.to/lastmile_qr_scan", "android": "https://dc.lft.to/lastmile_qr_scan"}, "is_reserved": 0, "fusion_lon": 0.0, "fusion_lat": 0.0, "lon": -77.02817683333333, "name": "f9e0b8fa09c7a4ecfe40af1a5c9235b9"}, {"bike_id": "db20f3d81d8a2d9d724b71a45ce3112f", "type": "electric_bike", "is_disabled": 0, "lat": 39.0578875, "rental_uris": {"ios": "https://dc.lft.to/lastmile_qr_scan", "android": "https://dc.lft.to/lastmile_qr_scan"}, "is_reserved": 0, "fusion_lon": 0.0, "fusion_lat": 0.0, "lon": -77.15019516666666, "name": "db20f3d81d8a2d9d724b71a45ce3112f"}, {"bike_id": "8e445e1ef3e5dab192e6ca345c620a42", "type": "electric_scooter", "is_disabled": 0, "lat": 38.91277983333333, "rental_uris": {"ios": "https://dc.lft.to/lastmile_qr_scan", "android": "https://dc.lft.to/lastmile_qr_scan"}, "is_reserved": 0, "fusion_lon": 0.0, "fusion_lat": 0.0, "lon": -77.04736383333334, "name": "8e445e1ef3e5dab192e6ca345c620a42"}, {"bike_id": "971fe766dad398d483811676eca4eee2", "type": "electric_scooter", "is_disabled": 0, "lat": 38.9205135, "rental_uris": {"ios": "https://dc.lft.to/lastmile_qr_scan", "android": "https://dc.lft.to/lastmile_qr_scan"}, "is_reserved": 0, "fusion_lon": 0.0, "fusion_lat": 0.0, "lon": -77.033947, "name": "971fe766dad398d483811676eca4eee2"}, {"bike_id": "783ffece40f0e0ff1646572ac128bd6b", "type": "electric_scooter", "is_disabled": 0, "lat": 38.900582666666665, "rental_uris": {"ios": "https://dc.lft.to/lastmile_qr_scan", "android": "https://dc.lft.to/lastmile_qr_scan"}, "is_reserved": 0, "fusion_lon": 0.0, "fusion_lat": 0.0, "lon": -76.93474333333333, "name": "783ffece40f0e0ff1646572ac128bd6b"}, {"bike_id": "cba7fdd7a35875cfff24503565586bab", "type": "electric_bike", "is_disabled": 0, "lat": 38.87989533333333, "rental_uris": {"ios": "https://dc.lft.to/lastmile_qr_scan", "android": "https://dc.lft.to/lastmile_qr_scan"}, "is_reserved": 0, "fusion_lon": 0.0, "fusion_lat": 0.0, "lon": -76.98510433333334, "name": "cba7fdd7a35875cfff24503565586bab"}, {"bike_id": "4d117beb02948d9612d9f46d7eb76ca6", "type": "electric_scooter", "is_disabled": 0, "lat": 38.90311583333333, "rental_uris": {"ios": "https://dc.lft.to/lastmile_qr_scan", "android": "https://dc.lft.to/lastmile_qr_scan"}, "is_reserved": 0, "fusion_lon": 0.0, "fusion_lat": 0.0, "lon": -76.99430283333334, "name": "4d117beb02948d9612d9f46d7eb76ca6"}, {"bike_id": "6ff1840c5ab6aff36ed9f4246d0e3ab5", "type": "electric_scooter", "is_disabled": 0, "lat": 38.856946, "rental_uris": {"ios": "https://dc.lft.to/lastmile_qr_scan", "android": "https://dc.lft.to/lastmile_qr_scan"}, "is_reserved": 0, "fusion_lon": 0.0, "fusion_lat": 0.0, "lon": -76.98977166666667, "name": "6ff1840c5ab6aff36ed9f4246d0e3ab5"}, {"bike_id": "fd949fcb30945be15d1933bd520515e3", "type": "electric_scooter", "is_disabled": 0, "lat": 38.89003183333333, "rental_uris": {"ios": "https://dc.lft.to/lastmile_qr_scan", "android": "https://dc.lft.to/lastmile_qr_scan"}, "is_reserved": 0, "fusion_lon": 0.0, "fusion_lat": 0.0, "lon": -76.93749116666666, "name": "fd949fcb30945be15d1933bd520515e3"}, {"bike_id": "bedc37d1e6f9c5313f32d202baa1da3f", "type": "electric_scooter", "is_disabled": 0, "lat": 38.9110405, "rental_uris": {"ios": "https://dc.lft.to/lastmile_qr_scan", "android": "https://dc.lft.to/lastmile_qr_scan"}, "is_reserved": 0, "fusion_lon": 0.0, "fusion_lat": 0.0, "lon": -77.02421283333334, "name": "bedc37d1e6f9c5313f32d202baa1da3f"}, {"bike_id": "e565e0761a56689bbb16fd23a374a917", "type": "electric_scooter", "is_disabled": 0, "lat": 38.935266166666665, "rental_uris": {"ios": "https://dc.lft.to/lastmile_qr_scan", "android": "https://dc.lft.to/lastmile_qr_scan"}, "is_reserved": 0, "fusion_lon": 0.0, "fusion_lat": 0.0, "lon": -77.02348383333333, "name": "e565e0761a56689bbb16fd23a374a917"}, {"bike_id": "c9e336c977b2f90e9b4a22f45c834968", "type": "electric_scooter", "is_disabled": 0, "lat": 38.93007883333333, "rental_uris": {"ios": "https://dc.lft.to/lastmile_qr_scan", "android": "https://dc.lft.to/lastmile_qr_scan"}, "is_reserved": 0, "fusion_lon": 0.0, "fusion_lat": 0.0, "lon": -77.0143195, "name": "c9e336c977b2f90e9b4a22f45c834968"}, {"bike_id": "ba44639500d63761052c2c1d528d16b2", "type": "electric_scooter", "is_disabled": 0, "lat": 38.90977983333333, "rental_uris": {"ios": "https://dc.lft.to/lastmile_qr_scan", "android": "https://dc.lft.to/lastmile_qr_scan"}, "is_reserved": 0, "fusion_lon": 0.0, "fusion_lat": 0.0, "lon": -77.04870833333334, "name": "ba44639500d63761052c2c1d528d16b2"}, {"bike_id": "e255d10a49f38f2f91c744193f60c6c5", "type": "electric_scooter", "is_disabled": 0, "lat": 38.87118683333333, "rental_uris": {"ios": "https://dc.lft.to/lastmile_qr_scan", "android": "https://dc.lft.to/lastmile_qr_scan"}, "is_reserved": 0, "fusion_lon": 0.0, "fusion_lat": 0.0, "lon": -76.982439, "name": "e255d10a49f38f2f91c744193f60c6c5"}, {"bike_id": "396899005f8553a2192b8fe09efc9ea7", "type": "electric_scooter", "is_disabled": 0, "lat": 38.93189016666667, "rental_uris": {"ios": "https://dc.lft.to/lastmile_qr_scan", "android": "https://dc.lft.to/lastmile_qr_scan"}, "is_reserved": 0, "fusion_lon": 0.0, "fusion_lat": 0.0, "lon": -77.020261, "name": "396899005f8553a2192b8fe09efc9ea7"}, {"bike_id": "07ef9e7ac89c2b1fac454d62d0fcbf0c", "type": "electric_scooter", "is_disabled": 0, "lat": 38.91412483333333, "rental_uris": {"ios": "https://dc.lft.to/lastmile_qr_scan", "android": "https://dc.lft.to/lastmile_qr_scan"}, "is_reserved": 0, "fusion_lon": 0.0, "fusion_lat": 0.0, "lon": -77.0317755, "name": "07ef9e7ac89c2b1fac454d62d0fcbf0c"}, {"bike_id": "f6fa8fbd20faf66e2daa83fdcc8a34d4", "type": "electric_scooter", "is_disabled": 0, "lat": 38.86663733333334, "rental_uris": {"ios": "https://dc.lft.to/lastmile_qr_scan", "android": "https://dc.lft.to/lastmile_qr_scan"}, "is_reserved": 0, "fusion_lon": 0.0, "fusion_lat": 0.0, "lon": -77.01049266666666, "name": "f6fa8fbd20faf66e2daa83fdcc8a34d4"}, {"bike_id": "0ef43d19e14f8cb069d5e1b630a60cf9", "type": "electric_scooter", "is_disabled": 0, "lat": 38.9233655, "rental_uris": {"ios": "https://dc.lft.to/lastmile_qr_scan", "android": "https://dc.lft.to/lastmile_qr_scan"}, "is_reserved": 0, "fusion_lon": 0.0, "fusion_lat": 0.0, "lon": -77.05097516666666, "name": "0ef43d19e14f8cb069d5e1b630a60cf9"}, {"bike_id": "88cba575b357da6de2663f6a7acee864", "type": "electric_scooter", "is_disabled": 0, "lat": 38.9101235, "rental_uris": {"ios": "https://dc.lft.to/lastmile_qr_scan", "android": "https://dc.lft.to/lastmile_qr_scan"}, "is_reserved": 0, "fusion_lon": 0.0, "fusion_lat": 0.0, "lon": -77.05265683333333, "name": "88cba575b357da6de2663f6a7acee864"}, {"bike_id": "07793fd59698888b37e0b04f0b4e928c", "type": "electric_scooter", "is_disabled": 0, "lat": 38.927255333333335, "rental_uris": {"ios": "https://dc.lft.to/lastmile_qr_scan", "android": "https://dc.lft.to/lastmile_qr_scan"}, "is_reserved": 0, "fusion_lon": 0.0, "fusion_lat": 0.0, "lon": -77.03433616666666, "name": "07793fd59698888b37e0b04f0b4e928c"}, {"bike_id": "24f9f1f5276003413440329e923fed07", "type": "electric_scooter", "is_disabled": 0, "lat": 38.917378666666664, "rental_uris": {"ios": "https://dc.lft.to/lastmile_qr_scan", "android": "https://dc.lft.to/lastmile_qr_scan"}, "is_reserved": 0, "fusion_lon": 0.0, "fusion_lat": 0.0, "lon": -77.02386383333334, "name": "24f9f1f5276003413440329e923fed07"}, {"bike_id": "d9a9f4446f45b229507a09c1613fcc2b", "type": "electric_scooter", "is_disabled": 0, "lat": 38.87480816666667, "rental_uris": {"ios": "https://dc.lft.to/lastmile_qr_scan", "android": "https://dc.lft.to/lastmile_qr_scan"}, "is_reserved": 0, "fusion_lon": 0.0, "fusion_lat": 0.0, "lon": -76.9997875, "name": "d9a9f4446f45b229507a09c1613fcc2b"}, {"bike_id": "b5f7248036076251e6cac3c1f79e1152", "type": "electric_bike", "is_disabled": 0, "lat": 39.036995166666664, "rental_uris": {"ios": "https://dc.lft.to/lastmile_qr_scan", "android": "https://dc.lft.to/lastmile_qr_scan"}, "is_reserved": 0, "fusion_lon": 0.0, "fusion_lat": 0.0, "lon": -77.0286165, "name": "b5f7248036076251e6cac3c1f79e1152"}, {"bike_id": "667c5519b6cd5fef15914ca16f116b2d", "type": "electric_scooter", "is_disabled": 0, "lat": 38.904192333333334, "rental_uris": {"ios": "https://dc.lft.to/lastmile_qr_scan", "android": "https://dc.lft.to/lastmile_qr_scan"}, "is_reserved": 0, "fusion_lon": 0.0, "fusion_lat": 0.0, "lon": -77.0178455, "name": "667c5519b6cd5fef15914ca16f116b2d"}, {"bike_id": "f1ead4c18ed832031775aa56a65a7dde", "type": "electric_scooter", "is_disabled": 0, "lat": 38.94513516666667, "rental_uris": {"ios": "https://dc.lft.to/lastmile_qr_scan", "android": "https://dc.lft.to/lastmile_qr_scan"}, "is_reserved": 0, "fusion_lon": 0.0, "fusion_lat": 0.0, "lon": -77.021749, "name": "f1ead4c18ed832031775aa56a65a7dde"}, {"bike_id": "69fc7944a8c6ea38172c4a4460995ad2", "type": "electric_scooter", "is_disabled": 0, "lat": 38.919987, "rental_uris": {"ios": "https://dc.lft.to/lastmile_qr_scan", "android": "https://dc.lft.to/lastmile_qr_scan"}, "is_reserved": 0, "fusion_lon": 0.0, "fusion_lat": 0.0, "lon": -77.023867, "name": "69fc7944a8c6ea38172c4a4460995ad2"}, {"bike_id": "59b2aff4904ed407dc7f63785fafd36c", "type": "electric_scooter", "is_disabled": 0, "lat": 38.92364583333333, "rental_uris": {"ios": "https://dc.lft.to/lastmile_qr_scan", "android": "https://dc.lft.to/lastmile_qr_scan"}, "is_reserved": 0, "fusion_lon": 0.0, "fusion_lat": 0.0, "lon": -77.030246, "name": "59b2aff4904ed407dc7f63785fafd36c"}, {"bike_id": "2c4a6239c45a3c1b3cddbf691ceeb1c6", "type": "electric_scooter", "is_disabled": 0, "lat": 38.875596333333334, "rental_uris": {"ios": "https://dc.lft.to/lastmile_qr_scan", "android": "https://dc.lft.to/lastmile_qr_scan"}, "is_reserved": 0, "fusion_lon": 0.0, "fusion_lat": 0.0, "lon": -76.95867583333333, "name": "2c4a6239c45a3c1b3cddbf691ceeb1c6"}, {"bike_id": "e993d095e39e0d5e2ad1619de469f611", "type": "electric_scooter", "is_disabled": 0, "lat": 38.931541833333334, "rental_uris": {"ios": "https://dc.lft.to/lastmile_qr_scan", "android": "https://dc.lft.to/lastmile_qr_scan"}, "is_reserved": 0, "fusion_lon": 0.0, "fusion_lat": 0.0, "lon": -77.04544083333333, "name": "e993d095e39e0d5e2ad1619de469f611"}, {"bike_id": "3db89f03c0460c064505d5c8718cd8c6", "type": "electric_scooter", "is_disabled": 0, "lat": 38.906240833333335, "rental_uris": {"ios": "https://dc.lft.to/lastmile_qr_scan", "android": "https://dc.lft.to/lastmile_qr_scan"}, "is_reserved": 0, "fusion_lon": 0.0, "fusion_lat": 0.0, "lon": -77.05145766666666, "name": "3db89f03c0460c064505d5c8718cd8c6"}, {"bike_id": "736147635764adf0ed13ba31b390327d", "type": "electric_scooter", "is_disabled": 0, "lat": 38.88911616666667, "rental_uris": {"ios": "https://dc.lft.to/lastmile_qr_scan", "android": "https://dc.lft.to/lastmile_qr_scan"}, "is_reserved": 0, "fusion_lon": 0.0, "fusion_lat": 0.0, "lon": -76.98954916666666, "name": "736147635764adf0ed13ba31b390327d"}, {"bike_id": "d6d98c1a8707b86093f79652fc96acc3", "type": "electric_bike", "is_disabled": 0, "lat": 38.954994, "rental_uris": {"ios": "https://dc.lft.to/lastmile_qr_scan", "android": "https://dc.lft.to/lastmile_qr_scan"}, "is_reserved": 0, "fusion_lon": 0.0, "fusion_lat": 0.0, "lon": -76.9935585, "name": "d6d98c1a8707b86093f79652fc96acc3"}, {"bike_id": "55e4455c42b5dab95e344aea3c4a92e3", "type": "electric_scooter", "is_disabled": 0, "lat": 38.959346, "rental_uris": {"ios": "https://dc.lft.to/lastmile_qr_scan", "android": "https://dc.lft.to/lastmile_qr_scan"}, "is_reserved": 0, "fusion_lon": 0.0, "fusion_lat": 0.0, "lon": -77.03125333333334, "name": "55e4455c42b5dab95e344aea3c4a92e3"}, {"bike_id": "f37c0941b827f70adc5c0461a7cb9ad5", "type": "electric_scooter", "is_disabled": 0, "lat": 38.898843166666666, "rental_uris": {"ios": "https://dc.lft.to/lastmile_qr_scan", "android": "https://dc.lft.to/lastmile_qr_scan"}, "is_reserved": 0, "fusion_lon": 0.0, "fusion_lat": 0.0, "lon": -76.93176733333334, "name": "f37c0941b827f70adc5c0461a7cb9ad5"}, {"bike_id": "9c672edd73c40f40be36d5e45dee53ba", "type": "electric_bike", "is_disabled": 0, "lat": 38.9058205, "rental_uris": {"ios": "https://dc.lft.to/lastmile_qr_scan", "android": "https://dc.lft.to/lastmile_qr_scan"}, "is_reserved": 0, "fusion_lon": 0.0, "fusion_lat": 0.0, "lon": -77.06525216666667, "name": "9c672edd73c40f40be36d5e45dee53ba"}, {"bike_id": "34bc927aae15d019bcab369082ffa763", "type": "electric_scooter", "is_disabled": 0, "lat": 38.91329133333333, "rental_uris": {"ios": "https://dc.lft.to/lastmile_qr_scan", "android": "https://dc.lft.to/lastmile_qr_scan"}, "is_reserved": 0, "fusion_lon": 0.0, "fusion_lat": 0.0, "lon": -77.04728983333334, "name": "34bc927aae15d019bcab369082ffa763"}, {"bike_id": "e37d75c246141a9c74697f1f1b808ce1", "type": "electric_scooter", "is_disabled": 0, "lat": 38.91557366666667, "rental_uris": {"ios": "https://dc.lft.to/lastmile_qr_scan", "android": "https://dc.lft.to/lastmile_qr_scan"}, "is_reserved": 0, "fusion_lon": 0.0, "fusion_lat": 0.0, "lon": -77.03280616666666, "name": "e37d75c246141a9c74697f1f1b808ce1"}, {"bike_id": "b0698aee7bcf6918f86f1490bed41436", "type": "electric_scooter", "is_disabled": 0, "lat": 38.9441055, "rental_uris": {"ios": "https://dc.lft.to/lastmile_qr_scan", "android": "https://dc.lft.to/lastmile_qr_scan"}, "is_reserved": 0, "fusion_lon": 0.0, "fusion_lat": 0.0, "lon": -77.06326516666667, "name": "b0698aee7bcf6918f86f1490bed41436"}, {"bike_id": "198e9fb4dcce004bc200fd6bd9a8678f", "type": "electric_scooter", "is_disabled": 0, "lat": 38.912436, "rental_uris": {"ios": "https://dc.lft.to/lastmile_qr_scan", "android": "https://dc.lft.to/lastmile_qr_scan"}, "is_reserved": 0, "fusion_lon": 0.0, "fusion_lat": 0.0, "lon": -77.00114433333333, "name": "198e9fb4dcce004bc200fd6bd9a8678f"}, {"bike_id": "744a4e9a671c1711ec9bc914ed761187", "type": "electric_scooter", "is_disabled": 0, "lat": 38.905293, "rental_uris": {"ios": "https://dc.lft.to/lastmile_qr_scan", "android": "https://dc.lft.to/lastmile_qr_scan"}, "is_reserved": 0, "fusion_lon": 0.0, "fusion_lat": 0.0, "lon": -77.04574316666667, "name": "744a4e9a671c1711ec9bc914ed761187"}, {"bike_id": "518188314ba4893710cd442278e02b27", "type": "electric_scooter", "is_disabled": 0, "lat": 38.929114166666665, "rental_uris": {"ios": "https://dc.lft.to/lastmile_qr_scan", "android": "https://dc.lft.to/lastmile_qr_scan"}, "is_reserved": 0, "fusion_lon": 0.0, "fusion_lat": 0.0, "lon": -77.02091333333334, "name": "518188314ba4893710cd442278e02b27"}, {"bike_id": "ca45265db3e17b979fdc0352bd6a8aba", "type": "electric_scooter", "is_disabled": 0, "lat": 38.920727166666666, "rental_uris": {"ios": "https://dc.lft.to/lastmile_qr_scan", "android": "https://dc.lft.to/lastmile_qr_scan"}, "is_reserved": 0, "fusion_lon": 0.0, "fusion_lat": 0.0, "lon": -77.023649, "name": "ca45265db3e17b979fdc0352bd6a8aba"}, {"bike_id": "229ae44d0e8427d903022a8934591c9a", "type": "electric_scooter", "is_disabled": 0, "lat": 38.915733333333336, "rental_uris": {"ios": "https://dc.lft.to/lastmile_qr_scan", "android": "https://dc.lft.to/lastmile_qr_scan"}, "is_reserved": 0, "fusion_lon": 0.0, "fusion_lat": 0.0, "lon": -77.0199935, "name": "229ae44d0e8427d903022a8934591c9a"}, {"bike_id": "8f438d777ce3b6e79f1a14f1f347ccb1", "type": "electric_scooter", "is_disabled": 0, "lat": 38.887329666666666, "rental_uris": {"ios": "https://dc.lft.to/lastmile_qr_scan", "android": "https://dc.lft.to/lastmile_qr_scan"}, "is_reserved": 0, "fusion_lon": 0.0, "fusion_lat": 0.0, "lon": -77.031714, "name": "8f438d777ce3b6e79f1a14f1f347ccb1"}, {"bike_id": "0b8d120befd6f9ca6e90968ad57f83ea", "type": "electric_scooter", "is_disabled": 0, "lat": 38.887375666666664, "rental_uris": {"ios": "https://dc.lft.to/lastmile_qr_scan", "android": "https://dc.lft.to/lastmile_qr_scan"}, "is_reserved": 0, "fusion_lon": 0.0, "fusion_lat": 0.0, "lon": -77.01768716666666, "name": "0b8d120befd6f9ca6e90968ad57f83ea"}, {"bike_id": "276b9106617c668c093a8f8939b00235", "type": "electric_scooter", "is_disabled": 0, "lat": 38.900413666666665, "rental_uris": {"ios": "https://dc.lft.to/lastmile_qr_scan", "android": "https://dc.lft.to/lastmile_qr_scan"}, "is_reserved": 0, "fusion_lon": 0.0, "fusion_lat": 0.0, "lon": -77.03327516666667, "name": "276b9106617c668c093a8f8939b00235"}, {"bike_id": "690545546c21fd3f6e14f7b5097cf0c5", "type": "electric_scooter", "is_disabled": 0, "lat": 38.93427666666667, "rental_uris": {"ios": "https://dc.lft.to/lastmile_qr_scan", "android": "https://dc.lft.to/lastmile_qr_scan"}, "is_reserved": 0, "fusion_lon": 0.0, "fusion_lat": 0.0, "lon": -77.04000383333333, "name": "690545546c21fd3f6e14f7b5097cf0c5"}, {"bike_id": "4055e31e1297696e0af35ece507279eb", "type": "electric_scooter", "is_disabled": 0, "lat": 38.914126, "rental_uris": {"ios": "https://dc.lft.to/lastmile_qr_scan", "android": "https://dc.lft.to/lastmile_qr_scan"}, "is_reserved": 0, "fusion_lon": 0.0, "fusion_lat": 0.0, "lon": -77.03239316666667, "name": "4055e31e1297696e0af35ece507279eb"}, {"bike_id": "5002ccf0d0f0fe0a2960df1cf0d71a0c", "type": "electric_scooter", "is_disabled": 0, "lat": 38.91818266666667, "rental_uris": {"ios": "https://dc.lft.to/lastmile_qr_scan", "android": "https://dc.lft.to/lastmile_qr_scan"}, "is_reserved": 0, "fusion_lon": 0.0, "fusion_lat": 0.0, "lon": -77.03192166666666, "name": "5002ccf0d0f0fe0a2960df1cf0d71a0c"}, {"bike_id": "0598d72ef16d11a23aa51f5b7bb522ed", "type": "electric_scooter", "is_disabled": 0, "lat": 38.967, "rental_uris": {"ios": "https://dc.lft.to/lastmile_qr_scan", "android": "https://dc.lft.to/lastmile_qr_scan"}, "is_reserved": 0, "fusion_lon": 0.0, "fusion_lat": 0.0, "lon": -77.05572183333334, "name": "0598d72ef16d11a23aa51f5b7bb522ed"}, {"bike_id": "f5a8877d14ee74c6e82ee3b5c5874e08", "type": "electric_bike", "is_disabled": 0, "lat": 38.8788355, "rental_uris": {"ios": "https://dc.lft.to/lastmile_qr_scan", "android": "https://dc.lft.to/lastmile_qr_scan"}, "is_reserved": 0, "fusion_lon": 0.0, "fusion_lat": 0.0, "lon": -77.09617483333334, "name": "f5a8877d14ee74c6e82ee3b5c5874e08"}, {"bike_id": "bf3eb241f243251390887cdd16079d51", "type": "electric_scooter", "is_disabled": 0, "lat": 38.930924833333336, "rental_uris": {"ios": "https://dc.lft.to/lastmile_qr_scan", "android": "https://dc.lft.to/lastmile_qr_scan"}, "is_reserved": 0, "fusion_lon": 0.0, "fusion_lat": 0.0, "lon": -77.03438833333334, "name": "bf3eb241f243251390887cdd16079d51"}, {"bike_id": "2ac51810f2607cd8b4823a0bc3719bee", "type": "electric_scooter", "is_disabled": 0, "lat": 38.905011333333334, "rental_uris": {"ios": "https://dc.lft.to/lastmile_qr_scan", "android": "https://dc.lft.to/lastmile_qr_scan"}, "is_reserved": 0, "fusion_lon": 0.0, "fusion_lat": 0.0, "lon": -77.01992666666666, "name": "2ac51810f2607cd8b4823a0bc3719bee"}, {"bike_id": "7acb212cfaab9fa2dcbc0a37f44ac40c", "type": "electric_scooter", "is_disabled": 0, "lat": 38.87859066666667, "rental_uris": {"ios": "https://dc.lft.to/lastmile_qr_scan", "android": "https://dc.lft.to/lastmile_qr_scan"}, "is_reserved": 0, "fusion_lon": 0.0, "fusion_lat": 0.0, "lon": -77.00611716666667, "name": "7acb212cfaab9fa2dcbc0a37f44ac40c"}, {"bike_id": "f40f38614a8374c0e87709957b94fc01", "type": "electric_scooter", "is_disabled": 0, "lat": 38.92475183333333, "rental_uris": {"ios": "https://dc.lft.to/lastmile_qr_scan", "android": "https://dc.lft.to/lastmile_qr_scan"}, "is_reserved": 0, "fusion_lon": 0.0, "fusion_lat": 0.0, "lon": -77.02830666666667, "name": "f40f38614a8374c0e87709957b94fc01"}, {"bike_id": "ce9ae28b16273bc337a2a8db1fcf387a", "type": "electric_scooter", "is_disabled": 0, "lat": 38.919184333333334, "rental_uris": {"ios": "https://dc.lft.to/lastmile_qr_scan", "android": "https://dc.lft.to/lastmile_qr_scan"}, "is_reserved": 0, "fusion_lon": 0.0, "fusion_lat": 0.0, "lon": -77.04243066666666, "name": "ce9ae28b16273bc337a2a8db1fcf387a"}, {"bike_id": "5f89a5cdc76b78c97ceaa9e1aea79adb", "type": "electric_scooter", "is_disabled": 0, "lat": 38.898409666666666, "rental_uris": {"ios": "https://dc.lft.to/lastmile_qr_scan", "android": "https://dc.lft.to/lastmile_qr_scan"}, "is_reserved": 0, "fusion_lon": 0.0, "fusion_lat": 0.0, "lon": -76.94635866666667, "name": "5f89a5cdc76b78c97ceaa9e1aea79adb"}, {"bike_id": "43c8c532516719e9ad951fad42c36d6a", "type": "electric_scooter", "is_disabled": 0, "lat": 38.90345833333333, "rental_uris": {"ios": "https://dc.lft.to/lastmile_qr_scan", "android": "https://dc.lft.to/lastmile_qr_scan"}, "is_reserved": 0, "fusion_lon": 0.0, "fusion_lat": 0.0, "lon": -77.06015433333333, "name": "43c8c532516719e9ad951fad42c36d6a"}, {"bike_id": "aca652ff5554131fce6399ce7713722d", "type": "electric_scooter", "is_disabled": 0, "lat": 38.914157333333335, "rental_uris": {"ios": "https://dc.lft.to/lastmile_qr_scan", "android": "https://dc.lft.to/lastmile_qr_scan"}, "is_reserved": 0, "fusion_lon": 0.0, "fusion_lat": 0.0, "lon": -77.021846, "name": "aca652ff5554131fce6399ce7713722d"}, {"bike_id": "ebefd9a859a56fb0890ee46575473c91", "type": "electric_scooter", "is_disabled": 0, "lat": 38.863616, "rental_uris": {"ios": "https://dc.lft.to/lastmile_qr_scan", "android": "https://dc.lft.to/lastmile_qr_scan"}, "is_reserved": 0, "fusion_lon": 0.0, "fusion_lat": 0.0, "lon": -76.99062483333333, "name": "ebefd9a859a56fb0890ee46575473c91"}, {"bike_id": "afc1023498c261ba23739b3c91492529", "type": "electric_scooter", "is_disabled": 0, "lat": 38.86681466666667, "rental_uris": {"ios": "https://dc.lft.to/lastmile_qr_scan", "android": "https://dc.lft.to/lastmile_qr_scan"}, "is_reserved": 0, "fusion_lon": 0.0, "fusion_lat": 0.0, "lon": -76.9855645, "name": "afc1023498c261ba23739b3c91492529"}, {"bike_id": "74ad7812e6aa0a74b162e1a66e6247ea", "type": "electric_scooter", "is_disabled": 0, "lat": 38.91469333333333, "rental_uris": {"ios": "https://dc.lft.to/lastmile_qr_scan", "android": "https://dc.lft.to/lastmile_qr_scan"}, "is_reserved": 0, "fusion_lon": 0.0, "fusion_lat": 0.0, "lon": -77.03183766666666, "name": "74ad7812e6aa0a74b162e1a66e6247ea"}, {"bike_id": "04de11dc9e3a5f1a1e878e80763f8e71", "type": "electric_scooter", "is_disabled": 0, "lat": 38.92477866666667, "rental_uris": {"ios": "https://dc.lft.to/lastmile_qr_scan", "android": "https://dc.lft.to/lastmile_qr_scan"}, "is_reserved": 0, "fusion_lon": 0.0, "fusion_lat": 0.0, "lon": -77.052206, "name": "04de11dc9e3a5f1a1e878e80763f8e71"}, {"bike_id": "f16b328dab007bb20ce492045e77782e", "type": "electric_scooter", "is_disabled": 0, "lat": 38.928553, "rental_uris": {"ios": "https://dc.lft.to/lastmile_qr_scan", "android": "https://dc.lft.to/lastmile_qr_scan"}, "is_reserved": 0, "fusion_lon": 0.0, "fusion_lat": 0.0, "lon": -77.05437, "name": "f16b328dab007bb20ce492045e77782e"}, {"bike_id": "eaaec172ab98da71ea00df88811ff5ab", "type": "electric_scooter", "is_disabled": 0, "lat": 38.9352975, "rental_uris": {"ios": "https://dc.lft.to/lastmile_qr_scan", "android": "https://dc.lft.to/lastmile_qr_scan"}, "is_reserved": 0, "fusion_lon": 0.0, "fusion_lat": 0.0, "lon": -77.02349616666666, "name": "eaaec172ab98da71ea00df88811ff5ab"}, {"bike_id": "b0611a414d27c053fa0b03701391876b", "type": "electric_scooter", "is_disabled": 0, "lat": 38.916534666666664, "rental_uris": {"ios": "https://dc.lft.to/lastmile_qr_scan", "android": "https://dc.lft.to/lastmile_qr_scan"}, "is_reserved": 0, "fusion_lon": 0.0, "fusion_lat": 0.0, "lon": -77.026989, "name": "b0611a414d27c053fa0b03701391876b"}, {"bike_id": "de2ef010e7433ff73665a7e955094c0e", "type": "electric_scooter", "is_disabled": 0, "lat": 38.92079066666667, "rental_uris": {"ios": "https://dc.lft.to/lastmile_qr_scan", "android": "https://dc.lft.to/lastmile_qr_scan"}, "is_reserved": 0, "fusion_lon": 0.0, "fusion_lat": 0.0, "lon": -77.02308183333334, "name": "de2ef010e7433ff73665a7e955094c0e"}, {"bike_id": "f2ce59c37e47df479d51c1af14a6ed56", "type": "electric_scooter", "is_disabled": 0, "lat": 38.9265945, "rental_uris": {"ios": "https://dc.lft.to/lastmile_qr_scan", "android": "https://dc.lft.to/lastmile_qr_scan"}, "is_reserved": 0, "fusion_lon": 0.0, "fusion_lat": 0.0, "lon": -77.01475166666667, "name": "f2ce59c37e47df479d51c1af14a6ed56"}, {"bike_id": "87d5c9ddaa7867f80dabfd353a4f6936", "type": "electric_scooter", "is_disabled": 0, "lat": 38.9066755, "rental_uris": {"ios": "https://dc.lft.to/lastmile_qr_scan", "android": "https://dc.lft.to/lastmile_qr_scan"}, "is_reserved": 0, "fusion_lon": 0.0, "fusion_lat": 0.0, "lon": -77.02697366666666, "name": "87d5c9ddaa7867f80dabfd353a4f6936"}, {"bike_id": "73de6685afe475ac2b1bcf475d0b435c", "type": "electric_scooter", "is_disabled": 0, "lat": 38.90365283333333, "rental_uris": {"ios": "https://dc.lft.to/lastmile_qr_scan", "android": "https://dc.lft.to/lastmile_qr_scan"}, "is_reserved": 0, "fusion_lon": 0.0, "fusion_lat": 0.0, "lon": -77.02917616666667, "name": "73de6685afe475ac2b1bcf475d0b435c"}, {"bike_id": "331777d6c604d63d48a5c531442ad34c", "type": "electric_scooter", "is_disabled": 0, "lat": 38.91875983333333, "rental_uris": {"ios": "https://dc.lft.to/lastmile_qr_scan", "android": "https://dc.lft.to/lastmile_qr_scan"}, "is_reserved": 0, "fusion_lon": 0.0, "fusion_lat": 0.0, "lon": -77.041955, "name": "331777d6c604d63d48a5c531442ad34c"}, {"bike_id": "d6a625f3c14a43bc141b239c83f6c6a4", "type": "electric_scooter", "is_disabled": 0, "lat": 38.88424666666667, "rental_uris": {"ios": "https://dc.lft.to/lastmile_qr_scan", "android": "https://dc.lft.to/lastmile_qr_scan"}, "is_reserved": 0, "fusion_lon": 0.0, "fusion_lat": 0.0, "lon": -76.95752916666666, "name": "d6a625f3c14a43bc141b239c83f6c6a4"}, {"bike_id": "b87be0434a0abf4ee8e852547435886c", "type": "electric_scooter", "is_disabled": 0, "lat": 38.907171, "rental_uris": {"ios": "https://dc.lft.to/lastmile_qr_scan", "android": "https://dc.lft.to/lastmile_qr_scan"}, "is_reserved": 0, "fusion_lon": 0.0, "fusion_lat": 0.0, "lon": -77.014712, "name": "b87be0434a0abf4ee8e852547435886c"}, {"bike_id": "181cc1d17d49eab41a185872da44c6cb", "type": "electric_scooter", "is_disabled": 0, "lat": 38.9054215, "rental_uris": {"ios": "https://dc.lft.to/lastmile_qr_scan", "android": "https://dc.lft.to/lastmile_qr_scan"}, "is_reserved": 0, "fusion_lon": 0.0, "fusion_lat": 0.0, "lon": -77.04960333333334, "name": "181cc1d17d49eab41a185872da44c6cb"}, {"bike_id": "1616d2d5f581d1d7a3b5238871d79b98", "type": "electric_bike", "is_disabled": 0, "lat": 38.934522, "rental_uris": {"ios": "https://dc.lft.to/lastmile_qr_scan", "android": "https://dc.lft.to/lastmile_qr_scan"}, "is_reserved": 0, "fusion_lon": 0.0, "fusion_lat": 0.0, "lon": -77.02717016666666, "name": "1616d2d5f581d1d7a3b5238871d79b98"}, {"bike_id": "c0717e206a3b68fd0e8b9e8e40d9ab82", "type": "electric_scooter", "is_disabled": 0, "lat": 38.93036416666666, "rental_uris": {"ios": "https://dc.lft.to/lastmile_qr_scan", "android": "https://dc.lft.to/lastmile_qr_scan"}, "is_reserved": 0, "fusion_lon": 0.0, "fusion_lat": 0.0, "lon": -77.01825, "name": "c0717e206a3b68fd0e8b9e8e40d9ab82"}, {"bike_id": "cd42fa71bef33d0ba3cd2e03610fc6b2", "type": "electric_scooter", "is_disabled": 0, "lat": 38.917404166666664, "rental_uris": {"ios": "https://dc.lft.to/lastmile_qr_scan", "android": "https://dc.lft.to/lastmile_qr_scan"}, "is_reserved": 0, "fusion_lon": 0.0, "fusion_lat": 0.0, "lon": -77.03652616666666, "name": "cd42fa71bef33d0ba3cd2e03610fc6b2"}, {"bike_id": "6c49808e393718f66a32159f8a67ea84", "type": "electric_scooter", "is_disabled": 0, "lat": 38.897023833333336, "rental_uris": {"ios": "https://dc.lft.to/lastmile_qr_scan", "android": "https://dc.lft.to/lastmile_qr_scan"}, "is_reserved": 0, "fusion_lon": 0.0, "fusion_lat": 0.0, "lon": -76.93000366666666, "name": "6c49808e393718f66a32159f8a67ea84"}, {"bike_id": "261e2564d7db916d99614cc9fb6f50be", "type": "electric_scooter", "is_disabled": 0, "lat": 38.901497, "rental_uris": {"ios": "https://dc.lft.to/lastmile_qr_scan", "android": "https://dc.lft.to/lastmile_qr_scan"}, "is_reserved": 0, "fusion_lon": 0.0, "fusion_lat": 0.0, "lon": -76.9901625, "name": "261e2564d7db916d99614cc9fb6f50be"}, {"bike_id": "94a2955c1e86371c756ef99e06cd2b4b", "type": "electric_scooter", "is_disabled": 0, "lat": 38.88217266666667, "rental_uris": {"ios": "https://dc.lft.to/lastmile_qr_scan", "android": "https://dc.lft.to/lastmile_qr_scan"}, "is_reserved": 0, "fusion_lon": 0.0, "fusion_lat": 0.0, "lon": -77.02909066666666, "name": "94a2955c1e86371c756ef99e06cd2b4b"}, {"bike_id": "c37b61e002242f0c8994a080f88c85b4", "type": "electric_scooter", "is_disabled": 0, "lat": 38.906312166666666, "rental_uris": {"ios": "https://dc.lft.to/lastmile_qr_scan", "android": "https://dc.lft.to/lastmile_qr_scan"}, "is_reserved": 0, "fusion_lon": 0.0, "fusion_lat": 0.0, "lon": -77.04177016666667, "name": "c37b61e002242f0c8994a080f88c85b4"}, {"bike_id": "c7d9204f0ae24e294a00fe398694747e", "type": "electric_scooter", "is_disabled": 0, "lat": 38.9071465, "rental_uris": {"ios": "https://dc.lft.to/lastmile_qr_scan", "android": "https://dc.lft.to/lastmile_qr_scan"}, "is_reserved": 0, "fusion_lon": 0.0, "fusion_lat": 0.0, "lon": -77.0402055, "name": "c7d9204f0ae24e294a00fe398694747e"}, {"bike_id": "8e36eefb817141c6aa7b36efa1cf2c43", "type": "electric_scooter", "is_disabled": 0, "lat": 38.91582783333333, "rental_uris": {"ios": "https://dc.lft.to/lastmile_qr_scan", "android": "https://dc.lft.to/lastmile_qr_scan"}, "is_reserved": 0, "fusion_lon": 0.0, "fusion_lat": 0.0, "lon": -77.02310066666666, "name": "8e36eefb817141c6aa7b36efa1cf2c43"}, {"bike_id": "57f4f24e53cb87faf77427fc15fe8e42", "type": "electric_scooter", "is_disabled": 0, "lat": 38.90883183333333, "rental_uris": {"ios": "https://dc.lft.to/lastmile_qr_scan", "android": "https://dc.lft.to/lastmile_qr_scan"}, "is_reserved": 0, "fusion_lon": 0.0, "fusion_lat": 0.0, "lon": -77.00256533333334, "name": "57f4f24e53cb87faf77427fc15fe8e42"}, {"bike_id": "23e552f7a59fdc841256afffbac01d66", "type": "electric_bike", "is_disabled": 0, "lat": 38.865154833333335, "rental_uris": {"ios": "https://dc.lft.to/lastmile_qr_scan", "android": "https://dc.lft.to/lastmile_qr_scan"}, "is_reserved": 0, "fusion_lon": 0.0, "fusion_lat": 0.0, "lon": -77.12936966666666, "name": "23e552f7a59fdc841256afffbac01d66"}, {"bike_id": "a3f3f8c06a788aee640d9413556ec904", "type": "electric_scooter", "is_disabled": 0, "lat": 38.9019255, "rental_uris": {"ios": "https://dc.lft.to/lastmile_qr_scan", "android": "https://dc.lft.to/lastmile_qr_scan"}, "is_reserved": 0, "fusion_lon": 0.0, "fusion_lat": 0.0, "lon": -76.996815, "name": "a3f3f8c06a788aee640d9413556ec904"}, {"bike_id": "eb89c0f02187869482549959a8e03a96", "type": "electric_scooter", "is_disabled": 0, "lat": 38.884290666666665, "rental_uris": {"ios": "https://dc.lft.to/lastmile_qr_scan", "android": "https://dc.lft.to/lastmile_qr_scan"}, "is_reserved": 0, "fusion_lon": 0.0, "fusion_lat": 0.0, "lon": -76.95755433333333, "name": "eb89c0f02187869482549959a8e03a96"}, {"bike_id": "dccebf40a525b90860963dcc08d40490", "type": "electric_scooter", "is_disabled": 0, "lat": 38.895423, "rental_uris": {"ios": "https://dc.lft.to/lastmile_qr_scan", "android": "https://dc.lft.to/lastmile_qr_scan"}, "is_reserved": 0, "fusion_lon": 0.0, "fusion_lat": 0.0, "lon": -76.94936666666666, "name": "dccebf40a525b90860963dcc08d40490"}, {"bike_id": "c795b49174e1aa1f58b346d8b28f7e3e", "type": "electric_scooter", "is_disabled": 0, "lat": 38.92456283333333, "rental_uris": {"ios": "https://dc.lft.to/lastmile_qr_scan", "android": "https://dc.lft.to/lastmile_qr_scan"}, "is_reserved": 0, "fusion_lon": 0.0, "fusion_lat": 0.0, "lon": -77.03269716666667, "name": "c795b49174e1aa1f58b346d8b28f7e3e"}, {"bike_id": "9724c81b2d629ff3d49a1c211f5a2711", "type": "electric_scooter", "is_disabled": 0, "lat": 38.9228465, "rental_uris": {"ios": "https://dc.lft.to/lastmile_qr_scan", "android": "https://dc.lft.to/lastmile_qr_scan"}, "is_reserved": 0, "fusion_lon": 0.0, "fusion_lat": 0.0, "lon": -77.02246416666667, "name": "9724c81b2d629ff3d49a1c211f5a2711"}, {"bike_id": "9e7c73be1d49ef3b0e28ccad01e74b83", "type": "electric_scooter", "is_disabled": 0, "lat": 38.92317766666667, "rental_uris": {"ios": "https://dc.lft.to/lastmile_qr_scan", "android": "https://dc.lft.to/lastmile_qr_scan"}, "is_reserved": 0, "fusion_lon": 0.0, "fusion_lat": 0.0, "lon": -77.04213666666666, "name": "9e7c73be1d49ef3b0e28ccad01e74b83"}, {"bike_id": "2c202fa6e0ca791fe2cfc6b5494de234", "type": "electric_scooter", "is_disabled": 0, "lat": 38.923482666666665, "rental_uris": {"ios": "https://dc.lft.to/lastmile_qr_scan", "android": "https://dc.lft.to/lastmile_qr_scan"}, "is_reserved": 0, "fusion_lon": 0.0, "fusion_lat": 0.0, "lon": -77.039128, "name": "2c202fa6e0ca791fe2cfc6b5494de234"}, {"bike_id": "1fe25a5e4e8f36b8729b362987711a9e", "type": "electric_scooter", "is_disabled": 0, "lat": 38.90700483333333, "rental_uris": {"ios": "https://dc.lft.to/lastmile_qr_scan", "android": "https://dc.lft.to/lastmile_qr_scan"}, "is_reserved": 0, "fusion_lon": 0.0, "fusion_lat": 0.0, "lon": -77.03831466666666, "name": "1fe25a5e4e8f36b8729b362987711a9e"}, {"bike_id": "6e2a5ef72cd9409c9e85f3bdcbb9f7f7", "type": "electric_scooter", "is_disabled": 0, "lat": 38.905936833333335, "rental_uris": {"ios": "https://dc.lft.to/lastmile_qr_scan", "android": "https://dc.lft.to/lastmile_qr_scan"}, "is_reserved": 0, "fusion_lon": 0.0, "fusion_lat": 0.0, "lon": -77.00592233333333, "name": "6e2a5ef72cd9409c9e85f3bdcbb9f7f7"}, {"bike_id": "52e04198582b0a8082c661402d6c3db9", "type": "electric_scooter", "is_disabled": 0, "lat": 38.901461166666664, "rental_uris": {"ios": "https://dc.lft.to/lastmile_qr_scan", "android": "https://dc.lft.to/lastmile_qr_scan"}, "is_reserved": 0, "fusion_lon": 0.0, "fusion_lat": 0.0, "lon": -77.0064725, "name": "52e04198582b0a8082c661402d6c3db9"}, {"bike_id": "33e358d9b3b9153aba5e850875cdd6d6", "type": "electric_scooter", "is_disabled": 0, "lat": 38.86209233333334, "rental_uris": {"ios": "https://dc.lft.to/lastmile_qr_scan", "android": "https://dc.lft.to/lastmile_qr_scan"}, "is_reserved": 0, "fusion_lon": 0.0, "fusion_lat": 0.0, "lon": -76.99471033333333, "name": "33e358d9b3b9153aba5e850875cdd6d6"}, {"bike_id": "e096d340a181cf87d22fe77d71967b43", "type": "electric_bike", "is_disabled": 0, "lat": 38.94364983333333, "rental_uris": {"ios": "https://dc.lft.to/lastmile_qr_scan", "android": "https://dc.lft.to/lastmile_qr_scan"}, "is_reserved": 0, "fusion_lon": 0.0, "fusion_lat": 0.0, "lon": -76.96780116666666, "name": "e096d340a181cf87d22fe77d71967b43"}, {"bike_id": "a238ab3ccc897b6840475689f57fe43f", "type": "electric_scooter", "is_disabled": 0, "lat": 38.844351833333334, "rental_uris": {"ios": "https://dc.lft.to/lastmile_qr_scan", "android": "https://dc.lft.to/lastmile_qr_scan"}, "is_reserved": 0, "fusion_lon": 0.0, "fusion_lat": 0.0, "lon": -76.9987165, "name": "a238ab3ccc897b6840475689f57fe43f"}, {"bike_id": "703fdfc1b50ff7be3fbc1a5fb1acc32d", "type": "electric_scooter", "is_disabled": 0, "lat": 38.9137155, "rental_uris": {"ios": "https://dc.lft.to/lastmile_qr_scan", "android": "https://dc.lft.to/lastmile_qr_scan"}, "is_reserved": 0, "fusion_lon": 0.0, "fusion_lat": 0.0, "lon": -77.03017566666666, "name": "703fdfc1b50ff7be3fbc1a5fb1acc32d"}, {"bike_id": "35f7c39c60ac5b4993d5176a629f94fe", "type": "electric_scooter", "is_disabled": 0, "lat": 38.9054095, "rental_uris": {"ios": "https://dc.lft.to/lastmile_qr_scan", "android": "https://dc.lft.to/lastmile_qr_scan"}, "is_reserved": 0, "fusion_lon": 0.0, "fusion_lat": 0.0, "lon": -77.02206516666666, "name": "35f7c39c60ac5b4993d5176a629f94fe"}, {"bike_id": "2ee893ddd361252375070f154a404e0f", "type": "electric_scooter", "is_disabled": 0, "lat": 38.90026266666667, "rental_uris": {"ios": "https://dc.lft.to/lastmile_qr_scan", "android": "https://dc.lft.to/lastmile_qr_scan"}, "is_reserved": 0, "fusion_lon": 0.0, "fusion_lat": 0.0, "lon": -77.00696766666667, "name": "2ee893ddd361252375070f154a404e0f"}, {"bike_id": "59f808012a29ecba79c2f44c71f91652", "type": "electric_scooter", "is_disabled": 0, "lat": 38.912707, "rental_uris": {"ios": "https://dc.lft.to/lastmile_qr_scan", "android": "https://dc.lft.to/lastmile_qr_scan"}, "is_reserved": 0, "fusion_lon": 0.0, "fusion_lat": 0.0, "lon": -77.03021883333334, "name": "59f808012a29ecba79c2f44c71f91652"}, {"bike_id": "251b0883f859ed538aba7bc372a06766", "type": "electric_scooter", "is_disabled": 0, "lat": 38.91523, "rental_uris": {"ios": "https://dc.lft.to/lastmile_qr_scan", "android": "https://dc.lft.to/lastmile_qr_scan"}, "is_reserved": 0, "fusion_lon": 0.0, "fusion_lat": 0.0, "lon": -77.03847133333333, "name": "251b0883f859ed538aba7bc372a06766"}, {"bike_id": "eaf7d0dc6684f467d9930bc356374d19", "type": "electric_scooter", "is_disabled": 0, "lat": 38.88582983333333, "rental_uris": {"ios": "https://dc.lft.to/lastmile_qr_scan", "android": "https://dc.lft.to/lastmile_qr_scan"}, "is_reserved": 0, "fusion_lon": 0.0, "fusion_lat": 0.0, "lon": -77.0283965, "name": "eaf7d0dc6684f467d9930bc356374d19"}, {"bike_id": "13178edad1a272e0e67cef1b25540b71", "type": "electric_scooter", "is_disabled": 0, "lat": 38.900081666666665, "rental_uris": {"ios": "https://dc.lft.to/lastmile_qr_scan", "android": "https://dc.lft.to/lastmile_qr_scan"}, "is_reserved": 0, "fusion_lon": 0.0, "fusion_lat": 0.0, "lon": -76.98073516666666, "name": "13178edad1a272e0e67cef1b25540b71"}, {"bike_id": "b6483c59cfeff3b176be97a72da1f50e", "type": "electric_scooter", "is_disabled": 0, "lat": 38.914762333333336, "rental_uris": {"ios": "https://dc.lft.to/lastmile_qr_scan", "android": "https://dc.lft.to/lastmile_qr_scan"}, "is_reserved": 0, "fusion_lon": 0.0, "fusion_lat": 0.0, "lon": -76.98578483333333, "name": "b6483c59cfeff3b176be97a72da1f50e"}, {"bike_id": "1466d574cad1b3451cf2e3319ddbb769", "type": "electric_scooter", "is_disabled": 0, "lat": 38.8350785, "rental_uris": {"ios": "https://dc.lft.to/lastmile_qr_scan", "android": "https://dc.lft.to/lastmile_qr_scan"}, "is_reserved": 0, "fusion_lon": 0.0, "fusion_lat": 0.0, "lon": -77.00120016666666, "name": "1466d574cad1b3451cf2e3319ddbb769"}, {"bike_id": "8777231994a52577b21adbae9d2b10cf", "type": "electric_scooter", "is_disabled": 0, "lat": 38.92268883333333, "rental_uris": {"ios": "https://dc.lft.to/lastmile_qr_scan", "android": "https://dc.lft.to/lastmile_qr_scan"}, "is_reserved": 0, "fusion_lon": 0.0, "fusion_lat": 0.0, "lon": -77.03668316666666, "name": "8777231994a52577b21adbae9d2b10cf"}, {"bike_id": "6bb59b571f35ba895b3a74245b9b2bce", "type": "electric_scooter", "is_disabled": 0, "lat": 38.9215115, "rental_uris": {"ios": "https://dc.lft.to/lastmile_qr_scan", "android": "https://dc.lft.to/lastmile_qr_scan"}, "is_reserved": 0, "fusion_lon": 0.0, "fusion_lat": 0.0, "lon": -77.03319233333333, "name": "6bb59b571f35ba895b3a74245b9b2bce"}, {"bike_id": "24f4e4d59b2c04b86cefc602318a4da7", "type": "electric_scooter", "is_disabled": 0, "lat": 38.91396233333333, "rental_uris": {"ios": "https://dc.lft.to/lastmile_qr_scan", "android": "https://dc.lft.to/lastmile_qr_scan"}, "is_reserved": 0, "fusion_lon": 0.0, "fusion_lat": 0.0, "lon": -77.04284883333334, "name": "24f4e4d59b2c04b86cefc602318a4da7"}, {"bike_id": "6ebe3cd75a9270dc7276f275f5c2a166", "type": "electric_scooter", "is_disabled": 0, "lat": 38.887358, "rental_uris": {"ios": "https://dc.lft.to/lastmile_qr_scan", "android": "https://dc.lft.to/lastmile_qr_scan"}, "is_reserved": 0, "fusion_lon": 0.0, "fusion_lat": 0.0, "lon": -77.01396183333334, "name": "6ebe3cd75a9270dc7276f275f5c2a166"}, {"bike_id": "37fa5369469d428651242a45a531a6a5", "type": "electric_scooter", "is_disabled": 0, "lat": 38.9169095, "rental_uris": {"ios": "https://dc.lft.to/lastmile_qr_scan", "android": "https://dc.lft.to/lastmile_qr_scan"}, "is_reserved": 0, "fusion_lon": 0.0, "fusion_lat": 0.0, "lon": -77.03211266666666, "name": "37fa5369469d428651242a45a531a6a5"}, {"bike_id": "fe8d8fcc5c8dcb5799879a49472f87be", "type": "electric_scooter", "is_disabled": 0, "lat": 38.88831483333333, "rental_uris": {"ios": "https://dc.lft.to/lastmile_qr_scan", "android": "https://dc.lft.to/lastmile_qr_scan"}, "is_reserved": 0, "fusion_lon": 0.0, "fusion_lat": 0.0, "lon": -77.04843766666667, "name": "fe8d8fcc5c8dcb5799879a49472f87be"}, {"bike_id": "b133853dcee605f2f5901aaa1656f31d", "type": "electric_scooter", "is_disabled": 0, "lat": 38.908458333333336, "rental_uris": {"ios": "https://dc.lft.to/lastmile_qr_scan", "android": "https://dc.lft.to/lastmile_qr_scan"}, "is_reserved": 0, "fusion_lon": 0.0, "fusion_lat": 0.0, "lon": -77.02230733333333, "name": "b133853dcee605f2f5901aaa1656f31d"}, {"bike_id": "100511076f15f09fb4a1700a91b35e36", "type": "electric_scooter", "is_disabled": 0, "lat": 38.928932333333336, "rental_uris": {"ios": "https://dc.lft.to/lastmile_qr_scan", "android": "https://dc.lft.to/lastmile_qr_scan"}, "is_reserved": 0, "fusion_lon": 0.0, "fusion_lat": 0.0, "lon": -77.03280483333333, "name": "100511076f15f09fb4a1700a91b35e36"}, {"bike_id": "b8b6d04fffab88cdb9c2bb3ecead9444", "type": "electric_bike", "is_disabled": 0, "lat": 38.930403166666665, "rental_uris": {"ios": "https://dc.lft.to/lastmile_qr_scan", "android": "https://dc.lft.to/lastmile_qr_scan"}, "is_reserved": 0, "fusion_lon": 0.0, "fusion_lat": 0.0, "lon": -77.07353366666666, "name": "b8b6d04fffab88cdb9c2bb3ecead9444"}, {"bike_id": "aa8ead64aa3196b8591e6131f703072d", "type": "electric_scooter", "is_disabled": 0, "lat": 38.866270666666665, "rental_uris": {"ios": "https://dc.lft.to/lastmile_qr_scan", "android": "https://dc.lft.to/lastmile_qr_scan"}, "is_reserved": 0, "fusion_lon": 0.0, "fusion_lat": 0.0, "lon": -76.98716616666667, "name": "aa8ead64aa3196b8591e6131f703072d"}, {"bike_id": "6b087e67862435ccfed25a14161c5c06", "type": "electric_scooter", "is_disabled": 0, "lat": 38.920457999999996, "rental_uris": {"ios": "https://dc.lft.to/lastmile_qr_scan", "android": "https://dc.lft.to/lastmile_qr_scan"}, "is_reserved": 0, "fusion_lon": 0.0, "fusion_lat": 0.0, "lon": -77.0718045, "name": "6b087e67862435ccfed25a14161c5c06"}, {"bike_id": "36a43dd633b3690568d637b18af5b57c", "type": "electric_scooter", "is_disabled": 0, "lat": 38.899649, "rental_uris": {"ios": "https://dc.lft.to/lastmile_qr_scan", "android": "https://dc.lft.to/lastmile_qr_scan"}, "is_reserved": 0, "fusion_lon": 0.0, "fusion_lat": 0.0, "lon": -76.926291, "name": "36a43dd633b3690568d637b18af5b57c"}, {"bike_id": "158914caa22a643ec7beab23a4d311fe", "type": "electric_scooter", "is_disabled": 0, "lat": 38.93299283333333, "rental_uris": {"ios": "https://dc.lft.to/lastmile_qr_scan", "android": "https://dc.lft.to/lastmile_qr_scan"}, "is_reserved": 0, "fusion_lon": 0.0, "fusion_lat": 0.0, "lon": -77.0327345, "name": "158914caa22a643ec7beab23a4d311fe"}, {"bike_id": "aecbca26ba3829289dbfcec26eca7c54", "type": "electric_scooter", "is_disabled": 0, "lat": 38.904883166666664, "rental_uris": {"ios": "https://dc.lft.to/lastmile_qr_scan", "android": "https://dc.lft.to/lastmile_qr_scan"}, "is_reserved": 0, "fusion_lon": 0.0, "fusion_lat": 0.0, "lon": -77.06789033333334, "name": "aecbca26ba3829289dbfcec26eca7c54"}, {"bike_id": "fdfebafebc2248085a7eb249d4ad5eb4", "type": "electric_scooter", "is_disabled": 0, "lat": 38.92481466666667, "rental_uris": {"ios": "https://dc.lft.to/lastmile_qr_scan", "android": "https://dc.lft.to/lastmile_qr_scan"}, "is_reserved": 0, "fusion_lon": 0.0, "fusion_lat": 0.0, "lon": -77.05757283333334, "name": "fdfebafebc2248085a7eb249d4ad5eb4"}, {"bike_id": "0a1ffa7f193d9340f3570b1653b12cbd", "type": "electric_bike", "is_disabled": 0, "lat": 39.043167, "rental_uris": {"ios": "https://dc.lft.to/lastmile_qr_scan", "android": "https://dc.lft.to/lastmile_qr_scan"}, "is_reserved": 0, "fusion_lon": 0.0, "fusion_lat": 0.0, "lon": -77.0516345, "name": "0a1ffa7f193d9340f3570b1653b12cbd"}, {"bike_id": "b3c29eef9415aef55926fa6a64862df2", "type": "electric_scooter", "is_disabled": 0, "lat": 38.913974, "rental_uris": {"ios": "https://dc.lft.to/lastmile_qr_scan", "android": "https://dc.lft.to/lastmile_qr_scan"}, "is_reserved": 0, "fusion_lon": 0.0, "fusion_lat": 0.0, "lon": -77.031749, "name": "b3c29eef9415aef55926fa6a64862df2"}, {"bike_id": "e816687e6a67c5202c48f828c6647747", "type": "electric_scooter", "is_disabled": 0, "lat": 38.89358716666667, "rental_uris": {"ios": "https://dc.lft.to/lastmile_qr_scan", "android": "https://dc.lft.to/lastmile_qr_scan"}, "is_reserved": 0, "fusion_lon": 0.0, "fusion_lat": 0.0, "lon": -76.949358, "name": "e816687e6a67c5202c48f828c6647747"}, {"bike_id": "f04d94319f2256517bc832c2887d72f1", "type": "electric_scooter", "is_disabled": 0, "lat": 38.91563516666667, "rental_uris": {"ios": "https://dc.lft.to/lastmile_qr_scan", "android": "https://dc.lft.to/lastmile_qr_scan"}, "is_reserved": 0, "fusion_lon": 0.0, "fusion_lat": 0.0, "lon": -77.0500545, "name": "f04d94319f2256517bc832c2887d72f1"}, {"bike_id": "82c70f015e3df812da03d6c973fc5a5d", "type": "electric_scooter", "is_disabled": 0, "lat": 38.9036295, "rental_uris": {"ios": "https://dc.lft.to/lastmile_qr_scan", "android": "https://dc.lft.to/lastmile_qr_scan"}, "is_reserved": 0, "fusion_lon": 0.0, "fusion_lat": 0.0, "lon": -76.99947916666666, "name": "82c70f015e3df812da03d6c973fc5a5d"}, {"bike_id": "0728609ad63a26a258747db6d8bbe4bb", "type": "electric_scooter", "is_disabled": 0, "lat": 38.92795683333333, "rental_uris": {"ios": "https://dc.lft.to/lastmile_qr_scan", "android": "https://dc.lft.to/lastmile_qr_scan"}, "is_reserved": 0, "fusion_lon": 0.0, "fusion_lat": 0.0, "lon": -77.03206216666666, "name": "0728609ad63a26a258747db6d8bbe4bb"}, {"bike_id": "806fa5e538d58c9741bf13581ceb3009", "type": "electric_scooter", "is_disabled": 0, "lat": 38.9155815, "rental_uris": {"ios": "https://dc.lft.to/lastmile_qr_scan", "android": "https://dc.lft.to/lastmile_qr_scan"}, "is_reserved": 0, "fusion_lon": 0.0, "fusion_lat": 0.0, "lon": -77.032436, "name": "806fa5e538d58c9741bf13581ceb3009"}, {"bike_id": "c7c49314d8e6b022fc60fe82f7b1ec7a", "type": "electric_scooter", "is_disabled": 0, "lat": 38.91811116666667, "rental_uris": {"ios": "https://dc.lft.to/lastmile_qr_scan", "android": "https://dc.lft.to/lastmile_qr_scan"}, "is_reserved": 0, "fusion_lon": 0.0, "fusion_lat": 0.0, "lon": -77.0248045, "name": "c7c49314d8e6b022fc60fe82f7b1ec7a"}, {"bike_id": "ad985dc971c4132776229ccced54a3be", "type": "electric_bike", "is_disabled": 0, "lat": 38.82373966666667, "rental_uris": {"ios": "https://dc.lft.to/lastmile_qr_scan", "android": "https://dc.lft.to/lastmile_qr_scan"}, "is_reserved": 0, "fusion_lon": 0.0, "fusion_lat": 0.0, "lon": -77.0023095, "name": "ad985dc971c4132776229ccced54a3be"}, {"bike_id": "cc657f976d22000040dd6ca32b5cc896", "type": "electric_scooter", "is_disabled": 0, "lat": 38.922672666666664, "rental_uris": {"ios": "https://dc.lft.to/lastmile_qr_scan", "android": "https://dc.lft.to/lastmile_qr_scan"}, "is_reserved": 0, "fusion_lon": 0.0, "fusion_lat": 0.0, "lon": -77.04237866666666, "name": "cc657f976d22000040dd6ca32b5cc896"}, {"bike_id": "aa845f0867f088fb1b197377e365a5f9", "type": "electric_scooter", "is_disabled": 0, "lat": 38.871602833333334, "rental_uris": {"ios": "https://dc.lft.to/lastmile_qr_scan", "android": "https://dc.lft.to/lastmile_qr_scan"}, "is_reserved": 0, "fusion_lon": 0.0, "fusion_lat": 0.0, "lon": -77.01356616666666, "name": "aa845f0867f088fb1b197377e365a5f9"}, {"bike_id": "2ee45c38defa823db673a9a8de3a00a9", "type": "electric_scooter", "is_disabled": 0, "lat": 38.8885365, "rental_uris": {"ios": "https://dc.lft.to/lastmile_qr_scan", "android": "https://dc.lft.to/lastmile_qr_scan"}, "is_reserved": 0, "fusion_lon": 0.0, "fusion_lat": 0.0, "lon": -77.00050683333333, "name": "2ee45c38defa823db673a9a8de3a00a9"}, {"bike_id": "5064d1e5a8a4daf2faf52ab068991f3f", "type": "electric_scooter", "is_disabled": 0, "lat": 38.88929783333333, "rental_uris": {"ios": "https://dc.lft.to/lastmile_qr_scan", "android": "https://dc.lft.to/lastmile_qr_scan"}, "is_reserved": 0, "fusion_lon": 0.0, "fusion_lat": 0.0, "lon": -76.93580466666667, "name": "5064d1e5a8a4daf2faf52ab068991f3f"}, {"bike_id": "ca6cea714a712dfd05862f3ab340ac72", "type": "electric_scooter", "is_disabled": 0, "lat": 38.90208033333333, "rental_uris": {"ios": "https://dc.lft.to/lastmile_qr_scan", "android": "https://dc.lft.to/lastmile_qr_scan"}, "is_reserved": 0, "fusion_lon": 0.0, "fusion_lat": 0.0, "lon": -77.06131916666666, "name": "ca6cea714a712dfd05862f3ab340ac72"}, {"bike_id": "e43cb056f0c5c032b1a06c270a006832", "type": "electric_scooter", "is_disabled": 0, "lat": 38.9150815, "rental_uris": {"ios": "https://dc.lft.to/lastmile_qr_scan", "android": "https://dc.lft.to/lastmile_qr_scan"}, "is_reserved": 0, "fusion_lon": 0.0, "fusion_lat": 0.0, "lon": -77.021793, "name": "e43cb056f0c5c032b1a06c270a006832"}, {"bike_id": "c839a6027681811a56d416c5420f3951", "type": "electric_scooter", "is_disabled": 0, "lat": 38.909699333333336, "rental_uris": {"ios": "https://dc.lft.to/lastmile_qr_scan", "android": "https://dc.lft.to/lastmile_qr_scan"}, "is_reserved": 0, "fusion_lon": 0.0, "fusion_lat": 0.0, "lon": -77.0487595, "name": "c839a6027681811a56d416c5420f3951"}, {"bike_id": "020bab589d68c1b785331c03311822b3", "type": "electric_scooter", "is_disabled": 0, "lat": 38.90564333333333, "rental_uris": {"ios": "https://dc.lft.to/lastmile_qr_scan", "android": "https://dc.lft.to/lastmile_qr_scan"}, "is_reserved": 0, "fusion_lon": 0.0, "fusion_lat": 0.0, "lon": -77.03466216666666, "name": "020bab589d68c1b785331c03311822b3"}, {"bike_id": "4000e5319319dfc7ec4d43ec217155ea", "type": "electric_scooter", "is_disabled": 0, "lat": 38.90346, "rental_uris": {"ios": "https://dc.lft.to/lastmile_qr_scan", "android": "https://dc.lft.to/lastmile_qr_scan"}, "is_reserved": 0, "fusion_lon": 0.0, "fusion_lat": 0.0, "lon": -77.04322916666666, "name": "4000e5319319dfc7ec4d43ec217155ea"}, {"bike_id": "bc174607a5367a5d210ca254b787a938", "type": "electric_scooter", "is_disabled": 0, "lat": 38.84637216666667, "rental_uris": {"ios": "https://dc.lft.to/lastmile_qr_scan", "android": "https://dc.lft.to/lastmile_qr_scan"}, "is_reserved": 0, "fusion_lon": 0.0, "fusion_lat": 0.0, "lon": -76.99133433333333, "name": "bc174607a5367a5d210ca254b787a938"}, {"bike_id": "78c336bd3ec73eae5550a7dbef2516f8", "type": "electric_scooter", "is_disabled": 0, "lat": 38.93286833333333, "rental_uris": {"ios": "https://dc.lft.to/lastmile_qr_scan", "android": "https://dc.lft.to/lastmile_qr_scan"}, "is_reserved": 0, "fusion_lon": 0.0, "fusion_lat": 0.0, "lon": -77.03550983333334, "name": "78c336bd3ec73eae5550a7dbef2516f8"}, {"bike_id": "8aaf97c7640b5d09c52960d8de179827", "type": "electric_scooter", "is_disabled": 0, "lat": 38.908448, "rental_uris": {"ios": "https://dc.lft.to/lastmile_qr_scan", "android": "https://dc.lft.to/lastmile_qr_scan"}, "is_reserved": 0, "fusion_lon": 0.0, "fusion_lat": 0.0, "lon": -77.0218675, "name": "8aaf97c7640b5d09c52960d8de179827"}, {"bike_id": "4224d945c664c1a087289643709ce500", "type": "electric_bike", "is_disabled": 0, "lat": 39.0549295, "rental_uris": {"ios": "https://dc.lft.to/lastmile_qr_scan", "android": "https://dc.lft.to/lastmile_qr_scan"}, "is_reserved": 0, "fusion_lon": 0.0, "fusion_lat": 0.0, "lon": -77.11788616666666, "name": "4224d945c664c1a087289643709ce500"}, {"bike_id": "3caf59181d5571687d98ef103bc3da58", "type": "electric_scooter", "is_disabled": 0, "lat": 38.886406666666666, "rental_uris": {"ios": "https://dc.lft.to/lastmile_qr_scan", "android": "https://dc.lft.to/lastmile_qr_scan"}, "is_reserved": 0, "fusion_lon": 0.0, "fusion_lat": 0.0, "lon": -77.000011, "name": "3caf59181d5571687d98ef103bc3da58"}, {"bike_id": "825d027da7d6d0c9f80af52e7556ed60", "type": "electric_bike", "is_disabled": 0, "lat": 38.908275333333336, "rental_uris": {"ios": "https://dc.lft.to/lastmile_qr_scan", "android": "https://dc.lft.to/lastmile_qr_scan"}, "is_reserved": 0, "fusion_lon": 0.0, "fusion_lat": 0.0, "lon": -76.94155583333334, "name": "825d027da7d6d0c9f80af52e7556ed60"}, {"bike_id": "7d86414115b9e7b404374e93d810dcfa", "type": "electric_scooter", "is_disabled": 0, "lat": 38.90536083333333, "rental_uris": {"ios": "https://dc.lft.to/lastmile_qr_scan", "android": "https://dc.lft.to/lastmile_qr_scan"}, "is_reserved": 0, "fusion_lon": 0.0, "fusion_lat": 0.0, "lon": -77.06892016666667, "name": "7d86414115b9e7b404374e93d810dcfa"}, {"bike_id": "c8d703eb79b133a79a62be5d4809f7b7", "type": "electric_bike", "is_disabled": 0, "lat": 39.037443833333334, "rental_uris": {"ios": "https://dc.lft.to/lastmile_qr_scan", "android": "https://dc.lft.to/lastmile_qr_scan"}, "is_reserved": 0, "fusion_lon": 0.0, "fusion_lat": 0.0, "lon": -77.0547635, "name": "c8d703eb79b133a79a62be5d4809f7b7"},