{"data": {"bikes": [{"rental_uris": {"ios": "https://dc.lft.to/lastmile_qr_scan", "android": "https://dc.lft.to/lastmile_qr_scan"}, "type": "electric_scooter", "name": "1bc285d573886b90c782a18a6aa8dbed", "is_reserved": 0, "lon": -77.02962433333333, "is_disabled": 0, "fusion_lat": 0.0, "lat": 38.92383616666667, "bike_id": "1bc285d573886b90c782a18a6aa8dbed", "fusion_lon": 0.0}, {"rental_uris": {"ios": "https://dc.lft.to/lastmile_qr_scan", "android": "https://dc.lft.to/lastmile_qr_scan"}, "type": "electric_scooter", "name": "d52efed4dfb162671231ca40f8cf8abd", "is_reserved": 0, "lon": -77.0395825, "is_disabled": 0, "fusion_lat": 0.0, "lat": 38.89248083333333, "bike_id": "d52efed4dfb162671231ca40f8cf8abd", "fusion_lon": 0.0}, {"rental_uris": {"ios": "https://dc.lft.to/lastmile_qr_scan", "android": "https://dc.lft.to/lastmile_qr_scan"}, "type": "electric_scooter", "name": "023bc4c42c0b1026cba27c09685524d9", "is_reserved": 0, "lon": -77.0347325, "is_disabled": 0, "fusion_lat": 0.0, "lat": 38.9302545, "bike_id": "023bc4c42c0b1026cba27c09685524d9", "fusion_lon": 0.0}, {"rental_uris": {"ios": "https://dc.lft.to/lastmile_qr_scan", "android": "https://dc.lft.to/lastmile_qr_scan"}, "type": "electric_scooter", "name": "42e259db730d684a737f65a4e7eae6c2", "is_reserved": 0, "lon": -77.03462116666667, "is_disabled": 0, "fusion_lat": 0.0, "lat": 38.90725966666667, "bike_id": "42e259db730d684a737f65a4e7eae6c2", "fusion_lon": 0.0}, {"rental_uris": {"ios": "https://dc.lft.to/lastmile_qr_scan", "android": "https://dc.lft.to/lastmile_qr_scan"}, "type": "electric_scooter", "name": "d8bc195a6f071234898826a11dc5bb1c", "is_reserved": 0, "lon": -77.04742283333333, "is_disabled": 0, "fusion_lat": 0.0, "lat": 38.91259083333333, "bike_id": "d8bc195a6f071234898826a11dc5bb1c", "fusion_lon": 0.0}, {"rental_uris": {"ios": "https://dc.lft.to/lastmile_qr_scan", "android": "https://dc.lft.to/lastmile_qr_scan"}, "type": "electric_scooter", "name": "f5874884772c617dcb4c0742c8db5915", "is_reserved": 0, "lon": -76.98607533333333, "is_disabled": 0, "fusion_lat": 0.0, "lat": 38.878393, "bike_id": "f5874884772c617dcb4c0742c8db5915", "fusion_lon": 0.0}, {"rental_uris": {"ios": "https://dc.lft.to/lastmile_qr_scan", "android": "https://dc.lft.to/lastmile_qr_scan"}, "type": "electric_scooter", "name": "31bcd536705f8b025dbca7efd8df4108", "is_reserved": 0, "lon": -77.01952583333333, "is_disabled": 0, "fusion_lat": 0.0, "lat": 38.87642866666667, "bike_id": "31bcd536705f8b025dbca7efd8df4108", "fusion_lon": 0.0}, {"rental_uris": {"ios": "https://dc.lft.to/lastmile_qr_scan", "android": "https://dc.lft.to/lastmile_qr_scan"}, "type": "electric_scooter", "name": "ccd88280873e8382003cb8e3dee813a6", "is_reserved": 0, "lon": -77.0087645, "is_disabled": 0, "fusion_lat": 0.0, "lat": 38.912512, "bike_id": "ccd88280873e8382003cb8e3dee813a6", "fusion_lon": 0.0}, {"rental_uris": {"ios": "https://dc.lft.to/lastmile_qr_scan", "android": "https://dc.lft.to/lastmile_qr_scan"}, "type": "electric_scooter", "name": "3d047b042f386dcc71662383595a8b0a", "is_reserved": 0, "lon": -77.024556, "is_disabled": 0, "fusion_lat": 0.0, "lat": 38.925085333333335, "bike_id": "3d047b042f386dcc71662383595a8b0a", "fusion_lon": 0.0}, {"rental_uris": {"ios": "https://dc.lft.to/lastmile_qr_scan", "android": "https://dc.lft.to/lastmile_qr_scan"}, "type": "electric_scooter", "name": "4ffb6caed7a59005d8287eb8d61201e3", "is_reserved": 0, "lon": -76.99412083333333, "is_disabled": 0, "fusion_lat": 0.0, "lat": 38.877892, "bike_id": "4ffb6caed7a59005d8287eb8d61201e3", "fusion_lon": 0.0}, {"rental_uris": {"ios": "https://dc.lft.to/lastmile_qr_scan", "android": "https://dc.lft.to/lastmile_qr_scan"}, "type": "electric_scooter", "name": "093623dcdfac81a0584ceee1776da4f7", "is_reserved": 0, "lon": -77.00936116666666, "is_disabled": 0, "fusion_lat": 0.0, "lat": 38.876729166666664, "bike_id": "093623dcdfac81a0584ceee1776da4f7", "fusion_lon": 0.0}, {"rental_uris": {"ios": "https://dc.lft.to/lastmile_qr_scan", "android": "https://dc.lft.to/lastmile_qr_scan"}, "type": "electric_scooter", "name": "65bcb2945b8d1719df7b7121d1d08809", "is_reserved": 0, "lon": -77.02058066666666, "is_disabled": 0, "fusion_lat": 0.0, "lat": 38.922456333333336, "bike_id": "65bcb2945b8d1719df7b7121d1d08809", "fusion_lon": 0.0}, {"rental_uris": {"ios": "https://dc.lft.to/lastmile_qr_scan", "android": "https://dc.lft.to/lastmile_qr_scan"}, "type": "electric_scooter", "name": "ea268d27cf14270b715828f18c1df8f9", "is_reserved": 0, "lon": -76.98400116666667, "is_disabled": 0, "fusion_lat": 0.0, "lat": 38.92519716666666, "bike_id": "ea268d27cf14270b715828f18c1df8f9", "fusion_lon": 0.0}, {"rental_uris": {"ios": "https://dc.lft.to/lastmile_qr_scan", "android": "https://dc.lft.to/lastmile_qr_scan"}, "type": "electric_bike", "name": "30ba97520565ff4eb0ce85f7dedf7213", "is_reserved": 0, "lon": -76.889747, "is_disabled": 0, "fusion_lat": 0.0, "lat": 39.00772116666667, "bike_id": "30ba97520565ff4eb0ce85f7dedf7213", "fusion_lon": 0.0}, {"rental_uris": {"ios": "https://dc.lft.to/lastmile_qr_scan", "android": "https://dc.lft.to/lastmile_qr_scan"}, "type": "electric_scooter", "name": "c03336ead600f279359c3172258c77c2", "is_reserved": 0, "lon": -77.00989633333333, "is_disabled": 0, "fusion_lat": 0.0, "lat": 38.92028916666667, "bike_id": "c03336ead600f279359c3172258c77c2", "fusion_lon": 0.0}, {"rental_uris": {"ios": "https://dc.lft.to/lastmile_qr_scan", "android": "https://dc.lft.to/lastmile_qr_scan"}, "type": "electric_bike", "name": "8c5c415e418597971740f75ccf0b5362", "is_reserved": 0, "lon": -76.97308933333333, "is_disabled": 0, "fusion_lat": 0.0, "lat": 38.86535, "bike_id": "8c5c415e418597971740f75ccf0b5362", "fusion_lon": 0.0}, {"rental_uris": {"ios": "https://dc.lft.to/lastmile_qr_scan", "android": "https://dc.lft.to/lastmile_qr_scan"}, "type": "electric_scooter", "name": "256e5bf0f93342e5b936b5b4fda3bb85", "is_reserved": 0, "lon": -77.0092325, "is_disabled": 0, "fusion_lat": 0.0, "lat": 38.907631, "bike_id": "256e5bf0f93342e5b936b5b4fda3bb85", "fusion_lon": 0.0}, {"rental_uris": {"ios": "https://dc.lft.to/lastmile_qr_scan", "android": "https://dc.lft.to/lastmile_qr_scan"}, "type": "electric_scooter", "name": "1e9fba611c5e9283199c45c7869c8918", "is_reserved": 0, "lon": -77.03860583333334, "is_disabled": 0, "fusion_lat": 0.0, "lat": 38.91281083333333, "bike_id": "1e9fba611c5e9283199c45c7869c8918", "fusion_lon": 0.0}, {"rental_uris": {"ios": "https://dc.lft.to/lastmile_qr_scan", "android": "https://dc.lft.to/lastmile_qr_scan"}, "type": "electric_scooter", "name": "16ecc08581c93b0095a16e5928a6d441", "is_reserved": 0, "lon": -77.031807, "is_disabled": 0, "fusion_lat": 0.0, "lat": 38.892261833333336, "bike_id": "16ecc08581c93b0095a16e5928a6d441", "fusion_lon": 0.0}, {"rental_uris": {"ios": "https://dc.lft.to/lastmile_qr_scan", "android": "https://dc.lft.to/lastmile_qr_scan"}, "type": "electric_scooter", "name": "5ce44695f6cdc2521a129d49bf49279e", "is_reserved": 0, "lon": -77.07088083333333, "is_disabled": 0, "fusion_lat": 0.0, "lat": 38.919495833333336, "bike_id": "5ce44695f6cdc2521a129d49bf49279e", "fusion_lon": 0.0}, {"rental_uris": {"ios": "https://dc.lft.to/lastmile_qr_scan", "android": "https://dc.lft.to/lastmile_qr_scan"}, "type": "electric_bike", "name": "556a8bfd8072c3e0b8ed7624ba2346d7", "is_reserved": 0, "lon": -77.05088983333333, "is_disabled": 0, "fusion_lat": 0.0, "lat": 38.813335, "bike_id": "556a8bfd8072c3e0b8ed7624ba2346d7", "fusion_lon": 0.0}, {"rental_uris": {"ios": "https://dc.lft.to/lastmile_qr_scan", "android": "https://dc.lft.to/lastmile_qr_scan"}, "type": "electric_scooter", "name": "173fd72cc54fb14fc530a5b79b7d74b9", "is_reserved": 0, "lon": -77.002255, "is_disabled": 0, "fusion_lat": 0.0, "lat": 38.894539333333334, "bike_id": "173fd72cc54fb14fc530a5b79b7d74b9", "fusion_lon": 0.0}, {"rental_uris": {"ios": "https://dc.lft.to/lastmile_qr_scan", "android": "https://dc.lft.to/lastmile_qr_scan"}, "type": "electric_scooter", "name": "ae9f7d511522ea228c19f0da5d323b1d", "is_reserved": 0, "lon": -77.01490033333333, "is_disabled": 0, "fusion_lat": 0.0, "lat": 38.8874685, "bike_id": "ae9f7d511522ea228c19f0da5d323b1d", "fusion_lon": 0.0}, {"rental_uris": {"ios": "https://dc.lft.to/lastmile_qr_scan", "android": "https://dc.lft.to/lastmile_qr_scan"}, "type": "electric_scooter", "name": "6ae9cedb1aa110fe26be4be2a1b06096", "is_reserved": 0, "lon": -77.015803, "is_disabled": 0, "fusion_lat": 0.0, "lat": 38.916776666666664, "bike_id": "6ae9cedb1aa110fe26be4be2a1b06096", "fusion_lon": 0.0}, {"rental_uris": {"ios": "https://dc.lft.to/lastmile_qr_scan", "android": "https://dc.lft.to/lastmile_qr_scan"}, "type": "electric_scooter", "name": "570a9d5c3d5b92b8ac30ebb5cde27e92", "is_reserved": 0, "lon": -77.024901, "is_disabled": 0, "fusion_lat": 0.0, "lat": 38.92597633333333, "bike_id": "570a9d5c3d5b92b8ac30ebb5cde27e92", "fusion_lon": 0.0}, {"rental_uris": {"ios": "https://dc.lft.to/lastmile_qr_scan", "android": "https://dc.lft.to/lastmile_qr_scan"}, "type": "electric_scooter", "name": "dad59969b0fe6e1f26671a6cfe8c1105", "is_reserved": 0, "lon": -77.020674, "is_disabled": 0, "fusion_lat": 0.0, "lat": 38.90850566666667, "bike_id": "dad59969b0fe6e1f26671a6cfe8c1105", "fusion_lon": 0.0}, {"rental_uris": {"ios": "https://dc.lft.to/lastmile_qr_scan", "android": "https://dc.lft.to/lastmile_qr_scan"}, "type": "electric_scooter", "name": "6d258b1f48245ac262d3d97e0bd09d3f", "is_reserved": 0, "lon": -77.0417555, "is_disabled": 0, "fusion_lat": 0.0, "lat": 38.91722566666667, "bike_id": "6d258b1f48245ac262d3d97e0bd09d3f", "fusion_lon": 0.0}, {"rental_uris": {"ios": "https://dc.lft.to/lastmile_qr_scan", "android": "https://dc.lft.to/lastmile_qr_scan"}, "type": "electric_scooter", "name": "c22e26f6067767184bf796dee97fa415", "is_reserved": 0, "lon": -76.98443633333333, "is_disabled": 0, "fusion_lat": 0.0, "lat": 38.91467883333333, "bike_id": "c22e26f6067767184bf796dee97fa415", "fusion_lon": 0.0}, {"rental_uris": {"ios": "https://dc.lft.to/lastmile_qr_scan", "android": "https://dc.lft.to/lastmile_qr_scan"}, "type": "electric_scooter", "name": "e92325dd2e95310fd7b29c4bd705e92a", "is_reserved": 0, "lon": -77.04202816666667, "is_disabled": 0, "fusion_lat": 0.0, "lat": 38.924014666666665, "bike_id": "e92325dd2e95310fd7b29c4bd705e92a", "fusion_lon": 0.0}, {"rental_uris": {"ios": "https://dc.lft.to/lastmile_qr_scan", "android": "https://dc.lft.to/lastmile_qr_scan"}, "type": "electric_scooter", "name": "8fa13c17af0f8b2a56e24fa9b449f6e1", "is_reserved": 0, "lon": -77.05324366666666, "is_disabled": 0, "fusion_lat": 0.0, "lat": 38.907286166666665, "bike_id": "8fa13c17af0f8b2a56e24fa9b449f6e1", "fusion_lon": 0.0}, {"rental_uris": {"ios": "https://dc.lft.to/lastmile_qr_scan", "android": "https://dc.lft.to/lastmile_qr_scan"}, "type": "electric_scooter", "name": "aea1a3512888ffa4faa0f67d86fed5ae", "is_reserved": 0, "lon": -77.03916066666666, "is_disabled": 0, "fusion_lat": 0.0, "lat": 38.9081625, "bike_id": "aea1a3512888ffa4faa0f67d86fed5ae", "fusion_lon": 0.0}, {"rental_uris": {"ios": "https://dc.lft.to/lastmile_qr_scan", "android": "https://dc.lft.to/lastmile_qr_scan"}, "type": "electric_scooter", "name": "894733339a3b035b72deeac992651ed2", "is_reserved": 0, "lon": -77.008247, "is_disabled": 0, "fusion_lat": 0.0, "lat": 38.876545166666666, "bike_id": "894733339a3b035b72deeac992651ed2", "fusion_lon": 0.0}, {"rental_uris": {"ios": "https://dc.lft.to/lastmile_qr_scan", "android": "https://dc.lft.to/lastmile_qr_scan"}, "type": "electric_scooter", "name": "9f9cd2b52cb71e74af8dc3adb35c464b", "is_reserved": 0, "lon": -77.038605, "is_disabled": 0, "fusion_lat": 0.0, "lat": 38.91183383333333, "bike_id": "9f9cd2b52cb71e74af8dc3adb35c464b", "fusion_lon": 0.0}, {"rental_uris": {"ios": "https://dc.lft.to/lastmile_qr_scan", "android": "https://dc.lft.to/lastmile_qr_scan"}, "type": "electric_scooter", "name": "2eb15555d6d924f44782e84ff91614d5", "is_reserved": 0, "lon": -77.0479945, "is_disabled": 0, "fusion_lat": 0.0, "lat": 38.89223966666667, "bike_id": "2eb15555d6d924f44782e84ff91614d5", "fusion_lon": 0.0}, {"rental_uris": {"ios": "https://dc.lft.to/lastmile_qr_scan", "android": "https://dc.lft.to/lastmile_qr_scan"}, "type": "electric_scooter", "name": "1ca755fe539f5ecb425154909ca93338", "is_reserved": 0, "lon": -77.04427166666666, "is_disabled": 0, "fusion_lat": 0.0, "lat": 38.92602266666667, "bike_id": "1ca755fe539f5ecb425154909ca93338", "fusion_lon": 0.0}, {"rental_uris": {"ios": "https://dc.lft.to/lastmile_qr_scan", "android": "https://dc.lft.to/lastmile_qr_scan"}, "type": "electric_scooter", "name": "5f49171fa1cdac049030d9d7c01f40ef", "is_reserved": 0, "lon": -77.03750666666667, "is_disabled": 0, "fusion_lat": 0.0, "lat": 38.929158, "bike_id": "5f49171fa1cdac049030d9d7c01f40ef", "fusion_lon": 0.0}, {"rental_uris": {"ios": "https://dc.lft.to/lastmile_qr_scan", "android": "https://dc.lft.to/lastmile_qr_scan"}, "type": "electric_scooter", "name": "a4fe673f67ca7e74f462b72107eea90d", "is_reserved": 0, "lon": -77.01848016666666, "is_disabled": 0, "fusion_lat": 0.0, "lat": 38.954303333333336, "bike_id": "a4fe673f67ca7e74f462b72107eea90d", "fusion_lon": 0.0}, {"rental_uris": {"ios": "https://dc.lft.to/lastmile_qr_scan", "android": "https://dc.lft.to/lastmile_qr_scan"}, "type": "electric_scooter", "name": "2a27f355291bf9bec3e755df0f2c5700", "is_reserved": 0, "lon": -77.04460783333333, "is_disabled": 0, "fusion_lat": 0.0, "lat": 38.90797633333333, "bike_id": "2a27f355291bf9bec3e755df0f2c5700", "fusion_lon": 0.0}, {"rental_uris": {"ios": "https://dc.lft.to/lastmile_qr_scan", "android": "https://dc.lft.to/lastmile_qr_scan"}, "type": "electric_scooter", "name": "78f37580f452532caecf3318520d0f1c", "is_reserved": 0, "lon": -77.02344633333334, "is_disabled": 0, "fusion_lat": 0.0, "lat": 38.9270155, "bike_id": "78f37580f452532caecf3318520d0f1c", "fusion_lon": 0.0}, {"rental_uris": {"ios": "https://dc.lft.to/lastmile_qr_scan", "android": "https://dc.lft.to/lastmile_qr_scan"}, "type": "electric_scooter", "name": "5effb4946790f3ac45c2d99109e3bac3", "is_reserved": 0, "lon": -77.07458616666666, "is_disabled": 0, "fusion_lat": 0.0, "lat": 38.9208075, "bike_id": "5effb4946790f3ac45c2d99109e3bac3", "fusion_lon": 0.0}, {"rental_uris": {"ios": "https://dc.lft.to/lastmile_qr_scan", "android": "https://dc.lft.to/lastmile_qr_scan"}, "type": "electric_scooter", "name": "5c5cead0f453aaa8a15b6ddc50a92315", "is_reserved": 0, "lon": -76.985361, "is_disabled": 0, "fusion_lat": 0.0, "lat": 38.90953533333333, "bike_id": "5c5cead0f453aaa8a15b6ddc50a92315", "fusion_lon": 0.0}, {"rental_uris": {"ios": "https://dc.lft.to/lastmile_qr_scan", "android": "https://dc.lft.to/lastmile_qr_scan"}, "type": "electric_scooter", "name": "2305b58b5bbd928e8a519e7130fd2e2c", "is_reserved": 0, "lon": -77.02304066666666, "is_disabled": 0, "fusion_lat": 0.0, "lat": 38.91055983333333, "bike_id": "2305b58b5bbd928e8a519e7130fd2e2c", "fusion_lon": 0.0}, {"rental_uris": {"ios": "https://dc.lft.to/lastmile_qr_scan", "android": "https://dc.lft.to/lastmile_qr_scan"}, "type": "electric_scooter", "name": "c440fb8b0aace071af98802c94c7876d", "is_reserved": 0, "lon": -77.03178316666667, "is_disabled": 0, "fusion_lat": 0.0, "lat": 38.911868, "bike_id": "c440fb8b0aace071af98802c94c7876d", "fusion_lon": 0.0}, {"rental_uris": {"ios": "https://dc.lft.to/lastmile_qr_scan", "android": "https://dc.lft.to/lastmile_qr_scan"}, "type": "electric_scooter", "name": "29b90860d900613e62652f55bb34d59c", "is_reserved": 0, "lon": -76.98554133333333, "is_disabled": 0, "fusion_lat": 0.0, "lat": 38.889980333333334, "bike_id": "29b90860d900613e62652f55bb34d59c", "fusion_lon": 0.0}, {"rental_uris": {"ios": "https://dc.lft.to/lastmile_qr_scan", "android": "https://dc.lft.to/lastmile_qr_scan"}, "type": "electric_scooter", "name": "baa7aa860a78495cfe7e369c6d627f9d", "is_reserved": 0, "lon": -77.028424, "is_disabled": 0, "fusion_lat": 0.0, "lat": 38.93441333333333, "bike_id": "baa7aa860a78495cfe7e369c6d627f9d", "fusion_lon": 0.0}, {"rental_uris": {"ios": "https://dc.lft.to/lastmile_qr_scan", "android": "https://dc.lft.to/lastmile_qr_scan"}, "type": "electric_scooter", "name": "90a293c34adc51be6ca7f35c91bb49cc", "is_reserved": 0, "lon": -77.020902, "is_disabled": 0, "fusion_lat": 0.0, "lat": 38.921819666666664, "bike_id": "90a293c34adc51be6ca7f35c91bb49cc", "fusion_lon": 0.0}, {"rental_uris": {"ios": "https://dc.lft.to/lastmile_qr_scan", "android": "https://dc.lft.to/lastmile_qr_scan"}, "type": "electric_scooter", "name": "3e077ab6ad8b479b3a4cdca4ace52592", "is_reserved": 0, "lon": -77.00587416666667, "is_disabled": 0, "fusion_lat": 0.0, "lat": 38.905775166666665, "bike_id": "3e077ab6ad8b479b3a4cdca4ace52592", "fusion_lon": 0.0}, {"rental_uris": {"ios": "https://dc.lft.to/lastmile_qr_scan", "android": "https://dc.lft.to/lastmile_qr_scan"}, "type": "electric_bike", "name": "d2701b4be7f88bd0743d46b3a72c6bc1", "is_reserved": 0, "lon": -77.01229933333333, "is_disabled": 0, "fusion_lat": 0.0, "lat": 38.950912833333334, "bike_id": "d2701b4be7f88bd0743d46b3a72c6bc1", "fusion_lon": 0.0}, {"rental_uris": {"ios": "https://dc.lft.to/lastmile_qr_scan", "android": "https://dc.lft.to/lastmile_qr_scan"}, "type": "electric_scooter", "name": "d994dbfb1429a3f194b81d0c3f3dc450", "is_reserved": 0, "lon": -77.01056233333334, "is_disabled": 0, "fusion_lat": 0.0, "lat": 38.91645883333333, "bike_id": "d994dbfb1429a3f194b81d0c3f3dc450", "fusion_lon": 0.0}, {"rental_uris": {"ios": "https://dc.lft.to/lastmile_qr_scan", "android": "https://dc.lft.to/lastmile_qr_scan"}, "type": "electric_bike", "name": "392b66c7351765a4c22d1881c6756551", "is_reserved": 0, "lon": -77.12732016666666, "is_disabled": 0, "fusion_lat": 0.0, "lat": 38.895622, "bike_id": "392b66c7351765a4c22d1881c6756551", "fusion_lon": 0.0}, {"rental_uris": {"ios": "https://dc.lft.to/lastmile_qr_scan", "android": "https://dc.lft.to/lastmile_qr_scan"}, "type": "electric_scooter", "name": "cde7fbcb4938213d9b1509a0d4d9d8d1", "is_reserved": 0, "lon": -77.03222983333333, "is_disabled": 0, "fusion_lat": 0.0, "lat": 38.908651666666664, "bike_id": "cde7fbcb4938213d9b1509a0d4d9d8d1", "fusion_lon": 0.0}, {"rental_uris": {"ios": "https://dc.lft.to/lastmile_qr_scan", "android": "https://dc.lft.to/lastmile_qr_scan"}, "type": "electric_scooter", "name": "6edc84183635414fcb06ce29baed46d7", "is_reserved": 0, "lon": -77.04677, "is_disabled": 0, "fusion_lat": 0.0, "lat": 38.90286616666667, "bike_id": "6edc84183635414fcb06ce29baed46d7", "fusion_lon": 0.0}, {"rental_uris": {"ios": "https://dc.lft.to/lastmile_qr_scan", "android": "https://dc.lft.to/lastmile_qr_scan"}, "type": "electric_scooter", "name": "a386d11fd84b06190e89ca377e6fbdcc", "is_reserved": 0, "lon": -76.93474783333333, "is_disabled": 0, "fusion_lat": 0.0, "lat": 38.89504733333333, "bike_id": "a386d11fd84b06190e89ca377e6fbdcc", "fusion_lon": 0.0}, {"rental_uris": {"ios": "https://dc.lft.to/lastmile_qr_scan", "android": "https://dc.lft.to/lastmile_qr_scan"}, "type": "electric_scooter", "name": "79344c9536758951c5ade05ef25392c3", "is_reserved": 0, "lon": -77.03668183333333, "is_disabled": 0, "fusion_lat": 0.0, "lat": 38.93946016666666, "bike_id": "79344c9536758951c5ade05ef25392c3", "fusion_lon": 0.0}, {"rental_uris": {"ios": "https://dc.lft.to/lastmile_qr_scan", "android": "https://dc.lft.to/lastmile_qr_scan"}, "type": "electric_scooter", "name": "e62e8b494f280add7deae6dc72117e3b", "is_reserved": 0, "lon": -77.01955916666667, "is_disabled": 0, "fusion_lat": 0.0, "lat": 38.923245333333334, "bike_id": "e62e8b494f280add7deae6dc72117e3b", "fusion_lon": 0.0}, {"rental_uris": {"ios": "https://dc.lft.to/lastmile_qr_scan", "android": "https://dc.lft.to/lastmile_qr_scan"}, "type": "electric_scooter", "name": "19100f69cbf02ae5f91731837fa058e7", "is_reserved": 0, "lon": -76.95885383333334, "is_disabled": 0, "fusion_lat": 0.0, "lat": 38.85841516666667, "bike_id": "19100f69cbf02ae5f91731837fa058e7", "fusion_lon": 0.0}, {"rental_uris": {"ios": "https://dc.lft.to/lastmile_qr_scan", "android": "https://dc.lft.to/lastmile_qr_scan"}, "type": "electric_scooter", "name": "3d8f5d20616a007dab7a73a1bb3e243e", "is_reserved": 0, "lon": -77.03814433333334, "is_disabled": 0, "fusion_lat": 0.0, "lat": 38.91529466666667, "bike_id": "3d8f5d20616a007dab7a73a1bb3e243e", "fusion_lon": 0.0}, {"rental_uris": {"ios": "https://dc.lft.to/lastmile_qr_scan", "android": "https://dc.lft.to/lastmile_qr_scan"}, "type": "electric_scooter", "name": "bb0e0b10e10783bb31f07c2a109b5b63", "is_reserved": 0, "lon": -77.02512433333334, "is_disabled": 0, "fusion_lat": 0.0, "lat": 38.89842983333333, "bike_id": "bb0e0b10e10783bb31f07c2a109b5b63", "fusion_lon": 0.0}, {"rental_uris": {"ios": "https://dc.lft.to/lastmile_qr_scan", "android": "https://dc.lft.to/lastmile_qr_scan"}, "type": "electric_bike", "name": "3819e3c371b82897e963536805c2d776", "is_reserved": 0, "lon": -77.09014966666666, "is_disabled": 0, "fusion_lat": 0.0, "lat": 38.92660266666667, "bike_id": "3819e3c371b82897e963536805c2d776", "fusion_lon": 0.0}, {"rental_uris": {"ios": "https://dc.lft.to/lastmile_qr_scan", "android": "https://dc.lft.to/lastmile_qr_scan"}, "type": "electric_scooter", "name": "d667b9e122bd2232c4f921c4c264c824", "is_reserved": 0, "lon": -77.00074416666666, "is_disabled": 0, "fusion_lat": 0.0, "lat": 38.908404, "bike_id": "d667b9e122bd2232c4f921c4c264c824", "fusion_lon": 0.0}, {"rental_uris": {"ios": "https://dc.lft.to/lastmile_qr_scan", "android": "https://dc.lft.to/lastmile_qr_scan"}, "type": "electric_scooter", "name": "c52ca7ac6b2ce97f1cc5d225a5507176", "is_reserved": 0, "lon": -77.02447516666666, "is_disabled": 0, "fusion_lat": 0.0, "lat": 38.91845716666667, "bike_id": "c52ca7ac6b2ce97f1cc5d225a5507176", "fusion_lon": 0.0}, {"rental_uris": {"ios": "https://dc.lft.to/lastmile_qr_scan", "android": "https://dc.lft.to/lastmile_qr_scan"}, "type": "electric_scooter", "name": "2a50dc76f10dd433c8018827d9f9fb4b", "is_reserved": 0, "lon": -77.02154466666667, "is_disabled": 0, "fusion_lat": 0.0, "lat": 38.92605316666667, "bike_id": "2a50dc76f10dd433c8018827d9f9fb4b", "fusion_lon": 0.0}, {"rental_uris": {"ios": "https://dc.lft.to/lastmile_qr_scan", "android": "https://dc.lft.to/lastmile_qr_scan"}, "type": "electric_scooter", "name": "bb2fed14407c62f53413d28b68275736", "is_reserved": 0, "lon": -77.00761866666667, "is_disabled": 0, "fusion_lat": 0.0, "lat": 38.925321833333335, "bike_id": "bb2fed14407c62f53413d28b68275736", "fusion_lon": 0.0}, {"rental_uris": {"ios": "https://dc.lft.to/lastmile_qr_scan", "android": "https://dc.lft.to/lastmile_qr_scan"}, "type": "electric_bike", "name": "6dfb33834be70349049dd80d4641af34", "is_reserved": 0, "lon": -76.95698816666666, "is_disabled": 0, "fusion_lat": 0.0, "lat": 38.85096133333333, "bike_id": "6dfb33834be70349049dd80d4641af34", "fusion_lon": 0.0}, {"rental_uris": {"ios": "https://dc.lft.to/lastmile_qr_scan", "android": "https://dc.lft.to/lastmile_qr_scan"}, "type": "electric_bike", "name": "29a9640b7a6d2bec68de2b313d892e2e", "is_reserved": 0, "lon": -77.00749433333333, "is_disabled": 0, "fusion_lat": 0.0, "lat": 38.98107866666667, "bike_id": "29a9640b7a6d2bec68de2b313d892e2e", "fusion_lon": 0.0}, {"rental_uris": {"ios": "https://dc.lft.to/lastmile_qr_scan", "android": "https://dc.lft.to/lastmile_qr_scan"}, "type": "electric_scooter", "name": "ec9a49d6e7826d713ffebabf84b4c635", "is_reserved": 0, "lon": -77.00190616666667, "is_disabled": 0, "fusion_lat": 0.0, "lat": 38.9038095, "bike_id": "ec9a49d6e7826d713ffebabf84b4c635", "fusion_lon": 0.0}, {"rental_uris": {"ios": "https://dc.lft.to/lastmile_qr_scan", "android": "https://dc.lft.to/lastmile_qr_scan"}, "type": "electric_scooter", "name": "fbc627df73a648c0d2e392d400774f38", "is_reserved": 0, "lon": -77.023025, "is_disabled": 0, "fusion_lat": 0.0, "lat": 38.91355166666666, "bike_id": "fbc627df73a648c0d2e392d400774f38", "fusion_lon": 0.0}, {"rental_uris": {"ios": "https://dc.lft.to/lastmile_qr_scan", "android": "https://dc.lft.to/lastmile_qr_scan"}, "type": "electric_bike", "name": "39c008dc5083704f9229a1a4f362592a", "is_reserved": 0, "lon": -77.12718983333333, "is_disabled": 0, "fusion_lat": 0.0, "lat": 38.895827833333335, "bike_id": "39c008dc5083704f9229a1a4f362592a", "fusion_lon": 0.0}, {"rental_uris": {"ios": "https://dc.lft.to/lastmile_qr_scan", "android": "https://dc.lft.to/lastmile_qr_scan"}, "type": "electric_scooter", "name": "2c4edae47732c7c909b9fe69b356c9ec", "is_reserved": 0, "lon": -76.98582683333333, "is_disabled": 0, "fusion_lat": 0.0, "lat": 38.86185916666667, "bike_id": "2c4edae47732c7c909b9fe69b356c9ec", "fusion_lon": 0.0}, {"rental_uris": {"ios": "https://dc.lft.to/lastmile_qr_scan", "android": "https://dc.lft.to/lastmile_qr_scan"}, "type": "electric_scooter", "name": "d8b6003afd1b10c0e99f7f646f9a502a", "is_reserved": 0, "lon": -77.02037016666667, "is_disabled": 0, "fusion_lat": 0.0, "lat": 38.899447, "bike_id": "d8b6003afd1b10c0e99f7f646f9a502a", "fusion_lon": 0.0}, {"rental_uris": {"ios": "https://dc.lft.to/lastmile_qr_scan", "android": "https://dc.lft.to/lastmile_qr_scan"}, "type": "electric_scooter", "name": "9de1bb93d09ece157d313782ff8ea02d", "is_reserved": 0, "lon": -77.01772233333334, "is_disabled": 0, "fusion_lat": 0.0, "lat": 38.921051, "bike_id": "9de1bb93d09ece157d313782ff8ea02d", "fusion_lon": 0.0}, {"rental_uris": {"ios": "https://dc.lft.to/lastmile_qr_scan", "android": "https://dc.lft.to/lastmile_qr_scan"}, "type": "electric_scooter", "name": "c68bffbb81bde0795246ee42e34ecd67", "is_reserved": 0, "lon": -77.01358433333333, "is_disabled": 0, "fusion_lat": 0.0, "lat": 38.919299333333335, "bike_id": "c68bffbb81bde0795246ee42e34ecd67", "fusion_lon": 0.0}, {"rental_uris": {"ios": "https://dc.lft.to/lastmile_qr_scan", "android": "https://dc.lft.to/lastmile_qr_scan"}, "type": "electric_scooter", "name": "a06861bc10e6eb1300ec6b7c9c7366aa", "is_reserved": 0, "lon": -77.029749, "is_disabled": 0, "fusion_lat": 0.0, "lat": 38.904743, "bike_id": "a06861bc10e6eb1300ec6b7c9c7366aa", "fusion_lon": 0.0}, {"rental_uris": {"ios": "https://dc.lft.to/lastmile_qr_scan", "android": "https://dc.lft.to/lastmile_qr_scan"}, "type": "electric_scooter", "name": "c679dc0246a5f2e11f1a70ae3286c75f", "is_reserved": 0, "lon": -77.04408916666667, "is_disabled": 0, "fusion_lat": 0.0, "lat": 38.901187166666666, "bike_id": "c679dc0246a5f2e11f1a70ae3286c75f", "fusion_lon": 0.0}, {"rental_uris": {"ios": "https://dc.lft.to/lastmile_qr_scan", "android": "https://dc.lft.to/lastmile_qr_scan"}, "type": "electric_scooter", "name": "a696d37da3e5cde8666ae2029b4f7f11", "is_reserved": 0, "lon": -76.98215916666666, "is_disabled": 0, "fusion_lat": 0.0, "lat": 38.886609666666665, "bike_id": "a696d37da3e5cde8666ae2029b4f7f11", "fusion_lon": 0.0}, {"rental_uris": {"ios": "https://dc.lft.to/lastmile_qr_scan", "android": "https://dc.lft.to/lastmile_qr_scan"}, "type": "electric_scooter", "name": "5eaed7fd6bd5c4c2402fd1afb239312b", "is_reserved": 0, "lon": -77.021779, "is_disabled": 0, "fusion_lat": 0.0, "lat": 38.91481366666667, "bike_id": "5eaed7fd6bd5c4c2402fd1afb239312b", "fusion_lon": 0.0}, {"rental_uris": {"ios": "https://dc.lft.to/lastmile_qr_scan", "android": "https://dc.lft.to/lastmile_qr_scan"}, "type": "electric_scooter", "name": "2e271ae386e12144af3fb6a6a9f6114c", "is_reserved": 0, "lon": -77.01738633333333, "is_disabled": 0, "fusion_lat": 0.0, "lat": 38.92121983333333, "bike_id": "2e271ae386e12144af3fb6a6a9f6114c", "fusion_lon": 0.0}, {"rental_uris": {"ios": "https://dc.lft.to/lastmile_qr_scan", "android": "https://dc.lft.to/lastmile_qr_scan"}, "type": "electric_scooter", "name": "c5b0e9a8b045ba52a5c7c228540956b4", "is_reserved": 0, "lon": -76.9898725, "is_disabled": 0, "fusion_lat": 0.0, "lat": 38.865005333333336, "bike_id": "c5b0e9a8b045ba52a5c7c228540956b4", "fusion_lon": 0.0}, {"rental_uris": {"ios": "https://dc.lft.to/lastmile_qr_scan", "android": "https://dc.lft.to/lastmile_qr_scan"}, "type": "electric_scooter", "name": "67808b611b94f38ee483c3673f576751", "is_reserved": 0, "lon": -77.02100383333334, "is_disabled": 0, "fusion_lat": 0.0, "lat": 38.921498666666665, "bike_id": "67808b611b94f38ee483c3673f576751", "fusion_lon": 0.0}, {"rental_uris": {"ios": "https://dc.lft.to/lastmile_qr_scan", "android": "https://dc.lft.to/lastmile_qr_scan"}, "type": "electric_scooter", "name": "c96b176cb809d17b68a1da6184b3fd8d", "is_reserved": 0, "lon": -77.0305165, "is_disabled": 0, "fusion_lat": 0.0, "lat": 38.9082625, "bike_id": "c96b176cb809d17b68a1da6184b3fd8d", "fusion_lon": 0.0}, {"rental_uris": {"ios": "https://dc.lft.to/lastmile_qr_scan", "android": "https://dc.lft.to/lastmile_qr_scan"}, "type": "electric_scooter", "name": "a9b069b4961883f27bc9ddc362136fac", "is_reserved": 0, "lon": -77.06147666666666, "is_disabled": 0, "fusion_lat": 0.0, "lat": 38.91299816666667, "bike_id": "a9b069b4961883f27bc9ddc362136fac", "fusion_lon": 0.0}, {"rental_uris": {"ios": "https://dc.lft.to/lastmile_qr_scan", "android": "https://dc.lft.to/lastmile_qr_scan"}, "type": "electric_scooter", "name": "abcdf64e64c3da07a1749e3649182308", "is_reserved": 0, "lon": -77.04361816666666, "is_disabled": 0, "fusion_lat": 0.0, "lat": 38.926803, "bike_id": "abcdf64e64c3da07a1749e3649182308", "fusion_lon": 0.0}, {"rental_uris": {"ios": "https://dc.lft.to/lastmile_qr_scan", "android": "https://dc.lft.to/lastmile_qr_scan"}, "type": "electric_scooter", "name": "529ce81c691d2cdf704b92f6c6c399cf", "is_reserved": 0, "lon": -77.00725633333333, "is_disabled": 0, "fusion_lat": 0.0, "lat": 38.90615716666667, "bike_id": "529ce81c691d2cdf704b92f6c6c399cf", "fusion_lon": 0.0}, {"rental_uris": {"ios": "https://dc.lft.to/lastmile_qr_scan", "android": "https://dc.lft.to/lastmile_qr_scan"}, "type": "electric_scooter", "name": "e26fe365818fb066d757edb2f3d0221e", "is_reserved": 0, "lon": -77.02075266666667, "is_disabled": 0, "fusion_lat": 0.0, "lat": 38.927098666666666, "bike_id": "e26fe365818fb066d757edb2f3d0221e", "fusion_lon": 0.0}, {"rental_uris": {"ios": "https://dc.lft.to/lastmile_qr_scan", "android": "https://dc.lft.to/lastmile_qr_scan"}, "type": "electric_scooter", "name": "a468d6e9577cf17c8f5dd0f7a38aec1b", "is_reserved": 0, "lon": -76.98074516666667, "is_disabled": 0, "fusion_lat": 0.0, "lat": 38.901758, "bike_id": "a468d6e9577cf17c8f5dd0f7a38aec1b", "fusion_lon": 0.0}, {"rental_uris": {"ios": "https://dc.lft.to/lastmile_qr_scan", "android": "https://dc.lft.to/lastmile_qr_scan"}, "type": "electric_scooter", "name": "e3f07d8d7b406036097a98886c93d795", "is_reserved": 0, "lon": -77.038638, "is_disabled": 0, "fusion_lat": 0.0, "lat": 38.911851, "bike_id": "e3f07d8d7b406036097a98886c93d795", "fusion_lon": 0.0}, {"rental_uris": {"ios": "https://dc.lft.to/lastmile_qr_scan", "android": "https://dc.lft.to/lastmile_qr_scan"}, "type": "electric_bike", "name": "455d291ed04c00da81217dc74eb328f7", "is_reserved": 0, "lon": -76.9172035, "is_disabled": 0, "fusion_lat": 0.0, "lat": 38.88031316666667, "bike_id": "455d291ed04c00da81217dc74eb328f7", "fusion_lon": 0.0}, {"rental_uris": {"ios": "https://dc.lft.to/lastmile_qr_scan", "android": "https://dc.lft.to/lastmile_qr_scan"}, "type": "electric_scooter", "name": "3002239e1337ec88957cadac8c7159c3", "is_reserved": 0, "lon": -77.0642605, "is_disabled": 0, "fusion_lat": 0.0, "lat": 38.902616, "bike_id": "3002239e1337ec88957cadac8c7159c3", "fusion_lon": 0.0}, {"rental_uris": {"ios": "https://dc.lft.to/lastmile_qr_scan", "android": "https://dc.lft.to/lastmile_qr_scan"}, "type": "electric_scooter", "name": "899d2332d1e9402d3609d0fd94f31d55", "is_reserved": 0, "lon": -77.02230283333333, "is_disabled": 0, "fusion_lat": 0.0, "lat": 38.9237835, "bike_id": "899d2332d1e9402d3609d0fd94f31d55", "fusion_lon": 0.0}, {"rental_uris": {"ios": "https://dc.lft.to/lastmile_qr_scan", "android": "https://dc.lft.to/lastmile_qr_scan"}, "type": "electric_scooter", "name": "0985faf4f73b64ffd37e4b8728fffbc5", "is_reserved": 0, "lon": -77.01856733333334, "is_disabled": 0, "fusion_lat": 0.0, "lat": 38.90074366666666, "bike_id": "0985faf4f73b64ffd37e4b8728fffbc5", "fusion_lon": 0.0}, {"rental_uris": {"ios": "https://dc.lft.to/lastmile_qr_scan", "android": "https://dc.lft.to/lastmile_qr_scan"}, "type": "electric_scooter", "name": "d3ce483d6cef29b12110588046ff678c", "is_reserved": 0, "lon": -77.04051816666667, "is_disabled": 0, "fusion_lat": 0.0, "lat": 38.90481616666667, "bike_id": "d3ce483d6cef29b12110588046ff678c", "fusion_lon": 0.0}, {"rental_uris": {"ios": "https://dc.lft.to/lastmile_qr_scan", "android": "https://dc.lft.to/lastmile_qr_scan"}, "type": "electric_scooter", "name": "4054294c823b09bb789b518636ce8e02", "is_reserved": 0, "lon": -77.0155245, "is_disabled": 0, "fusion_lat": 0.0, "lat": 38.90219583333333, "bike_id": "4054294c823b09bb789b518636ce8e02", "fusion_lon": 0.0}, {"rental_uris": {"ios": "https://dc.lft.to/lastmile_qr_scan", "android": "https://dc.lft.to/lastmile_qr_scan"}, "type": "electric_scooter", "name": "e55adaf54f06ba8e12bd3e010ca6d9ae", "is_reserved": 0, "lon": -77.0383265, "is_disabled": 0, "fusion_lat": 0.0, "lat": 38.91266816666667, "bike_id": "e55adaf54f06ba8e12bd3e010ca6d9ae", "fusion_lon": 0.0}, {"rental_uris": {"ios": "https://dc.lft.to/lastmile_qr_scan", "android": "https://dc.lft.to/lastmile_qr_scan"}, "type": "electric_scooter", "name": "b496a0c911f07f4dff0292cf8f50aebf", "is_reserved": 0, "lon": -77.0483055, "is_disabled": 0, "fusion_lat": 0.0, "lat": 38.8984055, "bike_id": "b496a0c911f07f4dff0292cf8f50aebf", "fusion_lon": 0.0}, {"rental_uris": {"ios": "https://dc.lft.to/lastmile_qr_scan", "android": "https://dc.lft.to/lastmile_qr_scan"}, "type": "electric_bike", "name": "3c7f7b454f3e409b019cfc5ee6f5af0a", "is_reserved": 0, "lon": -76.99547616666666, "is_disabled": 0, "fusion_lat": 0.0, "lat": 38.9082255, "bike_id": "3c7f7b454f3e409b019cfc5ee6f5af0a", "fusion_lon": 0.0}, {"rental_uris": {"ios": "https://dc.lft.to/lastmile_qr_scan", "android": "https://dc.lft.to/lastmile_qr_scan"}, "type": "electric_scooter", "name": "1534faf65ba9f4cc11e420882e78934c", "is_reserved": 0, "lon": -77.04747533333334, "is_disabled": 0, "fusion_lat": 0.0, "lat": 38.905344, "bike_id": "1534faf65ba9f4cc11e420882e78934c", "fusion_lon": 0.0}, {"rental_uris": {"ios": "https://dc.lft.to/lastmile_qr_scan", "android": "https://dc.lft.to/lastmile_qr_scan"}, "type": "electric_scooter", "name": "bc15368c22eb33a5f605ec69a8210d9f", "is_reserved": 0, "lon": -77.0262865, "is_disabled": 0, "fusion_lat": 0.0, "lat": 38.896227333333336, "bike_id": "bc15368c22eb33a5f605ec69a8210d9f", "fusion_lon": 0.0}, {"rental_uris": {"ios": "https://dc.lft.to/lastmile_qr_scan", "android": "https://dc.lft.to/lastmile_qr_scan"}, "type": "electric_bike", "name": "7dfb1da7add98becf059babb1ae18b12", "is_reserved": 0, "lon": -76.97967933333334, "is_disabled": 0, "fusion_lat": 0.0, "lat": 38.920476666666666, "bike_id": "7dfb1da7add98becf059babb1ae18b12", "fusion_lon": 0.0}, {"rental_uris": {"ios": "https://dc.lft.to/lastmile_qr_scan", "android": "https://dc.lft.to/lastmile_qr_scan"}, "type": "electric_bike", "name": "466f3d991b4dd24ae6fc2be58a557d86", "is_reserved": 0, "lon": -76.9970725, "is_disabled": 0, "fusion_lat": 0.0, "lat": 38.838631, "bike_id": "466f3d991b4dd24ae6fc2be58a557d86", "fusion_lon": 0.0}, {"rental_uris": {"ios": "https://dc.lft.to/lastmile_qr_scan", "android": "https://dc.lft.to/lastmile_qr_scan"}, "type": "electric_bike", "name": "f1aad191c596c8e684157ba5e6842609", "is_reserved": 0, "lon": -76.99279033333333, "is_disabled": 0, "fusion_lat": 0.0, "lat": 38.972567833333336, "bike_id": "f1aad191c596c8e684157ba5e6842609", "fusion_lon": 0.0}, {"rental_uris": {"ios": "https://dc.lft.to/lastmile_qr_scan", "android": "https://dc.lft.to/lastmile_qr_scan"}, "type": "electric_scooter", "name": "bcfdce333a95931524ab2e50d7a3fcf0", "is_reserved": 0, "lon": -77.02393583333334, "is_disabled": 0, "fusion_lat": 0.0, "lat": 38.921885, "bike_id": "bcfdce333a95931524ab2e50d7a3fcf0", "fusion_lon": 0.0}, {"rental_uris": {"ios": "https://dc.lft.to/lastmile_qr_scan", "android": "https://dc.lft.to/lastmile_qr_scan"}, "type": "electric_bike", "name": "8360d2a9f75cd490e9e870bb329f0227", "is_reserved": 0, "lon": -76.96888516666667, "is_disabled": 0, "fusion_lat": 0.0, "lat": 38.86985633333333, "bike_id": "8360d2a9f75cd490e9e870bb329f0227", "fusion_lon": 0.0}, {"rental_uris": {"ios": "https://dc.lft.to/lastmile_qr_scan", "android": "https://dc.lft.to/lastmile_qr_scan"}, "type": "electric_scooter", "name": "77d69ff57cd0c7333e110ffa5d527b57", "is_reserved": 0, "lon": -77.0401395, "is_disabled": 0, "fusion_lat": 0.0, "lat": 38.925769833333334, "bike_id": "77d69ff57cd0c7333e110ffa5d527b57", "fusion_lon": 0.0}, {"rental_uris": {"ios": "https://dc.lft.to/lastmile_qr_scan", "android": "https://dc.lft.to/lastmile_qr_scan"}, "type": "electric_scooter", "name": "02e247d3f0ad715b9a51809aaef77a57", "is_reserved": 0, "lon": -76.9855595, "is_disabled": 0, "fusion_lat": 0.0, "lat": 38.85996683333333, "bike_id": "02e247d3f0ad715b9a51809aaef77a57", "fusion_lon": 0.0}, {"rental_uris": {"ios": "https://dc.lft.to/lastmile_qr_scan", "android": "https://dc.lft.to/lastmile_qr_scan"}, "type": "electric_scooter", "name": "ad63a3cbc647d96819105882ff89b92a", "is_reserved": 0, "lon": -77.04354766666667, "is_disabled": 0, "fusion_lat": 0.0, "lat": 38.89748566666667, "bike_id": "ad63a3cbc647d96819105882ff89b92a", "fusion_lon": 0.0}, {"rental_uris": {"ios": "https://dc.lft.to/lastmile_qr_scan", "android": "https://dc.lft.to/lastmile_qr_scan"}, "type": "electric_scooter", "name": "27da04a70a83ebd332630d5cb46737cb", "is_reserved": 0, "lon": -77.03165116666666, "is_disabled": 0, "fusion_lat": 0.0, "lat": 38.887101, "bike_id": "27da04a70a83ebd332630d5cb46737cb", "fusion_lon": 0.0}, {"rental_uris": {"ios": "https://dc.lft.to/lastmile_qr_scan", "android": "https://dc.lft.to/lastmile_qr_scan"}, "type": "electric_scooter", "name": "4cff047221cff88a015e112ea94a9e48", "is_reserved": 0, "lon": -77.03284783333334, "is_disabled": 0, "fusion_lat": 0.0, "lat": 38.93883533333333, "bike_id": "4cff047221cff88a015e112ea94a9e48", "fusion_lon": 0.0}, {"rental_uris": {"ios": "https://dc.lft.to/lastmile_qr_scan", "android": "https://dc.lft.to/lastmile_qr_scan"}, "type": "electric_scooter", "name": "3a1270ad40f8725c4aaa685d04b677d2", "is_reserved": 0, "lon": -77.03186466666666, "is_disabled": 0, "fusion_lat": 0.0, "lat": 38.908855, "bike_id": "3a1270ad40f8725c4aaa685d04b677d2", "fusion_lon": 0.0}, {"rental_uris": {"ios": "https://dc.lft.to/lastmile_qr_scan", "android": "https://dc.lft.to/lastmile_qr_scan"}, "type": "electric_scooter", "name": "f13a5248435155836b5a0f563def7c81", "is_reserved": 0, "lon": -77.04337366666667, "is_disabled": 0, "fusion_lat": 0.0, "lat": 38.90851383333333, "bike_id": "f13a5248435155836b5a0f563def7c81", "fusion_lon": 0.0}, {"rental_uris": {"ios": "https://dc.lft.to/lastmile_qr_scan", "android": "https://dc.lft.to/lastmile_qr_scan"}, "type": "electric_bike", "name": "f425e9d3dda5d022c1626c68f8c2606c", "is_reserved": 0, "lon": -77.019024, "is_disabled": 0, "fusion_lat": 0.0, "lat": 38.8956695, "bike_id": "f425e9d3dda5d022c1626c68f8c2606c", "fusion_lon": 0.0}, {"rental_uris": {"ios": "https://dc.lft.to/lastmile_qr_scan", "android": "https://dc.lft.to/lastmile_qr_scan"}, "type": "electric_scooter", "name": "8cfcb4e724fbc649b336ccbb23927f39", "is_reserved": 0, "lon": -77.058042, "is_disabled": 0, "fusion_lat": 0.0, "lat": 38.905955666666664, "bike_id": "8cfcb4e724fbc649b336ccbb23927f39", "fusion_lon": 0.0}, {"rental_uris": {"ios": "https://dc.lft.to/lastmile_qr_scan", "android": "https://dc.lft.to/lastmile_qr_scan"}, "type": "electric_scooter", "name": "0cddd290cfc2dd268c1bcac0c487733e", "is_reserved": 0, "lon": -77.0390965, "is_disabled": 0, "fusion_lat": 0.0, "lat": 38.90829983333333, "bike_id": "0cddd290cfc2dd268c1bcac0c487733e", "fusion_lon": 0.0}, {"rental_uris": {"ios": "https://dc.lft.to/lastmile_qr_scan", "android": "https://dc.lft.to/lastmile_qr_scan"}, "type": "electric_scooter", "name": "09c10ab93e4b593935a3d0405aec9df3", "is_reserved": 0, "lon": -77.031714, "is_disabled": 0, "fusion_lat": 0.0, "lat": 38.918142333333336, "bike_id": "09c10ab93e4b593935a3d0405aec9df3", "fusion_lon": 0.0}, {"rental_uris": {"ios": "https://dc.lft.to/lastmile_qr_scan", "android": "https://dc.lft.to/lastmile_qr_scan"}, "type": "electric_scooter", "name": "6278d7d4d72044aaed663f8b37f6fbc9", "is_reserved": 0, "lon": -77.02354766666667, "is_disabled": 0, "fusion_lat": 0.0, "lat": 38.920597666666666, "bike_id": "6278d7d4d72044aaed663f8b37f6fbc9", "fusion_lon": 0.0}, {"rental_uris": {"ios": "https://dc.lft.to/lastmile_qr_scan", "android": "https://dc.lft.to/lastmile_qr_scan"}, "type": "electric_bike", "name": "759611acd8f5a332615d781d5b142b2d", "is_reserved": 0, "lon": -77.21666383333333, "is_disabled": 0, "fusion_lat": 0.0, "lat": 38.89508633333333, "bike_id": "759611acd8f5a332615d781d5b142b2d", "fusion_lon": 0.0}, {"rental_uris": {"ios": "https://dc.lft.to/lastmile_qr_scan", "android": "https://dc.lft.to/lastmile_qr_scan"}, "type": "electric_bike", "name": "02ed5e1a27bf3d13fc8fe98e9e4f0988", "is_reserved": 0, "lon": -77.09722583333334, "is_disabled": 0, "fusion_lat": 0.0, "lat": 38.807375666666665, "bike_id": "02ed5e1a27bf3d13fc8fe98e9e4f0988", "fusion_lon": 0.0}, {"rental_uris": {"ios": "https://dc.lft.to/lastmile_qr_scan", "android": "https://dc.lft.to/lastmile_qr_scan"}, "type": "electric_bike", "name": "30cd8669e776174d7fd00572a3f996a3", "is_reserved": 0, "lon": -76.98347983333333, "is_disabled": 0, "fusion_lat": 0.0, "lat": 38.862624333333336, "bike_id": "30cd8669e776174d7fd00572a3f996a3", "fusion_lon": 0.0}, {"rental_uris": {"ios": "https://dc.lft.to/lastmile_qr_scan", "android": "https://dc.lft.to/lastmile_qr_scan"}, "type": "electric_scooter", "name": "f63addbe5b1a2d53097bbda0b92778ef", "is_reserved": 0, "lon": -77.02207433333334, "is_disabled": 0, "fusion_lat": 0.0, "lat": 38.88716433333333, "bike_id": "f63addbe5b1a2d53097bbda0b92778ef", "fusion_lon": 0.0}, {"rental_uris": {"ios": "https://dc.lft.to/lastmile_qr_scan", "android": "https://dc.lft.to/lastmile_qr_scan"}, "type": "electric_bike", "name": "5dd24270e5d9557f9019383f63e608c8", "is_reserved": 0, "lon": -77.07521, "is_disabled": 0, "fusion_lat": 0.0, "lat": 38.842849333333334, "bike_id": "5dd24270e5d9557f9019383f63e608c8", "fusion_lon": 0.0}, {"rental_uris": {"ios": "https://dc.lft.to/lastmile_qr_scan", "android": "https://dc.lft.to/lastmile_qr_scan"}, "type": "electric_scooter", "name": "fbee356bd0d1137a0d7ab5b3195d30c1", "is_reserved": 0, "lon": -77.00122716666667, "is_disabled": 0, "fusion_lat": 0.0, "lat": 38.87385666666667, "bike_id": "fbee356bd0d1137a0d7ab5b3195d30c1", "fusion_lon": 0.0}, {"rental_uris": {"ios": "https://dc.lft.to/lastmile_qr_scan", "android": "https://dc.lft.to/lastmile_qr_scan"}, "type": "electric_scooter", "name": "687e34e453bc42d323fd124619954f72", "is_reserved": 0, "lon": -77.04597583333333, "is_disabled": 0, "fusion_lat": 0.0, "lat": 38.918562666666666, "bike_id": "687e34e453bc42d323fd124619954f72", "fusion_lon": 0.0}, {"rental_uris": {"ios": "https://dc.lft.to/lastmile_qr_scan", "android": "https://dc.lft.to/lastmile_qr_scan"}, "type": "electric_scooter", "name": "eae548a8b9e5290615333b0e4ec8ea30", "is_reserved": 0, "lon": -77.05229866666667, "is_disabled": 0, "fusion_lat": 0.0, "lat": 38.89850066666666, "bike_id": "eae548a8b9e5290615333b0e4ec8ea30", "fusion_lon": 0.0}, {"rental_uris": {"ios": "https://dc.lft.to/lastmile_qr_scan", "android": "https://dc.lft.to/lastmile_qr_scan"}, "type": "electric_bike", "name": "7b7c9ba307907847790c2d160c6f6fc0", "is_reserved": 0, "lon": -76.98816233333334, "is_disabled": 0, "fusion_lat": 0.0, "lat": 38.84279566666667, "bike_id": "7b7c9ba307907847790c2d160c6f6fc0", "fusion_lon": 0.0}, {"rental_uris": {"ios": "https://dc.lft.to/lastmile_qr_scan", "android": "https://dc.lft.to/lastmile_qr_scan"}, "type": "electric_bike", "name": "3a4d843b5023601739de5c1de8241aca", "is_reserved": 0, "lon": -77.0236475, "is_disabled": 0, "fusion_lat": 0.0, "lat": 38.935965333333336, "bike_id": "3a4d843b5023601739de5c1de8241aca", "fusion_lon": 0.0}, {"rental_uris": {"ios": "https://dc.lft.to/lastmile_qr_scan", "android": "https://dc.lft.to/lastmile_qr_scan"}, "type": "electric_scooter", "name": "93055d176effdaac331640ba42a2f0ee", "is_reserved": 0, "lon": -77.03703416666667, "is_disabled": 0, "fusion_lat": 0.0, "lat": 38.93285066666667, "bike_id": "93055d176effdaac331640ba42a2f0ee", "fusion_lon": 0.0}, {"rental_uris": {"ios": "https://dc.lft.to/lastmile_qr_scan", "android": "https://dc.lft.to/lastmile_qr_scan"}, "type": "electric_bike", "name": "14b373191c863cbd99eb5be6d820cc9b", "is_reserved": 0, "lon": -77.02723966666667, "is_disabled": 0, "fusion_lat": 0.0, "lat": 38.89493733333333, "bike_id": "14b373191c863cbd99eb5be6d820cc9b", "fusion_lon": 0.0}, {"rental_uris": {"ios": "https://dc.lft.to/lastmile_qr_scan", "android": "https://dc.lft.to/lastmile_qr_scan"}, "type": "electric_scooter", "name": "423060e65c90bf6b24aeb226208ed2ec", "is_reserved": 0, "lon": -77.03219433333334, "is_disabled": 0, "fusion_lat": 0.0, "lat": 38.899355666666665, "bike_id": "423060e65c90bf6b24aeb226208ed2ec", "fusion_lon": 0.0}, {"rental_uris": {"ios": "https://dc.lft.to/lastmile_qr_scan", "android": "https://dc.lft.to/lastmile_qr_scan"}, "type": "electric_scooter", "name": "e049a3ed3fcaf585949296c92f69efad", "is_reserved": 0, "lon": -77.029826, "is_disabled": 0, "fusion_lat": 0.0, "lat": 38.904707, "bike_id": "e049a3ed3fcaf585949296c92f69efad", "fusion_lon": 0.0}, {"rental_uris": {"ios": "https://dc.lft.to/lastmile_qr_scan", "android": "https://dc.lft.to/lastmile_qr_scan"}, "type": "electric_scooter", "name": "0dca018068c7cc95ab80f594c3430d55", "is_reserved": 0, "lon": -77.059177, "is_disabled": 0, "fusion_lat": 0.0, "lat": 38.89783, "bike_id": "0dca018068c7cc95ab80f594c3430d55", "fusion_lon": 0.0}, {"rental_uris": {"ios": "https://dc.lft.to/lastmile_qr_scan", "android": "https://dc.lft.to/lastmile_qr_scan"}, "type": "electric_scooter", "name": "2f03bc1140d3b86156bf1707ba274b9d", "is_reserved": 0, "lon": -77.02708933333334, "is_disabled": 0, "fusion_lat": 0.0, "lat": 38.918438, "bike_id": "2f03bc1140d3b86156bf1707ba274b9d", "fusion_lon": 0.0}, {"rental_uris": {"ios": "https://dc.lft.to/lastmile_qr_scan", "android": "https://dc.lft.to/lastmile_qr_scan"}, "type": "electric_scooter", "name": "cc53440ed640b90c85c3eb3d6153e40e", "is_reserved": 0, "lon": -77.02107666666667, "is_disabled": 0, "fusion_lat": 0.0, "lat": 38.9232385, "bike_id": "cc53440ed640b90c85c3eb3d6153e40e", "fusion_lon": 0.0}, {"rental_uris": {"ios": "https://dc.lft.to/lastmile_qr_scan", "android": "https://dc.lft.to/lastmile_qr_scan"}, "type": "electric_scooter", "name": "db547891a8e65e2e80d1125d7ac6c082", "is_reserved": 0, "lon": -77.045691, "is_disabled": 0, "fusion_lat": 0.0, "lat": 38.9141325, "bike_id": "db547891a8e65e2e80d1125d7ac6c082", "fusion_lon": 0.0}, {"rental_uris": {"ios": "https://dc.lft.to/lastmile_qr_scan", "android": "https://dc.lft.to/lastmile_qr_scan"}, "type": "electric_scooter", "name": "56bf0d48ccf7d2a08621ff8d431c6947", "is_reserved": 0, "lon": -77.024078, "is_disabled": 0, "fusion_lat": 0.0, "lat": 38.93379783333334, "bike_id": "56bf0d48ccf7d2a08621ff8d431c6947", "fusion_lon": 0.0}, {"rental_uris": {"ios": "https://dc.lft.to/lastmile_qr_scan", "android": "https://dc.lft.to/lastmile_qr_scan"}, "type": "electric_scooter", "name": "88714460a9912158d4e3fb4e956eacec", "is_reserved": 0, "lon": -77.0053795, "is_disabled": 0, "fusion_lat": 0.0, "lat": 38.879302333333335, "bike_id": "88714460a9912158d4e3fb4e956eacec", "fusion_lon": 0.0}, {"rental_uris": {"ios": "https://dc.lft.to/lastmile_qr_scan", "android": "https://dc.lft.to/lastmile_qr_scan"}, "type": "electric_bike", "name": "942e2a8484d5e440b0d3acb1ea719248", "is_reserved": 0, "lon": -77.006746, "is_disabled": 0, "fusion_lat": 0.0, "lat": 38.945158166666666, "bike_id": "942e2a8484d5e440b0d3acb1ea719248", "fusion_lon": 0.0}, {"rental_uris": {"ios": "https://dc.lft.to/lastmile_qr_scan", "android": "https://dc.lft.to/lastmile_qr_scan"}, "type": "electric_scooter", "name": "d790d90e3f7d7c731f32d24f9b669b08", "is_reserved": 0, "lon": -77.0072355, "is_disabled": 0, "fusion_lat": 0.0, "lat": 38.8767475, "bike_id": "d790d90e3f7d7c731f32d24f9b669b08", "fusion_lon": 0.0}, {"rental_uris": {"ios": "https://dc.lft.to/lastmile_qr_scan", "android": "https://dc.lft.to/lastmile_qr_scan"}, "type": "electric_scooter", "name": "ebcb1887af0e486a57f24015db94ebff", "is_reserved": 0, "lon": -77.03272383333334, "is_disabled": 0, "fusion_lat": 0.0, "lat": 38.898861, "bike_id": "ebcb1887af0e486a57f24015db94ebff", "fusion_lon": 0.0}, {"rental_uris": {"ios": "https://dc.lft.to/lastmile_qr_scan", "android": "https://dc.lft.to/lastmile_qr_scan"}, "type": "electric_bike", "name": "7ee43535b9395c494f57a0f325e8d550", "is_reserved": 0, "lon": -76.96268883333333, "is_disabled": 0, "fusion_lat": 0.0, "lat": 38.967827, "bike_id": "7ee43535b9395c494f57a0f325e8d550", "fusion_lon": 0.0}, {"rental_uris": {"ios": "https://dc.lft.to/lastmile_qr_scan", "android": "https://dc.lft.to/lastmile_qr_scan"}, "type": "electric_scooter", "name": "4f2f5ace23c94c0d7a031685658a0134", "is_reserved": 0, "lon": -76.97003716666667, "is_disabled": 0, "fusion_lat": 0.0, "lat": 38.86027083333333, "bike_id": "4f2f5ace23c94c0d7a031685658a0134", "fusion_lon": 0.0}, {"rental_uris": {"ios": "https://dc.lft.to/lastmile_qr_scan", "android": "https://dc.lft.to/lastmile_qr_scan"}, "type": "electric_scooter", "name": "b439fae293045c7c39c88305006a1213", "is_reserved": 0, "lon": -77.01212566666666, "is_disabled": 0, "fusion_lat": 0.0, "lat": 38.92120766666667, "bike_id": "b439fae293045c7c39c88305006a1213", "fusion_lon": 0.0}, {"rental_uris": {"ios": "https://dc.lft.to/lastmile_qr_scan", "android": "https://dc.lft.to/lastmile_qr_scan"}, "type": "electric_bike", "name": "60ac230dd5ff5789607522d4efd30bbd", "is_reserved": 0, "lon": -76.986861, "is_disabled": 0, "fusion_lat": 0.0, "lat": 38.944754833333334, "bike_id": "60ac230dd5ff5789607522d4efd30bbd", "fusion_lon": 0.0}, {"rental_uris": {"ios": "https://dc.lft.to/lastmile_qr_scan", "android": "https://dc.lft.to/lastmile_qr_scan"}, "type": "electric_bike", "name": "2059b1c82ce5d18796287895842eecc3", "is_reserved": 0, "lon": -76.93669783333333, "is_disabled": 0, "fusion_lat": 0.0, "lat": 38.89457083333333, "bike_id": "2059b1c82ce5d18796287895842eecc3", "fusion_lon": 0.0}, {"rental_uris": {"ios": "https://dc.lft.to/lastmile_qr_scan", "android": "https://dc.lft.to/lastmile_qr_scan"}, "type": "electric_scooter", "name": "732deb1d240c10b8dc00cc8cd11c0b0c", "is_reserved": 0, "lon": -77.04494233333334, "is_disabled": 0, "fusion_lat": 0.0, "lat": 38.90382116666667, "bike_id": "732deb1d240c10b8dc00cc8cd11c0b0c", "fusion_lon": 0.0}, {"rental_uris": {"ios": "https://dc.lft.to/lastmile_qr_scan", "android": "https://dc.lft.to/lastmile_qr_scan"}, "type": "electric_scooter", "name": "d86cf40bf7c0e519f3560d8df2892457", "is_reserved": 0, "lon": -77.04588866666667, "is_disabled": 0, "fusion_lat": 0.0, "lat": 38.90227683333333, "bike_id": "d86cf40bf7c0e519f3560d8df2892457", "fusion_lon": 0.0}, {"rental_uris": {"ios": "https://dc.lft.to/lastmile_qr_scan", "android": "https://dc.lft.to/lastmile_qr_scan"}, "type": "electric_scooter", "name": "459743cc01f905a922e9730bd9e57013", "is_reserved": 0, "lon": -77.02780983333334, "is_disabled": 0, "fusion_lat": 0.0, "lat": 38.962456833333334, "bike_id": "459743cc01f905a922e9730bd9e57013", "fusion_lon": 0.0}, {"rental_uris": {"ios": "https://dc.lft.to/lastmile_qr_scan", "android": "https://dc.lft.to/lastmile_qr_scan"}, "type": "electric_scooter", "name": "7811393bbd31bf7574e3a2b40cfc9566", "is_reserved": 0, "lon": -77.012032, "is_disabled": 0, "fusion_lat": 0.0, "lat": 38.91197983333333, "bike_id": "7811393bbd31bf7574e3a2b40cfc9566", "fusion_lon": 0.0}, {"rental_uris": {"ios": "https://dc.lft.to/lastmile_qr_scan", "android": "https://dc.lft.to/lastmile_qr_scan"}, "type": "electric_scooter", "name": "d88092cda63b20e01955088fdddea825", "is_reserved": 0, "lon": -77.01580666666666, "is_disabled": 0, "fusion_lat": 0.0, "lat": 38.916869166666665, "bike_id": "d88092cda63b20e01955088fdddea825", "fusion_lon": 0.0}, {"rental_uris": {"ios": "https://dc.lft.to/lastmile_qr_scan", "android": "https://dc.lft.to/lastmile_qr_scan"}, "type": "electric_scooter", "name": "66ff900d95ff6df15a7847c36a87dec9", "is_reserved": 0, "lon": -76.99440316666667, "is_disabled": 0, "fusion_lat": 0.0, "lat": 38.959253333333336, "bike_id": "66ff900d95ff6df15a7847c36a87dec9", "fusion_lon": 0.0}, {"rental_uris": {"ios": "https://dc.lft.to/lastmile_qr_scan", "android": "https://dc.lft.to/lastmile_qr_scan"}, "type": "electric_scooter", "name": "40bd667db1ca2bf0577ede4e36ddb2da", "is_reserved": 0, "lon": -77.00427866666666, "is_disabled": 0, "fusion_lat": 0.0, "lat": 38.885127, "bike_id": "40bd667db1ca2bf0577ede4e36ddb2da", "fusion_lon": 0.0}, {"rental_uris": {"ios": "https://dc.lft.to/lastmile_qr_scan", "android": "https://dc.lft.to/lastmile_qr_scan"}, "type": "electric_bike", "name": "c973dfafd2aaf7ab6415282247adb6dd", "is_reserved": 0, "lon": -77.0354315, "is_disabled": 0, "fusion_lat": 0.0, "lat": 38.923882166666665, "bike_id": "c973dfafd2aaf7ab6415282247adb6dd", "fusion_lon": 0.0}, {"rental_uris": {"ios": "https://dc.lft.to/lastmile_qr_scan", "android": "https://dc.lft.to/lastmile_qr_scan"}, "type": "electric_scooter", "name": "9b142fa3745ba335d75b1d391c0803d7", "is_reserved": 0, "lon": -76.99281166666667, "is_disabled": 0, "fusion_lat": 0.0, "lat": 38.883087, "bike_id": "9b142fa3745ba335d75b1d391c0803d7", "fusion_lon": 0.0}, {"rental_uris": {"ios": "https://dc.lft.to/lastmile_qr_scan", "android": "https://dc.lft.to/lastmile_qr_scan"}, "type": "electric_scooter", "name": "252cea2e4f8d113cf4f333246ce92b67", "is_reserved": 0, "lon": -77.02312833333333, "is_disabled": 0, "fusion_lat": 0.0, "lat": 38.961328, "bike_id": "252cea2e4f8d113cf4f333246ce92b67", "fusion_lon": 0.0}, {"rental_uris": {"ios": "https://dc.lft.to/lastmile_qr_scan", "android": "https://dc.lft.to/lastmile_qr_scan"}, "type": "electric_scooter", "name": "1df89f4d34636731d1160c8b7135457b", "is_reserved": 0, "lon": -77.03784066666667, "is_disabled": 0, "fusion_lat": 0.0, "lat": 38.91594933333333, "bike_id": "1df89f4d34636731d1160c8b7135457b", "fusion_lon": 0.0}, {"rental_uris": {"ios": "https://dc.lft.to/lastmile_qr_scan", "android": "https://dc.lft.to/lastmile_qr_scan"}, "type": "electric_scooter", "name": "1139a22d97ca58f5a787933da2466754", "is_reserved": 0, "lon": -77.02276816666667, "is_disabled": 0, "fusion_lat": 0.0, "lat": 38.92631633333333, "bike_id": "1139a22d97ca58f5a787933da2466754", "fusion_lon": 0.0}, {"rental_uris": {"ios": "https://dc.lft.to/lastmile_qr_scan", "android": "https://dc.lft.to/lastmile_qr_scan"}, "type": "electric_scooter", "name": "79800b3672e66c5d47c9c01fe2c788b0", "is_reserved": 0, "lon": -77.01864616666667, "is_disabled": 0, "fusion_lat": 0.0, "lat": 38.9515465, "bike_id": "79800b3672e66c5d47c9c01fe2c788b0", "fusion_lon": 0.0}, {"rental_uris": {"ios": "https://dc.lft.to/lastmile_qr_scan", "android": "https://dc.lft.to/lastmile_qr_scan"}, "type": "electric_scooter", "name": "3afcbcb3c66d858a673c29b129f25e46", "is_reserved": 0, "lon": -77.02679483333333, "is_disabled": 0, "fusion_lat": 0.0, "lat": 38.898680666666664, "bike_id": "3afcbcb3c66d858a673c29b129f25e46", "fusion_lon": 0.0}, {"rental_uris": {"ios": "https://dc.lft.to/lastmile_qr_scan", "android": "https://dc.lft.to/lastmile_qr_scan"}, "type": "electric_scooter", "name": "08eac81cefb94e038a9bfc1d48088d8c", "is_reserved": 0, "lon": -77.02271466666667, "is_disabled": 0, "fusion_lat": 0.0, "lat": 38.924730833333335, "bike_id": "08eac81cefb94e038a9bfc1d48088d8c", "fusion_lon": 0.0}, {"rental_uris": {"ios": "https://dc.lft.to/lastmile_qr_scan", "android": "https://dc.lft.to/lastmile_qr_scan"}, "type": "electric_scooter", "name": "703b697f1024f35d97eb3b7a03ba3497", "is_reserved": 0, "lon": -77.03759566666666, "is_disabled": 0, "fusion_lat": 0.0, "lat": 38.925603, "bike_id": "703b697f1024f35d97eb3b7a03ba3497", "fusion_lon": 0.0}, {"rental_uris": {"ios": "https://dc.lft.to/lastmile_qr_scan", "android": "https://dc.lft.to/lastmile_qr_scan"}, "type": "electric_scooter", "name": "ea8b1157c42b231243bc2f131f0e74af", "is_reserved": 0, "lon": -77.03905316666666, "is_disabled": 0, "fusion_lat": 0.0, "lat": 38.9082965, "bike_id": "ea8b1157c42b231243bc2f131f0e74af", "fusion_lon": 0.0}, {"rental_uris": {"ios": "https://dc.lft.to/lastmile_qr_scan", "android": "https://dc.lft.to/lastmile_qr_scan"}, "type": "electric_scooter", "name": "f078f3c66b09eb1996f3d16d6fd133c0", "is_reserved": 0, "lon": -77.0281825, "is_disabled": 0, "fusion_lat": 0.0, "lat": 38.90621866666667, "bike_id": "f078f3c66b09eb1996f3d16d6fd133c0", "fusion_lon": 0.0}, {"rental_uris": {"ios": "https://dc.lft.to/lastmile_qr_scan", "android": "https://dc.lft.to/lastmile_qr_scan"}, "type": "electric_scooter", "name": "3d1430f3b8644768bee3fe5db5a30d68", "is_reserved": 0, "lon": -77.04557766666667, "is_disabled": 0, "fusion_lat": 0.0, "lat": 38.917897833333335, "bike_id": "3d1430f3b8644768bee3fe5db5a30d68", "fusion_lon": 0.0}, {"rental_uris": {"ios": "https://dc.lft.to/lastmile_qr_scan", "android": "https://dc.lft.to/lastmile_qr_scan"}, "type": "electric_scooter", "name": "7d2ed40a6adbf2ea702bddbc3eb5d5e4", "is_reserved": 0, "lon": -76.93383933333334, "is_disabled": 0, "fusion_lat": 0.0, "lat": 38.899216, "bike_id": "7d2ed40a6adbf2ea702bddbc3eb5d5e4", "fusion_lon": 0.0}, {"rental_uris": {"ios": "https://dc.lft.to/lastmile_qr_scan", "android": "https://dc.lft.to/lastmile_qr_scan"}, "type": "electric_scooter", "name": "2606c9c7894a01bde765ae01ab7c40c7", "is_reserved": 0, "lon": -77.02030516666666, "is_disabled": 0, "fusion_lat": 0.0, "lat": 38.93646416666667, "bike_id": "2606c9c7894a01bde765ae01ab7c40c7", "fusion_lon": 0.0}, {"rental_uris": {"ios": "https://dc.lft.to/lastmile_qr_scan", "android": "https://dc.lft.to/lastmile_qr_scan"}, "type": "electric_scooter", "name": "46006b73f93c280b38f62201445be8bf", "is_reserved": 0, "lon": -77.038407, "is_disabled": 0, "fusion_lat": 0.0, "lat": 38.91011366666667, "bike_id": "46006b73f93c280b38f62201445be8bf", "fusion_lon": 0.0}, {"rental_uris": {"ios": "https://dc.lft.to/lastmile_qr_scan", "android": "https://dc.lft.to/lastmile_qr_scan"}, "type": "electric_scooter", "name": "a25ff1f26e84ce448b4f52eaaa6aa361", "is_reserved": 0, "lon": -76.965064, "is_disabled": 0, "fusion_lat": 0.0, "lat": 38.87649283333333, "bike_id": "a25ff1f26e84ce448b4f52eaaa6aa361", "fusion_lon": 0.0}, {"rental_uris": {"ios": "https://dc.lft.to/lastmile_qr_scan", "android": "https://dc.lft.to/lastmile_qr_scan"}, "type": "electric_scooter", "name": "7d1968955f3c5487c76bacfce074bf52", "is_reserved": 0, "lon": -77.021903, "is_disabled": 0, "fusion_lat": 0.0, "lat": 38.91371683333333, "bike_id": "7d1968955f3c5487c76bacfce074bf52", "fusion_lon": 0.0}, {"rental_uris": {"ios": "https://dc.lft.to/lastmile_qr_scan", "android": "https://dc.lft.to/lastmile_qr_scan"}, "type": "electric_scooter", "name": "fc95ca59bb4a3d40cf59d109616e3e42", "is_reserved": 0, "lon": -77.04591566666667, "is_disabled": 0, "fusion_lat": 0.0, "lat": 38.9142345, "bike_id": "fc95ca59bb4a3d40cf59d109616e3e42", "fusion_lon": 0.0}, {"rental_uris": {"ios": "https://dc.lft.to/lastmile_qr_scan", "android": "https://dc.lft.to/lastmile_qr_scan"}, "type": "electric_scooter", "name": "ed6f57681399e9ec738473812b467b63", "is_reserved": 0, "lon": -77.043506, "is_disabled": 0, "fusion_lat": 0.0, "lat": 38.90718366666667, "bike_id": "ed6f57681399e9ec738473812b467b63", "fusion_lon": 0.0}, {"rental_uris": {"ios": "https://dc.lft.to/lastmile_qr_scan", "android": "https://dc.lft.to/lastmile_qr_scan"}, "type": "electric_scooter", "name": "a12bfc055fb7b637df287ecabe390d8f", "is_reserved": 0, "lon": -77.02396683333333, "is_disabled": 0, "fusion_lat": 0.0, "lat": 38.9207775, "bike_id": "a12bfc055fb7b637df287ecabe390d8f", "fusion_lon": 0.0}, {"rental_uris": {"ios": "https://dc.lft.to/lastmile_qr_scan", "android": "https://dc.lft.to/lastmile_qr_scan"}, "type": "electric_scooter", "name": "5dee2be390a7ea866eca0cc949959ca3", "is_reserved": 0, "lon": -77.02759466666667, "is_disabled": 0, "fusion_lat": 0.0, "lat": 38.91203466666666, "bike_id": "5dee2be390a7ea866eca0cc949959ca3", "fusion_lon": 0.0}, {"rental_uris": {"ios": "https://dc.lft.to/lastmile_qr_scan", "android": "https://dc.lft.to/lastmile_qr_scan"}, "type": "electric_bike", "name": "b7a8a546a240ba582edb92d5b8fd5249", "is_reserved": 0, "lon": -77.0665235, "is_disabled": 0, "fusion_lat": 0.0, "lat": 38.949402, "bike_id": "b7a8a546a240ba582edb92d5b8fd5249", "fusion_lon": 0.0}, {"rental_uris": {"ios": "https://dc.lft.to/lastmile_qr_scan", "android": "https://dc.lft.to/lastmile_qr_scan"}, "type": "electric_bike", "name": "cf80991273391783ffdb09861d1cf5d9", "is_reserved": 0, "lon": -76.996814, "is_disabled": 0, "fusion_lat": 0.0, "lat": 38.838216333333335, "bike_id": "cf80991273391783ffdb09861d1cf5d9", "fusion_lon": 0.0}, {"rental_uris": {"ios": "https://dc.lft.to/lastmile_qr_scan", "android": "https://dc.lft.to/lastmile_qr_scan"}, "type": "electric_scooter", "name": "b297f14a590350b6beeb6d8b2c89ba26", "is_reserved": 0, "lon": -77.0421815, "is_disabled": 0, "fusion_lat": 0.0, "lat": 38.9250815, "bike_id": "b297f14a590350b6beeb6d8b2c89ba26", "fusion_lon": 0.0}, {"rental_uris": {"ios": "https://dc.lft.to/lastmile_qr_scan", "android": "https://dc.lft.to/lastmile_qr_scan"}, "type": "electric_scooter", "name": "656bb5f40918068b3241cacbca0529ad", "is_reserved": 0, "lon": -77.0269455, "is_disabled": 0, "fusion_lat": 0.0, "lat": 38.9498055, "bike_id": "656bb5f40918068b3241cacbca0529ad", "fusion_lon": 0.0}, {"rental_uris": {"ios": "https://dc.lft.to/lastmile_qr_scan", "android": "https://dc.lft.to/lastmile_qr_scan"}, "type": "electric_bike", "name": "a498f3eb8d3b6bde5384b2ae0015d224", "is_reserved": 0, "lon": -77.01224083333334, "is_disabled": 0, "fusion_lat": 0.0, "lat": 38.950786666666666, "bike_id": "a498f3eb8d3b6bde5384b2ae0015d224", "fusion_lon": 0.0}, {"rental_uris": {"ios": "https://dc.lft.to/lastmile_qr_scan", "android": "https://dc.lft.to/lastmile_qr_scan"}, "type": "electric_scooter", "name": "6dca0329b994f9efabbee1f3760ec07c", "is_reserved": 0, "lon": -77.03171966666666, "is_disabled": 0, "fusion_lat": 0.0, "lat": 38.9212715, "bike_id": "6dca0329b994f9efabbee1f3760ec07c", "fusion_lon": 0.0}, {"rental_uris": {"ios": "https://dc.lft.to/lastmile_qr_scan", "android": "https://dc.lft.to/lastmile_qr_scan"}, "type": "electric_scooter", "name": "d1d96979ba8059efafadbf39784614a8", "is_reserved": 0, "lon": -76.93424633333333, "is_disabled": 0, "fusion_lat": 0.0, "lat": 38.893467, "bike_id": "d1d96979ba8059efafadbf39784614a8", "fusion_lon": 0.0}, {"rental_uris": {"ios": "https://dc.lft.to/lastmile_qr_scan", "android": "https://dc.lft.to/lastmile_qr_scan"}, "type": "electric_scooter", "name": "39198c327e006b7870043eaaade32b1b", "is_reserved": 0, "lon": -77.00875916666666, "is_disabled": 0, "fusion_lat": 0.0, "lat": 38.897494333333334, "bike_id": "39198c327e006b7870043eaaade32b1b", "fusion_lon": 0.0}, {"rental_uris": {"ios": "https://dc.lft.to/lastmile_qr_scan", "android": "https://dc.lft.to/lastmile_qr_scan"}, "type": "electric_scooter", "name": "61faa11cbc9bd14519e141640986b222", "is_reserved": 0, "lon": -76.95278233333333, "is_disabled": 0, "fusion_lat": 0.0, "lat": 38.8919335, "bike_id": "61faa11cbc9bd14519e141640986b222", "fusion_lon": 0.0}, {"rental_uris": {"ios": "https://dc.lft.to/lastmile_qr_scan", "android": "https://dc.lft.to/lastmile_qr_scan"}, "type": "electric_scooter", "name": "002261756191218bcd8da6a1202445ca", "is_reserved": 0, "lon": -77.03442183333334, "is_disabled": 0, "fusion_lat": 0.0, "lat": 38.9179795, "bike_id": "002261756191218bcd8da6a1202445ca", "fusion_lon": 0.0}, {"rental_uris": {"ios": "https://dc.lft.to/lastmile_qr_scan", "android": "https://dc.lft.to/lastmile_qr_scan"}, "type": "electric_scooter", "name": "6e175f746a978c19d5cf1d595aab2c9e", "is_reserved": 0, "lon": -77.000465, "is_disabled": 0, "fusion_lat": 0.0, "lat": 38.918986, "bike_id": "6e175f746a978c19d5cf1d595aab2c9e", "fusion_lon": 0.0}, {"rental_uris": {"ios": "https://dc.lft.to/lastmile_qr_scan", "android": "https://dc.lft.to/lastmile_qr_scan"}, "type": "electric_scooter", "name": "aeaf59587299251d970ca962809e0f49", "is_reserved": 0, "lon": -76.98083066666666, "is_disabled": 0, "fusion_lat": 0.0, "lat": 38.894400833333336, "bike_id": "aeaf59587299251d970ca962809e0f49", "fusion_lon": 0.0}, {"rental_uris": {"ios": "https://dc.lft.to/lastmile_qr_scan", "android": "https://dc.lft.to/lastmile_qr_scan"}, "type": "electric_scooter", "name": "ce21ad5163355373a5a08429e5427519", "is_reserved": 0, "lon": -77.03346483333333, "is_disabled": 0, "fusion_lat": 0.0, "lat": 38.89972733333333, "bike_id": "ce21ad5163355373a5a08429e5427519", "fusion_lon": 0.0}, {"rental_uris": {"ios": "https://dc.lft.to/lastmile_qr_scan", "android": "https://dc.lft.to/lastmile_qr_scan"}, "type": "electric_scooter", "name": "cd849557723592ca672a22509cba996f", "is_reserved": 0, "lon": -77.01430366666666, "is_disabled": 0, "fusion_lat": 0.0, "lat": 38.91813366666667, "bike_id": "cd849557723592ca672a22509cba996f", "fusion_lon": 0.0}, {"rental_uris": {"ios": "https://dc.lft.to/lastmile_qr_scan", "android": "https://dc.lft.to/lastmile_qr_scan"}, "type": "electric_scooter", "name": "e330158743f8022be5f1edb8cd07a66f", "is_reserved": 0, "lon": -77.036428, "is_disabled": 0, "fusion_lat": 0.0, "lat": 38.9281035, "bike_id": "e330158743f8022be5f1edb8cd07a66f", "fusion_lon": 0.0}, {"rental_uris": {"ios": "https://dc.lft.to/lastmile_qr_scan", "android": "https://dc.lft.to/lastmile_qr_scan"}, "type": "electric_scooter", "name": "958fdf2ed9a7cfaf2f996186d78fce32", "is_reserved": 0, "lon": -77.04742566666667, "is_disabled": 0, "fusion_lat": 0.0, "lat": 38.9053755, "bike_id": "958fdf2ed9a7cfaf2f996186d78fce32", "fusion_lon": 0.0}, {"rental_uris": {"ios": "https://dc.lft.to/lastmile_qr_scan", "android": "https://dc.lft.to/lastmile_qr_scan"}, "type": "electric_scooter", "name": "97e07fa6780acf4daee9242b5e831aa8", "is_reserved": 0, "lon": -76.98578533333334, "is_disabled": 0, "fusion_lat": 0.0, "lat": 38.8544975, "bike_id": "97e07fa6780acf4daee9242b5e831aa8", "fusion_lon": 0.0}, {"rental_uris": {"ios": "https://dc.lft.to/lastmile_qr_scan", "android": "https://dc.lft.to/lastmile_qr_scan"}, "type": "electric_scooter", "name": "8cb462e8a90f893709c102bd0cc05670", "is_reserved": 0, "lon": -77.0295365, "is_disabled": 0, "fusion_lat": 0.0, "lat": 38.9071405, "bike_id": "8cb462e8a90f893709c102bd0cc05670", "fusion_lon": 0.0}, {"rental_uris": {"ios": "https://dc.lft.to/lastmile_qr_scan", "android": "https://dc.lft.to/lastmile_qr_scan"}, "type": "electric_scooter", "name": "da75e259009d19cb038d83691986d20d", "is_reserved": 0, "lon": -77.043144, "is_disabled": 0, "fusion_lat": 0.0, "lat": 38.89725933333333, "bike_id": "da75e259009d19cb038d83691986d20d", "fusion_lon": 0.0}, {"rental_uris": {"ios": "https://dc.lft.to/lastmile_qr_scan", "android": "https://dc.lft.to/lastmile_qr_scan"}, "type": "electric_scooter", "name": "0b02fe7c828127e32c714a15059dd927", "is_reserved": 0, "lon": -77.03075983333333, "is_disabled": 0, "fusion_lat": 0.0, "lat": 38.938749, "bike_id": "0b02fe7c828127e32c714a15059dd927", "fusion_lon": 0.0}, {"rental_uris": {"ios": "https://dc.lft.to/lastmile_qr_scan", "android": "https://dc.lft.to/lastmile_qr_scan"}, "type": "electric_scooter", "name": "39e5e6b58de8fe205c15953a928a833b", "is_reserved": 0, "lon": -77.0383445, "is_disabled": 0, "fusion_lat": 0.0, "lat": 38.911098, "bike_id": "39e5e6b58de8fe205c15953a928a833b", "fusion_lon": 0.0}, {"rental_uris": {"ios": "https://dc.lft.to/lastmile_qr_scan", "android": "https://dc.lft.to/lastmile_qr_scan"}, "type": "electric_scooter", "name": "9a690946cb18ddcb85a52268e45ef5b3", "is_reserved": 0, "lon": -77.03429183333333, "is_disabled": 0, "fusion_lat": 0.0, "lat": 38.905660166666664, "bike_id": "9a690946cb18ddcb85a52268e45ef5b3", "fusion_lon": 0.0}, {"rental_uris": {"ios": "https://dc.lft.to/lastmile_qr_scan", "android": "https://dc.lft.to/lastmile_qr_scan"}, "type": "electric_scooter", "name": "c2186a8e48d10a383c378296ab75250b", "is_reserved": 0, "lon": -77.03500266666667, "is_disabled": 0, "fusion_lat": 0.0, "lat": 38.921538, "bike_id": "c2186a8e48d10a383c378296ab75250b", "fusion_lon": 0.0}, {"rental_uris": {"ios": "https://dc.lft.to/lastmile_qr_scan", "android": "https://dc.lft.to/lastmile_qr_scan"}, "type": "electric_scooter", "name": "928fa9399c38f1c650837d243e376bd3", "is_reserved": 0, "lon": -77.03676716666666, "is_disabled": 0, "fusion_lat": 0.0, "lat": 38.93921566666667, "bike_id": "928fa9399c38f1c650837d243e376bd3", "fusion_lon": 0.0}, {"rental_uris": {"ios": "https://dc.lft.to/lastmile_qr_scan", "android": "https://dc.lft.to/lastmile_qr_scan"}, "type": "electric_scooter", "name": "e9381172261776760d3cd2cf0e0571ca", "is_reserved": 0, "lon": -77.0431535, "is_disabled": 0, "fusion_lat": 0.0, "lat": 38.9221575, "bike_id": "e9381172261776760d3cd2cf0e0571ca", "fusion_lon": 0.0}, {"rental_uris": {"ios": "https://dc.lft.to/lastmile_qr_scan", "android": "https://dc.lft.to/lastmile_qr_scan"}, "type": "electric_scooter", "name": "50111e38499a7be1a84cb3b716edc173", "is_reserved": 0, "lon": -77.04123, "is_disabled": 0, "fusion_lat": 0.0, "lat": 38.93105516666667, "bike_id": "50111e38499a7be1a84cb3b716edc173", "fusion_lon": 0.0}, {"rental_uris": {"ios": "https://dc.lft.to/lastmile_qr_scan", "android": "https://dc.lft.to/lastmile_qr_scan"}, "type": "electric_scooter", "name": "9876a1efb364e9819c62bd6f3c32f587", "is_reserved": 0, "lon": -77.07023966666667, "is_disabled": 0, "fusion_lat": 0.0, "lat": 38.8936375, "bike_id": "9876a1efb364e9819c62bd6f3c32f587", "fusion_lon": 0.0}, {"rental_uris": {"ios": "https://dc.lft.to/lastmile_qr_scan", "android": "https://dc.lft.to/lastmile_qr_scan"}, "type": "electric_bike", "name": "aee9d9884c9b3ee9e9f5d0fffaaea170", "is_reserved": 0, "lon": -76.94532666666667, "is_disabled": 0, "fusion_lat": 0.0, "lat": 38.86761216666667, "bike_id": "aee9d9884c9b3ee9e9f5d0fffaaea170", "fusion_lon": 0.0}, {"rental_uris": {"ios": "https://dc.lft.to/lastmile_qr_scan", "android": "https://dc.lft.to/lastmile_qr_scan"}, "type": "electric_scooter", "name": "61ea9308792d4919d0b69bdd65373873", "is_reserved": 0, "lon": -77.0267045, "is_disabled": 0, "fusion_lat": 0.0, "lat": 38.902392666666664, "bike_id": "61ea9308792d4919d0b69bdd65373873", "fusion_lon": 0.0}, {"rental_uris": {"ios": "https://dc.lft.to/lastmile_qr_scan", "android": "https://dc.lft.to/lastmile_qr_scan"}, "type": "electric_scooter", "name": "3f0190c180d8b1f9e0656a5fefe64331", "is_reserved": 0, "lon": -77.05144366666667, "is_disabled": 0, "fusion_lat": 0.0, "lat": 38.90434183333333, "bike_id": "3f0190c180d8b1f9e0656a5fefe64331", "fusion_lon": 0.0}, {"rental_uris": {"ios": "https://dc.lft.to/lastmile_qr_scan", "android": "https://dc.lft.to/lastmile_qr_scan"}, "type": "electric_scooter", "name": "9b8d8e663348d51b16828619e667cabc", "is_reserved": 0, "lon": -77.01583833333333, "is_disabled": 0, "fusion_lat": 0.0, "lat": 38.87652933333333, "bike_id": "9b8d8e663348d51b16828619e667cabc", "fusion_lon": 0.0}, {"rental_uris": {"ios": "https://dc.lft.to/lastmile_qr_scan", "android": "https://dc.lft.to/lastmile_qr_scan"}, "type": "electric_bike", "name": "6a8556c3e15fe176b59e967349522eb2", "is_reserved": 0, "lon": -76.94153716666666, "is_disabled": 0, "fusion_lat": 0.0, "lat": 38.89019183333333, "bike_id": "6a8556c3e15fe176b59e967349522eb2", "fusion_lon": 0.0}, {"rental_uris": {"ios": "https://dc.lft.to/lastmile_qr_scan", "android": "https://dc.lft.to/lastmile_qr_scan"}, "type": "electric_scooter", "name": "eb9190c686752e1f93717bd323e3da96", "is_reserved": 0, "lon": -77.03336566666667, "is_disabled": 0, "fusion_lat": 0.0, "lat": 38.928588, "bike_id": "eb9190c686752e1f93717bd323e3da96", "fusion_lon": 0.0}, {"rental_uris": {"ios": "https://dc.lft.to/lastmile_qr_scan", "android": "https://dc.lft.to/lastmile_qr_scan"}, "type": "electric_scooter", "name": "633fd1c6d919ad2dc2777d03208d2610", "is_reserved": 0, "lon": -77.03442383333334, "is_disabled": 0, "fusion_lat": 0.0, "lat": 38.90978833333333, "bike_id": "633fd1c6d919ad2dc2777d03208d2610", "fusion_lon": 0.0}, {"rental_uris": {"ios": "https://dc.lft.to/lastmile_qr_scan", "android": "https://dc.lft.to/lastmile_qr_scan"}, "type": "electric_scooter", "name": "daf736662b98417d69cb1734cf8b7b43", "is_reserved": 0, "lon": -77.05002516666667, "is_disabled": 0, "fusion_lat": 0.0, "lat": 38.892314999999996, "bike_id": "daf736662b98417d69cb1734cf8b7b43", "fusion_lon": 0.0}, {"rental_uris": {"ios": "https://dc.lft.to/lastmile_qr_scan", "android": "https://dc.lft.to/lastmile_qr_scan"}, "type": "electric_scooter", "name": "59559a3f1d1f3dfae78914dc690ed655", "is_reserved": 0, "lon": -76.99944283333333, "is_disabled": 0, "fusion_lat": 0.0, "lat": 38.900608166666665, "bike_id": "59559a3f1d1f3dfae78914dc690ed655", "fusion_lon": 0.0}, {"rental_uris": {"ios": "https://dc.lft.to/lastmile_qr_scan", "android": "https://dc.lft.to/lastmile_qr_scan"}, "type": "electric_scooter", "name": "71b1d730434e65599b3e5483d0761bf7", "is_reserved": 0, "lon": -77.033376, "is_disabled": 0, "fusion_lat": 0.0, "lat": 38.92541083333333, "bike_id": "71b1d730434e65599b3e5483d0761bf7", "fusion_lon": 0.0}, {"rental_uris": {"ios": "https://dc.lft.to/lastmile_qr_scan", "android": "https://dc.lft.to/lastmile_qr_scan"}, "type": "electric_scooter", "name": "d386308915a4eec7485eeaf3840ddcfc", "is_reserved": 0, "lon": -77.01303416666667, "is_disabled": 0, "fusion_lat": 0.0, "lat": 38.920176833333336, "bike_id": "d386308915a4eec7485eeaf3840ddcfc", "fusion_lon": 0.0}, {"rental_uris": {"ios": "https://dc.lft.to/lastmile_qr_scan", "android": "https://dc.lft.to/lastmile_qr_scan"}, "type": "electric_scooter", "name": "115879908b61427d2aa3a73b6d90f19b", "is_reserved": 0, "lon": -76.990554, "is_disabled": 0, "fusion_lat": 0.0, "lat": 38.86379083333333, "bike_id": "115879908b61427d2aa3a73b6d90f19b", "fusion_lon": 0.0}, {"rental_uris": {"ios": "https://dc.lft.to/lastmile_qr_scan", "android": "https://dc.lft.to/lastmile_qr_scan"}, "type": "electric_scooter", "name": "a2f3aa6551a6f20f0de577f6d9bbd61a", "is_reserved": 0, "lon": -77.04133533333334, "is_disabled": 0, "fusion_lat": 0.0, "lat": 38.92169533333333, "bike_id": "a2f3aa6551a6f20f0de577f6d9bbd61a", "fusion_lon": 0.0}, {"rental_uris": {"ios": "https://dc.lft.to/lastmile_qr_scan", "android": "https://dc.lft.to/lastmile_qr_scan"}, "type": "electric_scooter", "name": "15b5ece39602b32f1bfa1948dcd0e700", "is_reserved": 0, "lon": -77.034767, "is_disabled": 0, "fusion_lat": 0.0, "lat": 38.93117683333333, "bike_id": "15b5ece39602b32f1bfa1948dcd0e700", "fusion_lon": 0.0}, {"rental_uris": {"ios": "https://dc.lft.to/lastmile_qr_scan", "android": "https://dc.lft.to/lastmile_qr_scan"}, "type": "electric_scooter", "name": "5e955adb2cf221e3541e020e5af3397f", "is_reserved": 0, "lon": -77.020337, "is_disabled": 0, "fusion_lat": 0.0, "lat": 38.893107666666666, "bike_id": "5e955adb2cf221e3541e020e5af3397f", "fusion_lon": 0.0}, {"rental_uris": {"ios": "https://dc.lft.to/lastmile_qr_scan", "android": "https://dc.lft.to/lastmile_qr_scan"}, "type": "electric_scooter", "name": "430ff22a2b57d06132e8e306d0272621", "is_reserved": 0, "lon": -77.02218683333334, "is_disabled": 0, "fusion_lat": 0.0, "lat": 38.92473416666667, "bike_id": "430ff22a2b57d06132e8e306d0272621", "fusion_lon": 0.0}, {"rental_uris": {"ios": "https://dc.lft.to/lastmile_qr_scan", "android": "https://dc.lft.to/lastmile_qr_scan"}, "type": "electric_scooter", "name": "98389622dda0f386c302ebf725a57dc2", "is_reserved": 0, "lon": -76.98335366666667, "is_disabled": 0, "fusion_lat": 0.0, "lat": 38.9008875, "bike_id": "98389622dda0f386c302ebf725a57dc2", "fusion_lon": 0.0}, {"rental_uris": {"ios": "https://dc.lft.to/lastmile_qr_scan", "android": "https://dc.lft.to/lastmile_qr_scan"}, "type": "electric_bike", "name": "7ad2253be33c5dc613b679f5cff05a0b", "is_reserved": 0, "lon": -77.00197683333333, "is_disabled": 0, "fusion_lat": 0.0, "lat": 38.94151516666667, "bike_id": "7ad2253be33c5dc613b679f5cff05a0b", "fusion_lon": 0.0}, {"rental_uris": {"ios": "https://dc.lft.to/lastmile_qr_scan", "android": "https://dc.lft.to/lastmile_qr_scan"}, "type": "electric_scooter", "name": "bd47654a8f32af2890d6eaa4e023bd50", "is_reserved": 0, "lon": -77.03041433333334, "is_disabled": 0, "fusion_lat": 0.0, "lat": 38.92239816666667, "bike_id": "bd47654a8f32af2890d6eaa4e023bd50", "fusion_lon": 0.0}, {"rental_uris": {"ios": "https://dc.lft.to/lastmile_qr_scan", "android": "https://dc.lft.to/lastmile_qr_scan"}, "type": "electric_scooter", "name": "de613c6fcedc32a157c887126e2481a5", "is_reserved": 0, "lon": -77.02410583333334, "is_disabled": 0, "fusion_lat": 0.0, "lat": 38.9206405, "bike_id": "de613c6fcedc32a157c887126e2481a5", "fusion_lon": 0.0}, {"rental_uris": {"ios": "https://dc.lft.to/lastmile_qr_scan", "android": "https://dc.lft.to/lastmile_qr_scan"}, "type": "electric_scooter", "name": "2907198ed36e387103a3d0d4ea567a88", "is_reserved": 0, "lon": -77.01768766666666, "is_disabled": 0, "fusion_lat": 0.0, "lat": 38.90506166666667, "bike_id": "2907198ed36e387103a3d0d4ea567a88", "fusion_lon": 0.0}, {"rental_uris": {"ios": "https://dc.lft.to/lastmile_qr_scan", "android": "https://dc.lft.to/lastmile_qr_scan"}, "type": "electric_scooter", "name": "1589706c1f944630c536110572a316bd", "is_reserved": 0, "lon": -76.95204883333334, "is_disabled": 0, "fusion_lat": 0.0, "lat": 38.90511716666666, "bike_id": "1589706c1f944630c536110572a316bd", "fusion_lon": 0.0}, {"rental_uris": {"ios": "https://dc.lft.to/lastmile_qr_scan", "android": "https://dc.lft.to/lastmile_qr_scan"}, "type": "electric_scooter", "name": "fc50b1a660ce65e1b557cfe4f84913e4", "is_reserved": 0, "lon": -76.92633583333334, "is_disabled": 0, "fusion_lat": 0.0, "lat": 38.90191883333333, "bike_id": "fc50b1a660ce65e1b557cfe4f84913e4", "fusion_lon": 0.0}, {"rental_uris": {"ios": "https://dc.lft.to/lastmile_qr_scan", "android": "https://dc.lft.to/lastmile_qr_scan"}, "type": "electric_scooter", "name": "7a36c89148108a33e36ec14260581d31", "is_reserved": 0, "lon": -77.01758, "is_disabled": 0, "fusion_lat": 0.0, "lat": 38.87686583333333, "bike_id": "7a36c89148108a33e36ec14260581d31", "fusion_lon": 0.0}, {"rental_uris": {"ios": "https://dc.lft.to/lastmile_qr_scan", "android": "https://dc.lft.to/lastmile_qr_scan"}, "type": "electric_scooter", "name": "a498d241e4db1651c24ac2761ef141d6", "is_reserved": 0, "lon": -77.04385983333333, "is_disabled": 0, "fusion_lat": 0.0, "lat": 38.934263, "bike_id": "a498d241e4db1651c24ac2761ef141d6", "fusion_lon": 0.0}, {"rental_uris": {"ios": "https://dc.lft.to/lastmile_qr_scan", "android": "https://dc.lft.to/lastmile_qr_scan"}, "type": "electric_scooter", "name": "ccee8b1a84a77c35d6de9709c3c836d8", "is_reserved": 0, "lon": -77.02171966666667, "is_disabled": 0, "fusion_lat": 0.0, "lat": 38.93001783333333, "bike_id": "ccee8b1a84a77c35d6de9709c3c836d8", "fusion_lon": 0.0}, {"rental_uris": {"ios": "https://dc.lft.to/lastmile_qr_scan", "android": "https://dc.lft.to/lastmile_qr_scan"}, "type": "electric_scooter", "name": "e9df7695eba9ef24eee363df7fe5c270", "is_reserved": 0, "lon": -77.03258283333334, "is_disabled": 0, "fusion_lat": 0.0, "lat": 38.939827333333334, "bike_id": "e9df7695eba9ef24eee363df7fe5c270", "fusion_lon": 0.0}, {"rental_uris": {"ios": "https://dc.lft.to/lastmile_qr_scan", "android": "https://dc.lft.to/lastmile_qr_scan"}, "type": "electric_scooter", "name": "d39b6e188a1948b92ec84e1ad0ee47b8", "is_reserved": 0, "lon": -77.04116533333334, "is_disabled": 0, "fusion_lat": 0.0, "lat": 38.9061105, "bike_id": "d39b6e188a1948b92ec84e1ad0ee47b8", "fusion_lon": 0.0}, {"rental_uris": {"ios": "https://dc.lft.to/lastmile_qr_scan", "android": "https://dc.lft.to/lastmile_qr_scan"}, "type": "electric_scooter", "name": "de4e019e1b2fc41ee360832800baa022", "is_reserved": 0, "lon": -77.03408583333334, "is_disabled": 0, "fusion_lat": 0.0, "lat": 38.899727666666664, "bike_id": "de4e019e1b2fc41ee360832800baa022", "fusion_lon": 0.0}, {"rental_uris": {"ios": "https://dc.lft.to/lastmile_qr_scan", "android": "https://dc.lft.to/lastmile_qr_scan"}, "type": "electric_scooter", "name": "5e88a7481146f16b49bf954d65b1388a", "is_reserved": 0, "lon": -77.01851933333333, "is_disabled": 0, "fusion_lat": 0.0, "lat": 38.9489015, "bike_id": "5e88a7481146f16b49bf954d65b1388a", "fusion_lon": 0.0}, {"rental_uris": {"ios": "https://dc.lft.to/lastmile_qr_scan", "android": "https://dc.lft.to/lastmile_qr_scan"}, "type": "electric_scooter", "name": "b4ca2f4fed58a3fd134edfd6bca1faf3", "is_reserved": 0, "lon": -77.02333583333333, "is_disabled": 0, "fusion_lat": 0.0, "lat": 38.923010166666664, "bike_id": "b4ca2f4fed58a3fd134edfd6bca1faf3", "fusion_lon": 0.0}, {"rental_uris": {"ios": "https://dc.lft.to/lastmile_qr_scan", "android": "https://dc.lft.to/lastmile_qr_scan"}, "type": "electric_scooter", "name": "53fbdf811dcff35edda79f7de83550c1", "is_reserved": 0, "lon": -77.03164933333333, "is_disabled": 0, "fusion_lat": 0.0, "lat": 38.915581333333336, "bike_id": "53fbdf811dcff35edda79f7de83550c1", "fusion_lon": 0.0}, {"rental_uris": {"ios": "https://dc.lft.to/lastmile_qr_scan", "android": "https://dc.lft.to/lastmile_qr_scan"}, "type": "electric_scooter", "name": "04ac1f4bc0bab78d13ce3cf0756c287d", "is_reserved": 0, "lon": -77.042153, "is_disabled": 0, "fusion_lat": 0.0, "lat": 38.92131583333333, "bike_id": "04ac1f4bc0bab78d13ce3cf0756c287d", "fusion_lon": 0.0}, {"rental_uris": {"ios": "https://dc.lft.to/lastmile_qr_scan", "android": "https://dc.lft.to/lastmile_qr_scan"}, "type": "electric_scooter", "name": "ea43bd74237cdbcf5a3c24251ae96169", "is_reserved": 0, "lon": -77.030496, "is_disabled": 0, "fusion_lat": 0.0, "lat": 38.88412, "bike_id": "ea43bd74237cdbcf5a3c24251ae96169", "fusion_lon": 0.0}, {"rental_uris": {"ios": "https://dc.lft.to/lastmile_qr_scan", "android": "https://dc.lft.to/lastmile_qr_scan"}, "type": "electric_bike", "name": "cd5759d06c916819c0f91db293dda98b", "is_reserved": 0, "lon": -77.02012966666666, "is_disabled": 0, "fusion_lat": 0.0, "lat": 38.964376666666666, "bike_id": "cd5759d06c916819c0f91db293dda98b", "fusion_lon": 0.0}, {"rental_uris": {"ios": "https://dc.lft.to/lastmile_qr_scan", "android": "https://dc.lft.to/lastmile_qr_scan"}, "type": "electric_scooter", "name": "df4cc7cba13739eef5617d556bedbfdc", "is_reserved": 0, "lon": -76.982613, "is_disabled": 0, "fusion_lat": 0.0, "lat": 38.8662915, "bike_id": "df4cc7cba13739eef5617d556bedbfdc", "fusion_lon": 0.0}, {"rental_uris": {"ios": "https://dc.lft.to/lastmile_qr_scan", "android": "https://dc.lft.to/lastmile_qr_scan"}, "type": "electric_scooter", "name": "7aab33384f9161eb3d02ee962e5ea8b8", "is_reserved": 0, "lon": -77.03662483333333, "is_disabled": 0, "fusion_lat": 0.0, "lat": 38.92281716666667, "bike_id": "7aab33384f9161eb3d02ee962e5ea8b8", "fusion_lon": 0.0}, {"rental_uris": {"ios": "https://dc.lft.to/lastmile_qr_scan", "android": "https://dc.lft.to/lastmile_qr_scan"}, "type": "electric_scooter", "name": "1761737787d633e4fff02dc3bd89be29", "is_reserved": 0, "lon": -77.02045, "is_disabled": 0, "fusion_lat": 0.0, "lat": 38.922486166666665, "bike_id": "1761737787d633e4fff02dc3bd89be29", "fusion_lon": 0.0}, {"rental_uris": {"ios": "https://dc.lft.to/lastmile_qr_scan", "android": "https://dc.lft.to/lastmile_qr_scan"}, "type": "electric_bike", "name": "a9a4781b53bed4c67fd850f80abe503a", "is_reserved": 0, "lon": -77.0795625, "is_disabled": 0, "fusion_lat": 0.0, "lat": 38.848982666666664, "bike_id": "a9a4781b53bed4c67fd850f80abe503a", "fusion_lon": 0.0}, {"rental_uris": {"ios": "https://dc.lft.to/lastmile_qr_scan", "android": "https://dc.lft.to/lastmile_qr_scan"}, "type": "electric_scooter", "name": "e2fa46668b60eea119252dcf044c548e", "is_reserved": 0, "lon": -77.02501216666667, "is_disabled": 0, "fusion_lat": 0.0, "lat": 38.94211033333333, "bike_id": "e2fa46668b60eea119252dcf044c548e", "fusion_lon": 0.0}, {"rental_uris": {"ios": "https://dc.lft.to/lastmile_qr_scan", "android": "https://dc.lft.to/lastmile_qr_scan"}, "type": "electric_scooter", "name": "ba4f67f3881278a27af9c80f00b3f951", "is_reserved": 0, "lon": -77.036634, "is_disabled": 0, "fusion_lat": 0.0, "lat": 38.91724283333333, "bike_id": "ba4f67f3881278a27af9c80f00b3f951", "fusion_lon": 0.0}, {"rental_uris": {"ios": "https://dc.lft.to/lastmile_qr_scan", "android": "https://dc.lft.to/lastmile_qr_scan"}, "type": "electric_scooter", "name": "4800bf017403dff253626a0020b717c1", "is_reserved": 0, "lon": -77.0261385, "is_disabled": 0, "fusion_lat": 0.0, "lat": 38.95190266666667, "bike_id": "4800bf017403dff253626a0020b717c1", "fusion_lon": 0.0}, {"rental_uris": {"ios": "https://dc.lft.to/lastmile_qr_scan", "android": "https://dc.lft.to/lastmile_qr_scan"}, "type": "electric_bike", "name": "c74b293f2c9e33a343077f835c5baf3e", "is_reserved": 0, "lon": -77.00729483333333, "is_disabled": 0, "fusion_lat": 0.0, "lat": 38.832492, "bike_id": "c74b293f2c9e33a343077f835c5baf3e", "fusion_lon": 0.0}, {"rental_uris": {"ios": "https://dc.lft.to/lastmile_qr_scan", "android": "https://dc.lft.to/lastmile_qr_scan"}, "type": "electric_scooter", "name": "32d8426bdf1f8414ef518fd781123a3a", "is_reserved": 0, "lon": -77.025726, "is_disabled": 0, "fusion_lat": 0.0, "lat": 38.887456666666665, "bike_id": "32d8426bdf1f8414ef518fd781123a3a", "fusion_lon": 0.0}, {"rental_uris": {"ios": "https://dc.lft.to/lastmile_qr_scan", "android": "https://dc.lft.to/lastmile_qr_scan"}, "type": "electric_scooter", "name": "ad7e0dfc4ee19f8d6629b6e2fba0825b", "is_reserved": 0, "lon": -76.9831515, "is_disabled": 0, "fusion_lat": 0.0, "lat": 38.9258765, "bike_id": "ad7e0dfc4ee19f8d6629b6e2fba0825b", "fusion_lon": 0.0}, {"rental_uris": {"ios": "https://dc.lft.to/lastmile_qr_scan", "android": "https://dc.lft.to/lastmile_qr_scan"}, "type": "electric_scooter", "name": "7a7207418b2534086597cd21ad2e7f67", "is_reserved": 0, "lon": -77.026113, "is_disabled": 0, "fusion_lat": 0.0, "lat": 38.904966333333334, "bike_id": "7a7207418b2534086597cd21ad2e7f67", "fusion_lon": 0.0}, {"rental_uris": {"ios": "https://dc.lft.to/lastmile_qr_scan", "android": "https://dc.lft.to/lastmile_qr_scan"}, "type": "electric_scooter", "name": "4395276878f2df5c3c302135123452ee", "is_reserved": 0, "lon": -77.025167, "is_disabled": 0, "fusion_lat": 0.0, "lat": 38.916939166666666, "bike_id": "4395276878f2df5c3c302135123452ee", "fusion_lon": 0.0}, {"rental_uris": {"ios": "https://dc.lft.to/lastmile_qr_scan", "android": "https://dc.lft.to/lastmile_qr_scan"}, "type": "electric_scooter", "name": "7d848c84747c2887104a551ef80e6dfa", "is_reserved": 0, "lon": -77.0417375, "is_disabled": 0, "fusion_lat": 0.0, "lat": 38.917058, "bike_id": "7d848c84747c2887104a551ef80e6dfa", "fusion_lon": 0.0}, {"rental_uris": {"ios": "https://dc.lft.to/lastmile_qr_scan", "android": "https://dc.lft.to/lastmile_qr_scan"}, "type": "electric_scooter", "name": "6415f058b9a118fa02bd5ed8f5388f63", "is_reserved": 0, "lon": -77.0467815, "is_disabled": 0, "fusion_lat": 0.0, "lat": 38.914099, "bike_id": "6415f058b9a118fa02bd5ed8f5388f63", "fusion_lon": 0.0}, {"rental_uris": {"ios": "https://dc.lft.to/lastmile_qr_scan", "android": "https://dc.lft.to/lastmile_qr_scan"}, "type": "electric_scooter", "name": "bb189c213b15152b2ebfda62d6b842be", "is_reserved": 0, "lon": -77.04870066666666, "is_disabled": 0, "fusion_lat": 0.0, "lat": 38.906543666666664, "bike_id": "bb189c213b15152b2ebfda62d6b842be", "fusion_lon": 0.0}, {"rental_uris": {"ios": "https://dc.lft.to/lastmile_qr_scan", "android": "https://dc.lft.to/lastmile_qr_scan"}, "type": "electric_bike", "name": "ee9f0c18ccf148de8e3bb0d53dd4682f", "is_reserved": 0, "lon": -77.10872216666667, "is_disabled": 0, "fusion_lat": 0.0, "lat": 38.9358565, "bike_id": "ee9f0c18ccf148de8e3bb0d53dd4682f", "fusion_lon": 0.0}, {"rental_uris": {"ios": "https://dc.lft.to/lastmile_qr_scan", "android": "https://dc.lft.to/lastmile_qr_scan"}, "type": "electric_bike", "name": "d038ad32f3dce2c80e71a0717ee7d002", "is_reserved": 0, "lon": -76.98281266666666, "is_disabled": 0, "fusion_lat": 0.0, "lat": 38.8468355, "bike_id": "d038ad32f3dce2c80e71a0717ee7d002", "fusion_lon": 0.0}, {"rental_uris": {"ios": "https://dc.lft.to/lastmile_qr_scan", "android": "https://dc.lft.to/lastmile_qr_scan"}, "type": "electric_bike", "name": "4804e2cec4e8ba418c39ed6ad6586567", "is_reserved": 0, "lon": -77.046974, "is_disabled": 0, "fusion_lat": 0.0, "lat": 38.9212165, "bike_id": "4804e2cec4e8ba418c39ed6ad6586567", "fusion_lon": 0.0}, {"rental_uris": {"ios": "https://dc.lft.to/lastmile_qr_scan", "android": "https://dc.lft.to/lastmile_qr_scan"}, "type": "electric_bike", "name": "8a1c7c456e356da7abb423bd8873012d", "is_reserved": 0, "lon": -76.97565316666666, "is_disabled": 0, "fusion_lat": 0.0, "lat": 38.899469833333335, "bike_id": "8a1c7c456e356da7abb423bd8873012d", "fusion_lon": 0.0}, {"rental_uris": {"ios": "https://dc.lft.to/lastmile_qr_scan", "android": "https://dc.lft.to/lastmile_qr_scan"}, "type": "electric_scooter", "name": "a66ddc543fe7c9150e8cb8ac77666e02", "is_reserved": 0, "lon": -76.97609316666667, "is_disabled": 0, "fusion_lat": 0.0, "lat": 38.8730265, "bike_id": "a66ddc543fe7c9150e8cb8ac77666e02", "fusion_lon": 0.0}, {"rental_uris": {"ios": "https://dc.lft.to/lastmile_qr_scan", "android": "https://dc.lft.to/lastmile_qr_scan"}, "type": "electric_scooter", "name": "878c4afca1c97d241da0a8318ea538af", "is_reserved": 0, "lon": -77.022351, "is_disabled": 0, "fusion_lat": 0.0, "lat": 38.87818016666667, "bike_id": "878c4afca1c97d241da0a8318ea538af", "fusion_lon": 0.0}, {"rental_uris": {"ios": "https://dc.lft.to/lastmile_qr_scan", "android": "https://dc.lft.to/lastmile_qr_scan"}, "type": "electric_scooter", "name": "b21697530efb85b393bdbbd94167d9f3", "is_reserved": 0, "lon": -77.02447033333333, "is_disabled": 0, "fusion_lat": 0.0, "lat": 38.91851583333333, "bike_id": "b21697530efb85b393bdbbd94167d9f3", "fusion_lon": 0.0}, {"rental_uris": {"ios": "https://dc.lft.to/lastmile_qr_scan", "android": "https://dc.lft.to/lastmile_qr_scan"}, "type": "electric_scooter", "name": "e450f97a34adc7189c7b3f9b4c277067", "is_reserved": 0, "lon": -77.0628325, "is_disabled": 0, "fusion_lat": 0.0, "lat": 38.912458, "bike_id": "e450f97a34adc7189c7b3f9b4c277067", "fusion_lon": 0.0}, {"rental_uris": {"ios": "https://dc.lft.to/lastmile_qr_scan", "android": "https://dc.lft.to/lastmile_qr_scan"}, "type": "electric_scooter", "name": "abfbff9131c9cac27eed520386c6a13a", "is_reserved": 0, "lon": -77.02305183333333, "is_disabled": 0, "fusion_lat": 0.0, "lat": 38.927236666666666, "bike_id": "abfbff9131c9cac27eed520386c6a13a", "fusion_lon": 0.0}, {"rental_uris": {"ios": "https://dc.lft.to/lastmile_qr_scan", "android": "https://dc.lft.to/lastmile_qr_scan"}, "type": "electric_scooter", "name": "e5fd18d8b7632362c49000629291e383", "is_reserved": 0, "lon": -77.03214016666666, "is_disabled": 0, "fusion_lat": 0.0, "lat": 38.9089895, "bike_id": "e5fd18d8b7632362c49000629291e383", "fusion_lon": 0.0}, {"rental_uris": {"ios": "https://dc.lft.to/lastmile_qr_scan", "android": "https://dc.lft.to/lastmile_qr_scan"}, "type": "electric_scooter", "name": "84b4f1d25fd8e17449c21496e79e7194", "is_reserved": 0, "lon": -77.01995533333333, "is_disabled": 0, "fusion_lat": 0.0, "lat": 38.9115565, "bike_id": "84b4f1d25fd8e17449c21496e79e7194", "fusion_lon": 0.0}, {"rental_uris": {"ios": "https://dc.lft.to/lastmile_qr_scan", "android": "https://dc.lft.to/lastmile_qr_scan"}, "type": "electric_scooter", "name": "2c8334bf262d442fef32a1bd754c9bfd", "is_reserved": 0, "lon": -77.02416816666667, "is_disabled": 0, "fusion_lat": 0.0, "lat": 38.923300833333336, "bike_id": "2c8334bf262d442fef32a1bd754c9bfd", "fusion_lon": 0.0}, {"rental_uris": {"ios": "https://dc.lft.to/lastmile_qr_scan", "android": "https://dc.lft.to/lastmile_qr_scan"}, "type": "electric_scooter", "name": "10ee05bbb20bf9227d41d5565c56f8b9", "is_reserved": 0, "lon": -76.98111833333333, "is_disabled": 0, "fusion_lat": 0.0, "lat": 38.86433666666667, "bike_id": "10ee05bbb20bf9227d41d5565c56f8b9", "fusion_lon": 0.0}, {"rental_uris": {"ios": "https://dc.lft.to/lastmile_qr_scan", "android": "https://dc.lft.to/lastmile_qr_scan"}, "type": "electric_scooter", "name": "6bcb69aa02129ddf480179c9d9f9f26f", "is_reserved": 0, "lon": -77.015788, "is_disabled": 0, "fusion_lat": 0.0, "lat": 38.87660366666667, "bike_id": "6bcb69aa02129ddf480179c9d9f9f26f", "fusion_lon": 0.0}, {"rental_uris": {"ios": "https://dc.lft.to/lastmile_qr_scan", "android": "https://dc.lft.to/lastmile_qr_scan"}, "type": "electric_scooter", "name": "d75a0dd18b9dc55298fc27432f14ac2d", "is_reserved": 0, "lon": -77.04226283333334, "is_disabled": 0, "fusion_lat": 0.0, "lat": 38.921712166666666, "bike_id": "d75a0dd18b9dc55298fc27432f14ac2d", "fusion_lon": 0.0}, {"rental_uris": {"ios": "https://dc.lft.to/lastmile_qr_scan", "android": "https://dc.lft.to/lastmile_qr_scan"}, "type": "electric_scooter", "name": "68165bbd78b650f9703df315c213033a", "is_reserved": 0, "lon": -76.98082683333334, "is_disabled": 0, "fusion_lat": 0.0, "lat": 38.889621, "bike_id": "68165bbd78b650f9703df315c213033a", "fusion_lon": 0.0}, {"rental_uris": {"ios": "https://dc.lft.to/lastmile_qr_scan", "android": "https://dc.lft.to/lastmile_qr_scan"}, "type": "electric_scooter", "name": "41e06524294c7088548d1341af853531", "is_reserved": 0, "lon": -77.06598316666667, "is_disabled": 0, "fusion_lat": 0.0, "lat": 38.906177666666665, "bike_id": "41e06524294c7088548d1341af853531", "fusion_lon": 0.0}, {"rental_uris": {"ios": "https://dc.lft.to/lastmile_qr_scan", "android": "https://dc.lft.to/lastmile_qr_scan"}, "type": "electric_scooter", "name": "2568c215daf029d9481568ddacf26ffe", "is_reserved": 0, "lon": -77.004402, "is_disabled": 0, "fusion_lat": 0.0, "lat": 38.92092266666667, "bike_id": "2568c215daf029d9481568ddacf26ffe", "fusion_lon": 0.0}, {"rental_uris": {"ios": "https://dc.lft.to/lastmile_qr_scan", "android": "https://dc.lft.to/lastmile_qr_scan"}, "type": "electric_scooter", "name": "97848621ae9bdf278c22375acdb4bb47", "is_reserved": 0, "lon": -77.0058065, "is_disabled": 0, "fusion_lat": 0.0, "lat": 38.900425166666665, "bike_id": "97848621ae9bdf278c22375acdb4bb47", "fusion_lon": 0.0}, {"rental_uris": {"ios": "https://dc.lft.to/lastmile_qr_scan", "android": "https://dc.lft.to/lastmile_qr_scan"}, "type": "electric_scooter", "name": "a39ec4056e64d12adce97ef6e20db3f1", "is_reserved": 0, "lon": -77.01910533333333, "is_disabled": 0, "fusion_lat": 0.0, "lat": 38.894908666666666, "bike_id": "a39ec4056e64d12adce97ef6e20db3f1", "fusion_lon": 0.0}, {"rental_uris": {"ios": "https://dc.lft.to/lastmile_qr_scan", "android": "https://dc.lft.to/lastmile_qr_scan"}, "type": "electric_bike", "name": "edab692766badaecd35ea71a06556635", "is_reserved": 0, "lon": -76.95824983333333, "is_disabled": 0, "fusion_lat": 0.0, "lat": 38.92006416666667, "bike_id": "edab692766badaecd35ea71a06556635", "fusion_lon": 0.0}, {"rental_uris": {"ios": "https://dc.lft.to/lastmile_qr_scan", "android": "https://dc.lft.to/lastmile_qr_scan"}, "type": "electric_scooter", "name": "093148d2d3a184595124f0bf6bb0eee8", "is_reserved": 0, "lon": -76.97982316666666, "is_disabled": 0, "fusion_lat": 0.0, "lat": 38.907346833333335, "bike_id": "093148d2d3a184595124f0bf6bb0eee8", "fusion_lon": 0.0}, {"rental_uris": {"ios": "https://dc.lft.to/lastmile_qr_scan", "android": "https://dc.lft.to/lastmile_qr_scan"}, "type": "electric_scooter", "name": "5559ec117f225aa5c6a71e5b15dbe3ed", "is_reserved": 0, "lon": -77.03652366666667, "is_disabled": 0, "fusion_lat": 0.0, "lat": 38.9214445, "bike_id": "5559ec117f225aa5c6a71e5b15dbe3ed", "fusion_lon": 0.0}, {"rental_uris": {"ios": "https://dc.lft.to/lastmile_qr_scan", "android": "https://dc.lft.to/lastmile_qr_scan"}, "type": "electric_scooter", "name": "6e71b748bd3fb147893e45308e0f06e5", "is_reserved": 0, "lon": -77.04690516666666, "is_disabled": 0, "fusion_lat": 0.0, "lat": 38.921103, "bike_id": "6e71b748bd3fb147893e45308e0f06e5", "fusion_lon": 0.0}, {"rental_uris": {"ios": "https://dc.lft.to/lastmile_qr_scan", "android": "https://dc.lft.to/lastmile_qr_scan"}, "type": "electric_scooter", "name": "91e2e16d6f31f56c21df6b3872b1663b", "is_reserved": 0, "lon": -76.98222566666666, "is_disabled": 0, "fusion_lat": 0.0, "lat": 38.901983, "bike_id": "91e2e16d6f31f56c21df6b3872b1663b", "fusion_lon": 0.0}, {"rental_uris": {"ios": "https://dc.lft.to/lastmile_qr_scan", "android": "https://dc.lft.to/lastmile_qr_scan"}, "type": "electric_scooter", "name": "db1dfae71a0a59bbb0c2d61d2a346486", "is_reserved": 0, "lon": -77.03642983333333, "is_disabled": 0, "fusion_lat": 0.0, "lat": 38.9173255, "bike_id": "db1dfae71a0a59bbb0c2d61d2a346486", "fusion_lon": 0.0}, {"rental_uris": {"ios": "https://dc.lft.to/lastmile_qr_scan", "android": "https://dc.lft.to/lastmile_qr_scan"}, "type": "electric_scooter", "name": "6925df230c9b3e9aedfc2de2909173fc", "is_reserved": 0, "lon": -77.02100433333334, "is_disabled": 0, "fusion_lat": 0.0, "lat": 38.92185933333333, "bike_id": "6925df230c9b3e9aedfc2de2909173fc", "fusion_lon": 0.0}, {"rental_uris": {"ios": "https://dc.lft.to/lastmile_qr_scan", "android": "https://dc.lft.to/lastmile_qr_scan"}, "type": "electric_scooter", "name": "4b9ae8d9adb8d834fc6143b5fdf26053", "is_reserved": 0, "lon": -77.00344883333334, "is_disabled": 0, "fusion_lat": 0.0, "lat": 38.892709333333336, "bike_id": "4b9ae8d9adb8d834fc6143b5fdf26053", "fusion_lon": 0.0}, {"rental_uris": {"ios": "https://dc.lft.to/lastmile_qr_scan", "android": "https://dc.lft.to/lastmile_qr_scan"}, "type": "electric_scooter", "name": "4d4354fdf8f331c82406f18f3270385a", "is_reserved": 0, "lon": -76.94855783333334, "is_disabled": 0, "fusion_lat": 0.0, "lat": 38.883014333333335, "bike_id": "4d4354fdf8f331c82406f18f3270385a", "fusion_lon": 0.0}, {"rental_uris": {"ios": "https://dc.lft.to/lastmile_qr_scan", "android": "https://dc.lft.to/lastmile_qr_scan"}, "type": "electric_scooter", "name": "f999effa761356e3074c7177a0ef7d4c", "is_reserved": 0, "lon": -77.02120216666667, "is_disabled": 0, "fusion_lat": 0.0, "lat": 38.923566, "bike_id": "f999effa761356e3074c7177a0ef7d4c", "fusion_lon": 0.0}, {"rental_uris": {"ios": "https://dc.lft.to/lastmile_qr_scan", "android": "https://dc.lft.to/lastmile_qr_scan"}, "type": "electric_scooter", "name": "573c221a05003f8c76d0cfb6446bb87f", "is_reserved": 0, "lon": -77.0346105, "is_disabled": 0, "fusion_lat": 0.0, "lat": 38.917930166666665, "bike_id": "573c221a05003f8c76d0cfb6446bb87f", "fusion_lon": 0.0}, {"rental_uris": {"ios": "https://dc.lft.to/lastmile_qr_scan", "android": "https://dc.lft.to/lastmile_qr_scan"}, "type": "electric_scooter", "name": "bece71046bea8dae8de17c9b8ed384f8", "is_reserved": 0, "lon": -77.00920533333333, "is_disabled": 0, "fusion_lat": 0.0, "lat": 38.89746683333333, "bike_id": "bece71046bea8dae8de17c9b8ed384f8", "fusion_lon": 0.0}, {"rental_uris": {"ios": "https://dc.lft.to/lastmile_qr_scan", "android": "https://dc.lft.to/lastmile_qr_scan"}, "type": "electric_scooter", "name": "a1281eed11d65c330b3d638e7ab2455f", "is_reserved": 0, "lon": -77.03201616666666, "is_disabled": 0, "fusion_lat": 0.0, "lat": 38.90708866666667, "bike_id": "a1281eed11d65c330b3d638e7ab2455f", "fusion_lon": 0.0}, {"rental_uris": {"ios": "https://dc.lft.to/lastmile_qr_scan", "android": "https://dc.lft.to/lastmile_qr_scan"}, "type": "electric_scooter", "name": "86d4f4d82f9779285571b9574a2c527d", "is_reserved": 0, "lon": -77.02295883333333, "is_disabled": 0, "fusion_lat": 0.0, "lat": 38.917005833333334, "bike_id": "86d4f4d82f9779285571b9574a2c527d", "fusion_lon": 0.0}, {"rental_uris": {"ios": "https://dc.lft.to/lastmile_qr_scan", "android": "https://dc.lft.to/lastmile_qr_scan"}, "type": "electric_scooter", "name": "ac4a9af5c0335ab632806445ed9cdc22", "is_reserved": 0, "lon": -76.98373766666667, "is_disabled": 0, "fusion_lat": 0.0, "lat": 38.86036166666667, "bike_id": "ac4a9af5c0335ab632806445ed9cdc22", "fusion_lon": 0.0}, {"rental_uris": {"ios": "https://dc.lft.to/lastmile_qr_scan", "android": "https://dc.lft.to/lastmile_qr_scan"},