{"data": {"bikes": [{"lon": -77.077901, "lat": 38.8451475, "name": "b1be8a5e850dbd801ea28f96af6055bd", "fusion_lat": 0.0, "fusion_lon": 0.0, "rental_uris": {"android": "https://dc.lft.to/lastmile_qr_scan", "ios": "https://dc.lft.to/lastmile_qr_scan"}, "is_reserved": 0, "is_disabled": 0, "type": "electric_bike", "bike_id": "b1be8a5e850dbd801ea28f96af6055bd"}, {"lon": -77.01530833333334, "lat": 38.887389666666664, "name": "17833ca1aa6d4d61d1bf191888b4f0c3", "fusion_lat": 0.0, "fusion_lon": 0.0, "rental_uris": {"android": "https://dc.lft.to/lastmile_qr_scan", "ios": "https://dc.lft.to/lastmile_qr_scan"}, "is_reserved": 0, "is_disabled": 0, "type": "electric_scooter", "bike_id": "17833ca1aa6d4d61d1bf191888b4f0c3"}, {"lon": -77.04081066666667, "lat": 38.9201955, "name": "5d00130299a276b4d46e7ab00922bfcb", "fusion_lat": 0.0, "fusion_lon": 0.0, "rental_uris": {"android": "https://dc.lft.to/lastmile_qr_scan", "ios": "https://dc.lft.to/lastmile_qr_scan"}, "is_reserved": 0, "is_disabled": 0, "type": "electric_scooter", "bike_id": "5d00130299a276b4d46e7ab00922bfcb"}, {"lon": -77.0197225, "lat": 38.8837905, "name": "85f1fc16f5cb4f9d4b94b98dcb7cc639", "fusion_lat": 0.0, "fusion_lon": 0.0, "rental_uris": {"android": "https://dc.lft.to/lastmile_qr_scan", "ios": "https://dc.lft.to/lastmile_qr_scan"}, "is_reserved": 0, "is_disabled": 0, "type": "electric_scooter", "bike_id": "85f1fc16f5cb4f9d4b94b98dcb7cc639"}, {"lon": -77.01146216666666, "lat": 38.9567365, "name": "1fc97f2ae3fb0c280d7f2f009bfc9052", "fusion_lat": 0.0, "fusion_lon": 0.0, "rental_uris": {"android": "https://dc.lft.to/lastmile_qr_scan", "ios": "https://dc.lft.to/lastmile_qr_scan"}, "is_reserved": 0, "is_disabled": 0, "type": "electric_scooter", "bike_id": "1fc97f2ae3fb0c280d7f2f009bfc9052"}, {"lon": -76.99506233333334, "lat": 38.86202683333333, "name": "c77fa5123c194a4f3dd9c5b852539870", "fusion_lat": 0.0, "fusion_lon": 0.0, "rental_uris": {"android": "https://dc.lft.to/lastmile_qr_scan", "ios": "https://dc.lft.to/lastmile_qr_scan"}, "is_reserved": 0, "is_disabled": 0, "type": "electric_scooter", "bike_id": "c77fa5123c194a4f3dd9c5b852539870"}, {"lon": -77.02305083333333, "lat": 38.9178895, "name": "62a0b6959bd0982ea3c1cb91ed9c8e8a", "fusion_lat": 0.0, "fusion_lon": 0.0, "rental_uris": {"android": "https://dc.lft.to/lastmile_qr_scan", "ios": "https://dc.lft.to/lastmile_qr_scan"}, "is_reserved": 0, "is_disabled": 0, "type": "electric_scooter", "bike_id": "62a0b6959bd0982ea3c1cb91ed9c8e8a"}, {"lon": -77.01768216666666, "lat": 38.90260116666666, "name": "b38a96bcd331fc4dc5e16adddc7c3264", "fusion_lat": 0.0, "fusion_lon": 0.0, "rental_uris": {"android": "https://dc.lft.to/lastmile_qr_scan", "ios": "https://dc.lft.to/lastmile_qr_scan"}, "is_reserved": 0, "is_disabled": 0, "type": "electric_scooter", "bike_id": "b38a96bcd331fc4dc5e16adddc7c3264"}, {"lon": -77.00208216666667, "lat": 38.82267133333333, "name": "232025d53dfc60d628e476933a671d49", "fusion_lat": 0.0, "fusion_lon": 0.0, "rental_uris": {"android": "https://dc.lft.to/lastmile_qr_scan", "ios": "https://dc.lft.to/lastmile_qr_scan"}, "is_reserved": 0, "is_disabled": 0, "type": "electric_scooter", "bike_id": "232025d53dfc60d628e476933a671d49"}, {"lon": -76.93432316666667, "lat": 38.89967933333333, "name": "29ec74275b07924280ccf582aacd87ed", "fusion_lat": 0.0, "fusion_lon": 0.0, "rental_uris": {"android": "https://dc.lft.to/lastmile_qr_scan", "ios": "https://dc.lft.to/lastmile_qr_scan"}, "is_reserved": 0, "is_disabled": 0, "type": "electric_scooter", "bike_id": "29ec74275b07924280ccf582aacd87ed"}, {"lon": -77.05143266666667, "lat": 38.908071166666666, "name": "150c9c60cf287afbb9f283204b4fddee", "fusion_lat": 0.0, "fusion_lon": 0.0, "rental_uris": {"android": "https://dc.lft.to/lastmile_qr_scan", "ios": "https://dc.lft.to/lastmile_qr_scan"}, "is_reserved": 0, "is_disabled": 0, "type": "electric_scooter", "bike_id": "150c9c60cf287afbb9f283204b4fddee"}, {"lon": -77.023027, "lat": 38.9178705, "name": "23fd2993cff1b500a273ad6b73cf2283", "fusion_lat": 0.0, "fusion_lon": 0.0, "rental_uris": {"android": "https://dc.lft.to/lastmile_qr_scan", "ios": "https://dc.lft.to/lastmile_qr_scan"}, "is_reserved": 0, "is_disabled": 0, "type": "electric_scooter", "bike_id": "23fd2993cff1b500a273ad6b73cf2283"}, {"lon": -76.99868383333333, "lat": 38.900289, "name": "e341193515d3040202d9d764258e96c4", "fusion_lat": 0.0, "fusion_lon": 0.0, "rental_uris": {"android": "https://dc.lft.to/lastmile_qr_scan", "ios": "https://dc.lft.to/lastmile_qr_scan"}, "is_reserved": 0, "is_disabled": 0, "type": "electric_scooter", "bike_id": "e341193515d3040202d9d764258e96c4"}, {"lon": -76.99001683333333, "lat": 38.86505183333333, "name": "6f502fcd01b809b3a42f89c9f0eca559", "fusion_lat": 0.0, "fusion_lon": 0.0, "rental_uris": {"android": "https://dc.lft.to/lastmile_qr_scan", "ios": "https://dc.lft.to/lastmile_qr_scan"}, "is_reserved": 0, "is_disabled": 0, "type": "electric_scooter", "bike_id": "6f502fcd01b809b3a42f89c9f0eca559"}, {"lon": -76.99419183333333, "lat": 38.90132533333333, "name": "d41b51a8a2144b92ab466b3e918471da", "fusion_lat": 0.0, "fusion_lon": 0.0, "rental_uris": {"android": "https://dc.lft.to/lastmile_qr_scan", "ios": "https://dc.lft.to/lastmile_qr_scan"}, "is_reserved": 0, "is_disabled": 0, "type": "electric_scooter", "bike_id": "d41b51a8a2144b92ab466b3e918471da"}, {"lon": -76.976693, "lat": 38.898549, "name": "b1adeda0cd8f418fe4e019b5d6de36ba", "fusion_lat": 0.0, "fusion_lon": 0.0, "rental_uris": {"android": "https://dc.lft.to/lastmile_qr_scan", "ios": "https://dc.lft.to/lastmile_qr_scan"}, "is_reserved": 0, "is_disabled": 0, "type": "electric_scooter", "bike_id": "b1adeda0cd8f418fe4e019b5d6de36ba"}, {"lon": -77.02400766666666, "lat": 38.93486266666667, "name": "582fc6883905bb07745bfa2fb9badc47", "fusion_lat": 0.0, "fusion_lon": 0.0, "rental_uris": {"android": "https://dc.lft.to/lastmile_qr_scan", "ios": "https://dc.lft.to/lastmile_qr_scan"}, "is_reserved": 0, "is_disabled": 0, "type": "electric_scooter", "bike_id": "582fc6883905bb07745bfa2fb9badc47"}, {"lon": -77.044612, "lat": 38.900350833333334, "name": "ca0193e3a7d6b2080b87f29ebd8488ba", "fusion_lat": 0.0, "fusion_lon": 0.0, "rental_uris": {"android": "https://dc.lft.to/lastmile_qr_scan", "ios": "https://dc.lft.to/lastmile_qr_scan"}, "is_reserved": 0, "is_disabled": 0, "type": "electric_scooter", "bike_id": "ca0193e3a7d6b2080b87f29ebd8488ba"}, {"lon": -77.05254733333334, "lat": 38.90999583333333, "name": "9ac0c3929779afd586aee7ec9a0f02e3", "fusion_lat": 0.0, "fusion_lon": 0.0, "rental_uris": {"android": "https://dc.lft.to/lastmile_qr_scan", "ios": "https://dc.lft.to/lastmile_qr_scan"}, "is_reserved": 0, "is_disabled": 0, "type": "electric_scooter", "bike_id": "9ac0c3929779afd586aee7ec9a0f02e3"}, {"lon": -76.9733175, "lat": 38.850654166666665, "name": "9346851c67f161e450f91fdbc216c6be", "fusion_lat": 0.0, "fusion_lon": 0.0, "rental_uris": {"android": "https://dc.lft.to/lastmile_qr_scan", "ios": "https://dc.lft.to/lastmile_qr_scan"}, "is_reserved": 0, "is_disabled": 0, "type": "electric_bike", "bike_id": "9346851c67f161e450f91fdbc216c6be"}, {"lon": -77.036538, "lat": 38.920974, "name": "1008201674f6c27a035a5f17b31fac1b", "fusion_lat": 0.0, "fusion_lon": 0.0, "rental_uris": {"android": "https://dc.lft.to/lastmile_qr_scan", "ios": "https://dc.lft.to/lastmile_qr_scan"}, "is_reserved": 0, "is_disabled": 0, "type": "electric_scooter", "bike_id": "1008201674f6c27a035a5f17b31fac1b"}, {"lon": -77.0218045, "lat": 38.9113805, "name": "6e4b19d13ec3d7cd4bed4c50bae10781", "fusion_lat": 0.0, "fusion_lon": 0.0, "rental_uris": {"android": "https://dc.lft.to/lastmile_qr_scan", "ios": "https://dc.lft.to/lastmile_qr_scan"}, "is_reserved": 0, "is_disabled": 0, "type": "electric_scooter", "bike_id": "6e4b19d13ec3d7cd4bed4c50bae10781"}, {"lon": -77.0380875, "lat": 38.9140915, "name": "d34a0684dc16587d5a5360796e8c0960", "fusion_lat": 0.0, "fusion_lon": 0.0, "rental_uris": {"android": "https://dc.lft.to/lastmile_qr_scan", "ios": "https://dc.lft.to/lastmile_qr_scan"}, "is_reserved": 0, "is_disabled": 0, "type": "electric_scooter", "bike_id": "d34a0684dc16587d5a5360796e8c0960"}, {"lon": -77.02707983333333, "lat": 38.9287995, "name": "b4ddba2236f52820256bf62b08d67a53", "fusion_lat": 0.0, "fusion_lon": 0.0, "rental_uris": {"android": "https://dc.lft.to/lastmile_qr_scan", "ios": "https://dc.lft.to/lastmile_qr_scan"}, "is_reserved": 0, "is_disabled": 0, "type": "electric_scooter", "bike_id": "b4ddba2236f52820256bf62b08d67a53"}, {"lon": -77.03774483333333, "lat": 38.918939, "name": "646b30c727dcf3607fa07d91070024b9", "fusion_lat": 0.0, "fusion_lon": 0.0, "rental_uris": {"android": "https://dc.lft.to/lastmile_qr_scan", "ios": "https://dc.lft.to/lastmile_qr_scan"}, "is_reserved": 0, "is_disabled": 0, "type": "electric_scooter", "bike_id": "646b30c727dcf3607fa07d91070024b9"}, {"lon": -77.01876866666667, "lat": 38.887547166666664, "name": "5c754e396ccc9e697bee76c4b976fbc9", "fusion_lat": 0.0, "fusion_lon": 0.0, "rental_uris": {"android": "https://dc.lft.to/lastmile_qr_scan", "ios": "https://dc.lft.to/lastmile_qr_scan"}, "is_reserved": 0, "is_disabled": 0, "type": "electric_scooter", "bike_id": "5c754e396ccc9e697bee76c4b976fbc9"}, {"lon": -77.03354216666666, "lat": 38.89533633333333, "name": "8289daaab3b49702d69c52238e62d2f3", "fusion_lat": 0.0, "fusion_lon": 0.0, "rental_uris": {"android": "https://dc.lft.to/lastmile_qr_scan", "ios": "https://dc.lft.to/lastmile_qr_scan"}, "is_reserved": 0, "is_disabled": 0, "type": "electric_scooter", "bike_id": "8289daaab3b49702d69c52238e62d2f3"}, {"lon": -76.90958983333333, "lat": 38.854071, "name": "f08f1118a5a4d76d0bbaef81a46308bc", "fusion_lat": 0.0, "fusion_lon": 0.0, "rental_uris": {"android": "https://dc.lft.to/lastmile_qr_scan", "ios": "https://dc.lft.to/lastmile_qr_scan"}, "is_reserved": 0, "is_disabled": 0, "type": "electric_bike", "bike_id": "f08f1118a5a4d76d0bbaef81a46308bc"}, {"lon": -77.02381233333334, "lat": 38.9095955, "name": "ff0d35b4a805f52029612fd0004c35f2", "fusion_lat": 0.0, "fusion_lon": 0.0, "rental_uris": {"android": "https://dc.lft.to/lastmile_qr_scan", "ios": "https://dc.lft.to/lastmile_qr_scan"}, "is_reserved": 0, "is_disabled": 0, "type": "electric_scooter", "bike_id": "ff0d35b4a805f52029612fd0004c35f2"}, {"lon": -77.04178383333333, "lat": 38.9306025, "name": "26b31ab8b0da4cadc926e42fbe8e904d", "fusion_lat": 0.0, "fusion_lon": 0.0, "rental_uris": {"android": "https://dc.lft.to/lastmile_qr_scan", "ios": "https://dc.lft.to/lastmile_qr_scan"}, "is_reserved": 0, "is_disabled": 0, "type": "electric_scooter", "bike_id": "26b31ab8b0da4cadc926e42fbe8e904d"}, {"lon": -77.02695083333333, "lat": 38.90947116666667, "name": "8df9e65e384da177e3497489856a9484", "fusion_lat": 0.0, "fusion_lon": 0.0, "rental_uris": {"android": "https://dc.lft.to/lastmile_qr_scan", "ios": "https://dc.lft.to/lastmile_qr_scan"}, "is_reserved": 0, "is_disabled": 0, "type": "electric_scooter", "bike_id": "8df9e65e384da177e3497489856a9484"}, {"lon": -77.0266075, "lat": 38.938599833333335, "name": "c55495e148d3c33d7dc0ae05f172e565", "fusion_lat": 0.0, "fusion_lon": 0.0, "rental_uris": {"android": "https://dc.lft.to/lastmile_qr_scan", "ios": "https://dc.lft.to/lastmile_qr_scan"}, "is_reserved": 0, "is_disabled": 0, "type": "electric_scooter", "bike_id": "c55495e148d3c33d7dc0ae05f172e565"}, {"lon": -77.0091135, "lat": 38.902735666666665, "name": "1976d7c0a4885a52f9592f540e11e570", "fusion_lat": 0.0, "fusion_lon": 0.0, "rental_uris": {"android": "https://dc.lft.to/lastmile_qr_scan", "ios": "https://dc.lft.to/lastmile_qr_scan"}, "is_reserved": 0, "is_disabled": 0, "type": "electric_scooter", "bike_id": "1976d7c0a4885a52f9592f540e11e570"}, {"lon": -77.01644166666667, "lat": 38.92942166666667, "name": "4b7887ce560247acd055486affece450", "fusion_lat": 0.0, "fusion_lon": 0.0, "rental_uris": {"android": "https://dc.lft.to/lastmile_qr_scan", "ios": "https://dc.lft.to/lastmile_qr_scan"}, "is_reserved": 0, "is_disabled": 0, "type": "electric_scooter", "bike_id": "4b7887ce560247acd055486affece450"}, {"lon": -77.0021555, "lat": 38.90029416666667, "name": "c4ff2eed4c3d4d4da77b3d4784be807f", "fusion_lat": 0.0, "fusion_lon": 0.0, "rental_uris": {"android": "https://dc.lft.to/lastmile_qr_scan", "ios": "https://dc.lft.to/lastmile_qr_scan"}, "is_reserved": 0, "is_disabled": 0, "type": "electric_scooter", "bike_id": "c4ff2eed4c3d4d4da77b3d4784be807f"}, {"lon": -77.020481, "lat": 38.915595833333334, "name": "84a315629139f96d7fcc4e9567f546a2", "fusion_lat": 0.0, "fusion_lon": 0.0, "rental_uris": {"android": "https://dc.lft.to/lastmile_qr_scan", "ios": "https://dc.lft.to/lastmile_qr_scan"}, "is_reserved": 0, "is_disabled": 0, "type": "electric_scooter", "bike_id": "84a315629139f96d7fcc4e9567f546a2"}, {"lon": -77.023745, "lat": 38.9072805, "name": "8ad90a392d615f50f8ff03a302e688c8", "fusion_lat": 0.0, "fusion_lon": 0.0, "rental_uris": {"android": "https://dc.lft.to/lastmile_qr_scan", "ios": "https://dc.lft.to/lastmile_qr_scan"}, "is_reserved": 0, "is_disabled": 0, "type": "electric_scooter", "bike_id": "8ad90a392d615f50f8ff03a302e688c8"}, {"lon": -77.0124975, "lat": 38.876332, "name": "ed21b47baa727e5ddc300376ab2a00af", "fusion_lat": 0.0, "fusion_lon": 0.0, "rental_uris": {"android": "https://dc.lft.to/lastmile_qr_scan", "ios": "https://dc.lft.to/lastmile_qr_scan"}, "is_reserved": 0, "is_disabled": 0, "type": "electric_scooter", "bike_id": "ed21b47baa727e5ddc300376ab2a00af"}, {"lon": -77.01588416666667, "lat": 38.95765633333333, "name": "725f134f0ad8b4eb542b7f784bfdae51", "fusion_lat": 0.0, "fusion_lon": 0.0, "rental_uris": {"android": "https://dc.lft.to/lastmile_qr_scan", "ios": "https://dc.lft.to/lastmile_qr_scan"}, "is_reserved": 0, "is_disabled": 0, "type": "electric_scooter", "bike_id": "725f134f0ad8b4eb542b7f784bfdae51"}, {"lon": -77.032721, "lat": 38.930014666666665, "name": "27fb724b3848c923db29d0809c521717", "fusion_lat": 0.0, "fusion_lon": 0.0, "rental_uris": {"android": "https://dc.lft.to/lastmile_qr_scan", "ios": "https://dc.lft.to/lastmile_qr_scan"}, "is_reserved": 0, "is_disabled": 0, "type": "electric_scooter", "bike_id": "27fb724b3848c923db29d0809c521717"}, {"lon": -76.93733083333333, "lat": 38.8901425, "name": "31e8f60177974cbd6db898b576ce5529", "fusion_lat": 0.0, "fusion_lon": 0.0, "rental_uris": {"android": "https://dc.lft.to/lastmile_qr_scan", "ios": "https://dc.lft.to/lastmile_qr_scan"}, "is_reserved": 0, "is_disabled": 0, "type": "electric_scooter", "bike_id": "31e8f60177974cbd6db898b576ce5529"}, {"lon": -77.00587866666666, "lat": 38.90557866666666, "name": "b4174dccc7e39e526a175b4dfa73f013", "fusion_lat": 0.0, "fusion_lon": 0.0, "rental_uris": {"android": "https://dc.lft.to/lastmile_qr_scan", "ios": "https://dc.lft.to/lastmile_qr_scan"}, "is_reserved": 0, "is_disabled": 0, "type": "electric_scooter", "bike_id": "b4174dccc7e39e526a175b4dfa73f013"}, {"lon": -76.95184016666667, "lat": 38.891312, "name": "ad38f47c542e03211f5cb686fec61feb", "fusion_lat": 0.0, "fusion_lon": 0.0, "rental_uris": {"android": "https://dc.lft.to/lastmile_qr_scan", "ios": "https://dc.lft.to/lastmile_qr_scan"}, "is_reserved": 0, "is_disabled": 0, "type": "electric_scooter", "bike_id": "ad38f47c542e03211f5cb686fec61feb"}, {"lon": -77.024154, "lat": 38.92607916666667, "name": "74cce70cef8c98132cac427fd9b984c4", "fusion_lat": 0.0, "fusion_lon": 0.0, "rental_uris": {"android": "https://dc.lft.to/lastmile_qr_scan", "ios": "https://dc.lft.to/lastmile_qr_scan"}, "is_reserved": 0, "is_disabled": 0, "type": "electric_scooter", "bike_id": "74cce70cef8c98132cac427fd9b984c4"}, {"lon": -77.04511666666667, "lat": 38.9079325, "name": "210c5952d0c3731315210f35eab5e302", "fusion_lat": 0.0, "fusion_lon": 0.0, "rental_uris": {"android": "https://dc.lft.to/lastmile_qr_scan", "ios": "https://dc.lft.to/lastmile_qr_scan"}, "is_reserved": 0, "is_disabled": 0, "type": "electric_scooter", "bike_id": "210c5952d0c3731315210f35eab5e302"}, {"lon": -77.00547266666666, "lat": 38.91190733333333, "name": "dc6a68d55ba3a6f86ebc33c2ad8940de", "fusion_lat": 0.0, "fusion_lon": 0.0, "rental_uris": {"android": "https://dc.lft.to/lastmile_qr_scan", "ios": "https://dc.lft.to/lastmile_qr_scan"}, "is_reserved": 0, "is_disabled": 0, "type": "electric_scooter", "bike_id": "dc6a68d55ba3a6f86ebc33c2ad8940de"}, {"lon": -77.01246416666666, "lat": 38.87196266666667, "name": "5afa9cb5bdc067e868d3a6302eed01c3", "fusion_lat": 0.0, "fusion_lon": 0.0, "rental_uris": {"android": "https://dc.lft.to/lastmile_qr_scan", "ios": "https://dc.lft.to/lastmile_qr_scan"}, "is_reserved": 0, "is_disabled": 0, "type": "electric_scooter", "bike_id": "5afa9cb5bdc067e868d3a6302eed01c3"}, {"lon": -77.04334333333334, "lat": 38.9088555, "name": "cb21aeca074e8b5a1e23707d24032626", "fusion_lat": 0.0, "fusion_lon": 0.0, "rental_uris": {"android": "https://dc.lft.to/lastmile_qr_scan", "ios": "https://dc.lft.to/lastmile_qr_scan"}, "is_reserved": 0, "is_disabled": 0, "type": "electric_scooter", "bike_id": "cb21aeca074e8b5a1e23707d24032626"}, {"lon": -77.0327745, "lat": 38.93086866666667, "name": "b32a6df71d04c962fabda003a1c83161", "fusion_lat": 0.0, "fusion_lon": 0.0, "rental_uris": {"android": "https://dc.lft.to/lastmile_qr_scan", "ios": "https://dc.lft.to/lastmile_qr_scan"}, "is_reserved": 0, "is_disabled": 0, "type": "electric_scooter", "bike_id": "b32a6df71d04c962fabda003a1c83161"}, {"lon": -77.02145516666667, "lat": 38.935703, "name": "bd442cc52835b61803aa6fa03feca1d5", "fusion_lat": 0.0, "fusion_lon": 0.0, "rental_uris": {"android": "https://dc.lft.to/lastmile_qr_scan", "ios": "https://dc.lft.to/lastmile_qr_scan"}, "is_reserved": 0, "is_disabled": 0, "type": "electric_scooter", "bike_id": "bd442cc52835b61803aa6fa03feca1d5"}, {"lon": -77.04373683333333, "lat": 38.9257135, "name": "1db4e6040f7b80bf39e20b40e9ca316e", "fusion_lat": 0.0, "fusion_lon": 0.0, "rental_uris": {"android": "https://dc.lft.to/lastmile_qr_scan", "ios": "https://dc.lft.to/lastmile_qr_scan"}, "is_reserved": 0, "is_disabled": 0, "type": "electric_scooter", "bike_id": "1db4e6040f7b80bf39e20b40e9ca316e"}, {"lon": -77.01932916666667, "lat": 38.949261166666666, "name": "9388b5c0e750273744fea7a9f09330cf", "fusion_lat": 0.0, "fusion_lon": 0.0, "rental_uris": {"android": "https://dc.lft.to/lastmile_qr_scan", "ios": "https://dc.lft.to/lastmile_qr_scan"}, "is_reserved": 0, "is_disabled": 0, "type": "electric_scooter", "bike_id": "9388b5c0e750273744fea7a9f09330cf"}, {"lon": -77.026968, "lat": 38.908472, "name": "e0d8891426d29da57cba45ff147a4f3a", "fusion_lat": 0.0, "fusion_lon": 0.0, "rental_uris": {"android": "https://dc.lft.to/lastmile_qr_scan", "ios": "https://dc.lft.to/lastmile_qr_scan"}, "is_reserved": 0, "is_disabled": 0, "type": "electric_scooter", "bike_id": "e0d8891426d29da57cba45ff147a4f3a"}, {"lon": -76.99946066666666, "lat": 38.842925, "name": "2afb573ca1c546bc566f644ecbcd6ff7", "fusion_lat": 0.0, "fusion_lon": 0.0, "rental_uris": {"android": "https://dc.lft.to/lastmile_qr_scan", "ios": "https://dc.lft.to/lastmile_qr_scan"}, "is_reserved": 0, "is_disabled": 0, "type": "electric_scooter", "bike_id": "2afb573ca1c546bc566f644ecbcd6ff7"}, {"lon": -77.04856783333334, "lat": 38.9097995, "name": "123eb86cbc22ff84b8cd51b6133b242c", "fusion_lat": 0.0, "fusion_lon": 0.0, "rental_uris": {"android": "https://dc.lft.to/lastmile_qr_scan", "ios": "https://dc.lft.to/lastmile_qr_scan"}, "is_reserved": 0, "is_disabled": 0, "type": "electric_bike", "bike_id": "123eb86cbc22ff84b8cd51b6133b242c"}, {"lon": -77.0381015, "lat": 38.9206715, "name": "3f846496ae68cbf67b40dc9fafae9d2f", "fusion_lat": 0.0, "fusion_lon": 0.0, "rental_uris": {"android": "https://dc.lft.to/lastmile_qr_scan", "ios": "https://dc.lft.to/lastmile_qr_scan"}, "is_reserved": 0, "is_disabled": 0, "type": "electric_scooter", "bike_id": "3f846496ae68cbf67b40dc9fafae9d2f"}, {"lon": -77.03338366666667, "lat": 38.89857833333333, "name": "a37a716a711b5c3d9c58558857cbf13f", "fusion_lat": 0.0, "fusion_lon": 0.0, "rental_uris": {"android": "https://dc.lft.to/lastmile_qr_scan", "ios": "https://dc.lft.to/lastmile_qr_scan"}, "is_reserved": 0, "is_disabled": 0, "type": "electric_scooter", "bike_id": "a37a716a711b5c3d9c58558857cbf13f"}, {"lon": -77.02960883333333, "lat": 38.904940333333336, "name": "9814943f23fde2507f419a3ea0b1abfa", "fusion_lat": 0.0, "fusion_lon": 0.0, "rental_uris": {"android": "https://dc.lft.to/lastmile_qr_scan", "ios": "https://dc.lft.to/lastmile_qr_scan"}, "is_reserved": 0, "is_disabled": 0, "type": "electric_scooter", "bike_id": "9814943f23fde2507f419a3ea0b1abfa"}, {"lon": -76.97331716666666, "lat": 38.904810499999996, "name": "c9b5690579c9e4ede5fd245ed0904e7f", "fusion_lat": 0.0, "fusion_lon": 0.0, "rental_uris": {"android": "https://dc.lft.to/lastmile_qr_scan", "ios": "https://dc.lft.to/lastmile_qr_scan"}, "is_reserved": 0, "is_disabled": 0, "type": "electric_scooter", "bike_id": "c9b5690579c9e4ede5fd245ed0904e7f"}, {"lon": -77.011042, "lat": 38.963047833333334, "name": "180ae347ebad807822f19187e664bd8d", "fusion_lat": 0.0, "fusion_lon": 0.0, "rental_uris": {"android": "https://dc.lft.to/lastmile_qr_scan", "ios": "https://dc.lft.to/lastmile_qr_scan"}, "is_reserved": 0, "is_disabled": 0, "type": "electric_bike", "bike_id": "180ae347ebad807822f19187e664bd8d"}, {"lon": -77.02432966666667, "lat": 38.926129833333334, "name": "6e05a8e00ccf2fcb968b56298f2772a1", "fusion_lat": 0.0, "fusion_lon": 0.0, "rental_uris": {"android": "https://dc.lft.to/lastmile_qr_scan", "ios": "https://dc.lft.to/lastmile_qr_scan"}, "is_reserved": 0, "is_disabled": 0, "type": "electric_bike", "bike_id": "6e05a8e00ccf2fcb968b56298f2772a1"}, {"lon": -77.03850533333333, "lat": 38.91538366666666, "name": "9553bbbd644385fc1ebf21e2f2e42a2a", "fusion_lat": 0.0, "fusion_lon": 0.0, "rental_uris": {"android": "https://dc.lft.to/lastmile_qr_scan", "ios": "https://dc.lft.to/lastmile_qr_scan"}, "is_reserved": 0, "is_disabled": 0, "type": "electric_scooter", "bike_id": "9553bbbd644385fc1ebf21e2f2e42a2a"}, {"lon": -77.0013355, "lat": 38.90406383333333, "name": "1305ff8d49c7acc90eb7eca52787bb33", "fusion_lat": 0.0, "fusion_lon": 0.0, "rental_uris": {"android": "https://dc.lft.to/lastmile_qr_scan", "ios": "https://dc.lft.to/lastmile_qr_scan"}, "is_reserved": 0, "is_disabled": 0, "type": "electric_scooter", "bike_id": "1305ff8d49c7acc90eb7eca52787bb33"}, {"lon": -77.02935566666666, "lat": 38.906417166666664, "name": "af53a4e7077799a1e7c1e81a3598ddc1", "fusion_lat": 0.0, "fusion_lon": 0.0, "rental_uris": {"android": "https://dc.lft.to/lastmile_qr_scan", "ios": "https://dc.lft.to/lastmile_qr_scan"}, "is_reserved": 0, "is_disabled": 0, "type": "electric_scooter", "bike_id": "af53a4e7077799a1e7c1e81a3598ddc1"}, {"lon": -77.10898416666667, "lat": 38.830450666666664, "name": "5a0319b4b2d51167302b2acc990eb8f3", "fusion_lat": 0.0, "fusion_lon": 0.0, "rental_uris": {"android": "https://dc.lft.to/lastmile_qr_scan", "ios": "https://dc.lft.to/lastmile_qr_scan"}, "is_reserved": 0, "is_disabled": 0, "type": "electric_bike", "bike_id": "5a0319b4b2d51167302b2acc990eb8f3"}, {"lon": -77.02214516666666, "lat": 38.9058035, "name": "1ed044dbc326f6a9f04bc73963764760", "fusion_lat": 0.0, "fusion_lon": 0.0, "rental_uris": {"android": "https://dc.lft.to/lastmile_qr_scan", "ios": "https://dc.lft.to/lastmile_qr_scan"}, "is_reserved": 0, "is_disabled": 0, "type": "electric_scooter", "bike_id": "1ed044dbc326f6a9f04bc73963764760"}, {"lon": -76.95028033333334, "lat": 38.89182666666667, "name": "7ac3d985a45d86d1201af50a045b4e38", "fusion_lat": 0.0, "fusion_lon": 0.0, "rental_uris": {"android": "https://dc.lft.to/lastmile_qr_scan", "ios": "https://dc.lft.to/lastmile_qr_scan"}, "is_reserved": 0, "is_disabled": 0, "type": "electric_bike", "bike_id": "7ac3d985a45d86d1201af50a045b4e38"}, {"lon": -77.03453333333333, "lat": 38.90277583333334, "name": "d619307a06b56c80bc86db78b677f76c", "fusion_lat": 0.0, "fusion_lon": 0.0, "rental_uris": {"android": "https://dc.lft.to/lastmile_qr_scan", "ios": "https://dc.lft.to/lastmile_qr_scan"}, "is_reserved": 0, "is_disabled": 0, "type": "electric_scooter", "bike_id": "d619307a06b56c80bc86db78b677f76c"}, {"lon": -76.9568055, "lat": 38.9473135, "name": "1c1e90a288e7367cf915083416202529", "fusion_lat": 0.0, "fusion_lon": 0.0, "rental_uris": {"android": "https://dc.lft.to/lastmile_qr_scan", "ios": "https://dc.lft.to/lastmile_qr_scan"}, "is_reserved": 0, "is_disabled": 0, "type": "electric_bike", "bike_id": "1c1e90a288e7367cf915083416202529"}, {"lon": -77.01116733333333, "lat": 38.8708355, "name": "6d07b2c4307553b61d9327fd7a17ba31", "fusion_lat": 0.0, "fusion_lon": 0.0, "rental_uris": {"android": "https://dc.lft.to/lastmile_qr_scan", "ios": "https://dc.lft.to/lastmile_qr_scan"}, "is_reserved": 0, "is_disabled": 0, "type": "electric_scooter", "bike_id": "6d07b2c4307553b61d9327fd7a17ba31"}, {"lon": -76.951087, "lat": 38.887919833333335, "name": "ada699959e870c6d9a6c1823121b6e45", "fusion_lat": 0.0, "fusion_lon": 0.0, "rental_uris": {"android": "https://dc.lft.to/lastmile_qr_scan", "ios": "https://dc.lft.to/lastmile_qr_scan"}, "is_reserved": 0, "is_disabled": 0, "type": "electric_scooter", "bike_id": "ada699959e870c6d9a6c1823121b6e45"}, {"lon": -76.98534183333334, "lat": 38.909543, "name": "6cc0557a27fa893ed6e4f78cf776bc37", "fusion_lat": 0.0, "fusion_lon": 0.0, "rental_uris": {"android": "https://dc.lft.to/lastmile_qr_scan", "ios": "https://dc.lft.to/lastmile_qr_scan"}, "is_reserved": 0, "is_disabled": 0, "type": "electric_scooter", "bike_id": "6cc0557a27fa893ed6e4f78cf776bc37"}, {"lon": -77.00197216666666, "lat": 38.902369666666665, "name": "228c3531659aac3afdf81ec9fbcccc12", "fusion_lat": 0.0, "fusion_lon": 0.0, "rental_uris": {"android": "https://dc.lft.to/lastmile_qr_scan", "ios": "https://dc.lft.to/lastmile_qr_scan"}, "is_reserved": 0, "is_disabled": 0, "type": "electric_scooter", "bike_id": "228c3531659aac3afdf81ec9fbcccc12"}, {"lon": -77.01654583333334, "lat": 38.91607066666667, "name": "482857e9a122af383dec5c4ed23d3038", "fusion_lat": 0.0, "fusion_lon": 0.0, "rental_uris": {"android": "https://dc.lft.to/lastmile_qr_scan", "ios": "https://dc.lft.to/lastmile_qr_scan"}, "is_reserved": 0, "is_disabled": 0, "type": "electric_scooter", "bike_id": "482857e9a122af383dec5c4ed23d3038"}, {"lon": -77.0297535, "lat": 38.9051245, "name": "eae3caccaabe4e0132f9d9edd77d5e48", "fusion_lat": 0.0, "fusion_lon": 0.0, "rental_uris": {"android": "https://dc.lft.to/lastmile_qr_scan", "ios": "https://dc.lft.to/lastmile_qr_scan"}, "is_reserved": 0, "is_disabled": 0, "type": "electric_scooter", "bike_id": "eae3caccaabe4e0132f9d9edd77d5e48"}, {"lon": -77.0429535, "lat": 38.9072195, "name": "81d27af108b6cd2a1ac1de48eb8db717", "fusion_lat": 0.0, "fusion_lon": 0.0, "rental_uris": {"android": "https://dc.lft.to/lastmile_qr_scan", "ios": "https://dc.lft.to/lastmile_qr_scan"}, "is_reserved": 0, "is_disabled": 0, "type": "electric_scooter", "bike_id": "81d27af108b6cd2a1ac1de48eb8db717"}, {"lon": -77.0213065, "lat": 38.903541833333335, "name": "ff004c0c75fdc5b7d7ddbef40b85bae6", "fusion_lat": 0.0, "fusion_lon": 0.0, "rental_uris": {"android": "https://dc.lft.to/lastmile_qr_scan", "ios": "https://dc.lft.to/lastmile_qr_scan"}, "is_reserved": 0, "is_disabled": 0, "type": "electric_scooter", "bike_id": "ff004c0c75fdc5b7d7ddbef40b85bae6"}, {"lon": -77.035243, "lat": 38.923427833333335, "name": "e480366a657a2c988d873b95067a0134", "fusion_lat": 0.0, "fusion_lon": 0.0, "rental_uris": {"android": "https://dc.lft.to/lastmile_qr_scan", "ios": "https://dc.lft.to/lastmile_qr_scan"}, "is_reserved": 0, "is_disabled": 0, "type": "electric_scooter", "bike_id": "e480366a657a2c988d873b95067a0134"}, {"lon": -77.0326315, "lat": 38.9180655, "name": "db26c3b23c2540224f26ba5497c9893f", "fusion_lat": 0.0, "fusion_lon": 0.0, "rental_uris": {"android": "https://dc.lft.to/lastmile_qr_scan", "ios": "https://dc.lft.to/lastmile_qr_scan"}, "is_reserved": 0, "is_disabled": 0, "type": "electric_scooter", "bike_id": "db26c3b23c2540224f26ba5497c9893f"}, {"lon": -77.04839, "lat": 38.91846616666667, "name": "1896f331b3dba2e8d2a7ffca431d2c4c", "fusion_lat": 0.0, "fusion_lon": 0.0, "rental_uris": {"android": "https://dc.lft.to/lastmile_qr_scan", "ios": "https://dc.lft.to/lastmile_qr_scan"}, "is_reserved": 0, "is_disabled": 0, "type": "electric_scooter", "bike_id": "1896f331b3dba2e8d2a7ffca431d2c4c"}, {"lon": -77.01234266666667, "lat": 38.9287825, "name": "469da3ff93caf73aad05945c8fb46177", "fusion_lat": 0.0, "fusion_lon": 0.0, "rental_uris": {"android": "https://dc.lft.to/lastmile_qr_scan", "ios": "https://dc.lft.to/lastmile_qr_scan"}, "is_reserved": 0, "is_disabled": 0, "type": "electric_bike", "bike_id": "469da3ff93caf73aad05945c8fb46177"}, {"lon": -76.93173533333334, "lat": 38.898889, "name": "2550cc258d0081a920cc3c43d9c34ac1", "fusion_lat": 0.0, "fusion_lon": 0.0, "rental_uris": {"android": "https://dc.lft.to/lastmile_qr_scan", "ios": "https://dc.lft.to/lastmile_qr_scan"}, "is_reserved": 0, "is_disabled": 0, "type": "electric_scooter", "bike_id": "2550cc258d0081a920cc3c43d9c34ac1"}, {"lon": -77.0218705, "lat": 38.9141925, "name": "9910c94cc9f8522ef6bee4f15738d95a", "fusion_lat": 0.0, "fusion_lon": 0.0, "rental_uris": {"android": "https://dc.lft.to/lastmile_qr_scan", "ios": "https://dc.lft.to/lastmile_qr_scan"}, "is_reserved": 0, "is_disabled": 0, "type": "electric_scooter", "bike_id": "9910c94cc9f8522ef6bee4f15738d95a"}, {"lon": -76.99459816666666, "lat": 38.851636666666664, "name": "c067801361690f0c7927b512591f84c1", "fusion_lat": 0.0, "fusion_lon": 0.0, "rental_uris": {"android": "https://dc.lft.to/lastmile_qr_scan", "ios": "https://dc.lft.to/lastmile_qr_scan"}, "is_reserved": 0, "is_disabled": 0, "type": "electric_scooter", "bike_id": "c067801361690f0c7927b512591f84c1"}, {"lon": -76.98145166666667, "lat": 38.959666, "name": "9ebf5159d84cff5e56b3c28116c32e22", "fusion_lat": 0.0, "fusion_lon": 0.0, "rental_uris": {"android": "https://dc.lft.to/lastmile_qr_scan", "ios": "https://dc.lft.to/lastmile_qr_scan"}, "is_reserved": 0, "is_disabled": 0, "type": "electric_bike", "bike_id": "9ebf5159d84cff5e56b3c28116c32e22"}, {"lon": -77.08051183333333, "lat": 38.848399666666666, "name": "0524eb019c9ab2887e812432ca6fa045", "fusion_lat": 0.0, "fusion_lon": 0.0, "rental_uris": {"android": "https://dc.lft.to/lastmile_qr_scan", "ios": "https://dc.lft.to/lastmile_qr_scan"}, "is_reserved": 0, "is_disabled": 0, "type": "electric_bike", "bike_id": "0524eb019c9ab2887e812432ca6fa045"}, {"lon": -76.99077133333333, "lat": 38.842883, "name": "681137c78a9235ddd98e5f54f36c5403", "fusion_lat": 0.0, "fusion_lon": 0.0, "rental_uris": {"android": "https://dc.lft.to/lastmile_qr_scan", "ios": "https://dc.lft.to/lastmile_qr_scan"}, "is_reserved": 0, "is_disabled": 0, "type": "electric_scooter", "bike_id": "681137c78a9235ddd98e5f54f36c5403"}, {"lon": -77.029789, "lat": 38.9167245, "name": "1b0742d307e4db198660905ee973022f", "fusion_lat": 0.0, "fusion_lon": 0.0, "rental_uris": {"android": "https://dc.lft.to/lastmile_qr_scan", "ios": "https://dc.lft.to/lastmile_qr_scan"}, "is_reserved": 0, "is_disabled": 0, "type": "electric_scooter", "bike_id": "1b0742d307e4db198660905ee973022f"}, {"lon": -76.970191, "lat": 38.920325, "name": "8a5a19e2f2fa3d93896d51cbaf87977c", "fusion_lat": 0.0, "fusion_lon": 0.0, "rental_uris": {"android": "https://dc.lft.to/lastmile_qr_scan", "ios": "https://dc.lft.to/lastmile_qr_scan"}, "is_reserved": 0, "is_disabled": 0, "type": "electric_scooter", "bike_id": "8a5a19e2f2fa3d93896d51cbaf87977c"}, {"lon": -76.999605, "lat": 38.90861366666667, "name": "93e5d469e797389295517d936308e058", "fusion_lat": 0.0, "fusion_lon": 0.0, "rental_uris": {"android": "https://dc.lft.to/lastmile_qr_scan", "ios": "https://dc.lft.to/lastmile_qr_scan"}, "is_reserved": 0, "is_disabled": 0, "type": "electric_scooter", "bike_id": "93e5d469e797389295517d936308e058"}, {"lon": -76.986978, "lat": 38.907072, "name": "daeb914b15f9276a5826fa825c33d7e6", "fusion_lat": 0.0, "fusion_lon": 0.0, "rental_uris": {"android": "https://dc.lft.to/lastmile_qr_scan", "ios": "https://dc.lft.to/lastmile_qr_scan"}, "is_reserved": 0, "is_disabled": 0, "type": "electric_scooter", "bike_id": "daeb914b15f9276a5826fa825c33d7e6"}, {"lon": -76.98608483333334, "lat": 38.9257975, "name": "d61972dfaf5ac0474ad5a380ec0e568c", "fusion_lat": 0.0, "fusion_lon": 0.0, "rental_uris": {"android": "https://dc.lft.to/lastmile_qr_scan", "ios": "https://dc.lft.to/lastmile_qr_scan"}, "is_reserved": 0, "is_disabled": 0, "type": "electric_bike", "bike_id": "d61972dfaf5ac0474ad5a380ec0e568c"}, {"lon": -77.01900633333334, "lat": 38.939251166666665, "name": "dfbcb9788224ac8c367bd4d3983db236", "fusion_lat": 0.0, "fusion_lon": 0.0, "rental_uris": {"android": "https://dc.lft.to/lastmile_qr_scan", "ios": "https://dc.lft.to/lastmile_qr_scan"}, "is_reserved": 0, "is_disabled": 0, "type": "electric_scooter", "bike_id": "dfbcb9788224ac8c367bd4d3983db236"}, {"lon": -77.03745183333334, "lat": 38.92211433333333, "name": "173da94d5c7b295f7db0eff9706c53ff", "fusion_lat": 0.0, "fusion_lon": 0.0, "rental_uris": {"android": "https://dc.lft.to/lastmile_qr_scan", "ios": "https://dc.lft.to/lastmile_qr_scan"}, "is_reserved": 0, "is_disabled": 0, "type": "electric_scooter", "bike_id": "173da94d5c7b295f7db0eff9706c53ff"}, {"lon": -77.04479966666666, "lat": 38.9001475, "name": "aad80bd0cd154174c273928e0b7098f2", "fusion_lat": 0.0, "fusion_lon": 0.0, "rental_uris": {"android": "https://dc.lft.to/lastmile_qr_scan", "ios": "https://dc.lft.to/lastmile_qr_scan"}, "is_reserved": 0, "is_disabled": 0, "type": "electric_scooter", "bike_id": "aad80bd0cd154174c273928e0b7098f2"}, {"lon": -77.05929666666667, "lat": 38.93674733333334, "name": "f80c7d8c6389e7f708299e0fda5e5033", "fusion_lat": 0.0, "fusion_lon": 0.0, "rental_uris": {"android": "https://dc.lft.to/lastmile_qr_scan", "ios": "https://dc.lft.to/lastmile_qr_scan"}, "is_reserved": 0, "is_disabled": 0, "type": "electric_scooter", "bike_id": "f80c7d8c6389e7f708299e0fda5e5033"}, {"lon": -77.02825083333333, "lat": 38.887428666666665, "name": "dd9f4e833ef282c66524a2db3faeab32", "fusion_lat": 0.0, "fusion_lon": 0.0, "rental_uris": {"android": "https://dc.lft.to/lastmile_qr_scan", "ios": "https://dc.lft.to/lastmile_qr_scan"}, "is_reserved": 0, "is_disabled": 0, "type": "electric_scooter", "bike_id": "dd9f4e833ef282c66524a2db3faeab32"}, {"lon": -77.03501716666666, "lat": 38.937422, "name": "dd59baf7fd8ee940062975609ee00b9a", "fusion_lat": 0.0, "fusion_lon": 0.0, "rental_uris": {"android": "https://dc.lft.to/lastmile_qr_scan", "ios": "https://dc.lft.to/lastmile_qr_scan"}, "is_reserved": 0, "is_disabled": 0, "type": "electric_scooter", "bike_id": "dd59baf7fd8ee940062975609ee00b9a"}, {"lon": -77.03341116666667, "lat": 38.89829316666667, "name": "54bd9f896657fe69e06c9d12b1ca7072", "fusion_lat": 0.0, "fusion_lon": 0.0, "rental_uris": {"android": "https://dc.lft.to/lastmile_qr_scan", "ios": "https://dc.lft.to/lastmile_qr_scan"}, "is_reserved": 0, "is_disabled": 0, "type": "electric_scooter", "bike_id": "54bd9f896657fe69e06c9d12b1ca7072"}, {"lon": -76.94784633333333, "lat": 38.896538166666666, "name": "7f97767e2534cb888e4177084adb5367", "fusion_lat": 0.0, "fusion_lon": 0.0, "rental_uris": {"android": "https://dc.lft.to/lastmile_qr_scan", "ios": "https://dc.lft.to/lastmile_qr_scan"}, "is_reserved": 0, "is_disabled": 0, "type": "electric_bike", "bike_id": "7f97767e2534cb888e4177084adb5367"}, {"lon": -77.04541783333333, "lat": 38.89479, "name": "f30281aa848f0889f32515a7abc6b169", "fusion_lat": 0.0, "fusion_lon": 0.0, "rental_uris": {"android": "https://dc.lft.to/lastmile_qr_scan", "ios": "https://dc.lft.to/lastmile_qr_scan"}, "is_reserved": 0, "is_disabled": 0, "type": "electric_scooter", "bike_id": "f30281aa848f0889f32515a7abc6b169"}, {"lon": -77.032226, "lat": 38.892604666666664, "name": "091f89ecd792897940fc8a4628665aaa", "fusion_lat": 0.0, "fusion_lon": 0.0, "rental_uris": {"android": "https://dc.lft.to/lastmile_qr_scan", "ios": "https://dc.lft.to/lastmile_qr_scan"}, "is_reserved": 0, "is_disabled": 0, "type": "electric_scooter", "bike_id": "091f89ecd792897940fc8a4628665aaa"}, {"lon": -77.02482683333334, "lat": 38.938824333333336, "name": "b50946a0c25773668f60454b5cbc44bf", "fusion_lat": 0.0, "fusion_lon": 0.0, "rental_uris": {"android": "https://dc.lft.to/lastmile_qr_scan", "ios": "https://dc.lft.to/lastmile_qr_scan"}, "is_reserved": 0, "is_disabled": 0, "type": "electric_scooter", "bike_id": "b50946a0c25773668f60454b5cbc44bf"}, {"lon": -77.0215735, "lat": 38.89400283333333, "name": "2eac3f6dd1106c0241cd4cd29196a977", "fusion_lat": 0.0, "fusion_lon": 0.0, "rental_uris": {"android": "https://dc.lft.to/lastmile_qr_scan", "ios": "https://dc.lft.to/lastmile_qr_scan"}, "is_reserved": 0, "is_disabled": 0, "type": "electric_scooter", "bike_id": "2eac3f6dd1106c0241cd4cd29196a977"}, {"lon": -77.01542633333334, "lat": 38.943172, "name": "8c59c5a1bda21f2ba416896154731e60", "fusion_lat": 0.0, "fusion_lon": 0.0, "rental_uris": {"android": "https://dc.lft.to/lastmile_qr_scan", "ios": "https://dc.lft.to/lastmile_qr_scan"}, "is_reserved": 0, "is_disabled": 0, "type": "electric_scooter", "bike_id": "8c59c5a1bda21f2ba416896154731e60"}, {"lon": -76.99014233333334, "lat": 38.861233, "name": "00a160bab5823aeef8289aa52c3c3f0d", "fusion_lat": 0.0, "fusion_lon": 0.0, "rental_uris": {"android": "https://dc.lft.to/lastmile_qr_scan", "ios": "https://dc.lft.to/lastmile_qr_scan"}, "is_reserved": 0, "is_disabled": 0, "type": "electric_scooter", "bike_id": "00a160bab5823aeef8289aa52c3c3f0d"}, {"lon": -77.03182583333333, "lat": 38.91923033333333, "name": "eaced272783c1a7e79cd45933e8f8ce8", "fusion_lat": 0.0, "fusion_lon": 0.0, "rental_uris": {"android": "https://dc.lft.to/lastmile_qr_scan", "ios": "https://dc.lft.to/lastmile_qr_scan"}, "is_reserved": 0, "is_disabled": 0, "type": "electric_scooter", "bike_id": "eaced272783c1a7e79cd45933e8f8ce8"}, {"lon": -77.0159595, "lat": 38.909573333333334, "name": "60bc7521ae69bc89411447a56031df5a", "fusion_lat": 0.0, "fusion_lon": 0.0, "rental_uris": {"android": "https://dc.lft.to/lastmile_qr_scan", "ios": "https://dc.lft.to/lastmile_qr_scan"}, "is_reserved": 0, "is_disabled": 0, "type": "electric_scooter", "bike_id": "60bc7521ae69bc89411447a56031df5a"}, {"lon": -77.03639016666666, "lat": 38.9240565, "name": "1c1ef6aa66c5f24aa8685542e3dfe066", "fusion_lat": 0.0, "fusion_lon": 0.0, "rental_uris": {"android": "https://dc.lft.to/lastmile_qr_scan", "ios": "https://dc.lft.to/lastmile_qr_scan"}, "is_reserved": 0, "is_disabled": 0, "type": "electric_scooter", "bike_id": "1c1ef6aa66c5f24aa8685542e3dfe066"}, {"lon": -76.94891266666667, "lat": 38.8952845, "name": "8791c1a7c65b19630fd29a3f18a958d0", "fusion_lat": 0.0, "fusion_lon": 0.0, "rental_uris": {"android": "https://dc.lft.to/lastmile_qr_scan", "ios": "https://dc.lft.to/lastmile_qr_scan"}, "is_reserved": 0, "is_disabled": 0, "type": "electric_scooter", "bike_id": "8791c1a7c65b19630fd29a3f18a958d0"}, {"lon": -77.0005365, "lat": 38.903665333333336, "name": "d997cdc73690ace056d8957a59a9d1bd", "fusion_lat": 0.0, "fusion_lon": 0.0, "rental_uris": {"android": "https://dc.lft.to/lastmile_qr_scan", "ios": "https://dc.lft.to/lastmile_qr_scan"}, "is_reserved": 0, "is_disabled": 0, "type": "electric_scooter", "bike_id": "d997cdc73690ace056d8957a59a9d1bd"}, {"lon": -76.996301, "lat": 38.84622016666667, "name": "a0659490c9467b6c9fc50b9c071e4590", "fusion_lat": 0.0, "fusion_lon": 0.0, "rental_uris": {"android": "https://dc.lft.to/lastmile_qr_scan", "ios": "https://dc.lft.to/lastmile_qr_scan"}, "is_reserved": 0, "is_disabled": 0, "type": "electric_scooter", "bike_id": "a0659490c9467b6c9fc50b9c071e4590"}, {"lon": -77.0256845, "lat": 38.93869333333333, "name": "b24c3063b0655b364f99d1176a08cac6", "fusion_lat": 0.0, "fusion_lon": 0.0, "rental_uris": {"android": "https://dc.lft.to/lastmile_qr_scan", "ios": "https://dc.lft.to/lastmile_qr_scan"}, "is_reserved": 0, "is_disabled": 0, "type": "electric_scooter", "bike_id": "b24c3063b0655b364f99d1176a08cac6"}, {"lon": -76.99864583333333, "lat": 38.90025333333333, "name": "7cde6b5e017e7ad9e04f03f453d7bba5", "fusion_lat": 0.0, "fusion_lon": 0.0, "rental_uris": {"android": "https://dc.lft.to/lastmile_qr_scan", "ios": "https://dc.lft.to/lastmile_qr_scan"}, "is_reserved": 0, "is_disabled": 0, "type": "electric_scooter", "bike_id": "7cde6b5e017e7ad9e04f03f453d7bba5"}, {"lon": -77.041805, "lat": 38.919127833333334, "name": "f19f9bc50d735b20572138d1c8be2621", "fusion_lat": 0.0, "fusion_lon": 0.0, "rental_uris": {"android": "https://dc.lft.to/lastmile_qr_scan", "ios": "https://dc.lft.to/lastmile_qr_scan"}, "is_reserved": 0, "is_disabled": 0, "type": "electric_scooter", "bike_id": "f19f9bc50d735b20572138d1c8be2621"}, {"lon": -77.03790133333334, "lat": 38.926326833333334, "name": "03b6aad9257b0b81373f5f1dbd727185", "fusion_lat": 0.0, "fusion_lon": 0.0, "rental_uris": {"android": "https://dc.lft.to/lastmile_qr_scan", "ios": "https://dc.lft.to/lastmile_qr_scan"}, "is_reserved": 0, "is_disabled": 0, "type": "electric_scooter", "bike_id": "03b6aad9257b0b81373f5f1dbd727185"}, {"lon": -76.94879216666666, "lat": 38.889662, "name": "59ef96fbffc42b471c355e267c7c70f7", "fusion_lat": 0.0, "fusion_lon": 0.0, "rental_uris": {"android": "https://dc.lft.to/lastmile_qr_scan", "ios": "https://dc.lft.to/lastmile_qr_scan"}, "is_reserved": 0, "is_disabled": 0, "type": "electric_bike", "bike_id": "59ef96fbffc42b471c355e267c7c70f7"}, {"lon": -77.05521733333333, "lat": 38.89938433333333, "name": "4450fe699d1cbe1b153e8a05891879d7", "fusion_lat": 0.0, "fusion_lon": 0.0, "rental_uris": {"android": "https://dc.lft.to/lastmile_qr_scan", "ios": "https://dc.lft.to/lastmile_qr_scan"}, "is_reserved": 0, "is_disabled": 0, "type": "electric_scooter", "bike_id": "4450fe699d1cbe1b153e8a05891879d7"}, {"lon": -76.9817855, "lat": 38.9004545, "name": "be2bc259a03c8b3a546538eafed976fe", "fusion_lat": 0.0, "fusion_lon": 0.0, "rental_uris": {"android": "https://dc.lft.to/lastmile_qr_scan", "ios": "https://dc.lft.to/lastmile_qr_scan"}, "is_reserved": 0, "is_disabled": 0, "type": "electric_scooter", "bike_id": "be2bc259a03c8b3a546538eafed976fe"}, {"lon": -76.98778816666666, "lat": 38.900289666666666, "name": "2e6607dad5cb1e6083d3d06c665e0852", "fusion_lat": 0.0, "fusion_lon": 0.0, "rental_uris": {"android": "https://dc.lft.to/lastmile_qr_scan", "ios": "https://dc.lft.to/lastmile_qr_scan"}, "is_reserved": 0, "is_disabled": 0, "type": "electric_scooter", "bike_id": "2e6607dad5cb1e6083d3d06c665e0852"}, {"lon": -76.97748533333333, "lat": 38.900135, "name": "ea8506f34b94b65d4fceb1028efbb4d5", "fusion_lat": 0.0, "fusion_lon": 0.0, "rental_uris": {"android": "https://dc.lft.to/lastmile_qr_scan", "ios": "https://dc.lft.to/lastmile_qr_scan"}, "is_reserved": 0, "is_disabled": 0, "type": "electric_scooter", "bike_id": "ea8506f34b94b65d4fceb1028efbb4d5"}, {"lon": -76.98224316666666, "lat": 38.92518416666667, "name": "87cd740b5968e9c2d8e5726b43efe5e8", "fusion_lat": 0.0, "fusion_lon": 0.0, "rental_uris": {"android": "https://dc.lft.to/lastmile_qr_scan", "ios": "https://dc.lft.to/lastmile_qr_scan"}, "is_reserved": 0, "is_disabled": 0, "type": "electric_bike", "bike_id": "87cd740b5968e9c2d8e5726b43efe5e8"}, {"lon": -76.87824466666666, "lat": 38.99238166666667, "name": "bbf3c5c6077308006890737cf3e696ad", "fusion_lat": 0.0, "fusion_lon": 0.0, "rental_uris": {"android": "https://dc.lft.to/lastmile_qr_scan", "ios": "https://dc.lft.to/lastmile_qr_scan"}, "is_reserved": 0, "is_disabled": 0, "type": "electric_bike", "bike_id": "bbf3c5c6077308006890737cf3e696ad"}, {"lon": -77.02009616666666, "lat": 38.899289333333336, "name": "f3e107186a2d4cda22e84f8ddb54acab", "fusion_lat": 0.0, "fusion_lon": 0.0, "rental_uris": {"android": "https://dc.lft.to/lastmile_qr_scan", "ios": "https://dc.lft.to/lastmile_qr_scan"}, "is_reserved": 0, "is_disabled": 0, "type": "electric_scooter", "bike_id": "f3e107186a2d4cda22e84f8ddb54acab"}, {"lon": -77.01113983333333, "lat": 38.903587, "name": "88337ea1728b0f8487d4ac41418e8534", "fusion_lat": 0.0, "fusion_lon": 0.0, "rental_uris": {"android": "https://dc.lft.to/lastmile_qr_scan", "ios": "https://dc.lft.to/lastmile_qr_scan"}, "is_reserved": 0, "is_disabled": 0, "type": "electric_scooter", "bike_id": "88337ea1728b0f8487d4ac41418e8534"}, {"lon": -77.0483305, "lat": 38.91337383333333, "name": "1a06582d90263dd4fc7a1a7b02862eff", "fusion_lat": 0.0, "fusion_lon": 0.0, "rental_uris": {"android": "https://dc.lft.to/lastmile_qr_scan", "ios": "https://dc.lft.to/lastmile_qr_scan"}, "is_reserved": 0, "is_disabled": 0, "type": "electric_scooter", "bike_id": "1a06582d90263dd4fc7a1a7b02862eff"}, {"lon": -77.0496895, "lat": 38.901149333333336, "name": "af0f733a9db642a654e7c41aa940a5b1", "fusion_lat": 0.0, "fusion_lon": 0.0, "rental_uris": {"android": "https://dc.lft.to/lastmile_qr_scan", "ios": "https://dc.lft.to/lastmile_qr_scan"}, "is_reserved": 0, "is_disabled": 0, "type": "electric_scooter", "bike_id": "af0f733a9db642a654e7c41aa940a5b1"}, {"lon": -77.09758383333333, "lat": 38.8585465, "name": "34933b7122a0e8dc808c505665426a85", "fusion_lat": 0.0, "fusion_lon": 0.0, "rental_uris": {"android": "https://dc.lft.to/lastmile_qr_scan", "ios": "https://dc.lft.to/lastmile_qr_scan"}, "is_reserved": 0, "is_disabled": 0, "type": "electric_bike", "bike_id": "34933b7122a0e8dc808c505665426a85"}, {"lon": -76.996176, "lat": 38.90029766666667, "name": "bc8df2ff6c8e1661fcf737f6b75d3867", "fusion_lat": 0.0, "fusion_lon": 0.0, "rental_uris": {"android": "https://dc.lft.to/lastmile_qr_scan", "ios": "https://dc.lft.to/lastmile_qr_scan"}, "is_reserved": 0, "is_disabled": 0, "type": "electric_scooter", "bike_id": "bc8df2ff6c8e1661fcf737f6b75d3867"}, {"lon": -77.031959, "lat": 38.915154666666666, "name": "9c0431f135e09174132685c2c201cb46", "fusion_lat": 0.0, "fusion_lon": 0.0, "rental_uris": {"android": "https://dc.lft.to/lastmile_qr_scan", "ios": "https://dc.lft.to/lastmile_qr_scan"}, "is_reserved": 0, "is_disabled": 0, "type": "electric_scooter", "bike_id": "9c0431f135e09174132685c2c201cb46"}, {"lon": -77.02709516666667, "lat": 38.906812, "name": "f0e1ec3b2e97fef6ce35ba66de8f61a0", "fusion_lat": 0.0, "fusion_lon": 0.0, "rental_uris": {"android": "https://dc.lft.to/lastmile_qr_scan", "ios": "https://dc.lft.to/lastmile_qr_scan"}, "is_reserved": 0, "is_disabled": 0, "type": "electric_scooter", "bike_id": "f0e1ec3b2e97fef6ce35ba66de8f61a0"}, {"lon": -76.9484055, "lat": 38.8948775, "name": "0cbf4d9db125707acfef9e9ff7e8e9f0", "fusion_lat": 0.0, "fusion_lon": 0.0, "rental_uris": {"android": "https://dc.lft.to/lastmile_qr_scan", "ios": "https://dc.lft.to/lastmile_qr_scan"}, "is_reserved": 0, "is_disabled": 0, "type": "electric_scooter", "bike_id": "0cbf4d9db125707acfef9e9ff7e8e9f0"}, {"lon": -77.01290866666666, "lat": 39.003825, "name": "6106cbf94e88b339c0cb0fc2231c7015", "fusion_lat": 0.0, "fusion_lon": 0.0, "rental_uris": {"android": "https://dc.lft.to/lastmile_qr_scan", "ios": "https://dc.lft.to/lastmile_qr_scan"}, "is_reserved": 0, "is_disabled": 0, "type": "electric_bike", "bike_id": "6106cbf94e88b339c0cb0fc2231c7015"}, {"lon": -77.03347933333333, "lat": 38.908452, "name": "03e1bb9487ec46b8a97ed656597c74dc", "fusion_lat": 0.0, "fusion_lon": 0.0, "rental_uris": {"android": "https://dc.lft.to/lastmile_qr_scan", "ios": "https://dc.lft.to/lastmile_qr_scan"}, "is_reserved": 0, "is_disabled": 0, "type": "electric_scooter", "bike_id": "03e1bb9487ec46b8a97ed656597c74dc"}, {"lon": -77.02550683333334, "lat": 38.8922855, "name": "f3deca4d45377b189c2631c18a2cdace", "fusion_lat": 0.0, "fusion_lon": 0.0, "rental_uris": {"android": "https://dc.lft.to/lastmile_qr_scan", "ios": "https://dc.lft.to/lastmile_qr_scan"}, "is_reserved": 0, "is_disabled": 0, "type": "electric_scooter", "bike_id": "f3deca4d45377b189c2631c18a2cdace"}, {"lon": -77.024039, "lat": 38.887401833333335, "name": "bf9de67248f0f47560727b6be393b5aa", "fusion_lat": 0.0, "fusion_lon": 0.0, "rental_uris": {"android": "https://dc.lft.to/lastmile_qr_scan", "ios": "https://dc.lft.to/lastmile_qr_scan"}, "is_reserved": 0, "is_disabled": 0, "type": "electric_scooter", "bike_id": "bf9de67248f0f47560727b6be393b5aa"}, {"lon": -77.04395016666666, "lat": 38.922862333333335, "name": "827686b922299a47b44b736f87a5c644", "fusion_lat": 0.0, "fusion_lon": 0.0, "rental_uris": {"android": "https://dc.lft.to/lastmile_qr_scan", "ios": "https://dc.lft.to/lastmile_qr_scan"}, "is_reserved": 0, "is_disabled": 0, "type": "electric_scooter", "bike_id": "827686b922299a47b44b736f87a5c644"}, {"lon": -77.01820166666667, "lat": 38.9081285, "name": "1c7fc8f452270884ac72903fa0e26f0b", "fusion_lat": 0.0, "fusion_lon": 0.0, "rental_uris": {"android": "https://dc.lft.to/lastmile_qr_scan", "ios": "https://dc.lft.to/lastmile_qr_scan"}, "is_reserved": 0, "is_disabled": 0, "type": "electric_scooter", "bike_id": "1c7fc8f452270884ac72903fa0e26f0b"}, {"lon": -76.9650575, "lat": 38.876508, "name": "a4410e06dfc89f3da2d9e82faafee5d1", "fusion_lat": 0.0, "fusion_lon": 0.0, "rental_uris": {"android": "https://dc.lft.to/lastmile_qr_scan", "ios": "https://dc.lft.to/lastmile_qr_scan"}, "is_reserved": 0, "is_disabled": 0, "type": "electric_scooter", "bike_id": "a4410e06dfc89f3da2d9e82faafee5d1"}, {"lon": -77.02354983333333, "lat": 38.90871283333333, "name": "f9b8e2dd9893f96e2e48372a0a92284b", "fusion_lat": 0.0, "fusion_lon": 0.0, "rental_uris": {"android": "https://dc.lft.to/lastmile_qr_scan", "ios": "https://dc.lft.to/lastmile_qr_scan"}, "is_reserved": 0, "is_disabled": 0, "type": "electric_scooter", "bike_id": "f9b8e2dd9893f96e2e48372a0a92284b"}, {"lon": -77.01071766666666, "lat": 38.8711035, "name": "abb5d3afc8e319ba1a34e05bae72ed6c", "fusion_lat": 0.0, "fusion_lon": 0.0, "rental_uris": {"android": "https://dc.lft.to/lastmile_qr_scan", "ios": "https://dc.lft.to/lastmile_qr_scan"}, "is_reserved": 0, "is_disabled": 0, "type": "electric_scooter", "bike_id": "abb5d3afc8e319ba1a34e05bae72ed6c"}, {"lon": -77.03215633333333, "lat": 38.91486583333333, "name": "2e4fb2db7b3a48a4d7f5a15aff08aebb", "fusion_lat": 0.0, "fusion_lon": 0.0, "rental_uris": {"android": "https://dc.lft.to/lastmile_qr_scan", "ios": "https://dc.lft.to/lastmile_qr_scan"}, "is_reserved": 0, "is_disabled": 0, "type": "electric_scooter", "bike_id": "2e4fb2db7b3a48a4d7f5a15aff08aebb"}, {"lon": -77.10927983333333, "lat": 39.05190183333333, "name": "59dcb83625b0064e3e4e08a72d351663", "fusion_lat": 0.0, "fusion_lon": 0.0, "rental_uris": {"android": "https://dc.lft.to/lastmile_qr_scan", "ios": "https://dc.lft.to/lastmile_qr_scan"}, "is_reserved": 0, "is_disabled": 0, "type": "electric_bike", "bike_id": "59dcb83625b0064e3e4e08a72d351663"}, {"lon": -77.005638, "lat": 38.905619, "name": "f91ad7d534051f0f533076108a1494c6", "fusion_lat": 0.0, "fusion_lon": 0.0, "rental_uris": {"android": "https://dc.lft.to/lastmile_qr_scan", "ios": "https://dc.lft.to/lastmile_qr_scan"}, "is_reserved": 0, "is_disabled": 0, "type": "electric_scooter", "bike_id": "f91ad7d534051f0f533076108a1494c6"}, {"lon": -76.99034133333333, "lat": 38.85870516666667, "name": "a34678f02e67b51b7c69a5cca9a90b11", "fusion_lat": 0.0, "fusion_lon": 0.0, "rental_uris": {"android": "https://dc.lft.to/lastmile_qr_scan", "ios": "https://dc.lft.to/lastmile_qr_scan"}, "is_reserved": 0, "is_disabled": 0, "type": "electric_scooter", "bike_id": "a34678f02e67b51b7c69a5cca9a90b11"}, {"lon": -77.02758616666667, "lat": 38.942940666666665, "name": "eff3aa6ccbb992ccec968cb061e1c4d0", "fusion_lat": 0.0, "fusion_lon": 0.0, "rental_uris": {"android": "https://dc.lft.to/lastmile_qr_scan", "ios": "https://dc.lft.to/lastmile_qr_scan"}, "is_reserved": 0, "is_disabled": 0, "type": "electric_scooter", "bike_id": "eff3aa6ccbb992ccec968cb061e1c4d0"}, {"lon": -77.1050135, "lat": 38.928460333333334, "name": "810c4c63cf402efeb7db0a8974e734af", "fusion_lat": 0.0, "fusion_lon": 0.0, "rental_uris": {"android": "https://dc.lft.to/lastmile_qr_scan", "ios": "https://dc.lft.to/lastmile_qr_scan"}, "is_reserved": 0, "is_disabled": 0, "type": "electric_bike", "bike_id": "810c4c63cf402efeb7db0a8974e734af"}, {"lon": -77.04517333333334, "lat": 38.9079425, "name": "753b4cdef857cf97d9723f2aaf0273b7", "fusion_lat": 0.0, "fusion_lon": 0.0, "rental_uris": {"android": "https://dc.lft.to/lastmile_qr_scan", "ios": "https://dc.lft.to/lastmile_qr_scan"}, "is_reserved": 0, "is_disabled": 0, "type": "electric_scooter", "bike_id": "753b4cdef857cf97d9723f2aaf0273b7"}, {"lon": -77.089325, "lat": 38.84097416666667, "name": "40b3048c4f33c1f32bf62ab6f301f36a", "fusion_lat": 0.0, "fusion_lon": 0.0, "rental_uris": {"android": "https://dc.lft.to/lastmile_qr_scan", "ios": "https://dc.lft.to/lastmile_qr_scan"}, "is_reserved": 0, "is_disabled": 0, "type": "electric_bike", "bike_id": "40b3048c4f33c1f32bf62ab6f301f36a"}, {"lon": -77.030719, "lat": 38.9003215, "name": "94c90e3a4a35ecdeb633d7e28e774040", "fusion_lat": 0.0, "fusion_lon": 0.0, "rental_uris": {"android": "https://dc.lft.to/lastmile_qr_scan", "ios": "https://dc.lft.to/lastmile_qr_scan"}, "is_reserved": 0, "is_disabled": 0, "type": "electric_scooter", "bike_id": "94c90e3a4a35ecdeb633d7e28e774040"}, {"lon": -77.02158316666667, "lat": 38.928318833333336, "name": "770d326ae59bae68ee0a30aa9ec40671", "fusion_lat": 0.0, "fusion_lon": 0.0, "rental_uris": {"android": "https://dc.lft.to/lastmile_qr_scan", "ios": "https://dc.lft.to/lastmile_qr_scan"}, "is_reserved": 0, "is_disabled": 0, "type": "electric_scooter", "bike_id": "770d326ae59bae68ee0a30aa9ec40671"}, {"lon": -76.98407766666666, "lat": 38.85981533333333, "name": "505e31876cec27cadd6efe0ed743a4bd", "fusion_lat": 0.0, "fusion_lon": 0.0, "rental_uris": {"android": "https://dc.lft.to/lastmile_qr_scan", "ios": "https://dc.lft.to/lastmile_qr_scan"}, "is_reserved": 0, "is_disabled": 0, "type": "electric_scooter", "bike_id": "505e31876cec27cadd6efe0ed743a4bd"}, {"lon": -77.05520483333333, "lat": 38.899384833333336, "name": "597549ad2c0b0295d0d9256983879c9a", "fusion_lat": 0.0, "fusion_lon": 0.0, "rental_uris": {"android": "https://dc.lft.to/lastmile_qr_scan", "ios": "https://dc.lft.to/lastmile_qr_scan"}, "is_reserved": 0, "is_disabled": 0, "type": "electric_scooter", "bike_id": "597549ad2c0b0295d0d9256983879c9a"}, {"lon": -76.99611333333333, "lat": 38.888697666666665, "name": "0217be7fb1ea00e70e0af59ce5016f47", "fusion_lat": 0.0, "fusion_lon": 0.0, "rental_uris": {"android": "https://dc.lft.to/lastmile_qr_scan", "ios": "https://dc.lft.to/lastmile_qr_scan"}, "is_reserved": 0, "is_disabled": 0, "type": "electric_scooter", "bike_id": "0217be7fb1ea00e70e0af59ce5016f47"}, {"lon": -77.03049133333333, "lat": 38.907870833333334, "name": "3047d04fcdaf10bcffb071951c4ca600", "fusion_lat": 0.0, "fusion_lon": 0.0, "rental_uris": {"android": "https://dc.lft.to/lastmile_qr_scan", "ios": "https://dc.lft.to/lastmile_qr_scan"}, "is_reserved": 0, "is_disabled": 0, "type": "electric_scooter", "bike_id": "3047d04fcdaf10bcffb071951c4ca600"}, {"lon": -77.03827416666667, "lat": 38.9126775, "name": "5b93fb68d0f10fbdd0d4f9b57afa7a6e", "fusion_lat": 0.0, "fusion_lon": 0.0, "rental_uris": {"android": "https://dc.lft.to/lastmile_qr_scan", "ios": "https://dc.lft.to/lastmile_qr_scan"}, "is_reserved": 0, "is_disabled": 0, "type": "electric_scooter", "bike_id": "5b93fb68d0f10fbdd0d4f9b57afa7a6e"}, {"lon": -77.0694395, "lat": 38.99038566666667, "name": "d2024d71079885270e9b6ebf4782af0f", "fusion_lat": 0.0, "fusion_lon": 0.0, "rental_uris": {"android": "https://dc.lft.to/lastmile_qr_scan", "ios": "https://dc.lft.to/lastmile_qr_scan"}, "is_reserved": 0, "is_disabled": 0, "type": "electric_bike", "bike_id": "d2024d71079885270e9b6ebf4782af0f"}, {"lon": -77.00530433333333, "lat": 38.87467916666667, "name": "0fdfeec6b84370b385c3e274be16e07e", "fusion_lat": 0.0, "fusion_lon": 0.0, "rental_uris": {"android": "https://dc.lft.to/lastmile_qr_scan", "ios": "https://dc.lft.to/lastmile_qr_scan"}, "is_reserved": 0, "is_disabled": 0, "type": "electric_scooter", "bike_id": "0fdfeec6b84370b385c3e274be16e07e"}, {"lon": -77.0251605, "lat": 38.926497, "name": "95cde1d35c070f847bf60415bc87e847", "fusion_lat": 0.0, "fusion_lon": 0.0, "rental_uris": {"android": "https://dc.lft.to/lastmile_qr_scan", "ios": "https://dc.lft.to/lastmile_qr_scan"}, "is_reserved": 0, "is_disabled": 0, "type": "electric_scooter", "bike_id": "95cde1d35c070f847bf60415bc87e847"}, {"lon": -76.98612833333334, "lat": 38.906265166666664, "name": "7b5510320934afe14d3c74e1f7a335e7", "fusion_lat": 0.0, "fusion_lon": 0.0, "rental_uris": {"android": "https://dc.lft.to/lastmile_qr_scan", "ios": "https://dc.lft.to/lastmile_qr_scan"}, "is_reserved": 0, "is_disabled": 0, "type": "electric_bike", "bike_id": "7b5510320934afe14d3c74e1f7a335e7"}, {"lon": -77.0330295, "lat": 38.918148333333335, "name": "b55a27aece52cd85d6267402c7e80bd3", "fusion_lat": 0.0, "fusion_lon": 0.0, "rental_uris": {"android": "https://dc.lft.to/lastmile_qr_scan", "ios": "https://dc.lft.to/lastmile_qr_scan"}, "is_reserved": 0, "is_disabled": 0, "type": "electric_scooter", "bike_id": "b55a27aece52cd85d6267402c7e80bd3"}, {"lon": -76.9376935, "lat": 38.899789, "name": "eee580324de6fbe75ef79ec16ad5accc", "fusion_lat": 0.0, "fusion_lon": 0.0, "rental_uris": {"android": "https://dc.lft.to/lastmile_qr_scan", "ios": "https://dc.lft.to/lastmile_qr_scan"}, "is_reserved": 0, "is_disabled": 0, "type": "electric_scooter", "bike_id": "eee580324de6fbe75ef79ec16ad5accc"}, {"lon": -77.029509, "lat": 38.90499066666667, "name": "6ae44da866080bc398ef6ab42ecaedf4", "fusion_lat": 0.0, "fusion_lon": 0.0, "rental_uris": {"android": "https://dc.lft.to/lastmile_qr_scan", "ios": "https://dc.lft.to/lastmile_qr_scan"}, "is_reserved": 0, "is_disabled": 0, "type": "electric_scooter", "bike_id": "6ae44da866080bc398ef6ab42ecaedf4"}, {"lon": -76.990163, "lat": 38.901538333333335, "name": "1efe76d25478426b7fc9c45f6fb3e1b9", "fusion_lat": 0.0, "fusion_lon": 0.0, "rental_uris": {"android": "https://dc.lft.to/lastmile_qr_scan", "ios": "https://dc.lft.to/lastmile_qr_scan"}, "is_reserved": 0, "is_disabled": 0, "type": "electric_scooter", "bike_id": "1efe76d25478426b7fc9c45f6fb3e1b9"}, {"lon": -77.025954, "lat": 38.904205, "name": "464fe868bd68c890d5a2f891704bb83f", "fusion_lat": 0.0, "fusion_lon": 0.0, "rental_uris": {"android": "https://dc.lft.to/lastmile_qr_scan", "ios": "https://dc.lft.to/lastmile_qr_scan"}, "is_reserved": 0, "is_disabled": 0, "type": "electric_scooter", "bike_id": "464fe868bd68c890d5a2f891704bb83f"}, {"lon": -77.04724366666666, "lat": 38.9109675, "name": "1abe4e8b25dba41ff05c700be273c33b", "fusion_lat": 0.0, "fusion_lon": 0.0, "rental_uris": {"android": "https://dc.lft.to/lastmile_qr_scan", "ios": "https://dc.lft.to/lastmile_qr_scan"}, "is_reserved": 0, "is_disabled": 0, "type": "electric_scooter", "bike_id": "1abe4e8b25dba41ff05c700be273c33b"}, {"lon": -76.93350416666667, "lat": 38.89896916666667, "name": "9f4407a5d4d9b630305d86845699bb87", "fusion_lat": 0.0, "fusion_lon": 0.0, "rental_uris": {"android": "https://dc.lft.to/lastmile_qr_scan", "ios": "https://dc.lft.to/lastmile_qr_scan"}, "is_reserved": 0, "is_disabled": 0, "type": "electric_scooter", "bike_id": "9f4407a5d4d9b630305d86845699bb87"}, {"lon": -77.02546366666667, "lat": 38.89223116666667, "name": "411b85df7f6c7cb9c3fcfc9dd38063c6", "fusion_lat": 0.0, "fusion_lon": 0.0, "rental_uris": {"android": "https://dc.lft.to/lastmile_qr_scan", "ios": "https://dc.lft.to/lastmile_qr_scan"}, "is_reserved": 0, "is_disabled": 0, "type": "electric_scooter", "bike_id": "411b85df7f6c7cb9c3fcfc9dd38063c6"}, {"lon": -76.995391, "lat": 38.90032583333333, "name": "3a14c37fdf73743619c93d32d30c03f7", "fusion_lat": 0.0, "fusion_lon": 0.0, "rental_uris": {"android": "https://dc.lft.to/lastmile_qr_scan", "ios": "https://dc.lft.to/lastmile_qr_scan"}, "is_reserved": 0, "is_disabled": 0, "type": "electric_scooter", "bike_id": "3a14c37fdf73743619c93d32d30c03f7"}, {"lon": -77.0319475, "lat": 38.90786116666666, "name": "35d86a59bd8eec242a1e0addaa0d451e", "fusion_lat": 0.0, "fusion_lon": 0.0, "rental_uris": {"android": "https://dc.lft.to/lastmile_qr_scan", "ios": "https://dc.lft.to/lastmile_qr_scan"}, "is_reserved": 0, "is_disabled": 0, "type": "electric_scooter", "bike_id": "35d86a59bd8eec242a1e0addaa0d451e"}, {"lon": -76.99185233333333, "lat": 38.9050955, "name": "cce4088362c6adf77549a5f3cfb94998", "fusion_lat": 0.0, "fusion_lon": 0.0, "rental_uris": {"android": "https://dc.lft.to/lastmile_qr_scan", "ios": "https://dc.lft.to/lastmile_qr_scan"}, "is_reserved": 0, "is_disabled": 0, "type": "electric_scooter", "bike_id": "cce4088362c6adf77549a5f3cfb94998"}, {"lon": -77.02773716666667, "lat": 38.894778333333335, "name": "972870c95d7bf2fa3ca64d58cb11c0a2", "fusion_lat": 0.0, "fusion_lon": 0.0, "rental_uris": {"android": "https://dc.lft.to/lastmile_qr_scan", "ios": "https://dc.lft.to/lastmile_qr_scan"}, "is_reserved": 0, "is_disabled": 0, "type": "electric_scooter", "bike_id": "972870c95d7bf2fa3ca64d58cb11c0a2"}, {"lon": -76.9902215, "lat": 38.858696333333334, "name": "0baa814fa02cc2f5557d08e53890e0db", "fusion_lat": 0.0, "fusion_lon": 0.0, "rental_uris": {"android": "https://dc.lft.to/lastmile_qr_scan", "ios": "https://dc.lft.to/lastmile_qr_scan"}, "is_reserved": 0, "is_disabled": 0, "type": "electric_scooter", "bike_id": "0baa814fa02cc2f5557d08e53890e0db"}, {"lon": -77.04318083333334, "lat": 38.90314683333333, "name": "46fa4a5b65326d9ba0db72be7223ce93", "fusion_lat": 0.0, "fusion_lon": 0.0, "rental_uris": {"android": "https://dc.lft.to/lastmile_qr_scan", "ios": "https://dc.lft.to/lastmile_qr_scan"}, "is_reserved": 0, "is_disabled": 0, "type": "electric_scooter", "bike_id": "46fa4a5b65326d9ba0db72be7223ce93"}, {"lon": -77.02586433333333, "lat": 38.90426733333334, "name": "9f6583fdd79fe3c6110bf5feb9a9381b", "fusion_lat": 0.0, "fusion_lon": 0.0, "rental_uris": {"android": "https://dc.lft.to/lastmile_qr_scan", "ios": "https://dc.lft.to/lastmile_qr_scan"}, "is_reserved": 0, "is_disabled": 0, "type": "electric_scooter", "bike_id": "9f6583fdd79fe3c6110bf5feb9a9381b"}, {"lon": -77.03169483333333, "lat": 38.905347166666665, "name": "a3fd2f27582e7125ff83e5035a712fdf", "fusion_lat": 0.0, "fusion_lon": 0.0, "rental_uris": {"android": "https://dc.lft.to/lastmile_qr_scan", "ios": "https://dc.lft.to/lastmile_qr_scan"}, "is_reserved": 0, "is_disabled": 0, "type": "electric_scooter", "bike_id": "a3fd2f27582e7125ff83e5035a712fdf"}, {"lon": -77.04849416666667, "lat": 38.9196085, "name": "94c635458a7c283b77c6edbf4a71ab7d", "fusion_lat": 0.0, "fusion_lon": 0.0, "rental_uris": {"android": "https://dc.lft.to/lastmile_qr_scan", "ios": "https://dc.lft.to/lastmile_qr_scan"}, "is_reserved": 0, "is_disabled": 0, "type": "electric_scooter", "bike_id": "94c635458a7c283b77c6edbf4a71ab7d"}, {"lon": -77.00285883333333, "lat": 38.91480333333333, "name": "fabd28a8410e550170e25d8832f3a8e9", "fusion_lat": 0.0, "fusion_lon": 0.0, "rental_uris": {"android": "https://dc.lft.to/lastmile_qr_scan", "ios": "https://dc.lft.to/lastmile_qr_scan"}, "is_reserved": 0, "is_disabled": 0, "type": "electric_scooter", "bike_id": "fabd28a8410e550170e25d8832f3a8e9"}, {"lon": -77.06425833333333, "lat": 38.843369, "name": "4afacbefade2992828f8ec3f172f24d8", "fusion_lat": 0.0, "fusion_lon": 0.0, "rental_uris": {"android": "https://dc.lft.to/lastmile_qr_scan", "ios": "https://dc.lft.to/lastmile_qr_scan"}, "is_reserved": 0, "is_disabled": 0, "type": "electric_bike", "bike_id": "4afacbefade2992828f8ec3f172f24d8"}, {"lon": -76.9485495, "lat": 38.88305316666667, "name": "db578e7853364014799d1f54b26cac85", "fusion_lat": 0.0, "fusion_lon": 0.0, "rental_uris": {"android": "https://dc.lft.to/lastmile_qr_scan", "ios": "https://dc.lft.to/lastmile_qr_scan"}, "is_reserved": 0, "is_disabled": 0, "type": "electric_scooter", "bike_id": "db578e7853364014799d1f54b26cac85"}, {"lon": -77.03626216666666, "lat": 38.929199833333335, "name": "84b98b93d7b1ac6e8d6a279e4ebd449c", "fusion_lat": 0.0, "fusion_lon": 0.0, "rental_uris": {"android": "https://dc.lft.to/lastmile_qr_scan", "ios": "https://dc.lft.to/lastmile_qr_scan"}, "is_reserved": 0, "is_disabled": 0, "type": "electric_scooter", "bike_id": "84b98b93d7b1ac6e8d6a279e4ebd449c"}, {"lon": -77.0263, "lat": 38.892217333333335, "name": "dc40a8941b4e7feadc16d1f1b8ae6c45", "fusion_lat": 0.0, "fusion_lon": 0.0, "rental_uris": {"android": "https://dc.lft.to/lastmile_qr_scan", "ios": "https://dc.lft.to/lastmile_qr_scan"}, "is_reserved": 0, "is_disabled": 0, "type": "electric_scooter", "bike_id": "dc40a8941b4e7feadc16d1f1b8ae6c45"}, {"lon": -77.03663466666667, "lat": 38.9117685, "name": "b7d34bce2a712afe9b6fa33f6bbea1ab", "fusion_lat": 0.0, "fusion_lon": 0.0, "rental_uris": {"android": "https://dc.lft.to/lastmile_qr_scan", "ios": "https://dc.lft.to/lastmile_qr_scan"}, "is_reserved": 0, "is_disabled": 0, "type": "electric_scooter", "bike_id": "b7d34bce2a712afe9b6fa33f6bbea1ab"}, {"lon": -77.03482466666667, "lat": 38.928794833333335, "name": "ba3ada361b43238ef5c9f5354cfa729b", "fusion_lat": 0.0, "fusion_lon": 0.0, "rental_uris": {"android": "https://dc.lft.to/lastmile_qr_scan", "ios": "https://dc.lft.to/lastmile_qr_scan"}, "is_reserved": 0, "is_disabled": 0, "type": "electric_scooter", "bike_id": "ba3ada361b43238ef5c9f5354cfa729b"}, {"lon": -77.02376083333333, "lat": 38.902017666666666, "name": "7123665f4f86e1a5d1c9ef91b914df86", "fusion_lat": 0.0, "fusion_lon": 0.0, "rental_uris": {"android": "https://dc.lft.to/lastmile_qr_scan", "ios": "https://dc.lft.to/lastmile_qr_scan"}, "is_reserved": 0, "is_disabled": 0, "type": "electric_scooter", "bike_id": "7123665f4f86e1a5d1c9ef91b914df86"}, {"lon": -77.01444783333334, "lat": 38.87781316666667, "name": "80f5ff332bcfe16841bc1bb8c80c13a2", "fusion_lat": 0.0, "fusion_lon": 0.0, "rental_uris": {"android": "https://dc.lft.to/lastmile_qr_scan", "ios": "https://dc.lft.to/lastmile_qr_scan"}, "is_reserved": 0, "is_disabled": 0, "type": "electric_scooter", "bike_id": "80f5ff332bcfe16841bc1bb8c80c13a2"}, {"lon": -77.1359495, "lat": 39.053482333333335, "name": "d9578ea71f628c9fffff2f02b665aec3", "fusion_lat": 0.0, "fusion_lon": 0.0, "rental_uris": {"android": "https://dc.lft.to/lastmile_qr_scan", "ios": "https://dc.lft.to/lastmile_qr_scan"}, "is_reserved": 0, "is_disabled": 0, "type": "electric_bike", "bike_id": "d9578ea71f628c9fffff2f02b665aec3"}, {"lon": -76.98758, "lat": 38.8450165, "name": "7c57b0df54298f47b72a4fdb625f8144", "fusion_lat": 0.0, "fusion_lon": 0.0, "rental_uris": {"android": "https://dc.lft.to/lastmile_qr_scan", "ios": "https://dc.lft.to/lastmile_qr_scan"}, "is_reserved": 0, "is_disabled": 0, "type": "electric_scooter", "bike_id": "7c57b0df54298f47b72a4fdb625f8144"}, {"lon": -77.03940583333333, "lat": 38.90823916666667, "name": "570bed7d96a9bc34741714c565f119c1", "fusion_lat": 0.0, "fusion_lon": 0.0, "rental_uris": {"android": "https://dc.lft.to/lastmile_qr_scan", "ios": "https://dc.lft.to/lastmile_qr_scan"}, "is_reserved": 0, "is_disabled": 0, "type": "electric_scooter", "bike_id": "570bed7d96a9bc34741714c565f119c1"}, {"lon": -76.9466435, "lat": 38.898695833333335, "name": "4982a4e0a1e1aed6b8f005e25b30f40e", "fusion_lat": 0.0, "fusion_lon": 0.0, "rental_uris": {"android": "https://dc.lft.to/lastmile_qr_scan", "ios": "https://dc.lft.to/lastmile_qr_scan"}, "is_reserved": 0, "is_disabled": 0, "type": "electric_scooter", "bike_id": "4982a4e0a1e1aed6b8f005e25b30f40e"}, {"lon": -77.02793333333334, "lat": 38.93083433333334, "name": "47bdc59c4155366d9110e5739de7a891", "fusion_lat": 0.0, "fusion_lon": 0.0, "rental_uris": {"android": "https://dc.lft.to/lastmile_qr_scan", "ios": "https://dc.lft.to/lastmile_qr_scan"}, "is_reserved": 0, "is_disabled": 0, "type": "electric_scooter", "bike_id": "47bdc59c4155366d9110e5739de7a891"}, {"lon": -77.022127, "lat": 38.905739, "name": "09eb932b5653ff005ef6af1f656e22d7", "fusion_lat": 0.0, "fusion_lon": 0.0, "rental_uris": {"android": "https://dc.lft.to/lastmile_qr_scan", "ios": "https://dc.lft.to/lastmile_qr_scan"}, "is_reserved": 0, "is_disabled": 0, "type": "electric_scooter", "bike_id": "09eb932b5653ff005ef6af1f656e22d7"}, {"lon": -77.0019655, "lat": 38.9142765, "name": "a33d0ceab2aec30ac30b2bf51512a29a", "fusion_lat": 0.0, "fusion_lon": 0.0, "rental_uris": {"android": "https://dc.lft.to/lastmile_qr_scan", "ios": "https://dc.lft.to/lastmile_qr_scan"}, "is_reserved": 0, "is_disabled": 0, "type": "electric_scooter", "bike_id": "a33d0ceab2aec30ac30b2bf51512a29a"}, {"lon": -77.04743416666666, "lat": 38.91261, "name": "d7442a43da356a1b87610c275284324e", "fusion_lat": 0.0, "fusion_lon": 0.0, "rental_uris": {"android": "https://dc.lft.to/lastmile_qr_scan", "ios": "https://dc.lft.to/lastmile_qr_scan"}, "is_reserved": 0, "is_disabled": 0, "type": "electric_scooter", "bike_id": "d7442a43da356a1b87610c275284324e"}, {"lon": -77.04694033333334, "lat": 38.92135, "name": "e093136744aab3bf2056fd02e9ee21eb", "fusion_lat": 0.0, "fusion_lon": 0.0, "rental_uris": {"android": "https://dc.lft.to/lastmile_qr_scan", "ios": "https://dc.lft.to/lastmile_qr_scan"}, "is_reserved": 0, "is_disabled": 0, "type": "electric_scooter", "bike_id": "e093136744aab3bf2056fd02e9ee21eb"}, {"lon": -77.02379733333333, "lat": 38.9021595, "name": "9be5c0909a857074943f91d33a058565", "fusion_lat": 0.0, "fusion_lon": 0.0, "rental_uris": {"android": "https://dc.lft.to/lastmile_qr_scan", "ios": "https://dc.lft.to/lastmile_qr_scan"}, "is_reserved": 0, "is_disabled": 0, "type": "electric_scooter", "bike_id": "9be5c0909a857074943f91d33a058565"}, {"lon": -77.03845416666667, "lat": 38.9182865, "name": "b70a42892e9ee16e3cfe34a38c539213", "fusion_lat": 0.0, "fusion_lon": 0.0, "rental_uris": {"android": "https://dc.lft.to/lastmile_qr_scan", "ios": "https://dc.lft.to/lastmile_qr_scan"}, "is_reserved": 0, "is_disabled": 0, "type": "electric_scooter", "bike_id": "b70a42892e9ee16e3cfe34a38c539213"}, {"lon": -76.957603, "lat": 38.88437716666667, "name": "e2224dc760f0020dfad38bd542a1e0ee", "fusion_lat": 0.0, "fusion_lon": 0.0, "rental_uris": {"android": "https://dc.lft.to/lastmile_qr_scan", "ios": "https://dc.lft.to/lastmile_qr_scan"}, "is_reserved": 0, "is_disabled": 0, "type": "electric_scooter", "bike_id": "e2224dc760f0020dfad38bd542a1e0ee"}, {"lon": -77.03314566666667, "lat": 38.901467833333335, "name": "262d8fda0c4129dd44b1cc836834bdfa", "fusion_lat": 0.0, "fusion_lon": 0.0, "rental_uris": {"android": "https://dc.lft.to/lastmile_qr_scan", "ios": "https://dc.lft.to/lastmile_qr_scan"}, "is_reserved": 0, "is_disabled": 0, "type": "electric_scooter", "bike_id": "262d8fda0c4129dd44b1cc836834bdfa"}, {"lon": -77.04317266666666, "lat": 38.926191333333335, "name": "0e7ea1e11a1ee769d476dcea466344d3", "fusion_lat": 0.0, "fusion_lon": 0.0, "rental_uris": {"android": "https://dc.lft.to/lastmile_qr_scan", "ios": "https://dc.lft.to/lastmile_qr_scan"}, "is_reserved": 0, "is_disabled": 0, "type": "electric_scooter", "bike_id": "0e7ea1e11a1ee769d476dcea466344d3"}, {"lon": -76.93017633333334, "lat": 38.9008245, "name": "41da106a127f04f5e5b9e03d2ff04511", "fusion_lat": 0.0, "fusion_lon": 0.0, "rental_uris": {"android": "https://dc.lft.to/lastmile_qr_scan", "ios": "https://dc.lft.to/lastmile_qr_scan"}, "is_reserved": 0, "is_disabled": 0, "type": "electric_scooter", "bike_id": "41da106a127f04f5e5b9e03d2ff04511"}, {"lon": -77.0395275, "lat": 38.902666333333336, "name": "c1cb47a6e46895fcf9cb5ca3d7d1dbc1", "fusion_lat": 0.0, "fusion_lon": 0.0, "rental_uris": {"android": "https://dc.lft.to/lastmile_qr_scan", "ios": "https://dc.lft.to/lastmile_qr_scan"}, "is_reserved": 0, "is_disabled": 0, "type": "electric_scooter", "bike_id": "c1cb47a6e46895fcf9cb5ca3d7d1dbc1"}, {"lon": -77.03011216666667, "lat": 38.914220666666665, "name": "bfb60fcc5794293f2d95c2d1d705c7c6", "fusion_lat": 0.0, "fusion_lon": 0.0, "rental_uris": {"android": "https://dc.lft.to/lastmile_qr_scan", "ios": "https://dc.lft.to/lastmile_qr_scan"}, "is_reserved": 0, "is_disabled": 0, "type": "electric_scooter", "bike_id": "bfb60fcc5794293f2d95c2d1d705c7c6"}, {"lon": -77.03266683333334, "lat": 38.93826983333334, "name": "7511b3ed1eee176822de41449a4fa15b", "fusion_lat": 0.0, "fusion_lon": 0.0, "rental_uris": {"android": "https://dc.lft.to/lastmile_qr_scan", "ios": "https://dc.lft.to/lastmile_qr_scan"}, "is_reserved": 0, "is_disabled": 0, "type": "electric_scooter", "bike_id": "7511b3ed1eee176822de41449a4fa15b"}, {"lon": -77.032452, "lat": 38.9156265, "name": "9922a275c3e946d6d12f9ea3dc4708c7", "fusion_lat": 0.0, "fusion_lon": 0.0, "rental_uris": {"android": "https://dc.lft.to/lastmile_qr_scan", "ios": "https://dc.lft.to/lastmile_qr_scan"}, "is_reserved": 0, "is_disabled": 0, "type": "electric_scooter", "bike_id": "9922a275c3e946d6d12f9ea3dc4708c7"}, {"lon": -77.0183805, "lat": 38.908801, "name": "637e480116c291c7f196571d122c7f81", "fusion_lat": 0.0, "fusion_lon": 0.0, "rental_uris": {"android": "https://dc.lft.to/lastmile_qr_scan", "ios": "https://dc.lft.to/lastmile_qr_scan"}, "is_reserved": 0, "is_disabled": 0, "type": "electric_scooter", "bike_id": "637e480116c291c7f196571d122c7f81"}, {"lon": -76.99787383333333, "lat": 38.922832666666665, "name": "c40f153184be42a5d4c93f8093e05064", "fusion_lat": 0.0, "fusion_lon": 0.0, "rental_uris": {"android": "https://dc.lft.to/lastmile_qr_scan", "ios": "https://dc.lft.to/lastmile_qr_scan"}, "is_reserved": 0, "is_disabled": 0, "type": "electric_scooter", "bike_id": "c40f153184be42a5d4c93f8093e05064"}, {"lon": -76.99031516666666, "lat": 38.89854533333333, "name": "e5012d8149a7fccef7206da96d4b0a6e", "fusion_lat": 0.0, "fusion_lon": 0.0, "rental_uris": {"android": "https://dc.lft.to/lastmile_qr_scan", "ios": "https://dc.lft.to/lastmile_qr_scan"}, "is_reserved": 0, "is_disabled": 0, "type": "electric_scooter", "bike_id": "e5012d8149a7fccef7206da96d4b0a6e"}, {"lon": -76.97554483333333, "lat": 38.924589, "name": "c6000c7060395ab2d65028642fff95ac", "fusion_lat": 0.0, "fusion_lon": 0.0, "rental_uris": {"android": "https://dc.lft.to/lastmile_qr_scan", "ios": "https://dc.lft.to/lastmile_qr_scan"}, "is_reserved": 0, "is_disabled": 0, "type": "electric_bike", "bike_id": "c6000c7060395ab2d65028642fff95ac"}, {"lon": -77.02199466666667, "lat": 38.93135, "name": "22a32c069b014d028edbd60072ad3d06", "fusion_lat": 0.0, "fusion_lon": 0.0, "rental_uris": {"android": "https://dc.lft.to/lastmile_qr_scan", "ios": "https://dc.lft.to/lastmile_qr_scan"}, "is_reserved": 0, "is_disabled": 0, "type": "electric_scooter", "bike_id": "22a32c069b014d028edbd60072ad3d06"}, {"lon": -77.0165305, "lat": 38.953288666666666, "name": "d3e44eed0f9feacb462197c5846f3de7", "fusion_lat": 0.0, "fusion_lon": 0.0, "rental_uris": {"android": "https://dc.lft.to/lastmile_qr_scan", "ios": "https://dc.lft.to/lastmile_qr_scan"}, "is_reserved": 0, "is_disabled": 0, "type": "electric_scooter", "bike_id": "d3e44eed0f9feacb462197c5846f3de7"}, {"lon": -76.9826275, "lat": 38.86356516666667, "name": "7583e961d94120ed163f9d3d335f0ca4", "fusion_lat": 0.0, "fusion_lon": 0.0, "rental_uris": {"android": "https://dc.lft.to/lastmile_qr_scan", "ios": "https://dc.lft.to/lastmile_qr_scan"}, "is_reserved": 0, "is_disabled": 0, "type": "electric_scooter", "bike_id": "7583e961d94120ed163f9d3d335f0ca4"}, {"lon": -77.0423235, "lat": 38.938682166666666, "name": "25861a88016f3e2de139fb30fa3a6569", "fusion_lat": 0.0, "fusion_lon": 0.0, "rental_uris": {"android": "https://dc.lft.to/lastmile_qr_scan", "ios": "https://dc.lft.to/lastmile_qr_scan"}, "is_reserved": 0, "is_disabled": 0, "type": "electric_bike", "bike_id": "25861a88016f3e2de139fb30fa3a6569"}, {"lon": -77.07801116666667, "lat": 38.95067733333333, "name": "27fb7ce86965593a5fea7adb5c99ac85", "fusion_lat": 0.0, "fusion_lon": 0.0, "rental_uris": {"android": "https://dc.lft.to/lastmile_qr_scan", "ios": "https://dc.lft.to/lastmile_qr_scan"}, "is_reserved": 0, "is_disabled": 0, "type": "electric_bike", "bike_id": "27fb7ce86965593a5fea7adb5c99ac85"}, {"lon": -77.02395283333334, "lat": 38.916670833333335, "name": "9af88636d24bbe1dcc8b1c62278409d9", "fusion_lat": 0.0, "fusion_lon": 0.0, "rental_uris": {"android": "https://dc.lft.to/lastmile_qr_scan", "ios": "https://dc.lft.to/lastmile_qr_scan"}, "is_reserved": 0, "is_disabled": 0, "type": "electric_scooter", "bike_id": "9af88636d24bbe1dcc8b1c62278409d9"}, {"lon": -76.99975616666667, "lat": 38.838318666666666, "name": "d9a5d8aaef472d85ad58552313b531e1", "fusion_lat": 0.0, "fusion_lon": 0.0, "rental_uris": {"android": "https://dc.lft.to/lastmile_qr_scan", "ios": "https://dc.lft.to/lastmile_qr_scan"}, "is_reserved": 0, "is_disabled": 0, "type": "electric_scooter", "bike_id": "d9a5d8aaef472d85ad58552313b531e1"}, {"lon": -77.0097625, "lat": 38.907975, "name": "07561949537b0aed6ee1d11910c1c6fa", "fusion_lat": 0.0, "fusion_lon": 0.0, "rental_uris": {"android": "https://dc.lft.to/lastmile_qr_scan", "ios": "https://dc.lft.to/lastmile_qr_scan"}, "is_reserved": 0, "is_disabled": 0, "type": "electric_scooter", "bike_id": "07561949537b0aed6ee1d11910c1c6fa"}, {"lon": -77.0345725, "lat": 38.9056185, "name": "cf9e620b374a3a969cc5e840631041d5", "fusion_lat": 0.0, "fusion_lon": 0.0, "rental_uris": {"android": "https://dc.lft.to/lastmile_qr_scan", "ios": "https://dc.lft.to/lastmile_qr_scan"}, "is_reserved": 0, "is_disabled": 0, "type": "electric_scooter", "bike_id": "cf9e620b374a3a969cc5e840631041d5"}, {"lon": -77.0230395, "lat": 38.918337333333334, "name": "4e72155fa1061ae9d0a95c44bae62b7a", "fusion_lat": 0.0, "fusion_lon": 0.0, "rental_uris": {"android": "https://dc.lft.to/lastmile_qr_scan", "ios": "https://dc.lft.to/lastmile_qr_scan"}, "is_reserved": 0, "is_disabled": 0, "type": "electric_scooter", "bike_id": "4e72155fa1061ae9d0a95c44bae62b7a"}, {"lon": -76.99080233333333, "lat": 38.8605475, "name": "9ba6f86b52c9593ab18d4e6def543e10", "fusion_lat": 0.0, "fusion_lon": 0.0, "rental_uris": {"android": "https://dc.lft.to/lastmile_qr_scan", "ios": "https://dc.lft.to/lastmile_qr_scan"}, "is_reserved": 0, "is_disabled": 0, "type": "electric_scooter", "bike_id": "9ba6f86b52c9593ab18d4e6def543e10"}, {"lon": -76.9900765, "lat": 38.865098833333334, "name": "08c43deaa8618076fa685d98e1e78901", "fusion_lat": 0.0, "fusion_lon": 0.0, "rental_uris": {"android": "https://dc.lft.to/lastmile_qr_scan", "ios": "https://dc.lft.to/lastmile_qr_scan"}, "is_reserved": 0, "is_disabled": 0, "type": "electric_scooter", "bike_id": "08c43deaa8618076fa685d98e1e78901"}, {"lon": -76.99363233333334, "lat": 38.928434, "name": "d5fd68876c4b6563dd06568b076b1d0b", "fusion_lat": 0.0, "fusion_lon": 0.0, "rental_uris": {"android": "https://dc.lft.to/lastmile_qr_scan", "ios": "https://dc.lft.to/lastmile_qr_scan"}, "is_reserved": 0, "is_disabled": 0, "type": "electric_scooter", "bike_id": "d5fd68876c4b6563dd06568b076b1d0b"}, {"lon": -77.04034233333333, "lat": 38.9048065, "name": "c6f825ef6d12f78679b756fbd26a3fbd", "fusion_lat": 0.0, "fusion_lon": 0.0, "rental_uris": {"android": "https://dc.lft.to/lastmile_qr_scan", "ios": "https://dc.lft.to/lastmile_qr_scan"}, "is_reserved": 0, "is_disabled": 0, "type": "electric_scooter", "bike_id": "c6f825ef6d12f78679b756fbd26a3fbd"}, {"lon": -77.03896533333334, "lat": 38.92325983333333, "name": "3aa881392d46078e306186a42ee2af32", "fusion_lat": 0.0, "fusion_lon": 0.0, "rental_uris": {"android": "https://dc.lft.to/lastmile_qr_scan", "ios": "https://dc.lft.to/lastmile_qr_scan"}, "is_reserved": 0, "is_disabled": 0, "type": "electric_scooter", "bike_id": "3aa881392d46078e306186a42ee2af32"}, {"lon": -77.024974, "lat": 38.93414533333333, "name": "2ed395395373bad64b7e65f6f26684bb", "fusion_lat": 0.0, "fusion_lon": 0.0, "rental_uris": {"android": "https://dc.lft.to/lastmile_qr_scan", "ios": "https://dc.lft.to/lastmile_qr_scan"}, "is_reserved": 0, "is_disabled": 0, "type": "electric_scooter", "bike_id": "2ed395395373bad64b7e65f6f26684bb"}, {"lon": -77.03825233333333, "lat": 38.90249816666667, "name": "3883ac43cf08de07a71684bc680c2b58", "fusion_lat": 0.0, "fusion_lon": 0.0, "rental_uris": {"android": "https://dc.lft.to/lastmile_qr_scan", "ios": "https://dc.lft.to/lastmile_qr_scan"}, "is_reserved": 0, "is_disabled": 0, "type": "electric_scooter", "bike_id": "3883ac43cf08de07a71684bc680c2b58"}, {"lon": -77.12737766666666, "lat": 38.888199, "name": "8b81908a10e24e68c28a29ea466f83fe", "fusion_lat": 0.0, "fusion_lon": 0.0, "rental_uris": {"android": "https://dc.lft.to/lastmile_qr_scan", "ios": "https://dc.lft.to/lastmile_qr_scan"}, "is_reserved": 0, "is_disabled": 0, "type": "electric_bike", "bike_id": "8b81908a10e24e68c28a29ea466f83fe"}, {"lon": -77.0177845, "lat": 38.89851433333333, "name": "1177f34f5ef38e3a3b24c05c86186cf8", "fusion_lat": 0.0, "fusion_lon": 0.0, "rental_uris": {"android": "https://dc.lft.to/lastmile_qr_scan", "ios": "https://dc.lft.to/lastmile_qr_scan"}, "is_reserved": 0, "is_disabled": 0, "type": "electric_scooter", "bike_id": "1177f34f5ef38e3a3b24c05c86186cf8"}, {"lon": -76.94118483333334, "lat": 38.907946333333335, "name": "797d71a6f5a29c65e255c3a10a117485", "fusion_lat": 0.0, "fusion_lon": 0.0, "rental_uris": {"android": "https://dc.lft.to/lastmile_qr_scan", "ios": "https://dc.lft.to/lastmile_qr_scan"}, "is_reserved": 0, "is_disabled": 0, "type": "electric_scooter", "bike_id": "797d71a6f5a29c65e255c3a10a117485"}, {"lon": -76.99956783333333, "lat": 38.90864283333333, "name": "8a98e2139666cf1759332b0b5ef06139", "fusion_lat": 0.0, "fusion_lon": 0.0, "rental_uris": {"android": "https://dc.lft.to/lastmile_qr_scan", "ios": "https://dc.lft.to/lastmile_qr_scan"}, "is_reserved": 0, "is_disabled": 0, "type": "electric_scooter", "bike_id": "8a98e2139666cf1759332b0b5ef06139"}, {"lon": -77.04433066666667, "lat": 38.923328166666664, "name": "3a919972dbb7736c4abce05d684b72fa", "fusion_lat": 0.0, "fusion_lon": 0.0, "rental_uris": {"android": "https://dc.lft.to/lastmile_qr_scan", "ios": "https://dc.lft.to/lastmile_qr_scan"}, "is_reserved": 0, "is_disabled": 0, "type": "electric_scooter", "bike_id": "3a919972dbb7736c4abce05d684b72fa"}, {"lon": -76.93654666666667, "lat": 38.902859, "name": "70f104328acb84958f53655ef6392ca4", "fusion_lat": 0.0, "fusion_lon": 0.0, "rental_uris": {"android": "https://dc.lft.to/lastmile_qr_scan", "ios": "https://dc.lft.to/lastmile_qr_scan"}, "is_reserved": 0, "is_disabled": 0, "type": "electric_scooter", "bike_id": "70f104328acb84958f53655ef6392ca4"}, {"lon": -77.02393966666666, "lat": 38.8873935, "name": "a32b449a41f92df68f9a1803af5547f8", "fusion_lat": 0.0, "fusion_lon": 0.0, "rental_uris": {"android": "https://dc.lft.to/lastmile_qr_scan", "ios": "https://dc.lft.to/lastmile_qr_scan"}, "is_reserved": 0, "is_disabled": 0, "type": "electric_scooter", "bike_id": "a32b449a41f92df68f9a1803af5547f8"}, {"lon": -77.06174366666667, "lat": 38.9421345, "name": "e7a3aa67ace80202bc77c6f8dc28b88b", "fusion_lat": 0.0, "fusion_lon": 0.0, "rental_uris": {"android": "https://dc.lft.to/lastmile_qr_scan", "ios": "https://dc.lft.to/lastmile_qr_scan"}, "is_reserved": 0, "is_disabled": 0, "type": "electric_scooter", "bike_id": "e7a3aa67ace80202bc77c6f8dc28b88b"}, {"lon": -76.93161366666666, "lat": 38.89890783333333, "name": "384f4ba80c26b310839684391b034f48", "fusion_lat": 0.0, "fusion_lon": 0.0, "rental_uris": {"android": "https://dc.lft.to/lastmile_qr_scan", "ios": "https://dc.lft.to/lastmile_qr_scan"}, "is_reserved": 0, "is_disabled": 0, "type": "electric_scooter", "bike_id": "384f4ba80c26b310839684391b034f48"}, {"lon": -77.03459033333333, "lat": 38.91471416666667, "name": "dc562a0c9e7e02efb88944b188018a8f", "fusion_lat": 0.0, "fusion_lon": 0.0, "rental_uris": {"android": "https://dc.lft.to/lastmile_qr_scan", "ios": "https://dc.lft.to/lastmile_qr_scan"}, "is_reserved": 0, "is_disabled": 0, "type": "electric_scooter", "bike_id": "dc562a0c9e7e02efb88944b188018a8f"}, {"lon": -77.04172666666666, "lat": 38.91854216666667, "name": "b4956adb181e9476ee8931a23ec5878e", "fusion_lat": 0.0, "fusion_lon": 0.0, "rental_uris": {"android": "https://dc.lft.to/lastmile_qr_scan", "ios": "https://dc.lft.to/lastmile_qr_scan"}, "is_reserved": 0, "is_disabled": 0, "type": "electric_scooter", "bike_id": "b4956adb181e9476ee8931a23ec5878e"}, {"lon": -77.02541816666667, "lat": 38.92404966666667, "name": "cd737e87203c1c1bdac3ee432b08f45c", "fusion_lat": 0.0, "fusion_lon": 0.0, "rental_uris": {"android": "https://dc.lft.to/lastmile_qr_scan", "ios": "https://dc.lft.to/lastmile_qr_scan"}, "is_reserved": 0, "is_disabled": 0, "type": "electric_scooter", "bike_id": "cd737e87203c1c1bdac3ee432b08f45c"}, {"lon": -77.01732533333333, "lat": 38.907164333333334, "name": "e6448c5c8e37aa15b53098cbb5159ebd", "fusion_lat": 0.0, "fusion_lon": 0.0, "rental_uris": {"android": "https://dc.lft.to/lastmile_qr_scan", "ios": "https://dc.lft.to/lastmile_qr_scan"}, "is_reserved": 0, "is_disabled": 0, "type": "electric_scooter", "bike_id": "e6448c5c8e37aa15b53098cbb5159ebd"}, {"lon": -76.98772816666667, "lat": 38.911775, "name": "590d38946a20bb9db2274cff8c6c39d4", "fusion_lat": 0.0, "fusion_lon": 0.0, "rental_uris": {"android": "https://dc.lft.to/lastmile_qr_scan", "ios": "https://dc.lft.to/lastmile_qr_scan"}, "is_reserved": 0, "is_disabled": 0, "type": "electric_scooter", "bike_id": "590d38946a20bb9db2274cff8c6c39d4"}, {"lon": -77.02687916666666, "lat": 38.924815, "name": "d61b3e062789d98e8eccbda4613a070f", "fusion_lat": 0.0, "fusion_lon": 0.0, "rental_uris": {"android": "https://dc.lft.to/lastmile_qr_scan", "ios": "https://dc.lft.to/lastmile_qr_scan"}, "is_reserved": 0, "is_disabled": 0, "type": "electric_scooter", "bike_id": "d61b3e062789d98e8eccbda4613a070f"}, {"lon": -77.03833316666666, "lat": 38.91112916666667, "name": "e8082959edbac8dc8693b4389e65aead", "fusion_lat": 0.0, "fusion_lon": 0.0, "rental_uris": {"android": "https://dc.lft.to/lastmile_qr_scan", "ios": "https://dc.lft.to/lastmile_qr_scan"}, "is_reserved": 0, "is_disabled": 0, "type": "electric_scooter", "bike_id": "e8082959edbac8dc8693b4389e65aead"}, {"lon": -77.02904666666667, "lat": 38.903779666666665, "name": "c3ce8972b03a6aff707a65f79178af57", "fusion_lat": 0.0, "fusion_lon": 0.0, "rental_uris": {"android": "https://dc.lft.to/lastmile_qr_scan", "ios": "https://dc.lft.to/lastmile_qr_scan"}, "is_reserved": 0, "is_disabled": 0, "type": "electric_scooter", "bike_id": "c3ce8972b03a6aff707a65f79178af57"}, {"lon": -77.04633916666667, "lat": 38.904190666666665, "name": "6f405ee00954fd0902139f64aa17d603", "fusion_lat": 0.0, "fusion_lon": 0.0, "rental_uris": {"android": "https://dc.lft.to/lastmile_qr_scan", "ios": "https://dc.lft.to/lastmile_qr_scan"}, "is_reserved": 0, "is_disabled": 0, "type": "electric_scooter", "bike_id": "6f405ee00954fd0902139f64aa17d603"}, {"lon": -77.02747966666666, "lat": 38.966293666666665, "name": "c440c8c60f05b2ecbfd1626f105d6402", "fusion_lat": 0.0, "fusion_lon": 0.0, "rental_uris": {"android": "https://dc.lft.to/lastmile_qr_scan", "ios": "https://dc.lft.to/lastmile_qr_scan"}, "is_reserved": 0, "is_disabled": 0, "type": "electric_scooter", "bike_id": "c440c8c60f05b2ecbfd1626f105d6402"}, {"lon": -76.98234166666667, "lat": 38.866870666666664, "name": "7951b93fe109949fff1e906e786da8f6", "fusion_lat": 0.0, "fusion_lon": 0.0, "rental_uris": {"android": "https://dc.lft.to/lastmile_qr_scan", "ios": "https://dc.lft.to/lastmile_qr_scan"}, "is_reserved": 0, "is_disabled": 0, "type": "electric_bike", "bike_id": "7951b93fe109949fff1e906e786da8f6"}, {"lon": -76.970368, "lat": 38.9031745, "name": "3f49815ff6ad2404cb6754e12ba95cc6", "fusion_lat": 0.0, "fusion_lon": 0.0, "rental_uris": {"android": "https://dc.lft.to/lastmile_qr_scan", "ios": "https://dc.lft.to/lastmile_qr_scan"}, "is_reserved": 0, "is_disabled": 0, "type": "electric_scooter", "bike_id": "3f49815ff6ad2404cb6754e12ba95cc6"}, {"lon": -77.02717016666666, "lat": 38.906791, "name": "72f04d4d1a452e763016f20076ec06b8", "fusion_lat": 0.0, "fusion_lon": 0.0, "rental_uris": {"android": "https://dc.lft.to/lastmile_qr_scan", "ios": "https://dc.lft.to/lastmile_qr_scan"}, "is_reserved": 0, "is_disabled": 0, "type": "electric_scooter", "bike_id": "72f04d4d1a452e763016f20076ec06b8"}, {"lon": -77.02161433333333, "lat": 38.928375333333335, "name": "c312f71ac3f0165c861758a61c1e2ec8", "fusion_lat": 0.0, "fusion_lon": 0.0, "rental_uris": {"android": "https://dc.lft.to/lastmile_qr_scan", "ios": "https://dc.lft.to/lastmile_qr_scan"}, "is_reserved": 0, "is_disabled": 0, "type": "electric_scooter", "bike_id": "c312f71ac3f0165c861758a61c1e2ec8"}, {"lon": -77.02271166666667, "lat": 38.926927666666664, "name": "5009f783c81fd354f3851ed1540273b4", "fusion_lat": 0.0, "fusion_lon": 0.0, "rental_uris": {"android": "https://dc.lft.to/lastmile_qr_scan", "ios": "https://dc.lft.to/lastmile_qr_scan"}, "is_reserved": 0, "is_disabled": 0, "type": "electric_scooter", "bike_id": "5009f783c81fd354f3851ed1540273b4"}, {"lon": -76.99511333333334, "lat": 38.84471666666666, "name": "b368bcd756eb724fec47354261f55953", "fusion_lat": 0.0, "fusion_lon": 0.0, "rental_uris": {"android": "https://dc.lft.to/lastmile_qr_scan", "ios": "https://dc.lft.to/lastmile_qr_scan"}, "is_reserved": 0, "is_disabled": 0, "type": "electric_scooter", "bike_id": "b368bcd756eb724fec47354261f55953"}, {"lon": -77.02574516666667, "lat": 38.887456666666665, "name": "2e758f11a5ad552671be14124bc3a70f", "fusion_lat": 0.0, "fusion_lon": 0.0, "rental_uris": {"android": "https://dc.lft.to/lastmile_qr_scan", "ios": "https://dc.lft.to/lastmile_qr_scan"}, "is_reserved": 0, "is_disabled": 0, "type": "electric_scooter", "bike_id": "2e758f11a5ad552671be14124bc3a70f"}, {"lon": -77.03273733333333, "lat": 38.92901916666667, "name": "e167bdf545e9e487716039657922c46c", "fusion_lat": 0.0, "fusion_lon": 0.0, "rental_uris": {"android": "https://dc.lft.to/lastmile_qr_scan", "ios": "https://dc.lft.to/lastmile_qr_scan"}, "is_reserved": 0, "is_disabled": 0, "type": "electric_scooter", "bike_id": "e167bdf545e9e487716039657922c46c"}, {"lon": -77.01187633333333, "lat": 38.900261, "name": "391906a3727850b74bc5283bd84e08b7", "fusion_lat": 0.0, "fusion_lon": 0.0, "rental_uris": {"android": "https://dc.lft.to/lastmile_qr_scan", "ios": "https://dc.lft.to/lastmile_qr_scan"}, "is_reserved": 0, "is_disabled": 0, "type": "electric_scooter", "bike_id": "391906a3727850b74bc5283bd84e08b7"}, {"lon": -77.04067683333334, "lat": 38.9037345, "name": "5f9594744e0fd7f6041bb07ee1eab745", "fusion_lat": 0.0, "fusion_lon": 0.0, "rental_uris": {"android": "https://dc.lft.to/lastmile_qr_scan", "ios": "https://dc.lft.to/lastmile_qr_scan"}, "is_reserved": 0, "is_disabled": 0, "type": "electric_scooter", "bike_id": "5f9594744e0fd7f6041bb07ee1eab745"}, {"lon": -77.03987383333333, "lat": 38.8030975, "name": "e42c6dd42001dd8de0bbfce73a20b44a", "fusion_lat": 0.0, "fusion_lon": 0.0, "rental_uris": {"android": "https://dc.lft.to/lastmile_qr_scan", "ios": "https://dc.lft.to/lastmile_qr_scan"}, "is_reserved": 0, "is_disabled": 0, "type": "electric_bike", "bike_id": "e42c6dd42001dd8de0bbfce73a20b44a"}, {"lon": -77.02815116666666, "lat": 38.909289, "name": "50484fd9f6550615d8912fe816966b27", "fusion_lat": 0.0, "fusion_lon": 0.0, "rental_uris": {"android": "https://dc.lft.to/lastmile_qr_scan", "ios": "https://dc.lft.to/lastmile_qr_scan"}, "is_reserved": 0, "is_disabled": 0, "type": "electric_scooter", "bike_id": "50484fd9f6550615d8912fe816966b27"}, {"lon": -77.022484, "lat": 38.912683666666666, "name": "aee53376f259237208db2ce431654728", "fusion_lat": 0.0, "fusion_lon": 0.0, "rental_uris": {"android": "https://dc.lft.to/lastmile_qr_scan", "ios": "https://dc.lft.to/lastmile_qr_scan"}, "is_reserved": 0, "is_disabled": 0, "type": "electric_scooter", "bike_id": "aee53376f259237208db2ce431654728"}, {"lon": -77.03166333333333, "lat": 38.9141905, "name": "62414171f241b49c10bec6591a67db26", "fusion_lat": 0.0, "fusion_lon": 0.0, "rental_uris": {"android": "https://dc.lft.to/lastmile_qr_scan", "ios": "https://dc.lft.to/lastmile_qr_scan"}, "is_reserved": 0, "is_disabled": 0, "type": "electric_scooter", "bike_id": "62414171f241b49c10bec6591a67db26"}, {"lon": -77.0216105, "lat": 38.886276333333335, "name": "63e2ef56971c36029d9f1747db60f223", "fusion_lat": 0.0, "fusion_lon": 0.0, "rental_uris": {"android": "https://dc.lft.to/lastmile_qr_scan", "ios": "https://dc.lft.to/lastmile_qr_scan"}, "is_reserved": 0, "is_disabled": 0, "type": "electric_scooter", "bike_id": "63e2ef56971c36029d9f1747db60f223"}, {"lon": -77.042488, "lat": 38.9243665, "name": "0ec750dbd9861a5562e7fe18c939e247", "fusion_lat": 0.0, "fusion_lon": 0.0, "rental_uris": {"android": "https://dc.lft.to/lastmile_qr_scan", "ios": "https://dc.lft.to/lastmile_qr_scan"}, "is_reserved": 0, "is_disabled": 0, "type": "electric_scooter", "bike_id": "0ec750dbd9861a5562e7fe18c939e247"}, {"lon": -77.02410083333334, "lat": 38.91987866666667, "name": "ccea85c778e0464838079dd6bc9431ca", "fusion_lat": 0.0, "fusion_lon": 0.0, "rental_uris": {"android": "https://dc.lft.to/lastmile_qr_scan", "ios": "https://dc.lft.to/lastmile_qr_scan"}, "is_reserved": 0, "is_disabled": 0, "type": "electric_scooter", "bike_id": "ccea85c778e0464838079dd6bc9431ca"}, {"lon": -77.02977266666667, "lat": 38.96233466666666, "name": "2b94eb08ec0a7cfdd5eeae924a8aa6ea", "fusion_lat": 0.0, "fusion_lon": 0.0, "rental_uris": {"android": "https://dc.lft.to/lastmile_qr_scan", "ios": "https://dc.lft.to/lastmile_qr_scan"}, "is_reserved": 0, "is_disabled": 0, "type": "electric_scooter", "bike_id": "2b94eb08ec0a7cfdd5eeae924a8aa6ea"}, {"lon": -76.99497016666666, "lat": 38.86224983333334, "name": "3f79edc737d9f5f9b24522eadeef47b6", "fusion_lat": 0.0, "fusion_lon": 0.0, "rental_uris": {"android": "https://dc.lft.to/lastmile_qr_scan", "ios": "https://dc.lft.to/lastmile_qr_scan"}, "is_reserved": 0, "is_disabled": 0, "type": "electric_scooter", "bike_id": "3f79edc737d9f5f9b24522eadeef47b6"}, {"lon": -77.00559883333334, "lat": 38.876333333333335, "name": "f52cff7a6bc13b99e58b3fcfbfba60e0", "fusion_lat": 0.0, "fusion_lon": 0.0, "rental_uris": {"android": "https://dc.lft.to/lastmile_qr_scan", "ios": "https://dc.lft.to/lastmile_qr_scan"}, "is_reserved": 0, "is_disabled": 0, "type": "electric_scooter", "bike_id": "f52cff7a6bc13b99e58b3fcfbfba60e0"}, {"lon": -77.06127983333333, "lat": 38.90683716666667, "name": "e3c82a40136b38caed7d989d3e158e85", "fusion_lat": 0.0, "fusion_lon": 0.0, "rental_uris": {"android": "https://dc.lft.to/lastmile_qr_scan", "ios": "https://dc.lft.to/lastmile_qr_scan"}, "is_reserved": 0, "is_disabled": 0, "type": "electric_scooter", "bike_id": "e3c82a40136b38caed7d989d3e158e85"}, {"lon": -77.10128383333333, "lat": 38.852061, "name": "f6a807fef617ed8c91f610bd820a9411", "fusion_lat": 0.0, "fusion_lon": 0.0, "rental_uris": {"android": "https://dc.lft.to/lastmile_qr_scan", "ios": "https://dc.lft.to/lastmile_qr_scan"}, "is_reserved": 0, "is_disabled": 0, "type": "electric_bike", "bike_id": "f6a807fef617ed8c91f610bd820a9411"}, {"lon": -77.00138316666667, "lat": 38.904069666666665, "name": "347d5e892eaa01b908ce32d12fd70297", "fusion_lat": 0.0, "fusion_lon": 0.0, "rental_uris": {"android": "https://dc.lft.to/lastmile_qr_scan", "ios": "https://dc.lft.to/lastmile_qr_scan"}, "is_reserved": 0, "is_disabled": 0, "type": "electric_scooter", "bike_id": "347d5e892eaa01b908ce32d12fd70297"}, {"lon": -77.0379065, "lat": 38.905703333333335, "name": "813739c7f70dd1f4c5d896477e223b58", "fusion_lat": 0.0, "fusion_lon": 0.0, "rental_uris": {"android": "https://dc.lft.to/lastmile_qr_scan", "ios": "https://dc.lft.to/lastmile_qr_scan"}, "is_reserved": 0, "is_disabled": 0, "type": "electric_scooter", "bike_id": "813739c7f70dd1f4c5d896477e223b58"}, {"lon": -76.9774465, "lat": 38.90505133333333, "name": "267f239c05c7f727507625ef5a7c3723", "fusion_lat": 0.0, "fusion_lon": 0.0, "rental_uris": {"android": "https://dc.lft.to/lastmile_qr_scan", "ios": "https://dc.lft.to/lastmile_qr_scan"}, "is_reserved": 0, "is_disabled": 0, "type": "electric_scooter", "bike_id": "267f239c05c7f727507625ef5a7c3723"}, {"lon": -76.9478165, "lat": 38.8944055, "name": "5af210b2f8b63283706a4deccfdfe44a", "fusion_lat": 0.0, "fusion_lon": 0.0, "rental_uris": {"android": "https://dc.lft.to/lastmile_qr_scan", "ios": "https://dc.lft.to/lastmile_qr_scan"}, "is_reserved": 0, "is_disabled": 0, "type": "electric_bike", "bike_id": "5af210b2f8b63283706a4deccfdfe44a"}, {"lon": -76.99698516666666, "lat": 38.910912, "name": "d6c824ee955efb299bf43caa5daad15a", "fusion_lat": 0.0, "fusion_lon": 0.0, "rental_uris": {"android": "https://dc.lft.to/lastmile_qr_scan", "ios": "https://dc.lft.to/lastmile_qr_scan"}, "is_reserved": 0, "is_disabled": 0, "type": "electric_scooter", "bike_id": "d6c824ee955efb299bf43caa5daad15a"}, {"lon": -77.03208766666667, "lat": 38.90807083333333, "name": "a1b8252dc49c6e323f53e0f0009fe122", "fusion_lat": 0.0, "fusion_lon": 0.0, "rental_uris": {"android": "https://dc.lft.to/lastmile_qr_scan", "ios": "https://dc.lft.to/lastmile_qr_scan"}, "is_reserved": 0, "is_disabled": 0, "type": "electric_scooter", "bike_id": "a1b8252dc49c6e323f53e0f0009fe122"}, {"lon": -77.0211305, "lat": 38.9174085, "name": "f91f77fc913d62751e0a1c19b0a795e8", "fusion_lat": 0.0, "fusion_lon": 0.0, "rental_uris": {"android": "https://dc.lft.to/lastmile_qr_scan", "ios": "https://dc.lft.to/lastmile_qr_scan"}, "is_reserved": 0, "is_disabled": 0, "type": "electric_scooter", "bike_id": "f91f77fc913d62751e0a1c19b0a795e8"}, {"lon": -77.3607065, "lat": 38.93961383333333, "name": "0812e8a57de1e975c045f6b5b462470d", "fusion_lat": 0.0, "fusion_lon": 0.0, "rental_uris": {"android": "https://dc.lft.to/lastmile_qr_scan", "ios": "https://dc.lft.to/lastmile_qr_scan"}, "is_reserved": 0, "is_disabled": 0, "type": "electric_bike", "bike_id": "0812e8a57de1e975c045f6b5b462470d"}, {"lon": -77.02278533333333, "lat": 38.90958783333333, "name": "6c153a8618d08eb7a12b829718dcd19f", "fusion_lat": 0.0, "fusion_lon": 0.0, "rental_uris": {"android": "https://dc.lft.to/lastmile_qr_scan", "ios": "https://dc.lft.to/lastmile_qr_scan"}, "is_reserved": 0, "is_disabled": 0, "type": "electric_scooter", "bike_id": "6c153a8618d08eb7a12b829718dcd19f"}, {"lon": -77.01221183333334, "lat": 38.91521816666667, "name": "fc6ea0fadcdfeb7291e58792de8c7cef", "fusion_lat": 0.0, "fusion_lon": 0.0, "rental_uris": {"android": "https://dc.lft.to/lastmile_qr_scan", "ios": "https://dc.lft.to/lastmile_qr_scan"}, "is_reserved": 0, "is_disabled": 0, "type": "electric_scooter", "bike_id": "fc6ea0fadcdfeb7291e58792de8c7cef"}, {"lon": -77.025387, "lat": 38.94095766666667, "name": "699574710b9efb07931097e583dcf9aa", "fusion_lat": 0.0, "fusion_lon": 0.0, "rental_uris": {"android": "https://dc.lft.to/lastmile_qr_scan", "ios": "https://dc.lft.to/lastmile_qr_scan"}, "is_reserved": 0, "is_disabled": 0, "type": "electric_scooter", "bike_id": "699574710b9efb07931097e583dcf9aa"}, {"lon": -77.03409333333333, "lat": 38.93492216666667, "name": "f5934a20ea9f9b84a67b24419285d071", "fusion_lat": 0.0, "fusion_lon": 0.0, "rental_uris": {"android": "https://dc.lft.to/lastmile_qr_scan", "ios": "https://dc.lft.to/lastmile_qr_scan"}, "is_reserved": 0, "is_disabled": 0, "type": "electric_scooter", "bike_id": "f5934a20ea9f9b84a67b24419285d071"}, {"lon": -77.0329505, "lat": 38.9221735, "name": "700e0f203745b2f685925c6fce681779", "fusion_lat": 0.0, "fusion_lon": 0.0, "rental_uris": {"android": "https://dc.lft.to/lastmile_qr_scan", "ios": "https://dc.lft.to/lastmile_qr_scan"}, "is_reserved": 0, "is_disabled": 0, "type": "electric_scooter", "bike_id": "700e0f203745b2f685925c6fce681779"}, {"lon": -76.97983866666667, "lat": 38.87759916666667, "name": "069b90e0e314c084c6cf1d577ea1d6aa", "fusion_lat": 0.0, "fusion_lon": 0.0, "rental_uris": {"android": "https://dc.lft.to/lastmile_qr_scan", "ios": "https://dc.lft.to/lastmile_qr_scan"}, "is_reserved": 0, "is_disabled": 0, "type": "electric_bike", "bike_id": "069b90e0e314c084c6cf1d577ea1d6aa"}, {"lon": -77.02205783333333, "lat": 38.9020255, "name": "d39593e0445ea5c9c90ff2fd8732cada", "fusion_lat": 0.0, "fusion_lon": 0.0, "rental_uris": {"android": "https://dc.lft.to/lastmile_qr_scan", "ios": "https://dc.lft.to/lastmile_qr_scan"}, "is_reserved": 0, "is_disabled": 0, "type": "electric_scooter", "bike_id": "d39593e0445ea5c9c90ff2fd8732cada"}, {"lon": -77.0325945, "lat": 38.935281333333336, "name": "995e8e259bd0fea509db6b1f99959201", "fusion_lat": 0.0, "fusion_lon": 0.0, "rental_uris": {"android": "https://dc.lft.to/lastmile_qr_scan", "ios": "https://dc.lft.to/lastmile_qr_scan"},