{"data": {"bikes": [{"is_reserved": 0, "fusion_lat": 0.0, "lon": -76.9575265, "rental_uris": {"android": "https://dc.lft.to/lastmile_qr_scan", "ios": "https://dc.lft.to/lastmile_qr_scan"}, "lat": 38.884310166666666, "type": "electric_scooter", "bike_id": "6cc659e2a7be2f5d73eb40ad84afae27", "fusion_lon": 0.0, "is_disabled": 0, "name": "6cc659e2a7be2f5d73eb40ad84afae27"}, {"is_reserved": 0, "fusion_lat": 0.0, "lon": -77.00492133333333, "rental_uris": {"android": "https://dc.lft.to/lastmile_qr_scan", "ios": "https://dc.lft.to/lastmile_qr_scan"}, "lat": 38.874704666666666, "type": "electric_scooter", "bike_id": "09c7d91029a19b9085788ad27625a448", "fusion_lon": 0.0, "is_disabled": 0, "name": "09c7d91029a19b9085788ad27625a448"}, {"is_reserved": 0, "fusion_lat": 0.0, "lon": -77.0224455, "rental_uris": {"android": "https://dc.lft.to/lastmile_qr_scan", "ios": "https://dc.lft.to/lastmile_qr_scan"}, "lat": 38.896183666666666, "type": "electric_scooter", "bike_id": "161e3d3ebdd4124fc19b1f7c802abc61", "fusion_lon": 0.0, "is_disabled": 0, "name": "161e3d3ebdd4124fc19b1f7c802abc61"}, {"is_reserved": 0, "fusion_lat": 0.0, "lon": -76.94918183333333, "rental_uris": {"android": "https://dc.lft.to/lastmile_qr_scan", "ios": "https://dc.lft.to/lastmile_qr_scan"}, "lat": 38.893420166666665, "type": "electric_scooter", "bike_id": "8b2a9ca90e8fe260752adb3840eaca4a", "fusion_lon": 0.0, "is_disabled": 0, "name": "8b2a9ca90e8fe260752adb3840eaca4a"}, {"is_reserved": 0, "fusion_lat": 0.0, "lon": -77.04037516666666, "rental_uris": {"android": "https://dc.lft.to/lastmile_qr_scan", "ios": "https://dc.lft.to/lastmile_qr_scan"}, "lat": 38.918602166666666, "type": "electric_scooter", "bike_id": "6f1c83275ec9fc6c265c3e277383a57a", "fusion_lon": 0.0, "is_disabled": 0, "name": "6f1c83275ec9fc6c265c3e277383a57a"}, {"is_reserved": 0, "fusion_lat": 0.0, "lon": -77.02230416666667, "rental_uris": {"android": "https://dc.lft.to/lastmile_qr_scan", "ios": "https://dc.lft.to/lastmile_qr_scan"}, "lat": 38.9208965, "type": "electric_scooter", "bike_id": "321ef9ed162faf7fd076669bfd3c159d", "fusion_lon": 0.0, "is_disabled": 0, "name": "321ef9ed162faf7fd076669bfd3c159d"}, {"is_reserved": 0, "fusion_lat": 0.0, "lon": -77.028599, "rental_uris": {"android": "https://dc.lft.to/lastmile_qr_scan", "ios": "https://dc.lft.to/lastmile_qr_scan"}, "lat": 38.916995166666666, "type": "electric_scooter", "bike_id": "f9523b52e9626cc1812d901f3e47b30d", "fusion_lon": 0.0, "is_disabled": 0, "name": "f9523b52e9626cc1812d901f3e47b30d"}, {"is_reserved": 0, "fusion_lat": 0.0, "lon": -77.02679583333334, "rental_uris": {"android": "https://dc.lft.to/lastmile_qr_scan", "ios": "https://dc.lft.to/lastmile_qr_scan"}, "lat": 38.8985555, "type": "electric_scooter", "bike_id": "cf7d1935681d2a193eb6db2b24fbaca1", "fusion_lon": 0.0, "is_disabled": 0, "name": "cf7d1935681d2a193eb6db2b24fbaca1"}, {"is_reserved": 0, "fusion_lat": 0.0, "lon": -77.03207833333333, "rental_uris": {"android": "https://dc.lft.to/lastmile_qr_scan", "ios": "https://dc.lft.to/lastmile_qr_scan"}, "lat": 38.918522333333335, "type": "electric_scooter", "bike_id": "a2ead63cab911383edc27b2f135524cd", "fusion_lon": 0.0, "is_disabled": 0, "name": "a2ead63cab911383edc27b2f135524cd"}, {"is_reserved": 0, "fusion_lat": 0.0, "lon": -77.04584166666666, "rental_uris": {"android": "https://dc.lft.to/lastmile_qr_scan", "ios": "https://dc.lft.to/lastmile_qr_scan"}, "lat": 38.92122366666667, "type": "electric_scooter", "bike_id": "fe9f4deca206136454bd9fb4d6e22df5", "fusion_lon": 0.0, "is_disabled": 0, "name": "fe9f4deca206136454bd9fb4d6e22df5"}, {"is_reserved": 0, "fusion_lat": 0.0, "lon": -77.034587, "rental_uris": {"android": "https://dc.lft.to/lastmile_qr_scan", "ios": "https://dc.lft.to/lastmile_qr_scan"}, "lat": 38.902690666666665, "type": "electric_scooter", "bike_id": "873a961e173a72e8347de1104a764e8f", "fusion_lon": 0.0, "is_disabled": 0, "name": "873a961e173a72e8347de1104a764e8f"}, {"is_reserved": 0, "fusion_lat": 0.0, "lon": -77.07187016666667, "rental_uris": {"android": "https://dc.lft.to/lastmile_qr_scan", "ios": "https://dc.lft.to/lastmile_qr_scan"}, "lat": 38.9090885, "type": "electric_scooter", "bike_id": "cb553e5449742ec6841312fd53adfc96", "fusion_lon": 0.0, "is_disabled": 0, "name": "cb553e5449742ec6841312fd53adfc96"}, {"is_reserved": 0, "fusion_lat": 0.0, "lon": -77.034351, "rental_uris": {"android": "https://dc.lft.to/lastmile_qr_scan", "ios": "https://dc.lft.to/lastmile_qr_scan"}, "lat": 38.9029435, "type": "electric_scooter", "bike_id": "f9582337348af32a362dee3ad12ad3ee", "fusion_lon": 0.0, "is_disabled": 0, "name": "f9582337348af32a362dee3ad12ad3ee"}, {"is_reserved": 0, "fusion_lat": 0.0, "lon": -77.0065945, "rental_uris": {"android": "https://dc.lft.to/lastmile_qr_scan", "ios": "https://dc.lft.to/lastmile_qr_scan"}, "lat": 38.900087666666664, "type": "electric_scooter", "bike_id": "98649d01e213f9c05651617638039ee5", "fusion_lon": 0.0, "is_disabled": 0, "name": "98649d01e213f9c05651617638039ee5"}, {"is_reserved": 0, "fusion_lat": 0.0, "lon": -77.0176505, "rental_uris": {"android": "https://dc.lft.to/lastmile_qr_scan", "ios": "https://dc.lft.to/lastmile_qr_scan"}, "lat": 38.87222, "type": "electric_scooter", "bike_id": "7584f6f76f116c3fef9cc927069f06a9", "fusion_lon": 0.0, "is_disabled": 0, "name": "7584f6f76f116c3fef9cc927069f06a9"}, {"is_reserved": 0, "fusion_lat": 0.0, "lon": -77.0271925, "rental_uris": {"android": "https://dc.lft.to/lastmile_qr_scan", "ios": "https://dc.lft.to/lastmile_qr_scan"}, "lat": 38.951872, "type": "electric_scooter", "bike_id": "fbb0828a292ac9fe7144cd59efe63843", "fusion_lon": 0.0, "is_disabled": 0, "name": "fbb0828a292ac9fe7144cd59efe63843"}, {"is_reserved": 0, "fusion_lat": 0.0, "lon": -76.9912115, "rental_uris": {"android": "https://dc.lft.to/lastmile_qr_scan", "ios": "https://dc.lft.to/lastmile_qr_scan"}, "lat": 38.84646766666667, "type": "electric_scooter", "bike_id": "61ed4c5fca47878d4f74342864c84558", "fusion_lon": 0.0, "is_disabled": 0, "name": "61ed4c5fca47878d4f74342864c84558"}, {"is_reserved": 0, "fusion_lat": 0.0, "lon": -76.9854375, "rental_uris": {"android": "https://dc.lft.to/lastmile_qr_scan", "ios": "https://dc.lft.to/lastmile_qr_scan"}, "lat": 38.86690733333333, "type": "electric_scooter", "bike_id": "3709ee51ee0ca79b6b18e71ba02ad09a", "fusion_lon": 0.0, "is_disabled": 0, "name": "3709ee51ee0ca79b6b18e71ba02ad09a"}, {"is_reserved": 0, "fusion_lat": 0.0, "lon": -77.04770983333333, "rental_uris": {"android": "https://dc.lft.to/lastmile_qr_scan", "ios": "https://dc.lft.to/lastmile_qr_scan"}, "lat": 38.9096145, "type": "electric_scooter", "bike_id": "2d38b189a904379e1e56694100137cbd", "fusion_lon": 0.0, "is_disabled": 0, "name": "2d38b189a904379e1e56694100137cbd"}, {"is_reserved": 0, "fusion_lat": 0.0, "lon": -77.10786233333333, "rental_uris": {"android": "https://dc.lft.to/lastmile_qr_scan", "ios": "https://dc.lft.to/lastmile_qr_scan"}, "lat": 38.8525085, "type": "electric_bike", "bike_id": "f1308f15598d2dc60538c975ec8ab0c7", "fusion_lon": 0.0, "is_disabled": 0, "name": "f1308f15598d2dc60538c975ec8ab0c7"}, {"is_reserved": 0, "fusion_lat": 0.0, "lon": -76.9973145, "rental_uris": {"android": "https://dc.lft.to/lastmile_qr_scan", "ios": "https://dc.lft.to/lastmile_qr_scan"}, "lat": 38.89936683333333, "type": "electric_scooter", "bike_id": "bb7cdb8c915925de0ccddf4129116d4b", "fusion_lon": 0.0, "is_disabled": 0, "name": "bb7cdb8c915925de0ccddf4129116d4b"}, {"is_reserved": 0, "fusion_lat": 0.0, "lon": -77.016709, "rental_uris": {"android": "https://dc.lft.to/lastmile_qr_scan", "ios": "https://dc.lft.to/lastmile_qr_scan"}, "lat": 38.92052183333333, "type": "electric_scooter", "bike_id": "c4e03fc2d4675220ad58c3d2caa22a88", "fusion_lon": 0.0, "is_disabled": 0, "name": "c4e03fc2d4675220ad58c3d2caa22a88"}, {"is_reserved": 0, "fusion_lat": 0.0, "lon": -76.99697533333334, "rental_uris": {"android": "https://dc.lft.to/lastmile_qr_scan", "ios": "https://dc.lft.to/lastmile_qr_scan"}, "lat": 38.8842425, "type": "electric_scooter", "bike_id": "0bd1e75a7bcd72ef3411e46c1d35469b", "fusion_lon": 0.0, "is_disabled": 0, "name": "0bd1e75a7bcd72ef3411e46c1d35469b"}, {"is_reserved": 0, "fusion_lat": 0.0, "lon": -76.94632416666667, "rental_uris": {"android": "https://dc.lft.to/lastmile_qr_scan", "ios": "https://dc.lft.to/lastmile_qr_scan"}, "lat": 38.8982785, "type": "electric_scooter", "bike_id": "e6ac1f090bef6bdce7567e3c5793cdce", "fusion_lon": 0.0, "is_disabled": 0, "name": "e6ac1f090bef6bdce7567e3c5793cdce"}, {"is_reserved": 0, "fusion_lat": 0.0, "lon": -76.99510566666666, "rental_uris": {"android": "https://dc.lft.to/lastmile_qr_scan", "ios": "https://dc.lft.to/lastmile_qr_scan"}, "lat": 38.82178783333333, "type": "electric_bike", "bike_id": "445a0855fae678ea684aafa0407de28c", "fusion_lon": 0.0, "is_disabled": 0, "name": "445a0855fae678ea684aafa0407de28c"}, {"is_reserved": 0, "fusion_lat": 0.0, "lon": -77.02634916666666, "rental_uris": {"android": "https://dc.lft.to/lastmile_qr_scan", "ios": "https://dc.lft.to/lastmile_qr_scan"}, "lat": 38.904277, "type": "electric_scooter", "bike_id": "52640906b6d8a9034113d91a70f2fa7a", "fusion_lon": 0.0, "is_disabled": 0, "name": "52640906b6d8a9034113d91a70f2fa7a"}, {"is_reserved": 0, "fusion_lat": 0.0, "lon": -77.02165266666667, "rental_uris": {"android": "https://dc.lft.to/lastmile_qr_scan", "ios": "https://dc.lft.to/lastmile_qr_scan"}, "lat": 38.94292383333333, "type": "electric_scooter", "bike_id": "de1d6d69573ae1c90bd261f195146c3e", "fusion_lon": 0.0, "is_disabled": 0, "name": "de1d6d69573ae1c90bd261f195146c3e"}, {"is_reserved": 0, "fusion_lat": 0.0, "lon": -77.02000133333334, "rental_uris": {"android": "https://dc.lft.to/lastmile_qr_scan", "ios": "https://dc.lft.to/lastmile_qr_scan"}, "lat": 38.9157565, "type": "electric_scooter", "bike_id": "ba22b53421757faeedd93944e2e759db", "fusion_lon": 0.0, "is_disabled": 0, "name": "ba22b53421757faeedd93944e2e759db"}, {"is_reserved": 0, "fusion_lat": 0.0, "lon": -76.997661, "rental_uris": {"android": "https://dc.lft.to/lastmile_qr_scan", "ios": "https://dc.lft.to/lastmile_qr_scan"}, "lat": 38.908935666666665, "type": "electric_scooter", "bike_id": "2dfbfb48ca29b807d6bf01f180f54194", "fusion_lon": 0.0, "is_disabled": 0, "name": "2dfbfb48ca29b807d6bf01f180f54194"}, {"is_reserved": 0, "fusion_lat": 0.0, "lon": -77.04361433333334, "rental_uris": {"android": "https://dc.lft.to/lastmile_qr_scan", "ios": "https://dc.lft.to/lastmile_qr_scan"}, "lat": 38.92127333333333, "type": "electric_scooter", "bike_id": "4e39118494107085ebb18f6d1e5b4866", "fusion_lon": 0.0, "is_disabled": 0, "name": "4e39118494107085ebb18f6d1e5b4866"}, {"is_reserved": 0, "fusion_lat": 0.0, "lon": -77.04488716666667, "rental_uris": {"android": "https://dc.lft.to/lastmile_qr_scan", "ios": "https://dc.lft.to/lastmile_qr_scan"}, "lat": 38.89947383333333, "type": "electric_scooter", "bike_id": "57470371e6234fb4fadd440c0a795f53", "fusion_lon": 0.0, "is_disabled": 0, "name": "57470371e6234fb4fadd440c0a795f53"}, {"is_reserved": 0, "fusion_lat": 0.0, "lon": -77.05225316666667, "rental_uris": {"android": "https://dc.lft.to/lastmile_qr_scan", "ios": "https://dc.lft.to/lastmile_qr_scan"}, "lat": 38.92357483333333, "type": "electric_scooter", "bike_id": "ca85cf696b76cdbca6d4fb1272bfc7d9", "fusion_lon": 0.0, "is_disabled": 0, "name": "ca85cf696b76cdbca6d4fb1272bfc7d9"}, {"is_reserved": 0, "fusion_lat": 0.0, "lon": -77.050395, "rental_uris": {"android": "https://dc.lft.to/lastmile_qr_scan", "ios": "https://dc.lft.to/lastmile_qr_scan"}, "lat": 38.92342266666667, "type": "electric_scooter", "bike_id": "eedfd47e7c71158f168b0d4980d22f05", "fusion_lon": 0.0, "is_disabled": 0, "name": "eedfd47e7c71158f168b0d4980d22f05"}, {"is_reserved": 0, "fusion_lat": 0.0, "lon": -77.0167285, "rental_uris": {"android": "https://dc.lft.to/lastmile_qr_scan", "ios": "https://dc.lft.to/lastmile_qr_scan"}, "lat": 38.881115, "type": "electric_scooter", "bike_id": "383b22d309b56da1c7067b2e7cdaeac2", "fusion_lon": 0.0, "is_disabled": 0, "name": "383b22d309b56da1c7067b2e7cdaeac2"}, {"is_reserved": 0, "fusion_lat": 0.0, "lon": -77.02159633333333, "rental_uris": {"android": "https://dc.lft.to/lastmile_qr_scan", "ios": "https://dc.lft.to/lastmile_qr_scan"}, "lat": 38.926134166666664, "type": "electric_scooter", "bike_id": "1928067e49959ac962f3b031bb634c51", "fusion_lon": 0.0, "is_disabled": 0, "name": "1928067e49959ac962f3b031bb634c51"}, {"is_reserved": 0, "fusion_lat": 0.0, "lon": -77.01756816666666, "rental_uris": {"android": "https://dc.lft.to/lastmile_qr_scan", "ios": "https://dc.lft.to/lastmile_qr_scan"}, "lat": 38.877280666666664, "type": "electric_scooter", "bike_id": "ac7b20eae6ba84e78d0a2009659d4679", "fusion_lon": 0.0, "is_disabled": 0, "name": "ac7b20eae6ba84e78d0a2009659d4679"}, {"is_reserved": 0, "fusion_lat": 0.0, "lon": -77.02556333333334, "rental_uris": {"android": "https://dc.lft.to/lastmile_qr_scan", "ios": "https://dc.lft.to/lastmile_qr_scan"}, "lat": 38.94166666666667, "type": "electric_scooter", "bike_id": "fae4411ef623e0315bb95e47687271a9", "fusion_lon": 0.0, "is_disabled": 0, "name": "fae4411ef623e0315bb95e47687271a9"}, {"is_reserved": 0, "fusion_lat": 0.0, "lon": -76.9720985, "rental_uris": {"android": "https://dc.lft.to/lastmile_qr_scan", "ios": "https://dc.lft.to/lastmile_qr_scan"}, "lat": 38.92977883333333, "type": "electric_bike", "bike_id": "5324b8e00288ce1e9daf5c62c9e95f48", "fusion_lon": 0.0, "is_disabled": 0, "name": "5324b8e00288ce1e9daf5c62c9e95f48"}, {"is_reserved": 0, "fusion_lat": 0.0, "lon": -77.0317815, "rental_uris": {"android": "https://dc.lft.to/lastmile_qr_scan", "ios": "https://dc.lft.to/lastmile_qr_scan"}, "lat": 38.91795183333333, "type": "electric_scooter", "bike_id": "ef8fa2c7c34cc158ad8221d13d195ba8", "fusion_lon": 0.0, "is_disabled": 0, "name": "ef8fa2c7c34cc158ad8221d13d195ba8"}, {"is_reserved": 0, "fusion_lat": 0.0, "lon": -77.03239316666667, "rental_uris": {"android": "https://dc.lft.to/lastmile_qr_scan", "ios": "https://dc.lft.to/lastmile_qr_scan"}, "lat": 38.92728116666667, "type": "electric_scooter", "bike_id": "71d0b365af827adb01674a5a71ac5e05", "fusion_lon": 0.0, "is_disabled": 0, "name": "71d0b365af827adb01674a5a71ac5e05"}, {"is_reserved": 0, "fusion_lat": 0.0, "lon": -77.01460766666666, "rental_uris": {"android": "https://dc.lft.to/lastmile_qr_scan", "ios": "https://dc.lft.to/lastmile_qr_scan"}, "lat": 38.926657, "type": "electric_scooter", "bike_id": "d4607d764d17337a4a26c9d1b2d1bf8f", "fusion_lon": 0.0, "is_disabled": 0, "name": "d4607d764d17337a4a26c9d1b2d1bf8f"}, {"is_reserved": 0, "fusion_lat": 0.0, "lon": -76.99409783333333, "rental_uris": {"android": "https://dc.lft.to/lastmile_qr_scan", "ios": "https://dc.lft.to/lastmile_qr_scan"}, "lat": 38.877833833333334, "type": "electric_scooter", "bike_id": "b935b217700d4cad777d9af4ba0a1279", "fusion_lon": 0.0, "is_disabled": 0, "name": "b935b217700d4cad777d9af4ba0a1279"}, {"is_reserved": 0, "fusion_lat": 0.0, "lon": -77.04334983333334, "rental_uris": {"android": "https://dc.lft.to/lastmile_qr_scan", "ios": "https://dc.lft.to/lastmile_qr_scan"}, "lat": 38.90052133333333, "type": "electric_scooter", "bike_id": "e56e6741d72013bc5d9fa5dca4969f83", "fusion_lon": 0.0, "is_disabled": 0, "name": "e56e6741d72013bc5d9fa5dca4969f83"}, {"is_reserved": 0, "fusion_lat": 0.0, "lon": -77.04809816666666, "rental_uris": {"android": "https://dc.lft.to/lastmile_qr_scan", "ios": "https://dc.lft.to/lastmile_qr_scan"}, "lat": 38.89621183333333, "type": "electric_scooter", "bike_id": "13dc241bca9bc3bf90e37ed073494457", "fusion_lon": 0.0, "is_disabled": 0, "name": "13dc241bca9bc3bf90e37ed073494457"}, {"is_reserved": 0, "fusion_lat": 0.0, "lon": -77.05740333333334, "rental_uris": {"android": "https://dc.lft.to/lastmile_qr_scan", "ios": "https://dc.lft.to/lastmile_qr_scan"}, "lat": 38.93391483333333, "type": "electric_scooter", "bike_id": "fd746a67678a6e80c9f64ea047bda7ca", "fusion_lon": 0.0, "is_disabled": 0, "name": "fd746a67678a6e80c9f64ea047bda7ca"}, {"is_reserved": 0, "fusion_lat": 0.0, "lon": -77.0335165, "rental_uris": {"android": "https://dc.lft.to/lastmile_qr_scan", "ios": "https://dc.lft.to/lastmile_qr_scan"}, "lat": 38.925405166666664, "type": "electric_scooter", "bike_id": "7662b98370f1d8276d24c7fc867ba928", "fusion_lon": 0.0, "is_disabled": 0, "name": "7662b98370f1d8276d24c7fc867ba928"}, {"is_reserved": 0, "fusion_lat": 0.0, "lon": -77.02813683333333, "rental_uris": {"android": "https://dc.lft.to/lastmile_qr_scan", "ios": "https://dc.lft.to/lastmile_qr_scan"}, "lat": 38.899207833333335, "type": "electric_scooter", "bike_id": "18096f354f225474a0f6c7008bc3f521", "fusion_lon": 0.0, "is_disabled": 0, "name": "18096f354f225474a0f6c7008bc3f521"}, {"is_reserved": 0, "fusion_lat": 0.0, "lon": -77.04362183333333, "rental_uris": {"android": "https://dc.lft.to/lastmile_qr_scan", "ios": "https://dc.lft.to/lastmile_qr_scan"}, "lat": 38.905731, "type": "electric_scooter", "bike_id": "843e4e462c7bd76bd41f2f3f3310c31a", "fusion_lon": 0.0, "is_disabled": 0, "name": "843e4e462c7bd76bd41f2f3f3310c31a"}, {"is_reserved": 0, "fusion_lat": 0.0, "lon": -77.0021035, "rental_uris": {"android": "https://dc.lft.to/lastmile_qr_scan", "ios": "https://dc.lft.to/lastmile_qr_scan"}, "lat": 38.895241166666665, "type": "electric_scooter", "bike_id": "715737100df5970ea838407dbbbf5660", "fusion_lon": 0.0, "is_disabled": 0, "name": "715737100df5970ea838407dbbbf5660"}, {"is_reserved": 0, "fusion_lat": 0.0, "lon": -77.00341566666667, "rental_uris": {"android": "https://dc.lft.to/lastmile_qr_scan", "ios": "https://dc.lft.to/lastmile_qr_scan"}, "lat": 38.894654, "type": "electric_scooter", "bike_id": "af569d78561e323cb77698cffb618dec", "fusion_lon": 0.0, "is_disabled": 0, "name": "af569d78561e323cb77698cffb618dec"}, {"is_reserved": 0, "fusion_lat": 0.0, "lon": -77.05341533333333, "rental_uris": {"android": "https://dc.lft.to/lastmile_qr_scan", "ios": "https://dc.lft.to/lastmile_qr_scan"}, "lat": 38.927303, "type": "electric_scooter", "bike_id": "4acaa7426df41df369bb6fb2a7693aec", "fusion_lon": 0.0, "is_disabled": 0, "name": "4acaa7426df41df369bb6fb2a7693aec"}, {"is_reserved": 0, "fusion_lat": 0.0, "lon": -77.02278166666666, "rental_uris": {"android": "https://dc.lft.to/lastmile_qr_scan", "ios": "https://dc.lft.to/lastmile_qr_scan"}, "lat": 38.91414433333333, "type": "electric_scooter", "bike_id": "9d2f038739079bef5f4222c441e96552", "fusion_lon": 0.0, "is_disabled": 0, "name": "9d2f038739079bef5f4222c441e96552"}, {"is_reserved": 0, "fusion_lat": 0.0, "lon": -76.983165, "rental_uris": {"android": "https://dc.lft.to/lastmile_qr_scan", "ios": "https://dc.lft.to/lastmile_qr_scan"}, "lat": 38.90436533333333, "type": "electric_scooter", "bike_id": "2d77002020ca4737321f4541dc1e08fe", "fusion_lon": 0.0, "is_disabled": 0, "name": "2d77002020ca4737321f4541dc1e08fe"}, {"is_reserved": 0, "fusion_lat": 0.0, "lon": -77.026829, "rental_uris": {"android": "https://dc.lft.to/lastmile_qr_scan", "ios": "https://dc.lft.to/lastmile_qr_scan"}, "lat": 38.897035333333335, "type": "electric_scooter", "bike_id": "08299969622bf1adf0a35d23f9d63c45", "fusion_lon": 0.0, "is_disabled": 0, "name": "08299969622bf1adf0a35d23f9d63c45"}, {"is_reserved": 0, "fusion_lat": 0.0, "lon": -77.05249033333334, "rental_uris": {"android": "https://dc.lft.to/lastmile_qr_scan", "ios": "https://dc.lft.to/lastmile_qr_scan"}, "lat": 38.90514016666667, "type": "electric_scooter", "bike_id": "e47aa1349fabde944bfacae197767a18", "fusion_lon": 0.0, "is_disabled": 0, "name": "e47aa1349fabde944bfacae197767a18"}, {"is_reserved": 0, "fusion_lat": 0.0, "lon": -77.05071733333334, "rental_uris": {"android": "https://dc.lft.to/lastmile_qr_scan", "ios": "https://dc.lft.to/lastmile_qr_scan"}, "lat": 38.90067716666667, "type": "electric_scooter", "bike_id": "b8fd6f61eae30dccd3730d7fce57bea3", "fusion_lon": 0.0, "is_disabled": 0, "name": "b8fd6f61eae30dccd3730d7fce57bea3"}, {"is_reserved": 0, "fusion_lat": 0.0, "lon": -76.99158216666666, "rental_uris": {"android": "https://dc.lft.to/lastmile_qr_scan", "ios": "https://dc.lft.to/lastmile_qr_scan"}, "lat": 38.90139633333333, "type": "electric_scooter", "bike_id": "ce943229cbd4e8c87baf98d35acd5352", "fusion_lon": 0.0, "is_disabled": 0, "name": "ce943229cbd4e8c87baf98d35acd5352"}, {"is_reserved": 0, "fusion_lat": 0.0, "lon": -77.011848, "rental_uris": {"android": "https://dc.lft.to/lastmile_qr_scan", "ios": "https://dc.lft.to/lastmile_qr_scan"}, "lat": 38.900250666666665, "type": "electric_scooter", "bike_id": "6346c460aeedf9003dbd1d6c9d76e1fb", "fusion_lon": 0.0, "is_disabled": 0, "name": "6346c460aeedf9003dbd1d6c9d76e1fb"}, {"is_reserved": 0, "fusion_lat": 0.0, "lon": -77.024845, "rental_uris": {"android": "https://dc.lft.to/lastmile_qr_scan", "ios": "https://dc.lft.to/lastmile_qr_scan"}, "lat": 38.938536666666664, "type": "electric_scooter", "bike_id": "7867700c2d711b652f364a9b155a5c97", "fusion_lon": 0.0, "is_disabled": 0, "name": "7867700c2d711b652f364a9b155a5c97"}, {"is_reserved": 0, "fusion_lat": 0.0, "lon": -77.05130366666667, "rental_uris": {"android": "https://dc.lft.to/lastmile_qr_scan", "ios": "https://dc.lft.to/lastmile_qr_scan"}, "lat": 38.925215, "type": "electric_scooter", "bike_id": "41b1f31bc493b886b065de72f2351bc8", "fusion_lon": 0.0, "is_disabled": 0, "name": "41b1f31bc493b886b065de72f2351bc8"}, {"is_reserved": 0, "fusion_lat": 0.0, "lon": -77.026281, "rental_uris": {"android": "https://dc.lft.to/lastmile_qr_scan", "ios": "https://dc.lft.to/lastmile_qr_scan"}, "lat": 38.8877045, "type": "electric_scooter", "bike_id": "be0f0fd7ab9375842462449c511bfc9b", "fusion_lon": 0.0, "is_disabled": 0, "name": "be0f0fd7ab9375842462449c511bfc9b"}, {"is_reserved": 0, "fusion_lat": 0.0, "lon": -77.0255575, "rental_uris": {"android": "https://dc.lft.to/lastmile_qr_scan", "ios": "https://dc.lft.to/lastmile_qr_scan"}, "lat": 38.94166116666667, "type": "electric_scooter", "bike_id": "719407f25130283bcfe0fd4621677d56", "fusion_lon": 0.0, "is_disabled": 0, "name": "719407f25130283bcfe0fd4621677d56"}, {"is_reserved": 0, "fusion_lat": 0.0, "lon": -77.05101666666667, "rental_uris": {"android": "https://dc.lft.to/lastmile_qr_scan", "ios": "https://dc.lft.to/lastmile_qr_scan"}, "lat": 38.923638833333335, "type": "electric_scooter", "bike_id": "634e89ec84c619918dbf9cef75520e36", "fusion_lon": 0.0, "is_disabled": 0, "name": "634e89ec84c619918dbf9cef75520e36"}, {"is_reserved": 0, "fusion_lat": 0.0, "lon": -77.07718983333334, "rental_uris": {"android": "https://dc.lft.to/lastmile_qr_scan", "ios": "https://dc.lft.to/lastmile_qr_scan"}, "lat": 38.941058, "type": "electric_scooter", "bike_id": "cbde74bba9245eb49dfa5a9d6235e405", "fusion_lon": 0.0, "is_disabled": 0, "name": "cbde74bba9245eb49dfa5a9d6235e405"}, {"is_reserved": 0, "fusion_lat": 0.0, "lon": -77.00590633333333, "rental_uris": {"android": "https://dc.lft.to/lastmile_qr_scan", "ios": "https://dc.lft.to/lastmile_qr_scan"}, "lat": 38.876731, "type": "electric_scooter", "bike_id": "f05e2cdbb7bdd9731ab7b8261f22757b", "fusion_lon": 0.0, "is_disabled": 0, "name": "f05e2cdbb7bdd9731ab7b8261f22757b"}, {"is_reserved": 0, "fusion_lat": 0.0, "lon": -76.966985, "rental_uris": {"android": "https://dc.lft.to/lastmile_qr_scan", "ios": "https://dc.lft.to/lastmile_qr_scan"}, "lat": 38.856224, "type": "electric_scooter", "bike_id": "048d62fe5f4a9f87f9b96895e86fd7ba", "fusion_lon": 0.0, "is_disabled": 0, "name": "048d62fe5f4a9f87f9b96895e86fd7ba"}, {"is_reserved": 0, "fusion_lat": 0.0, "lon": -76.97853116666667, "rental_uris": {"android": "https://dc.lft.to/lastmile_qr_scan", "ios": "https://dc.lft.to/lastmile_qr_scan"}, "lat": 38.84470816666666, "type": "electric_bike", "bike_id": "04bb294fc761303ed5c8581b8dc29499", "fusion_lon": 0.0, "is_disabled": 0, "name": "04bb294fc761303ed5c8581b8dc29499"}, {"is_reserved": 0, "fusion_lat": 0.0, "lon": -76.99523183333334, "rental_uris": {"android": "https://dc.lft.to/lastmile_qr_scan", "ios": "https://dc.lft.to/lastmile_qr_scan"}, "lat": 38.879256, "type": "electric_scooter", "bike_id": "36ca36b6ac9ccc8366442a53cefc105d", "fusion_lon": 0.0, "is_disabled": 0, "name": "36ca36b6ac9ccc8366442a53cefc105d"}, {"is_reserved": 0, "fusion_lat": 0.0, "lon": -77.01207833333333, "rental_uris": {"android": "https://dc.lft.to/lastmile_qr_scan", "ios": "https://dc.lft.to/lastmile_qr_scan"}, "lat": 38.896943666666665, "type": "electric_scooter", "bike_id": "469c6b069f6cfcb232ac4a697962ebb1", "fusion_lon": 0.0, "is_disabled": 0, "name": "469c6b069f6cfcb232ac4a697962ebb1"}, {"is_reserved": 0, "fusion_lat": 0.0, "lon": -77.0229185, "rental_uris": {"android": "https://dc.lft.to/lastmile_qr_scan", "ios": "https://dc.lft.to/lastmile_qr_scan"}, "lat": 38.8971085, "type": "electric_scooter", "bike_id": "68397ce0b559533e1d4b8c56c6861e95", "fusion_lon": 0.0, "is_disabled": 0, "name": "68397ce0b559533e1d4b8c56c6861e95"}, {"is_reserved": 0, "fusion_lat": 0.0, "lon": -77.0488455, "rental_uris": {"android": "https://dc.lft.to/lastmile_qr_scan", "ios": "https://dc.lft.to/lastmile_qr_scan"}, "lat": 38.898699, "type": "electric_scooter", "bike_id": "b3ee0d8fa63c3d66c59556621b266edb", "fusion_lon": 0.0, "is_disabled": 0, "name": "b3ee0d8fa63c3d66c59556621b266edb"}, {"is_reserved": 0, "fusion_lat": 0.0, "lon": -77.02558766666667, "rental_uris": {"android": "https://dc.lft.to/lastmile_qr_scan", "ios": "https://dc.lft.to/lastmile_qr_scan"}, "lat": 38.9096545, "type": "electric_scooter", "bike_id": "cc62ea4e982cb18278b9b8c3f5f8b2e2", "fusion_lon": 0.0, "is_disabled": 0, "name": "cc62ea4e982cb18278b9b8c3f5f8b2e2"}, {"is_reserved": 0, "fusion_lat": 0.0, "lon": -77.038623, "rental_uris": {"android": "https://dc.lft.to/lastmile_qr_scan", "ios": "https://dc.lft.to/lastmile_qr_scan"}, "lat": 38.90383766666667, "type": "electric_scooter", "bike_id": "cac4eaa63d6a6b29dd555eba16d6e10e", "fusion_lon": 0.0, "is_disabled": 0, "name": "cac4eaa63d6a6b29dd555eba16d6e10e"}, {"is_reserved": 0, "fusion_lat": 0.0, "lon": -77.00343216666667, "rental_uris": {"android": "https://dc.lft.to/lastmile_qr_scan", "ios": "https://dc.lft.to/lastmile_qr_scan"}, "lat": 38.894673833333336, "type": "electric_scooter", "bike_id": "8b7a65e085d395c57525c3d5517ac34f", "fusion_lon": 0.0, "is_disabled": 0, "name": "8b7a65e085d395c57525c3d5517ac34f"}, {"is_reserved": 0, "fusion_lat": 0.0, "lon": -77.03242116666667, "rental_uris": {"android": "https://dc.lft.to/lastmile_qr_scan", "ios": "https://dc.lft.to/lastmile_qr_scan"}, "lat": 38.92735316666667, "type": "electric_scooter", "bike_id": "91540e057d6cb2a6166a18a681a039aa", "fusion_lon": 0.0, "is_disabled": 0, "name": "91540e057d6cb2a6166a18a681a039aa"}, {"is_reserved": 0, "fusion_lat": 0.0, "lon": -77.005687, "rental_uris": {"android": "https://dc.lft.to/lastmile_qr_scan", "ios": "https://dc.lft.to/lastmile_qr_scan"}, "lat": 38.8765965, "type": "electric_scooter", "bike_id": "d64a448a8bbca0f0296a65863719ac34", "fusion_lon": 0.0, "is_disabled": 0, "name": "d64a448a8bbca0f0296a65863719ac34"}, {"is_reserved": 0, "fusion_lat": 0.0, "lon": -77.0416035, "rental_uris": {"android": "https://dc.lft.to/lastmile_qr_scan", "ios": "https://dc.lft.to/lastmile_qr_scan"}, "lat": 38.89235033333333, "type": "electric_scooter", "bike_id": "44549cb357f3a96e65ef87e455e5bdd1", "fusion_lon": 0.0, "is_disabled": 0, "name": "44549cb357f3a96e65ef87e455e5bdd1"}, {"is_reserved": 0, "fusion_lat": 0.0, "lon": -76.9516365, "rental_uris": {"android": "https://dc.lft.to/lastmile_qr_scan", "ios": "https://dc.lft.to/lastmile_qr_scan"}, "lat": 38.885175333333336, "type": "electric_bike", "bike_id": "d3194993358362f513264a8603e715b5", "fusion_lon": 0.0, "is_disabled": 0, "name": "d3194993358362f513264a8603e715b5"}, {"is_reserved": 0, "fusion_lat": 0.0, "lon": -77.03169683333333, "rental_uris": {"android": "https://dc.lft.to/lastmile_qr_scan", "ios": "https://dc.lft.to/lastmile_qr_scan"}, "lat": 38.91419283333333, "type": "electric_scooter", "bike_id": "b210e20c08ed631204916a25f9bcf009", "fusion_lon": 0.0, "is_disabled": 0, "name": "b210e20c08ed631204916a25f9bcf009"}, {"is_reserved": 0, "fusion_lat": 0.0, "lon": -77.03860266666666, "rental_uris": {"android": "https://dc.lft.to/lastmile_qr_scan", "ios": "https://dc.lft.to/lastmile_qr_scan"}, "lat": 38.903521166666664, "type": "electric_scooter", "bike_id": "02f39ef6cf5cb58444dba6d56d15cce2", "fusion_lon": 0.0, "is_disabled": 0, "name": "02f39ef6cf5cb58444dba6d56d15cce2"}, {"is_reserved": 0, "fusion_lat": 0.0, "lon": -76.98999566666667, "rental_uris": {"android": "https://dc.lft.to/lastmile_qr_scan", "ios": "https://dc.lft.to/lastmile_qr_scan"}, "lat": 38.86504883333333, "type": "electric_scooter", "bike_id": "b8f1055f32e79701f43d7433a67a53a1", "fusion_lon": 0.0, "is_disabled": 0, "name": "b8f1055f32e79701f43d7433a67a53a1"}, {"is_reserved": 0, "fusion_lat": 0.0, "lon": -76.94813333333333, "rental_uris": {"android": "https://dc.lft.to/lastmile_qr_scan", "ios": "https://dc.lft.to/lastmile_qr_scan"}, "lat": 38.89369933333333, "type": "electric_scooter", "bike_id": "ce325726b3bacd196a3af98f1ebe63f1", "fusion_lon": 0.0, "is_disabled": 0, "name": "ce325726b3bacd196a3af98f1ebe63f1"}, {"is_reserved": 0, "fusion_lat": 0.0, "lon": -77.0278835, "rental_uris": {"android": "https://dc.lft.to/lastmile_qr_scan", "ios": "https://dc.lft.to/lastmile_qr_scan"}, "lat": 38.917093, "type": "electric_scooter", "bike_id": "63ba1eacd4d526be3bedcd5b2a027ac3", "fusion_lon": 0.0, "is_disabled": 0, "name": "63ba1eacd4d526be3bedcd5b2a027ac3"}, {"is_reserved": 0, "fusion_lat": 0.0, "lon": -77.038121, "rental_uris": {"android": "https://dc.lft.to/lastmile_qr_scan", "ios": "https://dc.lft.to/lastmile_qr_scan"}, "lat": 38.90678883333333, "type": "electric_scooter", "bike_id": "3804bc52d65230b4bcba6dc21a34bffc", "fusion_lon": 0.0, "is_disabled": 0, "name": "3804bc52d65230b4bcba6dc21a34bffc"}, {"is_reserved": 0, "fusion_lat": 0.0, "lon": -76.94855683333333, "rental_uris": {"android": "https://dc.lft.to/lastmile_qr_scan", "ios": "https://dc.lft.to/lastmile_qr_scan"}, "lat": 38.88301366666666, "type": "electric_scooter", "bike_id": "cc08166bc9cf803e7d7d1253084ce6a0", "fusion_lon": 0.0, "is_disabled": 0, "name": "cc08166bc9cf803e7d7d1253084ce6a0"}, {"is_reserved": 0, "fusion_lat": 0.0, "lon": -77.0317855, "rental_uris": {"android": "https://dc.lft.to/lastmile_qr_scan", "ios": "https://dc.lft.to/lastmile_qr_scan"}, "lat": 38.8924905, "type": "electric_scooter", "bike_id": "779dc0580a15f64dfef16d1dc68709fb", "fusion_lon": 0.0, "is_disabled": 0, "name": "779dc0580a15f64dfef16d1dc68709fb"}, {"is_reserved": 0, "fusion_lat": 0.0, "lon": -77.01655133333334, "rental_uris": {"android": "https://dc.lft.to/lastmile_qr_scan", "ios": "https://dc.lft.to/lastmile_qr_scan"}, "lat": 38.881331, "type": "electric_scooter", "bike_id": "9d338c5b4bac9f13bc096762c20f4238", "fusion_lon": 0.0, "is_disabled": 0, "name": "9d338c5b4bac9f13bc096762c20f4238"}, {"is_reserved": 0, "fusion_lat": 0.0, "lon": -77.00058766666666, "rental_uris": {"android": "https://dc.lft.to/lastmile_qr_scan", "ios": "https://dc.lft.to/lastmile_qr_scan"}, "lat": 38.8870295, "type": "electric_scooter", "bike_id": "1acba607d9223a8eecab83c93ff9654c", "fusion_lon": 0.0, "is_disabled": 0, "name": "1acba607d9223a8eecab83c93ff9654c"}, {"is_reserved": 0, "fusion_lat": 0.0, "lon": -77.02807066666666, "rental_uris": {"android": "https://dc.lft.to/lastmile_qr_scan", "ios": "https://dc.lft.to/lastmile_qr_scan"}, "lat": 38.91724266666667, "type": "electric_scooter", "bike_id": "868773bd7049c406ef6c9f0376df8845", "fusion_lon": 0.0, "is_disabled": 0, "name": "868773bd7049c406ef6c9f0376df8845"}, {"is_reserved": 0, "fusion_lat": 0.0, "lon": -77.03433466666667, "rental_uris": {"android": "https://dc.lft.to/lastmile_qr_scan", "ios": "https://dc.lft.to/lastmile_qr_scan"}, "lat": 38.90302583333333, "type": "electric_scooter", "bike_id": "cd65175232995e2a25fa54c290c10ae3", "fusion_lon": 0.0, "is_disabled": 0, "name": "cd65175232995e2a25fa54c290c10ae3"}, {"is_reserved": 0, "fusion_lat": 0.0, "lon": -77.02153183333333, "rental_uris": {"android": "https://dc.lft.to/lastmile_qr_scan", "ios": "https://dc.lft.to/lastmile_qr_scan"}, "lat": 38.92603366666667, "type": "electric_scooter", "bike_id": "313db6f213cc678d2c7657a521c30052", "fusion_lon": 0.0, "is_disabled": 0, "name": "313db6f213cc678d2c7657a521c30052"}, {"is_reserved": 0, "fusion_lat": 0.0, "lon": -77.0442275, "rental_uris": {"android": "https://dc.lft.to/lastmile_qr_scan", "ios": "https://dc.lft.to/lastmile_qr_scan"}, "lat": 38.894059666666664, "type": "electric_scooter", "bike_id": "2f9c4233118ff0676d51bce73b7eafb2", "fusion_lon": 0.0, "is_disabled": 0, "name": "2f9c4233118ff0676d51bce73b7eafb2"}, {"is_reserved": 0, "fusion_lat": 0.0, "lon": -77.03866466666666, "rental_uris": {"android": "https://dc.lft.to/lastmile_qr_scan", "ios": "https://dc.lft.to/lastmile_qr_scan"}, "lat": 38.90637733333333, "type": "electric_scooter", "bike_id": "239df67dae69422350c6666a3e41e90b", "fusion_lon": 0.0, "is_disabled": 0, "name": "239df67dae69422350c6666a3e41e90b"}, {"is_reserved": 0, "fusion_lat": 0.0, "lon": -77.021757, "rental_uris": {"android": "https://dc.lft.to/lastmile_qr_scan", "ios": "https://dc.lft.to/lastmile_qr_scan"}, "lat": 38.89376816666667, "type": "electric_scooter", "bike_id": "d301a95681485030ff2651c38fa208c4", "fusion_lon": 0.0, "is_disabled": 0, "name": "d301a95681485030ff2651c38fa208c4"}, {"is_reserved": 0, "fusion_lat": 0.0, "lon": -76.98553933333334, "rental_uris": {"android": "https://dc.lft.to/lastmile_qr_scan", "ios": "https://dc.lft.to/lastmile_qr_scan"}, "lat": 38.899966, "type": "electric_scooter", "bike_id": "ccbd6ba40b3114a9c3a9e755848360ac", "fusion_lon": 0.0, "is_disabled": 0, "name": "ccbd6ba40b3114a9c3a9e755848360ac"}, {"is_reserved": 0, "fusion_lat": 0.0, "lon": -77.0021715, "rental_uris": {"android": "https://dc.lft.to/lastmile_qr_scan", "ios": "https://dc.lft.to/lastmile_qr_scan"}, "lat": 38.91462933333333, "type": "electric_scooter", "bike_id": "be0bd1a66802d6c8ddc60dabce357ae3", "fusion_lon": 0.0, "is_disabled": 0, "name": "be0bd1a66802d6c8ddc60dabce357ae3"}, {"is_reserved": 0, "fusion_lat": 0.0, "lon": -77.02229333333334, "rental_uris": {"android": "https://dc.lft.to/lastmile_qr_scan", "ios": "https://dc.lft.to/lastmile_qr_scan"}, "lat": 38.88770616666667, "type": "electric_scooter", "bike_id": "a948a7be2ca040b83751729b2138e3e6", "fusion_lon": 0.0, "is_disabled": 0, "name": "a948a7be2ca040b83751729b2138e3e6"}, {"is_reserved": 0, "fusion_lat": 0.0, "lon": -76.95668683333334, "rental_uris": {"android": "https://dc.lft.to/lastmile_qr_scan", "ios": "https://dc.lft.to/lastmile_qr_scan"}, "lat": 38.884949166666665, "type": "electric_bike", "bike_id": "308d3f73625eaf90f9d96e92c2677cd3", "fusion_lon": 0.0, "is_disabled": 0, "name": "308d3f73625eaf90f9d96e92c2677cd3"}, {"is_reserved": 0, "fusion_lat": 0.0, "lon": -77.03639833333334, "rental_uris": {"android": "https://dc.lft.to/lastmile_qr_scan", "ios": "https://dc.lft.to/lastmile_qr_scan"}, "lat": 38.91734016666667, "type": "electric_scooter", "bike_id": "573e41bab4661ab4cc39fc35f8770a2b", "fusion_lon": 0.0, "is_disabled": 0, "name": "573e41bab4661ab4cc39fc35f8770a2b"}, {"is_reserved": 0, "fusion_lat": 0.0, "lon": -77.022631, "rental_uris": {"android": "https://dc.lft.to/lastmile_qr_scan", "ios": "https://dc.lft.to/lastmile_qr_scan"}, "lat": 38.912708, "type": "electric_scooter", "bike_id": "12ab3563b498355bb02fd09270e6973b", "fusion_lon": 0.0, "is_disabled": 0, "name": "12ab3563b498355bb02fd09270e6973b"}, {"is_reserved": 0, "fusion_lat": 0.0, "lon": -77.04025133333333, "rental_uris": {"android": "https://dc.lft.to/lastmile_qr_scan", "ios": "https://dc.lft.to/lastmile_qr_scan"}, "lat": 38.92449083333333, "type": "electric_scooter", "bike_id": "7e4cbac193dbe643d39ea0ecb5fd4a09", "fusion_lon": 0.0, "is_disabled": 0, "name": "7e4cbac193dbe643d39ea0ecb5fd4a09"}, {"is_reserved": 0, "fusion_lat": 0.0, "lon": -77.00112366666667, "rental_uris": {"android": "https://dc.lft.to/lastmile_qr_scan", "ios": "https://dc.lft.to/lastmile_qr_scan"}, "lat": 38.87370416666667, "type": "electric_scooter", "bike_id": "eee0f0665d80071f070b4acfd5ad6976", "fusion_lon": 0.0, "is_disabled": 0, "name": "eee0f0665d80071f070b4acfd5ad6976"}, {"is_reserved": 0, "fusion_lat": 0.0, "lon": -77.04480783333334, "rental_uris": {"android": "https://dc.lft.to/lastmile_qr_scan", "ios": "https://dc.lft.to/lastmile_qr_scan"}, "lat": 38.901147, "type": "electric_scooter", "bike_id": "f2426307cd62ec448520d625dcdaefc5", "fusion_lon": 0.0, "is_disabled": 0, "name": "f2426307cd62ec448520d625dcdaefc5"}, {"is_reserved": 0, "fusion_lat": 0.0, "lon": -76.97996316666666, "rental_uris": {"android": "https://dc.lft.to/lastmile_qr_scan", "ios": "https://dc.lft.to/lastmile_qr_scan"}, "lat": 38.90680416666667, "type": "electric_scooter", "bike_id": "49a6a04642b6c79958e996b36795498c", "fusion_lon": 0.0, "is_disabled": 0, "name": "49a6a04642b6c79958e996b36795498c"}, {"is_reserved": 0, "fusion_lat": 0.0, "lon": -77.00147916666667, "rental_uris": {"android": "https://dc.lft.to/lastmile_qr_scan", "ios": "https://dc.lft.to/lastmile_qr_scan"}, "lat": 38.873087166666664, "type": "electric_scooter", "bike_id": "e4d504d5fec942657518bf681bd5f97c", "fusion_lon": 0.0, "is_disabled": 0, "name": "e4d504d5fec942657518bf681bd5f97c"}, {"is_reserved": 0, "fusion_lat": 0.0, "lon": -77.035742, "rental_uris": {"android": "https://dc.lft.to/lastmile_qr_scan", "ios": "https://dc.lft.to/lastmile_qr_scan"}, "lat": 38.90380016666667, "type": "electric_scooter", "bike_id": "d68f80d1c0fa6a763888b69a381056dd", "fusion_lon": 0.0, "is_disabled": 0, "name": "d68f80d1c0fa6a763888b69a381056dd"}, {"is_reserved": 0, "fusion_lat": 0.0, "lon": -76.97370916666667, "rental_uris": {"android": "https://dc.lft.to/lastmile_qr_scan", "ios": "https://dc.lft.to/lastmile_qr_scan"}, "lat": 38.963188833333334, "type": "electric_bike", "bike_id": "a9ab6f7ba7d5e2ee8133ecd5c539ef97", "fusion_lon": 0.0, "is_disabled": 0, "name": "a9ab6f7ba7d5e2ee8133ecd5c539ef97"}, {"is_reserved": 0, "fusion_lat": 0.0, "lon": -77.01400633333333, "rental_uris": {"android": "https://dc.lft.to/lastmile_qr_scan", "ios": "https://dc.lft.to/lastmile_qr_scan"}, "lat": 38.94232933333333, "type": "electric_scooter", "bike_id": "9b94dd08a3245f433b81040f030fff64", "fusion_lon": 0.0, "is_disabled": 0, "name": "9b94dd08a3245f433b81040f030fff64"}, {"is_reserved": 0, "fusion_lat": 0.0, "lon": -76.97254166666667, "rental_uris": {"android": "https://dc.lft.to/lastmile_qr_scan", "ios": "https://dc.lft.to/lastmile_qr_scan"}, "lat": 38.95747733333333, "type": "electric_bike", "bike_id": "df21208419a8dad72518688225165526", "fusion_lon": 0.0, "is_disabled": 0, "name": "df21208419a8dad72518688225165526"}, {"is_reserved": 0, "fusion_lat": 0.0, "lon": -77.02480316666667, "rental_uris": {"android": "https://dc.lft.to/lastmile_qr_scan", "ios": "https://dc.lft.to/lastmile_qr_scan"}, "lat": 38.965023, "type": "electric_scooter", "bike_id": "86fdf368c8f9bd831e4be3d3cf91c8de", "fusion_lon": 0.0, "is_disabled": 0, "name": "86fdf368c8f9bd831e4be3d3cf91c8de"}, {"is_reserved": 0, "fusion_lat": 0.0, "lon": -77.08306066666667, "rental_uris": {"android": "https://dc.lft.to/lastmile_qr_scan", "ios": "https://dc.lft.to/lastmile_qr_scan"}, "lat": 38.928505333333334, "type": "electric_scooter", "bike_id": "2340db74cc21ba6089d99a372a906f79", "fusion_lon": 0.0, "is_disabled": 0, "name": "2340db74cc21ba6089d99a372a906f79"}, {"is_reserved": 0, "fusion_lat": 0.0, "lon": -77.01077, "rental_uris": {"android": "https://dc.lft.to/lastmile_qr_scan", "ios": "https://dc.lft.to/lastmile_qr_scan"}, "lat": 38.9095785, "type": "electric_scooter", "bike_id": "53f13c6ac6c19d13a7e0fe0495ada0f4", "fusion_lon": 0.0, "is_disabled": 0, "name": "53f13c6ac6c19d13a7e0fe0495ada0f4"}, {"is_reserved": 0, "fusion_lat": 0.0, "lon": -76.93023683333334, "rental_uris": {"android": "https://dc.lft.to/lastmile_qr_scan", "ios": "https://dc.lft.to/lastmile_qr_scan"}, "lat": 38.901687833333334, "type": "electric_scooter", "bike_id": "503f6d33061f95858dc2b8513357a7e2", "fusion_lon": 0.0, "is_disabled": 0, "name": "503f6d33061f95858dc2b8513357a7e2"}, {"is_reserved": 0, "fusion_lat": 0.0, "lon": -77.04166033333334, "rental_uris": {"android": "https://dc.lft.to/lastmile_qr_scan", "ios": "https://dc.lft.to/lastmile_qr_scan"}, "lat": 38.906661166666666, "type": "electric_scooter", "bike_id": "d2d04b3da4cb01ac58f6e495de9e8e47", "fusion_lon": 0.0, "is_disabled": 0, "name": "d2d04b3da4cb01ac58f6e495de9e8e47"}, {"is_reserved": 0, "fusion_lat": 0.0, "lon": -77.0261855, "rental_uris": {"android": "https://dc.lft.to/lastmile_qr_scan", "ios": "https://dc.lft.to/lastmile_qr_scan"}, "lat": 38.8944845, "type": "electric_scooter", "bike_id": "5421a66a9a1b06d9fcc398b616530ac8", "fusion_lon": 0.0, "is_disabled": 0, "name": "5421a66a9a1b06d9fcc398b616530ac8"}, {"is_reserved": 0, "fusion_lat": 0.0, "lon": -77.03467366666666, "rental_uris": {"android": "https://dc.lft.to/lastmile_qr_scan", "ios": "https://dc.lft.to/lastmile_qr_scan"}, "lat": 38.904526833333335, "type": "electric_scooter", "bike_id": "0afb36365565ef570ea8e06d9cfc6360", "fusion_lon": 0.0, "is_disabled": 0, "name": "0afb36365565ef570ea8e06d9cfc6360"}, {"is_reserved": 0, "fusion_lat": 0.0, "lon": -77.03227, "rental_uris": {"android": "https://dc.lft.to/lastmile_qr_scan", "ios": "https://dc.lft.to/lastmile_qr_scan"}, "lat": 38.92590883333333, "type": "electric_scooter", "bike_id": "10b318ccfe48e5d32ae370d8a557d874", "fusion_lon": 0.0, "is_disabled": 0, "name": "10b318ccfe48e5d32ae370d8a557d874"}, {"is_reserved": 0, "fusion_lat": 0.0, "lon": -77.00204366666667, "rental_uris": {"android": "https://dc.lft.to/lastmile_qr_scan", "ios": "https://dc.lft.to/lastmile_qr_scan"}, "lat": 38.902397, "type": "electric_scooter", "bike_id": "b3465101760e8135468b4a9497ebdc04", "fusion_lon": 0.0, "is_disabled": 0, "name": "b3465101760e8135468b4a9497ebdc04"}, {"is_reserved": 0, "fusion_lat": 0.0, "lon": -77.07251466666666, "rental_uris": {"android": "https://dc.lft.to/lastmile_qr_scan", "ios": "https://dc.lft.to/lastmile_qr_scan"}, "lat": 38.90783833333333, "type": "electric_scooter", "bike_id": "351c883d75fa2549fd9558cf3ccf1cee", "fusion_lon": 0.0, "is_disabled": 0, "name": "351c883d75fa2549fd9558cf3ccf1cee"}, {"is_reserved": 0, "fusion_lat": 0.0, "lon": -77.0198025, "rental_uris": {"android": "https://dc.lft.to/lastmile_qr_scan", "ios": "https://dc.lft.to/lastmile_qr_scan"}, "lat": 38.887212, "type": "electric_scooter", "bike_id": "5a98fce5f8ab0cefc040c7d0dd070d6c", "fusion_lon": 0.0, "is_disabled": 0, "name": "5a98fce5f8ab0cefc040c7d0dd070d6c"}, {"is_reserved": 0, "fusion_lat": 0.0, "lon": -77.02587483333333, "rental_uris": {"android": "https://dc.lft.to/lastmile_qr_scan", "ios": "https://dc.lft.to/lastmile_qr_scan"}, "lat": 38.914111166666665, "type": "electric_scooter", "bike_id": "3850844a240689f73e45665085364dc0", "fusion_lon": 0.0, "is_disabled": 0, "name": "3850844a240689f73e45665085364dc0"}, {"is_reserved": 0, "fusion_lat": 0.0, "lon": -77.03445633333334, "rental_uris": {"android": "https://dc.lft.to/lastmile_qr_scan", "ios": "https://dc.lft.to/lastmile_qr_scan"}, "lat": 38.90555633333334, "type": "electric_scooter", "bike_id": "51e1e2cb3a196ee48910abf2a3304877", "fusion_lon": 0.0, "is_disabled": 0, "name": "51e1e2cb3a196ee48910abf2a3304877"}, {"is_reserved": 0, "fusion_lat": 0.0, "lon": -77.05988983333333, "rental_uris": {"android": "https://dc.lft.to/lastmile_qr_scan", "ios": "https://dc.lft.to/lastmile_qr_scan"}, "lat": 38.938204666666664, "type": "electric_scooter", "bike_id": "b46cbd7669cdb1304d49d6aa1ea59ff7", "fusion_lon": 0.0, "is_disabled": 0, "name": "b46cbd7669cdb1304d49d6aa1ea59ff7"}, {"is_reserved": 0, "fusion_lat": 0.0, "lon": -77.041375, "rental_uris": {"android": "https://dc.lft.to/lastmile_qr_scan", "ios": "https://dc.lft.to/lastmile_qr_scan"}, "lat": 38.9137945, "type": "electric_scooter", "bike_id": "b3c0c4c634c118fb632c903df1c282af", "fusion_lon": 0.0, "is_disabled": 0, "name": "b3c0c4c634c118fb632c903df1c282af"}, {"is_reserved": 0, "fusion_lat": 0.0, "lon": -77.024866, "rental_uris": {"android": "https://dc.lft.to/lastmile_qr_scan", "ios": "https://dc.lft.to/lastmile_qr_scan"}, "lat": 38.938951, "type": "electric_scooter", "bike_id": "20e15262d42f0268b4565efcdf51ed32", "fusion_lon": 0.0, "is_disabled": 0, "name": "20e15262d42f0268b4565efcdf51ed32"}, {"is_reserved": 0, "fusion_lat": 0.0, "lon": -77.06120933333334, "rental_uris": {"android": "https://dc.lft.to/lastmile_qr_scan", "ios": "https://dc.lft.to/lastmile_qr_scan"}, "lat": 38.90199066666667, "type": "electric_scooter", "bike_id": "69b6ec8c778602c78a642d09aaf116ce", "fusion_lon": 0.0, "is_disabled": 0, "name": "69b6ec8c778602c78a642d09aaf116ce"}, {"is_reserved": 0, "fusion_lat": 0.0, "lon": -76.99060883333334, "rental_uris": {"android": "https://dc.lft.to/lastmile_qr_scan", "ios": "https://dc.lft.to/lastmile_qr_scan"}, "lat": 38.936924166666664, "type": "electric_bike", "bike_id": "c53fb7adba9a174737e00593988bf2ff", "fusion_lon": 0.0, "is_disabled": 0, "name": "c53fb7adba9a174737e00593988bf2ff"}, {"is_reserved": 0, "fusion_lat": 0.0, "lon": -77.04223883333333, "rental_uris": {"android": "https://dc.lft.to/lastmile_qr_scan", "ios": "https://dc.lft.to/lastmile_qr_scan"}, "lat": 38.90383833333333, "type": "electric_scooter", "bike_id": "5668c9b9e5b1a5605ecc0f712c164044", "fusion_lon": 0.0, "is_disabled": 0, "name": "5668c9b9e5b1a5605ecc0f712c164044"}, {"is_reserved": 0, "fusion_lat": 0.0, "lon": -76.974236, "rental_uris": {"android": "https://dc.lft.to/lastmile_qr_scan", "ios": "https://dc.lft.to/lastmile_qr_scan"}, "lat": 38.93236366666667, "type": "electric_bike", "bike_id": "9a3edc6529fc004df96427d0a080d5a6", "fusion_lon": 0.0, "is_disabled": 0, "name": "9a3edc6529fc004df96427d0a080d5a6"}, {"is_reserved": 0, "fusion_lat": 0.0, "lon": -77.04992266666666, "rental_uris": {"android": "https://dc.lft.to/lastmile_qr_scan", "ios": "https://dc.lft.to/lastmile_qr_scan"}, "lat": 38.89228116666666, "type": "electric_scooter", "bike_id": "7c02e4a975900c40a5bbeaab9e49aebd", "fusion_lon": 0.0, "is_disabled": 0, "name": "7c02e4a975900c40a5bbeaab9e49aebd"}, {"is_reserved": 0, "fusion_lat": 0.0, "lon": -77.2112415, "rental_uris": {"android": "https://dc.lft.to/lastmile_qr_scan", "ios": "https://dc.lft.to/lastmile_qr_scan"}, "lat": 38.874936, "type": "electric_bike", "bike_id": "65710d36f18ea7650ea9a625599b5ff8", "fusion_lon": 0.0, "is_disabled": 0, "name": "65710d36f18ea7650ea9a625599b5ff8"}, {"is_reserved": 0, "fusion_lat": 0.0, "lon": -76.90735733333334, "rental_uris": {"android": "https://dc.lft.to/lastmile_qr_scan", "ios": "https://dc.lft.to/lastmile_qr_scan"}, "lat": 38.89615366666666, "type": "electric_bike", "bike_id": "b3efb772501769f7b330ec0b57eae34a", "fusion_lon": 0.0, "is_disabled": 0, "name": "b3efb772501769f7b330ec0b57eae34a"}, {"is_reserved": 0, "fusion_lat": 0.0, "lon": -76.99707316666667, "rental_uris": {"android": "https://dc.lft.to/lastmile_qr_scan", "ios": "https://dc.lft.to/lastmile_qr_scan"}, "lat": 38.885086666666666, "type": "electric_bike", "bike_id": "9775f8083d38e165b6ad68e2eca99808", "fusion_lon": 0.0, "is_disabled": 0, "name": "9775f8083d38e165b6ad68e2eca99808"}, {"is_reserved": 0, "fusion_lat": 0.0, "lon": -77.03173833333334, "rental_uris": {"android": "https://dc.lft.to/lastmile_qr_scan", "ios": "https://dc.lft.to/lastmile_qr_scan"}, "lat": 38.900341166666664, "type": "electric_scooter", "bike_id": "9ac667390ceb8631dd32a0b3283b1070", "fusion_lon": 0.0, "is_disabled": 0, "name": "9ac667390ceb8631dd32a0b3283b1070"}, {"is_reserved": 0, "fusion_lat": 0.0, "lon": -77.00598916666667, "rental_uris": {"android": "https://dc.lft.to/lastmile_qr_scan", "ios": "https://dc.lft.to/lastmile_qr_scan"}, "lat": 38.905680333333336, "type": "electric_scooter", "bike_id": "e2ba65bad94085de49610187bc22c006", "fusion_lon": 0.0, "is_disabled": 0, "name": "e2ba65bad94085de49610187bc22c006"}, {"is_reserved": 0, "fusion_lat": 0.0, "lon": -77.01193566666667, "rental_uris": {"android": "https://dc.lft.to/lastmile_qr_scan", "ios": "https://dc.lft.to/lastmile_qr_scan"}, "lat": 38.92763433333333, "type": "electric_scooter", "bike_id": "a8f159142667b43ec15c4ca8f4fd19d1", "fusion_lon": 0.0, "is_disabled": 0, "name": "a8f159142667b43ec15c4ca8f4fd19d1"}, {"is_reserved": 0, "fusion_lat": 0.0, "lon": -77.02746516666667, "rental_uris": {"android": "https://dc.lft.to/lastmile_qr_scan", "ios": "https://dc.lft.to/lastmile_qr_scan"}, "lat": 38.927715, "type": "electric_scooter", "bike_id": "afdc235b96a617556249703d68fc5994", "fusion_lon": 0.0, "is_disabled": 0, "name": "afdc235b96a617556249703d68fc5994"}, {"is_reserved": 0, "fusion_lat": 0.0, "lon": -77.22928783333333, "rental_uris": {"android": "https://dc.lft.to/lastmile_qr_scan", "ios": "https://dc.lft.to/lastmile_qr_scan"}, "lat": 38.93193933333333, "type": "electric_bike", "bike_id": "030e3550b655023f7a9443c5192659ad", "fusion_lon": 0.0, "is_disabled": 0, "name": "030e3550b655023f7a9443c5192659ad"}, {"is_reserved": 0, "fusion_lat": 0.0, "lon": -77.05134866666667, "rental_uris": {"android": "https://dc.lft.to/lastmile_qr_scan", "ios": "https://dc.lft.to/lastmile_qr_scan"}, "lat": 38.89682666666667, "type": "electric_scooter", "bike_id": "aed18d61b5e7b0b66a08b40c9b032552", "fusion_lon": 0.0, "is_disabled": 0, "name": "aed18d61b5e7b0b66a08b40c9b032552"}, {"is_reserved": 0, "fusion_lat": 0.0, "lon": -77.03183716666666, "rental_uris": {"android": "https://dc.lft.to/lastmile_qr_scan", "ios": "https://dc.lft.to/lastmile_qr_scan"}, "lat": 38.912643333333335, "type": "electric_scooter", "bike_id": "42c7974a246d3f9f365f944218f05e3f", "fusion_lon": 0.0, "is_disabled": 0, "name": "42c7974a246d3f9f365f944218f05e3f"}, {"is_reserved": 0, "fusion_lat": 0.0, "lon": -77.03348616666666, "rental_uris": {"android": "https://dc.lft.to/lastmile_qr_scan", "ios": "https://dc.lft.to/lastmile_qr_scan"}, "lat": 38.89246116666666, "type": "electric_scooter", "bike_id": "757d1f5c0b13b931469c4fd27393237a", "fusion_lon": 0.0, "is_disabled": 0, "name": "757d1f5c0b13b931469c4fd27393237a"}, {"is_reserved": 0, "fusion_lat": 0.0, "lon": -77.04924366666667, "rental_uris": {"android": "https://dc.lft.to/lastmile_qr_scan", "ios": "https://dc.lft.to/lastmile_qr_scan"}, "lat": 38.905172, "type": "electric_scooter", "bike_id": "dd50da591ce83c3c23165fe20af02dcd", "fusion_lon": 0.0, "is_disabled": 0, "name": "dd50da591ce83c3c23165fe20af02dcd"}, {"is_reserved": 0, "fusion_lat": 0.0, "lon": -77.02680116666667, "rental_uris": {"android": "https://dc.lft.to/lastmile_qr_scan", "ios": "https://dc.lft.to/lastmile_qr_scan"}, "lat": 38.95506816666666, "type": "electric_scooter", "bike_id": "5993b396c7b93f245d796da2cd9517f0", "fusion_lon": 0.0, "is_disabled": 0, "name": "5993b396c7b93f245d796da2cd9517f0"}, {"is_reserved": 0, "fusion_lat": 0.0, "lon": -77.02581316666667, "rental_uris": {"android": "https://dc.lft.to/lastmile_qr_scan", "ios": "https://dc.lft.to/lastmile_qr_scan"}, "lat": 38.94729266666667, "type": "electric_bike", "bike_id": "54175e35697563d720b3761e6652a363", "fusion_lon": 0.0, "is_disabled": 0, "name": "54175e35697563d720b3761e6652a363"}, {"is_reserved": 0, "fusion_lat": 0.0, "lon": -77.011109, "rental_uris": {"android": "https://dc.lft.to/lastmile_qr_scan", "ios": "https://dc.lft.to/lastmile_qr_scan"}, "lat": 38.900123, "type": "electric_scooter", "bike_id": "2040a4cfa183183be79d68d4dfeeaf50", "fusion_lon": 0.0, "is_disabled": 0, "name": "2040a4cfa183183be79d68d4dfeeaf50"}, {"is_reserved": 0, "fusion_lat": 0.0, "lon": -77.01768583333333, "rental_uris": {"android": "https://dc.lft.to/lastmile_qr_scan", "ios": "https://dc.lft.to/lastmile_qr_scan"}, "lat": 38.87812733333333, "type": "electric_scooter", "bike_id": "5d62996572acfa3032746d85646d6776", "fusion_lon": 0.0, "is_disabled": 0, "name": "5d62996572acfa3032746d85646d6776"}, {"is_reserved": 0, "fusion_lat": 0.0, "lon": -77.053933, "rental_uris": {"android": "https://dc.lft.to/lastmile_qr_scan", "ios": "https://dc.lft.to/lastmile_qr_scan"}, "lat": 38.80451566666667, "type": "electric_bike", "bike_id": "bb28092e87e08a6a8e2b4cd229cda93e", "fusion_lon": 0.0, "is_disabled": 0, "name": "bb28092e87e08a6a8e2b4cd229cda93e"}, {"is_reserved": 0, "fusion_lat": 0.0, "lon": -77.04168333333334, "rental_uris": {"android": "https://dc.lft.to/lastmile_qr_scan", "ios": "https://dc.lft.to/lastmile_qr_scan"}, "lat": 38.91894033333333, "type": "electric_scooter", "bike_id": "7cf17e47fc46aa7057f8ccb1438c8b39", "fusion_lon": 0.0, "is_disabled": 0, "name": "7cf17e47fc46aa7057f8ccb1438c8b39"}, {"is_reserved": 0, "fusion_lat": 0.0, "lon": -77.04775116666667, "rental_uris": {"android": "https://dc.lft.to/lastmile_qr_scan", "ios": "https://dc.lft.to/lastmile_qr_scan"}, "lat": 38.89739183333333, "type": "electric_scooter", "bike_id": "f0c4654725608cf1321138dea8f5ad65", "fusion_lon": 0.0, "is_disabled": 0, "name": "f0c4654725608cf1321138dea8f5ad65"}, {"is_reserved": 0, "fusion_lat": 0.0, "lon": -77.04513316666667, "rental_uris": {"android": "https://dc.lft.to/lastmile_qr_scan", "ios": "https://dc.lft.to/lastmile_qr_scan"}, "lat": 38.899622, "type": "electric_scooter", "bike_id": "80542b5e0dd98f1567218613fb2e61b4", "fusion_lon": 0.0, "is_disabled": 0, "name": "80542b5e0dd98f1567218613fb2e61b4"}, {"is_reserved": 0, "fusion_lat": 0.0, "lon": -77.01483933333333, "rental_uris": {"android": "https://dc.lft.to/lastmile_qr_scan", "ios": "https://dc.lft.to/lastmile_qr_scan"}, "lat": 38.9267335, "type": "electric_scooter", "bike_id": "dc1aa7800af902a4bde50274da983cf8", "fusion_lon": 0.0, "is_disabled": 0, "name": "dc1aa7800af902a4bde50274da983cf8"}, {"is_reserved": 0, "fusion_lat": 0.0, "lon": -77.04149466666667, "rental_uris": {"android": "https://dc.lft.to/lastmile_qr_scan", "ios": "https://dc.lft.to/lastmile_qr_scan"}, "lat": 38.8984065, "type": "electric_scooter", "bike_id": "27cc72867ac7ba91d1ad963426ea5284", "fusion_lon": 0.0, "is_disabled": 0, "name": "27cc72867ac7ba91d1ad963426ea5284"}, {"is_reserved": 0, "fusion_lat": 0.0, "lon": -77.01542416666666, "rental_uris": {"android": "https://dc.lft.to/lastmile_qr_scan", "ios": "https://dc.lft.to/lastmile_qr_scan"}, "lat": 38.89167716666667, "type": "electric_scooter", "bike_id": "15e22d04f46338c92227ef7692884f66", "fusion_lon": 0.0, "is_disabled": 0, "name": "15e22d04f46338c92227ef7692884f66"}, {"is_reserved": 0, "fusion_lat": 0.0, "lon": -76.98078416666667, "rental_uris": {"android": "https://dc.lft.to/lastmile_qr_scan", "ios": "https://dc.lft.to/lastmile_qr_scan"}, "lat": 38.900074333333336, "type": "electric_scooter", "bike_id": "2da1fe8ead24c9a9b9b6f7e12b659d60", "fusion_lon": 0.0, "is_disabled": 0, "name": "2da1fe8ead24c9a9b9b6f7e12b659d60"}, {"is_reserved": 0, "fusion_lat": 0.0, "lon": -77.02338, "rental_uris": {"android": "https://dc.lft.to/lastmile_qr_scan", "ios": "https://dc.lft.to/lastmile_qr_scan"}, "lat": 38.8788775, "type": "electric_scooter", "bike_id": "fbe05a833ac9941391aedfb121d6f619", "fusion_lon": 0.0, "is_disabled": 0, "name": "fbe05a833ac9941391aedfb121d6f619"}, {"is_reserved": 0, "fusion_lat": 0.0, "lon": -77.03195466666666, "rental_uris": {"android": "https://dc.lft.to/lastmile_qr_scan", "ios": "https://dc.lft.to/lastmile_qr_scan"}, "lat": 38.9183235, "type": "electric_scooter", "bike_id": "2a29161d7a3a5161cb0804dfdac01859", "fusion_lon": 0.0, "is_disabled": 0, "name": "2a29161d7a3a5161cb0804dfdac01859"}, {"is_reserved": 0, "fusion_lat": 0.0, "lon": -77.00796966666667, "rental_uris": {"android": "https://dc.lft.to/lastmile_qr_scan", "ios": "https://dc.lft.to/lastmile_qr_scan"}, "lat": 38.897164333333336, "type": "electric_scooter", "bike_id": "2a2d5dd7a53c1e3e6f8ba555ca520ad7", "fusion_lon": 0.0, "is_disabled": 0, "name": "2a2d5dd7a53c1e3e6f8ba555ca520ad7"}, {"is_reserved": 0, "fusion_lat": 0.0, "lon": -77.00049866666667, "rental_uris": {"android": "https://dc.lft.to/lastmile_qr_scan", "ios": "https://dc.lft.to/lastmile_qr_scan"}, "lat": 38.894345333333334, "type": "electric_scooter", "bike_id": "17d8f79fc73cbce30ee3bbf499f8ec88", "fusion_lon": 0.0, "is_disabled": 0, "name": "17d8f79fc73cbce30ee3bbf499f8ec88"}, {"is_reserved": 0, "fusion_lat": 0.0, "lon": -77.0281155, "rental_uris": {"android": "https://dc.lft.to/lastmile_qr_scan", "ios": "https://dc.lft.to/lastmile_qr_scan"}, "lat": 38.930789, "type": "electric_scooter", "bike_id": "d9ac707913a1a379ee8c97347c3d2fa2", "fusion_lon": 0.0, "is_disabled": 0, "name": "d9ac707913a1a379ee8c97347c3d2fa2"}, {"is_reserved": 0, "fusion_lat": 0.0, "lon": -76.98193866666666, "rental_uris": {"android": "https://dc.lft.to/lastmile_qr_scan", "ios": "https://dc.lft.to/lastmile_qr_scan"}, "lat": 38.9206475, "type": "electric_scooter", "bike_id": "18939339d81348da78fb31d214a67e3a", "fusion_lon": 0.0, "is_disabled": 0, "name": "18939339d81348da78fb31d214a67e3a"}, {"is_reserved": 0, "fusion_lat": 0.0, "lon": -77.03340433333334, "rental_uris": {"android": "https://dc.lft.to/lastmile_qr_scan", "ios": "https://dc.lft.to/lastmile_qr_scan"}, "lat": 38.89837216666667, "type": "electric_scooter", "bike_id": "68eead45f0c804efc3365ddd41e11b44", "fusion_lon": 0.0, "is_disabled": 0, "name": "68eead45f0c804efc3365ddd41e11b44"}, {"is_reserved": 0, "fusion_lat": 0.0, "lon": -76.98565283333333, "rental_uris": {"android": "https://dc.lft.to/lastmile_qr_scan", "ios": "https://dc.lft.to/lastmile_qr_scan"}, "lat": 38.866823, "type": "electric_scooter", "bike_id": "f50a50b91fec2a96bd6bea65c15c5c65", "fusion_lon": 0.0, "is_disabled": 0, "name": "f50a50b91fec2a96bd6bea65c15c5c65"}, {"is_reserved": 0, "fusion_lat": 0.0, "lon": -77.01208716666666, "rental_uris": {"android": "https://dc.lft.to/lastmile_qr_scan", "ios": "https://dc.lft.to/lastmile_qr_scan"}, "lat": 38.870851, "type": "electric_bike", "bike_id": "4bd9d502674689b1e3475e60c43823cf", "fusion_lon": 0.0, "is_disabled": 0, "name": "4bd9d502674689b1e3475e60c43823cf"}, {"is_reserved": 0, "fusion_lat": 0.0, "lon": -76.993645, "rental_uris": {"android": "https://dc.lft.to/lastmile_qr_scan", "ios": "https://dc.lft.to/lastmile_qr_scan"}, "lat": 38.990976833333335, "type": "electric_bike", "bike_id": "06011cc51e008db527849f3c255ed637", "fusion_lon": 0.0, "is_disabled": 0, "name": "06011cc51e008db527849f3c255ed637"}, {"is_reserved": 0, "fusion_lat": 0.0, "lon": -76.93733066666667, "rental_uris": {"android": "https://dc.lft.to/lastmile_qr_scan", "ios": "https://dc.lft.to/lastmile_qr_scan"}, "lat": 38.89016083333333, "type": "electric_scooter", "bike_id": "a4d8714836a444886920c417b0f29816", "fusion_lon": 0.0, "is_disabled": 0, "name": "a4d8714836a444886920c417b0f29816"}, {"is_reserved": 0, "fusion_lat": 0.0, "lon": -77.01649466666667, "rental_uris": {"android": "https://dc.lft.to/lastmile_qr_scan", "ios": "https://dc.lft.to/lastmile_qr_scan"}, "lat": 38.9750985, "type": "electric_scooter", "bike_id": "0758f3cd798f51c7013b6b9d91a45855", "fusion_lon": 0.0, "is_disabled": 0, "name": "0758f3cd798f51c7013b6b9d91a45855"}, {"is_reserved": 0, "fusion_lat": 0.0, "lon": -77.0221225, "rental_uris": {"android": "https://dc.lft.to/lastmile_qr_scan", "ios": "https://dc.lft.to/lastmile_qr_scan"}, "lat": 38.895889, "type": "electric_scooter", "bike_id": "0e3f7920bb0b3d9b21624c9b119303be", "fusion_lon": 0.0, "is_disabled": 0, "name": "0e3f7920bb0b3d9b21624c9b119303be"}, {"is_reserved": 0, "fusion_lat": 0.0, "lon": -77.02311366666666, "rental_uris": {"android": "https://dc.lft.to/lastmile_qr_scan", "ios": "https://dc.lft.to/lastmile_qr_scan"}, "lat": 38.896012999999996, "type": "electric_scooter", "bike_id": "7816ad4819f6e18360a79363a67100ce", "fusion_lon": 0.0, "is_disabled": 0, "name": "7816ad4819f6e18360a79363a67100ce"}, {"is_reserved": 0, "fusion_lat": 0.0, "lon": -77.03240633333333, "rental_uris": {"android": "https://dc.lft.to/lastmile_qr_scan", "ios": "https://dc.lft.to/lastmile_qr_scan"}, "lat": 38.92729583333333, "type": "electric_scooter", "bike_id": "9599425d981e5c99c1c71c91b604e688", "fusion_lon": 0.0, "is_disabled": 0, "name": "9599425d981e5c99c1c71c91b604e688"}, {"is_reserved": 0, "fusion_lat": 0.0, "lon": -77.04338366666667, "rental_uris": {"android": "https://dc.lft.to/lastmile_qr_scan", "ios": "https://dc.lft.to/lastmile_qr_scan"}, "lat": 38.913264833333336, "type": "electric_scooter", "bike_id": "e5935104d5511997ca74debbbe3e1c3f", "fusion_lon": 0.0, "is_disabled": 0, "name": "e5935104d5511997ca74debbbe3e1c3f"}, {"is_reserved": 0, "fusion_lat": 0.0, "lon": -77.03434933333334, "rental_uris": {"android": "https://dc.lft.to/lastmile_qr_scan", "ios": "https://dc.lft.to/lastmile_qr_scan"}, "lat": 38.90164266666667, "type": "electric_scooter", "bike_id": "896ccb0035138a99fb944e5198f874c0", "fusion_lon": 0.0, "is_disabled": 0, "name": "896ccb0035138a99fb944e5198f874c0"}, {"is_reserved": 0, "fusion_lat": 0.0, "lon": -77.033607, "rental_uris": {"android": "https://dc.lft.to/lastmile_qr_scan", "ios": "https://dc.lft.to/lastmile_qr_scan"}, "lat": 38.9275795, "type": "electric_scooter", "bike_id": "00c9cb8a2e08202924deb47a85b1d877", "fusion_lon": 0.0, "is_disabled": 0, "name": "00c9cb8a2e08202924deb47a85b1d877"}, {"is_reserved": 0, "fusion_lat": 0.0, "lon": -77.046856, "rental_uris": {"android": "https://dc.lft.to/lastmile_qr_scan", "ios": "https://dc.lft.to/lastmile_qr_scan"}, "lat": 38.89224033333333, "type": "electric_scooter", "bike_id": "6e80607771d9a94f187db5ef78e70bfd", "fusion_lon": 0.0, "is_disabled": 0, "name": "6e80607771d9a94f187db5ef78e70bfd"}, {"is_reserved": 0, "fusion_lat": 0.0, "lon": -76.947269, "rental_uris": {"android": "https://dc.lft.to/lastmile_qr_scan", "ios": "https://dc.lft.to/lastmile_qr_scan"}, "lat": 38.89739183333333, "type": "electric_scooter", "bike_id": "2d93c4ed7d10d958f202e1d7d283d418", "fusion_lon": 0.0, "is_disabled": 0, "name": "2d93c4ed7d10d958f202e1d7d283d418"}, {"is_reserved": 0, "fusion_lat": 0.0, "lon": -77.01206283333333, "rental_uris": {"android": "https://dc.lft.to/lastmile_qr_scan", "ios": "https://dc.lft.to/lastmile_qr_scan"}, "lat": 38.8988835, "type": "electric_scooter", "bike_id": "66d2b8a7f4e8f76d9ecf31e731d12c97", "fusion_lon": 0.0, "is_disabled": 0, "name": "66d2b8a7f4e8f76d9ecf31e731d12c97"}, {"is_reserved": 0, "fusion_lat": 0.0, "lon": -77.0423335, "rental_uris": {"android": "https://dc.lft.to/lastmile_qr_scan", "ios": "https://dc.lft.to/lastmile_qr_scan"}, "lat": 38.92062883333333, "type": "electric_scooter", "bike_id": "e9cc2b7407fced265ecbf39811b140d5", "fusion_lon": 0.0, "is_disabled": 0, "name": "e9cc2b7407fced265ecbf39811b140d5"}, {"is_reserved": 0, "fusion_lat": 0.0, "lon": -77.02233016666666, "rental_uris": {"android": "https://dc.lft.to/lastmile_qr_scan", "ios": "https://dc.lft.to/lastmile_qr_scan"}, "lat": 38.922210166666666, "type": "electric_scooter", "bike_id": "145291f0a82bfefbe37b99b6007fe280", "fusion_lon": 0.0, "is_disabled": 0, "name": "145291f0a82bfefbe37b99b6007fe280"}, {"is_reserved": 0, "fusion_lat": 0.0, "lon": -77.072261, "rental_uris": {"android": "https://dc.lft.to/lastmile_qr_scan", "ios": "https://dc.lft.to/lastmile_qr_scan"}, "lat": 38.9319105, "type": "electric_scooter", "bike_id": "3ef84fe58a70f04ab2c52d6cfad9fced", "fusion_lon": 0.0, "is_disabled": 0, "name": "3ef84fe58a70f04ab2c52d6cfad9fced"}, {"is_reserved": 0, "fusion_lat": 0.0, "lon": -77.01415016666667, "rental_uris": {"android": "https://dc.lft.to/lastmile_qr_scan", "ios": "https://dc.lft.to/lastmile_qr_scan"}, "lat": 38.8922055, "type": "electric_scooter", "bike_id": "417ce4e6ae14ecb83d1ff3709790d71c", "fusion_lon": 0.0, "is_disabled": 0, "name": "417ce4e6ae14ecb83d1ff3709790d71c"}, {"is_reserved": 0, "fusion_lat": 0.0, "lon": -77.0067875, "rental_uris": {"android": "https://dc.lft.to/lastmile_qr_scan", "ios": "https://dc.lft.to/lastmile_qr_scan"}, "lat": 38.94517233333333, "type": "electric_bike", "bike_id": "fc4112d2951fde150f8509b76721f1ff", "fusion_lon": 0.0, "is_disabled": 0, "name": "fc4112d2951fde150f8509b76721f1ff"}, {"is_reserved": 0, "fusion_lat": 0.0, "lon": -77.048644, "rental_uris": {"android": "https://dc.lft.to/lastmile_qr_scan", "ios": "https://dc.lft.to/lastmile_qr_scan"}, "lat": 38.913313, "type": "electric_scooter", "bike_id": "6f3a277c36104478ea48aafe2991c115", "fusion_lon": 0.0, "is_disabled": 0, "name": "6f3a277c36104478ea48aafe2991c115"}, {"is_reserved": 0, "fusion_lat": 0.0, "lon": -77.0479235, "rental_uris": {"android": "https://dc.lft.to/lastmile_qr_scan", "ios": "https://dc.lft.to/lastmile_qr_scan"}, "lat": 38.90499283333333, "type": "electric_scooter", "bike_id": "e7c262cabc98eaa4bdd8e4df5cad1935", "fusion_lon": 0.0, "is_disabled": 0, "name": "e7c262cabc98eaa4bdd8e4df5cad1935"}, {"is_reserved": 0, "fusion_lat": 0.0, "lon": -77.04188916666666, "rental_uris": {"android": "https://dc.lft.to/lastmile_qr_scan", "ios": "https://dc.lft.to/lastmile_qr_scan"}, "lat": 38.920662666666665, "type": "electric_scooter", "bike_id": "6592c1bbc2a5668c585dca3ccc0dc371", "fusion_lon": 0.0, "is_disabled": 0, "name": "6592c1bbc2a5668c585dca3ccc0dc371"}, {"is_reserved": 0, "fusion_lat": 0.0, "lon": -77.0345065, "rental_uris": {"android": "https://dc.lft.to/lastmile_qr_scan", "ios": "https://dc.lft.to/lastmile_qr_scan"}, "lat": 38.9012715, "type": "electric_scooter", "bike_id": "389e3265caeb9b8e7a17eb29cafe2b23", "fusion_lon": 0.0, "is_disabled": 0, "name": "389e3265caeb9b8e7a17eb29cafe2b23"}, {"is_reserved": 0, "fusion_lat": 0.0, "lon": -77.02897983333334, "rental_uris": {"android": "https://dc.lft.to/lastmile_qr_scan", "ios": "https://dc.lft.to/lastmile_qr_scan"}, "lat": 38.901429666666665, "type": "electric_scooter", "bike_id": "b56fadf775174ac751312d6f7bec458f", "fusion_lon": 0.0, "is_disabled": 0, "name": "b56fadf775174ac751312d6f7bec458f"}, {"is_reserved": 0, "fusion_lat": 0.0, "lon": -77.00346233333333, "rental_uris": {"android": "https://dc.lft.to/lastmile_qr_scan", "ios": "https://dc.lft.to/lastmile_qr_scan"}, "lat": 38.89750133333333, "type": "electric_scooter", "bike_id": "c51b61c59f6f027ebeb77bf322a45846", "fusion_lon": 0.0, "is_disabled": 0, "name": "c51b61c59f6f027ebeb77bf322a45846"}, {"is_reserved": 0, "fusion_lat": 0.0, "lon": -77.016475, "rental_uris": {"android": "https://dc.lft.to/lastmile_qr_scan", "ios": "https://dc.lft.to/lastmile_qr_scan"}, "lat": 38.9751125, "type": "electric_scooter", "bike_id": "7db949f61c282da449a629d2c15bd2f8", "fusion_lon": 0.0, "is_disabled": 0, "name": "7db949f61c282da449a629d2c15bd2f8"}, {"is_reserved": 0, "fusion_lat": 0.0, "lon": -77.06397766666667, "rental_uris": {"android": "https://dc.lft.to/lastmile_qr_scan", "ios": "https://dc.lft.to/lastmile_qr_scan"}, "lat": 38.94412233333333, "type": "electric_scooter", "bike_id": "d777303609501311bb45feb86e6cdd56", "fusion_lon": 0.0, "is_disabled": 0, "name": "d777303609501311bb45feb86e6cdd56"}, {"is_reserved": 0, "fusion_lat": 0.0, "lon": -76.99004366666666, "rental_uris": {"android": "https://dc.lft.to/lastmile_qr_scan", "ios": "https://dc.lft.to/lastmile_qr_scan"}, "lat": 38.90392333333333, "type": "electric_scooter", "bike_id": "abdf48a0e722c74ba3139af765a2e30d", "fusion_lon": 0.0, "is_disabled": 0, "name": "abdf48a0e722c74ba3139af765a2e30d"}, {"is_reserved": 0, "fusion_lat": 0.0, "lon": -77.05721116666666, "rental_uris": {"android": "https://dc.lft.to/lastmile_qr_scan", "ios": "https://dc.lft.to/lastmile_qr_scan"}, "lat": 38.93377016666667, "type": "electric_scooter", "bike_id": "02374a0728fcc2562ec5422d76695b1f", "fusion_lon": 0.0, "is_disabled": 0, "name": "02374a0728fcc2562ec5422d76695b1f"}, {"is_reserved": 0, "fusion_lat": 0.0, "lon": -77.125231, "rental_uris": {"android": "https://dc.lft.to/lastmile_qr_scan", "ios": "https://dc.lft.to/lastmile_qr_scan"}, "lat": 39.056358333333336, "type": "electric_bike", "bike_id": "98a6f1c75ab9d57ad1e84180c3ed28c4", "fusion_lon": 0.0, "is_disabled": 0, "name": "98a6f1c75ab9d57ad1e84180c3ed28c4"}, {"is_reserved": 0, "fusion_lat": 0.0, "lon": -77.04195816666666, "rental_uris": {"android": "https://dc.lft.to/lastmile_qr_scan", "ios": "https://dc.lft.to/lastmile_qr_scan"}, "lat": 38.9210135, "type": "electric_scooter", "bike_id": "79650bd6d3b736e630adbcf09f98a791", "fusion_lon": 0.0, "is_disabled": 0, "name": "79650bd6d3b736e630adbcf09f98a791"}, {"is_reserved": 0, "fusion_lat": 0.0, "lon": -77.02801083333334, "rental_uris": {"android": "https://dc.lft.to/lastmile_qr_scan", "ios": "https://dc.lft.to/lastmile_qr_scan"}, "lat": 38.898708, "type": "electric_scooter", "bike_id": "93c5989aa6dccace36171b868fe811ea", "fusion_lon": 0.0, "is_disabled": 0, "name": "93c5989aa6dccace36171b868fe811ea"}, {"is_reserved": 0, "fusion_lat": 0.0, "lon": -77.01258266666666, "rental_uris": {"android": "https://dc.lft.to/lastmile_qr_scan", "ios": "https://dc.lft.to/lastmile_qr_scan"}, "lat": 38.918097333333336, "type": "electric_scooter", "bike_id": "f2c72ecdef77fee3464c8df00824dd4c", "fusion_lon": 0.0, "is_disabled": 0, "name": "f2c72ecdef77fee3464c8df00824dd4c"}, {"is_reserved": 0, "fusion_lat": 0.0, "lon": -77.02231433333333, "rental_uris": {"android": "https://dc.lft.to/lastmile_qr_scan", "ios": "https://dc.lft.to/lastmile_qr_scan"}, "lat": 38.89220133333333, "type": "electric_scooter", "bike_id": "fbc4d85703bf5bc742fc0bc82ba32887", "fusion_lon": 0.0, "is_disabled": 0, "name": "fbc4d85703bf5bc742fc0bc82ba32887"}, {"is_reserved": 0, "fusion_lat": 0.0, "lon": -77.00224733333333, "rental_uris": {"android": "https://dc.lft.to/lastmile_qr_scan", "ios": "https://dc.lft.to/lastmile_qr_scan"}, "lat": 38.925088333333335, "type": "electric_scooter", "bike_id": "3047f4451f27a350e83b05d150d99e40", "fusion_lon": 0.0, "is_disabled": 0, "name": "3047f4451f27a350e83b05d150d99e40"}, {"is_reserved": 0, "fusion_lat": 0.0, "lon": -77.07248, "rental_uris": {"android": "https://dc.lft.to/lastmile_qr_scan", "ios": "https://dc.lft.to/lastmile_qr_scan"}, "lat": 38.93949666666666, "type": "electric_scooter", "bike_id": "dc13ff1af95fef9a49ce29f96f143a5e", "fusion_lon": 0.0, "is_disabled": 0, "name": "dc13ff1af95fef9a49ce29f96f143a5e"}, {"is_reserved": 0, "fusion_lat": 0.0, "lon": -76.97163983333333, "rental_uris": {"android": "https://dc.lft.to/lastmile_qr_scan", "ios": "https://dc.lft.to/lastmile_qr_scan"}, "lat": 38.86138666666667, "type": "electric_scooter", "bike_id": "678442ab7d580ec96864236ea40ad92f", "fusion_lon": 0.0, "is_disabled": 0, "name": "678442ab7d580ec96864236ea40ad92f"}, {"is_reserved": 0, "fusion_lat": 0.0, "lon": -77.05298166666667, "rental_uris": {"android": "https://dc.lft.to/lastmile_qr_scan", "ios": "https://dc.lft.to/lastmile_qr_scan"}, "lat": 38.905102666666664, "type": "electric_scooter", "bike_id": "7f4d642fbfd96e0715d12a117452f2a6", "fusion_lon": 0.0, "is_disabled": 0, "name": "7f4d642fbfd96e0715d12a117452f2a6"}, {"is_reserved": 0, "fusion_lat": 0.0, "lon": -77.03436283333333, "rental_uris": {"android": "https://dc.lft.to/lastmile_qr_scan", "ios": "https://dc.lft.to/lastmile_qr_scan"}, "lat": 38.910176666666665, "type": "electric_scooter", "bike_id": "6532c0b0b5583f28f5a30df3246ad832", "fusion_lon": 0.0, "is_disabled": 0, "name": "6532c0b0b5583f28f5a30df3246ad832"}, {"is_reserved": 0, "fusion_lat": 0.0, "lon": -76.94641016666667, "rental_uris": {"android": "https://dc.lft.to/lastmile_qr_scan", "ios": "https://dc.lft.to/lastmile_qr_scan"}, "lat": 38.898639333333335, "type": "electric_scooter", "bike_id": "4e2db746ee41abf342ee8f22e1d2862e", "fusion_lon": 0.0, "is_disabled": 0, "name": "4e2db746ee41abf342ee8f22e1d2862e"}, {"is_reserved": 0, "fusion_lat": 0.0, "lon": -77.0250825, "rental_uris": {"android": "https://dc.lft.to/lastmile_qr_scan", "ios": "https://dc.lft.to/lastmile_qr_scan"}, "lat": 38.911022333333335, "type": "electric_scooter", "bike_id": "9c254b25d8ddff21b4a574f92a917319", "fusion_lon": 0.0, "is_disabled": 0, "name": "9c254b25d8ddff21b4a574f92a917319"}, {"is_reserved": 0, "fusion_lat": 0.0, "lon": -77.014298, "rental_uris": {"android": "https://dc.lft.to/lastmile_qr_scan", "ios": "https://dc.lft.to/lastmile_qr_scan"}, "lat": 38.914719, "type": "electric_scooter", "bike_id": "e6c7f851c0c8c1b2090d71878f5bde85", "fusion_lon": 0.0, "is_disabled": 0, "name": "e6c7f851c0c8c1b2090d71878f5bde85"}, {"is_reserved": 0, "fusion_lat": 0.0, "lon": -76.9833525, "rental_uris": {"android": "https://dc.lft.to/lastmile_qr_scan", "ios": "https://dc.lft.to/lastmile_qr_scan"}, "lat": 38.865683833333335, "type": "electric_scooter", "bike_id": "e12e918a14b426dcd26ca995f4ecfac3", "fusion_lon": 0.0, "is_disabled": 0, "name": "e12e918a14b426dcd26ca995f4ecfac3"}, {"is_reserved": 0, "fusion_lat": 0.0, "lon": -77.04693616666667, "rental_uris": {"android": "https://dc.lft.to/lastmile_qr_scan", "ios": "https://dc.lft.to/lastmile_qr_scan"}, "lat": 38.89225316666667, "type": "electric_scooter", "bike_id": "565eed501196112567bc992d6e6c3519", "fusion_lon": 0.0, "is_disabled": 0, "name": "565eed501196112567bc992d6e6c3519"}, {"is_reserved": 0, "fusion_lat": 0.0, "lon": -77.0252425, "rental_uris": {"android": "https://dc.lft.to/lastmile_qr_scan", "ios": "https://dc.lft.to/lastmile_qr_scan"}, "lat": 38.92296566666667, "type": "electric_scooter", "bike_id": "4ec81c249b368011a97ec35396326ac8", "fusion_lon": 0.0, "is_disabled": 0, "name": "4ec81c249b368011a97ec35396326ac8"}, {"is_reserved": 0, "fusion_lat": 0.0, "lon": -77.054836, "rental_uris": {"android": "https://dc.lft.to/lastmile_qr_scan", "ios": "https://dc.lft.to/lastmile_qr_scan"}, "lat": 38.90476433333333, "type": "electric_bike", "bike_id": "4c5b96e9e37438c076894fb139f35854", "fusion_lon": 0.0, "is_disabled": 0, "name": "4c5b96e9e37438c076894fb139f35854"}, {"is_reserved": 0, "fusion_lat": 0.0, "lon": -77.0343525, "rental_uris": {"android": "https://dc.lft.to/lastmile_qr_scan", "ios": "https://dc.lft.to/lastmile_qr_scan"}, "lat": 38.903043833333335, "type": "electric_scooter", "bike_id": "e2dd1cba60133be19578914e61b8de4a", "fusion_lon": 0.0, "is_disabled": 0, "name": "e2dd1cba60133be19578914e61b8de4a"}, {"is_reserved": 0, "fusion_lat": 0.0, "lon": -77.04657166666667, "rental_uris": {"android": "https://dc.lft.to/lastmile_qr_scan", "ios": "https://dc.lft.to/lastmile_qr_scan"}, "lat": 38.897001833333334, "type": "electric_scooter", "bike_id": "293c147f5f6db64023651c0cdb438713", "fusion_lon": 0.0, "is_disabled": 0, "name": "293c147f5f6db64023651c0cdb438713"}, {"is_reserved": 0, "fusion_lat": 0.0, "lon": -77.03804666666667, "rental_uris": {"android": "https://dc.lft.to/lastmile_qr_scan", "ios": "https://dc.lft.to/lastmile_qr_scan"}, "lat": 38.9199725, "type": "electric_scooter", "bike_id": "b0b3abb6e3ed2f3eddf7f5c694fc7313", "fusion_lon": 0.0, "is_disabled": 0, "name": "b0b3abb6e3ed2f3eddf7f5c694fc7313"}, {"is_reserved": 0, "fusion_lat": 0.0, "lon": -77.0304055, "rental_uris": {"android": "https://dc.lft.to/lastmile_qr_scan", "ios": "https://dc.lft.to/lastmile_qr_scan"}, "lat": 38.8983895, "type": "electric_scooter", "bike_id": "52ca1b9e14d4c2d001fb84d096b8b3f5", "fusion_lon": 0.0, "is_disabled": 0, "name": "52ca1b9e14d4c2d001fb84d096b8b3f5"}, {"is_reserved": 0, "fusion_lat": 0.0, "lon": -77.01997766666666, "rental_uris": {"android": "https://dc.lft.to/lastmile_qr_scan", "ios": "https://dc.lft.to/lastmile_qr_scan"}, "lat": 38.91573183333333, "type": "electric_scooter", "bike_id": "28ad645d02439ad5645036821bb96f38", "fusion_lon": 0.0, "is_disabled": 0, "name": "28ad645d02439ad5645036821bb96f38"}, {"is_reserved": 0, "fusion_lat": 0.0, "lon": -77.08168016666667, "rental_uris": {"android": "https://dc.lft.to/lastmile_qr_scan", "ios": "https://dc.lft.to/lastmile_qr_scan"}, "lat": 38.90700366666667, "type": "electric_bike", "bike_id": "281ef3b719de02bf0929445540ecae5d", "fusion_lon": 0.0, "is_disabled": 0, "name": "281ef3b719de02bf0929445540ecae5d"}, {"is_reserved": 0, "fusion_lat": 0.0, "lon": -77.03278083333333, "rental_uris": {"android": "https://dc.lft.to/lastmile_qr_scan", "ios": "https://dc.lft.to/lastmile_qr_scan"}, "lat": 38.898971, "type": "electric_scooter", "bike_id": "e06110d8ea7e37c3b59ac217a597b82a", "fusion_lon": 0.0, "is_disabled": 0, "name": "e06110d8ea7e37c3b59ac217a597b82a"}, {"is_reserved": 0, "fusion_lat": 0.0, "lon": -76.999437, "rental_uris": {"android": "https://dc.lft.to/lastmile_qr_scan", "ios": "https://dc.lft.to/lastmile_qr_scan"}, "lat": 38.84294666666667, "type": "electric_scooter", "bike_id": "b4b264fef67b79cac6ac57845d304dd1", "fusion_lon": 0.0, "is_disabled": 0, "name": "b4b264fef67b79cac6ac57845d304dd1"}, {"is_reserved": 0, "fusion_lat": 0.0, "lon": -77.06423483333333, "rental_uris": {"android": "https://dc.lft.to/lastmile_qr_scan", "ios": "https://dc.lft.to/lastmile_qr_scan"}, "lat": 38.90517466666667, "type": "electric_scooter", "bike_id": "a4f1c3b33dc1c11febb98b32972665b7", "fusion_lon": 0.0, "is_disabled": 0, "name": "a4f1c3b33dc1c11febb98b32972665b7"}, {"is_reserved": 0, "fusion_lat": 0.0, "lon": -77.04329783333333, "rental_uris": {"android": "https://dc.lft.to/lastmile_qr_scan", "ios": "https://dc.lft.to/lastmile_qr_scan"}, "lat": 38.9077245, "type": "electric_scooter", "bike_id": "3656184b20c1c1968f78c1c4d7b5ab01", "fusion_lon": 0.0, "is_disabled": 0, "name": "3656184b20c1c1968f78c1c4d7b5ab01"}, {"is_reserved": 0, "fusion_lat": 0.0, "lon": -77.04452933333333, "rental_uris": {"android": "https://dc.lft.to/lastmile_qr_scan", "ios": "https://dc.lft.to/lastmile_qr_scan"}, "lat": 38.89609183333334, "type": "electric_scooter", "bike_id": "6fd6dce9448e209382a12eb542a3467f", "fusion_lon": 0.0, "is_disabled": 0, "name": "6fd6dce9448e209382a12eb542a3467f"}, {"is_reserved": 0, "fusion_lat": 0.0, "lon": -77.04889383333334, "rental_uris": {"android": "https://dc.lft.to/lastmile_qr_scan", "ios": "https://dc.lft.to/lastmile_qr_scan"}, "lat": 38.9067505, "type": "electric_scooter", "bike_id": "20d484db0a2820189d49aeefafd35ed9", "fusion_lon": 0.0, "is_disabled": 0, "name": "20d484db0a2820189d49aeefafd35ed9"}, {"is_reserved": 0, "fusion_lat": 0.0, "lon": -77.01103683333334, "rental_uris": {"android": "https://dc.lft.to/lastmile_qr_scan", "ios": "https://dc.lft.to/lastmile_qr_scan"}, "lat": 38.895515, "type": "electric_scooter", "bike_id": "44e23d5f5ba8b3c9810c794c6c48ffd6", "fusion_lon": 0.0, "is_disabled": 0, "name": "44e23d5f5ba8b3c9810c794c6c48ffd6"}, {"is_reserved": 0, "fusion_lat": 0.0, "lon": -76.98600816666666, "rental_uris": {"android": "https://dc.lft.to/lastmile_qr_scan", "ios": "https://dc.lft.to/lastmile_qr_scan"}, "lat": 38.860116166666664, "type": "electric_scooter", "bike_id": "81e67685f857cf9ca369f484da2c1f32", "fusion_lon": 0.0, "is_disabled": 0, "name": "81e67685f857cf9ca369f484da2c1f32"}, {"is_reserved": 0, "fusion_lat": 0.0, "lon": -77.02815766666667, "rental_uris": {"android": "https://dc.lft.to/lastmile_qr_scan", "ios": "https://dc.lft.to/lastmile_qr_scan"}, "lat": 38.895238666666664, "type": "electric_scooter", "bike_id": "e3af1e5a506554c293c53b64d7d90947", "fusion_lon": 0.0, "is_disabled": 0, "name": "e3af1e5a506554c293c53b64d7d90947"}, {"is_reserved": 0, "fusion_lat": 0.0, "lon": -77.03978533333333, "rental_uris": {"android": "https://dc.lft.to/lastmile_qr_scan", "ios": "https://dc.lft.to/lastmile_qr_scan"}, "lat": 38.90601016666667, "type": "electric_scooter", "bike_id": "3f36b2c6fedf21776337e86a04932250", "fusion_lon": 0.0, "is_disabled": 0, "name": "3f36b2c6fedf21776337e86a04932250"}, {"is_reserved": 0, "fusion_lat": 0.0, "lon": -77.0222985, "rental_uris": {"android": "https://dc.lft.to/lastmile_qr_scan", "ios": "https://dc.lft.to/lastmile_qr_scan"}, "lat": 38.89218533333333, "type": "electric_scooter", "bike_id": "df32c5ea5a30e538cd92f90d393f77ea", "fusion_lon": 0.0, "is_disabled": 0, "name": "df32c5ea5a30e538cd92f90d393f77ea"}, {"is_reserved": 0, "fusion_lat": 0.0, "lon": -77.06605183333333, "rental_uris": {"android": "https://dc.lft.to/lastmile_qr_scan", "ios": "https://dc.lft.to/lastmile_qr_scan"}, "lat": 38.9052645, "type": "electric_scooter", "bike_id": "95e38aa2bfc22b8b649ce6111f9ab363", "fusion_lon": 0.0, "is_disabled": 0, "name": "95e38aa2bfc22b8b649ce6111f9ab363"}, {"is_reserved": 0, "fusion_lat": 0.0, "lon": -77.02874183333333, "rental_uris": {"android": "https://dc.lft.to/lastmile_qr_scan", "ios": "https://dc.lft.to/lastmile_qr_scan"}, "lat": 38.914023666666665, "type": "electric_scooter", "bike_id": "2e7b9759cc9ecd1c1cff204c1d279136", "fusion_lon": 0.0, "is_disabled": 0, "name": "2e7b9759cc9ecd1c1cff204c1d279136"}, {"is_reserved": 0, "fusion_lat": 0.0, "lon": -76.93342416666667, "rental_uris": {"android": "https://dc.lft.to/lastmile_qr_scan", "ios": "https://dc.lft.to/lastmile_qr_scan"}, "lat": 38.908656, "type": "electric_scooter", "bike_id": "bbda514a9633cb8b099d6e6dfd1a17a6", "fusion_lon": 0.0, "is_disabled": 0, "name": "bbda514a9633cb8b099d6e6dfd1a17a6"}, {"is_reserved": 0, "fusion_lat": 0.0, "lon": -77.0540275, "rental_uris": {"android": "https://dc.lft.to/lastmile_qr_scan", "ios": "https://dc.lft.to/lastmile_qr_scan"}, "lat": 38.901289, "type": "electric_scooter", "bike_id": "97fd4fef399eb4cbbffc6880d354fe2c", "fusion_lon": 0.0, "is_disabled": 0, "name": "97fd4fef399eb4cbbffc6880d354fe2c"}, {"is_reserved": 0, "fusion_lat": 0.0, "lon": -77.0176515, "rental_uris": {"android": "https://dc.lft.to/lastmile_qr_scan", "ios": "https://dc.lft.to/lastmile_qr_scan"}, "lat": 38.87775083333333, "type": "electric_scooter", "bike_id": "5451423fab56953d1e84252676085579", "fusion_lon": 0.0, "is_disabled": 0, "name": "5451423fab56953d1e84252676085579"}, {"is_reserved": 0, "fusion_lat": 0.0, "lon": -77.00129266666667, "rental_uris": {"android": "https://dc.lft.to/lastmile_qr_scan", "ios": "https://dc.lft.to/lastmile_qr_scan"}, "lat": 38.878867166666666, "type": "electric_scooter", "bike_id": "a76c4e570a5bdcef2db2c2221a3fa97b", "fusion_lon": 0.0, "is_disabled": 0, "name": "a76c4e570a5bdcef2db2c2221a3fa97b"}, {"is_reserved": 0, "fusion_lat": 0.0, "lon": -77.02176616666667, "rental_uris": {"android": "https://dc.lft.to/lastmile_qr_scan", "ios": "https://dc.lft.to/lastmile_qr_scan"}, "lat": 38.90571416666667, "type": "electric_scooter", "bike_id": "793c39cc70b97bd71d0c4334faa98ced", "fusion_lon": 0.0, "is_disabled": 0, "name": "793c39cc70b97bd71d0c4334faa98ced"}, {"is_reserved": 0, "fusion_lat": 0.0, "lon": -77.0419345, "rental_uris": {"android": "https://dc.lft.to/lastmile_qr_scan", "ios": "https://dc.lft.to/lastmile_qr_scan"}, "lat": 38.923399333333336, "type": "electric_scooter", "bike_id": "5668606884594ce12372480a39b535cb", "fusion_lon": 0.0, "is_disabled": 0, "name": "5668606884594ce12372480a39b535cb"}, {"is_reserved": 0, "fusion_lat": 0.0, "lon": -77.051424, "rental_uris": {"android": "https://dc.lft.to/lastmile_qr_scan", "ios": "https://dc.lft.to/lastmile_qr_scan"}, "lat": 38.89681183333333, "type": "electric_scooter", "bike_id": "b025d08b3bffa023e6acc1bcca8c8bf0", "fusion_lon": 0.0, "is_disabled": 0, "name": "b025d08b3bffa023e6acc1bcca8c8bf0"}, {"is_reserved": 0, "fusion_lat": 0.0, "lon": -76.98827033333333, "rental_uris": {"android": "https://dc.lft.to/lastmile_qr_scan", "ios": "https://dc.lft.to/lastmile_qr_scan"}, "lat": 38.90041983333333, "type": "electric_scooter", "bike_id": "f442f190ced06a64b001f06f762bb783", "fusion_lon": 0.0, "is_disabled": 0, "name": "f442f190ced06a64b001f06f762bb783"}, {"is_reserved": 0, "fusion_lat": 0.0, "lon": -77.06913583333333, "rental_uris": {"android": "https://dc.lft.to/lastmile_qr_scan", "ios": "https://dc.lft.to/lastmile_qr_scan"}, "lat": 38.908628, "type": "electric_scooter", "bike_id": "67622d2c801cae42813631cbf35a2078", "fusion_lon": 0.0, "is_disabled": 0, "name": "67622d2c801cae42813631cbf35a2078"}, {"is_reserved": 0, "fusion_lat": 0.0, "lon": -77.07742933333333, "rental_uris": {"android": "https://dc.lft.to/lastmile_qr_scan", "ios": "https://dc.lft.to/lastmile_qr_scan"}, "lat": 38.91168833333333, "type": "electric_scooter", "bike_id": "2c360f5a1be2bf41464b14451bbab3bf", "fusion_lon": 0.0, "is_disabled": 0, "name": "2c360f5a1be2bf41464b14451bbab3bf"}, {"is_reserved": 0, "fusion_lat": 0.0, "lon": -77.0325615, "rental_uris": {"android": "https://dc.lft.to/lastmile_qr_scan", "ios": "https://dc.lft.to/lastmile_qr_scan"}, "lat": 38.90133266666667, "type": "electric_scooter", "bike_id": "965db341baa35e338be7a6753a5f9fe9", "fusion_lon": 0.0, "is_disabled": 0, "name": "965db341baa35e338be7a6753a5f9fe9"}, {"is_reserved": 0, "fusion_lat": 0.0, "lon": -77.04339433333334, "rental_uris": {"android": "https://dc.lft.to/lastmile_qr_scan", "ios": "https://dc.lft.to/lastmile_qr_scan"}, "lat": 38.90703, "type": "electric_scooter", "bike_id": "2744778596ba54f3379ac24d84c4cee9", "fusion_lon": 0.0, "is_disabled": 0, "name": "2744778596ba54f3379ac24d84c4cee9"}, {"is_reserved": 0, "fusion_lat": 0.0, "lon": -76.97610416666667, "rental_uris": {"android": "https://dc.lft.to/lastmile_qr_scan", "ios": "https://dc.lft.to/lastmile_qr_scan"}, "lat": 38.940207, "type": "electric_scooter", "bike_id": "a369f099650845901ff7a01790184c0c", "fusion_lon": 0.0, "is_disabled": 0, "name": "a369f099650845901ff7a01790184c0c"}, {"is_reserved": 0, "fusion_lat": 0.0, "lon": -77.028044, "rental_uris": {"android": "https://dc.lft.to/lastmile_qr_scan", "ios": "https://dc.lft.to/lastmile_qr_scan"}, "lat": 38.9169035, "type": "electric_scooter", "bike_id": "e1e7cb2abbc46e150a5040d38fc19861", "fusion_lon": 0.0, "is_disabled": 0, "name": "e1e7cb2abbc46e150a5040d38fc19861"}, {"is_reserved": 0, "fusion_lat": 0.0, "lon": -77.0467905, "rental_uris": {"android": "https://dc.lft.to/lastmile_qr_scan", "ios": "https://dc.lft.to/lastmile_qr_scan"}, "lat": 38.895075, "type": "electric_scooter", "bike_id": "9f19681c0b756b3e0752ed1cc4b00f33", "fusion_lon": 0.0, "is_disabled": 0, "name": "9f19681c0b756b3e0752ed1cc4b00f33"}, {"is_reserved": 0, "fusion_lat": 0.0, "lon": -77.04224783333333, "rental_uris": {"android": "https://dc.lft.to/lastmile_qr_scan", "ios": "https://dc.lft.to/lastmile_qr_scan"}, "lat": 38.9230805, "type": "electric_scooter", "bike_id": "1d5fdc01d31b2f4cb92822e6d4dac948", "fusion_lon": 0.0, "is_disabled": 0, "name": "1d5fdc01d31b2f4cb92822e6d4dac948"}, {"is_reserved": 0, "fusion_lat": 0.0, "lon": -77.02808983333334, "rental_uris": {"android": "https://dc.lft.to/lastmile_qr_scan", "ios": "https://dc.lft.to/lastmile_qr_scan"}, "lat": 38.96181083333333, "type": "electric_scooter", "bike_id": "1b88ec513d655d05c20d659f6d0a8258", "fusion_lon": 0.0, "is_disabled": 0, "name": "1b88ec513d655d05c20d659f6d0a8258"}, {"is_reserved": 0, "fusion_lat": 0.0, "lon": -76.948603, "rental_uris": {"android": "https://dc.lft.to/lastmile_qr_scan", "ios": "https://dc.lft.to/lastmile_qr_scan"}, "lat": 38.8947885, "type": "electric_scooter", "bike_id": "9180979636836854d270b9167dd2c44f", "fusion_lon": 0.0, "is_disabled": 0, "name": "9180979636836854d270b9167dd2c44f"}, {"is_reserved": 0, "fusion_lat": 0.0, "lon": -77.04333766666667, "rental_uris": {"android": "https://dc.lft.to/lastmile_qr_scan", "ios": "https://dc.lft.to/lastmile_qr_scan"}, "lat": 38.907737833333336, "type": "electric_scooter", "bike_id": "5f6bf1e5f4f0c490df9ad3ebad2da8fc", "fusion_lon": 0.0, "is_disabled": 0, "name": "5f6bf1e5f4f0c490df9ad3ebad2da8fc"}, {"is_reserved": 0, "fusion_lat": 0.0, "lon": -77.01404466666666, "rental_uris": {"android": "https://dc.lft.to/lastmile_qr_scan", "ios": "https://dc.lft.to/lastmile_qr_scan"}, "lat": 38.92843533333333, "type": "electric_scooter", "bike_id": "abbde2d9209cc9adf54442aed74576f9", "fusion_lon": 0.0, "is_disabled": 0, "name": "abbde2d9209cc9adf54442aed74576f9"}, {"is_reserved": 0, "fusion_lat": 0.0, "lon": -76.95506766666666, "rental_uris": {"android": "https://dc.lft.to/lastmile_qr_scan", "ios": "https://dc.lft.to/lastmile_qr_scan"}, "lat": 38.939243833333336, "type": "electric_bike", "bike_id": "39bb3a05c93dda111c1daea12b68462b", "fusion_lon": 0.0, "is_disabled": 0, "name": "39bb3a05c93dda111c1daea12b68462b"}, {"is_reserved": 0, "fusion_lat": 0.0, "lon": -77.024032, "rental_uris": {"android": "https://dc.lft.to/lastmile_qr_scan", "ios": "https://dc.lft.to/lastmile_qr_scan"}, "lat": 38.8799465, "type": "electric_scooter", "bike_id": "3bdaddb780abdb9a575dd02feed7f7bd", "fusion_lon": 0.0, "is_disabled": 0, "name": "3bdaddb780abdb9a575dd02feed7f7bd"}, {"is_reserved": 0, "fusion_lat": 0.0, "lon": -77.01906766666667, "rental_uris": {"android": "https://dc.lft.to/lastmile_qr_scan", "ios": "https://dc.lft.to/lastmile_qr_scan"}, "lat": 38.923678833333334, "type": "electric_scooter", "bike_id": "62b27f45a91437fba2c7e0df5bb1cb11", "fusion_lon": 0.0, "is_disabled": 0, "name": "62b27f45a91437fba2c7e0df5bb1cb11"}, {"is_reserved": 0, "fusion_lat": 0.0, "lon": -77.00234683333333, "rental_uris": {"android": "https://dc.lft.to/lastmile_qr_scan", "ios": "https://dc.lft.to/lastmile_qr_scan"}, "lat": 38.8384205, "type": "electric_bike", "bike_id": "9014537718fa6ba9397b3e0a10ef3468", "fusion_lon": 0.0, "is_disabled": 0, "name": "9014537718fa6ba9397b3e0a10ef3468"}, {"is_reserved": 0, "fusion_lat": 0.0, "lon": -77.0196915, "rental_uris": {"android": "https://dc.lft.to/lastmile_qr_scan", "ios": "https://dc.lft.to/lastmile_qr_scan"}, "lat": 38.884032, "type": "electric_bike", "bike_id": "5d8f737c7ab4a5dd78bf031378a81ea6", "fusion_lon": 0.0, "is_disabled": 0, "name": "5d8f737c7ab4a5dd78bf031378a81ea6"}, {"is_reserved": 0, "fusion_lat": 0.0, "lon": -77.0325475, "rental_uris": {"android": "https://dc.lft.to/lastmile_qr_scan", "ios": "https://dc.lft.to/lastmile_qr_scan"}, "lat": 38.9055335, "type": "electric_scooter", "bike_id": "1ca6f895a579ef5bf6add45130448a78", "fusion_lon": 0.0, "is_disabled": 0, "name": "1ca6f895a579ef5bf6add45130448a78"}, {"is_reserved": 0, "fusion_lat": 0.0, "lon": -77.025358, "rental_uris": {"android": "https://dc.lft.to/lastmile_qr_scan", "ios": "https://dc.lft.to/lastmile_qr_scan"}, "lat": 38.93592133333333, "type": "electric_scooter", "bike_id": "02bd034727a1e02794f43bf54f1686c1", "fusion_lon": 0.0, "is_disabled": 0, "name": "02bd034727a1e02794f43bf54f1686c1"}, {"is_reserved": 0, "fusion_lat": 0.0, "lon": -76.98425133333333, "rental_uris": {"android": "https://dc.lft.to/lastmile_qr_scan", "ios": "https://dc.lft.to/lastmile_qr_scan"}, "lat": 38.926452833333336, "type": "electric_bike", "bike_id": "42fdadf25959776faec7d01f1652940b", "fusion_lon": 0.0, "is_disabled": 0, "name": "42fdadf25959776faec7d01f1652940b"}, {"is_reserved": 0, "fusion_lat": 0.0, "lon": -77.03655966666666, "rental_uris": {"android": "https://dc.lft.to/lastmile_qr_scan", "ios": "https://dc.lft.to/lastmile_qr_scan"}, "lat": 38.98531466666667, "type": "electric_scooter", "bike_id": "47eab8a1c6b0e95fbf3df7fff466781c", "fusion_lon": 0.0, "is_disabled": 0, "name": "47eab8a1c6b0e95fbf3df7fff466781c"}, {"is_reserved": 0, "fusion_lat": 0.0, "lon": -76.99036283333334, "rental_uris": {"android": "https://dc.lft.to/lastmile_qr_scan", "ios": "https://dc.lft.to/lastmile_qr_scan"}, "lat": 38.863940166666666, "type": "electric_scooter", "bike_id": "02c57d29b229443062e0e714a0712c0c", "fusion_lon": 0.0, "is_disabled": 0, "name": "02c57d29b229443062e0e714a0712c0c"}, {"is_reserved": 0, "fusion_lat": 0.0, "lon": -77.032918, "rental_uris": {"android": "https://dc.lft.to/lastmile_qr_scan", "ios": "https://dc.lft.to/lastmile_qr_scan"}, "lat": 38.89897283333333, "type": "electric_scooter", "bike_id": "6813417ca611e0fd0280f045c3593e6e", "fusion_lon": 0.0, "is_disabled": 0, "name": "6813417ca611e0fd0280f045c3593e6e"}, {"is_reserved": 0, "fusion_lat": 0.0, "lon": -77.03218983333333, "rental_uris": {"android": "https://dc.lft.to/lastmile_qr_scan", "ios": "https://dc.lft.to/lastmile_qr_scan"}, "lat": 38.9000815, "type": "electric_scooter", "bike_id": "3131c6fb1151087c5ec04e683349bc12", "fusion_lon": 0.0, "is_disabled": 0, "name": "3131c6fb1151087c5ec04e683349bc12"}, {"is_reserved": 0, "fusion_lat": 0.0, "lon": -76.947014, "rental_uris": {"android": "https://dc.lft.to/lastmile_qr_scan", "ios": "https://dc.lft.to/lastmile_qr_scan"}, "lat": 38.89730133333333, "type": "electric_scooter", "bike_id": "2de10eed70b3e6523b237c5dfd74ec24", "fusion_lon": 0.0, "is_disabled": 0, "name": "2de10eed70b3e6523b237c5dfd74ec24"}, {"is_reserved": 0, "fusion_lat": 0.0, "lon": -76.96053016666667, "rental_uris": {"android": "https://dc.lft.to/lastmile_qr_scan", "ios": "https://dc.lft.to/lastmile_qr_scan"}, "lat": 38.88402216666667, "type": "electric_bike", "bike_id": "704444d7a7450dc88d22d9f66c747aac", "fusion_lon": 0.0, "is_disabled": 0, "name": "704444d7a7450dc88d22d9f66c747aac"}, {"is_reserved": 0, "fusion_lat": 0.0, "lon": -76.99037333333334, "rental_uris": {"android": "https://dc.lft.to/lastmile_qr_scan", "ios": "https://dc.lft.to/lastmile_qr_scan"}, "lat": 38.86390983333333, "type": "electric_scooter", "bike_id": "d2b5bd778636135ae490d8f9294260fa", "fusion_lon": 0.0, "is_disabled": 0, "name": "d2b5bd778636135ae490d8f9294260fa"}, {"is_reserved": 0, "fusion_lat": 0.0, "lon": -77.0119665, "rental_uris": {"android": "https://dc.lft.to/lastmile_qr_scan", "ios": "https://dc.lft.to/lastmile_qr_scan"}, "lat": 38.91569233333333, "type": "electric_scooter", "bike_id": "7a9ff35cf52e394c61e5440eafbecb76", "fusion_lon": 0.0, "is_disabled": 0, "name": "7a9ff35cf52e394c61e5440eafbecb76"}, {"is_reserved": 0, "fusion_lat": 0.0, "lon": -77.05856033333333, "rental_uris": {"android": "https://dc.lft.to/lastmile_qr_scan", "ios": "https://dc.lft.to/lastmile_qr_scan"}, "lat": 38.93608583333334, "type": "electric_scooter", "bike_id": "a0917c1e3034422ac08ee3be8a9d87de", "fusion_lon": 0.0, "is_disabled": 0, "name": "a0917c1e3034422ac08ee3be8a9d87de"}, {"is_reserved": 0, "fusion_lat": 0.0, "lon": -77.0498955, "rental_uris": {"android": "https://dc.lft.to/lastmile_qr_scan", "ios": "https://dc.lft.to/lastmile_qr_scan"}, "lat": 38.90136183333333, "type": "electric_scooter", "bike_id": "44fe6d0a5cc8e00b4b4ea3df74d23df0", "fusion_lon": 0.0, "is_disabled": 0, "name": "44fe6d0a5cc8e00b4b4ea3df74d23df0"}, {"is_reserved": 0, "fusion_lat": 0.0, "lon": -77.11749116666667, "rental_uris": {"android": "https://dc.lft.to/lastmile_qr_scan", "ios": "https://dc.lft.to/lastmile_qr_scan"}, "lat": 39.05103783333333, "type": "electric_bike", "bike_id": "e04ba0bfd4168316472363c32239032a", "fusion_lon": 0.0, "is_disabled": 0, "name": "e04ba0bfd4168316472363c32239032a"}, {"is_reserved": 0, "fusion_lat": 0.0, "lon": -77.03842716666666, "rental_uris": {"android": "https://dc.lft.to/lastmile_qr_scan", "ios": "https://dc.lft.to/lastmile_qr_scan"}, "lat": 38.902759333333336, "type": "electric_scooter", "bike_id": "b87399d461ba93d0c1117e449e2b4551", "fusion_lon": 0.0, "is_disabled": 0, "name": "b87399d461ba93d0c1117e449e2b4551"}, {"is_reserved": 0, "fusion_lat": 0.0, "lon": -76.9923135, "rental_uris": {"android": "https://dc.lft.to/lastmile_qr_scan", "ios": "https://dc.lft.to/lastmile_qr_scan"}, "lat": 38.907906, "type": "electric_scooter", "bike_id": "e4c4dd3d93e12a18b324223060f54785", "fusion_lon": 0.0, "is_disabled": 0, "name": "e4c4dd3d93e12a18b324223060f54785"}, {"is_reserved": 0, "fusion_lat": 0.0, "lon": -77.05474433333333, "rental_uris": {"android": "https://dc.lft.to/lastmile_qr_scan", "ios": "https://dc.lft.to/lastmile_qr_scan"}, "lat": 38.909547, "type": "electric_scooter", "bike_id": "21e7b4dfb836c83e0a1a99dc870ea3f7", "fusion_lon": 0.0, "is_disabled": 0, "name": "21e7b4dfb836c83e0a1a99dc870ea3f7"}, {"is_reserved": 0, "fusion_lat": 0.0, "lon": -77.026928, "rental_uris": {"android": "https://dc.lft.to/lastmile_qr_scan", "ios": "https://dc.lft.to/lastmile_qr_scan"}, "lat": 38.906864666666664, "type": "electric_scooter", "bike_id": "3dfa255368af7316f6ec18a092f17e7e", "fusion_lon": 0.0, "is_disabled": 0, "name": "3dfa255368af7316f6ec18a092f17e7e"}, {"is_reserved": 0, "fusion_lat": 0.0, "lon": -77.04669716666666, "rental_uris": {"android": "https://dc.lft.to/lastmile_qr_scan", "ios": "https://dc.lft.to/lastmile_qr_scan"}, "lat": 38.89897933333334, "type": "electric_scooter", "bike_id": "54996923a8302f3d1b10bdbdf2283a5d", "fusion_lon": 0.0, "is_disabled": 0, "name": "54996923a8302f3d1b10bdbdf2283a5d"}, {"is_reserved": 0, "fusion_lat": 0.0, "lon": -77.04994033333334, "rental_uris": {"android": "https://dc.lft.to/lastmile_qr_scan", "ios": "https://dc.lft.to/lastmile_qr_scan"}, "lat": 38.83770083333334, "type": "electric_bike", "bike_id": "62e7d90ee924ee5329eb9cc01dc89576", "fusion_lon": 0.0, "is_disabled": 0, "name": "62e7d90ee924ee5329eb9cc01dc89576"}, {"is_reserved": 0, "fusion_lat": 0.0, "lon": -77.00324483333333, "rental_uris": {"android": "https://dc.lft.to/lastmile_qr_scan", "ios": "https://dc.lft.to/lastmile_qr_scan"}, "lat": 38.90265816666667, "type": "electric_scooter", "bike_id": "9d0e467a6d2aaedf78dd6acf4d868cdd", "fusion_lon": 0.0, "is_disabled": 0, "name": "9d0e467a6d2aaedf78dd6acf4d868cdd"}, {"is_reserved": 0, "fusion_lat": 0.0, "lon": -77.028426, "rental_uris": {"android": "https://dc.lft.to/lastmile_qr_scan", "ios": "https://dc.lft.to/lastmile_qr_scan"}, "lat": 38.91713283333333, "type": "electric_scooter", "bike_id": "4ee01b2d81a6f13c92635a65e9a1d8d0", "fusion_lon": 0.0, "is_disabled": 0, "name": "4ee01b2d81a6f13c92635a65e9a1d8d0"}, {"is_reserved": 0, "fusion_lat": 0.0, "lon": -77.06497116666667, "rental_uris": {"android": "https://dc.lft.to/lastmile_qr_scan", "ios": "https://dc.lft.to/lastmile_qr_scan"}, "lat": 38.90506283333333, "type": "electric_scooter", "bike_id": "4051442d6b3406efe5d9b1761a1b6801", "fusion_lon": 0.0, "is_disabled": 0, "name": "4051442d6b3406efe5d9b1761a1b6801"}, {"is_reserved": 0, "fusion_lat": 0.0, "lon": -76.93072533333333, "rental_uris": {"android": "https://dc.lft.to/lastmile_qr_scan", "ios": "https://dc.lft.to/lastmile_qr_scan"}, "lat": 38.90165733333333, "type": "electric_scooter", "bike_id": "1f7fb4f5fa60ffcaf9975e188a3f8b9c", "fusion_lon": 0.0, "is_disabled": 0, "name": "1f7fb4f5fa60ffcaf9975e188a3f8b9c"}, {"is_reserved": 0, "fusion_lat": 0.0, "lon": -77.080158, "rental_uris": {"android": "https://dc.lft.to/lastmile_qr_scan", "ios": "https://dc.lft.to/lastmile_qr_scan"}, "lat": 38.949853, "type": "electric_bike", "bike_id": "1146c247a7c15875c0c4c80248c12f8b", "fusion_lon": 0.0, "is_disabled": 0, "name": "1146c247a7c15875c0c4c80248c12f8b"}, {"is_reserved": 0, "fusion_lat": 0.0, "lon": -77.05151066666667, "rental_uris": {"android": "https://dc.lft.to/lastmile_qr_scan", "ios": "https://dc.lft.to/lastmile_qr_scan"}, "lat": 38.906823, "type": "electric_scooter", "bike_id": "c1f85fcb63d3c0f247731a10fa6c58bb", "fusion_lon": 0.0, "is_disabled": 0, "name": "c1f85fcb63d3c0f247731a10fa6c58bb"}, {"is_reserved": 0, "fusion_lat": 0.0, "lon": -77.012027, "rental_uris": {"android": "https://dc.lft.to/lastmile_qr_scan", "ios": "https://dc.lft.to/lastmile_qr_scan"}, "lat": 38.919160166666664, "type": "electric_scooter", "bike_id": "8b9b02f281b981be89639c9d15236177", "fusion_lon": 0.0, "is_disabled": 0, "name": "8b9b02f281b981be89639c9d15236177"}, {"is_reserved": 0, "fusion_lat": 0.0, "lon": -77.07957783333333, "rental_uris": {"android": "https://dc.lft.to/lastmile_qr_scan", "ios": "https://dc.lft.to/lastmile_qr_scan"}, "lat": 38.94563216666667, "type": "electric_scooter", "bike_id": "c1bbe6900928431f04d57b3a9b3df9d7", "fusion_lon": 0.0, "is_disabled": 0, "name": "c1bbe6900928431f04d57b3a9b3df9d7"}, {"is_reserved": 0, "fusion_lat": 0.0, "lon": -76.99498066666666, "rental_uris": {"android": "https://dc.lft.to/lastmile_qr_scan", "ios": "https://dc.lft.to/lastmile_qr_scan"}, "lat": 38.90981716666667, "type": "electric_scooter", "bike_id": "ba0eaa35c7b6a84219893a68cc36ed3c", "fusion_lon": 0.0, "is_disabled": 0, "name": "ba0eaa35c7b6a84219893a68cc36ed3c"}, {"is_reserved": 0, "fusion_lat": 0.0, "lon": -77.02691933333334, "rental_uris": {"android": "https://dc.lft.to/lastmile_qr_scan", "ios": "https://dc.lft.to/lastmile_qr_scan"}, "lat": 38.949800833333335, "type": "electric_scooter", "bike_id": "83e8bc8fe9d0fc99ca679883955ad2d3", "fusion_lon": 0.0, "is_disabled": 0, "name": "83e8bc8fe9d0fc99ca679883955ad2d3"}, {"is_reserved": 0, "fusion_lat": 0.0, "lon": -77.02222333333333, "rental_uris": {"android": "https://dc.lft.to/lastmile_qr_scan", "ios": "https://dc.lft.to/lastmile_qr_scan"}, "lat": 38.892186833333334, "type": "electric_scooter", "bike_id": "eddb1f888589028ea1be5a83c9eb4acc", "fusion_lon": 0.0, "is_disabled": 0, "name": "eddb1f888589028ea1be5a83c9eb4acc"},