{"data": {"bikes": [{"name": "470212dfac1d2a7af73395992bf15406", "fusion_lat": 0.0, "type": "electric_scooter", "lat": 38.89845533333333, "is_reserved": 0, "is_disabled": 0, "fusion_lon": 0.0, "bike_id": "470212dfac1d2a7af73395992bf15406", "lon": -77.00749183333333, "rental_uris": {"ios": "https://dc.lft.to/lastmile_qr_scan", "android": "https://dc.lft.to/lastmile_qr_scan"}}, {"name": "9a293add1f2a86dc4df285f71863f927", "fusion_lat": 0.0, "type": "electric_bike", "lat": 38.851576, "is_reserved": 0, "is_disabled": 0, "fusion_lon": 0.0, "bike_id": "9a293add1f2a86dc4df285f71863f927", "lon": -77.12875333333334, "rental_uris": {"ios": "https://dc.lft.to/lastmile_qr_scan", "android": "https://dc.lft.to/lastmile_qr_scan"}}, {"name": "64385ff6a62a17b1e607164cb847a4da", "fusion_lat": 0.0, "type": "electric_scooter", "lat": 38.865111166666665, "is_reserved": 0, "is_disabled": 0, "fusion_lon": 0.0, "bike_id": "64385ff6a62a17b1e607164cb847a4da", "lon": -76.97341533333334, "rental_uris": {"ios": "https://dc.lft.to/lastmile_qr_scan", "android": "https://dc.lft.to/lastmile_qr_scan"}}, {"name": "09f650b36c7fa659df73ad3d1c313c33", "fusion_lat": 0.0, "type": "electric_scooter", "lat": 38.88344516666667, "is_reserved": 0, "is_disabled": 0, "fusion_lon": 0.0, "bike_id": "09f650b36c7fa659df73ad3d1c313c33", "lon": -77.0316795, "rental_uris": {"ios": "https://dc.lft.to/lastmile_qr_scan", "android": "https://dc.lft.to/lastmile_qr_scan"}}, {"name": "2b20c2ea9221f0f781a57735284a30fd", "fusion_lat": 0.0, "type": "electric_scooter", "lat": 38.93074466666667, "is_reserved": 0, "is_disabled": 0, "fusion_lon": 0.0, "bike_id": "2b20c2ea9221f0f781a57735284a30fd", "lon": -77.03403116666667, "rental_uris": {"ios": "https://dc.lft.to/lastmile_qr_scan", "android": "https://dc.lft.to/lastmile_qr_scan"}}, {"name": "f8102ee40ef35eb2add76f0289f8f20b", "fusion_lat": 0.0, "type": "electric_bike", "lat": 38.872334333333335, "is_reserved": 0, "is_disabled": 0, "fusion_lon": 0.0, "bike_id": "f8102ee40ef35eb2add76f0289f8f20b", "lon": -77.01176983333333, "rental_uris": {"ios": "https://dc.lft.to/lastmile_qr_scan", "android": "https://dc.lft.to/lastmile_qr_scan"}}, {"name": "4bf154835809f7ae136b8410f0be36f6", "fusion_lat": 0.0, "type": "electric_bike", "lat": 38.939716, "is_reserved": 0, "is_disabled": 0, "fusion_lon": 0.0, "bike_id": "4bf154835809f7ae136b8410f0be36f6", "lon": -76.98657083333333, "rental_uris": {"ios": "https://dc.lft.to/lastmile_qr_scan", "android": "https://dc.lft.to/lastmile_qr_scan"}}, {"name": "a666dc63e0f9e5cef05a384961efaf76", "fusion_lat": 0.0, "type": "electric_scooter", "lat": 38.9103955, "is_reserved": 0, "is_disabled": 0, "fusion_lon": 0.0, "bike_id": "a666dc63e0f9e5cef05a384961efaf76", "lon": -77.04870383333333, "rental_uris": {"ios": "https://dc.lft.to/lastmile_qr_scan", "android": "https://dc.lft.to/lastmile_qr_scan"}}, {"name": "5baf2198b3bb83ded5baa16e6d68307f", "fusion_lat": 0.0, "type": "electric_scooter", "lat": 38.901372, "is_reserved": 0, "is_disabled": 0, "fusion_lon": 0.0, "bike_id": "5baf2198b3bb83ded5baa16e6d68307f", "lon": -77.04499566666667, "rental_uris": {"ios": "https://dc.lft.to/lastmile_qr_scan", "android": "https://dc.lft.to/lastmile_qr_scan"}}, {"name": "8664faa55f1f1d30ce9bd1c0a85b30da", "fusion_lat": 0.0, "type": "electric_scooter", "lat": 38.89475916666667, "is_reserved": 0, "is_disabled": 0, "fusion_lon": 0.0, "bike_id": "8664faa55f1f1d30ce9bd1c0a85b30da", "lon": -76.98405183333334, "rental_uris": {"ios": "https://dc.lft.to/lastmile_qr_scan", "android": "https://dc.lft.to/lastmile_qr_scan"}}, {"name": "defc21a0cfa1b0a9f3f9503fd1eeff3d", "fusion_lat": 0.0, "type": "electric_scooter", "lat": 38.92576616666667, "is_reserved": 0, "is_disabled": 0, "fusion_lon": 0.0, "bike_id": "defc21a0cfa1b0a9f3f9503fd1eeff3d", "lon": -77.02841816666667, "rental_uris": {"ios": "https://dc.lft.to/lastmile_qr_scan", "android": "https://dc.lft.to/lastmile_qr_scan"}}, {"name": "b1f5a3086cd440e805b0457fd7c24544", "fusion_lat": 0.0, "type": "electric_scooter", "lat": 38.961129666666665, "is_reserved": 0, "is_disabled": 0, "fusion_lon": 0.0, "bike_id": "b1f5a3086cd440e805b0457fd7c24544", "lon": -77.0281165, "rental_uris": {"ios": "https://dc.lft.to/lastmile_qr_scan", "android": "https://dc.lft.to/lastmile_qr_scan"}}, {"name": "28a7d35d377ee4ab2c907eff2bde0142", "fusion_lat": 0.0, "type": "electric_scooter", "lat": 38.943113833333335, "is_reserved": 0, "is_disabled": 0, "fusion_lon": 0.0, "bike_id": "28a7d35d377ee4ab2c907eff2bde0142", "lon": -77.05927266666667, "rental_uris": {"ios": "https://dc.lft.to/lastmile_qr_scan", "android": "https://dc.lft.to/lastmile_qr_scan"}}, {"name": "d5eb472dcd851b6a688430af4480335f", "fusion_lat": 0.0, "type": "electric_scooter", "lat": 38.902076, "is_reserved": 0, "is_disabled": 0, "fusion_lon": 0.0, "bike_id": "d5eb472dcd851b6a688430af4480335f", "lon": -76.9818285, "rental_uris": {"ios": "https://dc.lft.to/lastmile_qr_scan", "android": "https://dc.lft.to/lastmile_qr_scan"}}, {"name": "03f86be31932f2f90bdb595788321012", "fusion_lat": 0.0, "type": "electric_scooter", "lat": 38.898561, "is_reserved": 0, "is_disabled": 0, "fusion_lon": 0.0, "bike_id": "03f86be31932f2f90bdb595788321012", "lon": -76.97546366666667, "rental_uris": {"ios": "https://dc.lft.to/lastmile_qr_scan", "android": "https://dc.lft.to/lastmile_qr_scan"}}, {"name": "ad3d4fed1322bb47d6119b1ca3ff69b5", "fusion_lat": 0.0, "type": "electric_scooter", "lat": 38.899199333333335, "is_reserved": 0, "is_disabled": 0, "fusion_lon": 0.0, "bike_id": "ad3d4fed1322bb47d6119b1ca3ff69b5", "lon": -76.93381783333334, "rental_uris": {"ios": "https://dc.lft.to/lastmile_qr_scan", "android": "https://dc.lft.to/lastmile_qr_scan"}}, {"name": "241dda33e3de09e7a7f93cc65449caff", "fusion_lat": 0.0, "type": "electric_scooter", "lat": 38.92487083333333, "is_reserved": 0, "is_disabled": 0, "fusion_lon": 0.0, "bike_id": "241dda33e3de09e7a7f93cc65449caff", "lon": -77.05212633333333, "rental_uris": {"ios": "https://dc.lft.to/lastmile_qr_scan", "android": "https://dc.lft.to/lastmile_qr_scan"}}, {"name": "38085172756a3997b0b5e37aa5bd4855", "fusion_lat": 0.0, "type": "electric_scooter", "lat": 38.92971633333333, "is_reserved": 0, "is_disabled": 0, "fusion_lon": 0.0, "bike_id": "38085172756a3997b0b5e37aa5bd4855", "lon": -77.02820316666667, "rental_uris": {"ios": "https://dc.lft.to/lastmile_qr_scan", "android": "https://dc.lft.to/lastmile_qr_scan"}}, {"name": "8366f1601c9205cb13821f166b59d9c9", "fusion_lat": 0.0, "type": "electric_scooter", "lat": 38.9128155, "is_reserved": 0, "is_disabled": 0, "fusion_lon": 0.0, "bike_id": "8366f1601c9205cb13821f166b59d9c9", "lon": -77.03193016666667, "rental_uris": {"ios": "https://dc.lft.to/lastmile_qr_scan", "android": "https://dc.lft.to/lastmile_qr_scan"}}, {"name": "b35c5484d9dcb6f2b48f1e3cfc04212b", "fusion_lat": 0.0, "type": "electric_bike", "lat": 39.00385166666667, "is_reserved": 0, "is_disabled": 0, "fusion_lon": 0.0, "bike_id": "b35c5484d9dcb6f2b48f1e3cfc04212b", "lon": -77.0128225, "rental_uris": {"ios": "https://dc.lft.to/lastmile_qr_scan", "android": "https://dc.lft.to/lastmile_qr_scan"}}, {"name": "6383760e75bc14a4454a26419db42a34", "fusion_lat": 0.0, "type": "electric_bike", "lat": 38.8079275, "is_reserved": 0, "is_disabled": 0, "fusion_lon": 0.0, "bike_id": "6383760e75bc14a4454a26419db42a34", "lon": -77.12965383333334, "rental_uris": {"ios": "https://dc.lft.to/lastmile_qr_scan", "android": "https://dc.lft.to/lastmile_qr_scan"}}, {"name": "7377ee2eedf10c7ab05e2afd0bacfb32", "fusion_lat": 0.0, "type": "electric_scooter", "lat": 38.85789066666667, "is_reserved": 0, "is_disabled": 0, "fusion_lon": 0.0, "bike_id": "7377ee2eedf10c7ab05e2afd0bacfb32", "lon": -76.9909055, "rental_uris": {"ios": "https://dc.lft.to/lastmile_qr_scan", "android": "https://dc.lft.to/lastmile_qr_scan"}}, {"name": "518f2fd355f32430d50e271d6e5b428e", "fusion_lat": 0.0, "type": "electric_scooter", "lat": 38.9565235, "is_reserved": 0, "is_disabled": 0, "fusion_lon": 0.0, "bike_id": "518f2fd355f32430d50e271d6e5b428e", "lon": -77.03285583333333, "rental_uris": {"ios": "https://dc.lft.to/lastmile_qr_scan", "android": "https://dc.lft.to/lastmile_qr_scan"}}, {"name": "5ef32d141de7f13ae788b55665eac922", "fusion_lat": 0.0, "type": "electric_scooter", "lat": 38.90164016666667, "is_reserved": 0, "is_disabled": 0, "fusion_lon": 0.0, "bike_id": "5ef32d141de7f13ae788b55665eac922", "lon": -77.02508666666667, "rental_uris": {"ios": "https://dc.lft.to/lastmile_qr_scan", "android": "https://dc.lft.to/lastmile_qr_scan"}}, {"name": "6c16a5e866bc8fb24d8a58dd57868072", "fusion_lat": 0.0, "type": "electric_scooter", "lat": 38.8953105, "is_reserved": 0, "is_disabled": 0, "fusion_lon": 0.0, "bike_id": "6c16a5e866bc8fb24d8a58dd57868072", "lon": -77.03204016666666, "rental_uris": {"ios": "https://dc.lft.to/lastmile_qr_scan", "android": "https://dc.lft.to/lastmile_qr_scan"}}, {"name": "0bdce94e12f855ac3e374efdc5bf4af2", "fusion_lat": 0.0, "type": "electric_scooter", "lat": 38.922127, "is_reserved": 0, "is_disabled": 0, "fusion_lon": 0.0, "bike_id": "0bdce94e12f855ac3e374efdc5bf4af2", "lon": -76.98747416666667, "rental_uris": {"ios": "https://dc.lft.to/lastmile_qr_scan", "android": "https://dc.lft.to/lastmile_qr_scan"}}, {"name": "0536939b43544042548e1092323b1768", "fusion_lat": 0.0, "type": "electric_scooter", "lat": 38.959126166666664, "is_reserved": 0, "is_disabled": 0, "fusion_lon": 0.0, "bike_id": "0536939b43544042548e1092323b1768", "lon": -77.08072666666666, "rental_uris": {"ios": "https://dc.lft.to/lastmile_qr_scan", "android": "https://dc.lft.to/lastmile_qr_scan"}}, {"name": "2f543aef481ebb3727e0acd0675534b1", "fusion_lat": 0.0, "type": "electric_scooter", "lat": 38.932036, "is_reserved": 0, "is_disabled": 0, "fusion_lon": 0.0, "bike_id": "2f543aef481ebb3727e0acd0675534b1", "lon": -77.03661733333334, "rental_uris": {"ios": "https://dc.lft.to/lastmile_qr_scan", "android": "https://dc.lft.to/lastmile_qr_scan"}}, {"name": "063d8c60179f2f52885f50c9ca3f2512", "fusion_lat": 0.0, "type": "electric_scooter", "lat": 38.8957755, "is_reserved": 0, "is_disabled": 0, "fusion_lon": 0.0, "bike_id": "063d8c60179f2f52885f50c9ca3f2512", "lon": -76.9489005, "rental_uris": {"ios": "https://dc.lft.to/lastmile_qr_scan", "android": "https://dc.lft.to/lastmile_qr_scan"}}, {"name": "34834aa23bb6e3da8d5cb863d396d340", "fusion_lat": 0.0, "type": "electric_scooter", "lat": 38.900784, "is_reserved": 0, "is_disabled": 0, "fusion_lon": 0.0, "bike_id": "34834aa23bb6e3da8d5cb863d396d340", "lon": -77.04988033333333, "rental_uris": {"ios": "https://dc.lft.to/lastmile_qr_scan", "android": "https://dc.lft.to/lastmile_qr_scan"}}, {"name": "f8dc6f4f61c1eaa24df2014061df8ff3", "fusion_lat": 0.0, "type": "electric_scooter", "lat": 38.9057645, "is_reserved": 0, "is_disabled": 0, "fusion_lon": 0.0, "bike_id": "f8dc6f4f61c1eaa24df2014061df8ff3", "lon": -77.0326865, "rental_uris": {"ios": "https://dc.lft.to/lastmile_qr_scan", "android": "https://dc.lft.to/lastmile_qr_scan"}}, {"name": "0dfff28273640eee32c85cb02149a6e1", "fusion_lat": 0.0, "type": "electric_scooter", "lat": 38.89961866666667, "is_reserved": 0, "is_disabled": 0, "fusion_lon": 0.0, "bike_id": "0dfff28273640eee32c85cb02149a6e1", "lon": -77.0312615, "rental_uris": {"ios": "https://dc.lft.to/lastmile_qr_scan", "android": "https://dc.lft.to/lastmile_qr_scan"}}, {"name": "2ae6f4aa0424dbbfbe8359c2284d7e67", "fusion_lat": 0.0, "type": "electric_scooter", "lat": 38.911174333333335, "is_reserved": 0, "is_disabled": 0, "fusion_lon": 0.0, "bike_id": "2ae6f4aa0424dbbfbe8359c2284d7e67", "lon": -77.02410016666667, "rental_uris": {"ios": "https://dc.lft.to/lastmile_qr_scan", "android": "https://dc.lft.to/lastmile_qr_scan"}}, {"name": "255de7b34b36f7a2030b15fddbf05403", "fusion_lat": 0.0, "type": "electric_scooter", "lat": 38.922431, "is_reserved": 0, "is_disabled": 0, "fusion_lon": 0.0, "bike_id": "255de7b34b36f7a2030b15fddbf05403", "lon": -77.03662, "rental_uris": {"ios": "https://dc.lft.to/lastmile_qr_scan", "android": "https://dc.lft.to/lastmile_qr_scan"}}, {"name": "abd65cc9fcb81c7f20574e7b85a9d2a0", "fusion_lat": 0.0, "type": "electric_scooter", "lat": 38.8971075, "is_reserved": 0, "is_disabled": 0, "fusion_lon": 0.0, "bike_id": "abd65cc9fcb81c7f20574e7b85a9d2a0", "lon": -77.03248633333334, "rental_uris": {"ios": "https://dc.lft.to/lastmile_qr_scan", "android": "https://dc.lft.to/lastmile_qr_scan"}}, {"name": "44a7870031169dd3ef6d42856bd8a822", "fusion_lat": 0.0, "type": "electric_scooter", "lat": 38.91489833333333, "is_reserved": 0, "is_disabled": 0, "fusion_lon": 0.0, "bike_id": "44a7870031169dd3ef6d42856bd8a822", "lon": -77.03243766666667, "rental_uris": {"ios": "https://dc.lft.to/lastmile_qr_scan", "android": "https://dc.lft.to/lastmile_qr_scan"}}, {"name": "43b77410105ae3de52b330fa5f27146e", "fusion_lat": 0.0, "type": "electric_scooter", "lat": 38.918097, "is_reserved": 0, "is_disabled": 0, "fusion_lon": 0.0, "bike_id": "43b77410105ae3de52b330fa5f27146e", "lon": -77.03209566666666, "rental_uris": {"ios": "https://dc.lft.to/lastmile_qr_scan", "android": "https://dc.lft.to/lastmile_qr_scan"}}, {"name": "3ac896a8182334f89ca09471d4d233aa", "fusion_lat": 0.0, "type": "electric_bike", "lat": 38.9686365, "is_reserved": 0, "is_disabled": 0, "fusion_lon": 0.0, "bike_id": "3ac896a8182334f89ca09471d4d233aa", "lon": -77.03339, "rental_uris": {"ios": "https://dc.lft.to/lastmile_qr_scan", "android": "https://dc.lft.to/lastmile_qr_scan"}}, {"name": "9092e059d2a7bcc66d3168af39d0a49b", "fusion_lat": 0.0, "type": "electric_scooter", "lat": 38.912887166666664, "is_reserved": 0, "is_disabled": 0, "fusion_lon": 0.0, "bike_id": "9092e059d2a7bcc66d3168af39d0a49b", "lon": -77.02385866666667, "rental_uris": {"ios": "https://dc.lft.to/lastmile_qr_scan", "android": "https://dc.lft.to/lastmile_qr_scan"}}, {"name": "decbe98b56995d52e647baefcbf7b695", "fusion_lat": 0.0, "type": "electric_scooter", "lat": 38.90024183333333, "is_reserved": 0, "is_disabled": 0, "fusion_lon": 0.0, "bike_id": "decbe98b56995d52e647baefcbf7b695", "lon": -76.99342583333333, "rental_uris": {"ios": "https://dc.lft.to/lastmile_qr_scan", "android": "https://dc.lft.to/lastmile_qr_scan"}}, {"name": "317dc58cc621c29a73d2050ebca5fb2c", "fusion_lat": 0.0, "type": "electric_scooter", "lat": 38.90138533333333, "is_reserved": 0, "is_disabled": 0, "fusion_lon": 0.0, "bike_id": "317dc58cc621c29a73d2050ebca5fb2c", "lon": -77.04501816666667, "rental_uris": {"ios": "https://dc.lft.to/lastmile_qr_scan", "android": "https://dc.lft.to/lastmile_qr_scan"}}, {"name": "d5cdf70de8e3764745f999dd31af51fd", "fusion_lat": 0.0, "type": "electric_scooter", "lat": 38.91152783333333, "is_reserved": 0, "is_disabled": 0, "fusion_lon": 0.0, "bike_id": "d5cdf70de8e3764745f999dd31af51fd", "lon": -77.04430166666667, "rental_uris": {"ios": "https://dc.lft.to/lastmile_qr_scan", "android": "https://dc.lft.to/lastmile_qr_scan"}}, {"name": "a733d28db7894d164e6d27440a45adba", "fusion_lat": 0.0, "type": "electric_scooter", "lat": 38.900289666666666, "is_reserved": 0, "is_disabled": 0, "fusion_lon": 0.0, "bike_id": "a733d28db7894d164e6d27440a45adba", "lon": -76.9884865, "rental_uris": {"ios": "https://dc.lft.to/lastmile_qr_scan", "android": "https://dc.lft.to/lastmile_qr_scan"}}, {"name": "26593145614b6d338c6b74bb8fbc7ae5", "fusion_lat": 0.0, "type": "electric_scooter", "lat": 38.90574733333333, "is_reserved": 0, "is_disabled": 0, "fusion_lon": 0.0, "bike_id": "26593145614b6d338c6b74bb8fbc7ae5", "lon": -77.034402, "rental_uris": {"ios": "https://dc.lft.to/lastmile_qr_scan", "android": "https://dc.lft.to/lastmile_qr_scan"}}, {"name": "6de6df68840781f5344ad4d734942bd2", "fusion_lat": 0.0, "type": "electric_scooter", "lat": 38.8997295, "is_reserved": 0, "is_disabled": 0, "fusion_lon": 0.0, "bike_id": "6de6df68840781f5344ad4d734942bd2", "lon": -77.02950233333334, "rental_uris": {"ios": "https://dc.lft.to/lastmile_qr_scan", "android": "https://dc.lft.to/lastmile_qr_scan"}}, {"name": "eefab27b3285b70fe1fb011120107996", "fusion_lat": 0.0, "type": "electric_scooter", "lat": 38.9123905, "is_reserved": 0, "is_disabled": 0, "fusion_lon": 0.0, "bike_id": "eefab27b3285b70fe1fb011120107996", "lon": -77.00915466666666, "rental_uris": {"ios": "https://dc.lft.to/lastmile_qr_scan", "android": "https://dc.lft.to/lastmile_qr_scan"}}, {"name": "9dd65f962dc4f766a00ca2e992405689", "fusion_lat": 0.0, "type": "electric_bike", "lat": 38.964951166666665, "is_reserved": 0, "is_disabled": 0, "fusion_lon": 0.0, "bike_id": "9dd65f962dc4f766a00ca2e992405689", "lon": -77.06494866666667, "rental_uris": {"ios": "https://dc.lft.to/lastmile_qr_scan", "android": "https://dc.lft.to/lastmile_qr_scan"}}, {"name": "d172225f65eff386633d00d8d33d5ce1", "fusion_lat": 0.0, "type": "electric_scooter", "lat": 38.92584183333334, "is_reserved": 0, "is_disabled": 0, "fusion_lon": 0.0, "bike_id": "d172225f65eff386633d00d8d33d5ce1", "lon": -77.02854983333333, "rental_uris": {"ios": "https://dc.lft.to/lastmile_qr_scan", "android": "https://dc.lft.to/lastmile_qr_scan"}}, {"name": "138c91fdd86313306b7a5e0f4d526b7e", "fusion_lat": 0.0, "type": "electric_scooter", "lat": 38.911274, "is_reserved": 0, "is_disabled": 0, "fusion_lon": 0.0, "bike_id": "138c91fdd86313306b7a5e0f4d526b7e", "lon": -77.03181583333334, "rental_uris": {"ios": "https://dc.lft.to/lastmile_qr_scan", "android": "https://dc.lft.to/lastmile_qr_scan"}}, {"name": "222c9019dc714d07751090168f21a121", "fusion_lat": 0.0, "type": "electric_scooter", "lat": 38.909502, "is_reserved": 0, "is_disabled": 0, "fusion_lon": 0.0, "bike_id": "222c9019dc714d07751090168f21a121", "lon": -77.04126916666667, "rental_uris": {"ios": "https://dc.lft.to/lastmile_qr_scan", "android": "https://dc.lft.to/lastmile_qr_scan"}}, {"name": "0aa37645887a61159bc5971c6643a86c", "fusion_lat": 0.0, "type": "electric_scooter", "lat": 38.92063266666667, "is_reserved": 0, "is_disabled": 0, "fusion_lon": 0.0, "bike_id": "0aa37645887a61159bc5971c6643a86c", "lon": -77.02963083333333, "rental_uris": {"ios": "https://dc.lft.to/lastmile_qr_scan", "android": "https://dc.lft.to/lastmile_qr_scan"}}, {"name": "f304d715316785e97f58b9f91a892dea", "fusion_lat": 0.0, "type": "electric_scooter", "lat": 38.918036666666666, "is_reserved": 0, "is_disabled": 0, "fusion_lon": 0.0, "bike_id": "f304d715316785e97f58b9f91a892dea", "lon": -77.01450033333333, "rental_uris": {"ios": "https://dc.lft.to/lastmile_qr_scan", "android": "https://dc.lft.to/lastmile_qr_scan"}}, {"name": "88d5e47f3057f1dee4fb800a14d23641", "fusion_lat": 0.0, "type": "electric_scooter", "lat": 38.916978, "is_reserved": 0, "is_disabled": 0, "fusion_lon": 0.0, "bike_id": "88d5e47f3057f1dee4fb800a14d23641", "lon": -77.02462016666666, "rental_uris": {"ios": "https://dc.lft.to/lastmile_qr_scan", "android": "https://dc.lft.to/lastmile_qr_scan"}}, {"name": "aeac87e7401688f8b785adca4c86041c", "fusion_lat": 0.0, "type": "electric_scooter", "lat": 38.918153833333335, "is_reserved": 0, "is_disabled": 0, "fusion_lon": 0.0, "bike_id": "aeac87e7401688f8b785adca4c86041c", "lon": -77.02710333333333, "rental_uris": {"ios": "https://dc.lft.to/lastmile_qr_scan", "android": "https://dc.lft.to/lastmile_qr_scan"}}, {"name": "50b40e2519fad4d5b7c70b2ec710dbb9", "fusion_lat": 0.0, "type": "electric_scooter", "lat": 38.89090216666666, "is_reserved": 0, "is_disabled": 0, "fusion_lon": 0.0, "bike_id": "50b40e2519fad4d5b7c70b2ec710dbb9", "lon": -76.98731866666667, "rental_uris": {"ios": "https://dc.lft.to/lastmile_qr_scan", "android": "https://dc.lft.to/lastmile_qr_scan"}}, {"name": "7a887017e4c27cc0bbe36fa7b49f149d", "fusion_lat": 0.0, "type": "electric_scooter", "lat": 38.907033, "is_reserved": 0, "is_disabled": 0, "fusion_lon": 0.0, "bike_id": "7a887017e4c27cc0bbe36fa7b49f149d", "lon": -76.98852266666667, "rental_uris": {"ios": "https://dc.lft.to/lastmile_qr_scan", "android": "https://dc.lft.to/lastmile_qr_scan"}}, {"name": "b36ce62015eea69bf1933690cf693768", "fusion_lat": 0.0, "type": "electric_scooter", "lat": 38.932581166666665, "is_reserved": 0, "is_disabled": 0, "fusion_lon": 0.0, "bike_id": "b36ce62015eea69bf1933690cf693768", "lon": -77.0400585, "rental_uris": {"ios": "https://dc.lft.to/lastmile_qr_scan", "android": "https://dc.lft.to/lastmile_qr_scan"}}, {"name": "47d1acaf363dce2f8177b16ed51ac996", "fusion_lat": 0.0, "type": "electric_scooter", "lat": 38.9268875, "is_reserved": 0, "is_disabled": 0, "fusion_lon": 0.0, "bike_id": "47d1acaf363dce2f8177b16ed51ac996", "lon": -77.03772866666667, "rental_uris": {"ios": "https://dc.lft.to/lastmile_qr_scan", "android": "https://dc.lft.to/lastmile_qr_scan"}}, {"name": "30cba760ea82f29f3a55ac587e62f608", "fusion_lat": 0.0, "type": "electric_scooter", "lat": 38.905168, "is_reserved": 0, "is_disabled": 0, "fusion_lon": 0.0, "bike_id": "30cba760ea82f29f3a55ac587e62f608", "lon": -77.04474266666666, "rental_uris": {"ios": "https://dc.lft.to/lastmile_qr_scan", "android": "https://dc.lft.to/lastmile_qr_scan"}}, {"name": "bd54ead2a9a7036f93e6b9aa34cda075", "fusion_lat": 0.0, "type": "electric_scooter", "lat": 38.91324066666667, "is_reserved": 0, "is_disabled": 0, "fusion_lon": 0.0, "bike_id": "bd54ead2a9a7036f93e6b9aa34cda075", "lon": -77.01778716666666, "rental_uris": {"ios": "https://dc.lft.to/lastmile_qr_scan", "android": "https://dc.lft.to/lastmile_qr_scan"}}, {"name": "2b115614e8d1388ef237113ba44689d1", "fusion_lat": 0.0, "type": "electric_scooter", "lat": 38.91263983333333, "is_reserved": 0, "is_disabled": 0, "fusion_lon": 0.0, "bike_id": "2b115614e8d1388ef237113ba44689d1", "lon": -77.0387005, "rental_uris": {"ios": "https://dc.lft.to/lastmile_qr_scan", "android": "https://dc.lft.to/lastmile_qr_scan"}}, {"name": "33051eefc6bf88f11463eb1ce7d10e72", "fusion_lat": 0.0, "type": "electric_scooter", "lat": 38.9191915, "is_reserved": 0, "is_disabled": 0, "fusion_lon": 0.0, "bike_id": "33051eefc6bf88f11463eb1ce7d10e72", "lon": -77.034345, "rental_uris": {"ios": "https://dc.lft.to/lastmile_qr_scan", "android": "https://dc.lft.to/lastmile_qr_scan"}}, {"name": "ae9c6c10ce0b079e9b820443b713971b", "fusion_lat": 0.0, "type": "electric_scooter", "lat": 38.921834, "is_reserved": 0, "is_disabled": 0, "fusion_lon": 0.0, "bike_id": "ae9c6c10ce0b079e9b820443b713971b", "lon": -77.042516, "rental_uris": {"ios": "https://dc.lft.to/lastmile_qr_scan", "android": "https://dc.lft.to/lastmile_qr_scan"}}, {"name": "d1a44c1888120b57a9bd24578ed7e466", "fusion_lat": 0.0, "type": "electric_scooter", "lat": 38.910650833333335, "is_reserved": 0, "is_disabled": 0, "fusion_lon": 0.0, "bike_id": "d1a44c1888120b57a9bd24578ed7e466", "lon": -77.042428, "rental_uris": {"ios": "https://dc.lft.to/lastmile_qr_scan", "android": "https://dc.lft.to/lastmile_qr_scan"}}, {"name": "5e77c97be8b6a5c045a689287986280b", "fusion_lat": 0.0, "type": "electric_scooter", "lat": 38.90864333333333, "is_reserved": 0, "is_disabled": 0, "fusion_lon": 0.0, "bike_id": "5e77c97be8b6a5c045a689287986280b", "lon": -76.999517, "rental_uris": {"ios": "https://dc.lft.to/lastmile_qr_scan", "android": "https://dc.lft.to/lastmile_qr_scan"}}, {"name": "2a63f2c8ffda96759c149609efd1c410", "fusion_lat": 0.0, "type": "electric_bike", "lat": 38.81517616666667, "is_reserved": 0, "is_disabled": 0, "fusion_lon": 0.0, "bike_id": "2a63f2c8ffda96759c149609efd1c410", "lon": -77.126539, "rental_uris": {"ios": "https://dc.lft.to/lastmile_qr_scan", "android": "https://dc.lft.to/lastmile_qr_scan"}}, {"name": "5e78e9696579cf1532ba3a0bc0dd89eb", "fusion_lat": 0.0, "type": "electric_scooter", "lat": 38.89613133333334, "is_reserved": 0, "is_disabled": 0, "fusion_lon": 0.0, "bike_id": "5e78e9696579cf1532ba3a0bc0dd89eb", "lon": -77.04690483333333, "rental_uris": {"ios": "https://dc.lft.to/lastmile_qr_scan", "android": "https://dc.lft.to/lastmile_qr_scan"}}, {"name": "50b7b52ab211a33a28409258e890f97c", "fusion_lat": 0.0, "type": "electric_scooter", "lat": 38.912301166666666, "is_reserved": 0, "is_disabled": 0, "fusion_lon": 0.0, "bike_id": "50b7b52ab211a33a28409258e890f97c", "lon": -77.0384, "rental_uris": {"ios": "https://dc.lft.to/lastmile_qr_scan", "android": "https://dc.lft.to/lastmile_qr_scan"}}, {"name": "a633ddb7ad2dda217823083a55706132", "fusion_lat": 0.0, "type": "electric_scooter", "lat": 38.933648166666664, "is_reserved": 0, "is_disabled": 0, "fusion_lon": 0.0, "bike_id": "a633ddb7ad2dda217823083a55706132", "lon": -77.03726783333333, "rental_uris": {"ios": "https://dc.lft.to/lastmile_qr_scan", "android": "https://dc.lft.to/lastmile_qr_scan"}}, {"name": "79633d303eec3dcacf87887ff6cc8825", "fusion_lat": 0.0, "type": "electric_scooter", "lat": 38.917112333333336, "is_reserved": 0, "is_disabled": 0, "fusion_lon": 0.0, "bike_id": "79633d303eec3dcacf87887ff6cc8825", "lon": -77.02896966666667, "rental_uris": {"ios": "https://dc.lft.to/lastmile_qr_scan", "android": "https://dc.lft.to/lastmile_qr_scan"}}, {"name": "639aeeb356be10e49d1c1893ecac2e04", "fusion_lat": 0.0, "type": "electric_scooter", "lat": 38.90524583333333, "is_reserved": 0, "is_disabled": 0, "fusion_lon": 0.0, "bike_id": "639aeeb356be10e49d1c1893ecac2e04", "lon": -77.047413, "rental_uris": {"ios": "https://dc.lft.to/lastmile_qr_scan", "android": "https://dc.lft.to/lastmile_qr_scan"}}, {"name": "f474464ccc4b2339d10be3112197c1b1", "fusion_lat": 0.0, "type": "electric_scooter", "lat": 38.906748, "is_reserved": 0, "is_disabled": 0, "fusion_lon": 0.0, "bike_id": "f474464ccc4b2339d10be3112197c1b1", "lon": -76.97811316666667, "rental_uris": {"ios": "https://dc.lft.to/lastmile_qr_scan", "android": "https://dc.lft.to/lastmile_qr_scan"}}, {"name": "5fbd01990577317586515502d3be3331", "fusion_lat": 0.0, "type": "electric_bike", "lat": 38.89190333333333, "is_reserved": 0, "is_disabled": 0, "fusion_lon": 0.0, "bike_id": "5fbd01990577317586515502d3be3331", "lon": -77.12257733333334, "rental_uris": {"ios": "https://dc.lft.to/lastmile_qr_scan", "android": "https://dc.lft.to/lastmile_qr_scan"}}, {"name": "f27b2a57353a2c1ca2cfb204ba216f33", "fusion_lat": 0.0, "type": "electric_scooter", "lat": 38.905388333333335, "is_reserved": 0, "is_disabled": 0, "fusion_lon": 0.0, "bike_id": "f27b2a57353a2c1ca2cfb204ba216f33", "lon": -77.05033133333333, "rental_uris": {"ios": "https://dc.lft.to/lastmile_qr_scan", "android": "https://dc.lft.to/lastmile_qr_scan"}}, {"name": "350f73e1390e2a8304e4af60cc1b6718", "fusion_lat": 0.0, "type": "electric_bike", "lat": 38.83194666666667, "is_reserved": 0, "is_disabled": 0, "fusion_lon": 0.0, "bike_id": "350f73e1390e2a8304e4af60cc1b6718", "lon": -77.076838, "rental_uris": {"ios": "https://dc.lft.to/lastmile_qr_scan", "android": "https://dc.lft.to/lastmile_qr_scan"}}, {"name": "d4dd5ea0968eba1cb160291744963e6e", "fusion_lat": 0.0, "type": "electric_bike", "lat": 38.95551433333333, "is_reserved": 0, "is_disabled": 0, "fusion_lon": 0.0, "bike_id": "d4dd5ea0968eba1cb160291744963e6e", "lon": -76.9354345, "rental_uris": {"ios": "https://dc.lft.to/lastmile_qr_scan", "android": "https://dc.lft.to/lastmile_qr_scan"}}, {"name": "ceda72e213761ac852c2b613622c4902", "fusion_lat": 0.0, "type": "electric_scooter", "lat": 38.91108933333334, "is_reserved": 0, "is_disabled": 0, "fusion_lon": 0.0, "bike_id": "ceda72e213761ac852c2b613622c4902", "lon": -77.04931966666666, "rental_uris": {"ios": "https://dc.lft.to/lastmile_qr_scan", "android": "https://dc.lft.to/lastmile_qr_scan"}}, {"name": "70cec9c6c0853084c9348176165152fd", "fusion_lat": 0.0, "type": "electric_scooter", "lat": 38.90465366666667, "is_reserved": 0, "is_disabled": 0, "fusion_lon": 0.0, "bike_id": "70cec9c6c0853084c9348176165152fd", "lon": -77.038359, "rental_uris": {"ios": "https://dc.lft.to/lastmile_qr_scan", "android": "https://dc.lft.to/lastmile_qr_scan"}}, {"name": "9755867b98b3ed6d788937aed8c46ba8", "fusion_lat": 0.0, "type": "electric_scooter", "lat": 38.91601683333333, "is_reserved": 0, "is_disabled": 0, "fusion_lon": 0.0, "bike_id": "9755867b98b3ed6d788937aed8c46ba8", "lon": -77.04161816666667, "rental_uris": {"ios": "https://dc.lft.to/lastmile_qr_scan", "android": "https://dc.lft.to/lastmile_qr_scan"}}, {"name": "58e15f2ccc5c96e007c41d6f62883647", "fusion_lat": 0.0, "type": "electric_bike", "lat": 38.93774616666666, "is_reserved": 0, "is_disabled": 0, "fusion_lon": 0.0, "bike_id": "58e15f2ccc5c96e007c41d6f62883647", "lon": -77.01911866666667, "rental_uris": {"ios": "https://dc.lft.to/lastmile_qr_scan", "android": "https://dc.lft.to/lastmile_qr_scan"}}, {"name": "a97024a49f2e9bf46e3c8d9d65b54fc2", "fusion_lat": 0.0, "type": "electric_scooter", "lat": 38.897565166666666, "is_reserved": 0, "is_disabled": 0, "fusion_lon": 0.0, "bike_id": "a97024a49f2e9bf46e3c8d9d65b54fc2", "lon": -77.047775, "rental_uris": {"ios": "https://dc.lft.to/lastmile_qr_scan", "android": "https://dc.lft.to/lastmile_qr_scan"}}, {"name": "f5ef3adc550043d013262fd1b5cfca80", "fusion_lat": 0.0, "type": "electric_scooter", "lat": 38.85717666666667, "is_reserved": 0, "is_disabled": 0, "fusion_lon": 0.0, "bike_id": "f5ef3adc550043d013262fd1b5cfca80", "lon": -76.98103683333333, "rental_uris": {"ios": "https://dc.lft.to/lastmile_qr_scan", "android": "https://dc.lft.to/lastmile_qr_scan"}}, {"name": "46ae3490997bc8d652bda6a72027cf7e", "fusion_lat": 0.0, "type": "electric_scooter", "lat": 38.89802616666667, "is_reserved": 0, "is_disabled": 0, "fusion_lon": 0.0, "bike_id": "46ae3490997bc8d652bda6a72027cf7e", "lon": -76.99501216666667, "rental_uris": {"ios": "https://dc.lft.to/lastmile_qr_scan", "android": "https://dc.lft.to/lastmile_qr_scan"}}, {"name": "41ca763e6bbb9f272ccd756b150e66ab", "fusion_lat": 0.0, "type": "electric_scooter", "lat": 38.933881166666666, "is_reserved": 0, "is_disabled": 0, "fusion_lon": 0.0, "bike_id": "41ca763e6bbb9f272ccd756b150e66ab", "lon": -77.03158533333334, "rental_uris": {"ios": "https://dc.lft.to/lastmile_qr_scan", "android": "https://dc.lft.to/lastmile_qr_scan"}}, {"name": "8e6ce1c4764496b9ea7d81e4e47d1940", "fusion_lat": 0.0, "type": "electric_scooter", "lat": 38.889679666666666, "is_reserved": 0, "is_disabled": 0, "fusion_lon": 0.0, "bike_id": "8e6ce1c4764496b9ea7d81e4e47d1940", "lon": -76.92773016666666, "rental_uris": {"ios": "https://dc.lft.to/lastmile_qr_scan", "android": "https://dc.lft.to/lastmile_qr_scan"}}, {"name": "025bd1814221f1a1fb9e01dd30e7c0bf", "fusion_lat": 0.0, "type": "electric_scooter", "lat": 38.918254, "is_reserved": 0, "is_disabled": 0, "fusion_lon": 0.0, "bike_id": "025bd1814221f1a1fb9e01dd30e7c0bf", "lon": -77.031912, "rental_uris": {"ios": "https://dc.lft.to/lastmile_qr_scan", "android": "https://dc.lft.to/lastmile_qr_scan"}}, {"name": "2d09ce457ffba3a5f1f185ee2dd43663", "fusion_lat": 0.0, "type": "electric_scooter", "lat": 38.90312, "is_reserved": 0, "is_disabled": 0, "fusion_lon": 0.0, "bike_id": "2d09ce457ffba3a5f1f185ee2dd43663", "lon": -77.04987283333334, "rental_uris": {"ios": "https://dc.lft.to/lastmile_qr_scan", "android": "https://dc.lft.to/lastmile_qr_scan"}}, {"name": "e8434b9f23eebe48e5cf0503a6d5c4f2", "fusion_lat": 0.0, "type": "electric_scooter", "lat": 38.923430333333336, "is_reserved": 0, "is_disabled": 0, "fusion_lon": 0.0, "bike_id": "e8434b9f23eebe48e5cf0503a6d5c4f2", "lon": -77.05099066666666, "rental_uris": {"ios": "https://dc.lft.to/lastmile_qr_scan", "android": "https://dc.lft.to/lastmile_qr_scan"}}, {"name": "084276305d2b2cf99c0dd8a23961024b", "fusion_lat": 0.0, "type": "electric_scooter", "lat": 38.903494333333335, "is_reserved": 0, "is_disabled": 0, "fusion_lon": 0.0, "bike_id": "084276305d2b2cf99c0dd8a23961024b", "lon": -77.03822716666667, "rental_uris": {"ios": "https://dc.lft.to/lastmile_qr_scan", "android": "https://dc.lft.to/lastmile_qr_scan"}}, {"name": "afc3f7c8485e0b77726a2511b688f5f8", "fusion_lat": 0.0, "type": "electric_scooter", "lat": 38.90569983333334, "is_reserved": 0, "is_disabled": 0, "fusion_lon": 0.0, "bike_id": "afc3f7c8485e0b77726a2511b688f5f8", "lon": -77.02207866666667, "rental_uris": {"ios": "https://dc.lft.to/lastmile_qr_scan", "android": "https://dc.lft.to/lastmile_qr_scan"}}, {"name": "c418c30c5a6651593718ebabac8f92ae", "fusion_lat": 0.0, "type": "electric_bike", "lat": 38.99066533333333, "is_reserved": 0, "is_disabled": 0, "fusion_lon": 0.0, "bike_id": "c418c30c5a6651593718ebabac8f92ae", "lon": -77.100276, "rental_uris": {"ios": "https://dc.lft.to/lastmile_qr_scan", "android": "https://dc.lft.to/lastmile_qr_scan"}}, {"name": "67abd7e15811d9997ffd4c2e7a71ea69", "fusion_lat": 0.0, "type": "electric_scooter", "lat": 38.903779666666665, "is_reserved": 0, "is_disabled": 0, "fusion_lon": 0.0, "bike_id": "67abd7e15811d9997ffd4c2e7a71ea69", "lon": -77.03995933333333, "rental_uris": {"ios": "https://dc.lft.to/lastmile_qr_scan", "android": "https://dc.lft.to/lastmile_qr_scan"}}, {"name": "37268892bb1600dcc96fb9cf0735f8ca", "fusion_lat": 0.0, "type": "electric_scooter", "lat": 38.89994816666667, "is_reserved": 0, "is_disabled": 0, "fusion_lon": 0.0, "bike_id": "37268892bb1600dcc96fb9cf0735f8ca", "lon": -77.02708083333333, "rental_uris": {"ios": "https://dc.lft.to/lastmile_qr_scan", "android": "https://dc.lft.to/lastmile_qr_scan"}}, {"name": "4117bdb737ee01503e766d104225e604", "fusion_lat": 0.0, "type": "electric_scooter", "lat": 38.857997, "is_reserved": 0, "is_disabled": 0, "fusion_lon": 0.0, "bike_id": "4117bdb737ee01503e766d104225e604", "lon": -76.98648666666666, "rental_uris": {"ios": "https://dc.lft.to/lastmile_qr_scan", "android": "https://dc.lft.to/lastmile_qr_scan"}}, {"name": "ac65b713abac0543e4777c71625d4c9f", "fusion_lat": 0.0, "type": "electric_scooter", "lat": 38.939522333333336, "is_reserved": 0, "is_disabled": 0, "fusion_lon": 0.0, "bike_id": "ac65b713abac0543e4777c71625d4c9f", "lon": -77.0326645, "rental_uris": {"ios": "https://dc.lft.to/lastmile_qr_scan", "android": "https://dc.lft.to/lastmile_qr_scan"}}, {"name": "fb7044e704e60a6e35abdfb048d718fe", "fusion_lat": 0.0, "type": "electric_scooter", "lat": 38.929518333333334, "is_reserved": 0, "is_disabled": 0, "fusion_lon": 0.0, "bike_id": "fb7044e704e60a6e35abdfb048d718fe", "lon": -77.03482116666666, "rental_uris": {"ios": "https://dc.lft.to/lastmile_qr_scan", "android": "https://dc.lft.to/lastmile_qr_scan"}}, {"name": "06eb446ad075b2ae15148bd8cd9036ca", "fusion_lat": 0.0, "type": "electric_scooter", "lat": 38.90235116666667, "is_reserved": 0, "is_disabled": 0, "fusion_lon": 0.0, "bike_id": "06eb446ad075b2ae15148bd8cd9036ca", "lon": -77.04364016666666, "rental_uris": {"ios": "https://dc.lft.to/lastmile_qr_scan", "android": "https://dc.lft.to/lastmile_qr_scan"}}, {"name": "91922b34a392baa116b90796d2355792", "fusion_lat": 0.0, "type": "electric_scooter", "lat": 38.911202833333334, "is_reserved": 0, "is_disabled": 0, "fusion_lon": 0.0, "bike_id": "91922b34a392baa116b90796d2355792", "lon": -77.0372325, "rental_uris": {"ios": "https://dc.lft.to/lastmile_qr_scan", "android": "https://dc.lft.to/lastmile_qr_scan"}}, {"name": "147a2492ba555d3c6b2d9329c83b111e", "fusion_lat": 0.0, "type": "electric_scooter", "lat": 38.905966166666666, "is_reserved": 0, "is_disabled": 0, "fusion_lon": 0.0, "bike_id": "147a2492ba555d3c6b2d9329c83b111e", "lon": -77.06998766666666, "rental_uris": {"ios": "https://dc.lft.to/lastmile_qr_scan", "android": "https://dc.lft.to/lastmile_qr_scan"}}, {"name": "bbf892c64cb1ac421ada38dd6ca381fe", "fusion_lat": 0.0, "type": "electric_scooter", "lat": 38.937864833333336, "is_reserved": 0, "is_disabled": 0, "fusion_lon": 0.0, "bike_id": "bbf892c64cb1ac421ada38dd6ca381fe", "lon": -77.0599505, "rental_uris": {"ios": "https://dc.lft.to/lastmile_qr_scan", "android": "https://dc.lft.to/lastmile_qr_scan"}}, {"name": "a592f3e57a6da93889b6037c713f14b6", "fusion_lat": 0.0, "type": "electric_scooter", "lat": 38.92212716666667, "is_reserved": 0, "is_disabled": 0, "fusion_lon": 0.0, "bike_id": "a592f3e57a6da93889b6037c713f14b6", "lon": -77.0423545, "rental_uris": {"ios": "https://dc.lft.to/lastmile_qr_scan", "android": "https://dc.lft.to/lastmile_qr_scan"}}, {"name": "6b5fa514c62309eb3a8477583c4b3eb5", "fusion_lat": 0.0, "type": "electric_scooter", "lat": 38.923161, "is_reserved": 0, "is_disabled": 0, "fusion_lon": 0.0, "bike_id": "6b5fa514c62309eb3a8477583c4b3eb5", "lon": -77.04030366666667, "rental_uris": {"ios": "https://dc.lft.to/lastmile_qr_scan", "android": "https://dc.lft.to/lastmile_qr_scan"}}, {"name": "213682a60807812eab1d92b59ecd3b0d", "fusion_lat": 0.0, "type": "electric_scooter", "lat": 38.87648216666667, "is_reserved": 0, "is_disabled": 0, "fusion_lon": 0.0, "bike_id": "213682a60807812eab1d92b59ecd3b0d", "lon": -76.9650205, "rental_uris": {"ios": "https://dc.lft.to/lastmile_qr_scan", "android": "https://dc.lft.to/lastmile_qr_scan"}}, {"name": "0d3a5cd17a187b558f5398569e09de95", "fusion_lat": 0.0, "type": "electric_scooter", "lat": 38.9384625, "is_reserved": 0, "is_disabled": 0, "fusion_lon": 0.0, "bike_id": "0d3a5cd17a187b558f5398569e09de95", "lon": -77.02481283333333, "rental_uris": {"ios": "https://dc.lft.to/lastmile_qr_scan", "android": "https://dc.lft.to/lastmile_qr_scan"}}, {"name": "b36246d9a277c92416497bc526704bc0", "fusion_lat": 0.0, "type": "electric_scooter", "lat": 38.90774033333334, "is_reserved": 0, "is_disabled": 0, "fusion_lon": 0.0, "bike_id": "b36246d9a277c92416497bc526704bc0", "lon": -77.07166, "rental_uris": {"ios": "https://dc.lft.to/lastmile_qr_scan", "android": "https://dc.lft.to/lastmile_qr_scan"}}, {"name": "67716d1452229006e8c478ba632289c5", "fusion_lat": 0.0, "type": "electric_scooter", "lat": 38.9378755, "is_reserved": 0, "is_disabled": 0, "fusion_lon": 0.0, "bike_id": "67716d1452229006e8c478ba632289c5", "lon": -77.05997033333334, "rental_uris": {"ios": "https://dc.lft.to/lastmile_qr_scan", "android": "https://dc.lft.to/lastmile_qr_scan"}}, {"name": "4c26f576318cd58ca90c957562494366", "fusion_lat": 0.0, "type": "electric_scooter", "lat": 38.89737983333333, "is_reserved": 0, "is_disabled": 0, "fusion_lon": 0.0, "bike_id": "4c26f576318cd58ca90c957562494366", "lon": -76.93848, "rental_uris": {"ios": "https://dc.lft.to/lastmile_qr_scan", "android": "https://dc.lft.to/lastmile_qr_scan"}}, {"name": "ca590a11c1bd647f443dfbc17719489a", "fusion_lat": 0.0, "type": "electric_bike", "lat": 38.94227466666667, "is_reserved": 0, "is_disabled": 0, "fusion_lon": 0.0, "bike_id": "ca590a11c1bd647f443dfbc17719489a", "lon": -77.01387783333334, "rental_uris": {"ios": "https://dc.lft.to/lastmile_qr_scan", "android": "https://dc.lft.to/lastmile_qr_scan"}}, {"name": "f826fa067fcfe5c5fe99ba582284eaf3", "fusion_lat": 0.0, "type": "electric_scooter", "lat": 38.9004515, "is_reserved": 0, "is_disabled": 0, "fusion_lon": 0.0, "bike_id": "f826fa067fcfe5c5fe99ba582284eaf3", "lon": -77.00190266666667, "rental_uris": {"ios": "https://dc.lft.to/lastmile_qr_scan", "android": "https://dc.lft.to/lastmile_qr_scan"}}, {"name": "afc088afa1a0c000cea0a63aae05872a", "fusion_lat": 0.0, "type": "electric_scooter", "lat": 38.92161183333333, "is_reserved": 0, "is_disabled": 0, "fusion_lon": 0.0, "bike_id": "afc088afa1a0c000cea0a63aae05872a", "lon": -77.0422475, "rental_uris": {"ios": "https://dc.lft.to/lastmile_qr_scan", "android": "https://dc.lft.to/lastmile_qr_scan"}}, {"name": "f1390c602cfe12613d0a6c175f23527c", "fusion_lat": 0.0, "type": "electric_scooter", "lat": 38.91111466666667, "is_reserved": 0, "is_disabled": 0, "fusion_lon": 0.0, "bike_id": "f1390c602cfe12613d0a6c175f23527c", "lon": -77.031474, "rental_uris": {"ios": "https://dc.lft.to/lastmile_qr_scan", "android": "https://dc.lft.to/lastmile_qr_scan"}}, {"name": "8019bd0f2b2dda34d6027b94fc7b18ac", "fusion_lat": 0.0, "type": "electric_scooter", "lat": 38.858467833333336, "is_reserved": 0, "is_disabled": 0, "fusion_lon": 0.0, "bike_id": "8019bd0f2b2dda34d6027b94fc7b18ac", "lon": -76.958823, "rental_uris": {"ios": "https://dc.lft.to/lastmile_qr_scan", "android": "https://dc.lft.to/lastmile_qr_scan"}}, {"name": "867a587279e46dbd30f0c70fc54ebd4d", "fusion_lat": 0.0, "type": "electric_scooter", "lat": 38.88584483333333, "is_reserved": 0, "is_disabled": 0, "fusion_lon": 0.0, "bike_id": "867a587279e46dbd30f0c70fc54ebd4d", "lon": -76.99626033333334, "rental_uris": {"ios": "https://dc.lft.to/lastmile_qr_scan", "android": "https://dc.lft.to/lastmile_qr_scan"}}, {"name": "3d66fbdf88ae722b19b8a007827ab491", "fusion_lat": 0.0, "type": "electric_bike", "lat": 38.89651333333333, "is_reserved": 0, "is_disabled": 0, "fusion_lon": 0.0, "bike_id": "3d66fbdf88ae722b19b8a007827ab491", "lon": -77.08637016666667, "rental_uris": {"ios": "https://dc.lft.to/lastmile_qr_scan", "android": "https://dc.lft.to/lastmile_qr_scan"}}, {"name": "9594a66ebda402c5d83b8bb42cde2c53", "fusion_lat": 0.0, "type": "electric_scooter", "lat": 38.89455, "is_reserved": 0, "is_disabled": 0, "fusion_lon": 0.0, "bike_id": "9594a66ebda402c5d83b8bb42cde2c53", "lon": -77.01923333333333, "rental_uris": {"ios": "https://dc.lft.to/lastmile_qr_scan", "android": "https://dc.lft.to/lastmile_qr_scan"}}, {"name": "6b24b328510d3c03ce21a908be7fff1a", "fusion_lat": 0.0, "type": "electric_scooter", "lat": 38.93284516666667, "is_reserved": 0, "is_disabled": 0, "fusion_lon": 0.0, "bike_id": "6b24b328510d3c03ce21a908be7fff1a", "lon": -77.03987833333333, "rental_uris": {"ios": "https://dc.lft.to/lastmile_qr_scan", "android": "https://dc.lft.to/lastmile_qr_scan"}}, {"name": "e9b65f04a15c6a92700d4d3d35b90b90", "fusion_lat": 0.0, "type": "electric_scooter", "lat": 38.886853, "is_reserved": 0, "is_disabled": 0, "fusion_lon": 0.0, "bike_id": "e9b65f04a15c6a92700d4d3d35b90b90", "lon": -76.95758733333334, "rental_uris": {"ios": "https://dc.lft.to/lastmile_qr_scan", "android": "https://dc.lft.to/lastmile_qr_scan"}}, {"name": "1bfc00d87bc80e4abfb111795f00cc6b", "fusion_lat": 0.0, "type": "electric_bike", "lat": 38.838288666666664, "is_reserved": 0, "is_disabled": 0, "fusion_lon": 0.0, "bike_id": "1bfc00d87bc80e4abfb111795f00cc6b", "lon": -76.99684466666666, "rental_uris": {"ios": "https://dc.lft.to/lastmile_qr_scan", "android": "https://dc.lft.to/lastmile_qr_scan"}}, {"name": "62b441c84c5ef2ed0b4d25e52ae7428b", "fusion_lat": 0.0, "type": "electric_scooter", "lat": 38.86212333333334, "is_reserved": 0, "is_disabled": 0, "fusion_lon": 0.0, "bike_id": "62b441c84c5ef2ed0b4d25e52ae7428b", "lon": -76.9946915, "rental_uris": {"ios": "https://dc.lft.to/lastmile_qr_scan", "android": "https://dc.lft.to/lastmile_qr_scan"}}, {"name": "4198b61a06e7cb95b46d593e1214e944", "fusion_lat": 0.0, "type": "electric_bike", "lat": 38.870761333333334, "is_reserved": 0, "is_disabled": 0, "fusion_lon": 0.0, "bike_id": "4198b61a06e7cb95b46d593e1214e944", "lon": -77.1106145, "rental_uris": {"ios": "https://dc.lft.to/lastmile_qr_scan", "android": "https://dc.lft.to/lastmile_qr_scan"}}, {"name": "e7b77dd8814fd483d84b4f4902f543f1", "fusion_lat": 0.0, "type": "electric_scooter", "lat": 38.897002, "is_reserved": 0, "is_disabled": 0, "fusion_lon": 0.0, "bike_id": "e7b77dd8814fd483d84b4f4902f543f1", "lon": -77.02158366666667, "rental_uris": {"ios": "https://dc.lft.to/lastmile_qr_scan", "android": "https://dc.lft.to/lastmile_qr_scan"}}, {"name": "40dc2a1bec6817a24f21e45fd9325ab2", "fusion_lat": 0.0, "type": "electric_scooter", "lat": 38.92897816666667, "is_reserved": 0, "is_disabled": 0, "fusion_lon": 0.0, "bike_id": "40dc2a1bec6817a24f21e45fd9325ab2", "lon": -77.02501583333333, "rental_uris": {"ios": "https://dc.lft.to/lastmile_qr_scan", "android": "https://dc.lft.to/lastmile_qr_scan"}}, {"name": "98846cfa6af119aaa026e6c28f736e58", "fusion_lat": 0.0, "type": "electric_scooter", "lat": 38.92309983333333, "is_reserved": 0, "is_disabled": 0, "fusion_lon": 0.0, "bike_id": "98846cfa6af119aaa026e6c28f736e58", "lon": -77.041069, "rental_uris": {"ios": "https://dc.lft.to/lastmile_qr_scan", "android": "https://dc.lft.to/lastmile_qr_scan"}}, {"name": "dcc0ede2871c89b84fa50880f29afc1a", "fusion_lat": 0.0, "type": "electric_scooter", "lat": 38.948378, "is_reserved": 0, "is_disabled": 0, "fusion_lon": 0.0, "bike_id": "dcc0ede2871c89b84fa50880f29afc1a", "lon": -77.02553633333333, "rental_uris": {"ios": "https://dc.lft.to/lastmile_qr_scan", "android": "https://dc.lft.to/lastmile_qr_scan"}}, {"name": "c58806b432aba5ea270213de69aff3fb", "fusion_lat": 0.0, "type": "electric_scooter", "lat": 38.94184333333333, "is_reserved": 0, "is_disabled": 0, "fusion_lon": 0.0, "bike_id": "c58806b432aba5ea270213de69aff3fb", "lon": -77.02491983333333, "rental_uris": {"ios": "https://dc.lft.to/lastmile_qr_scan", "android": "https://dc.lft.to/lastmile_qr_scan"}}, {"name": "6d52e4b42598d244484a7655c79290f8", "fusion_lat": 0.0, "type": "electric_scooter", "lat": 38.923745333333336, "is_reserved": 0, "is_disabled": 0, "fusion_lon": 0.0, "bike_id": "6d52e4b42598d244484a7655c79290f8", "lon": -77.01912766666666, "rental_uris": {"ios": "https://dc.lft.to/lastmile_qr_scan", "android": "https://dc.lft.to/lastmile_qr_scan"}}, {"name": "045a83fb96b1dc3bc655cc8f8f81a8f1", "fusion_lat": 0.0, "type": "electric_scooter", "lat": 38.877549333333334, "is_reserved": 0, "is_disabled": 0, "fusion_lon": 0.0, "bike_id": "045a83fb96b1dc3bc655cc8f8f81a8f1", "lon": -76.97242283333334, "rental_uris": {"ios": "https://dc.lft.to/lastmile_qr_scan", "android": "https://dc.lft.to/lastmile_qr_scan"}}, {"name": "1d917320d9dfa82a4a63e0bb5ce1d938", "fusion_lat": 0.0, "type": "electric_scooter", "lat": 38.91704716666667, "is_reserved": 0, "is_disabled": 0, "fusion_lon": 0.0, "bike_id": "1d917320d9dfa82a4a63e0bb5ce1d938", "lon": -77.042745, "rental_uris": {"ios": "https://dc.lft.to/lastmile_qr_scan", "android": "https://dc.lft.to/lastmile_qr_scan"}}, {"name": "d347a2fa8023d84202b898ad36348f8d", "fusion_lat": 0.0, "type": "electric_scooter", "lat": 38.92315333333333, "is_reserved": 0, "is_disabled": 0, "fusion_lon": 0.0, "bike_id": "d347a2fa8023d84202b898ad36348f8d", "lon": -77.04515033333334, "rental_uris": {"ios": "https://dc.lft.to/lastmile_qr_scan", "android": "https://dc.lft.to/lastmile_qr_scan"}}, {"name": "4e6b2da7e50460e450a7041702fde6d6", "fusion_lat": 0.0, "type": "electric_scooter", "lat": 38.96114583333333, "is_reserved": 0, "is_disabled": 0, "fusion_lon": 0.0, "bike_id": "4e6b2da7e50460e450a7041702fde6d6", "lon": -77.02809016666667, "rental_uris": {"ios": "https://dc.lft.to/lastmile_qr_scan", "android": "https://dc.lft.to/lastmile_qr_scan"}}, {"name": "e736ac418f2705f6c54947a7ae605045", "fusion_lat": 0.0, "type": "electric_scooter", "lat": 38.93544966666666, "is_reserved": 0, "is_disabled": 0, "fusion_lon": 0.0, "bike_id": "e736ac418f2705f6c54947a7ae605045", "lon": -77.03458733333333, "rental_uris": {"ios": "https://dc.lft.to/lastmile_qr_scan", "android": "https://dc.lft.to/lastmile_qr_scan"}}, {"name": "0e7f92c40819397a29cd995437722032", "fusion_lat": 0.0, "type": "electric_scooter", "lat": 38.902330666666664, "is_reserved": 0, "is_disabled": 0, "fusion_lon": 0.0, "bike_id": "0e7f92c40819397a29cd995437722032", "lon": -77.01760533333334, "rental_uris": {"ios": "https://dc.lft.to/lastmile_qr_scan", "android": "https://dc.lft.to/lastmile_qr_scan"}}, {"name": "5149a4ccb2bead68bd4d7947b640f3f9", "fusion_lat": 0.0, "type": "electric_scooter", "lat": 38.911910166666665, "is_reserved": 0, "is_disabled": 0, "fusion_lon": 0.0, "bike_id": "5149a4ccb2bead68bd4d7947b640f3f9", "lon": -76.99623333333334, "rental_uris": {"ios": "https://dc.lft.to/lastmile_qr_scan", "android": "https://dc.lft.to/lastmile_qr_scan"}}, {"name": "2c226f5b17a8cf5cc694683ae1422ff2", "fusion_lat": 0.0, "type": "electric_scooter", "lat": 38.89834183333333, "is_reserved": 0, "is_disabled": 0, "fusion_lon": 0.0, "bike_id": "2c226f5b17a8cf5cc694683ae1422ff2", "lon": -76.946427, "rental_uris": {"ios": "https://dc.lft.to/lastmile_qr_scan", "android": "https://dc.lft.to/lastmile_qr_scan"}}, {"name": "d5f2ccf388eabed0ff32081434f8a8e5", "fusion_lat": 0.0, "type": "electric_scooter", "lat": 38.916053833333336, "is_reserved": 0, "is_disabled": 0, "fusion_lon": 0.0, "bike_id": "d5f2ccf388eabed0ff32081434f8a8e5", "lon": -77.0229195, "rental_uris": {"ios": "https://dc.lft.to/lastmile_qr_scan", "android": "https://dc.lft.to/lastmile_qr_scan"}}, {"name": "fa2574886f6a4a58318f71c0f63937b9", "fusion_lat": 0.0, "type": "electric_scooter", "lat": 38.90333533333333, "is_reserved": 0, "is_disabled": 0, "fusion_lon": 0.0, "bike_id": "fa2574886f6a4a58318f71c0f63937b9", "lon": -77.05233766666667, "rental_uris": {"ios": "https://dc.lft.to/lastmile_qr_scan", "android": "https://dc.lft.to/lastmile_qr_scan"}}, {"name": "ae3a657fa2f70bbeb4e7a393c608f719", "fusion_lat": 0.0, "type": "electric_scooter", "lat": 38.8878745, "is_reserved": 0, "is_disabled": 0, "fusion_lon": 0.0, "bike_id": "ae3a657fa2f70bbeb4e7a393c608f719", "lon": -76.95528416666667, "rental_uris": {"ios": "https://dc.lft.to/lastmile_qr_scan", "android": "https://dc.lft.to/lastmile_qr_scan"}}, {"name": "136f29ec7131f225019682a67d722256", "fusion_lat": 0.0, "type": "electric_scooter", "lat": 38.934603333333335, "is_reserved": 0, "is_disabled": 0, "fusion_lon": 0.0, "bike_id": "136f29ec7131f225019682a67d722256", "lon": -77.08632433333334, "rental_uris": {"ios": "https://dc.lft.to/lastmile_qr_scan", "android": "https://dc.lft.to/lastmile_qr_scan"}}, {"name": "bad14f2eee3cc0e5907c6b6a304748bd", "fusion_lat": 0.0, "type": "electric_scooter", "lat": 38.9056215, "is_reserved": 0, "is_disabled": 0, "fusion_lon": 0.0, "bike_id": "bad14f2eee3cc0e5907c6b6a304748bd", "lon": -77.02235266666666, "rental_uris": {"ios": "https://dc.lft.to/lastmile_qr_scan", "android": "https://dc.lft.to/lastmile_qr_scan"}}, {"name": "8e7e0a7788df8407c1a7df2d2cc641a2", "fusion_lat": 0.0, "type": "electric_scooter", "lat": 38.9127285, "is_reserved": 0, "is_disabled": 0, "fusion_lon": 0.0, "bike_id": "8e7e0a7788df8407c1a7df2d2cc641a2", "lon": -77.04501283333333, "rental_uris": {"ios": "https://dc.lft.to/lastmile_qr_scan", "android": "https://dc.lft.to/lastmile_qr_scan"}}, {"name": "bf76e1a7a24d635ece5807a9b9ce4872", "fusion_lat": 0.0, "type": "electric_scooter", "lat": 38.908226666666664, "is_reserved": 0, "is_disabled": 0, "fusion_lon": 0.0, "bike_id": "bf76e1a7a24d635ece5807a9b9ce4872", "lon": -77.03192716666666, "rental_uris": {"ios": "https://dc.lft.to/lastmile_qr_scan", "android": "https://dc.lft.to/lastmile_qr_scan"}}, {"name": "4f07e17592b5681f7636f2628f9582e4", "fusion_lat": 0.0, "type": "electric_scooter", "lat": 38.899488833333336, "is_reserved": 0, "is_disabled": 0, "fusion_lon": 0.0, "bike_id": "4f07e17592b5681f7636f2628f9582e4", "lon": -77.05272883333333, "rental_uris": {"ios": "https://dc.lft.to/lastmile_qr_scan", "android": "https://dc.lft.to/lastmile_qr_scan"}}, {"name": "668fb8d5fe9be397c9977e72753ad1f7", "fusion_lat": 0.0, "type": "electric_scooter", "lat": 38.927269333333335, "is_reserved": 0, "is_disabled": 0, "fusion_lon": 0.0, "bike_id": "668fb8d5fe9be397c9977e72753ad1f7", "lon": -77.0714595, "rental_uris": {"ios": "https://dc.lft.to/lastmile_qr_scan", "android": "https://dc.lft.to/lastmile_qr_scan"}}, {"name": "1222e9572049178d1e5fd044142752fe", "fusion_lat": 0.0, "type": "electric_scooter", "lat": 38.885995666666666, "is_reserved": 0, "is_disabled": 0, "fusion_lon": 0.0, "bike_id": "1222e9572049178d1e5fd044142752fe", "lon": -77.02198266666667, "rental_uris": {"ios": "https://dc.lft.to/lastmile_qr_scan", "android": "https://dc.lft.to/lastmile_qr_scan"}}, {"name": "a87b9925c7e4e73b8c1c097865b7a4bd", "fusion_lat": 0.0, "type": "electric_scooter", "lat": 38.90542283333333, "is_reserved": 0, "is_disabled": 0, "fusion_lon": 0.0, "bike_id": "a87b9925c7e4e73b8c1c097865b7a4bd", "lon": -77.06265333333333, "rental_uris": {"ios": "https://dc.lft.to/lastmile_qr_scan", "android": "https://dc.lft.to/lastmile_qr_scan"}}, {"name": "af81ef305a6253568c6618a29b9c01da", "fusion_lat": 0.0, "type": "electric_bike", "lat": 38.883454666666665, "is_reserved": 0, "is_disabled": 0, "fusion_lon": 0.0, "bike_id": "af81ef305a6253568c6618a29b9c01da", "lon": -77.182962, "rental_uris": {"ios": "https://dc.lft.to/lastmile_qr_scan", "android": "https://dc.lft.to/lastmile_qr_scan"}}, {"name": "b1ca3055524426b4dded62c7a63a79f4", "fusion_lat": 0.0, "type": "electric_scooter", "lat": 38.91047416666667, "is_reserved": 0, "is_disabled": 0, "fusion_lon": 0.0, "bike_id": "b1ca3055524426b4dded62c7a63a79f4", "lon": -77.0437105, "rental_uris": {"ios": "https://dc.lft.to/lastmile_qr_scan", "android": "https://dc.lft.to/lastmile_qr_scan"}}, {"name": "bfcbbaa532d3617eaa19941dc6d5009e", "fusion_lat": 0.0, "type": "electric_scooter", "lat": 38.89854833333333, "is_reserved": 0, "is_disabled": 0, "fusion_lon": 0.0, "bike_id": "bfcbbaa532d3617eaa19941dc6d5009e", "lon": -77.01614283333333, "rental_uris": {"ios": "https://dc.lft.to/lastmile_qr_scan", "android": "https://dc.lft.to/lastmile_qr_scan"}}, {"name": "13bf399cf41a00671a37f89d6be29ab7", "fusion_lat": 0.0, "type": "electric_scooter", "lat": 38.90031116666667, "is_reserved": 0, "is_disabled": 0, "fusion_lon": 0.0, "bike_id": "13bf399cf41a00671a37f89d6be29ab7", "lon": -76.9983135, "rental_uris": {"ios": "https://dc.lft.to/lastmile_qr_scan", "android": "https://dc.lft.to/lastmile_qr_scan"}}, {"name": "d3b5020371c95f0c61c2381f5606c463", "fusion_lat": 0.0, "type": "electric_scooter", "lat": 38.942804, "is_reserved": 0, "is_disabled": 0, "fusion_lon": 0.0, "bike_id": "d3b5020371c95f0c61c2381f5606c463", "lon": -77.02505933333333, "rental_uris": {"ios": "https://dc.lft.to/lastmile_qr_scan", "android": "https://dc.lft.to/lastmile_qr_scan"}}, {"name": "68193cc178ca5a167b03fccaed34513d", "fusion_lat": 0.0, "type": "electric_scooter", "lat": 38.8909415, "is_reserved": 0, "is_disabled": 0, "fusion_lon": 0.0, "bike_id": "68193cc178ca5a167b03fccaed34513d", "lon": -76.9913925, "rental_uris": {"ios": "https://dc.lft.to/lastmile_qr_scan", "android": "https://dc.lft.to/lastmile_qr_scan"}}, {"name": "b69fb5eebe857db03328c4ef42a14db9", "fusion_lat": 0.0, "type": "electric_scooter", "lat": 38.90985233333333, "is_reserved": 0, "is_disabled": 0, "fusion_lon": 0.0, "bike_id": "b69fb5eebe857db03328c4ef42a14db9", "lon": -77.04876383333334, "rental_uris": {"ios": "https://dc.lft.to/lastmile_qr_scan", "android": "https://dc.lft.to/lastmile_qr_scan"}}, {"name": "10311617795256de0c32318690662edc", "fusion_lat": 0.0, "type": "electric_scooter", "lat": 38.90786583333333, "is_reserved": 0, "is_disabled": 0, "fusion_lon": 0.0, "bike_id": "10311617795256de0c32318690662edc", "lon": -77.03857633333334, "rental_uris": {"ios": "https://dc.lft.to/lastmile_qr_scan", "android": "https://dc.lft.to/lastmile_qr_scan"}}, {"name": "b8708d783a6d185e1ec997d7a2255603", "fusion_lat": 0.0, "type": "electric_scooter", "lat": 38.939673666666664, "is_reserved": 0, "is_disabled": 0, "fusion_lon": 0.0, "bike_id": "b8708d783a6d185e1ec997d7a2255603", "lon": -77.02750483333334, "rental_uris": {"ios": "https://dc.lft.to/lastmile_qr_scan", "android": "https://dc.lft.to/lastmile_qr_scan"}}, {"name": "0a8ae1307f3bda5739b133f93dc65ebd", "fusion_lat": 0.0, "type": "electric_scooter", "lat": 38.89297916666666, "is_reserved": 0, "is_disabled": 0, "fusion_lon": 0.0, "bike_id": "0a8ae1307f3bda5739b133f93dc65ebd", "lon": -76.93928033333333, "rental_uris": {"ios": "https://dc.lft.to/lastmile_qr_scan", "android": "https://dc.lft.to/lastmile_qr_scan"}}, {"name": "ae3e2a79df8a83e306068488fb2cfefc", "fusion_lat": 0.0, "type": "electric_scooter", "lat": 38.926144, "is_reserved": 0, "is_disabled": 0, "fusion_lon": 0.0, "bike_id": "ae3e2a79df8a83e306068488fb2cfefc", "lon": -77.02162966666667, "rental_uris": {"ios": "https://dc.lft.to/lastmile_qr_scan", "android": "https://dc.lft.to/lastmile_qr_scan"}}, {"name": "c1556e59fd0c8d972761c6729aa64dac", "fusion_lat": 0.0, "type": "electric_bike", "lat": 38.83236, "is_reserved": 0, "is_disabled": 0, "fusion_lon": 0.0, "bike_id": "c1556e59fd0c8d972761c6729aa64dac", "lon": -76.9461905, "rental_uris": {"ios": "https://dc.lft.to/lastmile_qr_scan", "android": "https://dc.lft.to/lastmile_qr_scan"}}, {"name": "db8aabaf88bf6d2d9440f070d63a4d86", "fusion_lat": 0.0, "type": "electric_scooter", "lat": 38.909130166666664, "is_reserved": 0, "is_disabled": 0, "fusion_lon": 0.0, "bike_id": "db8aabaf88bf6d2d9440f070d63a4d86", "lon": -77.031904, "rental_uris": {"ios": "https://dc.lft.to/lastmile_qr_scan", "android": "https://dc.lft.to/lastmile_qr_scan"}}, {"name": "275fbebf2d92920426d25da2b4035970", "fusion_lat": 0.0, "type": "electric_scooter", "lat": 38.901228833333334, "is_reserved": 0, "is_disabled": 0, "fusion_lon": 0.0, "bike_id": "275fbebf2d92920426d25da2b4035970", "lon": -77.02385883333334, "rental_uris": {"ios": "https://dc.lft.to/lastmile_qr_scan", "android": "https://dc.lft.to/lastmile_qr_scan"}}, {"name": "e58374e37cb9f1a57e6ce90ef053f27a", "fusion_lat": 0.0, "type": "electric_bike", "lat": 38.97090816666667, "is_reserved": 0, "is_disabled": 0, "fusion_lon": 0.0, "bike_id": "e58374e37cb9f1a57e6ce90ef053f27a", "lon": -77.06966366666667, "rental_uris": {"ios": "https://dc.lft.to/lastmile_qr_scan", "android": "https://dc.lft.to/lastmile_qr_scan"}}, {"name": "54f347a0978a035e1102a02135c81053", "fusion_lat": 0.0, "type": "electric_scooter", "lat": 38.905638, "is_reserved": 0, "is_disabled": 0, "fusion_lon": 0.0, "bike_id": "54f347a0978a035e1102a02135c81053", "lon": -77.00581066666666, "rental_uris": {"ios": "https://dc.lft.to/lastmile_qr_scan", "android": "https://dc.lft.to/lastmile_qr_scan"}}, {"name": "5e1cb3ef3c545c104216804e1975001a", "fusion_lat": 0.0, "type": "electric_bike", "lat": 38.910071, "is_reserved": 0, "is_disabled": 0, "fusion_lon": 0.0, "bike_id": "5e1cb3ef3c545c104216804e1975001a", "lon": -77.06162616666667, "rental_uris": {"ios": "https://dc.lft.to/lastmile_qr_scan", "android": "https://dc.lft.to/lastmile_qr_scan"}}, {"name": "1400c8aa634234a4d200c86d8c95229f", "fusion_lat": 0.0, "type": "electric_scooter", "lat": 38.926312, "is_reserved": 0, "is_disabled": 0, "fusion_lon": 0.0, "bike_id": "1400c8aa634234a4d200c86d8c95229f", "lon": -77.03787016666666, "rental_uris": {"ios": "https://dc.lft.to/lastmile_qr_scan", "android": "https://dc.lft.to/lastmile_qr_scan"}}, {"name": "926317d2975eaff7a99a5fe4ab593991", "fusion_lat": 0.0, "type": "electric_scooter", "lat": 38.90765183333333, "is_reserved": 0, "is_disabled": 0, "fusion_lon": 0.0, "bike_id": "926317d2975eaff7a99a5fe4ab593991", "lon": -77.05972183333333, "rental_uris": {"ios": "https://dc.lft.to/lastmile_qr_scan", "android": "https://dc.lft.to/lastmile_qr_scan"}}, {"name": "e967eccae39ce1bc2f935ac85ade39f3", "fusion_lat": 0.0, "type": "electric_scooter", "lat": 38.923550166666665, "is_reserved": 0, "is_disabled": 0, "fusion_lon": 0.0, "bike_id": "e967eccae39ce1bc2f935ac85ade39f3", "lon": -77.03394366666667, "rental_uris": {"ios": "https://dc.lft.to/lastmile_qr_scan", "android": "https://dc.lft.to/lastmile_qr_scan"}}, {"name": "82e4b6517569e66fc9c13f1e173de982", "fusion_lat": 0.0, "type": "electric_scooter", "lat": 38.9133475, "is_reserved": 0, "is_disabled": 0, "fusion_lon": 0.0, "bike_id": "82e4b6517569e66fc9c13f1e173de982", "lon": -77.0486475, "rental_uris": {"ios": "https://dc.lft.to/lastmile_qr_scan", "android": "https://dc.lft.to/lastmile_qr_scan"}}, {"name": "c997961f42b9cf6b6d54dd513dcc9af1", "fusion_lat": 0.0, "type": "electric_scooter", "lat": 38.92705866666667, "is_reserved": 0, "is_disabled": 0, "fusion_lon": 0.0, "bike_id": "c997961f42b9cf6b6d54dd513dcc9af1", "lon": -77.0242785, "rental_uris": {"ios": "https://dc.lft.to/lastmile_qr_scan", "android": "https://dc.lft.to/lastmile_qr_scan"}}, {"name": "716e4d4f826bd36643d5e7cae76bb58a", "fusion_lat": 0.0, "type": "electric_scooter", "lat": 38.90727966666667, "is_reserved": 0, "is_disabled": 0, "fusion_lon": 0.0, "bike_id": "716e4d4f826bd36643d5e7cae76bb58a", "lon": -77.04896916666667, "rental_uris": {"ios": "https://dc.lft.to/lastmile_qr_scan", "android": "https://dc.lft.to/lastmile_qr_scan"}}, {"name": "e3c06bf117026f25328139f2b8ab6230", "fusion_lat": 0.0, "type": "electric_scooter", "lat": 38.91272983333333, "is_reserved": 0, "is_disabled": 0, "fusion_lon": 0.0, "bike_id": "e3c06bf117026f25328139f2b8ab6230", "lon": -77.04503366666667, "rental_uris": {"ios": "https://dc.lft.to/lastmile_qr_scan", "android": "https://dc.lft.to/lastmile_qr_scan"}}, {"name": "989c2b8a8403d1102a0cdc2f1bababcb", "fusion_lat": 0.0, "type": "electric_scooter", "lat": 38.89987633333333, "is_reserved": 0, "is_disabled": 0, "fusion_lon": 0.0, "bike_id": "989c2b8a8403d1102a0cdc2f1bababcb", "lon": -77.05555916666667, "rental_uris": {"ios": "https://dc.lft.to/lastmile_qr_scan", "android": "https://dc.lft.to/lastmile_qr_scan"}}, {"name": "751a742a53a933d4279204788015a9ca", "fusion_lat": 0.0, "type": "electric_scooter", "lat": 38.91195033333333, "is_reserved": 0, "is_disabled": 0, "fusion_lon": 0.0, "bike_id": "751a742a53a933d4279204788015a9ca", "lon": -77.04536466666667, "rental_uris": {"ios": "https://dc.lft.to/lastmile_qr_scan", "android": "https://dc.lft.to/lastmile_qr_scan"}}, {"name": "e97968004f37c2d0a4ebe7ae6756715b", "fusion_lat": 0.0, "type": "electric_scooter", "lat": 38.895056833333335, "is_reserved": 0, "is_disabled": 0, "fusion_lon": 0.0, "bike_id": "e97968004f37c2d0a4ebe7ae6756715b", "lon": -77.011128, "rental_uris": {"ios": "https://dc.lft.to/lastmile_qr_scan", "android": "https://dc.lft.to/lastmile_qr_scan"}}, {"name": "9f81472dc7d0553e2fdfab591848e8a6", "fusion_lat": 0.0, "type": "electric_scooter", "lat": 38.9354005, "is_reserved": 0, "is_disabled": 0, "fusion_lon": 0.0, "bike_id": "9f81472dc7d0553e2fdfab591848e8a6", "lon": -77.03416216666666, "rental_uris": {"ios": "https://dc.lft.to/lastmile_qr_scan", "android": "https://dc.lft.to/lastmile_qr_scan"}}, {"name": "82ad331fb393ca7f97f64cd18f8c43e7", "fusion_lat": 0.0, "type": "electric_scooter", "lat": 38.90971966666667, "is_reserved": 0, "is_disabled": 0, "fusion_lon": 0.0, "bike_id": "82ad331fb393ca7f97f64cd18f8c43e7", "lon": -77.03174466666667, "rental_uris": {"ios": "https://dc.lft.to/lastmile_qr_scan", "android": "https://dc.lft.to/lastmile_qr_scan"}}, {"name": "f13cff8832ed07c11e34427c3b2df604", "fusion_lat": 0.0, "type": "electric_scooter", "lat": 38.9251725, "is_reserved": 0, "is_disabled": 0, "fusion_lon": 0.0, "bike_id": "f13cff8832ed07c11e34427c3b2df604", "lon": -77.0021705, "rental_uris": {"ios": "https://dc.lft.to/lastmile_qr_scan", "android": "https://dc.lft.to/lastmile_qr_scan"}}, {"name": "a4a73531183ca83329e9e20fd85482dc", "fusion_lat": 0.0, "type": "electric_bike", "lat": 38.949684500000004, "is_reserved": 0, "is_disabled": 0, "fusion_lon": 0.0, "bike_id": "a4a73531183ca83329e9e20fd85482dc", "lon": -76.97288566666667, "rental_uris": {"ios": "https://dc.lft.to/lastmile_qr_scan", "android": "https://dc.lft.to/lastmile_qr_scan"}}, {"name": "d54c163f75dcfe07db2c2ef0d2b095b3", "fusion_lat": 0.0, "type": "electric_scooter", "lat": 38.912560666666664, "is_reserved": 0, "is_disabled": 0, "fusion_lon": 0.0, "bike_id": "d54c163f75dcfe07db2c2ef0d2b095b3", "lon": -77.040288, "rental_uris": {"ios": "https://dc.lft.to/lastmile_qr_scan", "android": "https://dc.lft.to/lastmile_qr_scan"}}, {"name": "6e3b495cce3d15f18a58cb83ef65b2e5", "fusion_lat": 0.0, "type": "electric_scooter", "lat": 38.907424, "is_reserved": 0, "is_disabled": 0, "fusion_lon": 0.0, "bike_id": "6e3b495cce3d15f18a58cb83ef65b2e5", "lon": -77.04667966666666, "rental_uris": {"ios": "https://dc.lft.to/lastmile_qr_scan", "android": "https://dc.lft.to/lastmile_qr_scan"}}, {"name": "5e33008083c91d0468004a7e6fb84bf6", "fusion_lat": 0.0, "type": "electric_scooter", "lat": 38.89683483333334, "is_reserved": 0, "is_disabled": 0, "fusion_lon": 0.0, "bike_id": "5e33008083c91d0468004a7e6fb84bf6", "lon": -76.99630683333334, "rental_uris": {"ios": "https://dc.lft.to/lastmile_qr_scan", "android": "https://dc.lft.to/lastmile_qr_scan"}}, {"name": "b438fca540b58a10062dcc5affdba210", "fusion_lat": 0.0, "type": "electric_bike", "lat": 38.875440833333336, "is_reserved": 0, "is_disabled": 0, "fusion_lon": 0.0, "bike_id": "b438fca540b58a10062dcc5affdba210", "lon": -76.96756766666667, "rental_uris": {"ios": "https://dc.lft.to/lastmile_qr_scan", "android": "https://dc.lft.to/lastmile_qr_scan"}}, {"name": "b9f0b7d2dafb72231bb1f3ecd799955e", "fusion_lat": 0.0, "type": "electric_scooter", "lat": 38.900385166666666, "is_reserved": 0, "is_disabled": 0, "fusion_lon": 0.0, "bike_id": "b9f0b7d2dafb72231bb1f3ecd799955e", "lon": -77.00630316666667, "rental_uris": {"ios": "https://dc.lft.to/lastmile_qr_scan", "android": "https://dc.lft.to/lastmile_qr_scan"}}, {"name": "ae3f6476756a493920b8e06faa2f46f2", "fusion_lat": 0.0, "type": "electric_scooter", "lat": 38.9184525, "is_reserved": 0, "is_disabled": 0, "fusion_lon": 0.0, "bike_id": "ae3f6476756a493920b8e06faa2f46f2", "lon": -77.03633266666667, "rental_uris": {"ios": "https://dc.lft.to/lastmile_qr_scan", "android": "https://dc.lft.to/lastmile_qr_scan"}}, {"name": "805b3dbe3cf9635f47893a91a882515f", "fusion_lat": 0.0, "type": "electric_bike", "lat": 38.85854966666667, "is_reserved": 0, "is_disabled": 0, "fusion_lon": 0.0, "bike_id": "805b3dbe3cf9635f47893a91a882515f", "lon": -77.09750466666667, "rental_uris": {"ios": "https://dc.lft.to/lastmile_qr_scan", "android": "https://dc.lft.to/lastmile_qr_scan"}}, {"name": "8e25d367d39a3fbf9a57276f5f37e555", "fusion_lat": 0.0, "type": "electric_scooter", "lat": 38.92110483333333, "is_reserved": 0, "is_disabled": 0, "fusion_lon": 0.0, "bike_id": "8e25d367d39a3fbf9a57276f5f37e555", "lon": -77.0318055, "rental_uris": {"ios": "https://dc.lft.to/lastmile_qr_scan", "android": "https://dc.lft.to/lastmile_qr_scan"}}, {"name": "e80b6c1ece429771e2f6b4041fbeaa1b", "fusion_lat": 0.0, "type": "electric_scooter", "lat": 38.931241166666666, "is_reserved": 0, "is_disabled": 0, "fusion_lon": 0.0, "bike_id": "e80b6c1ece429771e2f6b4041fbeaa1b", "lon": -77.03601216666667, "rental_uris": {"ios": "https://dc.lft.to/lastmile_qr_scan", "android": "https://dc.lft.to/lastmile_qr_scan"}}, {"name": "de424e216e654f30e0449b28a6ca659f", "fusion_lat": 0.0, "type": "electric_scooter", "lat": 38.892446666666665, "is_reserved": 0, "is_disabled": 0, "fusion_lon": 0.0, "bike_id": "de424e216e654f30e0449b28a6ca659f", "lon": -77.031794, "rental_uris": {"ios": "https://dc.lft.to/lastmile_qr_scan", "android": "https://dc.lft.to/lastmile_qr_scan"}}, {"name": "1043b4923e453a84be110d657f82271b", "fusion_lat": 0.0, "type": "electric_scooter", "lat": 38.90736316666667, "is_reserved": 0, "is_disabled": 0, "fusion_lon": 0.0, "bike_id": "1043b4923e453a84be110d657f82271b", "lon": -77.04480983333333, "rental_uris": {"ios": "https://dc.lft.to/lastmile_qr_scan", "android": "https://dc.lft.to/lastmile_qr_scan"}}, {"name": "0ccd19a78916697bf00452ec388b4eb9", "fusion_lat": 0.0, "type": "electric_scooter", "lat": 38.91259866666667, "is_reserved": 0, "is_disabled": 0, "fusion_lon": 0.0, "bike_id": "0ccd19a78916697bf00452ec388b4eb9", "lon": -77.03867333333334, "rental_uris": {"ios": "https://dc.lft.to/lastmile_qr_scan", "android": "https://dc.lft.to/lastmile_qr_scan"}}, {"name": "327f2c2fde44c7d924512007f9a79f2f", "fusion_lat": 0.0, "type": "electric_scooter", "lat": 38.90014933333333, "is_reserved": 0, "is_disabled": 0, "fusion_lon": 0.0, "bike_id": "327f2c2fde44c7d924512007f9a79f2f", "lon": -77.026149, "rental_uris": {"ios": "https://dc.lft.to/lastmile_qr_scan", "android": "https://dc.lft.to/lastmile_qr_scan"}}, {"name": "1133f2842bb8b67a1a3fa0da67cf4af4", "fusion_lat": 0.0, "type": "electric_scooter", "lat": 38.925919, "is_reserved": 0, "is_disabled": 0, "fusion_lon": 0.0, "bike_id": "1133f2842bb8b67a1a3fa0da67cf4af4", "lon": -77.02604133333334, "rental_uris": {"ios": "https://dc.lft.to/lastmile_qr_scan", "android": "https://dc.lft.to/lastmile_qr_scan"}}, {"name": "99a2b4cb04a8926612cf9d4420243c3a", "fusion_lat": 0.0, "type": "electric_scooter", "lat": 38.91004133333333, "is_reserved": 0, "is_disabled": 0, "fusion_lon": 0.0, "bike_id": "99a2b4cb04a8926612cf9d4420243c3a", "lon": -77.01511533333333, "rental_uris": {"ios": "https://dc.lft.to/lastmile_qr_scan", "android": "https://dc.lft.to/lastmile_qr_scan"}}, {"name": "95fa5724daa9bed4ae46214c8f57fa11", "fusion_lat": 0.0, "type": "electric_scooter", "lat": 38.8665935, "is_reserved": 0, "is_disabled": 0, "fusion_lon": 0.0, "bike_id": "95fa5724daa9bed4ae46214c8f57fa11", "lon": -76.98885333333334, "rental_uris": {"ios": "https://dc.lft.to/lastmile_qr_scan", "android": "https://dc.lft.to/lastmile_qr_scan"}}, {"name": "57f860fb5415deaeb61e75326f61cce6", "fusion_lat": 0.0, "type": "electric_scooter", "lat": 38.902711333333336, "is_reserved": 0, "is_disabled": 0, "fusion_lon": 0.0, "bike_id": "57f860fb5415deaeb61e75326f61cce6", "lon": -77.005797, "rental_uris": {"ios": "https://dc.lft.to/lastmile_qr_scan", "android": "https://dc.lft.to/lastmile_qr_scan"}}, {"name": "6bf4bf0bebe4504ca0dcd17fea11bf85", "fusion_lat": 0.0, "type": "electric_scooter", "lat": 38.910100666666665, "is_reserved": 0, "is_disabled": 0, "fusion_lon": 0.0, "bike_id": "6bf4bf0bebe4504ca0dcd17fea11bf85", "lon": -77.02188733333334, "rental_uris": {"ios": "https://dc.lft.to/lastmile_qr_scan", "android": "https://dc.lft.to/lastmile_qr_scan"}}, {"name": "6ea3773fa6616046a7a9cc290dcfa9e9", "fusion_lat": 0.0, "type": "electric_scooter", "lat": 38.90896216666667, "is_reserved": 0, "is_disabled": 0, "fusion_lon": 0.0, "bike_id": "6ea3773fa6616046a7a9cc290dcfa9e9", "lon": -77.03147516666667, "rental_uris": {"ios": "https://dc.lft.to/lastmile_qr_scan", "android": "https://dc.lft.to/lastmile_qr_scan"}}, {"name": "dbd3ab165398cb7e07012555c05ac3aa", "fusion_lat": 0.0, "type": "electric_scooter", "lat": 38.923749, "is_reserved": 0, "is_disabled": 0, "fusion_lon": 0.0, "bike_id": "dbd3ab165398cb7e07012555c05ac3aa", "lon": -77.03131783333333, "rental_uris": {"ios": "https://dc.lft.to/lastmile_qr_scan", "android": "https://dc.lft.to/lastmile_qr_scan"}}, {"name": "cb5dcabbb02ac2323b3bc5135cb906f2", "fusion_lat": 0.0, "type": "electric_scooter", "lat": 38.89468333333333, "is_reserved": 0, "is_disabled": 0, "fusion_lon": 0.0, "bike_id": "cb5dcabbb02ac2323b3bc5135cb906f2", "lon": -77.03075316666667, "rental_uris": {"ios": "https://dc.lft.to/lastmile_qr_scan", "android": "https://dc.lft.to/lastmile_qr_scan"}}, {"name": "f632b14a244fccc5c61629e21ed84854", "fusion_lat": 0.0, "type": "electric_bike", "lat": 38.9192155, "is_reserved": 0, "is_disabled": 0, "fusion_lon": 0.0, "bike_id": "f632b14a244fccc5c61629e21ed84854", "lon": -77.02532316666667, "rental_uris": {"ios": "https://dc.lft.to/lastmile_qr_scan", "android": "https://dc.lft.to/lastmile_qr_scan"}}, {"name": "a6fe7b878c16951941a777ed636b55bf", "fusion_lat": 0.0, "type": "electric_scooter", "lat": 38.86509266666667, "is_reserved": 0, "is_disabled": 0, "fusion_lon": 0.0, "bike_id": "a6fe7b878c16951941a777ed636b55bf", "lon": -76.99007633333333, "rental_uris": {"ios": "https://dc.lft.to/lastmile_qr_scan", "android": "https://dc.lft.to/lastmile_qr_scan"}}, {"name": "b47859a0f908d84f6f5a120be211eafb", "fusion_lat": 0.0, "type": "electric_scooter", "lat": 38.92493533333333, "is_reserved": 0, "is_disabled": 0, "fusion_lon": 0.0, "bike_id": "b47859a0f908d84f6f5a120be211eafb", "lon": -77.0732865, "rental_uris": {"ios": "https://dc.lft.to/lastmile_qr_scan", "android": "https://dc.lft.to/lastmile_qr_scan"}}, {"name": "0034885dd2e2f9e1ddfd6f77b08c0cf1", "fusion_lat": 0.0, "type": "electric_scooter", "lat": 38.93823966666667, "is_reserved": 0, "is_disabled": 0, "fusion_lon": 0.0, "bike_id": "0034885dd2e2f9e1ddfd6f77b08c0cf1", "lon": -77.03282233333333, "rental_uris": {"ios": "https://dc.lft.to/lastmile_qr_scan", "android": "https://dc.lft.to/lastmile_qr_scan"}}, {"name": "908238ad9ba44f93a1768fc50c3be745", "fusion_lat": 0.0, "type": "electric_scooter", "lat": 38.9026835, "is_reserved": 0, "is_disabled": 0, "fusion_lon": 0.0, "bike_id": "908238ad9ba44f93a1768fc50c3be745", "lon": -77.00922416666667, "rental_uris": {"ios": "https://dc.lft.to/lastmile_qr_scan", "android": "https://dc.lft.to/lastmile_qr_scan"}}, {"name": "55e61800312c3c193753d74a7cf540b6", "fusion_lat": 0.0, "type": "electric_scooter", "lat": 38.93389666666667, "is_reserved": 0, "is_disabled": 0, "fusion_lon": 0.0, "bike_id": "55e61800312c3c193753d74a7cf540b6", "lon": -77.05767066666667, "rental_uris": {"ios": "https://dc.lft.to/lastmile_qr_scan", "android": "https://dc.lft.to/lastmile_qr_scan"}}, {"name": "f6f9bd227b1b41546441432c83dd01d4", "fusion_lat": 0.0, "type": "electric_scooter", "lat": 38.90851083333333, "is_reserved": 0, "is_disabled": 0, "fusion_lon": 0.0, "bike_id": "f6f9bd227b1b41546441432c83dd01d4", "lon": -77.02041133333333, "rental_uris": {"ios": "https://dc.lft.to/lastmile_qr_scan", "android": "https://dc.lft.to/lastmile_qr_scan"}}, {"name": "9b29c45e0c395527047a68c17807c219", "fusion_lat": 0.0, "type": "electric_scooter", "lat": 38.942950333333336, "is_reserved": 0, "is_disabled": 0, "fusion_lon": 0.0, "bike_id": "9b29c45e0c395527047a68c17807c219", "lon": -77.02171683333333, "rental_uris": {"ios": "https://dc.lft.to/lastmile_qr_scan", "android": "https://dc.lft.to/lastmile_qr_scan"}}, {"name": "65a9d33ffa21d629907edc58f97b69a1", "fusion_lat": 0.0, "type": "electric_scooter", "lat": 38.93005266666667, "is_reserved": 0, "is_disabled": 0, "fusion_lon": 0.0, "bike_id": "65a9d33ffa21d629907edc58f97b69a1", "lon": -77.0230765, "rental_uris": {"ios": "https://dc.lft.to/lastmile_qr_scan", "android": "https://dc.lft.to/lastmile_qr_scan"}}, {"name": "2685cf327e7190f6bfc4ebc1b87b996a", "fusion_lat": 0.0, "type": "electric_scooter", "lat": 38.9125025, "is_reserved": 0, "is_disabled": 0, "fusion_lon": 0.0, "bike_id": "2685cf327e7190f6bfc4ebc1b87b996a", "lon": -77.0222255, "rental_uris": {"ios": "https://dc.lft.to/lastmile_qr_scan", "android": "https://dc.lft.to/lastmile_qr_scan"}}, {"name": "b4995a0f68d20a66bb98c971a7d99aa0", "fusion_lat": 0.0, "type": "electric_scooter", "lat": 38.89742416666667, "is_reserved": 0, "is_disabled": 0, "fusion_lon": 0.0, "bike_id": "b4995a0f68d20a66bb98c971a7d99aa0", "lon": -76.9425065, "rental_uris": {"ios": "https://dc.lft.to/lastmile_qr_scan", "android": "https://dc.lft.to/lastmile_qr_scan"}}, {"name": "fb3e390779fb00cbe7fea12cf011771c", "fusion_lat": 0.0, "type": "electric_scooter", "lat": 38.90973366666667, "is_reserved": 0, "is_disabled": 0, "fusion_lon": 0.0, "bike_id": "fb3e390779fb00cbe7fea12cf011771c", "lon": -77.03818633333333, "rental_uris": {"ios": "https://dc.lft.to/lastmile_qr_scan", "android": "https://dc.lft.to/lastmile_qr_scan"}}, {"name": "9cc930e22cb661d9b843916d0f7dcac6", "fusion_lat": 0.0, "type": "electric_scooter", "lat": 38.8999825, "is_reserved": 0, "is_disabled": 0, "fusion_lon": 0.0, "bike_id": "9cc930e22cb661d9b843916d0f7dcac6", "lon": -77.0331135, "rental_uris": {"ios": "https://dc.lft.to/lastmile_qr_scan", "android": "https://dc.lft.to/lastmile_qr_scan"}}, {"name": "e52182381fbf9a6b1276fb5eaccde53d", "fusion_lat": 0.0, "type": "electric_scooter", "lat": 38.907974833333334, "is_reserved": 0, "is_disabled": 0, "fusion_lon": 0.0, "bike_id": "e52182381fbf9a6b1276fb5eaccde53d", "lon": -77.04821216666667, "rental_uris": {"ios": "https://dc.lft.to/lastmile_qr_scan", "android": "https://dc.lft.to/lastmile_qr_scan"}}, {"name": "3a1a95a25dcf88dfc79a0885efbdd397", "fusion_lat": 0.0, "type": "electric_scooter", "lat": 38.908617666666665, "is_reserved": 0, "is_disabled": 0, "fusion_lon": 0.0, "bike_id": "3a1a95a25dcf88dfc79a0885efbdd397", "lon": -77.02717966666667, "rental_uris": {"ios": "https://dc.lft.to/lastmile_qr_scan", "android": "https://dc.lft.to/lastmile_qr_scan"}}, {"name": "451014949fdb6fc198e38f0b65e9a23a", "fusion_lat": 0.0, "type": "electric_bike", "lat": 38.935994666666666, "is_reserved": 0, "is_disabled": 0, "fusion_lon": 0.0, "bike_id": "451014949fdb6fc198e38f0b65e9a23a", "lon": -77.02115533333334, "rental_uris": {"ios": "https://dc.lft.to/lastmile_qr_scan", "android": "https://dc.lft.to/lastmile_qr_scan"}}, {"name": "a40807fc2bdc48f41bee8657031a2f0f", "fusion_lat": 0.0, "type": "electric_bike", "lat": 38.965033, "is_reserved": 0, "is_disabled": 0, "fusion_lon": 0.0, "bike_id": "a40807fc2bdc48f41bee8657031a2f0f", "lon": -77.10331716666667, "rental_uris": {"ios": "https://dc.lft.to/lastmile_qr_scan", "android": "https://dc.lft.to/lastmile_qr_scan"}}, {"name": "01ff1335662ed69babccf90c492ec907", "fusion_lat": 0.0, "type": "electric_scooter", "lat": 38.933095333333334, "is_reserved": 0, "is_disabled": 0, "fusion_lon": 0.0, "bike_id": "01ff1335662ed69babccf90c492ec907", "lon": -77.0308735, "rental_uris": {"ios": "https://dc.lft.to/lastmile_qr_scan", "android": "https://dc.lft.to/lastmile_qr_scan"}}, {"name": "a35dba40f77bc6b0b38979bbc2f55768", "fusion_lat": 0.0, "type": "electric_bike", "lat": 38.8968495, "is_reserved": 0, "is_disabled": 0, "fusion_lon": 0.0, "bike_id": "a35dba40f77bc6b0b38979bbc2f55768", "lon": -76.940637, "rental_uris": {"ios": "https://dc.lft.to/lastmile_qr_scan", "android": "https://dc.lft.to/lastmile_qr_scan"}}, {"name": "3aef02dff339539b7472ac9092da9a42", "fusion_lat": 0.0, "type": "electric_scooter", "lat": 38.92386366666667, "is_reserved": 0, "is_disabled": 0, "fusion_lon": 0.0, "bike_id": "3aef02dff339539b7472ac9092da9a42", "lon": -77.029566, "rental_uris": {"ios": "https://dc.lft.to/lastmile_qr_scan", "android": "https://dc.lft.to/lastmile_qr_scan"}}, {"name": "4b348ece990fdbdae0794c911dc7f7c4", "fusion_lat": 0.0, "type": "electric_bike", "lat": 38.886405333333336, "is_reserved": 0, "is_disabled": 0, "fusion_lon": 0.0, "bike_id": "4b348ece990fdbdae0794c911dc7f7c4", "lon": -76.95461783333333, "rental_uris": {"ios": "https://dc.lft.to/lastmile_qr_scan", "android": "https://dc.lft.to/lastmile_qr_scan"}}, {"name": "14c6289b168d2ab649a0e4aebe6f05a9", "fusion_lat": 0.0, "type": "electric_scooter", "lat": 38.90371433333333, "is_reserved": 0, "is_disabled": 0, "fusion_lon": 0.0, "bike_id": "14c6289b168d2ab649a0e4aebe6f05a9", "lon": -77.045042, "rental_uris": {"ios": "https://dc.lft.to/lastmile_qr_scan", "android": "https://dc.lft.to/lastmile_qr_scan"}}, {"name": "0deeeefb607dfcb546e26c5ba8dad911", "fusion_lat": 0.0, "type": "electric_scooter", "lat": 38.91007116666667, "is_reserved": 0, "is_disabled": 0, "fusion_lon": 0.0, "bike_id": "0deeeefb607dfcb546e26c5ba8dad911", "lon": -77.04006016666666, "rental_uris": {"ios": "https://dc.lft.to/lastmile_qr_scan", "android": "https://dc.lft.to/lastmile_qr_scan"}}, {"name": "eaebc5b2e63863eb8516084956cff0a9", "fusion_lat": 0.0, "type": "electric_scooter", "lat": 38.91255816666666, "is_reserved": 0, "is_disabled": 0, "fusion_lon": 0.0, "bike_id": "eaebc5b2e63863eb8516084956cff0a9", "lon": -77.007742, "rental_uris": {"ios": "https://dc.lft.to/lastmile_qr_scan", "android": "https://dc.lft.to/lastmile_qr_scan"}}, {"name": "d73869afa68bbccc4fe1cd8803ebccf8", "fusion_lat": 0.0, "type": "electric_scooter", "lat": 38.91417416666667, "is_reserved": 0, "is_disabled": 0, "fusion_lon": 0.0, "bike_id": "d73869afa68bbccc4fe1cd8803ebccf8", "lon": -77.04157883333333, "rental_uris": {"ios": "https://dc.lft.to/lastmile_qr_scan", "android": "https://dc.lft.to/lastmile_qr_scan"}}, {"name": "30493b493feda8e8c4949ec48c09ba8e", "fusion_lat": 0.0, "type": "electric_scooter", "lat": 38.92130066666667, "is_reserved": 0, "is_disabled": 0, "fusion_lon": 0.0, "bike_id": "30493b493feda8e8c4949ec48c09ba8e", "lon": -77.04576916666667, "rental_uris": {"ios": "https://dc.lft.to/lastmile_qr_scan", "android": "https://dc.lft.to/lastmile_qr_scan"}}, {"name": "c88939157ae88ddaec8ac9f514cdbfd1", "fusion_lat": 0.0, "type": "electric_scooter", "lat": 38.93364283333333, "is_reserved": 0, "is_disabled": 0, "fusion_lon": 0.0, "bike_id": "c88939157ae88ddaec8ac9f514cdbfd1", "lon": -77.05724716666667, "rental_uris": {"ios": "https://dc.lft.to/lastmile_qr_scan", "android": "https://dc.lft.to/lastmile_qr_scan"}}, {"name": "f8e6e7253c89cfb16a208f0b0c1739eb", "fusion_lat": 0.0, "type": "electric_bike", "lat": 38.89836366666667, "is_reserved": 0, "is_disabled": 0, "fusion_lon": 0.0, "bike_id": "f8e6e7253c89cfb16a208f0b0c1739eb", "lon": -77.11800633333333, "rental_uris": {"ios": "https://dc.lft.to/lastmile_qr_scan", "android": "https://dc.lft.to/lastmile_qr_scan"}}, {"name": "01ba8d91460f439f1dddb93ff060ea53", "fusion_lat": 0.0, "type": "electric_scooter", "lat": 38.90960716666667, "is_reserved": 0, "is_disabled": 0, "fusion_lon": 0.0, "bike_id": "01ba8d91460f439f1dddb93ff060ea53", "lon": -77.03862516666666, "rental_uris": {"ios": "https://dc.lft.to/lastmile_qr_scan", "android": "https://dc.lft.to/lastmile_qr_scan"}}, {"name": "dcbe184a0c7118b099f66df883861682", "fusion_lat": 0.0, "type": "electric_scooter", "lat": 38.931849666666665, "is_reserved": 0, "is_disabled": 0, "fusion_lon": 0.0, "bike_id": "dcbe184a0c7118b099f66df883861682", "lon": -77.02793433333333, "rental_uris": {"ios": "https://dc.lft.to/lastmile_qr_scan", "android": "https://dc.lft.to/lastmile_qr_scan"}}, {"name": "2934fa9dbea24bcde0de6a461857e457", "fusion_lat": 0.0, "type": "electric_scooter", "lat": 38.868319166666666, "is_reserved": 0, "is_disabled": 0, "fusion_lon": 0.0, "bike_id": "2934fa9dbea24bcde0de6a461857e457", "lon": -76.98606033333333, "rental_uris": {"ios": "https://dc.lft.to/lastmile_qr_scan", "android": "https://dc.lft.to/lastmile_qr_scan"}}, {"name": "87e444cb005666941750e666059377d8", "fusion_lat": 0.0, "type": "electric_scooter", "lat": 38.927525, "is_reserved": 0, "is_disabled": 0, "fusion_lon": 0.0, "bike_id": "87e444cb005666941750e666059377d8", "lon": -77.022918, "rental_uris": {"ios": "https://dc.lft.to/lastmile_qr_scan", "android": "https://dc.lft.to/lastmile_qr_scan"}}, {"name": "49b1a275495baaedb30adb90e4b27584", "fusion_lat": 0.0, "type": "electric_scooter", "lat": 38.920863833333335, "is_reserved": 0, "is_disabled": 0, "fusion_lon": 0.0, "bike_id": "49b1a275495baaedb30adb90e4b27584", "lon": -77.01379583333333, "rental_uris": {"ios": "https://dc.lft.to/lastmile_qr_scan", "android": "https://dc.lft.to/lastmile_qr_scan"}}, {"name": "a3f7ec0bdd98005f971a54e7a8d6c259", "fusion_lat": 0.0, "type": "electric_scooter", "lat": 38.885798, "is_reserved": 0, "is_disabled": 0, "fusion_lon": 0.0, "bike_id": "a3f7ec0bdd98005f971a54e7a8d6c259", "lon": -76.995015, "rental_uris": {"ios": "https://dc.lft.to/lastmile_qr_scan", "android": "https://dc.lft.to/lastmile_qr_scan"}}, {"name": "f2342c43a0838e27ed4e7ff0dcdfcb3f", "fusion_lat": 0.0, "type": "electric_scooter", "lat": 38.91598583333333, "is_reserved": 0, "is_disabled": 0, "fusion_lon": 0.0, "bike_id": "f2342c43a0838e27ed4e7ff0dcdfcb3f", "lon": -77.04251566666667, "rental_uris": {"ios": "https://dc.lft.to/lastmile_qr_scan", "android": "https://dc.lft.to/lastmile_qr_scan"}}, {"name": "4f686134b481c0699594e9365862e677", "fusion_lat": 0.0, "type": "electric_scooter", "lat": 38.924807666666666, "is_reserved": 0, "is_disabled": 0, "fusion_lon": 0.0, "bike_id": "4f686134b481c0699594e9365862e677", "lon": -77.0299875, "rental_uris": {"ios": "https://dc.lft.to/lastmile_qr_scan", "android": "https://dc.lft.to/lastmile_qr_scan"}}, {"name": "c30efa2ba4938b7b10462e55d6014ba4", "fusion_lat": 0.0, "type": "electric_scooter", "lat": 38.92867533333333, "is_reserved": 0, "is_disabled": 0, "fusion_lon": 0.0, "bike_id": "c30efa2ba4938b7b10462e55d6014ba4", "lon": -77.014177, "rental_uris": {"ios": "https://dc.lft.to/lastmile_qr_scan", "android": "https://dc.lft.to/lastmile_qr_scan"}}, {"name": "760ca4112c62c884ac119db259a7f743", "fusion_lat": 0.0, "type": "electric_scooter", "lat": 38.92486016666667, "is_reserved": 0, "is_disabled": 0, "fusion_lon": 0.0, "bike_id": "760ca4112c62c884ac119db259a7f743", "lon": -77.027088, "rental_uris": {"ios": "https://dc.lft.to/lastmile_qr_scan", "android": "https://dc.lft.to/lastmile_qr_scan"}}, {"name": "7ad9e26601e250af46d123bbb20889e1", "fusion_lat": 0.0, "type": "electric_scooter", "lat": 38.90568833333333, "is_reserved": 0, "is_disabled": 0, "fusion_lon": 0.0, "bike_id": "7ad9e26601e250af46d123bbb20889e1", "lon": -77.03707066666666, "rental_uris": {"ios": "https://dc.lft.to/lastmile_qr_scan", "android": "https://dc.lft.to/lastmile_qr_scan"}}, {"name": "773e4580f1efec21c00451bae2768306", "fusion_lat": 0.0, "type": "electric_scooter", "lat": 38.90643566666667, "is_reserved": 0, "is_disabled": 0, "fusion_lon": 0.0, "bike_id": "773e4580f1efec21c00451bae2768306", "lon": -77.05337633333333, "rental_uris": {"ios": "https://dc.lft.to/lastmile_qr_scan", "android": "https://dc.lft.to/lastmile_qr_scan"}}, {"name": "4bc859acd0566312d8b726a0407fde6d", "fusion_lat": 0.0, "type": "electric_scooter", "lat": 38.903409, "is_reserved": 0, "is_disabled": 0, "fusion_lon": 0.0, "bike_id": "4bc859acd0566312d8b726a0407fde6d", "lon": -76.9466165, "rental_uris": {"ios": "https://dc.lft.to/lastmile_qr_scan", "android": "https://dc.lft.to/lastmile_qr_scan"}}, {"name": "ee55087850ccd3d3482266465e24c78a", "fusion_lat": 0.0, "type": "electric_scooter", "lat": 38.901512333333336, "is_reserved": 0, "is_disabled": 0, "fusion_lon": 0.0, "bike_id": "ee55087850ccd3d3482266465e24c78a", "lon": -77.03975183333333, "rental_uris": {"ios": "https://dc.lft.to/lastmile_qr_scan", "android": "https://dc.lft.to/lastmile_qr_scan"}}, {"name": "b41c11e3d08f7f8909133887ceed6a6e", "fusion_lat": 0.0, "type": "electric_bike", "lat": 38.992379, "is_reserved": 0, "is_disabled": 0, "fusion_lon": 0.0, "bike_id": "b41c11e3d08f7f8909133887ceed6a6e", "lon": -76.87822316666667, "rental_uris": {"ios": "https://dc.lft.to/lastmile_qr_scan", "android": "https://dc.lft.to/lastmile_qr_scan"}}, {"name": "3f0ee7c295c7953cfc48cc7fdb4347c9", "fusion_lat": 0.0, "type": "electric_bike", "lat": 38.943657333333334, "is_reserved": 0, "is_disabled": 0, "fusion_lon": 0.0, "bike_id": "3f0ee7c295c7953cfc48cc7fdb4347c9", "lon": -77.0034255, "rental_uris": {"ios": "https://dc.lft.to/lastmile_qr_scan", "android": "https://dc.lft.to/lastmile_qr_scan"}}, {"name": "1f7b9a4d1c11bddb05e1f4c9f25fe998", "fusion_lat": 0.0, "type": "electric_scooter", "lat": 38.9014215, "is_reserved": 0, "is_disabled": 0, "fusion_lon": 0.0, "bike_id": "1f7b9a4d1c11bddb05e1f4c9f25fe998", "lon": -77.04499216666666, "rental_uris": {"ios": "https://dc.lft.to/lastmile_qr_scan", "android": "https://dc.lft.to/lastmile_qr_scan"}}, {"name": "ac8b7525db400269ac533575e6507553", "fusion_lat": 0.0, "type": "electric_scooter", "lat": 38.90737816666667, "is_reserved": 0, "is_disabled": 0, "fusion_lon": 0.0, "bike_id": "ac8b7525db400269ac533575e6507553", "lon": -77.03441966666666, "rental_uris": {"ios": "https://dc.lft.to/lastmile_qr_scan", "android": "https://dc.lft.to/lastmile_qr_scan"}}, {"name": "b6454f4d933a34f1dd1280df6fb7361a", "fusion_lat": 0.0, "type": "electric_scooter", "lat": 38.90842683333333, "is_reserved": 0, "is_disabled": 0, "fusion_lon": 0.0, "bike_id": "b6454f4d933a34f1dd1280df6fb7361a", "lon": -77.03191216666667, "rental_uris": {"ios": "https://dc.lft.to/lastmile_qr_scan", "android": "https://dc.lft.to/lastmile_qr_scan"}}, {"name": "a65a714f817dc222beb97c5833728aad", "fusion_lat": 0.0, "type": "electric_scooter", "lat": 38.91111716666666, "is_reserved": 0, "is_disabled": 0, "fusion_lon": 0.0, "bike_id": "a65a714f817dc222beb97c5833728aad", "lon": -77.03733316666667, "rental_uris": {"ios": "https://dc.lft.to/lastmile_qr_scan", "android": "https://dc.lft.to/lastmile_qr_scan"}}, {"name": "2d41a3785a296353b1667884b3a6d13a", "fusion_lat": 0.0, "type": "electric_scooter", "lat": 38.90222416666667, "is_reserved": 0, "is_disabled": 0, "fusion_lon": 0.0, "bike_id": "2d41a3785a296353b1667884b3a6d13a", "lon": -77.04396066666666, "rental_uris": {"ios": "https://dc.lft.to/lastmile_qr_scan", "android": "https://dc.lft.to/lastmile_qr_scan"}}, {"name": "a6d1e508a506d2e4539629cc780efbe8", "fusion_lat": 0.0, "type": "electric_scooter", "lat": 38.90073666666667, "is_reserved": 0, "is_disabled": 0, "fusion_lon": 0.0, "bike_id": "a6d1e508a506d2e4539629cc780efbe8", "lon": -77.05024833333333, "rental_uris": {"ios": "https://dc.lft.to/lastmile_qr_scan", "android": "https://dc.lft.to/lastmile_qr_scan"}}, {"name": "168292e8df13a3f96cc578157810d98a", "fusion_lat": 0.0, "type": "electric_scooter", "lat": 38.93890183333333, "is_reserved": 0, "is_disabled": 0, "fusion_lon": 0.0, "bike_id": "168292e8df13a3f96cc578157810d98a", "lon": -77.024601, "rental_uris": {"ios": "https://dc.lft.to/lastmile_qr_scan", "android": "https://dc.lft.to/lastmile_qr_scan"}}, {"name": "fa0b469ee855c19329addc6db1ae1d7e", "fusion_lat": 0.0, "type": "electric_scooter", "lat": 38.89529316666667, "is_reserved": 0, "is_disabled": 0, "fusion_lon": 0.0, "bike_id": "fa0b469ee855c19329addc6db1ae1d7e", "lon": -77.04286833333333, "rental_uris": {"ios": "https://dc.lft.to/lastmile_qr_scan", "android": "https://dc.lft.to/lastmile_qr_scan"}}, {"name": "66bc56260b5aab665981b144012c4892", "fusion_lat": 0.0, "type": "electric_scooter", "lat": 38.907577833333335, "is_reserved": 0, "is_disabled": 0, "fusion_lon": 0.0, "bike_id": "66bc56260b5aab665981b144012c4892", "lon": -77.03172233333333, "rental_uris": {"ios": "https://dc.lft.to/lastmile_qr_scan", "android": "https://dc.lft.to/lastmile_qr_scan"}}, {"name": "05ef886b4f6369dec5a0c47abd85ef92", "fusion_lat": 0.0, "type": "electric_scooter", "lat": 38.897041, "is_reserved": 0, "is_disabled": 0, "fusion_lon": 0.0, "bike_id": "05ef886b4f6369dec5a0c47abd85ef92", "lon": -77.03100816666667, "rental_uris": {"ios": "https://dc.lft.to/lastmile_qr_scan", "android": "https://dc.lft.to/lastmile_qr_scan"}}, {"name": "0935aa3e263c3e422ec2c57a5e64a576", "fusion_lat": 0.0, "type": "electric_scooter", "lat": 38.90680433333333, "is_reserved": 0, "is_disabled": 0, "fusion_lon": 0.0, "bike_id": "0935aa3e263c3e422ec2c57a5e64a576", "lon": -77.01093916666666, "rental_uris": {"ios": "https://dc.lft.to/lastmile_qr_scan", "android": "https://dc.lft.to/lastmile_qr_scan"}}, {"name": "fcfea9623b8bceaab937997ce75faf3b", "fusion_lat": 0.0, "type": "electric_bike", "lat": 38.9068495, "is_reserved": 0, "is_disabled": 0, "fusion_lon": 0.0, "bike_id": "fcfea9623b8bceaab937997ce75faf3b", "lon": -76.95187516666667, "rental_uris": {"ios": "https://dc.lft.to/lastmile_qr_scan", "android": "https://dc.lft.to/lastmile_qr_scan"}}, {"name": "38c8f6c8fe19e087bd40dc1b8b87b10d", "fusion_lat": 0.0, "type": "electric_bike", "lat": 38.802273166666666, "is_reserved": 0, "is_disabled": 0, "fusion_lon": 0.0, "bike_id": "38c8f6c8fe19e087bd40dc1b8b87b10d", "lon": -77.07916916666667, "rental_uris": {"ios": "https://dc.lft.to/lastmile_qr_scan", "android": "https://dc.lft.to/lastmile_qr_scan"}}, {"name": "a85dae4eccb57af02dc5f1f43c947a1f", "fusion_lat": 0.0, "type": "electric_scooter", "lat": 38.9038495, "is_reserved": 0, "is_disabled": 0, "fusion_lon": 0.0, "bike_id": "a85dae4eccb57af02dc5f1f43c947a1f", "lon": -77.01104983333333, "rental_uris": {"ios": "https://dc.lft.to/lastmile_qr_scan", "android": "https://dc.lft.to/lastmile_qr_scan"}}, {"name": "cac610f7bffa183c9e48320467c309a1", "fusion_lat": 0.0, "type": "electric_scooter", "lat": 38.91252883333333, "is_reserved": 0, "is_disabled": 0, "fusion_lon": 0.0, "bike_id": "cac610f7bffa183c9e48320467c309a1", "lon": -77.03843233333333, "rental_uris": {"ios": "https://dc.lft.to/lastmile_qr_scan", "android": "https://dc.lft.to/lastmile_qr_scan"}}, {"name": "88fcc3a74e700f784c1cbb0f51b91eb4", "fusion_lat": 0.0, "type": "electric_scooter", "lat": 38.9114805, "is_reserved": 0, "is_disabled": 0, "fusion_lon": 0.0, "bike_id": "88fcc3a74e700f784c1cbb0f51b91eb4", "lon": -77.02192966666667, "rental_uris": {"ios": "https://dc.lft.to/lastmile_qr_scan", "android": "https://dc.lft.to/lastmile_qr_scan"}}, {"name": "7a39740784f48ee12c3e4bce991e54d8", "fusion_lat": 0.0, "type": "electric_scooter", "lat": 38.8985195, "is_reserved": 0, "is_disabled": 0, "fusion_lon": 0.0, "bike_id": "7a39740784f48ee12c3e4bce991e54d8", "lon": -76.99034633333333, "rental_uris": {"ios": "https://dc.lft.to/lastmile_qr_scan", "android": "https://dc.lft.to/lastmile_qr_scan"}}, {"name": "f30106f46c8c791fbe64ed9645420785", "fusion_lat": 0.0, "type": "electric_scooter", "lat": 38.903439, "is_reserved": 0, "is_disabled": 0, "fusion_lon": 0.0, "bike_id": "f30106f46c8c791fbe64ed9645420785", "lon": -76.9985255, "rental_uris": {"ios": "https://dc.lft.to/lastmile_qr_scan", "android": "https://dc.lft.to/lastmile_qr_scan"}}, {"name": "f3787d6a29bcdff929a02282b2f6fac5", "fusion_lat": 0.0, "type": "electric_bike", "lat": 38.922096, "is_reserved": 0, "is_disabled": 0, "fusion_lon": 0.0, "bike_id": "f3787d6a29bcdff929a02282b2f6fac5", "lon": -76.9879315, "rental_uris": {"ios": "https://dc.lft.to/lastmile_qr_scan", "android": "https://dc.lft.to/lastmile_qr_scan"}}, {"name": "63354021764707199c2fd3170343b066", "fusion_lat": 0.0, "type": "electric_scooter", "lat": 38.862637166666666, "is_reserved": 0, "is_disabled": 0, "fusion_lon": 0.0, "bike_id": "63354021764707199c2fd3170343b066", "lon": -76.98719216666667, "rental_uris": {"ios": "https://dc.lft.to/lastmile_qr_scan", "android": "https://dc.lft.to/lastmile_qr_scan"}}, {"name": "7f4e6935ba6fff8dc9d5d66dbdbf5d60", "fusion_lat": 0.0, "type": "electric_scooter", "lat": 38.9030995, "is_reserved": 0, "is_disabled": 0, "fusion_lon": 0.0, "bike_id": "7f4e6935ba6fff8dc9d5d66dbdbf5d60", "lon": -77.04981216666667, "rental_uris": {"ios": "https://dc.lft.to/lastmile_qr_scan", "android": "https://dc.lft.to/lastmile_qr_scan"}}, {"name": "600c4db294e31cf0f1fef1dc867443db", "fusion_lat": 0.0, "type": "electric_scooter", "lat": 38.89486616666667, "is_reserved": 0, "is_disabled": 0, "fusion_lon": 0.0, "bike_id": "600c4db294e31cf0f1fef1dc867443db", "lon": -77.0101175, "rental_uris": {"ios": "https://dc.lft.to/lastmile_qr_scan", "android": "https://dc.lft.to/lastmile_qr_scan"}}, {"name": "7ec006b5de13ec334b872c73806bf034", "fusion_lat": 0.0, "type": "electric_scooter", "lat": 38.883868666666665, "is_reserved": 0, "is_disabled": 0, "fusion_lon": 0.0, "bike_id": "7ec006b5de13ec334b872c73806bf034", "lon": -76.93044283333333, "rental_uris": {"ios": "https://dc.lft.to/lastmile_qr_scan", "android": "https://dc.lft.to/lastmile_qr_scan"}}, {"name": "9dc21c951cabca814e67cd044c6303c4", "fusion_lat": 0.0, "type": "electric_scooter", "lat": 38.90291783333333, "is_reserved": 0, "is_disabled": 0, "fusion_lon": 0.0, "bike_id": "9dc21c951cabca814e67cd044c6303c4", "lon": -77.03839033333334, "rental_uris": {"ios": "https://dc.lft.to/lastmile_qr_scan", "android": "https://dc.lft.to/lastmile_qr_scan"}}, {"name": "31379aff7089a79ad184dc5494e9b5e8", "fusion_lat": 0.0, "type": "electric_scooter", "lat": 38.90266966666667, "is_reserved": 0, "is_disabled": 0, "fusion_lon": 0.0, "bike_id": "31379aff7089a79ad184dc5494e9b5e8", "lon": -77.03838183333333, "rental_uris": {"ios": "https://dc.lft.to/lastmile_qr_scan", "android": "https://dc.lft.to/lastmile_qr_scan"}}, {"name": "7bcd7a4b099a47493b2fccd71c110d6d", "fusion_lat": 0.0, "type": "electric_scooter", "lat": 38.921550833333335, "is_reserved": 0, "is_disabled": 0, "fusion_lon": 0.0, "bike_id": "7bcd7a4b099a47493b2fccd71c110d6d", "lon": -77.03322166666666, "rental_uris": {"ios": "https://dc.lft.to/lastmile_qr_scan", "android": "https://dc.lft.to/lastmile_qr_scan"}}, {"name": "4037d1ebea2648e7cf5f33c0821a42bd", "fusion_lat": 0.0, "type": "electric_scooter", "lat": 38.9389085, "is_reserved": 0, "is_disabled": 0, "fusion_lon": 0.0, "bike_id": "4037d1ebea2648e7cf5f33c0821a42bd", "lon": -77.0247455, "rental_uris": {"ios": "https://dc.lft.to/lastmile_qr_scan", "android": "https://dc.lft.to/lastmile_qr_scan"}}, {"name": "9ee441380184d2779d00912ed3d633f9", "fusion_lat": 0.0, "type": "electric_scooter", "lat": 38.88754483333334, "is_reserved": 0, "is_disabled": 0, "fusion_lon": 0.0, "bike_id": "9ee441380184d2779d00912ed3d633f9", "lon": -76.97981233333333, "rental_uris": {"ios": "https://dc.lft.to/lastmile_qr_scan", "android": "https://dc.lft.to/lastmile_qr_scan"}}, {"name": "cabec7cc90df29826d9de2be43fa59da", "fusion_lat": 0.0, "type": "electric_bike", "lat": 38.886142666666665, "is_reserved": 0, "is_disabled": 0, "fusion_lon": 0.0, "bike_id": "cabec7cc90df29826d9de2be43fa59da", "lon": -77.10753016666666, "rental_uris": {"ios": "https://dc.lft.to/lastmile_qr_scan", "android": "https://dc.lft.to/lastmile_qr_scan"}}, {"name": "9222f32fc135c94c5823342155325463", "fusion_lat": 0.0, "type": "electric_scooter", "lat": 38.924760666666664, "is_reserved": 0, "is_disabled": 0, "fusion_lon": 0.0, "bike_id": "9222f32fc135c94c5823342155325463", "lon": -77.03138983333334, "rental_uris": {"ios": "https://dc.lft.to/lastmile_qr_scan", "android": "https://dc.lft.to/lastmile_qr_scan"}}, {"name": "5aa7d00ecde3c2db467d83be9f3c838e", "fusion_lat": 0.0, "type": "electric_scooter", "lat": 38.888971833333336, "is_reserved": 0, "is_disabled": 0, "fusion_lon": 0.0, "bike_id": "5aa7d00ecde3c2db467d83be9f3c838e", "lon": -77.03283333333333, "rental_uris": {"ios": "https://dc.lft.to/lastmile_qr_scan", "android": "https://dc.lft.to/lastmile_qr_scan"}}, {"name": "bec45c16254505c6d2df528f4303b19a", "fusion_lat": 0.0, "type": "electric_scooter", "lat": 38.90978066666667, "is_reserved": 0, "is_disabled": 0, "fusion_lon": 0.0, "bike_id": "bec45c16254505c6d2df528f4303b19a", "lon": -77.06713916666666, "rental_uris": {"ios": "https://dc.lft.to/lastmile_qr_scan", "android": "https://dc.lft.to/lastmile_qr_scan"}}, {"name": "1695ff194b6480ea10f5d59097bb45ad", "fusion_lat": 0.0, "type": "electric_scooter", "lat": 38.911219, "is_reserved": 0, "is_disabled": 0, "fusion_lon": 0.0, "bike_id": "1695ff194b6480ea10f5d59097bb45ad", "lon": -77.03820683333333, "rental_uris": {"ios": "https://dc.lft.to/lastmile_qr_scan", "android": "https://dc.lft.to/lastmile_qr_scan"}}, {"name": "bad0b8219d43d645bc26f86aa180d7b5", "fusion_lat": 0.0, "type": "electric_scooter", "lat": 38.90834016666667, "is_reserved": 0, "is_disabled": 0, "fusion_lon": 0.0, "bike_id": "bad0b8219d43d645bc26f86aa180d7b5", "lon": -77.00031366666667, "rental_uris": {"ios": "https://dc.lft.to/lastmile_qr_scan", "android": "https://dc.lft.to/lastmile_qr_scan"}}, {"name": "e25972da7e68ba8ee9b0be01b12cb345", "fusion_lat": 0.0, "type": "electric_scooter", "lat": 38.904579166666664, "is_reserved": 0, "is_disabled": 0, "fusion_lon": 0.0, "bike_id": "e25972da7e68ba8ee9b0be01b12cb345", "lon": -77.0463875, "rental_uris": {"ios": "https://dc.lft.to/lastmile_qr_scan", "android": "https://dc.lft.to/lastmile_qr_scan"}}, {"name": "431abcdca3d1372d525028720843613d", "fusion_lat": 0.0, "type": "electric_scooter", "lat": 38.87417883333333, "is_reserved": 0, "is_disabled": 0, "fusion_lon": 0.0, "bike_id": "431abcdca3d1372d525028720843613d", "lon": -76.96089366666666, "rental_uris": {"ios": "https://dc.lft.to/lastmile_qr_scan", "android": "https://dc.lft.to/lastmile_qr_scan"}}, {"name": "b48245bbb66bd6d9157213e22c1e9b72", "fusion_lat": 0.0, "type": "electric_scooter", "lat": 38.8967275, "is_reserved": 0, "is_disabled": 0, "fusion_lon": 0.0, "bike_id": "b48245bbb66bd6d9157213e22c1e9b72", "lon": -76.9485455, "rental_uris": {"ios": "https://dc.lft.to/lastmile_qr_scan", "android": "https://dc.lft.to/lastmile_qr_scan"}}, {"name": "105b8ae0c06ee9e77040dbefe59205ef", "fusion_lat": 0.0, "type": "electric_scooter", "lat": 38.918263, "is_reserved": 0, "is_disabled": 0, "fusion_lon": 0.0, "bike_id": "105b8ae0c06ee9e77040dbefe59205ef", "lon": -77.022677, "rental_uris": {"ios": "https://dc.lft.to/lastmile_qr_scan", "android": "https://dc.lft.to/lastmile_qr_scan"}}, {"name": "d73ec9317ec66902bc484b28a8a3fe21", "fusion_lat": 0.0, "type": "electric_scooter", "lat": 38.942877333333335, "is_reserved": 0, "is_disabled": 0, "fusion_lon": 0.0, "bike_id": "d73ec9317ec66902bc484b28a8a3fe21", "lon": -77.02172533333334, "rental_uris": {"ios": "https://dc.lft.to/lastmile_qr_scan", "android": "https://dc.lft.to/lastmile_qr_scan"}}, {"name": "17210c2b24bd3b0c6e9857b491b91d15", "fusion_lat": 0.0, "type": "electric_scooter", "lat": 38.91881583333333, "is_reserved": 0, "is_disabled": 0, "fusion_lon": 0.0, "bike_id": "17210c2b24bd3b0c6e9857b491b91d15", "lon": -77.02322466666666, "rental_uris": {"ios": "https://dc.lft.to/lastmile_qr_scan", "android": "https://dc.lft.to/lastmile_qr_scan"}}, {"name": "5820b611fdf3fe98234fe67e111b3496", "fusion_lat": 0.0, "type": "electric_scooter", "lat": 38.90113683333333, "is_reserved": 0, "is_disabled": 0, "fusion_lon": 0.0, "bike_id": "5820b611fdf3fe98234fe67e111b3496", "lon": -77.04983766666666, "rental_uris": {"ios": "https://dc.lft.to/lastmile_qr_scan", "android": "https://dc.lft.to/lastmile_qr_scan"}},