{"data": {"bikes": [{"name": "e8e5c40875b5f231c2a0ef45c7ed556f", "lon": -76.9872495, "lat": 38.85593433333333, "type": "electric_scooter", "is_disabled": 0, "rental_uris": {"android": "https://dc.lft.to/lastmile_qr_scan", "ios": "https://dc.lft.to/lastmile_qr_scan"}, "fusion_lon": 0.0, "bike_id": "e8e5c40875b5f231c2a0ef45c7ed556f", "fusion_lat": 0.0, "is_reserved": 0}, {"name": "823ff6c1c77236608df7aec978f7075a", "lon": -77.013727, "lat": 38.88703, "type": "electric_scooter", "is_disabled": 0, "rental_uris": {"android": "https://dc.lft.to/lastmile_qr_scan", "ios": "https://dc.lft.to/lastmile_qr_scan"}, "fusion_lon": 0.0, "bike_id": "823ff6c1c77236608df7aec978f7075a", "fusion_lat": 0.0, "is_reserved": 0}, {"name": "ff6b9e38faf0e3a9523a454bc0de13fb", "lon": -77.03558766666667, "lat": 38.92701366666667, "type": "electric_scooter", "is_disabled": 0, "rental_uris": {"android": "https://dc.lft.to/lastmile_qr_scan", "ios": "https://dc.lft.to/lastmile_qr_scan"}, "fusion_lon": 0.0, "bike_id": "ff6b9e38faf0e3a9523a454bc0de13fb", "fusion_lat": 0.0, "is_reserved": 0}, {"name": "8d5e885c7a3ef5535cdaa8243bae9591", "lon": -77.00746216666667, "lat": 38.898431, "type": "electric_scooter", "is_disabled": 0, "rental_uris": {"android": "https://dc.lft.to/lastmile_qr_scan", "ios": "https://dc.lft.to/lastmile_qr_scan"}, "fusion_lon": 0.0, "bike_id": "8d5e885c7a3ef5535cdaa8243bae9591", "fusion_lat": 0.0, "is_reserved": 0}, {"name": "779c44dfe7261d7f3eec194630eab1a0", "lon": -77.03229366666666, "lat": 38.92171183333333, "type": "electric_scooter", "is_disabled": 0, "rental_uris": {"android": "https://dc.lft.to/lastmile_qr_scan", "ios": "https://dc.lft.to/lastmile_qr_scan"}, "fusion_lon": 0.0, "bike_id": "779c44dfe7261d7f3eec194630eab1a0", "fusion_lat": 0.0, "is_reserved": 0}, {"name": "44779003b474ecf3c246b78a25c7ea4b", "lon": -77.03220416666667, "lat": 38.9163865, "type": "electric_scooter", "is_disabled": 0, "rental_uris": {"android": "https://dc.lft.to/lastmile_qr_scan", "ios": "https://dc.lft.to/lastmile_qr_scan"}, "fusion_lon": 0.0, "bike_id": "44779003b474ecf3c246b78a25c7ea4b", "fusion_lat": 0.0, "is_reserved": 0}, {"name": "ae7608a9a2dca942079d925e0046b8d2", "lon": -77.0257095, "lat": 38.92043016666667, "type": "electric_scooter", "is_disabled": 0, "rental_uris": {"android": "https://dc.lft.to/lastmile_qr_scan", "ios": "https://dc.lft.to/lastmile_qr_scan"}, "fusion_lon": 0.0, "bike_id": "ae7608a9a2dca942079d925e0046b8d2", "fusion_lat": 0.0, "is_reserved": 0}, {"name": "4ba8f599561aed74c7a9f7db077e0e40", "lon": -77.03285266666667, "lat": 38.9205335, "type": "electric_scooter", "is_disabled": 0, "rental_uris": {"android": "https://dc.lft.to/lastmile_qr_scan", "ios": "https://dc.lft.to/lastmile_qr_scan"}, "fusion_lon": 0.0, "bike_id": "4ba8f599561aed74c7a9f7db077e0e40", "fusion_lat": 0.0, "is_reserved": 0}, {"name": "8ac93a2e10332d638a3662385dff8f84", "lon": -77.040096, "lat": 38.899399, "type": "electric_scooter", "is_disabled": 0, "rental_uris": {"android": "https://dc.lft.to/lastmile_qr_scan", "ios": "https://dc.lft.to/lastmile_qr_scan"}, "fusion_lon": 0.0, "bike_id": "8ac93a2e10332d638a3662385dff8f84", "fusion_lat": 0.0, "is_reserved": 0}, {"name": "0fa58b812288b73cc9282e4dd499f228", "lon": -77.03195233333334, "lat": 38.9157015, "type": "electric_scooter", "is_disabled": 0, "rental_uris": {"android": "https://dc.lft.to/lastmile_qr_scan", "ios": "https://dc.lft.to/lastmile_qr_scan"}, "fusion_lon": 0.0, "bike_id": "0fa58b812288b73cc9282e4dd499f228", "fusion_lat": 0.0, "is_reserved": 0}, {"name": "4e270242ae32f134a7f69ad1e198c782", "lon": -77.02670216666667, "lat": 38.897067166666666, "type": "electric_scooter", "is_disabled": 0, "rental_uris": {"android": "https://dc.lft.to/lastmile_qr_scan", "ios": "https://dc.lft.to/lastmile_qr_scan"}, "fusion_lon": 0.0, "bike_id": "4e270242ae32f134a7f69ad1e198c782", "fusion_lat": 0.0, "is_reserved": 0}, {"name": "661dfc3f8030626b8a1655dc67347270", "lon": -77.04170966666666, "lat": 38.917272, "type": "electric_scooter", "is_disabled": 0, "rental_uris": {"android": "https://dc.lft.to/lastmile_qr_scan", "ios": "https://dc.lft.to/lastmile_qr_scan"}, "fusion_lon": 0.0, "bike_id": "661dfc3f8030626b8a1655dc67347270", "fusion_lat": 0.0, "is_reserved": 0}, {"name": "1019cd204258b8f0e5b94de279fc4698", "lon": -77.02707183333334, "lat": 38.918226833333335, "type": "electric_scooter", "is_disabled": 0, "rental_uris": {"android": "https://dc.lft.to/lastmile_qr_scan", "ios": "https://dc.lft.to/lastmile_qr_scan"}, "fusion_lon": 0.0, "bike_id": "1019cd204258b8f0e5b94de279fc4698", "fusion_lat": 0.0, "is_reserved": 0}, {"name": "a74f1a669fd15152b54156200854ccb2", "lon": -77.00757133333333, "lat": 38.997781333333336, "type": "electric_bike", "is_disabled": 0, "rental_uris": {"android": "https://dc.lft.to/lastmile_qr_scan", "ios": "https://dc.lft.to/lastmile_qr_scan"}, "fusion_lon": 0.0, "bike_id": "a74f1a669fd15152b54156200854ccb2", "fusion_lat": 0.0, "is_reserved": 0}, {"name": "ee2c2c9c886a5066e9aa9a8f11881e6d", "lon": -77.04503966666667, "lat": 38.90089866666667, "type": "electric_scooter", "is_disabled": 0, "rental_uris": {"android": "https://dc.lft.to/lastmile_qr_scan", "ios": "https://dc.lft.to/lastmile_qr_scan"}, "fusion_lon": 0.0, "bike_id": "ee2c2c9c886a5066e9aa9a8f11881e6d", "fusion_lat": 0.0, "is_reserved": 0}, {"name": "595000685bc0b00a5ea4d4470d88786e", "lon": -77.03262066666667, "lat": 38.93881666666667, "type": "electric_scooter", "is_disabled": 0, "rental_uris": {"android": "https://dc.lft.to/lastmile_qr_scan", "ios": "https://dc.lft.to/lastmile_qr_scan"}, "fusion_lon": 0.0, "bike_id": "595000685bc0b00a5ea4d4470d88786e", "fusion_lat": 0.0, "is_reserved": 0}, {"name": "6673fd7c4778e7c989b6a86ef46db3c2", "lon": -77.04018983333333, "lat": 38.90840883333333, "type": "electric_scooter", "is_disabled": 0, "rental_uris": {"android": "https://dc.lft.to/lastmile_qr_scan", "ios": "https://dc.lft.to/lastmile_qr_scan"}, "fusion_lon": 0.0, "bike_id": "6673fd7c4778e7c989b6a86ef46db3c2", "fusion_lat": 0.0, "is_reserved": 0}, {"name": "227af73935e1d3e3680f4cc6f891f33b", "lon": -77.03631116666666, "lat": 38.91857233333333, "type": "electric_scooter", "is_disabled": 0, "rental_uris": {"android": "https://dc.lft.to/lastmile_qr_scan", "ios": "https://dc.lft.to/lastmile_qr_scan"}, "fusion_lon": 0.0, "bike_id": "227af73935e1d3e3680f4cc6f891f33b", "fusion_lat": 0.0, "is_reserved": 0}, {"name": "a82fa8ebe104f9d20a6b04cfb28cd495", "lon": -77.06843383333333, "lat": 38.9172545, "type": "electric_scooter", "is_disabled": 0, "rental_uris": {"android": "https://dc.lft.to/lastmile_qr_scan", "ios": "https://dc.lft.to/lastmile_qr_scan"}, "fusion_lon": 0.0, "bike_id": "a82fa8ebe104f9d20a6b04cfb28cd495", "fusion_lat": 0.0, "is_reserved": 0}, {"name": "77e87c9660560c0cc4eaf260c1093953", "lon": -77.0492215, "lat": 38.90514733333333, "type": "electric_scooter", "is_disabled": 0, "rental_uris": {"android": "https://dc.lft.to/lastmile_qr_scan", "ios": "https://dc.lft.to/lastmile_qr_scan"}, "fusion_lon": 0.0, "bike_id": "77e87c9660560c0cc4eaf260c1093953", "fusion_lat": 0.0, "is_reserved": 0}, {"name": "7271ae60754159cb369b56697e282635", "lon": -77.005827, "lat": 38.875727499999996, "type": "electric_scooter", "is_disabled": 0, "rental_uris": {"android": "https://dc.lft.to/lastmile_qr_scan", "ios": "https://dc.lft.to/lastmile_qr_scan"}, "fusion_lon": 0.0, "bike_id": "7271ae60754159cb369b56697e282635", "fusion_lat": 0.0, "is_reserved": 0}, {"name": "60947c94bdbb9fda6fde4c4ed2326883", "lon": -77.00555083333333, "lat": 38.87469266666667, "type": "electric_scooter", "is_disabled": 0, "rental_uris": {"android": "https://dc.lft.to/lastmile_qr_scan", "ios": "https://dc.lft.to/lastmile_qr_scan"}, "fusion_lon": 0.0, "bike_id": "60947c94bdbb9fda6fde4c4ed2326883", "fusion_lat": 0.0, "is_reserved": 0}, {"name": "3a437e96c43d67ed7220bf738c48802e", "lon": -77.04082, "lat": 38.932775666666664, "type": "electric_scooter", "is_disabled": 0, "rental_uris": {"android": "https://dc.lft.to/lastmile_qr_scan", "ios": "https://dc.lft.to/lastmile_qr_scan"}, "fusion_lon": 0.0, "bike_id": "3a437e96c43d67ed7220bf738c48802e", "fusion_lat": 0.0, "is_reserved": 0}, {"name": "e29d2f9274e527d74ed439b9d36c373f", "lon": -76.996726, "lat": 38.85648316666666, "type": "electric_scooter", "is_disabled": 0, "rental_uris": {"android": "https://dc.lft.to/lastmile_qr_scan", "ios": "https://dc.lft.to/lastmile_qr_scan"}, "fusion_lon": 0.0, "bike_id": "e29d2f9274e527d74ed439b9d36c373f", "fusion_lat": 0.0, "is_reserved": 0}, {"name": "5ba638eac84ec75b35c23ce822a4aa74", "lon": -77.02078166666666, "lat": 38.89471733333333, "type": "electric_scooter", "is_disabled": 0, "rental_uris": {"android": "https://dc.lft.to/lastmile_qr_scan", "ios": "https://dc.lft.to/lastmile_qr_scan"}, "fusion_lon": 0.0, "bike_id": "5ba638eac84ec75b35c23ce822a4aa74", "fusion_lat": 0.0, "is_reserved": 0}, {"name": "73fa1cc4fc93d14abcbd10df4591a99b", "lon": -77.03207266666666, "lat": 38.90835833333333, "type": "electric_scooter", "is_disabled": 0, "rental_uris": {"android": "https://dc.lft.to/lastmile_qr_scan", "ios": "https://dc.lft.to/lastmile_qr_scan"}, "fusion_lon": 0.0, "bike_id": "73fa1cc4fc93d14abcbd10df4591a99b", "fusion_lat": 0.0, "is_reserved": 0}, {"name": "e41a524e19fd47d1d097628aacd994d3", "lon": -77.03949116666666, "lat": 38.919679, "type": "electric_scooter", "is_disabled": 0, "rental_uris": {"android": "https://dc.lft.to/lastmile_qr_scan", "ios": "https://dc.lft.to/lastmile_qr_scan"}, "fusion_lon": 0.0, "bike_id": "e41a524e19fd47d1d097628aacd994d3", "fusion_lat": 0.0, "is_reserved": 0}, {"name": "0d2be2dbc1c19fe7e417ac71f4ec5b39", "lon": -77.0020915, "lat": 38.8873975, "type": "electric_scooter", "is_disabled": 0, "rental_uris": {"android": "https://dc.lft.to/lastmile_qr_scan", "ios": "https://dc.lft.to/lastmile_qr_scan"}, "fusion_lon": 0.0, "bike_id": "0d2be2dbc1c19fe7e417ac71f4ec5b39", "fusion_lat": 0.0, "is_reserved": 0}, {"name": "45fbd1a3d5ecd1b50c6aebe929a24d07", "lon": -76.9980925, "lat": 38.91093733333334, "type": "electric_scooter", "is_disabled": 0, "rental_uris": {"android": "https://dc.lft.to/lastmile_qr_scan", "ios": "https://dc.lft.to/lastmile_qr_scan"}, "fusion_lon": 0.0, "bike_id": "45fbd1a3d5ecd1b50c6aebe929a24d07", "fusion_lat": 0.0, "is_reserved": 0}, {"name": "8a00bb1ead13e47103cee8465551fbf5", "lon": -76.93022466666666, "lat": 38.901655166666664, "type": "electric_scooter", "is_disabled": 0, "rental_uris": {"android": "https://dc.lft.to/lastmile_qr_scan", "ios": "https://dc.lft.to/lastmile_qr_scan"}, "fusion_lon": 0.0, "bike_id": "8a00bb1ead13e47103cee8465551fbf5", "fusion_lat": 0.0, "is_reserved": 0}, {"name": "e15dac4318e44bdd3eb95cdc2de9d813", "lon": -77.01608966666667, "lat": 38.8996015, "type": "electric_scooter", "is_disabled": 0, "rental_uris": {"android": "https://dc.lft.to/lastmile_qr_scan", "ios": "https://dc.lft.to/lastmile_qr_scan"}, "fusion_lon": 0.0, "bike_id": "e15dac4318e44bdd3eb95cdc2de9d813", "fusion_lat": 0.0, "is_reserved": 0}, {"name": "032041c7fad56a410a6e79ebf4edc3c7", "lon": -76.991728, "lat": 38.900118, "type": "electric_scooter", "is_disabled": 0, "rental_uris": {"android": "https://dc.lft.to/lastmile_qr_scan", "ios": "https://dc.lft.to/lastmile_qr_scan"}, "fusion_lon": 0.0, "bike_id": "032041c7fad56a410a6e79ebf4edc3c7", "fusion_lat": 0.0, "is_reserved": 0}, {"name": "2015b2f044b3b2f0bf9716c8556b47a3", "lon": -77.003771, "lat": 38.897247166666666, "type": "electric_scooter", "is_disabled": 0, "rental_uris": {"android": "https://dc.lft.to/lastmile_qr_scan", "ios": "https://dc.lft.to/lastmile_qr_scan"}, "fusion_lon": 0.0, "bike_id": "2015b2f044b3b2f0bf9716c8556b47a3", "fusion_lat": 0.0, "is_reserved": 0}, {"name": "ed1ae3d99ca2d9464ad465ead4131986", "lon": -76.9204465, "lat": 38.89732716666666, "type": "electric_bike", "is_disabled": 0, "rental_uris": {"android": "https://dc.lft.to/lastmile_qr_scan", "ios": "https://dc.lft.to/lastmile_qr_scan"}, "fusion_lon": 0.0, "bike_id": "ed1ae3d99ca2d9464ad465ead4131986", "fusion_lat": 0.0, "is_reserved": 0}, {"name": "a7967571e6d2786194275361836e30be", "lon": -77.03191266666667, "lat": 38.91570166666666, "type": "electric_scooter", "is_disabled": 0, "rental_uris": {"android": "https://dc.lft.to/lastmile_qr_scan", "ios": "https://dc.lft.to/lastmile_qr_scan"}, "fusion_lon": 0.0, "bike_id": "a7967571e6d2786194275361836e30be", "fusion_lat": 0.0, "is_reserved": 0}, {"name": "c12d0b52d931536bc2d326606462e242", "lon": -77.022187, "lat": 38.9016035, "type": "electric_scooter", "is_disabled": 0, "rental_uris": {"android": "https://dc.lft.to/lastmile_qr_scan", "ios": "https://dc.lft.to/lastmile_qr_scan"}, "fusion_lon": 0.0, "bike_id": "c12d0b52d931536bc2d326606462e242", "fusion_lat": 0.0, "is_reserved": 0}, {"name": "ae195d6b49bc78e9857033fc020c8a98", "lon": -77.02351633333333, "lat": 38.93530333333333, "type": "electric_scooter", "is_disabled": 0, "rental_uris": {"android": "https://dc.lft.to/lastmile_qr_scan", "ios": "https://dc.lft.to/lastmile_qr_scan"}, "fusion_lon": 0.0, "bike_id": "ae195d6b49bc78e9857033fc020c8a98", "fusion_lat": 0.0, "is_reserved": 0}, {"name": "29fd6b3defe38256eb57e47c1b52ad60", "lon": -77.01995616666666, "lat": 38.966244833333334, "type": "electric_scooter", "is_disabled": 0, "rental_uris": {"android": "https://dc.lft.to/lastmile_qr_scan", "ios": "https://dc.lft.to/lastmile_qr_scan"}, "fusion_lon": 0.0, "bike_id": "29fd6b3defe38256eb57e47c1b52ad60", "fusion_lat": 0.0, "is_reserved": 0}, {"name": "ebac0f2a177eac7afa793438092c7193", "lon": -77.023768, "lat": 38.90722066666667, "type": "electric_scooter", "is_disabled": 0, "rental_uris": {"android": "https://dc.lft.to/lastmile_qr_scan", "ios": "https://dc.lft.to/lastmile_qr_scan"}, "fusion_lon": 0.0, "bike_id": "ebac0f2a177eac7afa793438092c7193", "fusion_lat": 0.0, "is_reserved": 0}, {"name": "d994ea442e27a93faa6a19bfbe276568", "lon": -77.02242583333333, "lat": 38.908615833333336, "type": "electric_scooter", "is_disabled": 0, "rental_uris": {"android": "https://dc.lft.to/lastmile_qr_scan", "ios": "https://dc.lft.to/lastmile_qr_scan"}, "fusion_lon": 0.0, "bike_id": "d994ea442e27a93faa6a19bfbe276568", "fusion_lat": 0.0, "is_reserved": 0}, {"name": "07bd138099f7f7c314699f49977c811f", "lon": -77.02688533333334, "lat": 38.8944655, "type": "electric_scooter", "is_disabled": 0, "rental_uris": {"android": "https://dc.lft.to/lastmile_qr_scan", "ios": "https://dc.lft.to/lastmile_qr_scan"}, "fusion_lon": 0.0, "bike_id": "07bd138099f7f7c314699f49977c811f", "fusion_lat": 0.0, "is_reserved": 0}, {"name": "96e454d8c71055ebf7302613fcece938", "lon": -76.98413283333333, "lat": 38.855003833333335, "type": "electric_bike", "is_disabled": 0, "rental_uris": {"android": "https://dc.lft.to/lastmile_qr_scan", "ios": "https://dc.lft.to/lastmile_qr_scan"}, "fusion_lon": 0.0, "bike_id": "96e454d8c71055ebf7302613fcece938", "fusion_lat": 0.0, "is_reserved": 0}, {"name": "5c4ced51ec2eb123b1192eaea0b436e6", "lon": -77.04738033333334, "lat": 38.89722, "type": "electric_scooter", "is_disabled": 0, "rental_uris": {"android": "https://dc.lft.to/lastmile_qr_scan", "ios": "https://dc.lft.to/lastmile_qr_scan"}, "fusion_lon": 0.0, "bike_id": "5c4ced51ec2eb123b1192eaea0b436e6", "fusion_lat": 0.0, "is_reserved": 0}, {"name": "ad14a0e62ca1929f8f3b08579c859346", "lon": -76.99511833333334, "lat": 38.8811705, "type": "electric_bike", "is_disabled": 0, "rental_uris": {"android": "https://dc.lft.to/lastmile_qr_scan", "ios": "https://dc.lft.to/lastmile_qr_scan"}, "fusion_lon": 0.0, "bike_id": "ad14a0e62ca1929f8f3b08579c859346", "fusion_lat": 0.0, "is_reserved": 0}, {"name": "c48042ff199d942123cab7f9a851dc2b", "lon": -77.03831416666667, "lat": 38.91117583333333, "type": "electric_scooter", "is_disabled": 0, "rental_uris": {"android": "https://dc.lft.to/lastmile_qr_scan", "ios": "https://dc.lft.to/lastmile_qr_scan"}, "fusion_lon": 0.0, "bike_id": "c48042ff199d942123cab7f9a851dc2b", "fusion_lat": 0.0, "is_reserved": 0}, {"name": "c69f38c05b1b18d277917357f7966285", "lon": -76.995573, "lat": 38.900217, "type": "electric_scooter", "is_disabled": 0, "rental_uris": {"android": "https://dc.lft.to/lastmile_qr_scan", "ios": "https://dc.lft.to/lastmile_qr_scan"}, "fusion_lon": 0.0, "bike_id": "c69f38c05b1b18d277917357f7966285", "fusion_lat": 0.0, "is_reserved": 0}, {"name": "a5cb3b1c447b919ffbed758502aaf943", "lon": -76.983578, "lat": 38.89431066666667, "type": "electric_scooter", "is_disabled": 0, "rental_uris": {"android": "https://dc.lft.to/lastmile_qr_scan", "ios": "https://dc.lft.to/lastmile_qr_scan"}, "fusion_lon": 0.0, "bike_id": "a5cb3b1c447b919ffbed758502aaf943", "fusion_lat": 0.0, "is_reserved": 0}, {"name": "159f29171a2e7e286dfa27d3e577f414", "lon": -76.977084, "lat": 38.88522116666667, "type": "electric_scooter", "is_disabled": 0, "rental_uris": {"android": "https://dc.lft.to/lastmile_qr_scan", "ios": "https://dc.lft.to/lastmile_qr_scan"}, "fusion_lon": 0.0, "bike_id": "159f29171a2e7e286dfa27d3e577f414", "fusion_lat": 0.0, "is_reserved": 0}, {"name": "682ec5b8e139a9dfb6c58aeff31e5aff", "lon": -77.04576333333333, "lat": 38.921041833333334, "type": "electric_scooter", "is_disabled": 0, "rental_uris": {"android": "https://dc.lft.to/lastmile_qr_scan", "ios": "https://dc.lft.to/lastmile_qr_scan"}, "fusion_lon": 0.0, "bike_id": "682ec5b8e139a9dfb6c58aeff31e5aff", "fusion_lat": 0.0, "is_reserved": 0}, {"name": "1db86a3f9fa3aab7e198c63be6e05a4d", "lon": -77.019555, "lat": 38.89250216666667, "type": "electric_scooter", "is_disabled": 0, "rental_uris": {"android": "https://dc.lft.to/lastmile_qr_scan", "ios": "https://dc.lft.to/lastmile_qr_scan"}, "fusion_lon": 0.0, "bike_id": "1db86a3f9fa3aab7e198c63be6e05a4d", "fusion_lat": 0.0, "is_reserved": 0}, {"name": "75864ec14b7532fe72f563f1e3d24b9a", "lon": -77.0307535, "lat": 38.89451, "type": "electric_scooter", "is_disabled": 0, "rental_uris": {"android": "https://dc.lft.to/lastmile_qr_scan", "ios": "https://dc.lft.to/lastmile_qr_scan"}, "fusion_lon": 0.0, "bike_id": "75864ec14b7532fe72f563f1e3d24b9a", "fusion_lat": 0.0, "is_reserved": 0}, {"name": "864b40c483e0503e857da954a40353b2", "lon": -77.024212, "lat": 38.926526, "type": "electric_scooter", "is_disabled": 0, "rental_uris": {"android": "https://dc.lft.to/lastmile_qr_scan", "ios": "https://dc.lft.to/lastmile_qr_scan"}, "fusion_lon": 0.0, "bike_id": "864b40c483e0503e857da954a40353b2", "fusion_lat": 0.0, "is_reserved": 0}, {"name": "74e653c9c164b1d6744e8d67a97d8f73", "lon": -76.95419416666667, "lat": 38.889952666666666, "type": "electric_scooter", "is_disabled": 0, "rental_uris": {"android": "https://dc.lft.to/lastmile_qr_scan", "ios": "https://dc.lft.to/lastmile_qr_scan"}, "fusion_lon": 0.0, "bike_id": "74e653c9c164b1d6744e8d67a97d8f73", "fusion_lat": 0.0, "is_reserved": 0}, {"name": "4a7cf7672b11b0273964434b21a4e19d", "lon": -77.02302566666667, "lat": 38.92660383333333, "type": "electric_scooter", "is_disabled": 0, "rental_uris": {"android": "https://dc.lft.to/lastmile_qr_scan", "ios": "https://dc.lft.to/lastmile_qr_scan"}, "fusion_lon": 0.0, "bike_id": "4a7cf7672b11b0273964434b21a4e19d", "fusion_lat": 0.0, "is_reserved": 0}, {"name": "7001b3f8f45a37039d580318621289d3", "lon": -77.04359366666667, "lat": 38.90513466666667, "type": "electric_scooter", "is_disabled": 0, "rental_uris": {"android": "https://dc.lft.to/lastmile_qr_scan", "ios": "https://dc.lft.to/lastmile_qr_scan"}, "fusion_lon": 0.0, "bike_id": "7001b3f8f45a37039d580318621289d3", "fusion_lat": 0.0, "is_reserved": 0}, {"name": "7fc7232e3449c78eb485c50a9d8d5d9d", "lon": -77.0220585, "lat": 38.924703666666666, "type": "electric_scooter", "is_disabled": 0, "rental_uris": {"android": "https://dc.lft.to/lastmile_qr_scan", "ios": "https://dc.lft.to/lastmile_qr_scan"}, "fusion_lon": 0.0, "bike_id": "7fc7232e3449c78eb485c50a9d8d5d9d", "fusion_lat": 0.0, "is_reserved": 0}, {"name": "e60eb8f4bd2b6a323a4f5c13e368d85e", "lon": -77.04191483333334, "lat": 38.906216, "type": "electric_scooter", "is_disabled": 0, "rental_uris": {"android": "https://dc.lft.to/lastmile_qr_scan", "ios": "https://dc.lft.to/lastmile_qr_scan"}, "fusion_lon": 0.0, "bike_id": "e60eb8f4bd2b6a323a4f5c13e368d85e", "fusion_lat": 0.0, "is_reserved": 0}, {"name": "207efdc4c715c3e0541281823df0a260", "lon": -77.04368016666666, "lat": 38.90403416666667, "type": "electric_scooter", "is_disabled": 0, "rental_uris": {"android": "https://dc.lft.to/lastmile_qr_scan", "ios": "https://dc.lft.to/lastmile_qr_scan"}, "fusion_lon": 0.0, "bike_id": "207efdc4c715c3e0541281823df0a260", "fusion_lat": 0.0, "is_reserved": 0}, {"name": "a3cea3d0b0c6ae04e7be2f1db6d5c9ed", "lon": -77.04194616666666, "lat": 38.892205, "type": "electric_scooter", "is_disabled": 0, "rental_uris": {"android": "https://dc.lft.to/lastmile_qr_scan", "ios": "https://dc.lft.to/lastmile_qr_scan"}, "fusion_lon": 0.0, "bike_id": "a3cea3d0b0c6ae04e7be2f1db6d5c9ed", "fusion_lat": 0.0, "is_reserved": 0}, {"name": "e9bd91fa03b66084275d9bd5a393e3de", "lon": -77.0321275, "lat": 38.9037665, "type": "electric_scooter", "is_disabled": 0, "rental_uris": {"android": "https://dc.lft.to/lastmile_qr_scan", "ios": "https://dc.lft.to/lastmile_qr_scan"}, "fusion_lon": 0.0, "bike_id": "e9bd91fa03b66084275d9bd5a393e3de", "fusion_lat": 0.0, "is_reserved": 0}, {"name": "c1970521e8419837cfffb25c886b5e62", "lon": -77.03055, "lat": 38.902397666666666, "type": "electric_scooter", "is_disabled": 0, "rental_uris": {"android": "https://dc.lft.to/lastmile_qr_scan", "ios": "https://dc.lft.to/lastmile_qr_scan"}, "fusion_lon": 0.0, "bike_id": "c1970521e8419837cfffb25c886b5e62", "fusion_lat": 0.0, "is_reserved": 0}, {"name": "b1e4a8a5e1b4c8568991eeadcb590466", "lon": -77.01066633333333, "lat": 38.9202795, "type": "electric_scooter", "is_disabled": 0, "rental_uris": {"android": "https://dc.lft.to/lastmile_qr_scan", "ios": "https://dc.lft.to/lastmile_qr_scan"}, "fusion_lon": 0.0, "bike_id": "b1e4a8a5e1b4c8568991eeadcb590466", "fusion_lat": 0.0, "is_reserved": 0}, {"name": "053cbe3a6a6faa80be3e1572837ee2aa", "lon": -76.98112966666666, "lat": 38.91467266666667, "type": "electric_scooter", "is_disabled": 0, "rental_uris": {"android": "https://dc.lft.to/lastmile_qr_scan", "ios": "https://dc.lft.to/lastmile_qr_scan"}, "fusion_lon": 0.0, "bike_id": "053cbe3a6a6faa80be3e1572837ee2aa", "fusion_lat": 0.0, "is_reserved": 0}, {"name": "06a378e7c8ef52bef401b0fa189a696f", "lon": -77.03791183333334, "lat": 38.99677633333334, "type": "electric_bike", "is_disabled": 0, "rental_uris": {"android": "https://dc.lft.to/lastmile_qr_scan", "ios": "https://dc.lft.to/lastmile_qr_scan"}, "fusion_lon": 0.0, "bike_id": "06a378e7c8ef52bef401b0fa189a696f", "fusion_lat": 0.0, "is_reserved": 0}, {"name": "beedfa89c1e2ea5bbcd7d0b47ce4e848", "lon": -77.04869116666667, "lat": 38.912366166666665, "type": "electric_scooter", "is_disabled": 0, "rental_uris": {"android": "https://dc.lft.to/lastmile_qr_scan", "ios": "https://dc.lft.to/lastmile_qr_scan"}, "fusion_lon": 0.0, "bike_id": "beedfa89c1e2ea5bbcd7d0b47ce4e848", "fusion_lat": 0.0, "is_reserved": 0}, {"name": "120c6f52ce8b1501add977b91ef85c7c", "lon": -77.04369966666667, "lat": 38.90267266666667, "type": "electric_scooter", "is_disabled": 0, "rental_uris": {"android": "https://dc.lft.to/lastmile_qr_scan", "ios": "https://dc.lft.to/lastmile_qr_scan"}, "fusion_lon": 0.0, "bike_id": "120c6f52ce8b1501add977b91ef85c7c", "fusion_lat": 0.0, "is_reserved": 0}, {"name": "5e50095c8c78f9685bd04e514378ebd8", "lon": -77.04984966666666, "lat": 38.9010075, "type": "electric_scooter", "is_disabled": 0, "rental_uris": {"android": "https://dc.lft.to/lastmile_qr_scan", "ios": "https://dc.lft.to/lastmile_qr_scan"}, "fusion_lon": 0.0, "bike_id": "5e50095c8c78f9685bd04e514378ebd8", "fusion_lat": 0.0, "is_reserved": 0}, {"name": "d1ad135fb2b26402bd2376d07bcf79a2", "lon": -77.046735, "lat": 38.895582833333336, "type": "electric_scooter", "is_disabled": 0, "rental_uris": {"android": "https://dc.lft.to/lastmile_qr_scan", "ios": "https://dc.lft.to/lastmile_qr_scan"}, "fusion_lon": 0.0, "bike_id": "d1ad135fb2b26402bd2376d07bcf79a2", "fusion_lat": 0.0, "is_reserved": 0}, {"name": "92c76a1a02cfb1077f31a54d0578a7cd", "lon": -77.0234785, "lat": 38.93532116666667, "type": "electric_scooter", "is_disabled": 0, "rental_uris": {"android": "https://dc.lft.to/lastmile_qr_scan", "ios": "https://dc.lft.to/lastmile_qr_scan"}, "fusion_lon": 0.0, "bike_id": "92c76a1a02cfb1077f31a54d0578a7cd", "fusion_lat": 0.0, "is_reserved": 0}, {"name": "dec5a4cc4f240153a4419cc096e79729", "lon": -76.99774016666667, "lat": 38.9532445, "type": "electric_bike", "is_disabled": 0, "rental_uris": {"android": "https://dc.lft.to/lastmile_qr_scan", "ios": "https://dc.lft.to/lastmile_qr_scan"}, "fusion_lon": 0.0, "bike_id": "dec5a4cc4f240153a4419cc096e79729", "fusion_lat": 0.0, "is_reserved": 0}, {"name": "10d962c0b6bb30a7ee269f0463b131bc", "lon": -77.031035, "lat": 38.931804666666665, "type": "electric_scooter", "is_disabled": 0, "rental_uris": {"android": "https://dc.lft.to/lastmile_qr_scan", "ios": "https://dc.lft.to/lastmile_qr_scan"}, "fusion_lon": 0.0, "bike_id": "10d962c0b6bb30a7ee269f0463b131bc", "fusion_lat": 0.0, "is_reserved": 0}, {"name": "e1b961bf0e0812a0968c6fd146dc3530", "lon": -76.96936133333334, "lat": 38.95981233333333, "type": "electric_bike", "is_disabled": 0, "rental_uris": {"android": "https://dc.lft.to/lastmile_qr_scan", "ios": "https://dc.lft.to/lastmile_qr_scan"}, "fusion_lon": 0.0, "bike_id": "e1b961bf0e0812a0968c6fd146dc3530", "fusion_lat": 0.0, "is_reserved": 0}, {"name": "8329c0cb5587f2e2f8d7df5e157aa52d", "lon": -77.00207166666667, "lat": 38.9199435, "type": "electric_scooter", "is_disabled": 0, "rental_uris": {"android": "https://dc.lft.to/lastmile_qr_scan", "ios": "https://dc.lft.to/lastmile_qr_scan"}, "fusion_lon": 0.0, "bike_id": "8329c0cb5587f2e2f8d7df5e157aa52d", "fusion_lat": 0.0, "is_reserved": 0}, {"name": "b553cda001abf4951da2f209f92703de", "lon": -77.0425105, "lat": 38.92197516666667, "type": "electric_scooter", "is_disabled": 0, "rental_uris": {"android": "https://dc.lft.to/lastmile_qr_scan", "ios": "https://dc.lft.to/lastmile_qr_scan"}, "fusion_lon": 0.0, "bike_id": "b553cda001abf4951da2f209f92703de", "fusion_lat": 0.0, "is_reserved": 0}, {"name": "45700b8e9609e246bd2dbd0b80b46472", "lon": -77.03256483333334, "lat": 38.898555, "type": "electric_scooter", "is_disabled": 0, "rental_uris": {"android": "https://dc.lft.to/lastmile_qr_scan", "ios": "https://dc.lft.to/lastmile_qr_scan"}, "fusion_lon": 0.0, "bike_id": "45700b8e9609e246bd2dbd0b80b46472", "fusion_lat": 0.0, "is_reserved": 0}, {"name": "712c149f6ec00b167d91ab2cc8217565", "lon": -77.0282155, "lat": 38.917012, "type": "electric_scooter", "is_disabled": 0, "rental_uris": {"android": "https://dc.lft.to/lastmile_qr_scan", "ios": "https://dc.lft.to/lastmile_qr_scan"}, "fusion_lon": 0.0, "bike_id": "712c149f6ec00b167d91ab2cc8217565", "fusion_lat": 0.0, "is_reserved": 0}, {"name": "df464e7f29bf99ed2cb2e42a6bfa84f0", "lon": -77.0435205, "lat": 38.903057, "type": "electric_scooter", "is_disabled": 0, "rental_uris": {"android": "https://dc.lft.to/lastmile_qr_scan", "ios": "https://dc.lft.to/lastmile_qr_scan"}, "fusion_lon": 0.0, "bike_id": "df464e7f29bf99ed2cb2e42a6bfa84f0", "fusion_lat": 0.0, "is_reserved": 0}, {"name": "ee16222587cf3e28f94968e808154b98", "lon": -77.02165183333334, "lat": 38.89488133333333, "type": "electric_scooter", "is_disabled": 0, "rental_uris": {"android": "https://dc.lft.to/lastmile_qr_scan", "ios": "https://dc.lft.to/lastmile_qr_scan"}, "fusion_lon": 0.0, "bike_id": "ee16222587cf3e28f94968e808154b98", "fusion_lat": 0.0, "is_reserved": 0}, {"name": "9ebfef27a5046ab0028c75927387abb2", "lon": -77.03486616666666, "lat": 38.90366983333333, "type": "electric_scooter", "is_disabled": 0, "rental_uris": {"android": "https://dc.lft.to/lastmile_qr_scan", "ios": "https://dc.lft.to/lastmile_qr_scan"}, "fusion_lon": 0.0, "bike_id": "9ebfef27a5046ab0028c75927387abb2", "fusion_lat": 0.0, "is_reserved": 0}, {"name": "618d5eef5e794c9c05c8873e738ee0d1", "lon": -77.0451915, "lat": 38.89606783333333, "type": "electric_scooter", "is_disabled": 0, "rental_uris": {"android": "https://dc.lft.to/lastmile_qr_scan", "ios": "https://dc.lft.to/lastmile_qr_scan"}, "fusion_lon": 0.0, "bike_id": "618d5eef5e794c9c05c8873e738ee0d1", "fusion_lat": 0.0, "is_reserved": 0}, {"name": "f3a91d7c939d3f66f4fba517dfa2799a", "lon": -77.04246816666667, "lat": 38.922208499999996, "type": "electric_scooter", "is_disabled": 0, "rental_uris": {"android": "https://dc.lft.to/lastmile_qr_scan", "ios": "https://dc.lft.to/lastmile_qr_scan"}, "fusion_lon": 0.0, "bike_id": "f3a91d7c939d3f66f4fba517dfa2799a", "fusion_lat": 0.0, "is_reserved": 0}, {"name": "e17160877ad41b3279d84dd575ed7187", "lon": -77.0502355, "lat": 38.92366583333333, "type": "electric_scooter", "is_disabled": 0, "rental_uris": {"android": "https://dc.lft.to/lastmile_qr_scan", "ios": "https://dc.lft.to/lastmile_qr_scan"}, "fusion_lon": 0.0, "bike_id": "e17160877ad41b3279d84dd575ed7187", "fusion_lat": 0.0, "is_reserved": 0}, {"name": "ece55c21e71c3bf36db19db3b6275d44", "lon": -77.02294983333333, "lat": 38.897044, "type": "electric_scooter", "is_disabled": 0, "rental_uris": {"android": "https://dc.lft.to/lastmile_qr_scan", "ios": "https://dc.lft.to/lastmile_qr_scan"}, "fusion_lon": 0.0, "bike_id": "ece55c21e71c3bf36db19db3b6275d44", "fusion_lat": 0.0, "is_reserved": 0}, {"name": "28e435336d0c235291de441739b01c4a", "lon": -77.02263833333333, "lat": 38.9247185, "type": "electric_scooter", "is_disabled": 0, "rental_uris": {"android": "https://dc.lft.to/lastmile_qr_scan", "ios": "https://dc.lft.to/lastmile_qr_scan"}, "fusion_lon": 0.0, "bike_id": "28e435336d0c235291de441739b01c4a", "fusion_lat": 0.0, "is_reserved": 0}, {"name": "3a9b0dc82ba3a795544c66430e99108d", "lon": -76.97853966666666, "lat": 38.844674, "type": "electric_bike", "is_disabled": 0, "rental_uris": {"android": "https://dc.lft.to/lastmile_qr_scan", "ios": "https://dc.lft.to/lastmile_qr_scan"}, "fusion_lon": 0.0, "bike_id": "3a9b0dc82ba3a795544c66430e99108d", "fusion_lat": 0.0, "is_reserved": 0}, {"name": "b85d2df60dc1d61e135558abc97b9d69", "lon": -77.04466283333333, "lat": 38.902528, "type": "electric_scooter", "is_disabled": 0, "rental_uris": {"android": "https://dc.lft.to/lastmile_qr_scan", "ios": "https://dc.lft.to/lastmile_qr_scan"}, "fusion_lon": 0.0, "bike_id": "b85d2df60dc1d61e135558abc97b9d69", "fusion_lat": 0.0, "is_reserved": 0}, {"name": "a2a239f4a09975ad7efefd8abcdc26e6", "lon": -77.01946933333333, "lat": 38.922575, "type": "electric_scooter", "is_disabled": 0, "rental_uris": {"android": "https://dc.lft.to/lastmile_qr_scan", "ios": "https://dc.lft.to/lastmile_qr_scan"}, "fusion_lon": 0.0, "bike_id": "a2a239f4a09975ad7efefd8abcdc26e6", "fusion_lat": 0.0, "is_reserved": 0}, {"name": "a7b5a28a35ba63fa8affa00ef103f2f6", "lon": -77.00612416666667, "lat": 38.9056785, "type": "electric_scooter", "is_disabled": 0, "rental_uris": {"android": "https://dc.lft.to/lastmile_qr_scan", "ios": "https://dc.lft.to/lastmile_qr_scan"}, "fusion_lon": 0.0, "bike_id": "a7b5a28a35ba63fa8affa00ef103f2f6", "fusion_lat": 0.0, "is_reserved": 0}, {"name": "a9d63cf7ff7b528e0d69ae80a3113355", "lon": -77.0323785, "lat": 38.90548, "type": "electric_scooter", "is_disabled": 0, "rental_uris": {"android": "https://dc.lft.to/lastmile_qr_scan", "ios": "https://dc.lft.to/lastmile_qr_scan"}, "fusion_lon": 0.0, "bike_id": "a9d63cf7ff7b528e0d69ae80a3113355", "fusion_lat": 0.0, "is_reserved": 0}, {"name": "ec02b937ff77d0f4e1c967f22f2fc498", "lon": -77.02974783333333, "lat": 38.948178166666665, "type": "electric_bike", "is_disabled": 0, "rental_uris": {"android": "https://dc.lft.to/lastmile_qr_scan", "ios": "https://dc.lft.to/lastmile_qr_scan"}, "fusion_lon": 0.0, "bike_id": "ec02b937ff77d0f4e1c967f22f2fc498", "fusion_lat": 0.0, "is_reserved": 0}, {"name": "045326746f185df55bb3476c0f734855", "lon": -77.0315475, "lat": 38.89539666666667, "type": "electric_scooter", "is_disabled": 0, "rental_uris": {"android": "https://dc.lft.to/lastmile_qr_scan", "ios": "https://dc.lft.to/lastmile_qr_scan"}, "fusion_lon": 0.0, "bike_id": "045326746f185df55bb3476c0f734855", "fusion_lat": 0.0, "is_reserved": 0}, {"name": "0073234a205d99c3d545d422dfc53d41", "lon": -76.96667466666666, "lat": 38.85586983333334, "type": "electric_scooter", "is_disabled": 0, "rental_uris": {"android": "https://dc.lft.to/lastmile_qr_scan", "ios": "https://dc.lft.to/lastmile_qr_scan"}, "fusion_lon": 0.0, "bike_id": "0073234a205d99c3d545d422dfc53d41", "fusion_lat": 0.0, "is_reserved": 0}, {"name": "bdda52428cff7eeb821151d37cef8c07", "lon": -77.031741, "lat": 38.915537, "type": "electric_scooter", "is_disabled": 0, "rental_uris": {"android": "https://dc.lft.to/lastmile_qr_scan", "ios": "https://dc.lft.to/lastmile_qr_scan"}, "fusion_lon": 0.0, "bike_id": "bdda52428cff7eeb821151d37cef8c07", "fusion_lat": 0.0, "is_reserved": 0}, {"name": "06ef01b31ab3e81d33fabf9af63c89c5", "lon": -77.04024466666667, "lat": 38.90581233333333, "type": "electric_scooter", "is_disabled": 0, "rental_uris": {"android": "https://dc.lft.to/lastmile_qr_scan", "ios": "https://dc.lft.to/lastmile_qr_scan"}, "fusion_lon": 0.0, "bike_id": "06ef01b31ab3e81d33fabf9af63c89c5", "fusion_lat": 0.0, "is_reserved": 0}, {"name": "45883c5dec5dc7ffb2da3a36d17b1751", "lon": -77.01996816666667, "lat": 38.9135915, "type": "electric_scooter", "is_disabled": 0, "rental_uris": {"android": "https://dc.lft.to/lastmile_qr_scan", "ios": "https://dc.lft.to/lastmile_qr_scan"}, "fusion_lon": 0.0, "bike_id": "45883c5dec5dc7ffb2da3a36d17b1751", "fusion_lat": 0.0, "is_reserved": 0}, {"name": "9eb57c977ea9fb88f544a3d908a3285b", "lon": -76.946538, "lat": 38.898240333333334, "type": "electric_scooter", "is_disabled": 0, "rental_uris": {"android": "https://dc.lft.to/lastmile_qr_scan", "ios": "https://dc.lft.to/lastmile_qr_scan"}, "fusion_lon": 0.0, "bike_id": "9eb57c977ea9fb88f544a3d908a3285b", "fusion_lat": 0.0, "is_reserved": 0}, {"name": "31d6cee3e8e32885c4a883a471f7da67", "lon": -77.021611, "lat": 38.92453316666667, "type": "electric_scooter", "is_disabled": 0, "rental_uris": {"android": "https://dc.lft.to/lastmile_qr_scan", "ios": "https://dc.lft.to/lastmile_qr_scan"}, "fusion_lon": 0.0, "bike_id": "31d6cee3e8e32885c4a883a471f7da67", "fusion_lat": 0.0, "is_reserved": 0}, {"name": "36035e3428dd1d7a510832f5fe520166", "lon": -77.03277266666667, "lat": 38.928074333333335, "type": "electric_scooter", "is_disabled": 0, "rental_uris": {"android": "https://dc.lft.to/lastmile_qr_scan", "ios": "https://dc.lft.to/lastmile_qr_scan"}, "fusion_lon": 0.0, "bike_id": "36035e3428dd1d7a510832f5fe520166", "fusion_lat": 0.0, "is_reserved": 0}, {"name": "3c163f35d7494981756141800f9fa053", "lon": -77.00870566666667, "lat": 38.964635666666666, "type": "electric_bike", "is_disabled": 0, "rental_uris": {"android": "https://dc.lft.to/lastmile_qr_scan", "ios": "https://dc.lft.to/lastmile_qr_scan"}, "fusion_lon": 0.0, "bike_id": "3c163f35d7494981756141800f9fa053", "fusion_lat": 0.0, "is_reserved": 0}, {"name": "247cfd6e19866c2404cd3fe21ee91eee", "lon": -77.03548166666667, "lat": 38.924693833333336, "type": "electric_scooter", "is_disabled": 0, "rental_uris": {"android": "https://dc.lft.to/lastmile_qr_scan", "ios": "https://dc.lft.to/lastmile_qr_scan"}, "fusion_lon": 0.0, "bike_id": "247cfd6e19866c2404cd3fe21ee91eee", "fusion_lat": 0.0, "is_reserved": 0}, {"name": "9cd87c0b16271355488505628c2d17b3", "lon": -76.95755266666667, "lat": 38.884252000000004, "type": "electric_scooter", "is_disabled": 0, "rental_uris": {"android": "https://dc.lft.to/lastmile_qr_scan", "ios": "https://dc.lft.to/lastmile_qr_scan"}, "fusion_lon": 0.0, "bike_id": "9cd87c0b16271355488505628c2d17b3", "fusion_lat": 0.0, "is_reserved": 0}, {"name": "04ed3520ee7c6955f5761f70e7990328", "lon": -77.02201366666667, "lat": 38.924675666666666, "type": "electric_scooter", "is_disabled": 0, "rental_uris": {"android": "https://dc.lft.to/lastmile_qr_scan", "ios": "https://dc.lft.to/lastmile_qr_scan"}, "fusion_lon": 0.0, "bike_id": "04ed3520ee7c6955f5761f70e7990328", "fusion_lat": 0.0, "is_reserved": 0}, {"name": "13dd9523b782b84d66bd1f6d1139e3b5", "lon": -77.03193233333333, "lat": 38.90035266666667, "type": "electric_scooter", "is_disabled": 0, "rental_uris": {"android": "https://dc.lft.to/lastmile_qr_scan", "ios": "https://dc.lft.to/lastmile_qr_scan"}, "fusion_lon": 0.0, "bike_id": "13dd9523b782b84d66bd1f6d1139e3b5", "fusion_lat": 0.0, "is_reserved": 0}, {"name": "10925407c65b182ba0a0150803b8006d", "lon": -77.00577, "lat": 38.929402833333334, "type": "electric_scooter", "is_disabled": 0, "rental_uris": {"android": "https://dc.lft.to/lastmile_qr_scan", "ios": "https://dc.lft.to/lastmile_qr_scan"}, "fusion_lon": 0.0, "bike_id": "10925407c65b182ba0a0150803b8006d", "fusion_lat": 0.0, "is_reserved": 0}, {"name": "0577850576f42b81f3ec9d87563abe89", "lon": -77.0244905, "lat": 38.9309805, "type": "electric_scooter", "is_disabled": 0, "rental_uris": {"android": "https://dc.lft.to/lastmile_qr_scan", "ios": "https://dc.lft.to/lastmile_qr_scan"}, "fusion_lon": 0.0, "bike_id": "0577850576f42b81f3ec9d87563abe89", "fusion_lat": 0.0, "is_reserved": 0}, {"name": "6dac59fbb310ee202865cae5eb8173b8", "lon": -77.03853616666666, "lat": 38.91604183333333, "type": "electric_scooter", "is_disabled": 0, "rental_uris": {"android": "https://dc.lft.to/lastmile_qr_scan", "ios": "https://dc.lft.to/lastmile_qr_scan"}, "fusion_lon": 0.0, "bike_id": "6dac59fbb310ee202865cae5eb8173b8", "fusion_lat": 0.0, "is_reserved": 0}, {"name": "7708b6104b963fde88a0ae8366c9b2ae", "lon": -77.02548283333333, "lat": 38.92390866666667, "type": "electric_scooter", "is_disabled": 0, "rental_uris": {"android": "https://dc.lft.to/lastmile_qr_scan", "ios": "https://dc.lft.to/lastmile_qr_scan"}, "fusion_lon": 0.0, "bike_id": "7708b6104b963fde88a0ae8366c9b2ae", "fusion_lat": 0.0, "is_reserved": 0}, {"name": "cf33b9f0a934c6e4b5c08c39b8d7dc72", "lon": -77.03347033333333, "lat": 38.935823, "type": "electric_scooter", "is_disabled": 0, "rental_uris": {"android": "https://dc.lft.to/lastmile_qr_scan", "ios": "https://dc.lft.to/lastmile_qr_scan"}, "fusion_lon": 0.0, "bike_id": "cf33b9f0a934c6e4b5c08c39b8d7dc72", "fusion_lat": 0.0, "is_reserved": 0}, {"name": "ece4f4fea7ed18c872fd6b74b28efd5a", "lon": -77.03872933333334, "lat": 38.9030985, "type": "electric_scooter", "is_disabled": 0, "rental_uris": {"android": "https://dc.lft.to/lastmile_qr_scan", "ios": "https://dc.lft.to/lastmile_qr_scan"}, "fusion_lon": 0.0, "bike_id": "ece4f4fea7ed18c872fd6b74b28efd5a", "fusion_lat": 0.0, "is_reserved": 0}, {"name": "454fcfc40444f2c88db14f3c18317a1a", "lon": -77.05524166666666, "lat": 38.89726266666667, "type": "electric_scooter", "is_disabled": 0, "rental_uris": {"android": "https://dc.lft.to/lastmile_qr_scan", "ios": "https://dc.lft.to/lastmile_qr_scan"}, "fusion_lon": 0.0, "bike_id": "454fcfc40444f2c88db14f3c18317a1a", "fusion_lat": 0.0, "is_reserved": 0}, {"name": "adb6051262a67a2c09d46ac7c642aae4", "lon": -77.03074816666667, "lat": 38.89448616666667, "type": "electric_scooter", "is_disabled": 0, "rental_uris": {"android": "https://dc.lft.to/lastmile_qr_scan", "ios": "https://dc.lft.to/lastmile_qr_scan"}, "fusion_lon": 0.0, "bike_id": "adb6051262a67a2c09d46ac7c642aae4", "fusion_lat": 0.0, "is_reserved": 0}, {"name": "eb5edea5ae1ba33f13a37b398b6cc7c7", "lon": -76.99621233333333, "lat": 38.95070233333333, "type": "electric_scooter", "is_disabled": 0, "rental_uris": {"android": "https://dc.lft.to/lastmile_qr_scan", "ios": "https://dc.lft.to/lastmile_qr_scan"}, "fusion_lon": 0.0, "bike_id": "eb5edea5ae1ba33f13a37b398b6cc7c7", "fusion_lat": 0.0, "is_reserved": 0}, {"name": "b056920bcd1d2facaa61aad2103fa088", "lon": -77.03381183333333, "lat": 38.9253545, "type": "electric_scooter", "is_disabled": 0, "rental_uris": {"android": "https://dc.lft.to/lastmile_qr_scan", "ios": "https://dc.lft.to/lastmile_qr_scan"}, "fusion_lon": 0.0, "bike_id": "b056920bcd1d2facaa61aad2103fa088", "fusion_lat": 0.0, "is_reserved": 0}, {"name": "1b3d4955479a432d76888c4e9b114da3", "lon": -77.04309166666667, "lat": 38.92329266666667, "type": "electric_scooter", "is_disabled": 0, "rental_uris": {"android": "https://dc.lft.to/lastmile_qr_scan", "ios": "https://dc.lft.to/lastmile_qr_scan"}, "fusion_lon": 0.0, "bike_id": "1b3d4955479a432d76888c4e9b114da3", "fusion_lat": 0.0, "is_reserved": 0}, {"name": "dcc22a17a650ae685213b5a0f6a32dbf", "lon": -77.041187, "lat": 38.906114333333335, "type": "electric_scooter", "is_disabled": 0, "rental_uris": {"android": "https://dc.lft.to/lastmile_qr_scan", "ios": "https://dc.lft.to/lastmile_qr_scan"}, "fusion_lon": 0.0, "bike_id": "dcc22a17a650ae685213b5a0f6a32dbf", "fusion_lat": 0.0, "is_reserved": 0}, {"name": "3a018ff6dae12855f1880d92358b7bca", "lon": -77.00756316666667, "lat": 38.871170666666664, "type": "electric_scooter", "is_disabled": 0, "rental_uris": {"android": "https://dc.lft.to/lastmile_qr_scan", "ios": "https://dc.lft.to/lastmile_qr_scan"}, "fusion_lon": 0.0, "bike_id": "3a018ff6dae12855f1880d92358b7bca", "fusion_lat": 0.0, "is_reserved": 0}, {"name": "5902d94c60c84f61ef50a72ca558f16d", "lon": -77.040854, "lat": 38.89591566666667, "type": "electric_scooter", "is_disabled": 0, "rental_uris": {"android": "https://dc.lft.to/lastmile_qr_scan", "ios": "https://dc.lft.to/lastmile_qr_scan"}, "fusion_lon": 0.0, "bike_id": "5902d94c60c84f61ef50a72ca558f16d", "fusion_lat": 0.0, "is_reserved": 0}, {"name": "b9d548646ca9309620f296f70c913ce9", "lon": -77.03239366666666, "lat": 38.92722416666667, "type": "electric_scooter", "is_disabled": 0, "rental_uris": {"android": "https://dc.lft.to/lastmile_qr_scan", "ios": "https://dc.lft.to/lastmile_qr_scan"}, "fusion_lon": 0.0, "bike_id": "b9d548646ca9309620f296f70c913ce9", "fusion_lat": 0.0, "is_reserved": 0}, {"name": "3a9fdf8d3ab85d03b501c0010e426a9b", "lon": -77.05336166666666, "lat": 39.040780166666664, "type": "electric_bike", "is_disabled": 0, "rental_uris": {"android": "https://dc.lft.to/lastmile_qr_scan", "ios": "https://dc.lft.to/lastmile_qr_scan"}, "fusion_lon": 0.0, "bike_id": "3a9fdf8d3ab85d03b501c0010e426a9b", "fusion_lat": 0.0, "is_reserved": 0}, {"name": "cd874e27a218666c8c7a53621f803af9", "lon": -76.99273, "lat": 38.972532333333334, "type": "electric_bike", "is_disabled": 0, "rental_uris": {"android": "https://dc.lft.to/lastmile_qr_scan", "ios": "https://dc.lft.to/lastmile_qr_scan"}, "fusion_lon": 0.0, "bike_id": "cd874e27a218666c8c7a53621f803af9", "fusion_lat": 0.0, "is_reserved": 0}, {"name": "d15c62f1d18c7402814716a451e7077b", "lon": -77.04565566666666, "lat": 38.90863866666667, "type": "electric_scooter", "is_disabled": 0, "rental_uris": {"android": "https://dc.lft.to/lastmile_qr_scan", "ios": "https://dc.lft.to/lastmile_qr_scan"}, "fusion_lon": 0.0, "bike_id": "d15c62f1d18c7402814716a451e7077b", "fusion_lat": 0.0, "is_reserved": 0}, {"name": "4d3458efe5097607ae7a710725809b3e", "lon": -77.08635333333334, "lat": 38.88074116666667, "type": "electric_bike", "is_disabled": 0, "rental_uris": {"android": "https://dc.lft.to/lastmile_qr_scan", "ios": "https://dc.lft.to/lastmile_qr_scan"}, "fusion_lon": 0.0, "bike_id": "4d3458efe5097607ae7a710725809b3e", "fusion_lat": 0.0, "is_reserved": 0}, {"name": "29b1e9aac3e366f912763fe6a622737c", "lon": -77.04145, "lat": 38.900037, "type": "electric_scooter", "is_disabled": 0, "rental_uris": {"android": "https://dc.lft.to/lastmile_qr_scan", "ios": "https://dc.lft.to/lastmile_qr_scan"}, "fusion_lon": 0.0, "bike_id": "29b1e9aac3e366f912763fe6a622737c", "fusion_lat": 0.0, "is_reserved": 0}, {"name": "72b7c027644feaf82d1affb17073ae90", "lon": -77.02692683333333, "lat": 38.90679933333333, "type": "electric_scooter", "is_disabled": 0, "rental_uris": {"android": "https://dc.lft.to/lastmile_qr_scan", "ios": "https://dc.lft.to/lastmile_qr_scan"}, "fusion_lon": 0.0, "bike_id": "72b7c027644feaf82d1affb17073ae90", "fusion_lat": 0.0, "is_reserved": 0}, {"name": "b4ae796edb1870a6e0315bf148cc7f00", "lon": -77.02840283333333, "lat": 38.917071, "type": "electric_scooter", "is_disabled": 0, "rental_uris": {"android": "https://dc.lft.to/lastmile_qr_scan", "ios": "https://dc.lft.to/lastmile_qr_scan"}, "fusion_lon": 0.0, "bike_id": "b4ae796edb1870a6e0315bf148cc7f00", "fusion_lat": 0.0, "is_reserved": 0}, {"name": "ae1c94b0b5b418538dd073def1be3650", "lon": -77.0433065, "lat": 38.89225483333333, "type": "electric_scooter", "is_disabled": 0, "rental_uris": {"android": "https://dc.lft.to/lastmile_qr_scan", "ios": "https://dc.lft.to/lastmile_qr_scan"}, "fusion_lon": 0.0, "bike_id": "ae1c94b0b5b418538dd073def1be3650", "fusion_lat": 0.0, "is_reserved": 0}, {"name": "1c7e035ca9a57d01be13f420a9acf462", "lon": -77.0282825, "lat": 38.88647816666667, "type": "electric_bike", "is_disabled": 0, "rental_uris": {"android": "https://dc.lft.to/lastmile_qr_scan", "ios": "https://dc.lft.to/lastmile_qr_scan"}, "fusion_lon": 0.0, "bike_id": "1c7e035ca9a57d01be13f420a9acf462", "fusion_lat": 0.0, "is_reserved": 0}, {"name": "8a0f6d58e170db98ff3d9e8cf34d1bf6", "lon": -76.93071466666666, "lat": 38.901629, "type": "electric_scooter", "is_disabled": 0, "rental_uris": {"android": "https://dc.lft.to/lastmile_qr_scan", "ios": "https://dc.lft.to/lastmile_qr_scan"}, "fusion_lon": 0.0, "bike_id": "8a0f6d58e170db98ff3d9e8cf34d1bf6", "fusion_lat": 0.0, "is_reserved": 0}, {"name": "69ae3c3aa498d982c28e236c0e2e6d2b", "lon": -76.9236935, "lat": 38.88915766666667, "type": "electric_bike", "is_disabled": 0, "rental_uris": {"android": "https://dc.lft.to/lastmile_qr_scan", "ios": "https://dc.lft.to/lastmile_qr_scan"}, "fusion_lon": 0.0, "bike_id": "69ae3c3aa498d982c28e236c0e2e6d2b", "fusion_lat": 0.0, "is_reserved": 0}, {"name": "2b56a41ab32283b500794232eb7f931f", "lon": -77.01189983333333, "lat": 38.90032716666666, "type": "electric_scooter", "is_disabled": 0, "rental_uris": {"android": "https://dc.lft.to/lastmile_qr_scan", "ios": "https://dc.lft.to/lastmile_qr_scan"}, "fusion_lon": 0.0, "bike_id": "2b56a41ab32283b500794232eb7f931f", "fusion_lat": 0.0, "is_reserved": 0}, {"name": "80decc106b347aeffdfb40cb6d87166f", "lon": -77.04327033333334, "lat": 38.905689833333334, "type": "electric_scooter", "is_disabled": 0, "rental_uris": {"android": "https://dc.lft.to/lastmile_qr_scan", "ios": "https://dc.lft.to/lastmile_qr_scan"}, "fusion_lon": 0.0, "bike_id": "80decc106b347aeffdfb40cb6d87166f", "fusion_lat": 0.0, "is_reserved": 0}, {"name": "4b81e04ba9bcde8d68f102795a7f625f", "lon": -77.04343966666667, "lat": 38.901195333333334, "type": "electric_scooter", "is_disabled": 0, "rental_uris": {"android": "https://dc.lft.to/lastmile_qr_scan", "ios": "https://dc.lft.to/lastmile_qr_scan"}, "fusion_lon": 0.0, "bike_id": "4b81e04ba9bcde8d68f102795a7f625f", "fusion_lat": 0.0, "is_reserved": 0}, {"name": "8fa5d240314579b8bcb57fee58d29407", "lon": -77.036292, "lat": 38.92859966666666, "type": "electric_scooter", "is_disabled": 0, "rental_uris": {"android": "https://dc.lft.to/lastmile_qr_scan", "ios": "https://dc.lft.to/lastmile_qr_scan"}, "fusion_lon": 0.0, "bike_id": "8fa5d240314579b8bcb57fee58d29407", "fusion_lat": 0.0, "is_reserved": 0}, {"name": "8587ddc5fbae753432cca75630a2f5c1", "lon": -77.01671166666667, "lat": 38.9204695, "type": "electric_scooter", "is_disabled": 0, "rental_uris": {"android": "https://dc.lft.to/lastmile_qr_scan", "ios": "https://dc.lft.to/lastmile_qr_scan"}, "fusion_lon": 0.0, "bike_id": "8587ddc5fbae753432cca75630a2f5c1", "fusion_lat": 0.0, "is_reserved": 0}, {"name": "904acb3b2860da2418e4ca4414d46a5b", "lon": -77.02823066666667, "lat": 38.8834525, "type": "electric_scooter", "is_disabled": 0, "rental_uris": {"android": "https://dc.lft.to/lastmile_qr_scan", "ios": "https://dc.lft.to/lastmile_qr_scan"}, "fusion_lon": 0.0, "bike_id": "904acb3b2860da2418e4ca4414d46a5b", "fusion_lat": 0.0, "is_reserved": 0}, {"name": "75ba42c3fa0ce3a454d8db8509e1c426", "lon": -77.079044, "lat": 38.848304666666664, "type": "electric_bike", "is_disabled": 0, "rental_uris": {"android": "https://dc.lft.to/lastmile_qr_scan", "ios": "https://dc.lft.to/lastmile_qr_scan"}, "fusion_lon": 0.0, "bike_id": "75ba42c3fa0ce3a454d8db8509e1c426", "fusion_lat": 0.0, "is_reserved": 0}, {"name": "9fe96710cf2a256591810b75be87689f", "lon": -77.0598555, "lat": 38.9022775, "type": "electric_scooter", "is_disabled": 0, "rental_uris": {"android": "https://dc.lft.to/lastmile_qr_scan", "ios": "https://dc.lft.to/lastmile_qr_scan"}, "fusion_lon": 0.0, "bike_id": "9fe96710cf2a256591810b75be87689f", "fusion_lat": 0.0, "is_reserved": 0}, {"name": "821a0edddd8b249121037749d430c7a5", "lon": -76.99028666666666, "lat": 38.90147566666667, "type": "electric_scooter", "is_disabled": 0, "rental_uris": {"android": "https://dc.lft.to/lastmile_qr_scan", "ios": "https://dc.lft.to/lastmile_qr_scan"}, "fusion_lon": 0.0, "bike_id": "821a0edddd8b249121037749d430c7a5", "fusion_lat": 0.0, "is_reserved": 0}, {"name": "e0208d23d7f215c0b3ef856b5d39f316", "lon": -76.9887965, "lat": 38.86658166666667, "type": "electric_scooter", "is_disabled": 0, "rental_uris": {"android": "https://dc.lft.to/lastmile_qr_scan", "ios": "https://dc.lft.to/lastmile_qr_scan"}, "fusion_lon": 0.0, "bike_id": "e0208d23d7f215c0b3ef856b5d39f316", "fusion_lat": 0.0, "is_reserved": 0}, {"name": "d97676291b33a05d80b81e650a9bd0dc", "lon": -77.22888683333333, "lat": 38.909567, "type": "electric_bike", "is_disabled": 0, "rental_uris": {"android": "https://dc.lft.to/lastmile_qr_scan", "ios": "https://dc.lft.to/lastmile_qr_scan"}, "fusion_lon": 0.0, "bike_id": "d97676291b33a05d80b81e650a9bd0dc", "fusion_lat": 0.0, "is_reserved": 0}, {"name": "be95de4d952182de72bff2439d52721a", "lon": -77.00331366666667, "lat": 38.893537333333335, "type": "electric_scooter", "is_disabled": 0, "rental_uris": {"android": "https://dc.lft.to/lastmile_qr_scan", "ios": "https://dc.lft.to/lastmile_qr_scan"}, "fusion_lon": 0.0, "bike_id": "be95de4d952182de72bff2439d52721a", "fusion_lat": 0.0, "is_reserved": 0}, {"name": "3e5c3b0fa97baeeb01b474559ff765c6", "lon": -77.044013, "lat": 38.93421133333333, "type": "electric_scooter", "is_disabled": 0, "rental_uris": {"android": "https://dc.lft.to/lastmile_qr_scan", "ios": "https://dc.lft.to/lastmile_qr_scan"}, "fusion_lon": 0.0, "bike_id": "3e5c3b0fa97baeeb01b474559ff765c6", "fusion_lat": 0.0, "is_reserved": 0}, {"name": "da46bf8264598406f3b77a5b0a5014c3", "lon": -77.03334683333334, "lat": 38.8983335, "type": "electric_scooter", "is_disabled": 0, "rental_uris": {"android": "https://dc.lft.to/lastmile_qr_scan", "ios": "https://dc.lft.to/lastmile_qr_scan"}, "fusion_lon": 0.0, "bike_id": "da46bf8264598406f3b77a5b0a5014c3", "fusion_lat": 0.0, "is_reserved": 0}, {"name": "d8f3dc75a66a3597ba884bc9cdd1ba44", "lon": -77.0020695, "lat": 38.90841833333333, "type": "electric_scooter", "is_disabled": 0, "rental_uris": {"android": "https://dc.lft.to/lastmile_qr_scan", "ios": "https://dc.lft.to/lastmile_qr_scan"}, "fusion_lon": 0.0, "bike_id": "d8f3dc75a66a3597ba884bc9cdd1ba44", "fusion_lat": 0.0, "is_reserved": 0}, {"name": "a10a8b6b54b42a1acc56003da17e0d3a", "lon": -77.03093966666667, "lat": 38.923739833333336, "type": "electric_scooter", "is_disabled": 0, "rental_uris": {"android": "https://dc.lft.to/lastmile_qr_scan", "ios": "https://dc.lft.to/lastmile_qr_scan"}, "fusion_lon": 0.0, "bike_id": "a10a8b6b54b42a1acc56003da17e0d3a", "fusion_lat": 0.0, "is_reserved": 0}, {"name": "7f2bf70160fbe677b0fb21d14bebaa38", "lon": -77.01764666666666, "lat": 38.876990166666666, "type": "electric_scooter", "is_disabled": 0, "rental_uris": {"android": "https://dc.lft.to/lastmile_qr_scan", "ios": "https://dc.lft.to/lastmile_qr_scan"}, "fusion_lon": 0.0, "bike_id": "7f2bf70160fbe677b0fb21d14bebaa38", "fusion_lat": 0.0, "is_reserved": 0}, {"name": "810296c656d9d900de7aa0deb5851c39", "lon": -77.00920016666667, "lat": 38.92109583333333, "type": "electric_scooter", "is_disabled": 0, "rental_uris": {"android": "https://dc.lft.to/lastmile_qr_scan", "ios": "https://dc.lft.to/lastmile_qr_scan"}, "fusion_lon": 0.0, "bike_id": "810296c656d9d900de7aa0deb5851c39", "fusion_lat": 0.0, "is_reserved": 0}, {"name": "b2ac04e4af08366c6b2ee10c23af4ba6", "lon": -77.04178533333334, "lat": 38.90584466666667, "type": "electric_scooter", "is_disabled": 0, "rental_uris": {"android": "https://dc.lft.to/lastmile_qr_scan", "ios": "https://dc.lft.to/lastmile_qr_scan"}, "fusion_lon": 0.0, "bike_id": "b2ac04e4af08366c6b2ee10c23af4ba6", "fusion_lat": 0.0, "is_reserved": 0}, {"name": "7910c984df9d23dce172b183b5380f52", "lon": -77.03169383333334, "lat": 38.895343833333335, "type": "electric_scooter", "is_disabled": 0, "rental_uris": {"android": "https://dc.lft.to/lastmile_qr_scan", "ios": "https://dc.lft.to/lastmile_qr_scan"}, "fusion_lon": 0.0, "bike_id": "7910c984df9d23dce172b183b5380f52", "fusion_lat": 0.0, "is_reserved": 0}, {"name": "0791218ec213b97e52f6e6dcd384da80", "lon": -77.0295015, "lat": 38.94299083333333, "type": "electric_scooter", "is_disabled": 0, "rental_uris": {"android": "https://dc.lft.to/lastmile_qr_scan", "ios": "https://dc.lft.to/lastmile_qr_scan"}, "fusion_lon": 0.0, "bike_id": "0791218ec213b97e52f6e6dcd384da80", "fusion_lat": 0.0, "is_reserved": 0}, {"name": "6a4f928df7d1ef4245471b6be2662d14", "lon": -77.02159833333333, "lat": 38.9017295, "type": "electric_scooter", "is_disabled": 0, "rental_uris": {"android": "https://dc.lft.to/lastmile_qr_scan", "ios": "https://dc.lft.to/lastmile_qr_scan"}, "fusion_lon": 0.0, "bike_id": "6a4f928df7d1ef4245471b6be2662d14", "fusion_lat": 0.0, "is_reserved": 0}, {"name": "2b0701d1677acddd0ea0c2505cc16048", "lon": -77.07014733333334, "lat": 38.95580133333333, "type": "electric_scooter", "is_disabled": 0, "rental_uris": {"android": "https://dc.lft.to/lastmile_qr_scan", "ios": "https://dc.lft.to/lastmile_qr_scan"}, "fusion_lon": 0.0, "bike_id": "2b0701d1677acddd0ea0c2505cc16048", "fusion_lat": 0.0, "is_reserved": 0}, {"name": "d60b80c207f5caa15f78b83569931b66", "lon": -77.0089735, "lat": 38.89864266666667, "type": "electric_scooter", "is_disabled": 0, "rental_uris": {"android": "https://dc.lft.to/lastmile_qr_scan", "ios": "https://dc.lft.to/lastmile_qr_scan"}, "fusion_lon": 0.0, "bike_id": "d60b80c207f5caa15f78b83569931b66", "fusion_lat": 0.0, "is_reserved": 0}, {"name": "3a93ea0ca802120228e9a715ed5d343e", "lon": -77.03558383333333, "lat": 38.901386, "type": "electric_scooter", "is_disabled": 0, "rental_uris": {"android": "https://dc.lft.to/lastmile_qr_scan", "ios": "https://dc.lft.to/lastmile_qr_scan"}, "fusion_lon": 0.0, "bike_id": "3a93ea0ca802120228e9a715ed5d343e", "fusion_lat": 0.0, "is_reserved": 0}, {"name": "73606d9b152308d7b430a9de375450b5", "lon": -77.0219335, "lat": 38.911385, "type": "electric_scooter", "is_disabled": 0, "rental_uris": {"android": "https://dc.lft.to/lastmile_qr_scan", "ios": "https://dc.lft.to/lastmile_qr_scan"}, "fusion_lon": 0.0, "bike_id": "73606d9b152308d7b430a9de375450b5", "fusion_lat": 0.0, "is_reserved": 0}, {"name": "c43c333cade4463c00de7c7703adfaa6", "lon": -77.02576833333333, "lat": 38.88727866666667, "type": "electric_scooter", "is_disabled": 0, "rental_uris": {"android": "https://dc.lft.to/lastmile_qr_scan", "ios": "https://dc.lft.to/lastmile_qr_scan"}, "fusion_lon": 0.0, "bike_id": "c43c333cade4463c00de7c7703adfaa6", "fusion_lat": 0.0, "is_reserved": 0}, {"name": "c054871dd426640bb268adde002f6404", "lon": -77.01759633333333, "lat": 38.883069, "type": "electric_scooter", "is_disabled": 0, "rental_uris": {"android": "https://dc.lft.to/lastmile_qr_scan", "ios": "https://dc.lft.to/lastmile_qr_scan"}, "fusion_lon": 0.0, "bike_id": "c054871dd426640bb268adde002f6404", "fusion_lat": 0.0, "is_reserved": 0}, {"name": "9bd64114dfd909baf4f805fd5200381e", "lon": -77.03277533333333, "lat": 38.940906, "type": "electric_scooter", "is_disabled": 0, "rental_uris": {"android": "https://dc.lft.to/lastmile_qr_scan", "ios": "https://dc.lft.to/lastmile_qr_scan"}, "fusion_lon": 0.0, "bike_id": "9bd64114dfd909baf4f805fd5200381e", "fusion_lat": 0.0, "is_reserved": 0}, {"name": "d7c3f8f96a3c768ffb5766e3decdec9a", "lon": -77.05171266666666, "lat": 38.89751866666667, "type": "electric_scooter", "is_disabled": 0, "rental_uris": {"android": "https://dc.lft.to/lastmile_qr_scan", "ios": "https://dc.lft.to/lastmile_qr_scan"}, "fusion_lon": 0.0, "bike_id": "d7c3f8f96a3c768ffb5766e3decdec9a", "fusion_lat": 0.0, "is_reserved": 0}, {"name": "ba0d707c05d5d3c6081d4abf2caf16f0", "lon": -76.97979433333333, "lat": 38.8974315, "type": "electric_scooter", "is_disabled": 0, "rental_uris": {"android": "https://dc.lft.to/lastmile_qr_scan", "ios": "https://dc.lft.to/lastmile_qr_scan"}, "fusion_lon": 0.0, "bike_id": "ba0d707c05d5d3c6081d4abf2caf16f0", "fusion_lat": 0.0, "is_reserved": 0}, {"name": "1103f8ec96ace33ecd72ceaaf2d11845", "lon": -76.98571366666667, "lat": 38.866803, "type": "electric_scooter", "is_disabled": 0, "rental_uris": {"android": "https://dc.lft.to/lastmile_qr_scan", "ios": "https://dc.lft.to/lastmile_qr_scan"}, "fusion_lon": 0.0, "bike_id": "1103f8ec96ace33ecd72ceaaf2d11845", "fusion_lat": 0.0, "is_reserved": 0}, {"name": "1f277559e080018af1b0482dfba351a0", "lon": -77.0206215, "lat": 38.90194416666667, "type": "electric_scooter", "is_disabled": 0, "rental_uris": {"android": "https://dc.lft.to/lastmile_qr_scan", "ios": "https://dc.lft.to/lastmile_qr_scan"}, "fusion_lon": 0.0, "bike_id": "1f277559e080018af1b0482dfba351a0", "fusion_lat": 0.0, "is_reserved": 0}, {"name": "e1ab171a5b281581cc07b874bb61761d", "lon": -77.051373, "lat": 38.92357166666667, "type": "electric_scooter", "is_disabled": 0, "rental_uris": {"android": "https://dc.lft.to/lastmile_qr_scan", "ios": "https://dc.lft.to/lastmile_qr_scan"}, "fusion_lon": 0.0, "bike_id": "e1ab171a5b281581cc07b874bb61761d", "fusion_lat": 0.0, "is_reserved": 0}, {"name": "7a73cf7a2a24853343fce0fe041aaa43", "lon": -77.04234383333333, "lat": 38.91058133333333, "type": "electric_scooter", "is_disabled": 0, "rental_uris": {"android": "https://dc.lft.to/lastmile_qr_scan", "ios": "https://dc.lft.to/lastmile_qr_scan"}, "fusion_lon": 0.0, "bike_id": "7a73cf7a2a24853343fce0fe041aaa43", "fusion_lat": 0.0, "is_reserved": 0}, {"name": "044da9e4b960a6ee186679a1bd40d998", "lon": -77.00916016666666, "lat": 38.89640633333333, "type": "electric_scooter", "is_disabled": 0, "rental_uris": {"android": "https://dc.lft.to/lastmile_qr_scan", "ios": "https://dc.lft.to/lastmile_qr_scan"}, "fusion_lon": 0.0, "bike_id": "044da9e4b960a6ee186679a1bd40d998", "fusion_lat": 0.0, "is_reserved": 0}, {"name": "54987bf7150cee98bdab4250472bc805", "lon": -77.04517666666666, "lat": 38.8921835, "type": "electric_scooter", "is_disabled": 0, "rental_uris": {"android": "https://dc.lft.to/lastmile_qr_scan", "ios": "https://dc.lft.to/lastmile_qr_scan"}, "fusion_lon": 0.0, "bike_id": "54987bf7150cee98bdab4250472bc805", "fusion_lat": 0.0, "is_reserved": 0}, {"name": "d5df85574d9b2ac77c1d732e5317308c", "lon": -77.03689283333334, "lat": 38.9167685, "type": "electric_scooter", "is_disabled": 0, "rental_uris": {"android": "https://dc.lft.to/lastmile_qr_scan", "ios": "https://dc.lft.to/lastmile_qr_scan"}, "fusion_lon": 0.0, "bike_id": "d5df85574d9b2ac77c1d732e5317308c", "fusion_lat": 0.0, "is_reserved": 0}, {"name": "c4d8eca14240d247d7343849d557b006", "lon": -77.00730983333334, "lat": 38.884895, "type": "electric_scooter", "is_disabled": 0, "rental_uris": {"android": "https://dc.lft.to/lastmile_qr_scan", "ios": "https://dc.lft.to/lastmile_qr_scan"}, "fusion_lon": 0.0, "bike_id": "c4d8eca14240d247d7343849d557b006", "fusion_lat": 0.0, "is_reserved": 0}, {"name": "d4daa665b434e95b901e3d9065d19ce1", "lon": -77.02960033333333, "lat": 38.907227166666665, "type": "electric_scooter", "is_disabled": 0, "rental_uris": {"android": "https://dc.lft.to/lastmile_qr_scan", "ios": "https://dc.lft.to/lastmile_qr_scan"}, "fusion_lon": 0.0, "bike_id": "d4daa665b434e95b901e3d9065d19ce1", "fusion_lat": 0.0, "is_reserved": 0}, {"name": "d3c57a5b21754fe0dc6075ddf639ed3a", "lon": -76.98653666666667, "lat": 38.858058666666665, "type": "electric_scooter", "is_disabled": 0, "rental_uris": {"android": "https://dc.lft.to/lastmile_qr_scan", "ios": "https://dc.lft.to/lastmile_qr_scan"}, "fusion_lon": 0.0, "bike_id": "d3c57a5b21754fe0dc6075ddf639ed3a", "fusion_lat": 0.0, "is_reserved": 0}, {"name": "228b81b5b2e9f12cd25c284353317e1b", "lon": -77.0320025, "lat": 38.917567, "type": "electric_scooter", "is_disabled": 0, "rental_uris": {"android": "https://dc.lft.to/lastmile_qr_scan", "ios": "https://dc.lft.to/lastmile_qr_scan"}, "fusion_lon": 0.0, "bike_id": "228b81b5b2e9f12cd25c284353317e1b", "fusion_lat": 0.0, "is_reserved": 0}, {"name": "b97da85775a6b740a644f7f9f8b97c1f", "lon": -77.002032, "lat": 38.902347666666664, "type": "electric_scooter", "is_disabled": 0, "rental_uris": {"android": "https://dc.lft.to/lastmile_qr_scan", "ios": "https://dc.lft.to/lastmile_qr_scan"}, "fusion_lon": 0.0, "bike_id": "b97da85775a6b740a644f7f9f8b97c1f", "fusion_lat": 0.0, "is_reserved": 0}, {"name": "a203d9dfd8da64b263d9f8ffa8d5af22", "lon": -77.042697, "lat": 38.90731533333334, "type": "electric_scooter", "is_disabled": 0, "rental_uris": {"android": "https://dc.lft.to/lastmile_qr_scan", "ios": "https://dc.lft.to/lastmile_qr_scan"}, "fusion_lon": 0.0, "bike_id": "a203d9dfd8da64b263d9f8ffa8d5af22", "fusion_lat": 0.0, "is_reserved": 0}, {"name": "fe4b5ad6f9a2b9a24a874531526b735a", "lon": -77.035591, "lat": 38.9083295, "type": "electric_scooter", "is_disabled": 0, "rental_uris": {"android": "https://dc.lft.to/lastmile_qr_scan", "ios": "https://dc.lft.to/lastmile_qr_scan"}, "fusion_lon": 0.0, "bike_id": "fe4b5ad6f9a2b9a24a874531526b735a", "fusion_lat": 0.0, "is_reserved": 0}, {"name": "80f3486a65cb8f247ffb3516046a5f07", "lon": -77.0350685, "lat": 38.9215285, "type": "electric_scooter", "is_disabled": 0, "rental_uris": {"android": "https://dc.lft.to/lastmile_qr_scan", "ios": "https://dc.lft.to/lastmile_qr_scan"}, "fusion_lon": 0.0, "bike_id": "80f3486a65cb8f247ffb3516046a5f07", "fusion_lat": 0.0, "is_reserved": 0}, {"name": "863618d8b32df941ede4e9002139ff89", "lon": -77.04142933333334, "lat": 38.899966, "type": "electric_scooter", "is_disabled": 0, "rental_uris": {"android": "https://dc.lft.to/lastmile_qr_scan", "ios": "https://dc.lft.to/lastmile_qr_scan"}, "fusion_lon": 0.0, "bike_id": "863618d8b32df941ede4e9002139ff89", "fusion_lat": 0.0, "is_reserved": 0}, {"name": "d7bfb870ef304cbaef4272b0c0365e57", "lon": -77.0211755, "lat": 38.922175333333335, "type": "electric_scooter", "is_disabled": 0, "rental_uris": {"android": "https://dc.lft.to/lastmile_qr_scan", "ios": "https://dc.lft.to/lastmile_qr_scan"}, "fusion_lon": 0.0, "bike_id": "d7bfb870ef304cbaef4272b0c0365e57", "fusion_lat": 0.0, "is_reserved": 0}, {"name": "6fd1b893d003a7f0b6b830f034eb6df0", "lon": -77.02228433333333, "lat": 38.88740266666667, "type": "electric_scooter", "is_disabled": 0, "rental_uris": {"android": "https://dc.lft.to/lastmile_qr_scan", "ios": "https://dc.lft.to/lastmile_qr_scan"}, "fusion_lon": 0.0, "bike_id": "6fd1b893d003a7f0b6b830f034eb6df0", "fusion_lat": 0.0, "is_reserved": 0}, {"name": "b406cd734fd4d842e6a65a250d17ec3a", "lon": -77.01763666666666, "lat": 38.87721116666667, "type": "electric_scooter", "is_disabled": 0, "rental_uris": {"android": "https://dc.lft.to/lastmile_qr_scan", "ios": "https://dc.lft.to/lastmile_qr_scan"}, "fusion_lon": 0.0, "bike_id": "b406cd734fd4d842e6a65a250d17ec3a", "fusion_lat": 0.0, "is_reserved": 0}, {"name": "c6ad8ea2279b8b8967adb30d56ae3e2e", "lon": -77.0237265, "lat": 38.907288333333334, "type": "electric_scooter", "is_disabled": 0, "rental_uris": {"android": "https://dc.lft.to/lastmile_qr_scan", "ios": "https://dc.lft.to/lastmile_qr_scan"}, "fusion_lon": 0.0, "bike_id": "c6ad8ea2279b8b8967adb30d56ae3e2e", "fusion_lat": 0.0, "is_reserved": 0}, {"name": "5fad2ec2bce812519f6c838a0b2ea5c5", "lon": -77.03945616666667, "lat": 38.9027165, "type": "electric_scooter", "is_disabled": 0, "rental_uris": {"android": "https://dc.lft.to/lastmile_qr_scan", "ios": "https://dc.lft.to/lastmile_qr_scan"}, "fusion_lon": 0.0, "bike_id": "5fad2ec2bce812519f6c838a0b2ea5c5", "fusion_lat": 0.0, "is_reserved": 0}, {"name": "dfd48ccc5a6e627133324f17d51fd1e9", "lon": -77.03943333333333, "lat": 38.902731333333335, "type": "electric_scooter", "is_disabled": 0, "rental_uris": {"android": "https://dc.lft.to/lastmile_qr_scan", "ios": "https://dc.lft.to/lastmile_qr_scan"}, "fusion_lon": 0.0, "bike_id": "dfd48ccc5a6e627133324f17d51fd1e9", "fusion_lat": 0.0, "is_reserved": 0}, {"name": "16208e05a0e3d3e4cf971ebfa55e8313", "lon": -77.04231866666667, "lat": 38.91108533333333, "type": "electric_scooter", "is_disabled": 0, "rental_uris": {"android": "https://dc.lft.to/lastmile_qr_scan", "ios": "https://dc.lft.to/lastmile_qr_scan"}, "fusion_lon": 0.0, "bike_id": "16208e05a0e3d3e4cf971ebfa55e8313", "fusion_lat": 0.0, "is_reserved": 0}, {"name": "cee76bdbf3e96ce61bf7cf0ce0b94a14", "lon": -77.038741, "lat": 38.9326435, "type": "electric_scooter", "is_disabled": 0, "rental_uris": {"android": "https://dc.lft.to/lastmile_qr_scan", "ios": "https://dc.lft.to/lastmile_qr_scan"}, "fusion_lon": 0.0, "bike_id": "cee76bdbf3e96ce61bf7cf0ce0b94a14", "fusion_lat": 0.0, "is_reserved": 0}, {"name": "c2baa7ee6c539404e9bb08206cc0de9a", "lon": -76.99561666666666, "lat": 38.9202685, "type": "electric_scooter", "is_disabled": 0, "rental_uris": {"android": "https://dc.lft.to/lastmile_qr_scan", "ios": "https://dc.lft.to/lastmile_qr_scan"}, "fusion_lon": 0.0, "bike_id": "c2baa7ee6c539404e9bb08206cc0de9a", "fusion_lat": 0.0, "is_reserved": 0}, {"name": "5d822915e6b23b4043786fc8150e14d4", "lon": -76.910646, "lat": 39.010745, "type": "electric_bike", "is_disabled": 0, "rental_uris": {"android": "https://dc.lft.to/lastmile_qr_scan", "ios": "https://dc.lft.to/lastmile_qr_scan"}, "fusion_lon": 0.0, "bike_id": "5d822915e6b23b4043786fc8150e14d4", "fusion_lat": 0.0, "is_reserved": 0}, {"name": "7b81bb25042470c35856131f912e2e97", "lon": -77.0640525, "lat": 38.944401, "type": "electric_scooter", "is_disabled": 0, "rental_uris": {"android": "https://dc.lft.to/lastmile_qr_scan", "ios": "https://dc.lft.to/lastmile_qr_scan"}, "fusion_lon": 0.0, "bike_id": "7b81bb25042470c35856131f912e2e97", "fusion_lat": 0.0, "is_reserved": 0}, {"name": "b6a2d84c88d545c88dabae12d7c53509", "lon": -77.0205115, "lat": 38.8947375, "type": "electric_scooter", "is_disabled": 0, "rental_uris": {"android": "https://dc.lft.to/lastmile_qr_scan", "ios": "https://dc.lft.to/lastmile_qr_scan"}, "fusion_lon": 0.0, "bike_id": "b6a2d84c88d545c88dabae12d7c53509", "fusion_lat": 0.0, "is_reserved": 0}, {"name": "a649e58eb037510919935bbdf192098d", "lon": -77.0208785, "lat": 38.921145833333334, "type": "electric_scooter", "is_disabled": 0, "rental_uris": {"android": "https://dc.lft.to/lastmile_qr_scan", "ios": "https://dc.lft.to/lastmile_qr_scan"}, "fusion_lon": 0.0, "bike_id": "a649e58eb037510919935bbdf192098d", "fusion_lat": 0.0, "is_reserved": 0}, {"name": "2ab86cc49598e6f32b694072ec3d19a9", "lon": -76.9396945, "lat": 38.89342333333333, "type": "electric_scooter", "is_disabled": 0, "rental_uris": {"android": "https://dc.lft.to/lastmile_qr_scan", "ios": "https://dc.lft.to/lastmile_qr_scan"}, "fusion_lon": 0.0, "bike_id": "2ab86cc49598e6f32b694072ec3d19a9", "fusion_lat": 0.0, "is_reserved": 0}, {"name": "1eb7b9155b2144172c66c9b101ac89de", "lon": -77.038301, "lat": 38.91109633333333, "type": "electric_scooter", "is_disabled": 0, "rental_uris": {"android": "https://dc.lft.to/lastmile_qr_scan", "ios": "https://dc.lft.to/lastmile_qr_scan"}, "fusion_lon": 0.0, "bike_id": "1eb7b9155b2144172c66c9b101ac89de", "fusion_lat": 0.0, "is_reserved": 0}, {"name": "9ef1535ac1aa6106387930204bb62f5d", "lon": -77.02208233333333, "lat": 38.901581166666666, "type": "electric_scooter", "is_disabled": 0, "rental_uris": {"android": "https://dc.lft.to/lastmile_qr_scan", "ios": "https://dc.lft.to/lastmile_qr_scan"}, "fusion_lon": 0.0, "bike_id": "9ef1535ac1aa6106387930204bb62f5d", "fusion_lat": 0.0, "is_reserved": 0}, {"name": "ea0a18a5a072455f21ae17266132876d", "lon": -77.02191633333334, "lat": 38.9103865, "type": "electric_scooter", "is_disabled": 0, "rental_uris": {"android": "https://dc.lft.to/lastmile_qr_scan", "ios": "https://dc.lft.to/lastmile_qr_scan"}, "fusion_lon": 0.0, "bike_id": "ea0a18a5a072455f21ae17266132876d", "fusion_lat": 0.0, "is_reserved": 0}, {"name": "868888e6876a43178307dd8cf8139ebe", "lon": -77.006847, "lat": 38.871694833333336, "type": "electric_scooter", "is_disabled": 0, "rental_uris": {"android": "https://dc.lft.to/lastmile_qr_scan", "ios": "https://dc.lft.to/lastmile_qr_scan"}, "fusion_lon": 0.0, "bike_id": "868888e6876a43178307dd8cf8139ebe", "fusion_lat": 0.0, "is_reserved": 0}, {"name": "6dfdba3a16f26e980264d07a776cd1e5", "lon": -77.00691266666666, "lat": 38.905878666666666, "type": "electric_scooter", "is_disabled": 0, "rental_uris": {"android": "https://dc.lft.to/lastmile_qr_scan", "ios": "https://dc.lft.to/lastmile_qr_scan"}, "fusion_lon": 0.0, "bike_id": "6dfdba3a16f26e980264d07a776cd1e5", "fusion_lat": 0.0, "is_reserved": 0}, {"name": "00cc6aff348f3d94d3677e0661c2aeaf", "lon": -77.04431833333334, "lat": 38.9097805, "type": "electric_scooter", "is_disabled": 0, "rental_uris": {"android": "https://dc.lft.to/lastmile_qr_scan", "ios": "https://dc.lft.to/lastmile_qr_scan"}, "fusion_lon": 0.0, "bike_id": "00cc6aff348f3d94d3677e0661c2aeaf", "fusion_lat": 0.0, "is_reserved": 0}, {"name": "f52aa9c07c66b2041572a958c22aed16", "lon": -77.03828166666666, "lat": 38.911095, "type": "electric_scooter", "is_disabled": 0, "rental_uris": {"android": "https://dc.lft.to/lastmile_qr_scan", "ios": "https://dc.lft.to/lastmile_qr_scan"}, "fusion_lon": 0.0, "bike_id": "f52aa9c07c66b2041572a958c22aed16", "fusion_lat": 0.0, "is_reserved": 0}, {"name": "70350c9549a5d5465920d0b4c41e0444", "lon": -77.0340155, "lat": 38.9226845, "type": "electric_scooter", "is_disabled": 0, "rental_uris": {"android": "https://dc.lft.to/lastmile_qr_scan", "ios": "https://dc.lft.to/lastmile_qr_scan"}, "fusion_lon": 0.0, "bike_id": "70350c9549a5d5465920d0b4c41e0444", "fusion_lat": 0.0, "is_reserved": 0}, {"name": "0a7baf2aa7bcbf442a07cd64f07d18af", "lon": -76.95664166666667, "lat": 38.8846645, "type": "electric_bike", "is_disabled": 0, "rental_uris": {"android": "https://dc.lft.to/lastmile_qr_scan", "ios": "https://dc.lft.to/lastmile_qr_scan"}, "fusion_lon": 0.0, "bike_id": "0a7baf2aa7bcbf442a07cd64f07d18af", "fusion_lat": 0.0, "is_reserved": 0}, {"name": "c9b2b5478999d5d99ccdfc9fd22c4311", "lon": -77.01548883333334, "lat": 38.886396500000004, "type": "electric_scooter", "is_disabled": 0, "rental_uris": {"android": "https://dc.lft.to/lastmile_qr_scan", "ios": "https://dc.lft.to/lastmile_qr_scan"}, "fusion_lon": 0.0, "bike_id": "c9b2b5478999d5d99ccdfc9fd22c4311", "fusion_lat": 0.0, "is_reserved": 0}, {"name": "fd5a5def2b754a69a338433456cd4ef3", "lon": -77.02871083333334, "lat": 38.957269333333336, "type": "electric_scooter", "is_disabled": 0, "rental_uris": {"android": "https://dc.lft.to/lastmile_qr_scan", "ios": "https://dc.lft.to/lastmile_qr_scan"}, "fusion_lon": 0.0, "bike_id": "fd5a5def2b754a69a338433456cd4ef3", "fusion_lat": 0.0, "is_reserved": 0}, {"name": "0cd64adfdb9fd7f413bcade671a23ff2", "lon": -77.00065833333333, "lat": 38.876821666666665, "type": "electric_scooter", "is_disabled": 0, "rental_uris": {"android": "https://dc.lft.to/lastmile_qr_scan", "ios": "https://dc.lft.to/lastmile_qr_scan"}, "fusion_lon": 0.0, "bike_id": "0cd64adfdb9fd7f413bcade671a23ff2", "fusion_lat": 0.0, "is_reserved": 0}, {"name": "e78bb799f09cf42089cfe6c24e5f7eb7", "lon": -77.03776383333333, "lat": 38.9025175, "type": "electric_scooter", "is_disabled": 0, "rental_uris": {"android": "https://dc.lft.to/lastmile_qr_scan", "ios": "https://dc.lft.to/lastmile_qr_scan"}, "fusion_lon": 0.0, "bike_id": "e78bb799f09cf42089cfe6c24e5f7eb7", "fusion_lat": 0.0, "is_reserved": 0}, {"name": "8287dc54b89ace0fd2b2fa3a613503ec", "lon": -77.037083, "lat": 38.90363283333333, "type": "electric_scooter", "is_disabled": 0, "rental_uris": {"android": "https://dc.lft.to/lastmile_qr_scan", "ios": "https://dc.lft.to/lastmile_qr_scan"}, "fusion_lon": 0.0, "bike_id": "8287dc54b89ace0fd2b2fa3a613503ec", "fusion_lat": 0.0, "is_reserved": 0}, {"name": "ddc98034c1032bc7f0a6addf8a512d09", "lon": -77.02533666666666, "lat": 38.906483333333334, "type": "electric_scooter", "is_disabled": 0, "rental_uris": {"android": "https://dc.lft.to/lastmile_qr_scan", "ios": "https://dc.lft.to/lastmile_qr_scan"}, "fusion_lon": 0.0, "bike_id": "ddc98034c1032bc7f0a6addf8a512d09", "fusion_lat": 0.0, "is_reserved": 0}, {"name": "35521bc1ce7f731772f09d9ec9ed224d", "lon": -77.04704433333333, "lat": 38.89726783333333, "type": "electric_scooter", "is_disabled": 0, "rental_uris": {"android": "https://dc.lft.to/lastmile_qr_scan", "ios": "https://dc.lft.to/lastmile_qr_scan"}, "fusion_lon": 0.0, "bike_id": "35521bc1ce7f731772f09d9ec9ed224d", "fusion_lat": 0.0, "is_reserved": 0}, {"name": "1c87a09a8abe1cce94fe32f58152a052", "lon": -77.021995, "lat": 38.924716833333335, "type": "electric_scooter", "is_disabled": 0, "rental_uris": {"android": "https://dc.lft.to/lastmile_qr_scan", "ios": "https://dc.lft.to/lastmile_qr_scan"}, "fusion_lon": 0.0, "bike_id": "1c87a09a8abe1cce94fe32f58152a052", "fusion_lat": 0.0, "is_reserved": 0}, {"name": "c8a53b2156e6c10157ad0f75ece77bde", "lon": -77.055303, "lat": 38.927930333333336, "type": "electric_scooter", "is_disabled": 0, "rental_uris": {"android": "https://dc.lft.to/lastmile_qr_scan", "ios": "https://dc.lft.to/lastmile_qr_scan"}, "fusion_lon": 0.0, "bike_id": "c8a53b2156e6c10157ad0f75ece77bde", "fusion_lat": 0.0, "is_reserved": 0}, {"name": "b8f84707d7671c84891cb7d8ec831ec9", "lon": -77.0388405, "lat": 38.918374, "type": "electric_scooter", "is_disabled": 0, "rental_uris": {"android": "https://dc.lft.to/lastmile_qr_scan", "ios": "https://dc.lft.to/lastmile_qr_scan"}, "fusion_lon": 0.0, "bike_id": "b8f84707d7671c84891cb7d8ec831ec9", "fusion_lat": 0.0, "is_reserved": 0}, {"name": "ac7cc501e91eb40778a7020c771abc4a", "lon": -77.0423535, "lat": 38.921842, "type": "electric_scooter", "is_disabled": 0, "rental_uris": {"android": "https://dc.lft.to/lastmile_qr_scan", "ios": "https://dc.lft.to/lastmile_qr_scan"}, "fusion_lon": 0.0, "bike_id": "ac7cc501e91eb40778a7020c771abc4a", "fusion_lat": 0.0, "is_reserved": 0}, {"name": "96cafe0b6adff52d69ea02f51bc71efb", "lon": -76.98494283333333, "lat": 38.90684733333333, "type": "electric_scooter", "is_disabled": 0, "rental_uris": {"android": "https://dc.lft.to/lastmile_qr_scan", "ios": "https://dc.lft.to/lastmile_qr_scan"}, "fusion_lon": 0.0, "bike_id": "96cafe0b6adff52d69ea02f51bc71efb", "fusion_lat": 0.0, "is_reserved": 0}, {"name": "28b08c2c75f36b264e13c8dacea63803", "lon": -77.0271545, "lat": 38.927765, "type": "electric_scooter", "is_disabled": 0, "rental_uris": {"android": "https://dc.lft.to/lastmile_qr_scan", "ios": "https://dc.lft.to/lastmile_qr_scan"}, "fusion_lon": 0.0, "bike_id": "28b08c2c75f36b264e13c8dacea63803", "fusion_lat": 0.0, "is_reserved": 0}, {"name": "2c3a7984b3f7943091d3bdfb6d204820", "lon": -77.04313233333333, "lat": 39.034229333333336, "type": "electric_bike", "is_disabled": 0, "rental_uris": {"android": "https://dc.lft.to/lastmile_qr_scan", "ios": "https://dc.lft.to/lastmile_qr_scan"}, "fusion_lon": 0.0, "bike_id": "2c3a7984b3f7943091d3bdfb6d204820", "fusion_lat": 0.0, "is_reserved": 0}, {"name": "daaa7c0a1b458c1e1da6325d051a4f62", "lon": -77.0215245, "lat": 38.8791285, "type": "electric_scooter", "is_disabled": 0, "rental_uris": {"android": "https://dc.lft.to/lastmile_qr_scan", "ios": "https://dc.lft.to/lastmile_qr_scan"}, "fusion_lon": 0.0, "bike_id": "daaa7c0a1b458c1e1da6325d051a4f62", "fusion_lat": 0.0, "is_reserved": 0}, {"name": "0ea14880a5cd771a28df6c4eac3c765f", "lon": -77.0448385, "lat": 38.895229666666665, "type": "electric_scooter", "is_disabled": 0, "rental_uris": {"android": "https://dc.lft.to/lastmile_qr_scan", "ios": "https://dc.lft.to/lastmile_qr_scan"}, "fusion_lon": 0.0, "bike_id": "0ea14880a5cd771a28df6c4eac3c765f", "fusion_lat": 0.0, "is_reserved": 0}, {"name": "5087da2bea2dd6ff3357ba21dfa0ba23", "lon": -77.050027, "lat": 38.89230716666667, "type": "electric_scooter", "is_disabled": 0, "rental_uris": {"android": "https://dc.lft.to/lastmile_qr_scan", "ios": "https://dc.lft.to/lastmile_qr_scan"}, "fusion_lon": 0.0, "bike_id": "5087da2bea2dd6ff3357ba21dfa0ba23", "fusion_lat": 0.0, "is_reserved": 0}, {"name": "292e9c20cc658ae681c7046ebd128053", "lon": -77.01910183333334, "lat": 38.9212745, "type": "electric_scooter", "is_disabled": 0, "rental_uris": {"android": "https://dc.lft.to/lastmile_qr_scan", "ios": "https://dc.lft.to/lastmile_qr_scan"}, "fusion_lon": 0.0, "bike_id": "292e9c20cc658ae681c7046ebd128053", "fusion_lat": 0.0, "is_reserved": 0}, {"name": "5a157b23bc81b579142f4641769900c4", "lon": -77.00063133333333, "lat": 38.90134916666667, "type": "electric_scooter", "is_disabled": 0, "rental_uris": {"android": "https://dc.lft.to/lastmile_qr_scan", "ios": "https://dc.lft.to/lastmile_qr_scan"}, "fusion_lon": 0.0, "bike_id": "5a157b23bc81b579142f4641769900c4", "fusion_lat": 0.0, "is_reserved": 0}, {"name": "7f5e49a4826292101c1d8f038f5ed4aa", "lon": -77.0430255, "lat": 38.931722, "type": "electric_scooter", "is_disabled": 0, "rental_uris": {"android": "https://dc.lft.to/lastmile_qr_scan", "ios": "https://dc.lft.to/lastmile_qr_scan"}, "fusion_lon": 0.0, "bike_id": "7f5e49a4826292101c1d8f038f5ed4aa", "fusion_lat": 0.0, "is_reserved": 0}, {"name": "27b68796f4c7c53d86356bf0e84b52a4", "lon": -77.03796683333333, "lat": 38.93613333333333, "type": "electric_scooter", "is_disabled": 0, "rental_uris": {"android": "https://dc.lft.to/lastmile_qr_scan", "ios": "https://dc.lft.to/lastmile_qr_scan"}, "fusion_lon": 0.0, "bike_id": "27b68796f4c7c53d86356bf0e84b52a4", "fusion_lat": 0.0, "is_reserved": 0}, {"name": "131bee73003d6ece61181cc073f247ab", "lon": -77.043601, "lat": 38.9045195, "type": "electric_scooter", "is_disabled": 0, "rental_uris": {"android": "https://dc.lft.to/lastmile_qr_scan", "ios": "https://dc.lft.to/lastmile_qr_scan"}, "fusion_lon": 0.0, "bike_id": "131bee73003d6ece61181cc073f247ab", "fusion_lat": 0.0, "is_reserved": 0}, {"name": "cdebf244bb67d38d6d69ffeb7f788e51", "lon": -76.997623, "lat": 38.92283033333333, "type": "electric_scooter", "is_disabled": 0, "rental_uris": {"android": "https://dc.lft.to/lastmile_qr_scan", "ios": "https://dc.lft.to/lastmile_qr_scan"}, "fusion_lon": 0.0, "bike_id": "cdebf244bb67d38d6d69ffeb7f788e51", "fusion_lat": 0.0, "is_reserved": 0}, {"name": "71abb48d04d6acb4ae85752332ff611c", "lon": -76.99264716666667, "lat": 38.8626075, "type": "electric_scooter", "is_disabled": 0, "rental_uris": {"android": "https://dc.lft.to/lastmile_qr_scan", "ios": "https://dc.lft.to/lastmile_qr_scan"}, "fusion_lon": 0.0, "bike_id": "71abb48d04d6acb4ae85752332ff611c", "fusion_lat": 0.0, "is_reserved": 0}, {"name": "567684f031413b616e232fc7103ec504", "lon": -76.99801833333333, "lat": 38.9013435, "type": "electric_scooter", "is_disabled": 0, "rental_uris": {"android": "https://dc.lft.to/lastmile_qr_scan", "ios": "https://dc.lft.to/lastmile_qr_scan"}, "fusion_lon": 0.0, "bike_id": "567684f031413b616e232fc7103ec504", "fusion_lat": 0.0, "is_reserved": 0}, {"name": "06de9b2d5087acf0edf08b6780700024", "lon": -77.02161316666667, "lat": 38.92609366666667, "type": "electric_scooter", "is_disabled": 0, "rental_uris": {"android": "https://dc.lft.to/lastmile_qr_scan", "ios": "https://dc.lft.to/lastmile_qr_scan"}, "fusion_lon": 0.0, "bike_id": "06de9b2d5087acf0edf08b6780700024", "fusion_lat": 0.0, "is_reserved": 0}, {"name": "a09e647fbd7d10682cc219ec101e603d", "lon": -77.04693616666667, "lat": 38.89219666666666, "type": "electric_scooter", "is_disabled": 0, "rental_uris": {"android": "https://dc.lft.to/lastmile_qr_scan", "ios": "https://dc.lft.to/lastmile_qr_scan"}, "fusion_lon": 0.0, "bike_id": "a09e647fbd7d10682cc219ec101e603d", "fusion_lat": 0.0, "is_reserved": 0}, {"name": "e86b2634daef4fccf586ddff860fdb7e", "lon": -76.95594716666666, "lat": 38.885983333333336, "type": "electric_scooter", "is_disabled": 0, "rental_uris": {"android": "https://dc.lft.to/lastmile_qr_scan", "ios": "https://dc.lft.to/lastmile_qr_scan"}, "fusion_lon": 0.0, "bike_id": "e86b2634daef4fccf586ddff860fdb7e", "fusion_lat": 0.0, "is_reserved": 0}, {"name": "d943871d7f6f7bdb5f8c89be29c3618c", "lon": -77.022754, "lat": 38.902767, "type": "electric_scooter", "is_disabled": 0, "rental_uris": {"android": "https://dc.lft.to/lastmile_qr_scan", "ios": "https://dc.lft.to/lastmile_qr_scan"}, "fusion_lon": 0.0, "bike_id": "d943871d7f6f7bdb5f8c89be29c3618c", "fusion_lat": 0.0, "is_reserved": 0}, {"name": "977df83bbd67b53ff968adf29b4b35d7", "lon": -76.95890366666667, "lat": 38.881889666666666, "type": "electric_scooter", "is_disabled": 0, "rental_uris": {"android": "https://dc.lft.to/lastmile_qr_scan", "ios": "https://dc.lft.to/lastmile_qr_scan"}, "fusion_lon": 0.0, "bike_id": "977df83bbd67b53ff968adf29b4b35d7", "fusion_lat": 0.0, "is_reserved": 0}, {"name": "cf905334e5ed36b2368e78e9fd7f1c2d", "lon": -77.0270885, "lat": 38.9485065, "type": "electric_scooter", "is_disabled": 0, "rental_uris": {"android": "https://dc.lft.to/lastmile_qr_scan", "ios": "https://dc.lft.to/lastmile_qr_scan"}, "fusion_lon": 0.0, "bike_id": "cf905334e5ed36b2368e78e9fd7f1c2d", "fusion_lat": 0.0, "is_reserved": 0}, {"name": "ef7fd24c2ce627970514495fafbeaaa0", "lon": -77.02682333333334, "lat": 38.897153333333335, "type": "electric_scooter", "is_disabled": 0, "rental_uris": {"android": "https://dc.lft.to/lastmile_qr_scan", "ios": "https://dc.lft.to/lastmile_qr_scan"}, "fusion_lon": 0.0, "bike_id": "ef7fd24c2ce627970514495fafbeaaa0", "fusion_lat": 0.0, "is_reserved": 0}, {"name": "6d1e36c19d0c51ae95a71477ab3fc240", "lon": -77.04489533333333, "lat": 38.9050665, "type": "electric_scooter", "is_disabled": 0, "rental_uris": {"android": "https://dc.lft.to/lastmile_qr_scan", "ios": "https://dc.lft.to/lastmile_qr_scan"}, "fusion_lon": 0.0, "bike_id": "6d1e36c19d0c51ae95a71477ab3fc240", "fusion_lat": 0.0, "is_reserved": 0}, {"name": "b1f85a4b0e059ceb7c73d61b41d54bb5", "lon": -77.02180166666666, "lat": 38.91506433333333, "type": "electric_scooter", "is_disabled": 0, "rental_uris": {"android": "https://dc.lft.to/lastmile_qr_scan", "ios": "https://dc.lft.to/lastmile_qr_scan"}, "fusion_lon": 0.0, "bike_id": "b1f85a4b0e059ceb7c73d61b41d54bb5", "fusion_lat": 0.0, "is_reserved": 0}, {"name": "8c65a721ce4d8be92c4d1bee61abb223", "lon": -77.0265975, "lat": 38.925806333333334, "type": "electric_scooter", "is_disabled": 0, "rental_uris": {"android": "https://dc.lft.to/lastmile_qr_scan", "ios": "https://dc.lft.to/lastmile_qr_scan"}, "fusion_lon": 0.0, "bike_id": "8c65a721ce4d8be92c4d1bee61abb223", "fusion_lat": 0.0, "is_reserved": 0}, {"name": "bcbc791d4f1755d2bf297f54e713fe33", "lon": -77.045022, "lat": 38.903716, "type": "electric_scooter", "is_disabled": 0, "rental_uris": {"android": "https://dc.lft.to/lastmile_qr_scan", "ios": "https://dc.lft.to/lastmile_qr_scan"}, "fusion_lon": 0.0, "bike_id": "bcbc791d4f1755d2bf297f54e713fe33", "fusion_lat": 0.0, "is_reserved": 0}, {"name": "97a13c9ed936e5c1a5fc3bf80da9e41c", "lon": -76.99010816666667, "lat": 38.88598316666667, "type": "electric_scooter", "is_disabled": 0, "rental_uris": {"android": "https://dc.lft.to/lastmile_qr_scan", "ios": "https://dc.lft.to/lastmile_qr_scan"}, "fusion_lon": 0.0, "bike_id": "97a13c9ed936e5c1a5fc3bf80da9e41c", "fusion_lat": 0.0, "is_reserved": 0}, {"name": "21f7bb4b44ce5dd108ff57606553fd53", "lon": -76.99349733333334, "lat": 38.845042666666664, "type": "electric_bike", "is_disabled": 0, "rental_uris": {"android": "https://dc.lft.to/lastmile_qr_scan", "ios": "https://dc.lft.to/lastmile_qr_scan"}, "fusion_lon": 0.0, "bike_id": "21f7bb4b44ce5dd108ff57606553fd53", "fusion_lat": 0.0, "is_reserved": 0}, {"name": "69817bf4276bf75f83b8ae73b486cf9c", "lon": -77.0465805, "lat": 38.9099965, "type": "electric_scooter", "is_disabled": 0, "rental_uris": {"android": "https://dc.lft.to/lastmile_qr_scan", "ios": "https://dc.lft.to/lastmile_qr_scan"}, "fusion_lon": 0.0, "bike_id": "69817bf4276bf75f83b8ae73b486cf9c", "fusion_lat": 0.0, "is_reserved": 0}, {"name": "544156b708870893ffc421a1a6174581", "lon": -77.03115916666667, "lat": 38.95935466666667, "type": "electric_scooter", "is_disabled": 0, "rental_uris": {"android": "https://dc.lft.to/lastmile_qr_scan", "ios": "https://dc.lft.to/lastmile_qr_scan"}, "fusion_lon": 0.0, "bike_id": "544156b708870893ffc421a1a6174581", "fusion_lat": 0.0, "is_reserved": 0}, {"name": "50f100a7076aafbc6c90f707996ecf6e", "lon": -77.03248466666666, "lat": 38.90111866666667, "type": "electric_scooter", "is_disabled": 0, "rental_uris": {"android": "https://dc.lft.to/lastmile_qr_scan", "ios": "https://dc.lft.to/lastmile_qr_scan"}, "fusion_lon": 0.0, "bike_id": "50f100a7076aafbc6c90f707996ecf6e", "fusion_lat": 0.0, "is_reserved": 0}, {"name": "cb905897de910f6b05995057cffc1531", "lon": -77.00604716666666, "lat": 38.874816, "type": "electric_scooter", "is_disabled": 0, "rental_uris": {"android": "https://dc.lft.to/lastmile_qr_scan", "ios": "https://dc.lft.to/lastmile_qr_scan"}, "fusion_lon": 0.0, "bike_id": "cb905897de910f6b05995057cffc1531", "fusion_lat": 0.0, "is_reserved": 0}, {"name": "748bb51a36888ed9539592a493a023a8", "lon": -77.04250033333334, "lat": 38.924297, "type": "electric_scooter", "is_disabled": 0, "rental_uris": {"android": "https://dc.lft.to/lastmile_qr_scan", "ios": "https://dc.lft.to/lastmile_qr_scan"}, "fusion_lon": 0.0, "bike_id": "748bb51a36888ed9539592a493a023a8", "fusion_lat": 0.0, "is_reserved": 0}, {"name": "0fc65a833b4d9481e4f98f0f43be2aa4", "lon": -77.03110816666667, "lat": 38.905421, "type": "electric_scooter", "is_disabled": 0, "rental_uris": {"android": "https://dc.lft.to/lastmile_qr_scan", "ios": "https://dc.lft.to/lastmile_qr_scan"}, "fusion_lon": 0.0, "bike_id": "0fc65a833b4d9481e4f98f0f43be2aa4", "fusion_lat": 0.0, "is_reserved": 0}, {"name": "20e990bd09ace5b7454e4d17787db9bb", "lon": -77.01760683333333, "lat": 38.90266483333333, "type": "electric_scooter", "is_disabled": 0, "rental_uris": {"android": "https://dc.lft.to/lastmile_qr_scan", "ios": "https://dc.lft.to/lastmile_qr_scan"}, "fusion_lon": 0.0, "bike_id": "20e990bd09ace5b7454e4d17787db9bb", "fusion_lat": 0.0, "is_reserved": 0}, {"name": "5506a137a72fb8fc833077e3df39fa1a", "lon": -77.0257875, "lat": 38.8873125, "type": "electric_scooter", "is_disabled": 0, "rental_uris": {"android": "https://dc.lft.to/lastmile_qr_scan", "ios": "https://dc.lft.to/lastmile_qr_scan"}, "fusion_lon": 0.0, "bike_id": "5506a137a72fb8fc833077e3df39fa1a", "fusion_lat": 0.0, "is_reserved": 0}, {"name": "2886c0f515d1c61a442e94a0f054185d", "lon": -76.98432966666667, "lat": 38.9057735, "type": "electric_scooter", "is_disabled": 0, "rental_uris": {"android": "https://dc.lft.to/lastmile_qr_scan", "ios": "https://dc.lft.to/lastmile_qr_scan"}, "fusion_lon": 0.0, "bike_id": "2886c0f515d1c61a442e94a0f054185d", "fusion_lat": 0.0, "is_reserved": 0}, {"name": "b495a0ba5077cd4eb310a97be1552923", "lon": -77.0271445, "lat": 38.923734, "type": "electric_scooter", "is_disabled": 0, "rental_uris": {"android": "https://dc.lft.to/lastmile_qr_scan", "ios": "https://dc.lft.to/lastmile_qr_scan"}, "fusion_lon": 0.0, "bike_id": "b495a0ba5077cd4eb310a97be1552923", "fusion_lat": 0.0, "is_reserved": 0}, {"name": "dd4243ba82144d5e0458a944136d2310", "lon": -77.039404, "lat": 38.908308, "type": "electric_scooter", "is_disabled": 0, "rental_uris": {"android": "https://dc.lft.to/lastmile_qr_scan", "ios": "https://dc.lft.to/lastmile_qr_scan"}, "fusion_lon": 0.0, "bike_id": "dd4243ba82144d5e0458a944136d2310", "fusion_lat": 0.0, "is_reserved": 0}, {"name": "6a76b24ea2cc5882a55c66db4a57553e", "lon": -77.02228233333334, "lat": 38.88741383333333, "type": "electric_scooter", "is_disabled": 0, "rental_uris": {"android": "https://dc.lft.to/lastmile_qr_scan", "ios": "https://dc.lft.to/lastmile_qr_scan"}, "fusion_lon": 0.0, "bike_id": "6a76b24ea2cc5882a55c66db4a57553e", "fusion_lat": 0.0, "is_reserved": 0}, {"name": "85b7d9a42ec6da010c0e73bf1d245a6e", "lon": -77.0330545, "lat": 38.92743, "type": "electric_scooter", "is_disabled": 0, "rental_uris": {"android": "https://dc.lft.to/lastmile_qr_scan", "ios": "https://dc.lft.to/lastmile_qr_scan"}, "fusion_lon": 0.0, "bike_id": "85b7d9a42ec6da010c0e73bf1d245a6e", "fusion_lat": 0.0, "is_reserved": 0}, {"name": "65b5aa9f180ba19d9521d4be68ddce53", "lon": -77.034544, "lat": 38.90285166666666, "type": "electric_scooter", "is_disabled": 0, "rental_uris": {"android": "https://dc.lft.to/lastmile_qr_scan", "ios": "https://dc.lft.to/lastmile_qr_scan"}, "fusion_lon": 0.0, "bike_id": "65b5aa9f180ba19d9521d4be68ddce53", "fusion_lat": 0.0, "is_reserved": 0}, {"name": "909adcdc8cf10f13093b7e5d48b4034c", "lon": -77.02226416666667, "lat": 38.88743083333333, "type": "electric_scooter", "is_disabled": 0, "rental_uris": {"android": "https://dc.lft.to/lastmile_qr_scan", "ios": "https://dc.lft.to/lastmile_qr_scan"}, "fusion_lon": 0.0, "bike_id": "909adcdc8cf10f13093b7e5d48b4034c", "fusion_lat": 0.0, "is_reserved": 0}, {"name": "cd709d41503b33e9d44c4e9a737f6c9f", "lon": -77.0318825, "lat": 38.9091505, "type": "electric_scooter", "is_disabled": 0, "rental_uris": {"android": "https://dc.lft.to/lastmile_qr_scan", "ios": "https://dc.lft.to/lastmile_qr_scan"}, "fusion_lon": 0.0, "bike_id": "cd709d41503b33e9d44c4e9a737f6c9f", "fusion_lat": 0.0, "is_reserved": 0}, {"name": "b3a8fb00e93ff82ec228bbb8aaa15d3c", "lon": -77.02412933333333, "lat": 38.89224683333333, "type": "electric_scooter", "is_disabled": 0, "rental_uris": {"android": "https://dc.lft.to/lastmile_qr_scan", "ios": "https://dc.lft.to/lastmile_qr_scan"}, "fusion_lon": 0.0, "bike_id": "b3a8fb00e93ff82ec228bbb8aaa15d3c", "fusion_lat": 0.0, "is_reserved": 0}, {"name": "d67a56b8aeeb81a75a9e8ba99b17049d", "lon": -77.038126, "lat": 38.93060933333334, "type": "electric_scooter", "is_disabled": 0, "rental_uris": {"android": "https://dc.lft.to/lastmile_qr_scan", "ios": "https://dc.lft.to/lastmile_qr_scan"}, "fusion_lon": 0.0, "bike_id": "d67a56b8aeeb81a75a9e8ba99b17049d", "fusion_lat": 0.0, "is_reserved": 0}, {"name": "38fddc838e65bec6bb73a01946202d5d", "lon": -77.02735533333333, "lat": 38.95205516666667, "type": "electric_scooter", "is_disabled": 0, "rental_uris": {"android": "https://dc.lft.to/lastmile_qr_scan", "ios": "https://dc.lft.to/lastmile_qr_scan"}, "fusion_lon": 0.0, "bike_id": "38fddc838e65bec6bb73a01946202d5d", "fusion_lat": 0.0, "is_reserved": 0}, {"name": "11ee68012f661f4cfbd129ba05b19751", "lon": -77.004905, "lat": 38.8746535, "type": "electric_scooter", "is_disabled": 0, "rental_uris": {"android": "https://dc.lft.to/lastmile_qr_scan", "ios": "https://dc.lft.to/lastmile_qr_scan"}, "fusion_lon": 0.0, "bike_id": "11ee68012f661f4cfbd129ba05b19751", "fusion_lat": 0.0, "is_reserved": 0}, {"name": "5ea2615c6d3a9eccbfcb309451ce49c2", "lon": -77.02212133333333, "lat": 38.92474766666667, "type": "electric_scooter", "is_disabled": 0, "rental_uris": {"android": "https://dc.lft.to/lastmile_qr_scan", "ios": "https://dc.lft.to/lastmile_qr_scan"}, "fusion_lon": 0.0, "bike_id": "5ea2615c6d3a9eccbfcb309451ce49c2", "fusion_lat": 0.0, "is_reserved": 0}, {"name": "c96055a33624c028c239270008862055", "lon": -77.0718935, "lat": 38.909062166666665, "type": "electric_scooter", "is_disabled": 0, "rental_uris": {"android": "https://dc.lft.to/lastmile_qr_scan", "ios": "https://dc.lft.to/lastmile_qr_scan"}, "fusion_lon": 0.0, "bike_id": "c96055a33624c028c239270008862055", "fusion_lat": 0.0, "is_reserved": 0}, {"name": "c33c1df22d764c0a86f5c1e2742ac4ff", "lon": -77.03223533333333, "lat": 38.91707566666667, "type": "electric_scooter", "is_disabled": 0, "rental_uris": {"android": "https://dc.lft.to/lastmile_qr_scan", "ios": "https://dc.lft.to/lastmile_qr_scan"}, "fusion_lon": 0.0, "bike_id": "c33c1df22d764c0a86f5c1e2742ac4ff", "fusion_lat": 0.0, "is_reserved": 0}, {"name": "ae6450901afd41be9e7cd29d77fa3607", "lon": -77.02057733333334, "lat": 38.92411333333333, "type": "electric_scooter", "is_disabled": 0, "rental_uris": {"android": "https://dc.lft.to/lastmile_qr_scan", "ios": "https://dc.lft.to/lastmile_qr_scan"}, "fusion_lon": 0.0, "bike_id": "ae6450901afd41be9e7cd29d77fa3607", "fusion_lat": 0.0, "is_reserved": 0}, {"name": "dfc4aaf3f5c6ee51c06bab3819c566a4", "lon": -77.03188916666667, "lat": 38.901078, "type": "electric_scooter", "is_disabled": 0, "rental_uris": {"android": "https://dc.lft.to/lastmile_qr_scan", "ios": "https://dc.lft.to/lastmile_qr_scan"}, "fusion_lon": 0.0, "bike_id": "dfc4aaf3f5c6ee51c06bab3819c566a4", "fusion_lat": 0.0, "is_reserved": 0}, {"name": "64107ed5c3c1fafb492aad2f94529552", "lon": -77.045195, "lat": 38.923127666666666, "type": "electric_scooter", "is_disabled": 0, "rental_uris": {"android": "https://dc.lft.to/lastmile_qr_scan", "ios": "https://dc.lft.to/lastmile_qr_scan"}, "fusion_lon": 0.0, "bike_id": "64107ed5c3c1fafb492aad2f94529552", "fusion_lat": 0.0, "is_reserved": 0}, {"name": "75077c750695c8851d5e85428ceba062", "lon": -77.039603, "lat": 38.89243833333333, "type": "electric_scooter", "is_disabled": 0, "rental_uris": {"android": "https://dc.lft.to/lastmile_qr_scan", "ios": "https://dc.lft.to/lastmile_qr_scan"}, "fusion_lon": 0.0, "bike_id": "75077c750695c8851d5e85428ceba062", "fusion_lat": 0.0, "is_reserved": 0}, {"name": "54ab99feea54b4853481d57a39128065", "lon": -77.0000765, "lat": 38.87391616666667, "type": "electric_scooter", "is_disabled": 0, "rental_uris": {"android": "https://dc.lft.to/lastmile_qr_scan", "ios": "https://dc.lft.to/lastmile_qr_scan"}, "fusion_lon": 0.0, "bike_id": "54ab99feea54b4853481d57a39128065", "fusion_lat": 0.0, "is_reserved": 0}, {"name": "9a42d87b53b08a900475f42de093ea1c", "lon": -76.9487225, "lat": 38.89498, "type": "electric_scooter", "is_disabled": 0, "rental_uris": {"android": "https://dc.lft.to/lastmile_qr_scan", "ios": "https://dc.lft.to/lastmile_qr_scan"}, "fusion_lon": 0.0, "bike_id": "9a42d87b53b08a900475f42de093ea1c", "fusion_lat": 0.0, "is_reserved": 0}, {"name": "213032333c85d429137e6e5cb894fab0", "lon": -77.00202016666667, "lat": 38.95293, "type": "electric_scooter", "is_disabled": 0, "rental_uris": {"android": "https://dc.lft.to/lastmile_qr_scan", "ios": "https://dc.lft.to/lastmile_qr_scan"}, "fusion_lon": 0.0, "bike_id": "213032333c85d429137e6e5cb894fab0", "fusion_lat": 0.0, "is_reserved": 0}, {"name": "b9f8da4a70329b56d54c30e7a3327324", "lon": -77.08659283333333, "lat": 38.938549333333334, "type": "electric_scooter", "is_disabled": 0, "rental_uris": {"android": "https://dc.lft.to/lastmile_qr_scan", "ios": "https://dc.lft.to/lastmile_qr_scan"}, "fusion_lon": 0.0, "bike_id": "b9f8da4a70329b56d54c30e7a3327324", "fusion_lat": 0.0, "is_reserved": 0}, {"name": "4b40a8fb49b011275ce21e02f56654fc", "lon": -77.043696, "lat": 38.90411866666667, "type": "electric_scooter", "is_disabled": 0, "rental_uris": {"android": "https://dc.lft.to/lastmile_qr_scan", "ios": "https://dc.lft.to/lastmile_qr_scan"}, "fusion_lon": 0.0, "bike_id": "4b40a8fb49b011275ce21e02f56654fc", "fusion_lat": 0.0, "is_reserved": 0}, {"name": "7cd311df7061d47e721e23d403d2e542", "lon": -77.05053833333334, "lat": 38.9108105, "type": "electric_scooter", "is_disabled": 0, "rental_uris": {"android": "https://dc.lft.to/lastmile_qr_scan", "ios": "https://dc.lft.to/lastmile_qr_scan"}, "fusion_lon": 0.0, "bike_id": "7cd311df7061d47e721e23d403d2e542", "fusion_lat": 0.0, "is_reserved": 0}, {"name": "edc6dbe56b95396f725556d583d191b4", "lon": -77.02038033333334, "lat": 38.92085983333333, "type": "electric_scooter", "is_disabled": 0, "rental_uris": {"android": "https://dc.lft.to/lastmile_qr_scan", "ios": "https://dc.lft.to/lastmile_qr_scan"}, "fusion_lon": 0.0, "bike_id": "edc6dbe56b95396f725556d583d191b4", "fusion_lat": 0.0, "is_reserved": 0}, {"name": "925ab79a3d8c7107833087d57e3d61f9", "lon": -76.98541783333333, "lat": 38.86685116666666, "type": "electric_scooter", "is_disabled": 0, "rental_uris": {"android": "https://dc.lft.to/lastmile_qr_scan", "ios": "https://dc.lft.to/lastmile_qr_scan"}, "fusion_lon": 0.0, "bike_id": "925ab79a3d8c7107833087d57e3d61f9", "fusion_lat": 0.0, "is_reserved": 0}, {"name": "aab6511e3a11c456240499cd70ae2c44", "lon": -77.03207733333333, "lat": 38.89234416666667, "type": "electric_scooter", "is_disabled": 0, "rental_uris": {"android": "https://dc.lft.to/lastmile_qr_scan", "ios": "https://dc.lft.to/lastmile_qr_scan"}, "fusion_lon": 0.0, "bike_id": "aab6511e3a11c456240499cd70ae2c44", "fusion_lat": 0.0, "is_reserved": 0}, {"name": "fd598ecdf11d01d9456b057da89465a1", "lon": -77.0176785, "lat": 38.8769725, "type": "electric_scooter", "is_disabled": 0, "rental_uris": {"android": "https://dc.lft.to/lastmile_qr_scan", "ios": "https://dc.lft.to/lastmile_qr_scan"}, "fusion_lon": 0.0, "bike_id": "fd598ecdf11d01d9456b057da89465a1", "fusion_lat": 0.0, "is_reserved": 0}, {"name": "d2dd4bad0e84d1605191607342780a07", "lon": -77.03995466666667, "lat": 38.907851666666666, "type": "electric_scooter", "is_disabled": 0, "rental_uris": {"android": "https://dc.lft.to/lastmile_qr_scan", "ios": "https://dc.lft.to/lastmile_qr_scan"}, "fusion_lon": 0.0, "bike_id": "d2dd4bad0e84d1605191607342780a07", "fusion_lat": 0.0, "is_reserved": 0}, {"name": "9770ff980083775c05cfa7fed590ecbd", "lon": -77.0618505, "lat": 38.918374, "type": "electric_scooter", "is_disabled": 0, "rental_uris": {"android": "https://dc.lft.to/lastmile_qr_scan", "ios": "https://dc.lft.to/lastmile_qr_scan"}, "fusion_lon": 0.0, "bike_id": "9770ff980083775c05cfa7fed590ecbd", "fusion_lat": 0.0, "is_reserved": 0}, {"name": "321e8bdeea01d85fa3b48626377cd87e", "lon": -77.02231533333334, "lat": 38.899871166666664, "type": "electric_scooter", "is_disabled": 0, "rental_uris": {"android": "https://dc.lft.to/lastmile_qr_scan", "ios": "https://dc.lft.to/lastmile_qr_scan"}, "fusion_lon": 0.0, "bike_id": "321e8bdeea01d85fa3b48626377cd87e", "fusion_lat": 0.0, "is_reserved": 0}, {"name": "823e3fac934a54beb0514af62ff2d90b", "lon": -77.023431, "lat": 38.9445645, "type": "electric_scooter", "is_disabled": 0, "rental_uris": {"android": "https://dc.lft.to/lastmile_qr_scan", "ios": "https://dc.lft.to/lastmile_qr_scan"}, "fusion_lon": 0.0, "bike_id": "823e3fac934a54beb0514af62ff2d90b", "fusion_lat": 0.0, "is_reserved": 0}, {"name": "8a6e55491871e463ff08c4fba125c4b7", "lon": -77.00195616666667, "lat": 38.94148716666667, "type": "electric_bike", "is_disabled": 0, "rental_uris": {"android": "https://dc.lft.to/lastmile_qr_scan", "ios": "https://dc.lft.to/lastmile_qr_scan"}, "fusion_lon": 0.0, "bike_id": "8a6e55491871e463ff08c4fba125c4b7", "fusion_lat": 0.0, "is_reserved": 0}, {"name": "9055032483731bfec0cbd14b7f98f70a", "lon": -77.0271325, "lat": 38.92878233333333, "type": "electric_scooter", "is_disabled": 0, "rental_uris": {"android": "https://dc.lft.to/lastmile_qr_scan", "ios": "https://dc.lft.to/lastmile_qr_scan"}, "fusion_lon": 0.0, "bike_id": "9055032483731bfec0cbd14b7f98f70a", "fusion_lat": 0.0, "is_reserved": 0}, {"name": "6280541f655006edb2767e416fa55d62", "lon": -77.05706566666667, "lat": 38.905429, "type": "electric_bike", "is_disabled": 0, "rental_uris": {"android": "https://dc.lft.to/lastmile_qr_scan", "ios": "https://dc.lft.to/lastmile_qr_scan"}, "fusion_lon": 0.0, "bike_id": "6280541f655006edb2767e416fa55d62", "fusion_lat": 0.0, "is_reserved": 0}, {"name": "2992a3dfd9702c8e2637b008155f5f89", "lon": -76.98837016666667, "lat": 38.900039, "type": "electric_scooter", "is_disabled": 0, "rental_uris": {"android": "https://dc.lft.to/lastmile_qr_scan", "ios": "https://dc.lft.to/lastmile_qr_scan"}, "fusion_lon": 0.0, "bike_id": "2992a3dfd9702c8e2637b008155f5f89", "fusion_lat": 0.0, "is_reserved": 0}, {"name": "e4fe4e9bba06a378320de48b3920afe5", "lon": -77.03259633333333, "lat": 38.939803, "type": "electric_scooter", "is_disabled": 0, "rental_uris": {"android": "https://dc.lft.to/lastmile_qr_scan", "ios": "https://dc.lft.to/lastmile_qr_scan"}, "fusion_lon": 0.0, "bike_id": "e4fe4e9bba06a378320de48b3920afe5", "fusion_lat": 0.0, "is_reserved": 0},