{"data": {"bikes": [{"is_disabled": 0, "fusion_lon": 0.0, "fusion_lat": 0.0, "lat": 38.889843166666665, "type": "electric_scooter", "lon": -77.00254883333334, "bike_id": "ea6a058d330a027e6945f23caf268289", "rental_uris": {"android": "https://dc.lft.to/lastmile_qr_scan", "ios": "https://dc.lft.to/lastmile_qr_scan"}, "name": "ea6a058d330a027e6945f23caf268289", "is_reserved": 0}, {"is_disabled": 0, "fusion_lon": 0.0, "fusion_lat": 0.0, "lat": 38.906360166666666, "type": "electric_scooter", "lon": -76.98568733333333, "bike_id": "8e00a329a0261242b07575821e666f12", "rental_uris": {"android": "https://dc.lft.to/lastmile_qr_scan", "ios": "https://dc.lft.to/lastmile_qr_scan"}, "name": "8e00a329a0261242b07575821e666f12", "is_reserved": 0}, {"is_disabled": 0, "fusion_lon": 0.0, "fusion_lat": 0.0, "lat": 38.885014166666664, "type": "electric_scooter", "lon": -77.00328416666666, "bike_id": "64330e171e484213f0c8a1c4304fbaf2", "rental_uris": {"android": "https://dc.lft.to/lastmile_qr_scan", "ios": "https://dc.lft.to/lastmile_qr_scan"}, "name": "64330e171e484213f0c8a1c4304fbaf2", "is_reserved": 0}, {"is_disabled": 0, "fusion_lon": 0.0, "fusion_lat": 0.0, "lat": 38.902697, "type": "electric_scooter", "lon": -77.034442, "bike_id": "6b7426a19e372a08a4d60f072c7a34c2", "rental_uris": {"android": "https://dc.lft.to/lastmile_qr_scan", "ios": "https://dc.lft.to/lastmile_qr_scan"}, "name": "6b7426a19e372a08a4d60f072c7a34c2", "is_reserved": 0}, {"is_disabled": 0, "fusion_lon": 0.0, "fusion_lat": 0.0, "lat": 38.91713133333333, "type": "electric_scooter", "lon": -77.09807, "bike_id": "63c4f47c8135e172465746146c5d2912", "rental_uris": {"android": "https://dc.lft.to/lastmile_qr_scan", "ios": "https://dc.lft.to/lastmile_qr_scan"}, "name": "63c4f47c8135e172465746146c5d2912", "is_reserved": 0}, {"is_disabled": 0, "fusion_lon": 0.0, "fusion_lat": 0.0, "lat": 38.9177395, "type": "electric_scooter", "lon": -77.032182, "bike_id": "2fac09aec2ede7cbcabe659adaa2cb4f", "rental_uris": {"android": "https://dc.lft.to/lastmile_qr_scan", "ios": "https://dc.lft.to/lastmile_qr_scan"}, "name": "2fac09aec2ede7cbcabe659adaa2cb4f", "is_reserved": 0}, {"is_disabled": 0, "fusion_lon": 0.0, "fusion_lat": 0.0, "lat": 38.949707833333335, "type": "electric_scooter", "lon": -77.03758816666667, "bike_id": "dba58e67c0c0b710277693c9fb643526", "rental_uris": {"android": "https://dc.lft.to/lastmile_qr_scan", "ios": "https://dc.lft.to/lastmile_qr_scan"}, "name": "dba58e67c0c0b710277693c9fb643526", "is_reserved": 0}, {"is_disabled": 0, "fusion_lon": 0.0, "fusion_lat": 0.0, "lat": 38.92451, "type": "electric_scooter", "lon": -77.03964966666666, "bike_id": "b0d84ed586270e27526aebd583931c0e", "rental_uris": {"android": "https://dc.lft.to/lastmile_qr_scan", "ios": "https://dc.lft.to/lastmile_qr_scan"}, "name": "b0d84ed586270e27526aebd583931c0e", "is_reserved": 0}, {"is_disabled": 0, "fusion_lon": 0.0, "fusion_lat": 0.0, "lat": 38.8923845, "type": "electric_scooter", "lon": -77.03344033333333, "bike_id": "0a9208e71f78cfab3809974580ece044", "rental_uris": {"android": "https://dc.lft.to/lastmile_qr_scan", "ios": "https://dc.lft.to/lastmile_qr_scan"}, "name": "0a9208e71f78cfab3809974580ece044", "is_reserved": 0}, {"is_disabled": 0, "fusion_lon": 0.0, "fusion_lat": 0.0, "lat": 39.026846666666664, "type": "electric_bike", "lon": -77.125968, "bike_id": "4c54a3f0956d9c4192de88843e7d368f", "rental_uris": {"android": "https://dc.lft.to/lastmile_qr_scan", "ios": "https://dc.lft.to/lastmile_qr_scan"}, "name": "4c54a3f0956d9c4192de88843e7d368f", "is_reserved": 0}, {"is_disabled": 0, "fusion_lon": 0.0, "fusion_lat": 0.0, "lat": 38.911106, "type": "electric_scooter", "lon": -77.03832266666667, "bike_id": "4b4ec23366871c919d72d91be09abd63", "rental_uris": {"android": "https://dc.lft.to/lastmile_qr_scan", "ios": "https://dc.lft.to/lastmile_qr_scan"}, "name": "4b4ec23366871c919d72d91be09abd63", "is_reserved": 0}, {"is_disabled": 0, "fusion_lon": 0.0, "fusion_lat": 0.0, "lat": 38.93622516666667, "type": "electric_scooter", "lon": -77.03650383333333, "bike_id": "5a766f3207bbf0be8043a7ff330bbbf4", "rental_uris": {"android": "https://dc.lft.to/lastmile_qr_scan", "ios": "https://dc.lft.to/lastmile_qr_scan"}, "name": "5a766f3207bbf0be8043a7ff330bbbf4", "is_reserved": 0}, {"is_disabled": 0, "fusion_lon": 0.0, "fusion_lat": 0.0, "lat": 38.94957633333333, "type": "electric_scooter", "lon": -77.0669065, "bike_id": "57b4708448e3499c8bb940f6446316fd", "rental_uris": {"android": "https://dc.lft.to/lastmile_qr_scan", "ios": "https://dc.lft.to/lastmile_qr_scan"}, "name": "57b4708448e3499c8bb940f6446316fd", "is_reserved": 0}, {"is_disabled": 0, "fusion_lon": 0.0, "fusion_lat": 0.0, "lat": 38.939629, "type": "electric_scooter", "lon": -77.03256166666667, "bike_id": "22809ef113821a99add733aace7e9876", "rental_uris": {"android": "https://dc.lft.to/lastmile_qr_scan", "ios": "https://dc.lft.to/lastmile_qr_scan"}, "name": "22809ef113821a99add733aace7e9876", "is_reserved": 0}, {"is_disabled": 0, "fusion_lon": 0.0, "fusion_lat": 0.0, "lat": 38.96118883333333, "type": "electric_scooter", "lon": -77.08530916666666, "bike_id": "12a69133cbae61c360c53cfa92ca1c5b", "rental_uris": {"android": "https://dc.lft.to/lastmile_qr_scan", "ios": "https://dc.lft.to/lastmile_qr_scan"}, "name": "12a69133cbae61c360c53cfa92ca1c5b", "is_reserved": 0}, {"is_disabled": 0, "fusion_lon": 0.0, "fusion_lat": 0.0, "lat": 38.922590166666666, "type": "electric_scooter", "lon": -77.04128516666667, "bike_id": "8109b2726b0edf9fe7b56075857f3c5a", "rental_uris": {"android": "https://dc.lft.to/lastmile_qr_scan", "ios": "https://dc.lft.to/lastmile_qr_scan"}, "name": "8109b2726b0edf9fe7b56075857f3c5a", "is_reserved": 0}, {"is_disabled": 0, "fusion_lon": 0.0, "fusion_lat": 0.0, "lat": 38.91659666666666, "type": "electric_scooter", "lon": -77.027072, "bike_id": "f9be0ded0bfa6ffaefd6135d3198fdda", "rental_uris": {"android": "https://dc.lft.to/lastmile_qr_scan", "ios": "https://dc.lft.to/lastmile_qr_scan"}, "name": "f9be0ded0bfa6ffaefd6135d3198fdda", "is_reserved": 0}, {"is_disabled": 0, "fusion_lon": 0.0, "fusion_lat": 0.0, "lat": 38.963069833333336, "type": "electric_bike", "lon": -77.011021, "bike_id": "022ebf78c530f75a68c685ae99369222", "rental_uris": {"android": "https://dc.lft.to/lastmile_qr_scan", "ios": "https://dc.lft.to/lastmile_qr_scan"}, "name": "022ebf78c530f75a68c685ae99369222", "is_reserved": 0}, {"is_disabled": 0, "fusion_lon": 0.0, "fusion_lat": 0.0, "lat": 38.926075166666664, "type": "electric_scooter", "lon": -77.02308533333333, "bike_id": "68e29488036c782e5da64cfa868d2165", "rental_uris": {"android": "https://dc.lft.to/lastmile_qr_scan", "ios": "https://dc.lft.to/lastmile_qr_scan"}, "name": "68e29488036c782e5da64cfa868d2165", "is_reserved": 0}, {"is_disabled": 0, "fusion_lon": 0.0, "fusion_lat": 0.0, "lat": 38.907576666666664, "type": "electric_scooter", "lon": -77.001232, "bike_id": "ef8bf1f017385a75b988ff44af5ed0e2", "rental_uris": {"android": "https://dc.lft.to/lastmile_qr_scan", "ios": "https://dc.lft.to/lastmile_qr_scan"}, "name": "ef8bf1f017385a75b988ff44af5ed0e2", "is_reserved": 0}, {"is_disabled": 0, "fusion_lon": 0.0, "fusion_lat": 0.0, "lat": 38.937834, "type": "electric_scooter", "lon": -77.01879116666667, "bike_id": "f6e7ed943363b03687df8c2d72a631a6", "rental_uris": {"android": "https://dc.lft.to/lastmile_qr_scan", "ios": "https://dc.lft.to/lastmile_qr_scan"}, "name": "f6e7ed943363b03687df8c2d72a631a6", "is_reserved": 0}, {"is_disabled": 0, "fusion_lon": 0.0, "fusion_lat": 0.0, "lat": 38.8952445, "type": "electric_scooter", "lon": -77.04315233333334, "bike_id": "f05fb7aa7236b7470a41a3a8f5be2835", "rental_uris": {"android": "https://dc.lft.to/lastmile_qr_scan", "ios": "https://dc.lft.to/lastmile_qr_scan"}, "name": "f05fb7aa7236b7470a41a3a8f5be2835", "is_reserved": 0}, {"is_disabled": 0, "fusion_lon": 0.0, "fusion_lat": 0.0, "lat": 38.92369033333333, "type": "electric_scooter", "lon": -77.02806366666667, "bike_id": "f3ca11f633545a62916074f0b66e00dd", "rental_uris": {"android": "https://dc.lft.to/lastmile_qr_scan", "ios": "https://dc.lft.to/lastmile_qr_scan"}, "name": "f3ca11f633545a62916074f0b66e00dd", "is_reserved": 0}, {"is_disabled": 0, "fusion_lon": 0.0, "fusion_lat": 0.0, "lat": 38.912693833333336, "type": "electric_scooter", "lon": -77.02239316666666, "bike_id": "1d82ac9389f4dea0ed54cda4e41d68b3", "rental_uris": {"android": "https://dc.lft.to/lastmile_qr_scan", "ios": "https://dc.lft.to/lastmile_qr_scan"}, "name": "1d82ac9389f4dea0ed54cda4e41d68b3", "is_reserved": 0}, {"is_disabled": 0, "fusion_lon": 0.0, "fusion_lat": 0.0, "lat": 38.903397166666664, "type": "electric_scooter", "lon": -77.03126183333333, "bike_id": "1c46ba7fdb9598858f0801f8b926881c", "rental_uris": {"android": "https://dc.lft.to/lastmile_qr_scan", "ios": "https://dc.lft.to/lastmile_qr_scan"}, "name": "1c46ba7fdb9598858f0801f8b926881c", "is_reserved": 0}, {"is_disabled": 0, "fusion_lon": 0.0, "fusion_lat": 0.0, "lat": 38.894232833333334, "type": "electric_scooter", "lon": -77.01100133333334, "bike_id": "5f542e8e0447b164e6628720fb90da5f", "rental_uris": {"android": "https://dc.lft.to/lastmile_qr_scan", "ios": "https://dc.lft.to/lastmile_qr_scan"}, "name": "5f542e8e0447b164e6628720fb90da5f", "is_reserved": 0}, {"is_disabled": 0, "fusion_lon": 0.0, "fusion_lat": 0.0, "lat": 38.91343033333333, "type": "electric_scooter", "lon": -77.04158133333334, "bike_id": "c059bdbaa7f02b881121171f96683f60", "rental_uris": {"android": "https://dc.lft.to/lastmile_qr_scan", "ios": "https://dc.lft.to/lastmile_qr_scan"}, "name": "c059bdbaa7f02b881121171f96683f60", "is_reserved": 0}, {"is_disabled": 0, "fusion_lon": 0.0, "fusion_lat": 0.0, "lat": 38.917142, "type": "electric_scooter", "lon": -77.03423483333333, "bike_id": "aa4ca5703436b02136b86da8a90ca281", "rental_uris": {"android": "https://dc.lft.to/lastmile_qr_scan", "ios": "https://dc.lft.to/lastmile_qr_scan"}, "name": "aa4ca5703436b02136b86da8a90ca281", "is_reserved": 0}, {"is_disabled": 0, "fusion_lon": 0.0, "fusion_lat": 0.0, "lat": 38.972532666666666, "type": "electric_bike", "lon": -76.991706, "bike_id": "770c068fef90d14ce42c6d764dd7fb11", "rental_uris": {"android": "https://dc.lft.to/lastmile_qr_scan", "ios": "https://dc.lft.to/lastmile_qr_scan"}, "name": "770c068fef90d14ce42c6d764dd7fb11", "is_reserved": 0}, {"is_disabled": 0, "fusion_lon": 0.0, "fusion_lat": 0.0, "lat": 38.89631466666667, "type": "electric_scooter", "lon": -77.00916183333334, "bike_id": "4461b46c2d1e1a70be3a0490c1cf4e01", "rental_uris": {"android": "https://dc.lft.to/lastmile_qr_scan", "ios": "https://dc.lft.to/lastmile_qr_scan"}, "name": "4461b46c2d1e1a70be3a0490c1cf4e01", "is_reserved": 0}, {"is_disabled": 0, "fusion_lon": 0.0, "fusion_lat": 0.0, "lat": 38.89956816666667, "type": "electric_scooter", "lon": -77.016107, "bike_id": "c9a7b49a91f2cdf8ab8d10b0a6defa15", "rental_uris": {"android": "https://dc.lft.to/lastmile_qr_scan", "ios": "https://dc.lft.to/lastmile_qr_scan"}, "name": "c9a7b49a91f2cdf8ab8d10b0a6defa15", "is_reserved": 0}, {"is_disabled": 0, "fusion_lon": 0.0, "fusion_lat": 0.0, "lat": 38.89619233333333, "type": "electric_scooter", "lon": -77.00904866666667, "bike_id": "10a6e5edc769aa7d1d92662297b8157d", "rental_uris": {"android": "https://dc.lft.to/lastmile_qr_scan", "ios": "https://dc.lft.to/lastmile_qr_scan"}, "name": "10a6e5edc769aa7d1d92662297b8157d", "is_reserved": 0}, {"is_disabled": 0, "fusion_lon": 0.0, "fusion_lat": 0.0, "lat": 38.8393215, "type": "electric_bike", "lon": -77.07895183333333, "bike_id": "bf5fd235a174223d3afe7a928f7f5a14", "rental_uris": {"android": "https://dc.lft.to/lastmile_qr_scan", "ios": "https://dc.lft.to/lastmile_qr_scan"}, "name": "bf5fd235a174223d3afe7a928f7f5a14", "is_reserved": 0}, {"is_disabled": 0, "fusion_lon": 0.0, "fusion_lat": 0.0, "lat": 38.92033, "type": "electric_scooter", "lon": -77.012827, "bike_id": "29909914c79309d8b82636e4cd34451d", "rental_uris": {"android": "https://dc.lft.to/lastmile_qr_scan", "ios": "https://dc.lft.to/lastmile_qr_scan"}, "name": "29909914c79309d8b82636e4cd34451d", "is_reserved": 0}, {"is_disabled": 0, "fusion_lon": 0.0, "fusion_lat": 0.0, "lat": 38.947766666666666, "type": "electric_bike", "lon": -76.97221166666667, "bike_id": "82b6f620fc65427adbce4790f46af02a", "rental_uris": {"android": "https://dc.lft.to/lastmile_qr_scan", "ios": "https://dc.lft.to/lastmile_qr_scan"}, "name": "82b6f620fc65427adbce4790f46af02a", "is_reserved": 0}, {"is_disabled": 0, "fusion_lon": 0.0, "fusion_lat": 0.0, "lat": 38.92343016666667, "type": "electric_scooter", "lon": -77.04014516666666, "bike_id": "ef6f9c0732d86e656b51b92214b48b31", "rental_uris": {"android": "https://dc.lft.to/lastmile_qr_scan", "ios": "https://dc.lft.to/lastmile_qr_scan"}, "name": "ef6f9c0732d86e656b51b92214b48b31", "is_reserved": 0}, {"is_disabled": 0, "fusion_lon": 0.0, "fusion_lat": 0.0, "lat": 38.875472333333335, "type": "electric_scooter", "lon": -77.00465533333333, "bike_id": "b84d57c3e1d07a8f6776f3fd24c1f592", "rental_uris": {"android": "https://dc.lft.to/lastmile_qr_scan", "ios": "https://dc.lft.to/lastmile_qr_scan"}, "name": "b84d57c3e1d07a8f6776f3fd24c1f592", "is_reserved": 0}, {"is_disabled": 0, "fusion_lon": 0.0, "fusion_lat": 0.0, "lat": 38.91112833333333, "type": "electric_scooter", "lon": -77.04357466666667, "bike_id": "59713ba0b81028beea6be5c474892844", "rental_uris": {"android": "https://dc.lft.to/lastmile_qr_scan", "ios": "https://dc.lft.to/lastmile_qr_scan"}, "name": "59713ba0b81028beea6be5c474892844", "is_reserved": 0}, {"is_disabled": 0, "fusion_lon": 0.0, "fusion_lat": 0.0, "lat": 38.970500666666666, "type": "electric_bike", "lon": -76.96070533333334, "bike_id": "3d1712884301d87f477041f719204e53", "rental_uris": {"android": "https://dc.lft.to/lastmile_qr_scan", "ios": "https://dc.lft.to/lastmile_qr_scan"}, "name": "3d1712884301d87f477041f719204e53", "is_reserved": 0}, {"is_disabled": 0, "fusion_lon": 0.0, "fusion_lat": 0.0, "lat": 38.9055115, "type": "electric_scooter", "lon": -77.04326466666667, "bike_id": "8632406e5838d40472eec3ad9e65ba7f", "rental_uris": {"android": "https://dc.lft.to/lastmile_qr_scan", "ios": "https://dc.lft.to/lastmile_qr_scan"}, "name": "8632406e5838d40472eec3ad9e65ba7f", "is_reserved": 0}, {"is_disabled": 0, "fusion_lon": 0.0, "fusion_lat": 0.0, "lat": 38.89916433333333, "type": "electric_scooter", "lon": -76.9916295, "bike_id": "c835b7c254a9cd3a4cd31ba6fa6616b3", "rental_uris": {"android": "https://dc.lft.to/lastmile_qr_scan", "ios": "https://dc.lft.to/lastmile_qr_scan"}, "name": "c835b7c254a9cd3a4cd31ba6fa6616b3", "is_reserved": 0}, {"is_disabled": 0, "fusion_lon": 0.0, "fusion_lat": 0.0, "lat": 38.922927, "type": "electric_scooter", "lon": -77.04144016666666, "bike_id": "369ad4acd998550f92b9071b12279061", "rental_uris": {"android": "https://dc.lft.to/lastmile_qr_scan", "ios": "https://dc.lft.to/lastmile_qr_scan"}, "name": "369ad4acd998550f92b9071b12279061", "is_reserved": 0}, {"is_disabled": 0, "fusion_lon": 0.0, "fusion_lat": 0.0, "lat": 38.88767133333333, "type": "electric_scooter", "lon": -76.98915183333334, "bike_id": "ed7b29ee564509d9b974d646092c893b", "rental_uris": {"android": "https://dc.lft.to/lastmile_qr_scan", "ios": "https://dc.lft.to/lastmile_qr_scan"}, "name": "ed7b29ee564509d9b974d646092c893b", "is_reserved": 0}, {"is_disabled": 0, "fusion_lon": 0.0, "fusion_lat": 0.0, "lat": 38.887500333333335, "type": "electric_scooter", "lon": -77.00223216666667, "bike_id": "a5b09c965be5a5f5a607134649b174a7", "rental_uris": {"android": "https://dc.lft.to/lastmile_qr_scan", "ios": "https://dc.lft.to/lastmile_qr_scan"}, "name": "a5b09c965be5a5f5a607134649b174a7", "is_reserved": 0}, {"is_disabled": 0, "fusion_lon": 0.0, "fusion_lat": 0.0, "lat": 38.917281, "type": "electric_scooter", "lon": -76.9917995, "bike_id": "bafe454f9cfb5d916d03c61f9bcc50ef", "rental_uris": {"android": "https://dc.lft.to/lastmile_qr_scan", "ios": "https://dc.lft.to/lastmile_qr_scan"}, "name": "bafe454f9cfb5d916d03c61f9bcc50ef", "is_reserved": 0}, {"is_disabled": 0, "fusion_lon": 0.0, "fusion_lat": 0.0, "lat": 38.926070833333334, "type": "electric_scooter", "lon": -76.98202616666667, "bike_id": "2dc8b4f8f3df78278edd74becf4026f2", "rental_uris": {"android": "https://dc.lft.to/lastmile_qr_scan", "ios": "https://dc.lft.to/lastmile_qr_scan"}, "name": "2dc8b4f8f3df78278edd74becf4026f2", "is_reserved": 0}, {"is_disabled": 0, "fusion_lon": 0.0, "fusion_lat": 0.0, "lat": 38.876327, "type": "electric_scooter", "lon": -77.01628766666667, "bike_id": "fd22e67c5eb1269b11a0ddfd540acf40", "rental_uris": {"android": "https://dc.lft.to/lastmile_qr_scan", "ios": "https://dc.lft.to/lastmile_qr_scan"}, "name": "fd22e67c5eb1269b11a0ddfd540acf40", "is_reserved": 0}, {"is_disabled": 0, "fusion_lon": 0.0, "fusion_lat": 0.0, "lat": 38.952958, "type": "electric_scooter", "lon": -77.03586266666667, "bike_id": "c14a2b6bce28e6f7e2cc0a5e293f1e4d", "rental_uris": {"android": "https://dc.lft.to/lastmile_qr_scan", "ios": "https://dc.lft.to/lastmile_qr_scan"}, "name": "c14a2b6bce28e6f7e2cc0a5e293f1e4d", "is_reserved": 0}, {"is_disabled": 0, "fusion_lon": 0.0, "fusion_lat": 0.0, "lat": 38.91497366666667, "type": "electric_scooter", "lon": -77.0121845, "bike_id": "934fb5d35ba36941306787ac72a4514d", "rental_uris": {"android": "https://dc.lft.to/lastmile_qr_scan", "ios": "https://dc.lft.to/lastmile_qr_scan"}, "name": "934fb5d35ba36941306787ac72a4514d", "is_reserved": 0}, {"is_disabled": 0, "fusion_lon": 0.0, "fusion_lat": 0.0, "lat": 38.92601283333333, "type": "electric_scooter", "lon": -77.02153483333333, "bike_id": "691dff0bcfa428bc64f60c93caf0c99e", "rental_uris": {"android": "https://dc.lft.to/lastmile_qr_scan", "ios": "https://dc.lft.to/lastmile_qr_scan"}, "name": "691dff0bcfa428bc64f60c93caf0c99e", "is_reserved": 0}, {"is_disabled": 0, "fusion_lon": 0.0, "fusion_lat": 0.0, "lat": 38.87234316666667, "type": "electric_scooter", "lon": -77.00571566666666, "bike_id": "fac0ab887021b887e0a78c533b6bc89f", "rental_uris": {"android": "https://dc.lft.to/lastmile_qr_scan", "ios": "https://dc.lft.to/lastmile_qr_scan"}, "name": "fac0ab887021b887e0a78c533b6bc89f", "is_reserved": 0}, {"is_disabled": 0, "fusion_lon": 0.0, "fusion_lat": 0.0, "lat": 38.911118, "type": "electric_scooter", "lon": -77.04717733333334, "bike_id": "34e9236726793e83e8f089a928147fe7", "rental_uris": {"android": "https://dc.lft.to/lastmile_qr_scan", "ios": "https://dc.lft.to/lastmile_qr_scan"}, "name": "34e9236726793e83e8f089a928147fe7", "is_reserved": 0}, {"is_disabled": 0, "fusion_lon": 0.0, "fusion_lat": 0.0, "lat": 38.9297445, "type": "electric_scooter", "lon": -77.03468966666667, "bike_id": "9fe14d40be61f91a7da1a0fd30687304", "rental_uris": {"android": "https://dc.lft.to/lastmile_qr_scan", "ios": "https://dc.lft.to/lastmile_qr_scan"}, "name": "9fe14d40be61f91a7da1a0fd30687304", "is_reserved": 0}, {"is_disabled": 0, "fusion_lon": 0.0, "fusion_lat": 0.0, "lat": 38.928057, "type": "electric_scooter", "lon": -77.014149, "bike_id": "dffa13d377ccddc3d808bae39e990d65", "rental_uris": {"android": "https://dc.lft.to/lastmile_qr_scan", "ios": "https://dc.lft.to/lastmile_qr_scan"}, "name": "dffa13d377ccddc3d808bae39e990d65", "is_reserved": 0}, {"is_disabled": 0, "fusion_lon": 0.0, "fusion_lat": 0.0, "lat": 38.91573483333333, "type": "electric_scooter", "lon": -76.98106, "bike_id": "e311c71499d6bb9092316d205e95c015", "rental_uris": {"android": "https://dc.lft.to/lastmile_qr_scan", "ios": "https://dc.lft.to/lastmile_qr_scan"}, "name": "e311c71499d6bb9092316d205e95c015", "is_reserved": 0}, {"is_disabled": 0, "fusion_lon": 0.0, "fusion_lat": 0.0, "lat": 38.85913333333333, "type": "electric_scooter", "lon": -76.98773033333333, "bike_id": "79ffd8de4a15151d5117d2e582011aa2", "rental_uris": {"android": "https://dc.lft.to/lastmile_qr_scan", "ios": "https://dc.lft.to/lastmile_qr_scan"}, "name": "79ffd8de4a15151d5117d2e582011aa2", "is_reserved": 0}, {"is_disabled": 0, "fusion_lon": 0.0, "fusion_lat": 0.0, "lat": 38.924564, "type": "electric_scooter", "lon": -77.05079933333333, "bike_id": "1613b7a9e4ea51dcda06d889349d0aee", "rental_uris": {"android": "https://dc.lft.to/lastmile_qr_scan", "ios": "https://dc.lft.to/lastmile_qr_scan"}, "name": "1613b7a9e4ea51dcda06d889349d0aee", "is_reserved": 0}, {"is_disabled": 0, "fusion_lon": 0.0, "fusion_lat": 0.0, "lat": 38.8507065, "type": "electric_bike", "lon": -76.97331516666667, "bike_id": "5b3175363cad5a10cbc36cdef38e4ce7", "rental_uris": {"android": "https://dc.lft.to/lastmile_qr_scan", "ios": "https://dc.lft.to/lastmile_qr_scan"}, "name": "5b3175363cad5a10cbc36cdef38e4ce7", "is_reserved": 0}, {"is_disabled": 0, "fusion_lon": 0.0, "fusion_lat": 0.0, "lat": 38.89969133333334, "type": "electric_scooter", "lon": -77.055804, "bike_id": "55da0a3c182eb8238a87b59ef3d7bcc6", "rental_uris": {"android": "https://dc.lft.to/lastmile_qr_scan", "ios": "https://dc.lft.to/lastmile_qr_scan"}, "name": "55da0a3c182eb8238a87b59ef3d7bcc6", "is_reserved": 0}, {"is_disabled": 0, "fusion_lon": 0.0, "fusion_lat": 0.0, "lat": 38.91711133333333, "type": "electric_scooter", "lon": -77.03421583333333, "bike_id": "99fe30fe32fcfef28738ef380e1b6c86", "rental_uris": {"android": "https://dc.lft.to/lastmile_qr_scan", "ios": "https://dc.lft.to/lastmile_qr_scan"}, "name": "99fe30fe32fcfef28738ef380e1b6c86", "is_reserved": 0}, {"is_disabled": 0, "fusion_lon": 0.0, "fusion_lat": 0.0, "lat": 38.9522305, "type": "electric_scooter", "lon": -77.02760366666666, "bike_id": "c25be467b87593e58bdf08918cb1d0dc", "rental_uris": {"android": "https://dc.lft.to/lastmile_qr_scan", "ios": "https://dc.lft.to/lastmile_qr_scan"}, "name": "c25be467b87593e58bdf08918cb1d0dc", "is_reserved": 0}, {"is_disabled": 0, "fusion_lon": 0.0, "fusion_lat": 0.0, "lat": 38.908465666666665, "type": "electric_scooter", "lon": -77.04167, "bike_id": "8c9c173fe0f589ac7f1166570a93e6a5", "rental_uris": {"android": "https://dc.lft.to/lastmile_qr_scan", "ios": "https://dc.lft.to/lastmile_qr_scan"}, "name": "8c9c173fe0f589ac7f1166570a93e6a5", "is_reserved": 0}, {"is_disabled": 0, "fusion_lon": 0.0, "fusion_lat": 0.0, "lat": 38.92734083333333, "type": "electric_bike", "lon": -76.99362083333334, "bike_id": "44cc777b28a82d94904ed3537a105180", "rental_uris": {"android": "https://dc.lft.to/lastmile_qr_scan", "ios": "https://dc.lft.to/lastmile_qr_scan"}, "name": "44cc777b28a82d94904ed3537a105180", "is_reserved": 0}, {"is_disabled": 0, "fusion_lon": 0.0, "fusion_lat": 0.0, "lat": 38.9026485, "type": "electric_scooter", "lon": -77.03435783333333, "bike_id": "77b1c834c08dde9a5eacf4a41c1d8ea2", "rental_uris": {"android": "https://dc.lft.to/lastmile_qr_scan", "ios": "https://dc.lft.to/lastmile_qr_scan"}, "name": "77b1c834c08dde9a5eacf4a41c1d8ea2", "is_reserved": 0}, {"is_disabled": 0, "fusion_lon": 0.0, "fusion_lat": 0.0, "lat": 38.92017716666667, "type": "electric_bike", "lon": -76.97300583333333, "bike_id": "4494cd6523311145412848ca7cda7410", "rental_uris": {"android": "https://dc.lft.to/lastmile_qr_scan", "ios": "https://dc.lft.to/lastmile_qr_scan"}, "name": "4494cd6523311145412848ca7cda7410", "is_reserved": 0}, {"is_disabled": 0, "fusion_lon": 0.0, "fusion_lat": 0.0, "lat": 38.89948533333333, "type": "electric_scooter", "lon": -77.04033766666667, "bike_id": "2b9fa7625880a586be2bb42bc12fe890", "rental_uris": {"android": "https://dc.lft.to/lastmile_qr_scan", "ios": "https://dc.lft.to/lastmile_qr_scan"}, "name": "2b9fa7625880a586be2bb42bc12fe890", "is_reserved": 0}, {"is_disabled": 0, "fusion_lon": 0.0, "fusion_lat": 0.0, "lat": 38.85973966666667, "type": "electric_scooter", "lon": -76.98415033333333, "bike_id": "b7f9fc2f559cf7ae3375aed310e0e4e0", "rental_uris": {"android": "https://dc.lft.to/lastmile_qr_scan", "ios": "https://dc.lft.to/lastmile_qr_scan"}, "name": "b7f9fc2f559cf7ae3375aed310e0e4e0", "is_reserved": 0}, {"is_disabled": 0, "fusion_lon": 0.0, "fusion_lat": 0.0, "lat": 38.90542166666667, "type": "electric_scooter", "lon": -77.046664, "bike_id": "2cbc38095cc18bac7bf1cfa85be737cf", "rental_uris": {"android": "https://dc.lft.to/lastmile_qr_scan", "ios": "https://dc.lft.to/lastmile_qr_scan"}, "name": "2cbc38095cc18bac7bf1cfa85be737cf", "is_reserved": 0}, {"is_disabled": 0, "fusion_lon": 0.0, "fusion_lat": 0.0, "lat": 38.90874566666667, "type": "electric_scooter", "lon": -77.04340616666667, "bike_id": "1ec8483c2321ba82ab99bd61578851bd", "rental_uris": {"android": "https://dc.lft.to/lastmile_qr_scan", "ios": "https://dc.lft.to/lastmile_qr_scan"}, "name": "1ec8483c2321ba82ab99bd61578851bd", "is_reserved": 0}, {"is_disabled": 0, "fusion_lon": 0.0, "fusion_lat": 0.0, "lat": 38.89541633333333, "type": "electric_scooter", "lon": -77.0283685, "bike_id": "c200ce7b210047cf834abbdab4ee6c43", "rental_uris": {"android": "https://dc.lft.to/lastmile_qr_scan", "ios": "https://dc.lft.to/lastmile_qr_scan"}, "name": "c200ce7b210047cf834abbdab4ee6c43", "is_reserved": 0}, {"is_disabled": 0, "fusion_lon": 0.0, "fusion_lat": 0.0, "lat": 39.000092333333335, "type": "electric_bike", "lon": -76.87287133333334, "bike_id": "184cc0eb7f50e19960dd127ddec040f6", "rental_uris": {"android": "https://dc.lft.to/lastmile_qr_scan", "ios": "https://dc.lft.to/lastmile_qr_scan"}, "name": "184cc0eb7f50e19960dd127ddec040f6", "is_reserved": 0}, {"is_disabled": 0, "fusion_lon": 0.0, "fusion_lat": 0.0, "lat": 38.82873166666667, "type": "electric_bike", "lon": -77.1121885, "bike_id": "8402049b2c086e84bebc895ccbab1a22", "rental_uris": {"android": "https://dc.lft.to/lastmile_qr_scan", "ios": "https://dc.lft.to/lastmile_qr_scan"}, "name": "8402049b2c086e84bebc895ccbab1a22", "is_reserved": 0}, {"is_disabled": 0, "fusion_lon": 0.0, "fusion_lat": 0.0, "lat": 38.926078333333336, "type": "electric_scooter", "lon": -77.021586, "bike_id": "be91c4914ce01aeddf8c1024c76308ab", "rental_uris": {"android": "https://dc.lft.to/lastmile_qr_scan", "ios": "https://dc.lft.to/lastmile_qr_scan"}, "name": "be91c4914ce01aeddf8c1024c76308ab", "is_reserved": 0}, {"is_disabled": 0, "fusion_lon": 0.0, "fusion_lat": 0.0, "lat": 38.9033655, "type": "electric_scooter", "lon": -77.0216185, "bike_id": "34af24e2e28cb5cd1036cb5aa65f24ad", "rental_uris": {"android": "https://dc.lft.to/lastmile_qr_scan", "ios": "https://dc.lft.to/lastmile_qr_scan"}, "name": "34af24e2e28cb5cd1036cb5aa65f24ad", "is_reserved": 0}, {"is_disabled": 0, "fusion_lon": 0.0, "fusion_lat": 0.0, "lat": 38.914158666666665, "type": "electric_scooter", "lon": -77.03201666666666, "bike_id": "5c9714062b5cb72112b9c1dac8f31755", "rental_uris": {"android": "https://dc.lft.to/lastmile_qr_scan", "ios": "https://dc.lft.to/lastmile_qr_scan"}, "name": "5c9714062b5cb72112b9c1dac8f31755", "is_reserved": 0}, {"is_disabled": 0, "fusion_lon": 0.0, "fusion_lat": 0.0, "lat": 38.90967233333333, "type": "electric_scooter", "lon": -77.01106283333333, "bike_id": "71bad6ae1850259073b285c1347b4635", "rental_uris": {"android": "https://dc.lft.to/lastmile_qr_scan", "ios": "https://dc.lft.to/lastmile_qr_scan"}, "name": "71bad6ae1850259073b285c1347b4635", "is_reserved": 0}, {"is_disabled": 0, "fusion_lon": 0.0, "fusion_lat": 0.0, "lat": 38.9124085, "type": "electric_scooter", "lon": -77.02236783333333, "bike_id": "c7a5433a9f591ab651923889cd0c8e8e", "rental_uris": {"android": "https://dc.lft.to/lastmile_qr_scan", "ios": "https://dc.lft.to/lastmile_qr_scan"}, "name": "c7a5433a9f591ab651923889cd0c8e8e", "is_reserved": 0}, {"is_disabled": 0, "fusion_lon": 0.0, "fusion_lat": 0.0, "lat": 38.910353, "type": "electric_scooter", "lon": -77.042606, "bike_id": "95fa73725e7867a1d303be275da3a005", "rental_uris": {"android": "https://dc.lft.to/lastmile_qr_scan", "ios": "https://dc.lft.to/lastmile_qr_scan"}, "name": "95fa73725e7867a1d303be275da3a005", "is_reserved": 0}, {"is_disabled": 0, "fusion_lon": 0.0, "fusion_lat": 0.0, "lat": 38.92302733333333, "type": "electric_scooter", "lon": -77.04736933333334, "bike_id": "715aba10e7143811af160244a2fa9273", "rental_uris": {"android": "https://dc.lft.to/lastmile_qr_scan", "ios": "https://dc.lft.to/lastmile_qr_scan"}, "name": "715aba10e7143811af160244a2fa9273", "is_reserved": 0}, {"is_disabled": 0, "fusion_lon": 0.0, "fusion_lat": 0.0, "lat": 38.91185183333333, "type": "electric_scooter", "lon": -77.03210766666666, "bike_id": "f38973b212ee66f642501e101659e2c9", "rental_uris": {"android": "https://dc.lft.to/lastmile_qr_scan", "ios": "https://dc.lft.to/lastmile_qr_scan"}, "name": "f38973b212ee66f642501e101659e2c9", "is_reserved": 0}, {"is_disabled": 0, "fusion_lon": 0.0, "fusion_lat": 0.0, "lat": 38.92466683333333, "type": "electric_scooter", "lon": -77.03954133333333, "bike_id": "9c99e12c4a80d405850afc3b6db067b5", "rental_uris": {"android": "https://dc.lft.to/lastmile_qr_scan", "ios": "https://dc.lft.to/lastmile_qr_scan"}, "name": "9c99e12c4a80d405850afc3b6db067b5", "is_reserved": 0}, {"is_disabled": 0, "fusion_lon": 0.0, "fusion_lat": 0.0, "lat": 38.84432833333334, "type": "electric_scooter", "lon": -76.99781933333334, "bike_id": "b7d14ee3d5adbbaab95367222d8e3109", "rental_uris": {"android": "https://dc.lft.to/lastmile_qr_scan", "ios": "https://dc.lft.to/lastmile_qr_scan"}, "name": "b7d14ee3d5adbbaab95367222d8e3109", "is_reserved": 0}, {"is_disabled": 0, "fusion_lon": 0.0, "fusion_lat": 0.0, "lat": 38.92809166666667, "type": "electric_scooter", "lon": -77.0141275, "bike_id": "465287fd19ff69d1d8cf51762bbaad1e", "rental_uris": {"android": "https://dc.lft.to/lastmile_qr_scan", "ios": "https://dc.lft.to/lastmile_qr_scan"}, "name": "465287fd19ff69d1d8cf51762bbaad1e", "is_reserved": 0}, {"is_disabled": 0, "fusion_lon": 0.0, "fusion_lat": 0.0, "lat": 38.900709166666665, "type": "electric_scooter", "lon": -77.00202066666667, "bike_id": "45b51736912d012b4826f5c30dee6ee6", "rental_uris": {"android": "https://dc.lft.to/lastmile_qr_scan", "ios": "https://dc.lft.to/lastmile_qr_scan"}, "name": "45b51736912d012b4826f5c30dee6ee6", "is_reserved": 0}, {"is_disabled": 0, "fusion_lon": 0.0, "fusion_lat": 0.0, "lat": 38.935271166666666, "type": "electric_scooter", "lon": -77.02361933333333, "bike_id": "5bff1c349cb8fbfc9d1b665aea4bef08", "rental_uris": {"android": "https://dc.lft.to/lastmile_qr_scan", "ios": "https://dc.lft.to/lastmile_qr_scan"}, "name": "5bff1c349cb8fbfc9d1b665aea4bef08", "is_reserved": 0}, {"is_disabled": 0, "fusion_lon": 0.0, "fusion_lat": 0.0, "lat": 38.9350235, "type": "electric_scooter", "lon": -77.08216466666667, "bike_id": "b865b9d98b66eb126afa3b57b98c9ac9", "rental_uris": {"android": "https://dc.lft.to/lastmile_qr_scan", "ios": "https://dc.lft.to/lastmile_qr_scan"}, "name": "b865b9d98b66eb126afa3b57b98c9ac9", "is_reserved": 0}, {"is_disabled": 0, "fusion_lon": 0.0, "fusion_lat": 0.0, "lat": 38.89230716666667, "type": "electric_bike", "lon": -76.95222166666667, "bike_id": "ffc3f8a40feb84feaaaee2ec13526e3e", "rental_uris": {"android": "https://dc.lft.to/lastmile_qr_scan", "ios": "https://dc.lft.to/lastmile_qr_scan"}, "name": "ffc3f8a40feb84feaaaee2ec13526e3e", "is_reserved": 0}, {"is_disabled": 0, "fusion_lon": 0.0, "fusion_lat": 0.0, "lat": 38.89449883333333, "type": "electric_scooter", "lon": -77.02116933333333, "bike_id": "a42d791628657e6e303a50005fea9e02", "rental_uris": {"android": "https://dc.lft.to/lastmile_qr_scan", "ios": "https://dc.lft.to/lastmile_qr_scan"}, "name": "a42d791628657e6e303a50005fea9e02", "is_reserved": 0}, {"is_disabled": 0, "fusion_lon": 0.0, "fusion_lat": 0.0, "lat": 38.919849166666665, "type": "electric_scooter", "lon": -77.032232, "bike_id": "9acd2bfc694d5f83a3a853305080b31f", "rental_uris": {"android": "https://dc.lft.to/lastmile_qr_scan", "ios": "https://dc.lft.to/lastmile_qr_scan"}, "name": "9acd2bfc694d5f83a3a853305080b31f", "is_reserved": 0}, {"is_disabled": 0, "fusion_lon": 0.0, "fusion_lat": 0.0, "lat": 38.908496166666666, "type": "electric_scooter", "lon": -77.07160716666667, "bike_id": "4c028bf08dd4834853ecde09ab22eb96", "rental_uris": {"android": "https://dc.lft.to/lastmile_qr_scan", "ios": "https://dc.lft.to/lastmile_qr_scan"}, "name": "4c028bf08dd4834853ecde09ab22eb96", "is_reserved": 0}, {"is_disabled": 0, "fusion_lon": 0.0, "fusion_lat": 0.0, "lat": 38.92048783333333, "type": "electric_scooter", "lon": -77.04265533333333, "bike_id": "94058b2b1eff28bdae054f59b03d997c", "rental_uris": {"android": "https://dc.lft.to/lastmile_qr_scan", "ios": "https://dc.lft.to/lastmile_qr_scan"}, "name": "94058b2b1eff28bdae054f59b03d997c", "is_reserved": 0}, {"is_disabled": 0, "fusion_lon": 0.0, "fusion_lat": 0.0, "lat": 38.9140985, "type": "electric_scooter", "lon": -77.03095333333333, "bike_id": "9890b5259c6e2b4c79e4fa6dc3767369", "rental_uris": {"android": "https://dc.lft.to/lastmile_qr_scan", "ios": "https://dc.lft.to/lastmile_qr_scan"}, "name": "9890b5259c6e2b4c79e4fa6dc3767369", "is_reserved": 0}, {"is_disabled": 0, "fusion_lon": 0.0, "fusion_lat": 0.0, "lat": 38.938561166666666, "type": "electric_scooter", "lon": -77.0265365, "bike_id": "650942867c902104236f339f3018fe52", "rental_uris": {"android": "https://dc.lft.to/lastmile_qr_scan", "ios": "https://dc.lft.to/lastmile_qr_scan"}, "name": "650942867c902104236f339f3018fe52", "is_reserved": 0}, {"is_disabled": 0, "fusion_lon": 0.0, "fusion_lat": 0.0, "lat": 38.8853415, "type": "electric_scooter", "lon": -76.996178, "bike_id": "0782c2c4c02fb73df9442cbf935ce348", "rental_uris": {"android": "https://dc.lft.to/lastmile_qr_scan", "ios": "https://dc.lft.to/lastmile_qr_scan"}, "name": "0782c2c4c02fb73df9442cbf935ce348", "is_reserved": 0}, {"is_disabled": 0, "fusion_lon": 0.0, "fusion_lat": 0.0, "lat": 38.82465833333333, "type": "electric_bike", "lon": -77.07081566666666, "bike_id": "1788e406e174ea5060eb1ea9dbc79d66", "rental_uris": {"android": "https://dc.lft.to/lastmile_qr_scan", "ios": "https://dc.lft.to/lastmile_qr_scan"}, "name": "1788e406e174ea5060eb1ea9dbc79d66", "is_reserved": 0}, {"is_disabled": 0, "fusion_lon": 0.0, "fusion_lat": 0.0, "lat": 38.9258715, "type": "electric_bike", "lon": -76.88903183333333, "bike_id": "e5560af815ed9052494df47c792256ee", "rental_uris": {"android": "https://dc.lft.to/lastmile_qr_scan", "ios": "https://dc.lft.to/lastmile_qr_scan"}, "name": "e5560af815ed9052494df47c792256ee", "is_reserved": 0}, {"is_disabled": 0, "fusion_lon": 0.0, "fusion_lat": 0.0, "lat": 38.916908666666664, "type": "electric_scooter", "lon": -77.03641533333334, "bike_id": "38f5ffbee27692d93cb57b5f1fda5be8", "rental_uris": {"android": "https://dc.lft.to/lastmile_qr_scan", "ios": "https://dc.lft.to/lastmile_qr_scan"}, "name": "38f5ffbee27692d93cb57b5f1fda5be8", "is_reserved": 0}, {"is_disabled": 0, "fusion_lon": 0.0, "fusion_lat": 0.0, "lat": 38.91547766666667, "type": "electric_scooter", "lon": -77.038564, "bike_id": "e3087a29b65befe349db62a6cdfb7323", "rental_uris": {"android": "https://dc.lft.to/lastmile_qr_scan", "ios": "https://dc.lft.to/lastmile_qr_scan"}, "name": "e3087a29b65befe349db62a6cdfb7323", "is_reserved": 0}, {"is_disabled": 0, "fusion_lon": 0.0, "fusion_lat": 0.0, "lat": 38.928975, "type": "electric_scooter", "lon": -77.0234055, "bike_id": "69ad9c364423f251cbe1ef61e80964fc", "rental_uris": {"android": "https://dc.lft.to/lastmile_qr_scan", "ios": "https://dc.lft.to/lastmile_qr_scan"}, "name": "69ad9c364423f251cbe1ef61e80964fc", "is_reserved": 0}, {"is_disabled": 0, "fusion_lon": 0.0, "fusion_lat": 0.0, "lat": 38.892489166666664, "type": "electric_scooter", "lon": -76.9883165, "bike_id": "1b4443cf5b123fc4b8007a15d62c7cca", "rental_uris": {"android": "https://dc.lft.to/lastmile_qr_scan", "ios": "https://dc.lft.to/lastmile_qr_scan"}, "name": "1b4443cf5b123fc4b8007a15d62c7cca", "is_reserved": 0}, {"is_disabled": 0, "fusion_lon": 0.0, "fusion_lat": 0.0, "lat": 38.913326166666664, "type": "electric_scooter", "lon": -77.03250666666666, "bike_id": "316c7f280753f6fa8046bb2c773cbd88", "rental_uris": {"android": "https://dc.lft.to/lastmile_qr_scan", "ios": "https://dc.lft.to/lastmile_qr_scan"}, "name": "316c7f280753f6fa8046bb2c773cbd88", "is_reserved": 0}, {"is_disabled": 0, "fusion_lon": 0.0, "fusion_lat": 0.0, "lat": 38.91267883333333, "type": "electric_scooter", "lon": -77.022365, "bike_id": "4cf8725aa6f5c4646c31b40a6197c934", "rental_uris": {"android": "https://dc.lft.to/lastmile_qr_scan", "ios": "https://dc.lft.to/lastmile_qr_scan"}, "name": "4cf8725aa6f5c4646c31b40a6197c934", "is_reserved": 0}, {"is_disabled": 0, "fusion_lon": 0.0, "fusion_lat": 0.0, "lat": 38.876589833333334, "type": "electric_scooter", "lon": -77.015625, "bike_id": "189e608d1a321b18e5df4f024dfef8ca", "rental_uris": {"android": "https://dc.lft.to/lastmile_qr_scan", "ios": "https://dc.lft.to/lastmile_qr_scan"}, "name": "189e608d1a321b18e5df4f024dfef8ca", "is_reserved": 0}, {"is_disabled": 0, "fusion_lon": 0.0, "fusion_lat": 0.0, "lat": 39.02998816666667, "type": "electric_bike", "lon": -77.10651916666667, "bike_id": "408523bc9c34f318f027ebdb3cb7d2f7", "rental_uris": {"android": "https://dc.lft.to/lastmile_qr_scan", "ios": "https://dc.lft.to/lastmile_qr_scan"}, "name": "408523bc9c34f318f027ebdb3cb7d2f7", "is_reserved": 0}, {"is_disabled": 0, "fusion_lon": 0.0, "fusion_lat": 0.0, "lat": 38.8990695, "type": "electric_scooter", "lon": -76.933892, "bike_id": "b2424c7afca7212075833a829e8abc51", "rental_uris": {"android": "https://dc.lft.to/lastmile_qr_scan", "ios": "https://dc.lft.to/lastmile_qr_scan"}, "name": "b2424c7afca7212075833a829e8abc51", "is_reserved": 0}, {"is_disabled": 0, "fusion_lon": 0.0, "fusion_lat": 0.0, "lat": 38.95202866666666, "type": "electric_scooter", "lon": -77.02735216666666, "bike_id": "9ded2b11441d61729f82632d6c18603b", "rental_uris": {"android": "https://dc.lft.to/lastmile_qr_scan", "ios": "https://dc.lft.to/lastmile_qr_scan"}, "name": "9ded2b11441d61729f82632d6c18603b", "is_reserved": 0}, {"is_disabled": 0, "fusion_lon": 0.0, "fusion_lat": 0.0, "lat": 38.96441933333333, "type": "electric_bike", "lon": -76.977265, "bike_id": "826d9b6456899e09ee2a1e260e285006", "rental_uris": {"android": "https://dc.lft.to/lastmile_qr_scan", "ios": "https://dc.lft.to/lastmile_qr_scan"}, "name": "826d9b6456899e09ee2a1e260e285006", "is_reserved": 0}, {"is_disabled": 0, "fusion_lon": 0.0, "fusion_lat": 0.0, "lat": 38.900124, "type": "electric_scooter", "lon": -77.004715, "bike_id": "a739c35ef3aa77fd5875cb16e179c9f0", "rental_uris": {"android": "https://dc.lft.to/lastmile_qr_scan", "ios": "https://dc.lft.to/lastmile_qr_scan"}, "name": "a739c35ef3aa77fd5875cb16e179c9f0", "is_reserved": 0}, {"is_disabled": 0, "fusion_lon": 0.0, "fusion_lat": 0.0, "lat": 38.913199, "type": "electric_scooter", "lon": -77.02713533333333, "bike_id": "2e20a35532774823f228d48a3acbd0b2", "rental_uris": {"android": "https://dc.lft.to/lastmile_qr_scan", "ios": "https://dc.lft.to/lastmile_qr_scan"}, "name": "2e20a35532774823f228d48a3acbd0b2", "is_reserved": 0}, {"is_disabled": 0, "fusion_lon": 0.0, "fusion_lat": 0.0, "lat": 38.842893333333336, "type": "electric_scooter", "lon": -76.99948016666667, "bike_id": "b73801cb3411c40059745a16e1075a81", "rental_uris": {"android": "https://dc.lft.to/lastmile_qr_scan", "ios": "https://dc.lft.to/lastmile_qr_scan"}, "name": "b73801cb3411c40059745a16e1075a81", "is_reserved": 0}, {"is_disabled": 0, "fusion_lon": 0.0, "fusion_lat": 0.0, "lat": 38.850903, "type": "electric_bike", "lon": -76.95697033333333, "bike_id": "217459878242deea0cd955ad1776977f", "rental_uris": {"android": "https://dc.lft.to/lastmile_qr_scan", "ios": "https://dc.lft.to/lastmile_qr_scan"}, "name": "217459878242deea0cd955ad1776977f", "is_reserved": 0}, {"is_disabled": 0, "fusion_lon": 0.0, "fusion_lat": 0.0, "lat": 38.942688833333335, "type": "electric_scooter", "lon": -77.03259883333334, "bike_id": "dc0be8e3fc79f36843255a096779e671", "rental_uris": {"android": "https://dc.lft.to/lastmile_qr_scan", "ios": "https://dc.lft.to/lastmile_qr_scan"}, "name": "dc0be8e3fc79f36843255a096779e671", "is_reserved": 0}, {"is_disabled": 0, "fusion_lon": 0.0, "fusion_lat": 0.0, "lat": 38.897138, "type": "electric_scooter", "lon": -77.02142166666667, "bike_id": "6620580ec8c52f0ee9f4dba43e3c71a1", "rental_uris": {"android": "https://dc.lft.to/lastmile_qr_scan", "ios": "https://dc.lft.to/lastmile_qr_scan"}, "name": "6620580ec8c52f0ee9f4dba43e3c71a1", "is_reserved": 0}, {"is_disabled": 0, "fusion_lon": 0.0, "fusion_lat": 0.0, "lat": 38.892414333333335, "type": "electric_scooter", "lon": -77.03351833333333, "bike_id": "76300ad2346dacd5c11456b662553e45", "rental_uris": {"android": "https://dc.lft.to/lastmile_qr_scan", "ios": "https://dc.lft.to/lastmile_qr_scan"}, "name": "76300ad2346dacd5c11456b662553e45", "is_reserved": 0}, {"is_disabled": 0, "fusion_lon": 0.0, "fusion_lat": 0.0, "lat": 38.948844333333334, "type": "electric_bike", "lon": -76.96381983333333, "bike_id": "6ef08b9280ad5d3b5998e2b694cb9b8e", "rental_uris": {"android": "https://dc.lft.to/lastmile_qr_scan", "ios": "https://dc.lft.to/lastmile_qr_scan"}, "name": "6ef08b9280ad5d3b5998e2b694cb9b8e", "is_reserved": 0}, {"is_disabled": 0, "fusion_lon": 0.0, "fusion_lat": 0.0, "lat": 38.93223783333333, "type": "electric_scooter", "lon": -76.99933416666667, "bike_id": "e67dcead75cc4d667200c785819fc6dc", "rental_uris": {"android": "https://dc.lft.to/lastmile_qr_scan", "ios": "https://dc.lft.to/lastmile_qr_scan"}, "name": "e67dcead75cc4d667200c785819fc6dc", "is_reserved": 0}, {"is_disabled": 0, "fusion_lon": 0.0, "fusion_lat": 0.0, "lat": 38.953018166666666, "type": "electric_scooter", "lon": -77.06977866666666, "bike_id": "bd981c7925512c9089df9a29bd668fbc", "rental_uris": {"android": "https://dc.lft.to/lastmile_qr_scan", "ios": "https://dc.lft.to/lastmile_qr_scan"}, "name": "bd981c7925512c9089df9a29bd668fbc", "is_reserved": 0}, {"is_disabled": 0, "fusion_lon": 0.0, "fusion_lat": 0.0, "lat": 38.8850025, "type": "electric_scooter", "lon": -77.020936, "bike_id": "1fa4e19d8736a5f89ae0a9d7e696fb85", "rental_uris": {"android": "https://dc.lft.to/lastmile_qr_scan", "ios": "https://dc.lft.to/lastmile_qr_scan"}, "name": "1fa4e19d8736a5f89ae0a9d7e696fb85", "is_reserved": 0}, {"is_disabled": 0, "fusion_lon": 0.0, "fusion_lat": 0.0, "lat": 38.888336833333334, "type": "electric_scooter", "lon": -76.91779283333334, "bike_id": "5b50d89b48cb07b11bed9b3cd70751a3", "rental_uris": {"android": "https://dc.lft.to/lastmile_qr_scan", "ios": "https://dc.lft.to/lastmile_qr_scan"}, "name": "5b50d89b48cb07b11bed9b3cd70751a3", "is_reserved": 0}, {"is_disabled": 0, "fusion_lon": 0.0, "fusion_lat": 0.0, "lat": 38.9481055, "type": "electric_bike", "lon": -77.02978416666667, "bike_id": "ffa406c0c90de010b44d698c8bb6f05a", "rental_uris": {"android": "https://dc.lft.to/lastmile_qr_scan", "ios": "https://dc.lft.to/lastmile_qr_scan"}, "name": "ffa406c0c90de010b44d698c8bb6f05a", "is_reserved": 0}, {"is_disabled": 0, "fusion_lon": 0.0, "fusion_lat": 0.0, "lat": 38.917625666666666, "type": "electric_scooter", "lon": -77.04041783333334, "bike_id": "3353871e8269a2b3b1e4fcf7ee718e33", "rental_uris": {"android": "https://dc.lft.to/lastmile_qr_scan", "ios": "https://dc.lft.to/lastmile_qr_scan"}, "name": "3353871e8269a2b3b1e4fcf7ee718e33", "is_reserved": 0}, {"is_disabled": 0, "fusion_lon": 0.0, "fusion_lat": 0.0, "lat": 38.90502133333333, "type": "electric_bike", "lon": -77.06016, "bike_id": "8b31706c4b9deb8dc40df979366701a0", "rental_uris": {"android": "https://dc.lft.to/lastmile_qr_scan", "ios": "https://dc.lft.to/lastmile_qr_scan"}, "name": "8b31706c4b9deb8dc40df979366701a0", "is_reserved": 0}, {"is_disabled": 0, "fusion_lon": 0.0, "fusion_lat": 0.0, "lat": 38.917062666666666, "type": "electric_scooter", "lon": -77.0298605, "bike_id": "3216eb527c4635ee7c7bf96650514825", "rental_uris": {"android": "https://dc.lft.to/lastmile_qr_scan", "ios": "https://dc.lft.to/lastmile_qr_scan"}, "name": "3216eb527c4635ee7c7bf96650514825", "is_reserved": 0}, {"is_disabled": 0, "fusion_lon": 0.0, "fusion_lat": 0.0, "lat": 38.937029, "type": "electric_scooter", "lon": -77.0559645, "bike_id": "1f9651ec15f2c31fab3f0e8e30adad1f", "rental_uris": {"android": "https://dc.lft.to/lastmile_qr_scan", "ios": "https://dc.lft.to/lastmile_qr_scan"}, "name": "1f9651ec15f2c31fab3f0e8e30adad1f", "is_reserved": 0}, {"is_disabled": 0, "fusion_lon": 0.0, "fusion_lat": 0.0, "lat": 38.885908, "type": "electric_scooter", "lon": -76.997797, "bike_id": "928e6980df421a85728ac1e137a71147", "rental_uris": {"android": "https://dc.lft.to/lastmile_qr_scan", "ios": "https://dc.lft.to/lastmile_qr_scan"}, "name": "928e6980df421a85728ac1e137a71147", "is_reserved": 0}, {"is_disabled": 0, "fusion_lon": 0.0, "fusion_lat": 0.0, "lat": 38.90275966666667, "type": "electric_scooter", "lon": -77.03862666666667, "bike_id": "43435200a1e18959a761e61d7ece18a2", "rental_uris": {"android": "https://dc.lft.to/lastmile_qr_scan", "ios": "https://dc.lft.to/lastmile_qr_scan"}, "name": "43435200a1e18959a761e61d7ece18a2", "is_reserved": 0}, {"is_disabled": 0, "fusion_lon": 0.0, "fusion_lat": 0.0, "lat": 38.92849733333333, "type": "electric_scooter", "lon": -77.013993, "bike_id": "5f38302b04ddc136e182aea38567c660", "rental_uris": {"android": "https://dc.lft.to/lastmile_qr_scan", "ios": "https://dc.lft.to/lastmile_qr_scan"}, "name": "5f38302b04ddc136e182aea38567c660", "is_reserved": 0}, {"is_disabled": 0, "fusion_lon": 0.0, "fusion_lat": 0.0, "lat": 38.967588666666664, "type": "electric_bike", "lon": -77.0916035, "bike_id": "a0be13288e0ac7d95b6f67cc38e92e23", "rental_uris": {"android": "https://dc.lft.to/lastmile_qr_scan", "ios": "https://dc.lft.to/lastmile_qr_scan"}, "name": "a0be13288e0ac7d95b6f67cc38e92e23", "is_reserved": 0}, {"is_disabled": 0, "fusion_lon": 0.0, "fusion_lat": 0.0, "lat": 38.9134285, "type": "electric_scooter", "lon": -77.0276015, "bike_id": "5359ea18d6f12d36400ec8796f960baf", "rental_uris": {"android": "https://dc.lft.to/lastmile_qr_scan", "ios": "https://dc.lft.to/lastmile_qr_scan"}, "name": "5359ea18d6f12d36400ec8796f960baf", "is_reserved": 0}, {"is_disabled": 0, "fusion_lon": 0.0, "fusion_lat": 0.0, "lat": 38.91467516666667, "type": "electric_scooter", "lon": -76.98360516666666, "bike_id": "c73144a8c48ad6e46836a919897eb88a", "rental_uris": {"android": "https://dc.lft.to/lastmile_qr_scan", "ios": "https://dc.lft.to/lastmile_qr_scan"}, "name": "c73144a8c48ad6e46836a919897eb88a", "is_reserved": 0}, {"is_disabled": 0, "fusion_lon": 0.0, "fusion_lat": 0.0, "lat": 38.936074833333336, "type": "electric_scooter", "lon": -77.0372895, "bike_id": "9f1c8a107f8fcbd7f7cedaab0ccc04c0", "rental_uris": {"android": "https://dc.lft.to/lastmile_qr_scan", "ios": "https://dc.lft.to/lastmile_qr_scan"}, "name": "9f1c8a107f8fcbd7f7cedaab0ccc04c0", "is_reserved": 0}, {"is_disabled": 0, "fusion_lon": 0.0, "fusion_lat": 0.0, "lat": 38.91687266666667, "type": "electric_scooter", "lon": -77.02435416666667, "bike_id": "c52c9a1743c7ccf7f762d2852f7070f0", "rental_uris": {"android": "https://dc.lft.to/lastmile_qr_scan", "ios": "https://dc.lft.to/lastmile_qr_scan"}, "name": "c52c9a1743c7ccf7f762d2852f7070f0", "is_reserved": 0}, {"is_disabled": 0, "fusion_lon": 0.0, "fusion_lat": 0.0, "lat": 38.85803333333333, "type": "electric_scooter", "lon": -76.98654516666667, "bike_id": "c38548c8983121874f391bf81bab7cfc", "rental_uris": {"android": "https://dc.lft.to/lastmile_qr_scan", "ios": "https://dc.lft.to/lastmile_qr_scan"}, "name": "c38548c8983121874f391bf81bab7cfc", "is_reserved": 0}, {"is_disabled": 0, "fusion_lon": 0.0, "fusion_lat": 0.0, "lat": 38.8472595, "type": "electric_bike", "lon": -77.095306, "bike_id": "46ef1279d2760a4a72f9bffb3017d78e", "rental_uris": {"android": "https://dc.lft.to/lastmile_qr_scan", "ios": "https://dc.lft.to/lastmile_qr_scan"}, "name": "46ef1279d2760a4a72f9bffb3017d78e", "is_reserved": 0}, {"is_disabled": 0, "fusion_lon": 0.0, "fusion_lat": 0.0, "lat": 38.916109166666665, "type": "electric_scooter", "lon": -77.03641383333333, "bike_id": "e937f83329ad7721fcc7e4a4c037dfa7", "rental_uris": {"android": "https://dc.lft.to/lastmile_qr_scan", "ios": "https://dc.lft.to/lastmile_qr_scan"}, "name": "e937f83329ad7721fcc7e4a4c037dfa7", "is_reserved": 0}, {"is_disabled": 0, "fusion_lon": 0.0, "fusion_lat": 0.0, "lat": 38.8631425, "type": "electric_scooter", "lon": -76.99044933333333, "bike_id": "66dce4a6323faeb0139de714c417bdf6", "rental_uris": {"android": "https://dc.lft.to/lastmile_qr_scan", "ios": "https://dc.lft.to/lastmile_qr_scan"}, "name": "66dce4a6323faeb0139de714c417bdf6", "is_reserved": 0}, {"is_disabled": 0, "fusion_lon": 0.0, "fusion_lat": 0.0, "lat": 38.888515, "type": "electric_bike", "lon": -77.032384, "bike_id": "202eb3b0915fe085999a96dd5906cdfa", "rental_uris": {"android": "https://dc.lft.to/lastmile_qr_scan", "ios": "https://dc.lft.to/lastmile_qr_scan"}, "name": "202eb3b0915fe085999a96dd5906cdfa", "is_reserved": 0}, {"is_disabled": 0, "fusion_lon": 0.0, "fusion_lat": 0.0, "lat": 38.83599816666667, "type": "electric_scooter", "lon": -77.00365583333334, "bike_id": "4ad9f1a34d69f79af098336d9ceb6a4e", "rental_uris": {"android": "https://dc.lft.to/lastmile_qr_scan", "ios": "https://dc.lft.to/lastmile_qr_scan"}, "name": "4ad9f1a34d69f79af098336d9ceb6a4e", "is_reserved": 0}, {"is_disabled": 0, "fusion_lon": 0.0, "fusion_lat": 0.0, "lat": 38.9111535, "type": "electric_scooter", "lon": -77.04496933333333, "bike_id": "1b96403884dad9306f1843e66b71d043", "rental_uris": {"android": "https://dc.lft.to/lastmile_qr_scan", "ios": "https://dc.lft.to/lastmile_qr_scan"}, "name": "1b96403884dad9306f1843e66b71d043", "is_reserved": 0}, {"is_disabled": 0, "fusion_lon": 0.0, "fusion_lat": 0.0, "lat": 38.900710333333336, "type": "electric_scooter", "lon": -77.00201716666666, "bike_id": "42c05d25393336e7607e50167eab66ab", "rental_uris": {"android": "https://dc.lft.to/lastmile_qr_scan", "ios": "https://dc.lft.to/lastmile_qr_scan"}, "name": "42c05d25393336e7607e50167eab66ab", "is_reserved": 0}, {"is_disabled": 0, "fusion_lon": 0.0, "fusion_lat": 0.0, "lat": 38.89471366666667, "type": "electric_scooter", "lon": -77.02106516666667, "bike_id": "f85fc5cbecd6e82958186e5a830889d6", "rental_uris": {"android": "https://dc.lft.to/lastmile_qr_scan", "ios": "https://dc.lft.to/lastmile_qr_scan"}, "name": "f85fc5cbecd6e82958186e5a830889d6", "is_reserved": 0}, {"is_disabled": 0, "fusion_lon": 0.0, "fusion_lat": 0.0, "lat": 38.9053795, "type": "electric_scooter", "lon": -77.05704166666666, "bike_id": "39e160227a2afb12c061b742ed855ad8", "rental_uris": {"android": "https://dc.lft.to/lastmile_qr_scan", "ios": "https://dc.lft.to/lastmile_qr_scan"}, "name": "39e160227a2afb12c061b742ed855ad8", "is_reserved": 0}, {"is_disabled": 0, "fusion_lon": 0.0, "fusion_lat": 0.0, "lat": 38.917410833333335, "type": "electric_scooter", "lon": -77.01711283333333, "bike_id": "6ebf67b2b1bc647d445df9036d28e548", "rental_uris": {"android": "https://dc.lft.to/lastmile_qr_scan", "ios": "https://dc.lft.to/lastmile_qr_scan"}, "name": "6ebf67b2b1bc647d445df9036d28e548", "is_reserved": 0}, {"is_disabled": 0, "fusion_lon": 0.0, "fusion_lat": 0.0, "lat": 38.916807166666665, "type": "electric_scooter", "lon": -77.0378095, "bike_id": "ccca9c446027a868638b07ba15447737", "rental_uris": {"android": "https://dc.lft.to/lastmile_qr_scan", "ios": "https://dc.lft.to/lastmile_qr_scan"}, "name": "ccca9c446027a868638b07ba15447737", "is_reserved": 0}, {"is_disabled": 0, "fusion_lon": 0.0, "fusion_lat": 0.0, "lat": 38.92611466666666, "type": "electric_scooter", "lon": -77.02161583333333, "bike_id": "deab25a3771db061ffe3a5a0e5a121aa", "rental_uris": {"android": "https://dc.lft.to/lastmile_qr_scan", "ios": "https://dc.lft.to/lastmile_qr_scan"}, "name": "deab25a3771db061ffe3a5a0e5a121aa", "is_reserved": 0}, {"is_disabled": 0, "fusion_lon": 0.0, "fusion_lat": 0.0, "lat": 38.940378833333334, "type": "electric_scooter", "lon": -77.029039, "bike_id": "42bf73393610aa7992f00a4576a3285f", "rental_uris": {"android": "https://dc.lft.to/lastmile_qr_scan", "ios": "https://dc.lft.to/lastmile_qr_scan"}, "name": "42bf73393610aa7992f00a4576a3285f", "is_reserved": 0}, {"is_disabled": 0, "fusion_lon": 0.0, "fusion_lat": 0.0, "lat": 38.921789, "type": "electric_scooter", "lon": -77.042286, "bike_id": "b1800f6beadc9ce172adc59b804de5f7", "rental_uris": {"android": "https://dc.lft.to/lastmile_qr_scan", "ios": "https://dc.lft.to/lastmile_qr_scan"}, "name": "b1800f6beadc9ce172adc59b804de5f7", "is_reserved": 0}, {"is_disabled": 0, "fusion_lon": 0.0, "fusion_lat": 0.0, "lat": 38.91265216666667, "type": "electric_scooter", "lon": -77.04158483333333, "bike_id": "f65f54c3f3e7467539127883e3ee58de", "rental_uris": {"android": "https://dc.lft.to/lastmile_qr_scan", "ios": "https://dc.lft.to/lastmile_qr_scan"}, "name": "f65f54c3f3e7467539127883e3ee58de", "is_reserved": 0}, {"is_disabled": 0, "fusion_lon": 0.0, "fusion_lat": 0.0, "lat": 38.91980266666667, "type": "electric_scooter", "lon": -76.97317116666666, "bike_id": "104e2c9876ee7a71606134ba5197ded2", "rental_uris": {"android": "https://dc.lft.to/lastmile_qr_scan", "ios": "https://dc.lft.to/lastmile_qr_scan"}, "name": "104e2c9876ee7a71606134ba5197ded2", "is_reserved": 0}, {"is_disabled": 0, "fusion_lon": 0.0, "fusion_lat": 0.0, "lat": 38.89366783333333, "type": "electric_scooter", "lon": -76.978144, "bike_id": "c54ee00538341d75bd8ae16f86917f71", "rental_uris": {"android": "https://dc.lft.to/lastmile_qr_scan", "ios": "https://dc.lft.to/lastmile_qr_scan"}, "name": "c54ee00538341d75bd8ae16f86917f71", "is_reserved": 0}, {"is_disabled": 0, "fusion_lon": 0.0, "fusion_lat": 0.0, "lat": 38.960375666666664, "type": "electric_bike", "lon": -76.92709266666667, "bike_id": "e84a6280f1247f9c497c5bb648d2648f", "rental_uris": {"android": "https://dc.lft.to/lastmile_qr_scan", "ios": "https://dc.lft.to/lastmile_qr_scan"}, "name": "e84a6280f1247f9c497c5bb648d2648f", "is_reserved": 0}, {"is_disabled": 0, "fusion_lon": 0.0, "fusion_lat": 0.0, "lat": 38.895199833333336, "type": "electric_scooter", "lon": -77.00203733333333, "bike_id": "a9ebba18c23d6f9b65581fc03da07551", "rental_uris": {"android": "https://dc.lft.to/lastmile_qr_scan", "ios": "https://dc.lft.to/lastmile_qr_scan"}, "name": "a9ebba18c23d6f9b65581fc03da07551", "is_reserved": 0}, {"is_disabled": 0, "fusion_lon": 0.0, "fusion_lat": 0.0, "lat": 38.8990835, "type": "electric_scooter", "lon": -77.033375, "bike_id": "a169c7b9b6e42bd85cdbf1c7636a35d7", "rental_uris": {"android": "https://dc.lft.to/lastmile_qr_scan", "ios": "https://dc.lft.to/lastmile_qr_scan"}, "name": "a169c7b9b6e42bd85cdbf1c7636a35d7", "is_reserved": 0}, {"is_disabled": 0, "fusion_lon": 0.0, "fusion_lat": 0.0, "lat": 38.85865783333333, "type": "electric_scooter", "lon": -76.9902205, "bike_id": "0470cf983643b5a39936410641182746", "rental_uris": {"android": "https://dc.lft.to/lastmile_qr_scan", "ios": "https://dc.lft.to/lastmile_qr_scan"}, "name": "0470cf983643b5a39936410641182746", "is_reserved": 0}, {"is_disabled": 0, "fusion_lon": 0.0, "fusion_lat": 0.0, "lat": 38.892275, "type": "electric_scooter", "lon": -77.02173416666666, "bike_id": "fbf38a7ccbf10e15a70a6603757be3b4", "rental_uris": {"android": "https://dc.lft.to/lastmile_qr_scan", "ios": "https://dc.lft.to/lastmile_qr_scan"}, "name": "fbf38a7ccbf10e15a70a6603757be3b4", "is_reserved": 0}, {"is_disabled": 0, "fusion_lon": 0.0, "fusion_lat": 0.0, "lat": 38.9181455, "type": "electric_scooter", "lon": -77.02711, "bike_id": "555439adb71e38eaa0ba85eefbd730e7", "rental_uris": {"android": "https://dc.lft.to/lastmile_qr_scan", "ios": "https://dc.lft.to/lastmile_qr_scan"}, "name": "555439adb71e38eaa0ba85eefbd730e7", "is_reserved": 0}, {"is_disabled": 0, "fusion_lon": 0.0, "fusion_lat": 0.0, "lat": 38.91496733333334, "type": "electric_scooter", "lon": -77.06786016666666, "bike_id": "6c8fbd7f9f4591d9a7c47d7d67a88ccd", "rental_uris": {"android": "https://dc.lft.to/lastmile_qr_scan", "ios": "https://dc.lft.to/lastmile_qr_scan"}, "name": "6c8fbd7f9f4591d9a7c47d7d67a88ccd", "is_reserved": 0}, {"is_disabled": 0, "fusion_lon": 0.0, "fusion_lat": 0.0, "lat": 38.914637166666665, "type": "electric_scooter", "lon": -77.03882266666666, "bike_id": "49fcc3d54d6cdd49e930a2722936224b", "rental_uris": {"android": "https://dc.lft.to/lastmile_qr_scan", "ios": "https://dc.lft.to/lastmile_qr_scan"}, "name": "49fcc3d54d6cdd49e930a2722936224b", "is_reserved": 0}, {"is_disabled": 0, "fusion_lon": 0.0, "fusion_lat": 0.0, "lat": 38.9228965, "type": "electric_scooter", "lon": -77.04302066666666, "bike_id": "4e12678d1297e63ccf9cfafff80c4b34", "rental_uris": {"android": "https://dc.lft.to/lastmile_qr_scan", "ios": "https://dc.lft.to/lastmile_qr_scan"}, "name": "4e12678d1297e63ccf9cfafff80c4b34", "is_reserved": 0}, {"is_disabled": 0, "fusion_lon": 0.0, "fusion_lat": 0.0, "lat": 38.911031333333334, "type": "electric_scooter", "lon": -77.0437825, "bike_id": "c41ed36440bbe70910c7f9f99f6040d2", "rental_uris": {"android": "https://dc.lft.to/lastmile_qr_scan", "ios": "https://dc.lft.to/lastmile_qr_scan"}, "name": "c41ed36440bbe70910c7f9f99f6040d2", "is_reserved": 0}, {"is_disabled": 0, "fusion_lon": 0.0, "fusion_lat": 0.0, "lat": 38.93499933333333, "type": "electric_scooter", "lon": -77.0241625, "bike_id": "d85dd173ea2aafcf336553defd7c5566", "rental_uris": {"android": "https://dc.lft.to/lastmile_qr_scan", "ios": "https://dc.lft.to/lastmile_qr_scan"}, "name": "d85dd173ea2aafcf336553defd7c5566", "is_reserved": 0}, {"is_disabled": 0, "fusion_lon": 0.0, "fusion_lat": 0.0, "lat": 38.885029333333335, "type": "electric_scooter", "lon": -77.01717183333334, "bike_id": "b53048da43118106e4da1a5eb3c46e55", "rental_uris": {"android": "https://dc.lft.to/lastmile_qr_scan", "ios": "https://dc.lft.to/lastmile_qr_scan"}, "name": "b53048da43118106e4da1a5eb3c46e55", "is_reserved": 0}, {"is_disabled": 0, "fusion_lon": 0.0, "fusion_lat": 0.0, "lat": 38.84503383333333, "type": "electric_bike", "lon": -76.97213583333334, "bike_id": "c1c422f665b9aaa44e4e093038d79201", "rental_uris": {"android": "https://dc.lft.to/lastmile_qr_scan", "ios": "https://dc.lft.to/lastmile_qr_scan"}, "name": "c1c422f665b9aaa44e4e093038d79201", "is_reserved": 0}, {"is_disabled": 0, "fusion_lon": 0.0, "fusion_lat": 0.0, "lat": 38.90430816666667, "type": "electric_scooter", "lon": -77.0484325, "bike_id": "36677e923c3519db3254cbe82c90a267", "rental_uris": {"android": "https://dc.lft.to/lastmile_qr_scan", "ios": "https://dc.lft.to/lastmile_qr_scan"}, "name": "36677e923c3519db3254cbe82c90a267", "is_reserved": 0}, {"is_disabled": 0, "fusion_lon": 0.0, "fusion_lat": 0.0, "lat": 38.928600833333334, "type": "electric_bike", "lon": -76.989334, "bike_id": "65161f10546ea1dd190c28c91dfa8525", "rental_uris": {"android": "https://dc.lft.to/lastmile_qr_scan", "ios": "https://dc.lft.to/lastmile_qr_scan"}, "name": "65161f10546ea1dd190c28c91dfa8525", "is_reserved": 0}, {"is_disabled": 0, "fusion_lon": 0.0, "fusion_lat": 0.0, "lat": 38.876573666666665, "type": "electric_scooter", "lon": -77.009002, "bike_id": "2e0270fe54018bf41047600f28c42ae4", "rental_uris": {"android": "https://dc.lft.to/lastmile_qr_scan", "ios": "https://dc.lft.to/lastmile_qr_scan"}, "name": "2e0270fe54018bf41047600f28c42ae4", "is_reserved": 0}, {"is_disabled": 0, "fusion_lon": 0.0, "fusion_lat": 0.0, "lat": 38.9070475, "type": "electric_scooter", "lon": -77.04085283333333, "bike_id": "e1cc2d9bb310f7387359ade5f1b65ecc", "rental_uris": {"android": "https://dc.lft.to/lastmile_qr_scan", "ios": "https://dc.lft.to/lastmile_qr_scan"}, "name": "e1cc2d9bb310f7387359ade5f1b65ecc", "is_reserved": 0}, {"is_disabled": 0, "fusion_lon": 0.0, "fusion_lat": 0.0, "lat": 38.8838765, "type": "electric_scooter", "lon": -76.954181, "bike_id": "af47dbddf54ea6d6b98a51363afedde5", "rental_uris": {"android": "https://dc.lft.to/lastmile_qr_scan", "ios": "https://dc.lft.to/lastmile_qr_scan"}, "name": "af47dbddf54ea6d6b98a51363afedde5", "is_reserved": 0}, {"is_disabled": 0, "fusion_lon": 0.0, "fusion_lat": 0.0, "lat": 38.9148775, "type": "electric_scooter", "lon": -77.034592, "bike_id": "09cab293d9834d6d96b169e9fee00b50", "rental_uris": {"android": "https://dc.lft.to/lastmile_qr_scan", "ios": "https://dc.lft.to/lastmile_qr_scan"}, "name": "09cab293d9834d6d96b169e9fee00b50", "is_reserved": 0}, {"is_disabled": 0, "fusion_lon": 0.0, "fusion_lat": 0.0, "lat": 38.897408166666665, "type": "electric_scooter", "lon": -77.00427016666667, "bike_id": "d558bf967eee0710863171cd8fd9e342", "rental_uris": {"android": "https://dc.lft.to/lastmile_qr_scan", "ios": "https://dc.lft.to/lastmile_qr_scan"}, "name": "d558bf967eee0710863171cd8fd9e342", "is_reserved": 0}, {"is_disabled": 0, "fusion_lon": 0.0, "fusion_lat": 0.0, "lat": 38.882671333333334, "type": "electric_scooter", "lon": -77.00003483333333, "bike_id": "769681091bc83d4d1f8ffb471bce5ccc", "rental_uris": {"android": "https://dc.lft.to/lastmile_qr_scan", "ios": "https://dc.lft.to/lastmile_qr_scan"}, "name": "769681091bc83d4d1f8ffb471bce5ccc", "is_reserved": 0}, {"is_disabled": 0, "fusion_lon": 0.0, "fusion_lat": 0.0, "lat": 38.89356016666667, "type": "electric_scooter", "lon": -77.02218916666666, "bike_id": "424548642c22289c240d8b505cb30c4f", "rental_uris": {"android": "https://dc.lft.to/lastmile_qr_scan", "ios": "https://dc.lft.to/lastmile_qr_scan"}, "name": "424548642c22289c240d8b505cb30c4f", "is_reserved": 0}, {"is_disabled": 0, "fusion_lon": 0.0, "fusion_lat": 0.0, "lat": 38.882072, "type": "electric_scooter", "lon": -76.92701616666666, "bike_id": "a5abdf16fbe98bdf7cdb7d6943356e33", "rental_uris": {"android": "https://dc.lft.to/lastmile_qr_scan", "ios": "https://dc.lft.to/lastmile_qr_scan"}, "name": "a5abdf16fbe98bdf7cdb7d6943356e33", "is_reserved": 0}, {"is_disabled": 0, "fusion_lon": 0.0, "fusion_lat": 0.0, "lat": 39.08840416666666, "type": "electric_bike", "lon": -77.17797283333333, "bike_id": "7c7b37851f0ffe2bd5bfae43e689618e", "rental_uris": {"android": "https://dc.lft.to/lastmile_qr_scan", "ios": "https://dc.lft.to/lastmile_qr_scan"}, "name": "7c7b37851f0ffe2bd5bfae43e689618e", "is_reserved": 0}, {"is_disabled": 0, "fusion_lon": 0.0, "fusion_lat": 0.0, "lat": 38.892196166666665, "type": "electric_scooter", "lon": -77.048016, "bike_id": "94eb2105a27854f12135bd14a9f625cb", "rental_uris": {"android": "https://dc.lft.to/lastmile_qr_scan", "ios": "https://dc.lft.to/lastmile_qr_scan"}, "name": "94eb2105a27854f12135bd14a9f625cb", "is_reserved": 0}, {"is_disabled": 0, "fusion_lon": 0.0, "fusion_lat": 0.0, "lat": 38.903384833333334, "type": "electric_scooter", "lon": -76.97575383333333, "bike_id": "dbdb3909649d724dd9fe6e986990a17c", "rental_uris": {"android": "https://dc.lft.to/lastmile_qr_scan", "ios": "https://dc.lft.to/lastmile_qr_scan"}, "name": "dbdb3909649d724dd9fe6e986990a17c", "is_reserved": 0}, {"is_disabled": 0, "fusion_lon": 0.0, "fusion_lat": 0.0, "lat": 38.95552983333333, "type": "electric_scooter", "lon": -77.06999383333333, "bike_id": "7b0cd4323063635446a3cb3f45ef9fb8", "rental_uris": {"android": "https://dc.lft.to/lastmile_qr_scan", "ios": "https://dc.lft.to/lastmile_qr_scan"}, "name": "7b0cd4323063635446a3cb3f45ef9fb8", "is_reserved": 0}, {"is_disabled": 0, "fusion_lon": 0.0, "fusion_lat": 0.0, "lat": 38.922555833333334, "type": "electric_scooter", "lon": -77.0429505, "bike_id": "f7092354326d9c957862b30f3eae4c22", "rental_uris": {"android": "https://dc.lft.to/lastmile_qr_scan", "ios": "https://dc.lft.to/lastmile_qr_scan"}, "name": "f7092354326d9c957862b30f3eae4c22", "is_reserved": 0}, {"is_disabled": 0, "fusion_lon": 0.0, "fusion_lat": 0.0, "lat": 38.90098, "type": "electric_scooter", "lon": -77.01995733333334, "bike_id": "98e3a66eff25f6b460c52bb252fcc2a9", "rental_uris": {"android": "https://dc.lft.to/lastmile_qr_scan", "ios": "https://dc.lft.to/lastmile_qr_scan"}, "name": "98e3a66eff25f6b460c52bb252fcc2a9", "is_reserved": 0}, {"is_disabled": 0, "fusion_lon": 0.0, "fusion_lat": 0.0, "lat": 38.900318, "type": "electric_scooter", "lon": -77.02690066666666, "bike_id": "fc5c4c330831138983c6b28cf0530b52", "rental_uris": {"android": "https://dc.lft.to/lastmile_qr_scan", "ios": "https://dc.lft.to/lastmile_qr_scan"}, "name": "fc5c4c330831138983c6b28cf0530b52", "is_reserved": 0}, {"is_disabled": 0, "fusion_lon": 0.0, "fusion_lat": 0.0, "lat": 38.949835, "type": "electric_scooter", "lon": -77.02702333333333, "bike_id": "70443ed41c3fd2dc9b1425cfdd288cdf", "rental_uris": {"android": "https://dc.lft.to/lastmile_qr_scan", "ios": "https://dc.lft.to/lastmile_qr_scan"}, "name": "70443ed41c3fd2dc9b1425cfdd288cdf", "is_reserved": 0}, {"is_disabled": 0, "fusion_lon": 0.0, "fusion_lat": 0.0, "lat": 38.92224516666667, "type": "electric_scooter", "lon": -77.04244166666666, "bike_id": "7d3ac21582fa1ea95d5561751e7546bd", "rental_uris": {"android": "https://dc.lft.to/lastmile_qr_scan", "ios": "https://dc.lft.to/lastmile_qr_scan"}, "name": "7d3ac21582fa1ea95d5561751e7546bd", "is_reserved": 0}, {"is_disabled": 0, "fusion_lon": 0.0, "fusion_lat": 0.0, "lat": 38.91038, "type": "electric_scooter", "lon": -77.04289383333334, "bike_id": "ce34fbc9274773fcd22d3480310903e7", "rental_uris": {"android": "https://dc.lft.to/lastmile_qr_scan", "ios": "https://dc.lft.to/lastmile_qr_scan"}, "name": "ce34fbc9274773fcd22d3480310903e7", "is_reserved": 0}, {"is_disabled": 0, "fusion_lon": 0.0, "fusion_lat": 0.0, "lat": 38.917619333333334, "type": "electric_scooter", "lon": -77.0404295, "bike_id": "dfcf8ac75d45d7a858f597da80f56815", "rental_uris": {"android": "https://dc.lft.to/lastmile_qr_scan", "ios": "https://dc.lft.to/lastmile_qr_scan"}, "name": "dfcf8ac75d45d7a858f597da80f56815", "is_reserved": 0}, {"is_disabled": 0, "fusion_lon": 0.0, "fusion_lat": 0.0, "lat": 38.91646083333333, "type": "electric_scooter", "lon": -77.02283483333333, "bike_id": "4d7b25ba4b630c22cffc0a12efb60a94", "rental_uris": {"android": "https://dc.lft.to/lastmile_qr_scan", "ios": "https://dc.lft.to/lastmile_qr_scan"}, "name": "4d7b25ba4b630c22cffc0a12efb60a94", "is_reserved": 0}, {"is_disabled": 0, "fusion_lon": 0.0, "fusion_lat": 0.0, "lat": 38.925806, "type": "electric_scooter", "lon": -77.0283435, "bike_id": "936e1796cb918ffbadae8eb2932eb2c5", "rental_uris": {"android": "https://dc.lft.to/lastmile_qr_scan", "ios": "https://dc.lft.to/lastmile_qr_scan"}, "name": "936e1796cb918ffbadae8eb2932eb2c5", "is_reserved": 0}, {"is_disabled": 0, "fusion_lon": 0.0, "fusion_lat": 0.0, "lat": 38.941967166666664, "type": "electric_scooter", "lon": -77.02580333333333, "bike_id": "56377d367b38db91c861416e7adff37c", "rental_uris": {"android": "https://dc.lft.to/lastmile_qr_scan", "ios": "https://dc.lft.to/lastmile_qr_scan"}, "name": "56377d367b38db91c861416e7adff37c", "is_reserved": 0}, {"is_disabled": 0, "fusion_lon": 0.0, "fusion_lat": 0.0, "lat": 38.88487416666667, "type": "electric_scooter", "lon": -77.007291, "bike_id": "e46c592da30b2f60d55730409d5f3141", "rental_uris": {"android": "https://dc.lft.to/lastmile_qr_scan", "ios": "https://dc.lft.to/lastmile_qr_scan"}, "name": "e46c592da30b2f60d55730409d5f3141", "is_reserved": 0}, {"is_disabled": 0, "fusion_lon": 0.0, "fusion_lat": 0.0, "lat": 38.8442185, "type": "electric_scooter", "lon": -76.9977855, "bike_id": "99ab23494aef2a9e66e7dfa8fc6c78b9", "rental_uris": {"android": "https://dc.lft.to/lastmile_qr_scan", "ios": "https://dc.lft.to/lastmile_qr_scan"}, "name": "99ab23494aef2a9e66e7dfa8fc6c78b9", "is_reserved": 0}, {"is_disabled": 0, "fusion_lon": 0.0, "fusion_lat": 0.0, "lat": 38.90946483333333, "type": "electric_scooter", "lon": -76.99898883333333, "bike_id": "bb6a8fdd0f9dc6a4eab1ac52b368b763", "rental_uris": {"android": "https://dc.lft.to/lastmile_qr_scan", "ios": "https://dc.lft.to/lastmile_qr_scan"}, "name": "bb6a8fdd0f9dc6a4eab1ac52b368b763", "is_reserved": 0}, {"is_disabled": 0, "fusion_lon": 0.0, "fusion_lat": 0.0, "lat": 38.88490516666667, "type": "electric_scooter", "lon": -77.00711916666667, "bike_id": "81b6acd80490f8dff8a7fbdb4b5e3774", "rental_uris": {"android": "https://dc.lft.to/lastmile_qr_scan", "ios": "https://dc.lft.to/lastmile_qr_scan"}, "name": "81b6acd80490f8dff8a7fbdb4b5e3774", "is_reserved": 0}, {"is_disabled": 0, "fusion_lon": 0.0, "fusion_lat": 0.0, "lat": 38.894979666666664, "type": "electric_scooter", "lon": -76.94882316666667, "bike_id": "3708c8a736587216d3564905fd0afadc", "rental_uris": {"android": "https://dc.lft.to/lastmile_qr_scan", "ios": "https://dc.lft.to/lastmile_qr_scan"}, "name": "3708c8a736587216d3564905fd0afadc", "is_reserved": 0}, {"is_disabled": 0, "fusion_lon": 0.0, "fusion_lat": 0.0, "lat": 38.919867333333336, "type": "electric_scooter", "lon": -77.0321585, "bike_id": "ac451783e90d3eae985597f26657455c", "rental_uris": {"android": "https://dc.lft.to/lastmile_qr_scan", "ios": "https://dc.lft.to/lastmile_qr_scan"}, "name": "ac451783e90d3eae985597f26657455c", "is_reserved": 0}, {"is_disabled": 0, "fusion_lon": 0.0, "fusion_lat": 0.0, "lat": 38.82742983333333, "type": "electric_bike", "lon": -77.00849766666667, "bike_id": "a5132084e09767dd247a15e8f674b51d", "rental_uris": {"android": "https://dc.lft.to/lastmile_qr_scan", "ios": "https://dc.lft.to/lastmile_qr_scan"}, "name": "a5132084e09767dd247a15e8f674b51d", "is_reserved": 0}, {"is_disabled": 0, "fusion_lon": 0.0, "fusion_lat": 0.0, "lat": 38.8879185, "type": "electric_bike", "lon": -76.92997233333334, "bike_id": "3a649f2de46694c417ae7922bcf7f8a9", "rental_uris": {"android": "https://dc.lft.to/lastmile_qr_scan", "ios": "https://dc.lft.to/lastmile_qr_scan"}, "name": "3a649f2de46694c417ae7922bcf7f8a9", "is_reserved": 0}, {"is_disabled": 0, "fusion_lon": 0.0, "fusion_lat": 0.0, "lat": 38.94041716666667, "type": "electric_scooter", "lon": -77.029016, "bike_id": "c48015cbf11d2cc2ef47d1257f3957c4", "rental_uris": {"android": "https://dc.lft.to/lastmile_qr_scan", "ios": "https://dc.lft.to/lastmile_qr_scan"}, "name": "c48015cbf11d2cc2ef47d1257f3957c4", "is_reserved": 0}, {"is_disabled": 0, "fusion_lon": 0.0, "fusion_lat": 0.0, "lat": 38.902736, "type": "electric_scooter", "lon": -77.02180216666666, "bike_id": "082de0177c2046099271cc82b4722b18", "rental_uris": {"android": "https://dc.lft.to/lastmile_qr_scan", "ios": "https://dc.lft.to/lastmile_qr_scan"}, "name": "082de0177c2046099271cc82b4722b18", "is_reserved": 0}, {"is_disabled": 0, "fusion_lon": 0.0, "fusion_lat": 0.0, "lat": 38.910226333333334, "type": "electric_scooter", "lon": -77.04800016666667, "bike_id": "f7c610a5899a36172abd69eb98f30ee0", "rental_uris": {"android": "https://dc.lft.to/lastmile_qr_scan", "ios": "https://dc.lft.to/lastmile_qr_scan"}, "name": "f7c610a5899a36172abd69eb98f30ee0", "is_reserved": 0}, {"is_disabled": 0, "fusion_lon": 0.0, "fusion_lat": 0.0, "lat": 38.94067416666667, "type": "electric_bike", "lon": -77.05289066666667, "bike_id": "913e10b2ad778ffa1a52d6be5133c134", "rental_uris": {"android": "https://dc.lft.to/lastmile_qr_scan", "ios": "https://dc.lft.to/lastmile_qr_scan"}, "name": "913e10b2ad778ffa1a52d6be5133c134", "is_reserved": 0}, {"is_disabled": 0, "fusion_lon": 0.0, "fusion_lat": 0.0, "lat": 39.00866933333333, "type": "electric_bike", "lon": -77.07902883333334, "bike_id": "102dc3ca8cded824b980dcf717313672", "rental_uris": {"android": "https://dc.lft.to/lastmile_qr_scan", "ios": "https://dc.lft.to/lastmile_qr_scan"}, "name": "102dc3ca8cded824b980dcf717313672", "is_reserved": 0}, {"is_disabled": 0, "fusion_lon": 0.0, "fusion_lat": 0.0, "lat": 38.89832883333333, "type": "electric_scooter", "lon": -76.98046916666667, "bike_id": "a6545903083b20e67dcf3403673aa2c5", "rental_uris": {"android": "https://dc.lft.to/lastmile_qr_scan", "ios": "https://dc.lft.to/lastmile_qr_scan"}, "name": "a6545903083b20e67dcf3403673aa2c5", "is_reserved": 0}, {"is_disabled": 0, "fusion_lon": 0.0, "fusion_lat": 0.0, "lat": 38.92402716666667, "type": "electric_scooter", "lon": -77.02546433333333, "bike_id": "b8f53a43f29601a40d87d1d2df5538cb", "rental_uris": {"android": "https://dc.lft.to/lastmile_qr_scan", "ios": "https://dc.lft.to/lastmile_qr_scan"}, "name": "b8f53a43f29601a40d87d1d2df5538cb", "is_reserved": 0}, {"is_disabled": 0, "fusion_lon": 0.0, "fusion_lat": 0.0, "lat": 38.929841, "type": "electric_scooter", "lon": -77.03473583333333, "bike_id": "5fa81f41207e663f4fcf8faca8bdaa78", "rental_uris": {"android": "https://dc.lft.to/lastmile_qr_scan", "ios": "https://dc.lft.to/lastmile_qr_scan"}, "name": "5fa81f41207e663f4fcf8faca8bdaa78", "is_reserved": 0}, {"is_disabled": 0, "fusion_lon": 0.0, "fusion_lat": 0.0, "lat": 38.893684, "type": "electric_scooter", "lon": -76.94996783333333, "bike_id": "f623420e92bacad40ade823385bb49fa", "rental_uris": {"android": "https://dc.lft.to/lastmile_qr_scan", "ios": "https://dc.lft.to/lastmile_qr_scan"}, "name": "f623420e92bacad40ade823385bb49fa", "is_reserved": 0}, {"is_disabled": 0, "fusion_lon": 0.0, "fusion_lat": 0.0, "lat": 38.91118783333334, "type": "electric_scooter", "lon": -77.04506266666667, "bike_id": "641dd7c8cd3998397b6b46174d16b436", "rental_uris": {"android": "https://dc.lft.to/lastmile_qr_scan", "ios": "https://dc.lft.to/lastmile_qr_scan"}, "name": "641dd7c8cd3998397b6b46174d16b436", "is_reserved": 0}, {"is_disabled": 0, "fusion_lon": 0.0, "fusion_lat": 0.0, "lat": 38.89624716666667, "type": "electric_scooter", "lon": -77.02135683333333, "bike_id": "f584b837875e0a21b94e6ffdcaba1c71", "rental_uris": {"android": "https://dc.lft.to/lastmile_qr_scan", "ios": "https://dc.lft.to/lastmile_qr_scan"}, "name": "f584b837875e0a21b94e6ffdcaba1c71", "is_reserved": 0}, {"is_disabled": 0, "fusion_lon": 0.0, "fusion_lat": 0.0, "lat": 38.917086166666664, "type": "electric_scooter", "lon": -77.03419516666666, "bike_id": "8d809311662f93da5c62ce5708cf6881", "rental_uris": {"android": "https://dc.lft.to/lastmile_qr_scan", "ios": "https://dc.lft.to/lastmile_qr_scan"}, "name": "8d809311662f93da5c62ce5708cf6881", "is_reserved": 0}, {"is_disabled": 0, "fusion_lon": 0.0, "fusion_lat": 0.0, "lat": 38.9129835, "type": "electric_scooter", "lon": -77.03181733333334, "bike_id": "1f500e8d6e258865e8353f1d8df74fcc", "rental_uris": {"android": "https://dc.lft.to/lastmile_qr_scan", "ios": "https://dc.lft.to/lastmile_qr_scan"}, "name": "1f500e8d6e258865e8353f1d8df74fcc", "is_reserved": 0}, {"is_disabled": 0, "fusion_lon": 0.0, "fusion_lat": 0.0, "lat": 38.90028016666667, "type": "electric_scooter", "lon": -77.01198283333333, "bike_id": "4bf1fa85b8714fdf321ce5d99dbcc4b5", "rental_uris": {"android": "https://dc.lft.to/lastmile_qr_scan", "ios": "https://dc.lft.to/lastmile_qr_scan"}, "name": "4bf1fa85b8714fdf321ce5d99dbcc4b5", "is_reserved": 0}, {"is_disabled": 0, "fusion_lon": 0.0, "fusion_lat": 0.0, "lat": 38.90060883333334, "type": "electric_scooter", "lon": -76.98688916666667, "bike_id": "476f29844b682adc75983fcbe6788cc2", "rental_uris": {"android": "https://dc.lft.to/lastmile_qr_scan", "ios": "https://dc.lft.to/lastmile_qr_scan"}, "name": "476f29844b682adc75983fcbe6788cc2", "is_reserved": 0}, {"is_disabled": 0, "fusion_lon": 0.0, "fusion_lat": 0.0, "lat": 38.922677166666666, "type": "electric_scooter", "lon": -77.02241816666667, "bike_id": "36f5e4687062f88ceb8f1d3be964fb08", "rental_uris": {"android": "https://dc.lft.to/lastmile_qr_scan", "ios": "https://dc.lft.to/lastmile_qr_scan"}, "name": "36f5e4687062f88ceb8f1d3be964fb08", "is_reserved": 0}, {"is_disabled": 0, "fusion_lon": 0.0, "fusion_lat": 0.0, "lat": 38.91411516666667, "type": "electric_scooter", "lon": -77.04244266666667, "bike_id": "5300708b12b5d3c1010857f198fe81b6", "rental_uris": {"android": "https://dc.lft.to/lastmile_qr_scan", "ios": "https://dc.lft.to/lastmile_qr_scan"}, "name": "5300708b12b5d3c1010857f198fe81b6", "is_reserved": 0}, {"is_disabled": 0, "fusion_lon": 0.0, "fusion_lat": 0.0, "lat": 38.913789666666666, "type": "electric_scooter", "lon": -77.0296935, "bike_id": "fd8c1763db1f3f0f7e03b7d36cc598c2", "rental_uris": {"android": "https://dc.lft.to/lastmile_qr_scan", "ios": "https://dc.lft.to/lastmile_qr_scan"}, "name": "fd8c1763db1f3f0f7e03b7d36cc598c2", "is_reserved": 0}, {"is_disabled": 0, "fusion_lon": 0.0, "fusion_lat": 0.0, "lat": 38.921158, "type": "electric_scooter", "lon": -76.99569116666666, "bike_id": "ea445f8c930c17c4650036aa0ed3f839", "rental_uris": {"android": "https://dc.lft.to/lastmile_qr_scan", "ios": "https://dc.lft.to/lastmile_qr_scan"}, "name": "ea445f8c930c17c4650036aa0ed3f839", "is_reserved": 0}, {"is_disabled": 0, "fusion_lon": 0.0, "fusion_lat": 0.0, "lat": 38.842882833333334, "type": "electric_scooter", "lon": -76.99950766666667, "bike_id": "018d352b0282b0b72153a04ca9697611", "rental_uris": {"android": "https://dc.lft.to/lastmile_qr_scan", "ios": "https://dc.lft.to/lastmile_qr_scan"}, "name": "018d352b0282b0b72153a04ca9697611", "is_reserved": 0}, {"is_disabled": 0, "fusion_lon": 0.0, "fusion_lat": 0.0, "lat": 38.957294166666664, "type": "electric_scooter", "lon": -77.02404233333333, "bike_id": "336c7df91c4518ab8799de4e21d94513", "rental_uris": {"android": "https://dc.lft.to/lastmile_qr_scan", "ios": "https://dc.lft.to/lastmile_qr_scan"}, "name": "336c7df91c4518ab8799de4e21d94513", "is_reserved": 0}, {"is_disabled": 0, "fusion_lon": 0.0, "fusion_lat": 0.0, "lat": 38.929930666666664, "type": "electric_scooter", "lon": -77.01975583333333, "bike_id": "6f72afd96256e360193d099406bffa08", "rental_uris": {"android": "https://dc.lft.to/lastmile_qr_scan", "ios": "https://dc.lft.to/lastmile_qr_scan"}, "name": "6f72afd96256e360193d099406bffa08", "is_reserved": 0}, {"is_disabled": 0, "fusion_lon": 0.0, "fusion_lat": 0.0, "lat": 38.840994, "type": "electric_bike", "lon": -77.08940333333334, "bike_id": "2686caaf9965be8e0827d6c720020d7c", "rental_uris": {"android": "https://dc.lft.to/lastmile_qr_scan", "ios": "https://dc.lft.to/lastmile_qr_scan"}, "name": "2686caaf9965be8e0827d6c720020d7c", "is_reserved": 0}, {"is_disabled": 0, "fusion_lon": 0.0, "fusion_lat": 0.0, "lat": 38.9101515, "type": "electric_scooter", "lon": -77.0440155, "bike_id": "25bdd0fbb27d0697216419f55ceb3203", "rental_uris": {"android": "https://dc.lft.to/lastmile_qr_scan", "ios": "https://dc.lft.to/lastmile_qr_scan"}, "name": "25bdd0fbb27d0697216419f55ceb3203", "is_reserved": 0}, {"is_disabled": 0, "fusion_lon": 0.0, "fusion_lat": 0.0, "lat": 38.89679016666667, "type": "electric_bike", "lon": -76.9406045, "bike_id": "cdf58a6eecbeb3a955427fb7f8474e35", "rental_uris": {"android": "https://dc.lft.to/lastmile_qr_scan", "ios": "https://dc.lft.to/lastmile_qr_scan"}, "name": "cdf58a6eecbeb3a955427fb7f8474e35", "is_reserved": 0}, {"is_disabled": 0, "fusion_lon": 0.0, "fusion_lat": 0.0, "lat": 38.90782983333333, "type": "electric_scooter", "lon": -77.00969133333334, "bike_id": "478415b4f54b98587c360e8e6cfbffd4", "rental_uris": {"android": "https://dc.lft.to/lastmile_qr_scan", "ios": "https://dc.lft.to/lastmile_qr_scan"}, "name": "478415b4f54b98587c360e8e6cfbffd4", "is_reserved": 0}, {"is_disabled": 0, "fusion_lon": 0.0, "fusion_lat": 0.0, "lat": 38.927067666666666, "type": "electric_scooter", "lon": -77.0404595, "bike_id": "4527581cfe8d28a4d50c7e2b76c83295", "rental_uris": {"android": "https://dc.lft.to/lastmile_qr_scan", "ios": "https://dc.lft.to/lastmile_qr_scan"}, "name": "4527581cfe8d28a4d50c7e2b76c83295", "is_reserved": 0}, {"is_disabled": 0, "fusion_lon": 0.0, "fusion_lat": 0.0, "lat": 38.903899, "type": "electric_scooter", "lon": -77.01794216666667, "bike_id": "11020910cfd990c96d1d5806278523fb", "rental_uris": {"android": "https://dc.lft.to/lastmile_qr_scan", "ios": "https://dc.lft.to/lastmile_qr_scan"}, "name": "11020910cfd990c96d1d5806278523fb", "is_reserved": 0}, {"is_disabled": 0, "fusion_lon": 0.0, "fusion_lat": 0.0, "lat": 38.912714, "type": "electric_scooter", "lon": -77.0386315, "bike_id": "4ade0744e2c0746368c0728577cb0caf", "rental_uris": {"android": "https://dc.lft.to/lastmile_qr_scan", "ios": "https://dc.lft.to/lastmile_qr_scan"}, "name": "4ade0744e2c0746368c0728577cb0caf", "is_reserved": 0}, {"is_disabled": 0, "fusion_lon": 0.0, "fusion_lat": 0.0, "lat": 38.8982465, "type": "electric_scooter", "lon": -76.94651533333334, "bike_id": "75c2d7de276ba355ab8dbb5aadd20d22", "rental_uris": {"android": "https://dc.lft.to/lastmile_qr_scan", "ios": "https://dc.lft.to/lastmile_qr_scan"}, "name": "75c2d7de276ba355ab8dbb5aadd20d22", "is_reserved": 0}, {"is_disabled": 0, "fusion_lon": 0.0, "fusion_lat": 0.0, "lat": 38.916861833333336, "type": "electric_scooter", "lon": -77.02594283333333, "bike_id": "2023a04f95f13628093d22e4754253fb", "rental_uris": {"android": "https://dc.lft.to/lastmile_qr_scan", "ios": "https://dc.lft.to/lastmile_qr_scan"}, "name": "2023a04f95f13628093d22e4754253fb", "is_reserved": 0}, {"is_disabled": 0, "fusion_lon": 0.0, "fusion_lat": 0.0, "lat": 38.903842, "type": "electric_scooter", "lon": -76.99003833333333, "bike_id": "1e08fc1e238c0c62e52eb8c8605b8c42", "rental_uris": {"android": "https://dc.lft.to/lastmile_qr_scan", "ios": "https://dc.lft.to/lastmile_qr_scan"}, "name": "1e08fc1e238c0c62e52eb8c8605b8c42", "is_reserved": 0}, {"is_disabled": 0, "fusion_lon": 0.0, "fusion_lat": 0.0, "lat": 38.9097305, "type": "electric_scooter", "lon": -77.0361815, "bike_id": "8ac98adbeef383ed69f9f04a7b407544", "rental_uris": {"android": "https://dc.lft.to/lastmile_qr_scan", "ios": "https://dc.lft.to/lastmile_qr_scan"}, "name": "8ac98adbeef383ed69f9f04a7b407544", "is_reserved": 0}, {"is_disabled": 0, "fusion_lon": 0.0, "fusion_lat": 0.0, "lat": 38.8695235, "type": "electric_scooter", "lon": -76.975918, "bike_id": "ab0a75c8dbcc6c24a880b212e22fd1d0", "rental_uris": {"android": "https://dc.lft.to/lastmile_qr_scan", "ios": "https://dc.lft.to/lastmile_qr_scan"}, "name": "ab0a75c8dbcc6c24a880b212e22fd1d0", "is_reserved": 0}, {"is_disabled": 0, "fusion_lon": 0.0, "fusion_lat": 0.0, "lat": 38.90560966666666, "type": "electric_scooter", "lon": -77.01786616666666, "bike_id": "1377b81fb06b1b450aff5d65c0e6f341", "rental_uris": {"android": "https://dc.lft.to/lastmile_qr_scan", "ios": "https://dc.lft.to/lastmile_qr_scan"}, "name": "1377b81fb06b1b450aff5d65c0e6f341", "is_reserved": 0}, {"is_disabled": 0, "fusion_lon": 0.0, "fusion_lat": 0.0, "lat": 38.91579333333333, "type": "electric_scooter", "lon": -77.0321525, "bike_id": "8037ba76fa8c339ecd8ff99b499e02cd", "rental_uris": {"android": "https://dc.lft.to/lastmile_qr_scan", "ios": "https://dc.lft.to/lastmile_qr_scan"}, "name": "8037ba76fa8c339ecd8ff99b499e02cd", "is_reserved": 0}, {"is_disabled": 0, "fusion_lon": 0.0, "fusion_lat": 0.0, "lat": 38.946202, "type": "electric_bike", "lon": -76.9341105, "bike_id": "70015860fbdbdcda58a35e40b9e65211", "rental_uris": {"android": "https://dc.lft.to/lastmile_qr_scan", "ios": "https://dc.lft.to/lastmile_qr_scan"}, "name": "70015860fbdbdcda58a35e40b9e65211", "is_reserved": 0}, {"is_disabled": 0, "fusion_lon": 0.0, "fusion_lat": 0.0, "lat": 38.89788566666667, "type": "electric_scooter", "lon": -77.01197133333334, "bike_id": "66e583819793ccc44cd7dc695e905a0a", "rental_uris": {"android": "https://dc.lft.to/lastmile_qr_scan", "ios": "https://dc.lft.to/lastmile_qr_scan"}, "name": "66e583819793ccc44cd7dc695e905a0a", "is_reserved": 0}, {"is_disabled": 0, "fusion_lon": 0.0, "fusion_lat": 0.0, "lat": 38.9124495, "type": "electric_scooter", "lon": -77.04158866666667, "bike_id": "abb5d2d04c0fbdeb501097551d9ae41c", "rental_uris": {"android": "https://dc.lft.to/lastmile_qr_scan", "ios": "https://dc.lft.to/lastmile_qr_scan"}, "name": "abb5d2d04c0fbdeb501097551d9ae41c", "is_reserved": 0}, {"is_disabled": 0, "fusion_lon": 0.0, "fusion_lat": 0.0, "lat": 38.905369666666665, "type": "electric_scooter", "lon": -77.02209416666666, "bike_id": "4f50ad3feb689c03e4b4636a28d552af", "rental_uris": {"android": "https://dc.lft.to/lastmile_qr_scan", "ios": "https://dc.lft.to/lastmile_qr_scan"}, "name": "4f50ad3feb689c03e4b4636a28d552af", "is_reserved": 0}, {"is_disabled": 0, "fusion_lon": 0.0, "fusion_lat": 0.0, "lat": 38.89472466666667, "type": "electric_scooter", "lon": -76.9496405, "bike_id": "d881394c19519d368a97ec47ffef0c50", "rental_uris": {"android": "https://dc.lft.to/lastmile_qr_scan", "ios": "https://dc.lft.to/lastmile_qr_scan"}, "name": "d881394c19519d368a97ec47ffef0c50", "is_reserved": 0}, {"is_disabled": 0, "fusion_lon": 0.0, "fusion_lat": 0.0, "lat": 38.93658383333333, "type": "electric_scooter", "lon": -77.03260116666667, "bike_id": "dd3d73593cc53d34977225e541392ec6", "rental_uris": {"android": "https://dc.lft.to/lastmile_qr_scan", "ios": "https://dc.lft.to/lastmile_qr_scan"}, "name": "dd3d73593cc53d34977225e541392ec6", "is_reserved": 0}, {"is_disabled": 0, "fusion_lon": 0.0, "fusion_lat": 0.0, "lat": 38.885093166666664, "type": "electric_scooter", "lon": -76.99853483333334, "bike_id": "3d3f590fae746a817135d7e852727a8b", "rental_uris": {"android": "https://dc.lft.to/lastmile_qr_scan", "ios": "https://dc.lft.to/lastmile_qr_scan"}, "name": "3d3f590fae746a817135d7e852727a8b", "is_reserved": 0}, {"is_disabled": 0, "fusion_lon": 0.0, "fusion_lat": 0.0, "lat": 38.939587333333336, "type": "electric_scooter", "lon": -77.032807, "bike_id": "8a686f56870ea172508e843c9a9e88ae", "rental_uris": {"android": "https://dc.lft.to/lastmile_qr_scan", "ios": "https://dc.lft.to/lastmile_qr_scan"}, "name": "8a686f56870ea172508e843c9a9e88ae", "is_reserved": 0}, {"is_disabled": 0, "fusion_lon": 0.0, "fusion_lat": 0.0, "lat": 38.90646916666667, "type": "electric_scooter", "lon": -77.04137266666666, "bike_id": "687a8cafcf302feb9b682dabbe0513ad", "rental_uris": {"android": "https://dc.lft.to/lastmile_qr_scan", "ios": "https://dc.lft.to/lastmile_qr_scan"}, "name": "687a8cafcf302feb9b682dabbe0513ad", "is_reserved": 0}, {"is_disabled": 0, "fusion_lon": 0.0, "fusion_lat": 0.0, "lat": 38.900933, "type": "electric_scooter", "lon": -77.0199125, "bike_id": "3c78b7ecf489d536f8db2e5f3685d34a", "rental_uris": {"android": "https://dc.lft.to/lastmile_qr_scan", "ios": "https://dc.lft.to/lastmile_qr_scan"}, "name": "3c78b7ecf489d536f8db2e5f3685d34a", "is_reserved": 0}, {"is_disabled": 0, "fusion_lon": 0.0, "fusion_lat": 0.0, "lat": 38.8936945, "type": "electric_scooter", "lon": -76.94999533333333, "bike_id": "bf415d3a601907e6a015b8203afd1ece", "rental_uris": {"android": "https://dc.lft.to/lastmile_qr_scan", "ios": "https://dc.lft.to/lastmile_qr_scan"}, "name": "bf415d3a601907e6a015b8203afd1ece", "is_reserved": 0}, {"is_disabled": 0, "fusion_lon": 0.0, "fusion_lat": 0.0, "lat": 38.8925, "type": "electric_scooter", "lon": -77.02808316666666, "bike_id": "75b597e5097f16049fa82e186b3f6b77", "rental_uris": {"android": "https://dc.lft.to/lastmile_qr_scan", "ios": "https://dc.lft.to/lastmile_qr_scan"}, "name": "75b597e5097f16049fa82e186b3f6b77", "is_reserved": 0}, {"is_disabled": 0, "fusion_lon": 0.0, "fusion_lat": 0.0, "lat": 38.90260383333333, "type": "electric_scooter", "lon": -77.0452535, "bike_id": "475fdd31459cd9fec160d385398069fe", "rental_uris": {"android": "https://dc.lft.to/lastmile_qr_scan", "ios": "https://dc.lft.to/lastmile_qr_scan"}, "name": "475fdd31459cd9fec160d385398069fe", "is_reserved": 0}, {"is_disabled": 0, "fusion_lon": 0.0, "fusion_lat": 0.0, "lat": 38.93453516666667, "type": "electric_scooter", "lon": -77.07232783333333, "bike_id": "fb29cd4c9635d0552a61879a4f56f241", "rental_uris": {"android": "https://dc.lft.to/lastmile_qr_scan", "ios": "https://dc.lft.to/lastmile_qr_scan"}, "name": "fb29cd4c9635d0552a61879a4f56f241", "is_reserved": 0}, {"is_disabled": 0, "fusion_lon": 0.0, "fusion_lat": 0.0, "lat": 38.916847833333335, "type": "electric_scooter", "lon": -77.038205, "bike_id": "826658661f033415e8ec37cc53c30ff3", "rental_uris": {"android": "https://dc.lft.to/lastmile_qr_scan", "ios": "https://dc.lft.to/lastmile_qr_scan"}, "name": "826658661f033415e8ec37cc53c30ff3", "is_reserved": 0}, {"is_disabled": 0, "fusion_lon": 0.0, "fusion_lat": 0.0, "lat": 38.92331266666667, "type": "electric_scooter", "lon": -76.99390283333334, "bike_id": "b8226d330d0f074f95e0aecd7237e958", "rental_uris": {"android": "https://dc.lft.to/lastmile_qr_scan", "ios": "https://dc.lft.to/lastmile_qr_scan"}, "name": "b8226d330d0f074f95e0aecd7237e958", "is_reserved": 0}, {"is_disabled": 0, "fusion_lon": 0.0, "fusion_lat": 0.0, "lat": 38.88724883333333, "type": "electric_scooter", "lon": -77.00328966666666, "bike_id": "68978ac1d131ea8d911c224e8604d990", "rental_uris": {"android": "https://dc.lft.to/lastmile_qr_scan", "ios": "https://dc.lft.to/lastmile_qr_scan"}, "name": "68978ac1d131ea8d911c224e8604d990", "is_reserved": 0}, {"is_disabled": 0, "fusion_lon": 0.0, "fusion_lat": 0.0, "lat": 38.8955565, "type": "electric_scooter", "lon": -77.0466885, "bike_id": "c542b2e2de763aa53c68afc6f422eb54", "rental_uris": {"android": "https://dc.lft.to/lastmile_qr_scan", "ios": "https://dc.lft.to/lastmile_qr_scan"}, "name": "c542b2e2de763aa53c68afc6f422eb54", "is_reserved": 0}, {"is_disabled": 0, "fusion_lon": 0.0, "fusion_lat": 0.0, "lat": 38.9004175, "type": "electric_scooter", "lon": -76.922687, "bike_id": "93463cfb888ca04369d95f535c0306bf", "rental_uris": {"android": "https://dc.lft.to/lastmile_qr_scan", "ios": "https://dc.lft.to/lastmile_qr_scan"}, "name": "93463cfb888ca04369d95f535c0306bf", "is_reserved": 0}, {"is_disabled": 0, "fusion_lon": 0.0, "fusion_lat": 0.0, "lat": 38.928324833333335, "type": "electric_scooter", "lon": -77.0141005, "bike_id": "e7255897a308270c58444f063a598ccd", "rental_uris": {"android": "https://dc.lft.to/lastmile_qr_scan", "ios": "https://dc.lft.to/lastmile_qr_scan"}, "name": "e7255897a308270c58444f063a598ccd", "is_reserved": 0}, {"is_disabled": 0, "fusion_lon": 0.0, "fusion_lat": 0.0, "lat": 38.86243616666667, "type": "electric_scooter", "lon": -76.99502916666667, "bike_id": "366f7ba80ba64cc7e3a76063889f79ba", "rental_uris": {"android": "https://dc.lft.to/lastmile_qr_scan", "ios": "https://dc.lft.to/lastmile_qr_scan"}, "name": "366f7ba80ba64cc7e3a76063889f79ba", "is_reserved": 0}, {"is_disabled": 0, "fusion_lon": 0.0, "fusion_lat": 0.0, "lat": 38.93532483333333, "type": "electric_scooter", "lon": -77.02380616666666, "bike_id": "5c7bd62a601c1ae69557f80645697a88", "rental_uris": {"android": "https://dc.lft.to/lastmile_qr_scan", "ios": "https://dc.lft.to/lastmile_qr_scan"}, "name": "5c7bd62a601c1ae69557f80645697a88", "is_reserved": 0}, {"is_disabled": 0, "fusion_lon": 0.0, "fusion_lat": 0.0, "lat": 38.918210333333334, "type": "electric_scooter", "lon": -77.03439316666666, "bike_id": "303a81cd3fb2061584100a306d1b71a5", "rental_uris": {"android": "https://dc.lft.to/lastmile_qr_scan", "ios": "https://dc.lft.to/lastmile_qr_scan"}, "name": "303a81cd3fb2061584100a306d1b71a5", "is_reserved": 0}, {"is_disabled": 0, "fusion_lon": 0.0, "fusion_lat": 0.0, "lat": 38.9098035, "type": "electric_scooter", "lon": -77.02186966666666, "bike_id": "b8fe2f124f1bc51c92bf7b7e4d10f32f", "rental_uris": {"android": "https://dc.lft.to/lastmile_qr_scan", "ios": "https://dc.lft.to/lastmile_qr_scan"}, "name": "b8fe2f124f1bc51c92bf7b7e4d10f32f", "is_reserved": 0}, {"is_disabled": 0, "fusion_lon": 0.0, "fusion_lat": 0.0, "lat": 38.833730833333334, "type": "electric_scooter", "lon": -76.993083, "bike_id": "67bdcd754d6a6ec51295220198fdd637", "rental_uris": {"android": "https://dc.lft.to/lastmile_qr_scan", "ios": "https://dc.lft.to/lastmile_qr_scan"}, "name": "67bdcd754d6a6ec51295220198fdd637", "is_reserved": 0}, {"is_disabled": 0, "fusion_lon": 0.0, "fusion_lat": 0.0, "lat": 38.902477, "type": "electric_scooter", "lon": -77.02740933333334, "bike_id": "f6ccf3bacb8b71cc0487e33fcc941c9a", "rental_uris": {"android": "https://dc.lft.to/lastmile_qr_scan", "ios": "https://dc.lft.to/lastmile_qr_scan"}, "name": "f6ccf3bacb8b71cc0487e33fcc941c9a", "is_reserved": 0}, {"is_disabled": 0, "fusion_lon": 0.0, "fusion_lat": 0.0, "lat": 38.92338766666667, "type": "electric_scooter", "lon": -77.04352766666666, "bike_id": "39a1f4369f56959f14470379c2563f6a", "rental_uris": {"android": "https://dc.lft.to/lastmile_qr_scan", "ios": "https://dc.lft.to/lastmile_qr_scan"}, "name": "39a1f4369f56959f14470379c2563f6a", "is_reserved": 0}, {"is_disabled": 0, "fusion_lon": 0.0, "fusion_lat": 0.0, "lat": 38.92462116666667, "type": "electric_scooter", "lon": -77.03964016666667, "bike_id": "38ec2b05d83ff4fd07c7c50d37d7514c", "rental_uris": {"android": "https://dc.lft.to/lastmile_qr_scan", "ios": "https://dc.lft.to/lastmile_qr_scan"}, "name": "38ec2b05d83ff4fd07c7c50d37d7514c", "is_reserved": 0}, {"is_disabled": 0, "fusion_lon": 0.0, "fusion_lat": 0.0, "lat": 38.900875666666664, "type": "electric_scooter", "lon": -76.98834916666667, "bike_id": "b198eacd1f4445565f57c18b7037ff92", "rental_uris": {"android": "https://dc.lft.to/lastmile_qr_scan", "ios": "https://dc.lft.to/lastmile_qr_scan"}, "name": "b198eacd1f4445565f57c18b7037ff92", "is_reserved": 0}, {"is_disabled": 0, "fusion_lon": 0.0, "fusion_lat": 0.0, "lat": 38.920649, "type": "electric_scooter", "lon": -77.03195833333334, "bike_id": "c6a5eb9635a86375d28d6b0e846e955a", "rental_uris": {"android": "https://dc.lft.to/lastmile_qr_scan", "ios": "https://dc.lft.to/lastmile_qr_scan"}, "name": "c6a5eb9635a86375d28d6b0e846e955a", "is_reserved": 0}, {"is_disabled": 0, "fusion_lon": 0.0, "fusion_lat": 0.0, "lat": 38.92103183333333, "type": "electric_scooter", "lon": -77.04383016666667, "bike_id": "906011caed222607d3f37b09cf6c40b8", "rental_uris": {"android": "https://dc.lft.to/lastmile_qr_scan", "ios": "https://dc.lft.to/lastmile_qr_scan"}, "name": "906011caed222607d3f37b09cf6c40b8", "is_reserved": 0}, {"is_disabled": 0, "fusion_lon": 0.0, "fusion_lat": 0.0, "lat": 38.9210995, "type": "electric_scooter", "lon": -77.03176616666667, "bike_id": "5b94f945596a1c7af5dc1ef8fe7469da", "rental_uris": {"android": "https://dc.lft.to/lastmile_qr_scan", "ios": "https://dc.lft.to/lastmile_qr_scan"}, "name": "5b94f945596a1c7af5dc1ef8fe7469da", "is_reserved": 0}, {"is_disabled": 0, "fusion_lon": 0.0, "fusion_lat": 0.0, "lat": 38.916756666666664, "type": "electric_scooter", "lon": -77.02288316666667, "bike_id": "37e0a67ca50e7d65ef6fc5b2ea25634f", "rental_uris": {"android": "https://dc.lft.to/lastmile_qr_scan", "ios": "https://dc.lft.to/lastmile_qr_scan"}, "name": "37e0a67ca50e7d65ef6fc5b2ea25634f", "is_reserved": 0}, {"is_disabled": 0, "fusion_lon": 0.0, "fusion_lat": 0.0, "lat": 38.887307, "type": "electric_scooter", "lon": -77.01531716666666, "bike_id": "792da43bfff275b803ee8badf1daea4d", "rental_uris": {"android": "https://dc.lft.to/lastmile_qr_scan", "ios": "https://dc.lft.to/lastmile_qr_scan"}, "name": "792da43bfff275b803ee8badf1daea4d", "is_reserved": 0}, {"is_disabled": 0, "fusion_lon": 0.0, "fusion_lat": 0.0, "lat": 38.91246433333333, "type": "electric_scooter", "lon": -77.04159533333333, "bike_id": "854459c825b20fa9422201fdc6275808", "rental_uris": {"android": "https://dc.lft.to/lastmile_qr_scan", "ios": "https://dc.lft.to/lastmile_qr_scan"}, "name": "854459c825b20fa9422201fdc6275808", "is_reserved": 0}, {"is_disabled": 0, "fusion_lon": 0.0, "fusion_lat": 0.0, "lat": 38.9296345, "type": "electric_scooter", "lon": -77.0326835, "bike_id": "7719d3496fa8fcb29e39d456d476d13a", "rental_uris": {"android": "https://dc.lft.to/lastmile_qr_scan", "ios": "https://dc.lft.to/lastmile_qr_scan"}, "name": "7719d3496fa8fcb29e39d456d476d13a", "is_reserved": 0}, {"is_disabled": 0, "fusion_lon": 0.0, "fusion_lat": 0.0, "lat": 38.902679666666664, "type": "electric_scooter", "lon": -77.02824133333333, "bike_id": "4232356931a86c2e5780c99984f8bb5c", "rental_uris": {"android": "https://dc.lft.to/lastmile_qr_scan", "ios": "https://dc.lft.to/lastmile_qr_scan"}, "name": "4232356931a86c2e5780c99984f8bb5c", "is_reserved": 0}, {"is_disabled": 0, "fusion_lon": 0.0, "fusion_lat": 0.0, "lat": 38.909960166666664, "type": "electric_scooter", "lon": -77.03743183333333, "bike_id": "e1e1b3a5dc68b178843daf89df44bc41", "rental_uris": {"android": "https://dc.lft.to/lastmile_qr_scan", "ios": "https://dc.lft.to/lastmile_qr_scan"}, "name": "e1e1b3a5dc68b178843daf89df44bc41", "is_reserved": 0}, {"is_disabled": 0, "fusion_lon": 0.0, "fusion_lat": 0.0, "lat": 38.872872666666666, "type": "electric_scooter", "lon": -77.00984083333333, "bike_id": "eac2b1103121559d4f8116904deec128", "rental_uris": {"android": "https://dc.lft.to/lastmile_qr_scan", "ios": "https://dc.lft.to/lastmile_qr_scan"}, "name": "eac2b1103121559d4f8116904deec128", "is_reserved": 0}, {"is_disabled": 0, "fusion_lon": 0.0, "fusion_lat": 0.0, "lat": 38.9431825, "type": "electric_scooter", "lon": -77.08583483333334, "bike_id": "2c8cb439ec709885635a3901da1b5a90", "rental_uris": {"android": "https://dc.lft.to/lastmile_qr_scan", "ios": "https://dc.lft.to/lastmile_qr_scan"}, "name": "2c8cb439ec709885635a3901da1b5a90", "is_reserved": 0}, {"is_disabled": 0, "fusion_lon": 0.0, "fusion_lat": 0.0, "lat": 38.892686166666664, "type": "electric_scooter", "lon": -76.93727633333333, "bike_id": "f60a9025bea1941af0a27c86baec665e", "rental_uris": {"android": "https://dc.lft.to/lastmile_qr_scan", "ios": "https://dc.lft.to/lastmile_qr_scan"}, "name": "f60a9025bea1941af0a27c86baec665e", "is_reserved": 0}, {"is_disabled": 0, "fusion_lon": 0.0, "fusion_lat": 0.0, "lat": 38.8767155, "type": "electric_scooter", "lon": -77.01789466666666, "bike_id": "a66c2f91a9280edd1c0fa99e979b8b45", "rental_uris": {"android": "https://dc.lft.to/lastmile_qr_scan", "ios": "https://dc.lft.to/lastmile_qr_scan"}, "name": "a66c2f91a9280edd1c0fa99e979b8b45", "is_reserved": 0}, {"is_disabled": 0, "fusion_lon": 0.0, "fusion_lat": 0.0, "lat": 38.921565, "type": "electric_scooter", "lon": -77.03381383333334, "bike_id": "b4ec4bdd255b1281f52d79d7cf5e822f", "rental_uris": {"android": "https://dc.lft.to/lastmile_qr_scan", "ios": "https://dc.lft.to/lastmile_qr_scan"}, "name": "b4ec4bdd255b1281f52d79d7cf5e822f", "is_reserved": 0}, {"is_disabled": 0, "fusion_lon": 0.0, "fusion_lat": 0.0, "lat": 38.89218066666667, "type": "electric_scooter", "lon": -77.02152883333333, "bike_id": "a13165d1b83a171efdf0552c11f0d288", "rental_uris": {"android": "https://dc.lft.to/lastmile_qr_scan", "ios": "https://dc.lft.to/lastmile_qr_scan"}, "name": "a13165d1b83a171efdf0552c11f0d288", "is_reserved": 0}, {"is_disabled": 0, "fusion_lon": 0.0, "fusion_lat": 0.0, "lat": 38.903771666666664, "type": "electric_scooter", "lon": -77.0352325, "bike_id": "cb6e2e4533981137bd0776b90997107a", "rental_uris": {"android": "https://dc.lft.to/lastmile_qr_scan", "ios": "https://dc.lft.to/lastmile_qr_scan"}, "name": "cb6e2e4533981137bd0776b90997107a", "is_reserved": 0}, {"is_disabled": 0, "fusion_lon": 0.0, "fusion_lat": 0.0, "lat": 38.91151766666667, "type": "electric_scooter", "lon": -77.02382166666666, "bike_id": "2d2892688451765891d4c1f55b2d6eb6", "rental_uris": {"android": "https://dc.lft.to/lastmile_qr_scan", "ios": "https://dc.lft.to/lastmile_qr_scan"}, "name": "2d2892688451765891d4c1f55b2d6eb6", "is_reserved": 0}, {"is_disabled": 0, "fusion_lon": 0.0, "fusion_lat": 0.0, "lat": 38.86495883333333, "type": "electric_scooter", "lon": -76.98982416666666, "bike_id": "657babdc98a46048f83cbc8ffd71e675", "rental_uris": {"android": "https://dc.lft.to/lastmile_qr_scan", "ios": "https://dc.lft.to/lastmile_qr_scan"}, "name": "657babdc98a46048f83cbc8ffd71e675", "is_reserved": 0}, {"is_disabled": 0, "fusion_lon": 0.0, "fusion_lat": 0.0, "lat": 38.91324633333333, "type": "electric_scooter", "lon": -77.04170133333334, "bike_id": "fac62c968e6f97d2ac6fc3b9bb53006b", "rental_uris": {"android": "https://dc.lft.to/lastmile_qr_scan", "ios": "https://dc.lft.to/lastmile_qr_scan"}, "name": "fac62c968e6f97d2ac6fc3b9bb53006b", "is_reserved": 0}, {"is_disabled": 0, "fusion_lon": 0.0, "fusion_lat": 0.0, "lat": 38.883085333333334, "type": "electric_scooter", "lon": -77.04525216666667, "bike_id": "75fa7e8cab320278527967ab1ef8e16f", "rental_uris": {"android": "https://dc.lft.to/lastmile_qr_scan", "ios": "https://dc.lft.to/lastmile_qr_scan"}, "name": "75fa7e8cab320278527967ab1ef8e16f", "is_reserved": 0}, {"is_disabled": 0, "fusion_lon": 0.0, "fusion_lat": 0.0, "lat": 38.914153166666665, "type": "electric_scooter", "lon": -77.02111016666667, "bike_id": "e8f1e454d87b537885da3ead42fda323", "rental_uris": {"android": "https://dc.lft.to/lastmile_qr_scan", "ios": "https://dc.lft.to/lastmile_qr_scan"}, "name": "e8f1e454d87b537885da3ead42fda323", "is_reserved": 0}, {"is_disabled": 0, "fusion_lon": 0.0, "fusion_lat": 0.0, "lat": 38.89275716666667, "type": "electric_scooter", "lon": -77.050389, "bike_id": "9076a01b30aee1e1a6869c4fd00a454d", "rental_uris": {"android": "https://dc.lft.to/lastmile_qr_scan", "ios": "https://dc.lft.to/lastmile_qr_scan"}, "name": "9076a01b30aee1e1a6869c4fd00a454d", "is_reserved": 0},