{"data": {"bikes": [{"rental_uris": {"ios": "https://dc.lft.to/lastmile_qr_scan", "android": "https://dc.lft.to/lastmile_qr_scan"}, "lon": -77.00553016666667, "type": "electric_scooter", "fusion_lat": 0.0, "lat": 38.9055265, "name": "eada0a85462f580e24fc9a2e676030a7", "fusion_lon": 0.0, "bike_id": "eada0a85462f580e24fc9a2e676030a7", "is_disabled": 0, "is_reserved": 0}, {"rental_uris": {"ios": "https://dc.lft.to/lastmile_qr_scan", "android": "https://dc.lft.to/lastmile_qr_scan"}, "lon": -77.02338416666667, "type": "electric_scooter", "fusion_lat": 0.0, "lat": 38.9305105, "name": "7fb500abd88ffa942c2cf2971c80a4b1", "fusion_lon": 0.0, "bike_id": "7fb500abd88ffa942c2cf2971c80a4b1", "is_disabled": 0, "is_reserved": 0}, {"rental_uris": {"ios": "https://dc.lft.to/lastmile_qr_scan", "android": "https://dc.lft.to/lastmile_qr_scan"}, "lon": -77.0401625, "type": "electric_scooter", "fusion_lat": 0.0, "lat": 38.932528, "name": "3e5be81601a36eaac948e257c91de91e", "fusion_lon": 0.0, "bike_id": "3e5be81601a36eaac948e257c91de91e", "is_disabled": 0, "is_reserved": 0}, {"rental_uris": {"ios": "https://dc.lft.to/lastmile_qr_scan", "android": "https://dc.lft.to/lastmile_qr_scan"}, "lon": -77.03722866666666, "type": "electric_scooter", "fusion_lat": 0.0, "lat": 38.910468333333334, "name": "34e0987c5e0e038c34f9e24552645e57", "fusion_lon": 0.0, "bike_id": "34e0987c5e0e038c34f9e24552645e57", "is_disabled": 0, "is_reserved": 0}, {"rental_uris": {"ios": "https://dc.lft.to/lastmile_qr_scan", "android": "https://dc.lft.to/lastmile_qr_scan"}, "lon": -76.996791, "type": "electric_scooter", "fusion_lat": 0.0, "lat": 38.90018116666667, "name": "f059eb43767143de233eead3b35fd8a5", "fusion_lon": 0.0, "bike_id": "f059eb43767143de233eead3b35fd8a5", "is_disabled": 0, "is_reserved": 0}, {"rental_uris": {"ios": "https://dc.lft.to/lastmile_qr_scan", "android": "https://dc.lft.to/lastmile_qr_scan"}, "lon": -76.985858, "type": "electric_scooter", "fusion_lat": 0.0, "lat": 38.89923533333334, "name": "bed69e6717c31b165bdd8f2731c63949", "fusion_lon": 0.0, "bike_id": "bed69e6717c31b165bdd8f2731c63949", "is_disabled": 0, "is_reserved": 0}, {"rental_uris": {"ios": "https://dc.lft.to/lastmile_qr_scan", "android": "https://dc.lft.to/lastmile_qr_scan"}, "lon": -77.02961933333333, "type": "electric_scooter", "fusion_lat": 0.0, "lat": 38.907273833333335, "name": "fb35c458340681ca00685ad7b67a1ae4", "fusion_lon": 0.0, "bike_id": "fb35c458340681ca00685ad7b67a1ae4", "is_disabled": 0, "is_reserved": 0}, {"rental_uris": {"ios": "https://dc.lft.to/lastmile_qr_scan", "android": "https://dc.lft.to/lastmile_qr_scan"}, "lon": -77.0482075, "type": "electric_scooter", "fusion_lat": 0.0, "lat": 38.9203135, "name": "b191be12021d1ec7563fe56c95e28d90", "fusion_lon": 0.0, "bike_id": "b191be12021d1ec7563fe56c95e28d90", "is_disabled": 0, "is_reserved": 0}, {"rental_uris": {"ios": "https://dc.lft.to/lastmile_qr_scan", "android": "https://dc.lft.to/lastmile_qr_scan"}, "lon": -77.00068433333334, "type": "electric_scooter", "fusion_lat": 0.0, "lat": 38.92554116666667, "name": "e497224190bf90bb00e1660d577f856c", "fusion_lon": 0.0, "bike_id": "e497224190bf90bb00e1660d577f856c", "is_disabled": 0, "is_reserved": 0}, {"rental_uris": {"ios": "https://dc.lft.to/lastmile_qr_scan", "android": "https://dc.lft.to/lastmile_qr_scan"}, "lon": -77.03568783333333, "type": "electric_scooter", "fusion_lat": 0.0, "lat": 38.9180335, "name": "6b1fa2c8c06cda8513901112733259b8", "fusion_lon": 0.0, "bike_id": "6b1fa2c8c06cda8513901112733259b8", "is_disabled": 0, "is_reserved": 0}, {"rental_uris": {"ios": "https://dc.lft.to/lastmile_qr_scan", "android": "https://dc.lft.to/lastmile_qr_scan"}, "lon": -77.03470433333334, "type": "electric_scooter", "fusion_lat": 0.0, "lat": 38.917090333333334, "name": "81597cf6d41813eea410e7ee0d9e15b2", "fusion_lon": 0.0, "bike_id": "81597cf6d41813eea410e7ee0d9e15b2", "is_disabled": 0, "is_reserved": 0}, {"rental_uris": {"ios": "https://dc.lft.to/lastmile_qr_scan", "android": "https://dc.lft.to/lastmile_qr_scan"}, "lon": -77.02434216666667, "type": "electric_scooter", "fusion_lat": 0.0, "lat": 38.907135833333335, "name": "0cc15b21b206e745a226355c88eb6038", "fusion_lon": 0.0, "bike_id": "0cc15b21b206e745a226355c88eb6038", "is_disabled": 0, "is_reserved": 0}, {"rental_uris": {"ios": "https://dc.lft.to/lastmile_qr_scan", "android": "https://dc.lft.to/lastmile_qr_scan"}, "lon": -76.97706, "type": "electric_scooter", "fusion_lat": 0.0, "lat": 38.897072, "name": "4579de63b01731e19941f52bfc29d760", "fusion_lon": 0.0, "bike_id": "4579de63b01731e19941f52bfc29d760", "is_disabled": 0, "is_reserved": 0}, {"rental_uris": {"ios": "https://dc.lft.to/lastmile_qr_scan", "android": "https://dc.lft.to/lastmile_qr_scan"}, "lon": -77.03511583333334, "type": "electric_scooter", "fusion_lat": 0.0, "lat": 38.90021766666667, "name": "766b84e40af845f03488b172fd6a284c", "fusion_lon": 0.0, "bike_id": "766b84e40af845f03488b172fd6a284c", "is_disabled": 0, "is_reserved": 0}, {"rental_uris": {"ios": "https://dc.lft.to/lastmile_qr_scan", "android": "https://dc.lft.to/lastmile_qr_scan"}, "lon": -77.03256116666667, "type": "electric_scooter", "fusion_lat": 0.0, "lat": 38.93735383333333, "name": "cd8586e7e03faeabea251f6b57247b9b", "fusion_lon": 0.0, "bike_id": "cd8586e7e03faeabea251f6b57247b9b", "is_disabled": 0, "is_reserved": 0}, {"rental_uris": {"ios": "https://dc.lft.to/lastmile_qr_scan", "android": "https://dc.lft.to/lastmile_qr_scan"}, "lon": -77.04895433333333, "type": "electric_scooter", "fusion_lat": 0.0, "lat": 38.896778, "name": "33dcdfa474f0347356a7c562ea6f7595", "fusion_lon": 0.0, "bike_id": "33dcdfa474f0347356a7c562ea6f7595", "is_disabled": 0, "is_reserved": 0}, {"rental_uris": {"ios": "https://dc.lft.to/lastmile_qr_scan", "android": "https://dc.lft.to/lastmile_qr_scan"}, "lon": -77.03583066666667, "type": "electric_scooter", "fusion_lat": 0.0, "lat": 38.9074755, "name": "4afc41cfd765bbef39166299ad5f7b8c", "fusion_lon": 0.0, "bike_id": "4afc41cfd765bbef39166299ad5f7b8c", "is_disabled": 0, "is_reserved": 0}, {"rental_uris": {"ios": "https://dc.lft.to/lastmile_qr_scan", "android": "https://dc.lft.to/lastmile_qr_scan"}, "lon": -77.0222905, "type": "electric_scooter", "fusion_lat": 0.0, "lat": 38.912728333333334, "name": "1ebec1997c369e25a18a8243b601085a", "fusion_lon": 0.0, "bike_id": "1ebec1997c369e25a18a8243b601085a", "is_disabled": 0, "is_reserved": 0}, {"rental_uris": {"ios": "https://dc.lft.to/lastmile_qr_scan", "android": "https://dc.lft.to/lastmile_qr_scan"}, "lon": -76.94639583333333, "type": "electric_scooter", "fusion_lat": 0.0, "lat": 38.898436333333336, "name": "71fcd190d92c20aa4747bf1277cdcba3", "fusion_lon": 0.0, "bike_id": "71fcd190d92c20aa4747bf1277cdcba3", "is_disabled": 0, "is_reserved": 0}, {"rental_uris": {"ios": "https://dc.lft.to/lastmile_qr_scan", "android": "https://dc.lft.to/lastmile_qr_scan"}, "lon": -77.02420333333333, "type": "electric_scooter", "fusion_lat": 0.0, "lat": 38.92655466666667, "name": "d46a9715869d624de63598cb10f393e2", "fusion_lon": 0.0, "bike_id": "d46a9715869d624de63598cb10f393e2", "is_disabled": 0, "is_reserved": 0}, {"rental_uris": {"ios": "https://dc.lft.to/lastmile_qr_scan", "android": "https://dc.lft.to/lastmile_qr_scan"}, "lon": -77.036691, "type": "electric_scooter", "fusion_lat": 0.0, "lat": 38.917117, "name": "899962b950ebd6b3b69f2f8bf28c8b4e", "fusion_lon": 0.0, "bike_id": "899962b950ebd6b3b69f2f8bf28c8b4e", "is_disabled": 0, "is_reserved": 0}, {"rental_uris": {"ios": "https://dc.lft.to/lastmile_qr_scan", "android": "https://dc.lft.to/lastmile_qr_scan"}, "lon": -77.0258605, "type": "electric_scooter", "fusion_lat": 0.0, "lat": 38.90024416666667, "name": "23a1035f6bf32bb43ce25710938fa9e2", "fusion_lon": 0.0, "bike_id": "23a1035f6bf32bb43ce25710938fa9e2", "is_disabled": 0, "is_reserved": 0}, {"rental_uris": {"ios": "https://dc.lft.to/lastmile_qr_scan", "android": "https://dc.lft.to/lastmile_qr_scan"}, "lon": -77.0342105, "type": "electric_scooter", "fusion_lat": 0.0, "lat": 38.935402333333336, "name": "a74ba6cac825b4c31e7090e9d9c840c5", "fusion_lon": 0.0, "bike_id": "a74ba6cac825b4c31e7090e9d9c840c5", "is_disabled": 0, "is_reserved": 0}, {"rental_uris": {"ios": "https://dc.lft.to/lastmile_qr_scan", "android": "https://dc.lft.to/lastmile_qr_scan"}, "lon": -77.02967716666667, "type": "electric_scooter", "fusion_lat": 0.0, "lat": 38.905280166666664, "name": "456c50df034607232d0cf901af35bde1", "fusion_lon": 0.0, "bike_id": "456c50df034607232d0cf901af35bde1", "is_disabled": 0, "is_reserved": 0}, {"rental_uris": {"ios": "https://dc.lft.to/lastmile_qr_scan", "android": "https://dc.lft.to/lastmile_qr_scan"}, "lon": -77.03220416666667, "type": "electric_scooter", "fusion_lat": 0.0, "lat": 38.926694833333336, "name": "aa12e9d70652d7c3fa6ec67196573d07", "fusion_lon": 0.0, "bike_id": "aa12e9d70652d7c3fa6ec67196573d07", "is_disabled": 0, "is_reserved": 0}, {"rental_uris": {"ios": "https://dc.lft.to/lastmile_qr_scan", "android": "https://dc.lft.to/lastmile_qr_scan"}, "lon": -77.05606016666667, "type": "electric_bike", "fusion_lat": 0.0, "lat": 38.9241865, "name": "1d8f52d60f2ecf66a216ad81f2418940", "fusion_lon": 0.0, "bike_id": "1d8f52d60f2ecf66a216ad81f2418940", "is_disabled": 0, "is_reserved": 0}, {"rental_uris": {"ios": "https://dc.lft.to/lastmile_qr_scan", "android": "https://dc.lft.to/lastmile_qr_scan"}, "lon": -77.041092, "type": "electric_scooter", "fusion_lat": 0.0, "lat": 38.924453, "name": "d04a00278286c4fc64798363af331ac2", "fusion_lon": 0.0, "bike_id": "d04a00278286c4fc64798363af331ac2", "is_disabled": 0, "is_reserved": 0}, {"rental_uris": {"ios": "https://dc.lft.to/lastmile_qr_scan", "android": "https://dc.lft.to/lastmile_qr_scan"}, "lon": -77.00230233333333, "type": "electric_scooter", "fusion_lat": 0.0, "lat": 38.9118245, "name": "90e823d8996f8408c769dc73f898dc76", "fusion_lon": 0.0, "bike_id": "90e823d8996f8408c769dc73f898dc76", "is_disabled": 0, "is_reserved": 0}, {"rental_uris": {"ios": "https://dc.lft.to/lastmile_qr_scan", "android": "https://dc.lft.to/lastmile_qr_scan"}, "lon": -76.97494316666666, "type": "electric_bike", "fusion_lat": 0.0, "lat": 38.92008583333333, "name": "6552b29b079b4fa2757895d01219aa9f", "fusion_lon": 0.0, "bike_id": "6552b29b079b4fa2757895d01219aa9f", "is_disabled": 0, "is_reserved": 0}, {"rental_uris": {"ios": "https://dc.lft.to/lastmile_qr_scan", "android": "https://dc.lft.to/lastmile_qr_scan"}, "lon": -76.93718583333333, "type": "electric_scooter", "fusion_lat": 0.0, "lat": 38.895914, "name": "873638d0e17d0ac32f1a87fd4a5729b7", "fusion_lon": 0.0, "bike_id": "873638d0e17d0ac32f1a87fd4a5729b7", "is_disabled": 0, "is_reserved": 0}, {"rental_uris": {"ios": "https://dc.lft.to/lastmile_qr_scan", "android": "https://dc.lft.to/lastmile_qr_scan"}, "lon": -77.04008016666667, "type": "electric_scooter", "fusion_lat": 0.0, "lat": 38.9099145, "name": "a3035e2b545692b936b7003ef2981a19", "fusion_lon": 0.0, "bike_id": "a3035e2b545692b936b7003ef2981a19", "is_disabled": 0, "is_reserved": 0}, {"rental_uris": {"ios": "https://dc.lft.to/lastmile_qr_scan", "android": "https://dc.lft.to/lastmile_qr_scan"}, "lon": -76.97406866666667, "type": "electric_scooter", "fusion_lat": 0.0, "lat": 38.9015215, "name": "46b037b1a07fa4ce4b86a2a61c8d802f", "fusion_lon": 0.0, "bike_id": "46b037b1a07fa4ce4b86a2a61c8d802f", "is_disabled": 0, "is_reserved": 0}, {"rental_uris": {"ios": "https://dc.lft.to/lastmile_qr_scan", "android": "https://dc.lft.to/lastmile_qr_scan"}, "lon": -77.0545455, "type": "electric_scooter", "fusion_lat": 0.0, "lat": 38.929001166666666, "name": "ead6128bbc0651a4f9c080db749ded25", "fusion_lon": 0.0, "bike_id": "ead6128bbc0651a4f9c080db749ded25", "is_disabled": 0, "is_reserved": 0}, {"rental_uris": {"ios": "https://dc.lft.to/lastmile_qr_scan", "android": "https://dc.lft.to/lastmile_qr_scan"}, "lon": -77.03663883333333, "type": "electric_scooter", "fusion_lat": 0.0, "lat": 38.9181895, "name": "047fac2880d894bbc5157b0c2185ccac", "fusion_lon": 0.0, "bike_id": "047fac2880d894bbc5157b0c2185ccac", "is_disabled": 0, "is_reserved": 0}, {"rental_uris": {"ios": "https://dc.lft.to/lastmile_qr_scan", "android": "https://dc.lft.to/lastmile_qr_scan"}, "lon": -77.02979633333334, "type": "electric_scooter", "fusion_lat": 0.0, "lat": 38.9460275, "name": "4df5400260c2bac87775d7147ff702c9", "fusion_lon": 0.0, "bike_id": "4df5400260c2bac87775d7147ff702c9", "is_disabled": 0, "is_reserved": 0}, {"rental_uris": {"ios": "https://dc.lft.to/lastmile_qr_scan", "android": "https://dc.lft.to/lastmile_qr_scan"}, "lon": -77.01359116666667, "type": "electric_scooter", "fusion_lat": 0.0, "lat": 38.919362, "name": "cc39b9963935921e8704f004c5dcb1e4", "fusion_lon": 0.0, "bike_id": "cc39b9963935921e8704f004c5dcb1e4", "is_disabled": 0, "is_reserved": 0}, {"rental_uris": {"ios": "https://dc.lft.to/lastmile_qr_scan", "android": "https://dc.lft.to/lastmile_qr_scan"}, "lon": -77.000434, "type": "electric_scooter", "fusion_lat": 0.0, "lat": 38.9058025, "name": "a75d572f153ddcfd52df318b3c213719", "fusion_lon": 0.0, "bike_id": "a75d572f153ddcfd52df318b3c213719", "is_disabled": 0, "is_reserved": 0}, {"rental_uris": {"ios": "https://dc.lft.to/lastmile_qr_scan", "android": "https://dc.lft.to/lastmile_qr_scan"}, "lon": -77.12028133333334, "type": "electric_bike", "fusion_lat": 0.0, "lat": 38.85508683333333, "name": "c2fe0f13b539425b15b74a0cc72caf8f", "fusion_lon": 0.0, "bike_id": "c2fe0f13b539425b15b74a0cc72caf8f", "is_disabled": 0, "is_reserved": 0}, {"rental_uris": {"ios": "https://dc.lft.to/lastmile_qr_scan", "android": "https://dc.lft.to/lastmile_qr_scan"}, "lon": -77.03463066666667, "type": "electric_scooter", "fusion_lat": 0.0, "lat": 38.9181835, "name": "7aaef05971d214f7f05afd4b159dc9c2", "fusion_lon": 0.0, "bike_id": "7aaef05971d214f7f05afd4b159dc9c2", "is_disabled": 0, "is_reserved": 0}, {"rental_uris": {"ios": "https://dc.lft.to/lastmile_qr_scan", "android": "https://dc.lft.to/lastmile_qr_scan"}, "lon": -77.04443216666667, "type": "electric_scooter", "fusion_lat": 0.0, "lat": 38.910099333333335, "name": "932817b302c4f9b82ffe252c1ae64f09", "fusion_lon": 0.0, "bike_id": "932817b302c4f9b82ffe252c1ae64f09", "is_disabled": 0, "is_reserved": 0}, {"rental_uris": {"ios": "https://dc.lft.to/lastmile_qr_scan", "android": "https://dc.lft.to/lastmile_qr_scan"}, "lon": -76.931765, "type": "electric_scooter", "fusion_lat": 0.0, "lat": 38.898881333333335, "name": "9a1068bfa1d26833503e7d447d2dc770", "fusion_lon": 0.0, "bike_id": "9a1068bfa1d26833503e7d447d2dc770", "is_disabled": 0, "is_reserved": 0}, {"rental_uris": {"ios": "https://dc.lft.to/lastmile_qr_scan", "android": "https://dc.lft.to/lastmile_qr_scan"}, "lon": -76.99497066666666, "type": "electric_scooter", "fusion_lat": 0.0, "lat": 38.862449833333336, "name": "140051450043b96a4f579c872507e76f", "fusion_lon": 0.0, "bike_id": "140051450043b96a4f579c872507e76f", "is_disabled": 0, "is_reserved": 0}, {"rental_uris": {"ios": "https://dc.lft.to/lastmile_qr_scan", "android": "https://dc.lft.to/lastmile_qr_scan"}, "lon": -77.04734166666667, "type": "electric_bike", "fusion_lat": 0.0, "lat": 38.90566283333333, "name": "7334fa67589150e8b8a1a13777844146", "fusion_lon": 0.0, "bike_id": "7334fa67589150e8b8a1a13777844146", "is_disabled": 0, "is_reserved": 0}, {"rental_uris": {"ios": "https://dc.lft.to/lastmile_qr_scan", "android": "https://dc.lft.to/lastmile_qr_scan"}, "lon": -76.90436383333333, "type": "electric_bike", "fusion_lat": 0.0, "lat": 38.8976925, "name": "cff19d1c84140420e694b53ebcdbc3a0", "fusion_lon": 0.0, "bike_id": "cff19d1c84140420e694b53ebcdbc3a0", "is_disabled": 0, "is_reserved": 0}, {"rental_uris": {"ios": "https://dc.lft.to/lastmile_qr_scan", "android": "https://dc.lft.to/lastmile_qr_scan"}, "lon": -77.04246233333333, "type": "electric_scooter", "fusion_lat": 0.0, "lat": 38.92432066666667, "name": "dc927e31c7e7ae913db6d1b8127c2db9", "fusion_lon": 0.0, "bike_id": "dc927e31c7e7ae913db6d1b8127c2db9", "is_disabled": 0, "is_reserved": 0}, {"rental_uris": {"ios": "https://dc.lft.to/lastmile_qr_scan", "android": "https://dc.lft.to/lastmile_qr_scan"}, "lon": -77.0365625, "type": "electric_scooter", "fusion_lat": 0.0, "lat": 38.9211735, "name": "e7c0ebe18edda273cd8ca55a241ebe7f", "fusion_lon": 0.0, "bike_id": "e7c0ebe18edda273cd8ca55a241ebe7f", "is_disabled": 0, "is_reserved": 0}, {"rental_uris": {"ios": "https://dc.lft.to/lastmile_qr_scan", "android": "https://dc.lft.to/lastmile_qr_scan"}, "lon": -77.01965, "type": "electric_scooter", "fusion_lat": 0.0, "lat": 38.934169, "name": "aad80f5c19882219398ebce22f3058f4", "fusion_lon": 0.0, "bike_id": "aad80f5c19882219398ebce22f3058f4", "is_disabled": 0, "is_reserved": 0}, {"rental_uris": {"ios": "https://dc.lft.to/lastmile_qr_scan", "android": "https://dc.lft.to/lastmile_qr_scan"}, "lon": -77.04834033333333, "type": "electric_scooter", "fusion_lat": 0.0, "lat": 38.92031383333333, "name": "142d08135b5241c977226183dabae596", "fusion_lon": 0.0, "bike_id": "142d08135b5241c977226183dabae596", "is_disabled": 0, "is_reserved": 0}, {"rental_uris": {"ios": "https://dc.lft.to/lastmile_qr_scan", "android": "https://dc.lft.to/lastmile_qr_scan"}, "lon": -76.9907695, "type": "electric_scooter", "fusion_lat": 0.0, "lat": 38.893581, "name": "353907599dec819ee59cab84570a6662", "fusion_lon": 0.0, "bike_id": "353907599dec819ee59cab84570a6662", "is_disabled": 0, "is_reserved": 0}, {"rental_uris": {"ios": "https://dc.lft.to/lastmile_qr_scan", "android": "https://dc.lft.to/lastmile_qr_scan"}, "lon": -77.04996716666666, "type": "electric_scooter", "fusion_lat": 0.0, "lat": 38.900601, "name": "531a53966e802c617b4d35b8bf26a343", "fusion_lon": 0.0, "bike_id": "531a53966e802c617b4d35b8bf26a343", "is_disabled": 0, "is_reserved": 0}, {"rental_uris": {"ios": "https://dc.lft.to/lastmile_qr_scan", "android": "https://dc.lft.to/lastmile_qr_scan"}, "lon": -77.04202083333334, "type": "electric_scooter", "fusion_lat": 0.0, "lat": 38.9211065, "name": "4db98c3113386e3a03ae99c214d56783", "fusion_lon": 0.0, "bike_id": "4db98c3113386e3a03ae99c214d56783", "is_disabled": 0, "is_reserved": 0}, {"rental_uris": {"ios": "https://dc.lft.to/lastmile_qr_scan", "android": "https://dc.lft.to/lastmile_qr_scan"}, "lon": -76.9816115, "type": "electric_scooter", "fusion_lat": 0.0, "lat": 38.932961666666664, "name": "3a42d9d4477252cf1f8b54fc2e02529e", "fusion_lon": 0.0, "bike_id": "3a42d9d4477252cf1f8b54fc2e02529e", "is_disabled": 0, "is_reserved": 0}, {"rental_uris": {"ios": "https://dc.lft.to/lastmile_qr_scan", "android": "https://dc.lft.to/lastmile_qr_scan"}, "lon": -76.99505033333334, "type": "electric_scooter", "fusion_lat": 0.0, "lat": 38.92701016666667, "name": "73bcac4ddf1740286bbc25125eb66e6f", "fusion_lon": 0.0, "bike_id": "73bcac4ddf1740286bbc25125eb66e6f", "is_disabled": 0, "is_reserved": 0}, {"rental_uris": {"ios": "https://dc.lft.to/lastmile_qr_scan", "android": "https://dc.lft.to/lastmile_qr_scan"}, "lon": -76.9906435, "type": "electric_scooter", "fusion_lat": 0.0, "lat": 38.863549166666665, "name": "ab9ad27857df81882907cb8ef3991486", "fusion_lon": 0.0, "bike_id": "ab9ad27857df81882907cb8ef3991486", "is_disabled": 0, "is_reserved": 0}, {"rental_uris": {"ios": "https://dc.lft.to/lastmile_qr_scan", "android": "https://dc.lft.to/lastmile_qr_scan"}, "lon": -77.00671383333334, "type": "electric_scooter", "fusion_lat": 0.0, "lat": 38.91697466666667, "name": "382497142294abe1ffa18c9292da994a", "fusion_lon": 0.0, "bike_id": "382497142294abe1ffa18c9292da994a", "is_disabled": 0, "is_reserved": 0}, {"rental_uris": {"ios": "https://dc.lft.to/lastmile_qr_scan", "android": "https://dc.lft.to/lastmile_qr_scan"}, "lon": -77.03870166666667, "type": "electric_scooter", "fusion_lat": 0.0, "lat": 38.920217, "name": "52008307c45007a245ad511250626f55", "fusion_lon": 0.0, "bike_id": "52008307c45007a245ad511250626f55", "is_disabled": 0, "is_reserved": 0}, {"rental_uris": {"ios": "https://dc.lft.to/lastmile_qr_scan", "android": "https://dc.lft.to/lastmile_qr_scan"}, "lon": -76.97882566666667, "type": "electric_scooter", "fusion_lat": 0.0, "lat": 38.88505683333333, "name": "64886f2518008ad0f2baf9d7d4db30da", "fusion_lon": 0.0, "bike_id": "64886f2518008ad0f2baf9d7d4db30da", "is_disabled": 0, "is_reserved": 0}, {"rental_uris": {"ios": "https://dc.lft.to/lastmile_qr_scan", "android": "https://dc.lft.to/lastmile_qr_scan"}, "lon": -77.03274983333333, "type": "electric_scooter", "fusion_lat": 0.0, "lat": 38.90962866666667, "name": "6dd6a658875d79a85e367d7a9ebf10ee", "fusion_lon": 0.0, "bike_id": "6dd6a658875d79a85e367d7a9ebf10ee", "is_disabled": 0, "is_reserved": 0}, {"rental_uris": {"ios": "https://dc.lft.to/lastmile_qr_scan", "android": "https://dc.lft.to/lastmile_qr_scan"}, "lon": -77.0351295, "type": "electric_bike", "fusion_lat": 0.0, "lat": 38.96512933333333, "name": "d9e8b3abba954842359a16039556a5c4", "fusion_lon": 0.0, "bike_id": "d9e8b3abba954842359a16039556a5c4", "is_disabled": 0, "is_reserved": 0}, {"rental_uris": {"ios": "https://dc.lft.to/lastmile_qr_scan", "android": "https://dc.lft.to/lastmile_qr_scan"}, "lon": -76.98701166666666, "type": "electric_scooter", "fusion_lat": 0.0, "lat": 38.90706616666667, "name": "715456be9706108a5d7fe3ca0c624c14", "fusion_lon": 0.0, "bike_id": "715456be9706108a5d7fe3ca0c624c14", "is_disabled": 0, "is_reserved": 0}, {"rental_uris": {"ios": "https://dc.lft.to/lastmile_qr_scan", "android": "https://dc.lft.to/lastmile_qr_scan"}, "lon": -77.03610016666667, "type": "electric_scooter", "fusion_lat": 0.0, "lat": 38.9233195, "name": "403674a423f2f9b501791abd3a935e80", "fusion_lon": 0.0, "bike_id": "403674a423f2f9b501791abd3a935e80", "is_disabled": 0, "is_reserved": 0}, {"rental_uris": {"ios": "https://dc.lft.to/lastmile_qr_scan", "android": "https://dc.lft.to/lastmile_qr_scan"}, "lon": -77.01482366666667, "type": "electric_scooter", "fusion_lat": 0.0, "lat": 38.881290666666665, "name": "416595a1234883fa4b6f13e4300c6c61", "fusion_lon": 0.0, "bike_id": "416595a1234883fa4b6f13e4300c6c61", "is_disabled": 0, "is_reserved": 0}, {"rental_uris": {"ios": "https://dc.lft.to/lastmile_qr_scan", "android": "https://dc.lft.to/lastmile_qr_scan"}, "lon": -77.0406365, "type": "electric_scooter", "fusion_lat": 0.0, "lat": 38.90258083333333, "name": "df123dd426979b47359313fff0b21675", "fusion_lon": 0.0, "bike_id": "df123dd426979b47359313fff0b21675", "is_disabled": 0, "is_reserved": 0}, {"rental_uris": {"ios": "https://dc.lft.to/lastmile_qr_scan", "android": "https://dc.lft.to/lastmile_qr_scan"}, "lon": -77.02618883333334, "type": "electric_scooter", "fusion_lat": 0.0, "lat": 38.90573666666667, "name": "5ab30a5c238bcea67c39ce784feda5b0", "fusion_lon": 0.0, "bike_id": "5ab30a5c238bcea67c39ce784feda5b0", "is_disabled": 0, "is_reserved": 0}, {"rental_uris": {"ios": "https://dc.lft.to/lastmile_qr_scan", "android": "https://dc.lft.to/lastmile_qr_scan"}, "lon": -77.01082116666667, "type": "electric_scooter", "fusion_lat": 0.0, "lat": 38.89491866666667, "name": "c9f5cce29c00e611da1adf39f6fa7f6e", "fusion_lon": 0.0, "bike_id": "c9f5cce29c00e611da1adf39f6fa7f6e", "is_disabled": 0, "is_reserved": 0}, {"rental_uris": {"ios": "https://dc.lft.to/lastmile_qr_scan", "android": "https://dc.lft.to/lastmile_qr_scan"}, "lon": -77.03506116666667, "type": "electric_scooter", "fusion_lat": 0.0, "lat": 38.921536, "name": "2da409edf008a1b7ede61b96f6b4a932", "fusion_lon": 0.0, "bike_id": "2da409edf008a1b7ede61b96f6b4a932", "is_disabled": 0, "is_reserved": 0}, {"rental_uris": {"ios": "https://dc.lft.to/lastmile_qr_scan", "android": "https://dc.lft.to/lastmile_qr_scan"}, "lon": -77.03218316666667, "type": "electric_scooter", "fusion_lat": 0.0, "lat": 38.92003283333333, "name": "6362bd5571b03f3cab15ec47b0ae1b65", "fusion_lon": 0.0, "bike_id": "6362bd5571b03f3cab15ec47b0ae1b65", "is_disabled": 0, "is_reserved": 0}, {"rental_uris": {"ios": "https://dc.lft.to/lastmile_qr_scan", "android": "https://dc.lft.to/lastmile_qr_scan"}, "lon": -77.02956783333333, "type": "electric_scooter", "fusion_lat": 0.0, "lat": 38.907323, "name": "a35a3ec62124b9cda33fca8bde12a852", "fusion_lon": 0.0, "bike_id": "a35a3ec62124b9cda33fca8bde12a852", "is_disabled": 0, "is_reserved": 0}, {"rental_uris": {"ios": "https://dc.lft.to/lastmile_qr_scan", "android": "https://dc.lft.to/lastmile_qr_scan"}, "lon": -77.0296145, "type": "electric_scooter", "fusion_lat": 0.0, "lat": 38.91678316666667, "name": "360007d6c6408a77d2cc76522a74b053", "fusion_lon": 0.0, "bike_id": "360007d6c6408a77d2cc76522a74b053", "is_disabled": 0, "is_reserved": 0}, {"rental_uris": {"ios": "https://dc.lft.to/lastmile_qr_scan", "android": "https://dc.lft.to/lastmile_qr_scan"}, "lon": -77.032217, "type": "electric_scooter", "fusion_lat": 0.0, "lat": 38.925866, "name": "277148046257f65f875456940bfe5a7b", "fusion_lon": 0.0, "bike_id": "277148046257f65f875456940bfe5a7b", "is_disabled": 0, "is_reserved": 0}, {"rental_uris": {"ios": "https://dc.lft.to/lastmile_qr_scan", "android": "https://dc.lft.to/lastmile_qr_scan"}, "lon": -77.04377066666666, "type": "electric_scooter", "fusion_lat": 0.0, "lat": 38.920656, "name": "0e16ee1e3574e1de37ee22da784d0420", "fusion_lon": 0.0, "bike_id": "0e16ee1e3574e1de37ee22da784d0420", "is_disabled": 0, "is_reserved": 0}, {"rental_uris": {"ios": "https://dc.lft.to/lastmile_qr_scan", "android": "https://dc.lft.to/lastmile_qr_scan"}, "lon": -77.04321, "type": "electric_scooter", "fusion_lat": 0.0, "lat": 38.914888166666664, "name": "58a76af6251a9df7a219b420c6b9ef3f", "fusion_lon": 0.0, "bike_id": "58a76af6251a9df7a219b420c6b9ef3f", "is_disabled": 0, "is_reserved": 0}, {"rental_uris": {"ios": "https://dc.lft.to/lastmile_qr_scan", "android": "https://dc.lft.to/lastmile_qr_scan"}, "lon": -77.04804366666667, "type": "electric_scooter", "fusion_lat": 0.0, "lat": 38.896140333333335, "name": "873f845e7efe2417ac0dbd20f40f1f87", "fusion_lon": 0.0, "bike_id": "873f845e7efe2417ac0dbd20f40f1f87", "is_disabled": 0, "is_reserved": 0}, {"rental_uris": {"ios": "https://dc.lft.to/lastmile_qr_scan", "android": "https://dc.lft.to/lastmile_qr_scan"}, "lon": -77.11210283333334, "type": "electric_bike", "fusion_lat": 0.0, "lat": 38.81306383333333, "name": "72aeb51fa7464114d4f6bda524e82419", "fusion_lon": 0.0, "bike_id": "72aeb51fa7464114d4f6bda524e82419", "is_disabled": 0, "is_reserved": 0}, {"rental_uris": {"ios": "https://dc.lft.to/lastmile_qr_scan", "android": "https://dc.lft.to/lastmile_qr_scan"}, "lon": -76.93534433333333, "type": "electric_bike", "fusion_lat": 0.0, "lat": 38.955503666666665, "name": "931ecc38ef0c24bda6fc697eafd5675d", "fusion_lon": 0.0, "bike_id": "931ecc38ef0c24bda6fc697eafd5675d", "is_disabled": 0, "is_reserved": 0}, {"rental_uris": {"ios": "https://dc.lft.to/lastmile_qr_scan", "android": "https://dc.lft.to/lastmile_qr_scan"}, "lon": -77.02195416666666, "type": "electric_scooter", "fusion_lat": 0.0, "lat": 38.89503233333333, "name": "3b2aee8cd4c1fc8eb364d4a68b22d134", "fusion_lon": 0.0, "bike_id": "3b2aee8cd4c1fc8eb364d4a68b22d134", "is_disabled": 0, "is_reserved": 0}, {"rental_uris": {"ios": "https://dc.lft.to/lastmile_qr_scan", "android": "https://dc.lft.to/lastmile_qr_scan"}, "lon": -77.1226295, "type": "electric_bike", "fusion_lat": 0.0, "lat": 38.8919045, "name": "f5bb12733bbafafe1644d39d20ef228c", "fusion_lon": 0.0, "bike_id": "f5bb12733bbafafe1644d39d20ef228c", "is_disabled": 0, "is_reserved": 0}, {"rental_uris": {"ios": "https://dc.lft.to/lastmile_qr_scan", "android": "https://dc.lft.to/lastmile_qr_scan"}, "lon": -77.023002, "type": "electric_scooter", "fusion_lat": 0.0, "lat": 38.91085916666667, "name": "9f0ed9ead719c58d68e01a6622c51b4e", "fusion_lon": 0.0, "bike_id": "9f0ed9ead719c58d68e01a6622c51b4e", "is_disabled": 0, "is_reserved": 0}, {"rental_uris": {"ios": "https://dc.lft.to/lastmile_qr_scan", "android": "https://dc.lft.to/lastmile_qr_scan"}, "lon": -77.02965266666666, "type": "electric_scooter", "fusion_lat": 0.0, "lat": 38.884356833333335, "name": "b64eb7c9012e9831f85f51ae91381fe9", "fusion_lon": 0.0, "bike_id": "b64eb7c9012e9831f85f51ae91381fe9", "is_disabled": 0, "is_reserved": 0}, {"rental_uris": {"ios": "https://dc.lft.to/lastmile_qr_scan", "android": "https://dc.lft.to/lastmile_qr_scan"}, "lon": -77.0371955, "type": "electric_scooter", "fusion_lat": 0.0, "lat": 38.933642, "name": "3fedc2d5ab358a30dc72ae21bfafc755", "fusion_lon": 0.0, "bike_id": "3fedc2d5ab358a30dc72ae21bfafc755", "is_disabled": 0, "is_reserved": 0}, {"rental_uris": {"ios": "https://dc.lft.to/lastmile_qr_scan", "android": "https://dc.lft.to/lastmile_qr_scan"}, "lon": -77.03322933333334, "type": "electric_scooter", "fusion_lat": 0.0, "lat": 38.9205635, "name": "b90d9a3d0ab1497af38cba8847104532", "fusion_lon": 0.0, "bike_id": "b90d9a3d0ab1497af38cba8847104532", "is_disabled": 0, "is_reserved": 0}, {"rental_uris": {"ios": "https://dc.lft.to/lastmile_qr_scan", "android": "https://dc.lft.to/lastmile_qr_scan"}, "lon": -77.07684383333333, "type": "electric_bike", "fusion_lat": 0.0, "lat": 38.831945166666664, "name": "a7e601ed2cdf7b03579b9211e4524ed6", "fusion_lon": 0.0, "bike_id": "a7e601ed2cdf7b03579b9211e4524ed6", "is_disabled": 0, "is_reserved": 0}, {"rental_uris": {"ios": "https://dc.lft.to/lastmile_qr_scan", "android": "https://dc.lft.to/lastmile_qr_scan"}, "lon": -76.97813633333334, "type": "electric_scooter", "fusion_lat": 0.0, "lat": 38.90676533333333, "name": "238a05c59616d2ff3a2522ec2d107982", "fusion_lon": 0.0, "bike_id": "238a05c59616d2ff3a2522ec2d107982", "is_disabled": 0, "is_reserved": 0}, {"rental_uris": {"ios": "https://dc.lft.to/lastmile_qr_scan", "android": "https://dc.lft.to/lastmile_qr_scan"}, "lon": -77.03222283333334, "type": "electric_scooter", "fusion_lat": 0.0, "lat": 38.908701, "name": "66414efbd3dc7416d9802ebfcedef972", "fusion_lon": 0.0, "bike_id": "66414efbd3dc7416d9802ebfcedef972", "is_disabled": 0, "is_reserved": 0}, {"rental_uris": {"ios": "https://dc.lft.to/lastmile_qr_scan", "android": "https://dc.lft.to/lastmile_qr_scan"}, "lon": -76.988831, "type": "electric_scooter", "fusion_lat": 0.0, "lat": 38.86661016666667, "name": "86e29a38a0ba1dfb96f2f71877b0ec54", "fusion_lon": 0.0, "bike_id": "86e29a38a0ba1dfb96f2f71877b0ec54", "is_disabled": 0, "is_reserved": 0}, {"rental_uris": {"ios": "https://dc.lft.to/lastmile_qr_scan", "android": "https://dc.lft.to/lastmile_qr_scan"}, "lon": -77.03699833333333, "type": "electric_scooter", "fusion_lat": 0.0, "lat": 38.92621033333333, "name": "fba8b7cdfefa77392ece85c8191b372c", "fusion_lon": 0.0, "bike_id": "fba8b7cdfefa77392ece85c8191b372c", "is_disabled": 0, "is_reserved": 0}, {"rental_uris": {"ios": "https://dc.lft.to/lastmile_qr_scan", "android": "https://dc.lft.to/lastmile_qr_scan"}, "lon": -76.9375145, "type": "electric_scooter", "fusion_lat": 0.0, "lat": 38.912868333333336, "name": "b8f2215e3054fd0c9160480f02a75fff", "fusion_lon": 0.0, "bike_id": "b8f2215e3054fd0c9160480f02a75fff", "is_disabled": 0, "is_reserved": 0}, {"rental_uris": {"ios": "https://dc.lft.to/lastmile_qr_scan", "android": "https://dc.lft.to/lastmile_qr_scan"}, "lon": -76.97705633333334, "type": "electric_scooter", "fusion_lat": 0.0, "lat": 38.90255666666667, "name": "6ea5c82e552db87faec5649de5effe2f", "fusion_lon": 0.0, "bike_id": "6ea5c82e552db87faec5649de5effe2f", "is_disabled": 0, "is_reserved": 0}, {"rental_uris": {"ios": "https://dc.lft.to/lastmile_qr_scan", "android": "https://dc.lft.to/lastmile_qr_scan"}, "lon": -77.032862, "type": "electric_scooter", "fusion_lat": 0.0, "lat": 38.9348795, "name": "27d27cd71a8b2eb069db9997745b5b63", "fusion_lon": 0.0, "bike_id": "27d27cd71a8b2eb069db9997745b5b63", "is_disabled": 0, "is_reserved": 0}, {"rental_uris": {"ios": "https://dc.lft.to/lastmile_qr_scan", "android": "https://dc.lft.to/lastmile_qr_scan"}, "lon": -77.02231016666667, "type": "electric_scooter", "fusion_lat": 0.0, "lat": 38.89194416666667, "name": "1c097747ecbe586f32b83435aa8b9362", "fusion_lon": 0.0, "bike_id": "1c097747ecbe586f32b83435aa8b9362", "is_disabled": 0, "is_reserved": 0}, {"rental_uris": {"ios": "https://dc.lft.to/lastmile_qr_scan", "android": "https://dc.lft.to/lastmile_qr_scan"}, "lon": -77.04245816666666, "type": "electric_scooter", "fusion_lat": 0.0, "lat": 38.92053933333333, "name": "1c83851d3f27a1a068d7bd2281126243", "fusion_lon": 0.0, "bike_id": "1c83851d3f27a1a068d7bd2281126243", "is_disabled": 0, "is_reserved": 0}, {"rental_uris": {"ios": "https://dc.lft.to/lastmile_qr_scan", "android": "https://dc.lft.to/lastmile_qr_scan"}, "lon": -77.03707416666667, "type": "electric_scooter", "fusion_lat": 0.0, "lat": 38.926259333333334, "name": "17002174222c155b40ea0d344a236f36", "fusion_lon": 0.0, "bike_id": "17002174222c155b40ea0d344a236f36", "is_disabled": 0, "is_reserved": 0}, {"rental_uris": {"ios": "https://dc.lft.to/lastmile_qr_scan", "android": "https://dc.lft.to/lastmile_qr_scan"}, "lon": -76.98599283333333, "type": "electric_bike", "fusion_lat": 0.0, "lat": 38.90619783333333, "name": "c4fd9db7c14e06a902e84ced5eb72aa6", "fusion_lon": 0.0, "bike_id": "c4fd9db7c14e06a902e84ced5eb72aa6", "is_disabled": 0, "is_reserved": 0}, {"rental_uris": {"ios": "https://dc.lft.to/lastmile_qr_scan", "android": "https://dc.lft.to/lastmile_qr_scan"}, "lon": -76.98563283333333, "type": "electric_scooter", "fusion_lat": 0.0, "lat": 38.899514833333335, "name": "5bddddaeb32f02c244dfd6c9f5bc4ff9", "fusion_lon": 0.0, "bike_id": "5bddddaeb32f02c244dfd6c9f5bc4ff9", "is_disabled": 0, "is_reserved": 0}, {"rental_uris": {"ios": "https://dc.lft.to/lastmile_qr_scan", "android": "https://dc.lft.to/lastmile_qr_scan"}, "lon": -77.09672883333333, "type": "electric_scooter", "fusion_lat": 0.0, "lat": 38.91770833333333, "name": "e7a20b4b0a64f1d92398403318cabe91", "fusion_lon": 0.0, "bike_id": "e7a20b4b0a64f1d92398403318cabe91", "is_disabled": 0, "is_reserved": 0}, {"rental_uris": {"ios": "https://dc.lft.to/lastmile_qr_scan", "android": "https://dc.lft.to/lastmile_qr_scan"}, "lon": -77.0138835, "type": "electric_scooter", "fusion_lat": 0.0, "lat": 38.91947783333333, "name": "5084370f1b3db0fff0a2e5fd71c9e616", "fusion_lon": 0.0, "bike_id": "5084370f1b3db0fff0a2e5fd71c9e616", "is_disabled": 0, "is_reserved": 0}, {"rental_uris": {"ios": "https://dc.lft.to/lastmile_qr_scan", "android": "https://dc.lft.to/lastmile_qr_scan"}, "lon": -77.036714, "type": "electric_scooter", "fusion_lat": 0.0, "lat": 38.9171045, "name": "15ea01a8150e6658f1e813653e8d3483", "fusion_lon": 0.0, "bike_id": "15ea01a8150e6658f1e813653e8d3483", "is_disabled": 0, "is_reserved": 0}, {"rental_uris": {"ios": "https://dc.lft.to/lastmile_qr_scan", "android": "https://dc.lft.to/lastmile_qr_scan"}, "lon": -77.04245966666667, "type": "electric_scooter", "fusion_lat": 0.0, "lat": 38.905763666666665, "name": "d2a23fb9b75d976b547ba89b8debfc11", "fusion_lon": 0.0, "bike_id": "d2a23fb9b75d976b547ba89b8debfc11", "is_disabled": 0, "is_reserved": 0}, {"rental_uris": {"ios": "https://dc.lft.to/lastmile_qr_scan", "android": "https://dc.lft.to/lastmile_qr_scan"}, "lon": -77.04138433333334, "type": "electric_bike", "fusion_lat": 0.0, "lat": 38.916853, "name": "e6cdd91963b4950b959b96ee477351a0", "fusion_lon": 0.0, "bike_id": "e6cdd91963b4950b959b96ee477351a0", "is_disabled": 0, "is_reserved": 0}, {"rental_uris": {"ios": "https://dc.lft.to/lastmile_qr_scan", "android": "https://dc.lft.to/lastmile_qr_scan"}, "lon": -77.02858416666666, "type": "electric_scooter", "fusion_lat": 0.0, "lat": 38.9281805, "name": "cb0a8ea0aa6d5927e970c436df131729", "fusion_lon": 0.0, "bike_id": "cb0a8ea0aa6d5927e970c436df131729", "is_disabled": 0, "is_reserved": 0}, {"rental_uris": {"ios": "https://dc.lft.to/lastmile_qr_scan", "android": "https://dc.lft.to/lastmile_qr_scan"}, "lon": -77.0235875, "type": "electric_scooter", "fusion_lat": 0.0, "lat": 38.92505766666667, "name": "04c7da98e66c6c916d4ba7320e74b4c3", "fusion_lon": 0.0, "bike_id": "04c7da98e66c6c916d4ba7320e74b4c3", "is_disabled": 0, "is_reserved": 0}, {"rental_uris": {"ios": "https://dc.lft.to/lastmile_qr_scan", "android": "https://dc.lft.to/lastmile_qr_scan"}, "lon": -77.01701466666667, "type": "electric_scooter", "fusion_lat": 0.0, "lat": 38.9202345, "name": "b74d5d8f4583a4a9ca4c27ab3b0e815f", "fusion_lon": 0.0, "bike_id": "b74d5d8f4583a4a9ca4c27ab3b0e815f", "is_disabled": 0, "is_reserved": 0}, {"rental_uris": {"ios": "https://dc.lft.to/lastmile_qr_scan", "android": "https://dc.lft.to/lastmile_qr_scan"}, "lon": -77.022633, "type": "electric_scooter", "fusion_lat": 0.0, "lat": 38.924608, "name": "3ea583ab79598f01040ff4262b0b202d", "fusion_lon": 0.0, "bike_id": "3ea583ab79598f01040ff4262b0b202d", "is_disabled": 0, "is_reserved": 0}, {"rental_uris": {"ios": "https://dc.lft.to/lastmile_qr_scan", "android": "https://dc.lft.to/lastmile_qr_scan"}, "lon": -77.03348016666666, "type": "electric_scooter", "fusion_lat": 0.0, "lat": 38.93421583333333, "name": "7847e7c045985b241b43a5bb3fd525a6", "fusion_lon": 0.0, "bike_id": "7847e7c045985b241b43a5bb3fd525a6", "is_disabled": 0, "is_reserved": 0}, {"rental_uris": {"ios": "https://dc.lft.to/lastmile_qr_scan", "android": "https://dc.lft.to/lastmile_qr_scan"}, "lon": -77.0354825, "type": "electric_scooter", "fusion_lat": 0.0, "lat": 38.93286466666667, "name": "c06b9e8d982f386765eda988a984bc24", "fusion_lon": 0.0, "bike_id": "c06b9e8d982f386765eda988a984bc24", "is_disabled": 0, "is_reserved": 0}, {"rental_uris": {"ios": "https://dc.lft.to/lastmile_qr_scan", "android": "https://dc.lft.to/lastmile_qr_scan"}, "lon": -77.04808766666666, "type": "electric_scooter", "fusion_lat": 0.0, "lat": 38.920357833333334, "name": "16ffd27c568998e082178f0c86dbcd02", "fusion_lon": 0.0, "bike_id": "16ffd27c568998e082178f0c86dbcd02", "is_disabled": 0, "is_reserved": 0}, {"rental_uris": {"ios": "https://dc.lft.to/lastmile_qr_scan", "android": "https://dc.lft.to/lastmile_qr_scan"}, "lon": -77.01288233333334, "type": "electric_scooter", "fusion_lat": 0.0, "lat": 38.900506666666665, "name": "e277c6764ae72172a37e6262786a059d", "fusion_lon": 0.0, "bike_id": "e277c6764ae72172a37e6262786a059d", "is_disabled": 0, "is_reserved": 0}, {"rental_uris": {"ios": "https://dc.lft.to/lastmile_qr_scan", "android": "https://dc.lft.to/lastmile_qr_scan"}, "lon": -77.03412183333333, "type": "electric_scooter", "fusion_lat": 0.0, "lat": 38.935416833333335, "name": "4653ace1fd672ea90c2cf567475834f6", "fusion_lon": 0.0, "bike_id": "4653ace1fd672ea90c2cf567475834f6", "is_disabled": 0, "is_reserved": 0}, {"rental_uris": {"ios": "https://dc.lft.to/lastmile_qr_scan", "android": "https://dc.lft.to/lastmile_qr_scan"}, "lon": -77.0211845, "type": "electric_scooter", "fusion_lat": 0.0, "lat": 38.91557666666667, "name": "e58d117e4285e72870aca8b1141e6eec", "fusion_lon": 0.0, "bike_id": "e58d117e4285e72870aca8b1141e6eec", "is_disabled": 0, "is_reserved": 0}, {"rental_uris": {"ios": "https://dc.lft.to/lastmile_qr_scan", "android": "https://dc.lft.to/lastmile_qr_scan"}, "lon": -76.95816266666667, "type": "electric_scooter", "fusion_lat": 0.0, "lat": 38.89055833333333, "name": "b2fe142edba53709dd5ce71bddd81635", "fusion_lon": 0.0, "bike_id": "b2fe142edba53709dd5ce71bddd81635", "is_disabled": 0, "is_reserved": 0}, {"rental_uris": {"ios": "https://dc.lft.to/lastmile_qr_scan", "android": "https://dc.lft.to/lastmile_qr_scan"}, "lon": -77.04115033333333, "type": "electric_scooter", "fusion_lat": 0.0, "lat": 38.92149783333333, "name": "b0ff10fe2d1a77b76bc2bb9b069b0221", "fusion_lon": 0.0, "bike_id": "b0ff10fe2d1a77b76bc2bb9b069b0221", "is_disabled": 0, "is_reserved": 0}, {"rental_uris": {"ios": "https://dc.lft.to/lastmile_qr_scan", "android": "https://dc.lft.to/lastmile_qr_scan"}, "lon": -77.04495266666666, "type": "electric_scooter", "fusion_lat": 0.0, "lat": 38.912808166666665, "name": "c323b5d618bc97c6ddd757f06184e2d3", "fusion_lon": 0.0, "bike_id": "c323b5d618bc97c6ddd757f06184e2d3", "is_disabled": 0, "is_reserved": 0}, {"rental_uris": {"ios": "https://dc.lft.to/lastmile_qr_scan", "android": "https://dc.lft.to/lastmile_qr_scan"}, "lon": -77.01738366666666, "type": "electric_scooter", "fusion_lat": 0.0, "lat": 38.90378583333333, "name": "14ce2d4511ae1def90155cd33ef39c9c", "fusion_lon": 0.0, "bike_id": "14ce2d4511ae1def90155cd33ef39c9c", "is_disabled": 0, "is_reserved": 0}, {"rental_uris": {"ios": "https://dc.lft.to/lastmile_qr_scan", "android": "https://dc.lft.to/lastmile_qr_scan"}, "lon": -76.98618733333333, "type": "electric_scooter", "fusion_lat": 0.0, "lat": 38.8681175, "name": "a3b0d915f230642b66760a8b31fd6f99", "fusion_lon": 0.0, "bike_id": "a3b0d915f230642b66760a8b31fd6f99", "is_disabled": 0, "is_reserved": 0}, {"rental_uris": {"ios": "https://dc.lft.to/lastmile_qr_scan", "android": "https://dc.lft.to/lastmile_qr_scan"}, "lon": -77.03270416666666, "type": "electric_scooter", "fusion_lat": 0.0, "lat": 38.925406333333335, "name": "1963da98aa9a4abf99af3dbff9d3abd9", "fusion_lon": 0.0, "bike_id": "1963da98aa9a4abf99af3dbff9d3abd9", "is_disabled": 0, "is_reserved": 0}, {"rental_uris": {"ios": "https://dc.lft.to/lastmile_qr_scan", "android": "https://dc.lft.to/lastmile_qr_scan"}, "lon": -77.02719366666666, "type": "electric_scooter", "fusion_lat": 0.0, "lat": 38.90969, "name": "5903cf5e4310f73b06a67a7ee457b379", "fusion_lon": 0.0, "bike_id": "5903cf5e4310f73b06a67a7ee457b379", "is_disabled": 0, "is_reserved": 0}, {"rental_uris": {"ios": "https://dc.lft.to/lastmile_qr_scan", "android": "https://dc.lft.to/lastmile_qr_scan"}, "lon": -77.03896266666666, "type": "electric_scooter", "fusion_lat": 0.0, "lat": 38.93269, "name": "82b21694ab0c53cbfbf4c55866acd939", "fusion_lon": 0.0, "bike_id": "82b21694ab0c53cbfbf4c55866acd939", "is_disabled": 0, "is_reserved": 0}, {"rental_uris": {"ios": "https://dc.lft.to/lastmile_qr_scan", "android": "https://dc.lft.to/lastmile_qr_scan"}, "lon": -77.058291, "type": "electric_scooter", "fusion_lat": 0.0, "lat": 38.9342105, "name": "ebaeeed5d8d6a864b4503a7fc961a790", "fusion_lon": 0.0, "bike_id": "ebaeeed5d8d6a864b4503a7fc961a790", "is_disabled": 0, "is_reserved": 0}, {"rental_uris": {"ios": "https://dc.lft.to/lastmile_qr_scan", "android": "https://dc.lft.to/lastmile_qr_scan"}, "lon": -77.09520533333334, "type": "electric_bike", "fusion_lat": 0.0, "lat": 38.838113, "name": "4d743dbc35aecaaea2f607d79ee7ab88", "fusion_lon": 0.0, "bike_id": "4d743dbc35aecaaea2f607d79ee7ab88", "is_disabled": 0, "is_reserved": 0}, {"rental_uris": {"ios": "https://dc.lft.to/lastmile_qr_scan", "android": "https://dc.lft.to/lastmile_qr_scan"}, "lon": -77.06381216666666, "type": "electric_bike", "fusion_lat": 0.0, "lat": 38.9050965, "name": "ee03d51f9098dd9d71ced9e26a65807f", "fusion_lon": 0.0, "bike_id": "ee03d51f9098dd9d71ced9e26a65807f", "is_disabled": 0, "is_reserved": 0}, {"rental_uris": {"ios": "https://dc.lft.to/lastmile_qr_scan", "android": "https://dc.lft.to/lastmile_qr_scan"}, "lon": -77.0356295, "type": "electric_scooter", "fusion_lat": 0.0, "lat": 38.918113166666664, "name": "98aa765fadd524c165d579e0be64682b", "fusion_lon": 0.0, "bike_id": "98aa765fadd524c165d579e0be64682b", "is_disabled": 0, "is_reserved": 0}, {"rental_uris": {"ios": "https://dc.lft.to/lastmile_qr_scan", "android": "https://dc.lft.to/lastmile_qr_scan"}, "lon": -77.0558815, "type": "electric_scooter", "fusion_lat": 0.0, "lat": 38.927782666666666, "name": "64131ee4c0cfb926b051df62cf9dbc44", "fusion_lon": 0.0, "bike_id": "64131ee4c0cfb926b051df62cf9dbc44", "is_disabled": 0, "is_reserved": 0}, {"rental_uris": {"ios": "https://dc.lft.to/lastmile_qr_scan", "android": "https://dc.lft.to/lastmile_qr_scan"}, "lon": -77.022121, "type": "electric_scooter", "fusion_lat": 0.0, "lat": 38.912695666666664, "name": "5f5f77353bcf9f0007f71c0990a612a2", "fusion_lon": 0.0, "bike_id": "5f5f77353bcf9f0007f71c0990a612a2", "is_disabled": 0, "is_reserved": 0}, {"rental_uris": {"ios": "https://dc.lft.to/lastmile_qr_scan", "android": "https://dc.lft.to/lastmile_qr_scan"}, "lon": -77.03345166666666, "type": "electric_scooter", "fusion_lat": 0.0, "lat": 38.919138833333335, "name": "a5ecbb348311a7bd663457c84422fe2d", "fusion_lon": 0.0, "bike_id": "a5ecbb348311a7bd663457c84422fe2d", "is_disabled": 0, "is_reserved": 0}, {"rental_uris": {"ios": "https://dc.lft.to/lastmile_qr_scan", "android": "https://dc.lft.to/lastmile_qr_scan"}, "lon": -77.04275033333333, "type": "electric_scooter", "fusion_lat": 0.0, "lat": 38.908732666666666, "name": "9c4d5c15298350f7cea46758821f5557", "fusion_lon": 0.0, "bike_id": "9c4d5c15298350f7cea46758821f5557", "is_disabled": 0, "is_reserved": 0}, {"rental_uris": {"ios": "https://dc.lft.to/lastmile_qr_scan", "android": "https://dc.lft.to/lastmile_qr_scan"}, "lon": -77.0377325, "type": "electric_scooter", "fusion_lat": 0.0, "lat": 38.90562666666667, "name": "ea5deeb5fe6d3e388e17ffbc89323e31", "fusion_lon": 0.0, "bike_id": "ea5deeb5fe6d3e388e17ffbc89323e31", "is_disabled": 0, "is_reserved": 0}, {"rental_uris": {"ios": "https://dc.lft.to/lastmile_qr_scan", "android": "https://dc.lft.to/lastmile_qr_scan"}, "lon": -77.05291616666666, "type": "electric_scooter", "fusion_lat": 0.0, "lat": 38.92786666666667, "name": "c416a9884c91b7b9e57dcb62b6fe2c4c", "fusion_lon": 0.0, "bike_id": "c416a9884c91b7b9e57dcb62b6fe2c4c", "is_disabled": 0, "is_reserved": 0}, {"rental_uris": {"ios": "https://dc.lft.to/lastmile_qr_scan", "android": "https://dc.lft.to/lastmile_qr_scan"}, "lon": -77.03227383333333, "type": "electric_scooter", "fusion_lat": 0.0, "lat": 38.92672133333333, "name": "4a6d1ad5c008bbf9d8019bfbf35872f3", "fusion_lon": 0.0, "bike_id": "4a6d1ad5c008bbf9d8019bfbf35872f3", "is_disabled": 0, "is_reserved": 0}, {"rental_uris": {"ios": "https://dc.lft.to/lastmile_qr_scan", "android": "https://dc.lft.to/lastmile_qr_scan"}, "lon": -77.03793216666666, "type": "electric_scooter", "fusion_lat": 0.0, "lat": 38.93595966666667, "name": "6a1e81c784a4944c6d367061bb4f8dcb", "fusion_lon": 0.0, "bike_id": "6a1e81c784a4944c6d367061bb4f8dcb", "is_disabled": 0, "is_reserved": 0}, {"rental_uris": {"ios": "https://dc.lft.to/lastmile_qr_scan", "android": "https://dc.lft.to/lastmile_qr_scan"}, "lon": -77.0487625, "type": "electric_scooter", "fusion_lat": 0.0, "lat": 38.903048166666665, "name": "8b6aeecff916f2eb5235b17ca2b2a000", "fusion_lon": 0.0, "bike_id": "8b6aeecff916f2eb5235b17ca2b2a000", "is_disabled": 0, "is_reserved": 0}, {"rental_uris": {"ios": "https://dc.lft.to/lastmile_qr_scan", "android": "https://dc.lft.to/lastmile_qr_scan"}, "lon": -76.97183166666667, "type": "electric_scooter", "fusion_lat": 0.0, "lat": 38.917613833333334, "name": "06b514838223ee90ed234dbf94fd5164", "fusion_lon": 0.0, "bike_id": "06b514838223ee90ed234dbf94fd5164", "is_disabled": 0, "is_reserved": 0}, {"rental_uris": {"ios": "https://dc.lft.to/lastmile_qr_scan", "android": "https://dc.lft.to/lastmile_qr_scan"}, "lon": -77.032663, "type": "electric_scooter", "fusion_lat": 0.0, "lat": 38.932316666666665, "name": "cc48c09cba04543d70dc8b664c07628e", "fusion_lon": 0.0, "bike_id": "cc48c09cba04543d70dc8b664c07628e", "is_disabled": 0, "is_reserved": 0}, {"rental_uris": {"ios": "https://dc.lft.to/lastmile_qr_scan", "android": "https://dc.lft.to/lastmile_qr_scan"}, "lon": -76.989617, "type": "electric_scooter", "fusion_lat": 0.0, "lat": 38.90025466666667, "name": "f8ad8e8f39206b5dd1e3df710663aefa", "fusion_lon": 0.0, "bike_id": "f8ad8e8f39206b5dd1e3df710663aefa", "is_disabled": 0, "is_reserved": 0}, {"rental_uris": {"ios": "https://dc.lft.to/lastmile_qr_scan", "android": "https://dc.lft.to/lastmile_qr_scan"}, "lon": -77.12905066666667, "type": "electric_bike", "fusion_lat": 0.0, "lat": 38.863785666666665, "name": "54ad78f00d692abced3430116e48b6b7", "fusion_lon": 0.0, "bike_id": "54ad78f00d692abced3430116e48b6b7", "is_disabled": 0, "is_reserved": 0}, {"rental_uris": {"ios": "https://dc.lft.to/lastmile_qr_scan", "android": "https://dc.lft.to/lastmile_qr_scan"}, "lon": -77.0094095, "type": "electric_scooter", "fusion_lat": 0.0, "lat": 38.871941166666666, "name": "6c14373ea0d379b23b51908e7613191e", "fusion_lon": 0.0, "bike_id": "6c14373ea0d379b23b51908e7613191e", "is_disabled": 0, "is_reserved": 0}, {"rental_uris": {"ios": "https://dc.lft.to/lastmile_qr_scan", "android": "https://dc.lft.to/lastmile_qr_scan"}, "lon": -76.97459483333333, "type": "electric_scooter", "fusion_lat": 0.0, "lat": 38.865408, "name": "e952a94fb067e51e66209e51eb9d167d", "fusion_lon": 0.0, "bike_id": "e952a94fb067e51e66209e51eb9d167d", "is_disabled": 0, "is_reserved": 0}, {"rental_uris": {"ios": "https://dc.lft.to/lastmile_qr_scan", "android": "https://dc.lft.to/lastmile_qr_scan"}, "lon": -76.98341333333333, "type": "electric_scooter", "fusion_lat": 0.0, "lat": 38.91542066666667, "name": "18bc331932b7c0d93ff70bb5de37f020", "fusion_lon": 0.0, "bike_id": "18bc331932b7c0d93ff70bb5de37f020", "is_disabled": 0, "is_reserved": 0}, {"rental_uris": {"ios": "https://dc.lft.to/lastmile_qr_scan", "android": "https://dc.lft.to/lastmile_qr_scan"}, "lon": -76.95470966666667, "type": "electric_bike", "fusion_lat": 0.0, "lat": 38.8864465, "name": "72bd27e5b632fd1717a6cf91ea44089a", "fusion_lon": 0.0, "bike_id": "72bd27e5b632fd1717a6cf91ea44089a", "is_disabled": 0, "is_reserved": 0}, {"rental_uris": {"ios": "https://dc.lft.to/lastmile_qr_scan", "android": "https://dc.lft.to/lastmile_qr_scan"}, "lon": -76.98789816666667, "type": "electric_bike", "fusion_lat": 0.0, "lat": 38.904203833333334, "name": "470f51a794638267f0baefcdd5f94853", "fusion_lon": 0.0, "bike_id": "470f51a794638267f0baefcdd5f94853", "is_disabled": 0, "is_reserved": 0}, {"rental_uris": {"ios": "https://dc.lft.to/lastmile_qr_scan", "android": "https://dc.lft.to/lastmile_qr_scan"}, "lon": -77.02225966666667, "type": "electric_scooter", "fusion_lat": 0.0, "lat": 38.912694333333334, "name": "8260bc73cd92e70aa5ed03bdd9317da0", "fusion_lon": 0.0, "bike_id": "8260bc73cd92e70aa5ed03bdd9317da0", "is_disabled": 0, "is_reserved": 0}, {"rental_uris": {"ios": "https://dc.lft.to/lastmile_qr_scan", "android": "https://dc.lft.to/lastmile_qr_scan"}, "lon": -76.99066133333334, "type": "electric_scooter", "fusion_lat": 0.0, "lat": 38.86357133333333, "name": "65c2fc9277bb2ef0560ea0058be84afd", "fusion_lon": 0.0, "bike_id": "65c2fc9277bb2ef0560ea0058be84afd", "is_disabled": 0, "is_reserved": 0}, {"rental_uris": {"ios": "https://dc.lft.to/lastmile_qr_scan", "android": "https://dc.lft.to/lastmile_qr_scan"}, "lon": -77.0338905, "type": "electric_scooter", "fusion_lat": 0.0, "lat": 38.92149666666667, "name": "dfa5bd7dac30c7f4c0f7dc686e46857f", "fusion_lon": 0.0, "bike_id": "dfa5bd7dac30c7f4c0f7dc686e46857f", "is_disabled": 0, "is_reserved": 0}, {"rental_uris": {"ios": "https://dc.lft.to/lastmile_qr_scan", "android": "https://dc.lft.to/lastmile_qr_scan"}, "lon": -77.0271565, "type": "electric_scooter", "fusion_lat": 0.0, "lat": 38.9182275, "name": "b9a8f5a4235881b33d6fa79be300ad8a", "fusion_lon": 0.0, "bike_id": "b9a8f5a4235881b33d6fa79be300ad8a", "is_disabled": 0, "is_reserved": 0}, {"rental_uris": {"ios": "https://dc.lft.to/lastmile_qr_scan", "android": "https://dc.lft.to/lastmile_qr_scan"}, "lon": -77.118034, "type": "electric_bike", "fusion_lat": 0.0, "lat": 38.898354499999996, "name": "0a80ce489ae9112b029447a915ee82fe", "fusion_lon": 0.0, "bike_id": "0a80ce489ae9112b029447a915ee82fe", "is_disabled": 0, "is_reserved": 0}, {"rental_uris": {"ios": "https://dc.lft.to/lastmile_qr_scan", "android": "https://dc.lft.to/lastmile_qr_scan"}, "lon": -77.02900583333333, "type": "electric_scooter", "fusion_lat": 0.0, "lat": 38.892331666666664, "name": "29dc86aa60fbd014423f9360a88daf56", "fusion_lon": 0.0, "bike_id": "29dc86aa60fbd014423f9360a88daf56", "is_disabled": 0, "is_reserved": 0}, {"rental_uris": {"ios": "https://dc.lft.to/lastmile_qr_scan", "android": "https://dc.lft.to/lastmile_qr_scan"}, "lon": -77.01225166666667, "type": "electric_scooter", "fusion_lat": 0.0, "lat": 38.915971, "name": "bbf43f4e5b5708285c769c72014755d5", "fusion_lon": 0.0, "bike_id": "bbf43f4e5b5708285c769c72014755d5", "is_disabled": 0, "is_reserved": 0}, {"rental_uris": {"ios": "https://dc.lft.to/lastmile_qr_scan", "android": "https://dc.lft.to/lastmile_qr_scan"}, "lon": -77.0322015, "type": "electric_scooter", "fusion_lat": 0.0, "lat": 38.900215833333334, "name": "e3b046c5995a393205baacf216e8debd", "fusion_lon": 0.0, "bike_id": "e3b046c5995a393205baacf216e8debd", "is_disabled": 0, "is_reserved": 0}, {"rental_uris": {"ios": "https://dc.lft.to/lastmile_qr_scan", "android": "https://dc.lft.to/lastmile_qr_scan"}, "lon": -77.05981616666666, "type": "electric_scooter", "fusion_lat": 0.0, "lat": 38.935486166666664, "name": "c65fdb596096d2bb87332a16987b9f44", "fusion_lon": 0.0, "bike_id": "c65fdb596096d2bb87332a16987b9f44", "is_disabled": 0, "is_reserved": 0}, {"rental_uris": {"ios": "https://dc.lft.to/lastmile_qr_scan", "android": "https://dc.lft.to/lastmile_qr_scan"}, "lon": -77.01209016666667, "type": "electric_scooter", "fusion_lat": 0.0, "lat": 38.914988666666666, "name": "dbce4fb8252e7818de81ad0efd545234", "fusion_lon": 0.0, "bike_id": "dbce4fb8252e7818de81ad0efd545234", "is_disabled": 0, "is_reserved": 0}, {"rental_uris": {"ios": "https://dc.lft.to/lastmile_qr_scan", "android": "https://dc.lft.to/lastmile_qr_scan"}, "lon": -77.03853833333334, "type": "electric_scooter", "fusion_lat": 0.0, "lat": 38.92641366666667, "name": "2e4519b38925c1e0f7a03a6bde505c3b", "fusion_lon": 0.0, "bike_id": "2e4519b38925c1e0f7a03a6bde505c3b", "is_disabled": 0, "is_reserved": 0}, {"rental_uris": {"ios": "https://dc.lft.to/lastmile_qr_scan", "android": "https://dc.lft.to/lastmile_qr_scan"}, "lon": -77.05228416666667, "type": "electric_scooter", "fusion_lat": 0.0, "lat": 38.89809966666667, "name": "f0fd5c9125a029ed218c2d45725ce34d", "fusion_lon": 0.0, "bike_id": "f0fd5c9125a029ed218c2d45725ce34d", "is_disabled": 0, "is_reserved": 0}, {"rental_uris": {"ios": "https://dc.lft.to/lastmile_qr_scan", "android": "https://dc.lft.to/lastmile_qr_scan"}, "lon": -77.01512283333334, "type": "electric_scooter", "fusion_lat": 0.0, "lat": 38.88738516666667, "name": "c922cc429deb42e7fffd74d02847034c", "fusion_lon": 0.0, "bike_id": "c922cc429deb42e7fffd74d02847034c", "is_disabled": 0, "is_reserved": 0}, {"rental_uris": {"ios": "https://dc.lft.to/lastmile_qr_scan", "android": "https://dc.lft.to/lastmile_qr_scan"}, "lon": -77.04624416666667, "type": "electric_scooter", "fusion_lat": 0.0, "lat": 38.91899933333333, "name": "72168fc608350c6f9302016de26dea10", "fusion_lon": 0.0, "bike_id": "72168fc608350c6f9302016de26dea10", "is_disabled": 0, "is_reserved": 0}, {"rental_uris": {"ios": "https://dc.lft.to/lastmile_qr_scan", "android": "https://dc.lft.to/lastmile_qr_scan"}, "lon": -77.02963333333334, "type": "electric_scooter", "fusion_lat": 0.0, "lat": 38.92566, "name": "c06ce3c1a95c2deb781ac4fbcbd792f2", "fusion_lon": 0.0, "bike_id": "c06ce3c1a95c2deb781ac4fbcbd792f2", "is_disabled": 0, "is_reserved": 0}, {"rental_uris": {"ios": "https://dc.lft.to/lastmile_qr_scan", "android": "https://dc.lft.to/lastmile_qr_scan"}, "lon": -77.03263816666667, "type": "electric_scooter", "fusion_lat": 0.0, "lat": 38.94413983333333, "name": "238d30cf447d3ccc9c28e1a1ef808958", "fusion_lon": 0.0, "bike_id": "238d30cf447d3ccc9c28e1a1ef808958", "is_disabled": 0, "is_reserved": 0}, {"rental_uris": {"ios": "https://dc.lft.to/lastmile_qr_scan", "android": "https://dc.lft.to/lastmile_qr_scan"}, "lon": -77.01793316666667, "type": "electric_scooter", "fusion_lat": 0.0, "lat": 38.94120483333333, "name": "3cf957d80133e2a4d92e8a46f584df12", "fusion_lon": 0.0, "bike_id": "3cf957d80133e2a4d92e8a46f584df12", "is_disabled": 0, "is_reserved": 0}, {"rental_uris": {"ios": "https://dc.lft.to/lastmile_qr_scan", "android": "https://dc.lft.to/lastmile_qr_scan"}, "lon": -77.03330033333333, "type": "electric_scooter", "fusion_lat": 0.0, "lat": 38.8984175, "name": "d4f4c9331b257b7cef87356a3e51a0ca", "fusion_lon": 0.0, "bike_id": "d4f4c9331b257b7cef87356a3e51a0ca", "is_disabled": 0, "is_reserved": 0}, {"rental_uris": {"ios": "https://dc.lft.to/lastmile_qr_scan", "android": "https://dc.lft.to/lastmile_qr_scan"}, "lon": -77.06594766666667, "type": "electric_scooter", "fusion_lat": 0.0, "lat": 38.905304, "name": "716462409cae811079a89b80d611554f", "fusion_lon": 0.0, "bike_id": "716462409cae811079a89b80d611554f", "is_disabled": 0, "is_reserved": 0}, {"rental_uris": {"ios": "https://dc.lft.to/lastmile_qr_scan", "android": "https://dc.lft.to/lastmile_qr_scan"}, "lon": -77.04816033333333, "type": "electric_scooter", "fusion_lat": 0.0, "lat": 38.916348166666666, "name": "109655e03ed36c152344c3419310795c", "fusion_lon": 0.0, "bike_id": "109655e03ed36c152344c3419310795c", "is_disabled": 0, "is_reserved": 0}, {"rental_uris": {"ios": "https://dc.lft.to/lastmile_qr_scan", "android": "https://dc.lft.to/lastmile_qr_scan"}, "lon": -76.997804, "type": "electric_scooter", "fusion_lat": 0.0, "lat": 38.84426416666667, "name": "9118a9ee38346812316e36b67289af0e", "fusion_lon": 0.0, "bike_id": "9118a9ee38346812316e36b67289af0e", "is_disabled": 0, "is_reserved": 0}, {"rental_uris": {"ios": "https://dc.lft.to/lastmile_qr_scan", "android": "https://dc.lft.to/lastmile_qr_scan"}, "lon": -77.03035816666667, "type": "electric_scooter", "fusion_lat": 0.0, "lat": 38.92247533333333, "name": "239789e1338512e24874dd3aef095ee5", "fusion_lon": 0.0, "bike_id": "239789e1338512e24874dd3aef095ee5", "is_disabled": 0, "is_reserved": 0}, {"rental_uris": {"ios": "https://dc.lft.to/lastmile_qr_scan", "android": "https://dc.lft.to/lastmile_qr_scan"}, "lon": -77.06366616666666, "type": "electric_scooter", "fusion_lat": 0.0, "lat": 38.9093455, "name": "5d37f31b5f6365be12a3120fba2998f6", "fusion_lon": 0.0, "bike_id": "5d37f31b5f6365be12a3120fba2998f6", "is_disabled": 0, "is_reserved": 0}, {"rental_uris": {"ios": "https://dc.lft.to/lastmile_qr_scan", "android": "https://dc.lft.to/lastmile_qr_scan"}, "lon": -77.07043816666666, "type": "electric_bike", "fusion_lat": 0.0, "lat": 38.82448316666667, "name": "b38a8912096a60cc26ce28f2ef38285d", "fusion_lon": 0.0, "bike_id": "b38a8912096a60cc26ce28f2ef38285d", "is_disabled": 0, "is_reserved": 0}, {"rental_uris": {"ios": "https://dc.lft.to/lastmile_qr_scan", "android": "https://dc.lft.to/lastmile_qr_scan"}, "lon": -77.04067883333333, "type": "electric_scooter", "fusion_lat": 0.0, "lat": 38.926602, "name": "9dd65817ed3d289045e37cb9845556f5", "fusion_lon": 0.0, "bike_id": "9dd65817ed3d289045e37cb9845556f5", "is_disabled": 0, "is_reserved": 0}, {"rental_uris": {"ios": "https://dc.lft.to/lastmile_qr_scan", "android": "https://dc.lft.to/lastmile_qr_scan"}, "lon": -77.00932466666667, "type": "electric_scooter", "fusion_lat": 0.0, "lat": 38.872006999999996, "name": "2be98f6d05e881f525f9adbc2130782e", "fusion_lon": 0.0, "bike_id": "2be98f6d05e881f525f9adbc2130782e", "is_disabled": 0, "is_reserved": 0}, {"rental_uris": {"ios": "https://dc.lft.to/lastmile_qr_scan", "android": "https://dc.lft.to/lastmile_qr_scan"}, "lon": -77.06890983333334, "type": "electric_scooter", "fusion_lat": 0.0, "lat": 38.940298, "name": "0eb3f84f1f56be477d87022e3ec233be", "fusion_lon": 0.0, "bike_id": "0eb3f84f1f56be477d87022e3ec233be", "is_disabled": 0, "is_reserved": 0}, {"rental_uris": {"ios": "https://dc.lft.to/lastmile_qr_scan", "android": "https://dc.lft.to/lastmile_qr_scan"}, "lon": -77.002246, "type": "electric_scooter", "fusion_lat": 0.0, "lat": 38.908544666666664, "name": "dfb08d8f666bf9c6cfb79c780494786e", "fusion_lon": 0.0, "bike_id": "dfb08d8f666bf9c6cfb79c780494786e", "is_disabled": 0, "is_reserved": 0}, {"rental_uris": {"ios": "https://dc.lft.to/lastmile_qr_scan", "android": "https://dc.lft.to/lastmile_qr_scan"}, "lon": -77.025879, "type": "electric_scooter", "fusion_lat": 0.0, "lat": 38.9021305, "name": "93e87c608a1592cbe890283d159933c9", "fusion_lon": 0.0, "bike_id": "93e87c608a1592cbe890283d159933c9", "is_disabled": 0, "is_reserved": 0}, {"rental_uris": {"ios": "https://dc.lft.to/lastmile_qr_scan", "android": "https://dc.lft.to/lastmile_qr_scan"}, "lon": -77.04136, "type": "electric_scooter", "fusion_lat": 0.0, "lat": 38.922104166666664, "name": "579e46d2b06058163cc06bf96124ef58", "fusion_lon": 0.0, "bike_id": "579e46d2b06058163cc06bf96124ef58", "is_disabled": 0, "is_reserved": 0}, {"rental_uris": {"ios": "https://dc.lft.to/lastmile_qr_scan", "android": "https://dc.lft.to/lastmile_qr_scan"}, "lon": -77.0163235, "type": "electric_scooter", "fusion_lat": 0.0, "lat": 38.903555, "name": "5e5303db4eed56af067fb591f5002691", "fusion_lon": 0.0, "bike_id": "5e5303db4eed56af067fb591f5002691", "is_disabled": 0, "is_reserved": 0}, {"rental_uris": {"ios": "https://dc.lft.to/lastmile_qr_scan", "android": "https://dc.lft.to/lastmile_qr_scan"}, "lon": -76.99952433333333, "type": "electric_scooter", "fusion_lat": 0.0, "lat": 38.8429485, "name": "f0380bfe5cf8bdf904eefe92ed2bf000", "fusion_lon": 0.0, "bike_id": "f0380bfe5cf8bdf904eefe92ed2bf000", "is_disabled": 0, "is_reserved": 0}, {"rental_uris": {"ios": "https://dc.lft.to/lastmile_qr_scan", "android": "https://dc.lft.to/lastmile_qr_scan"}, "lon": -77.04508633333333, "type": "electric_scooter", "fusion_lat": 0.0, "lat": 38.9128565, "name": "701eb57ba01477bf4e3da85c1b88092e", "fusion_lon": 0.0, "bike_id": "701eb57ba01477bf4e3da85c1b88092e", "is_disabled": 0, "is_reserved": 0}, {"rental_uris": {"ios": "https://dc.lft.to/lastmile_qr_scan", "android": "https://dc.lft.to/lastmile_qr_scan"}, "lon": -77.03961283333334, "type": "electric_scooter", "fusion_lat": 0.0, "lat": 38.90270783333333, "name": "cb3c89477594dee8d01cef792e06cde6", "fusion_lon": 0.0, "bike_id": "cb3c89477594dee8d01cef792e06cde6", "is_disabled": 0, "is_reserved": 0}, {"rental_uris": {"ios": "https://dc.lft.to/lastmile_qr_scan", "android": "https://dc.lft.to/lastmile_qr_scan"}, "lon": -77.02406933333333, "type": "electric_bike", "fusion_lat": 0.0, "lat": 38.9941725, "name": "c1610d044647e97f79df5b6127de9622", "fusion_lon": 0.0, "bike_id": "c1610d044647e97f79df5b6127de9622", "is_disabled": 0, "is_reserved": 0}, {"rental_uris": {"ios": "https://dc.lft.to/lastmile_qr_scan", "android": "https://dc.lft.to/lastmile_qr_scan"}, "lon": -76.977428, "type": "electric_scooter", "fusion_lat": 0.0, "lat": 38.90011483333333, "name": "c2f4482d25763b8452eb791aa8e13ee0", "fusion_lon": 0.0, "bike_id": "c2f4482d25763b8452eb791aa8e13ee0", "is_disabled": 0, "is_reserved": 0}, {"rental_uris": {"ios": "https://dc.lft.to/lastmile_qr_scan", "android": "https://dc.lft.to/lastmile_qr_scan"}, "lon": -76.87822883333334, "type": "electric_bike", "fusion_lat": 0.0, "lat": 38.9923395, "name": "4a78b62137d52c029b5dba2b0e8f0d1a", "fusion_lon": 0.0, "bike_id": "4a78b62137d52c029b5dba2b0e8f0d1a", "is_disabled": 0, "is_reserved": 0}, {"rental_uris": {"ios": "https://dc.lft.to/lastmile_qr_scan", "android": "https://dc.lft.to/lastmile_qr_scan"}, "lon": -76.97615783333333, "type": "electric_scooter", "fusion_lat": 0.0, "lat": 38.9038535, "name": "9cca536a3b213869b0fd87a9f702cb30", "fusion_lon": 0.0, "bike_id": "9cca536a3b213869b0fd87a9f702cb30", "is_disabled": 0, "is_reserved": 0}, {"rental_uris": {"ios": "https://dc.lft.to/lastmile_qr_scan", "android": "https://dc.lft.to/lastmile_qr_scan"}, "lon": -77.00293716666667, "type": "electric_bike", "fusion_lat": 0.0, "lat": 38.91612583333333, "name": "c4fc410c988e816e5927b9429e0851be", "fusion_lon": 0.0, "bike_id": "c4fc410c988e816e5927b9429e0851be", "is_disabled": 0, "is_reserved": 0}, {"rental_uris": {"ios": "https://dc.lft.to/lastmile_qr_scan", "android": "https://dc.lft.to/lastmile_qr_scan"}, "lon": -77.02877183333334, "type": "electric_scooter", "fusion_lat": 0.0, "lat": 38.904003, "name": "daff7f69cdb5a1e86ba13d38d78e1640", "fusion_lon": 0.0, "bike_id": "daff7f69cdb5a1e86ba13d38d78e1640", "is_disabled": 0, "is_reserved": 0}, {"rental_uris": {"ios": "https://dc.lft.to/lastmile_qr_scan", "android": "https://dc.lft.to/lastmile_qr_scan"}, "lon": -77.0323715, "type": "electric_scooter", "fusion_lat": 0.0, "lat": 38.92885033333334, "name": "c49b292e6812393e11a9c13bc7bf8b65", "fusion_lon": 0.0, "bike_id": "c49b292e6812393e11a9c13bc7bf8b65", "is_disabled": 0, "is_reserved": 0}, {"rental_uris": {"ios": "https://dc.lft.to/lastmile_qr_scan", "android": "https://dc.lft.to/lastmile_qr_scan"}, "lon": -77.02743633333333, "type": "electric_scooter", "fusion_lat": 0.0, "lat": 38.89991833333333, "name": "b2f0b0c9985e118c879a185966c2bbe1", "fusion_lon": 0.0, "bike_id": "b2f0b0c9985e118c879a185966c2bbe1", "is_disabled": 0, "is_reserved": 0}, {"rental_uris": {"ios": "https://dc.lft.to/lastmile_qr_scan", "android": "https://dc.lft.to/lastmile_qr_scan"}, "lon": -77.03789683333333, "type": "electric_scooter", "fusion_lat": 0.0, "lat": 38.926353166666665, "name": "a386a6e8779c33d9ae8e37cb0fc2af55", "fusion_lon": 0.0, "bike_id": "a386a6e8779c33d9ae8e37cb0fc2af55", "is_disabled": 0, "is_reserved": 0}, {"rental_uris": {"ios": "https://dc.lft.to/lastmile_qr_scan", "android": "https://dc.lft.to/lastmile_qr_scan"}, "lon": -76.95765866666666, "type": "electric_bike", "fusion_lat": 0.0, "lat": 38.884223666666664, "name": "97be33ad15eddb2261e6479b3648be24", "fusion_lon": 0.0, "bike_id": "97be33ad15eddb2261e6479b3648be24", "is_disabled": 0, "is_reserved": 0}, {"rental_uris": {"ios": "https://dc.lft.to/lastmile_qr_scan", "android": "https://dc.lft.to/lastmile_qr_scan"}, "lon": -76.99519933333333, "type": "electric_scooter", "fusion_lat": 0.0, "lat": 38.89486133333333, "name": "bdc3244767223dd5758de8756f28308d", "fusion_lon": 0.0, "bike_id": "bdc3244767223dd5758de8756f28308d", "is_disabled": 0, "is_reserved": 0}, {"rental_uris": {"ios": "https://dc.lft.to/lastmile_qr_scan", "android": "https://dc.lft.to/lastmile_qr_scan"}, "lon": -76.99360016666667, "type": "electric_scooter", "fusion_lat": 0.0, "lat": 38.9003215, "name": "fd687122378b5d6b0dc2e533a98b66f7", "fusion_lon": 0.0, "bike_id": "fd687122378b5d6b0dc2e533a98b66f7", "is_disabled": 0, "is_reserved": 0}, {"rental_uris": {"ios": "https://dc.lft.to/lastmile_qr_scan", "android": "https://dc.lft.to/lastmile_qr_scan"}, "lon": -77.01127233333334, "type": "electric_scooter", "fusion_lat": 0.0, "lat": 38.895112, "name": "af23445f13af74148804e915d5b17f77", "fusion_lon": 0.0, "bike_id": "af23445f13af74148804e915d5b17f77", "is_disabled": 0, "is_reserved": 0}, {"rental_uris": {"ios": "https://dc.lft.to/lastmile_qr_scan", "android": "https://dc.lft.to/lastmile_qr_scan"}, "lon": -77.04231, "type": "electric_scooter", "fusion_lat": 0.0, "lat": 38.9212715, "name": "581e257c27e5070586cf7940464ad6b2", "fusion_lon": 0.0, "bike_id": "581e257c27e5070586cf7940464ad6b2", "is_disabled": 0, "is_reserved": 0}, {"rental_uris": {"ios": "https://dc.lft.to/lastmile_qr_scan", "android": "https://dc.lft.to/lastmile_qr_scan"}, "lon": -76.98580383333334, "type": "electric_scooter", "fusion_lat": 0.0, "lat": 38.86146766666667, "name": "a6ce6ad0c57c5d5bd1310720b5ec7a10", "fusion_lon": 0.0, "bike_id": "a6ce6ad0c57c5d5bd1310720b5ec7a10", "is_disabled": 0, "is_reserved": 0}, {"rental_uris": {"ios": "https://dc.lft.to/lastmile_qr_scan", "android": "https://dc.lft.to/lastmile_qr_scan"}, "lon": -77.04897466666667, "type": "electric_scooter", "fusion_lat": 0.0, "lat": 38.91885283333333, "name": "d082855548088ee2e8107ca2858b9687", "fusion_lon": 0.0, "bike_id": "d082855548088ee2e8107ca2858b9687", "is_disabled": 0, "is_reserved": 0}, {"rental_uris": {"ios": "https://dc.lft.to/lastmile_qr_scan", "android": "https://dc.lft.to/lastmile_qr_scan"}, "lon": -76.996114, "type": "electric_scooter", "fusion_lat": 0.0, "lat": 38.88621716666667, "name": "90ba1997db4c4a0d240706d83cedefdd", "fusion_lon": 0.0, "bike_id": "90ba1997db4c4a0d240706d83cedefdd", "is_disabled": 0, "is_reserved": 0}, {"rental_uris": {"ios": "https://dc.lft.to/lastmile_qr_scan", "android": "https://dc.lft.to/lastmile_qr_scan"}, "lon": -77.003525, "type": "electric_scooter", "fusion_lat": 0.0, "lat": 38.907180333333336, "name": "6403cab78a3a7ad48695352272772810", "fusion_lon": 0.0, "bike_id": "6403cab78a3a7ad48695352272772810", "is_disabled": 0, "is_reserved": 0}, {"rental_uris": {"ios": "https://dc.lft.to/lastmile_qr_scan", "android": "https://dc.lft.to/lastmile_qr_scan"}, "lon": -77.00284033333334, "type": "electric_scooter", "fusion_lat": 0.0, "lat": 38.901309, "name": "294f9d1d90e833f7b12960da86f3da55", "fusion_lon": 0.0, "bike_id": "294f9d1d90e833f7b12960da86f3da55", "is_disabled": 0, "is_reserved": 0}, {"rental_uris": {"ios": "https://dc.lft.to/lastmile_qr_scan", "android": "https://dc.lft.to/lastmile_qr_scan"}, "lon": -77.04990966666666, "type": "electric_scooter", "fusion_lat": 0.0, "lat": 38.900316333333336, "name": "ebb5146a16cda74e56a63a9b26430824", "fusion_lon": 0.0, "bike_id": "ebb5146a16cda74e56a63a9b26430824", "is_disabled": 0, "is_reserved": 0}, {"rental_uris": {"ios": "https://dc.lft.to/lastmile_qr_scan", "android": "https://dc.lft.to/lastmile_qr_scan"}, "lon": -76.98892766666667, "type": "electric_scooter", "fusion_lat": 0.0, "lat": 38.866564, "name": "ce025038bb87ea693502aff71587342c", "fusion_lon": 0.0, "bike_id": "ce025038bb87ea693502aff71587342c", "is_disabled": 0, "is_reserved": 0}, {"rental_uris": {"ios": "https://dc.lft.to/lastmile_qr_scan", "android": "https://dc.lft.to/lastmile_qr_scan"}, "lon": -77.0383915, "type": "electric_scooter", "fusion_lat": 0.0, "lat": 38.931129, "name": "3e970ba28cf3d828432312821e2d0e05", "fusion_lon": 0.0, "bike_id": "3e970ba28cf3d828432312821e2d0e05", "is_disabled": 0, "is_reserved": 0}, {"rental_uris": {"ios": "https://dc.lft.to/lastmile_qr_scan", "android": "https://dc.lft.to/lastmile_qr_scan"}, "lon": -76.99775700000001, "type": "electric_bike", "fusion_lat": 0.0, "lat": 38.90928266666667, "name": "0e75459bd04ab09b6f24671fb9e3c2bd", "fusion_lon": 0.0, "bike_id": "0e75459bd04ab09b6f24671fb9e3c2bd", "is_disabled": 0, "is_reserved": 0}, {"rental_uris": {"ios": "https://dc.lft.to/lastmile_qr_scan", "android": "https://dc.lft.to/lastmile_qr_scan"}, "lon": -77.04503166666667, "type": "electric_scooter", "fusion_lat": 0.0, "lat": 38.9194565, "name": "1fd17f38cec66a2cad8cb8ae1543e735", "fusion_lon": 0.0, "bike_id": "1fd17f38cec66a2cad8cb8ae1543e735", "is_disabled": 0, "is_reserved": 0}, {"rental_uris": {"ios": "https://dc.lft.to/lastmile_qr_scan", "android": "https://dc.lft.to/lastmile_qr_scan"}, "lon": -76.97552333333333, "type": "electric_scooter", "fusion_lat": 0.0, "lat": 38.9043905, "name": "ba5c23caf1638b0aaa5d4f3aae570c31", "fusion_lon": 0.0, "bike_id": "ba5c23caf1638b0aaa5d4f3aae570c31", "is_disabled": 0, "is_reserved": 0}, {"rental_uris": {"ios": "https://dc.lft.to/lastmile_qr_scan", "android": "https://dc.lft.to/lastmile_qr_scan"}, "lon": -77.04839, "type": "electric_scooter", "fusion_lat": 0.0, "lat": 38.9095185, "name": "7e1517dfcb0945b71c2509513c690687", "fusion_lon": 0.0, "bike_id": "7e1517dfcb0945b71c2509513c690687", "is_disabled": 0, "is_reserved": 0}, {"rental_uris": {"ios": "https://dc.lft.to/lastmile_qr_scan", "android": "https://dc.lft.to/lastmile_qr_scan"}, "lon": -76.931632, "type": "electric_bike", "fusion_lat": 0.0, "lat": 38.908604833333335, "name": "dc3531bb24efe3b3ba0d1d760a4d8b78", "fusion_lon": 0.0, "bike_id": "dc3531bb24efe3b3ba0d1d760a4d8b78", "is_disabled": 0, "is_reserved": 0}, {"rental_uris": {"ios": "https://dc.lft.to/lastmile_qr_scan", "android": "https://dc.lft.to/lastmile_qr_scan"}, "lon": -76.990609, "type": "electric_scooter", "fusion_lat": 0.0, "lat": 38.863540666666665, "name": "692362012c40554728dbaec0869f53b2", "fusion_lon": 0.0, "bike_id": "692362012c40554728dbaec0869f53b2", "is_disabled": 0, "is_reserved": 0}, {"rental_uris": {"ios": "https://dc.lft.to/lastmile_qr_scan", "android": "https://dc.lft.to/lastmile_qr_scan"}, "lon": -77.02718316666666, "type": "electric_scooter", "fusion_lat": 0.0, "lat": 38.90907516666667, "name": "65b18913c082ba1190053a21d3dd4e42", "fusion_lon": 0.0, "bike_id": "65b18913c082ba1190053a21d3dd4e42", "is_disabled": 0, "is_reserved": 0}, {"rental_uris": {"ios": "https://dc.lft.to/lastmile_qr_scan", "android": "https://dc.lft.to/lastmile_qr_scan"}, "lon": -77.003701, "type": "electric_scooter", "fusion_lat": 0.0, "lat": 38.838057166666665, "name": "2a7ea831ee8f6ff33c4e02f2a4192882", "fusion_lon": 0.0, "bike_id": "2a7ea831ee8f6ff33c4e02f2a4192882", "is_disabled": 0, "is_reserved": 0}, {"rental_uris": {"ios": "https://dc.lft.to/lastmile_qr_scan", "android": "https://dc.lft.to/lastmile_qr_scan"}, "lon": -77.03894166666667, "type": "electric_scooter", "fusion_lat": 0.0, "lat": 38.9439385, "name": "e083cbbc15ca702773118a013b38b413", "fusion_lon": 0.0, "bike_id": "e083cbbc15ca702773118a013b38b413", "is_disabled": 0, "is_reserved": 0}, {"rental_uris": {"ios": "https://dc.lft.to/lastmile_qr_scan", "android": "https://dc.lft.to/lastmile_qr_scan"}, "lon": -76.94141766666667, "type": "electric_scooter", "fusion_lat": 0.0, "lat": 38.89678116666666, "name": "b5e004208635d24f2723cbe1b817ea14", "fusion_lon": 0.0, "bike_id": "b5e004208635d24f2723cbe1b817ea14", "is_disabled": 0, "is_reserved": 0}, {"rental_uris": {"ios": "https://dc.lft.to/lastmile_qr_scan", "android": "https://dc.lft.to/lastmile_qr_scan"}, "lon": -77.02803733333333, "type": "electric_scooter", "fusion_lat": 0.0, "lat": 38.961231833333336, "name": "1eaa9351d64111c7413d5dd1d26fa9c6", "fusion_lon": 0.0, "bike_id": "1eaa9351d64111c7413d5dd1d26fa9c6", "is_disabled": 0, "is_reserved": 0}, {"rental_uris": {"ios": "https://dc.lft.to/lastmile_qr_scan", "android": "https://dc.lft.to/lastmile_qr_scan"}, "lon": -77.003707, "type": "electric_bike", "fusion_lat": 0.0, "lat": 38.836025166666666, "name": "71d1160235d2bf885aa5695e750b1ec2", "fusion_lon": 0.0, "bike_id": "71d1160235d2bf885aa5695e750b1ec2", "is_disabled": 0, "is_reserved": 0}, {"rental_uris": {"ios": "https://dc.lft.to/lastmile_qr_scan", "android": "https://dc.lft.to/lastmile_qr_scan"}, "lon": -77.0955255, "type": "electric_bike", "fusion_lat": 0.0, "lat": 38.837340166666664, "name": "3ead9f17548fdc1a44a16d479d693b80", "fusion_lon": 0.0, "bike_id": "3ead9f17548fdc1a44a16d479d693b80", "is_disabled": 0, "is_reserved": 0}, {"rental_uris": {"ios": "https://dc.lft.to/lastmile_qr_scan", "android": "https://dc.lft.to/lastmile_qr_scan"}, "lon": -77.02891783333334, "type": "electric_scooter", "fusion_lat": 0.0, "lat": 38.907232666666665, "name": "5210910a6028dd379224d8ed19aeed4a", "fusion_lon": 0.0, "bike_id": "5210910a6028dd379224d8ed19aeed4a", "is_disabled": 0, "is_reserved": 0}, {"rental_uris": {"ios": "https://dc.lft.to/lastmile_qr_scan", "android": "https://dc.lft.to/lastmile_qr_scan"}, "lon": -77.05326583333333, "type": "electric_scooter", "fusion_lat": 0.0, "lat": 38.904676333333335, "name": "68d119bdaeb97ab5a61b102b25ebeb6d", "fusion_lon": 0.0, "bike_id": "68d119bdaeb97ab5a61b102b25ebeb6d", "is_disabled": 0, "is_reserved": 0}, {"rental_uris": {"ios": "https://dc.lft.to/lastmile_qr_scan", "android": "https://dc.lft.to/lastmile_qr_scan"}, "lon": -77.02711416666666, "type": "electric_scooter", "fusion_lat": 0.0, "lat": 38.92471116666667, "name": "29c60ad779611130eceb46c699691d3e", "fusion_lon": 0.0, "bike_id": "29c60ad779611130eceb46c699691d3e", "is_disabled": 0, "is_reserved": 0}, {"rental_uris": {"ios": "https://dc.lft.to/lastmile_qr_scan", "android": "https://dc.lft.to/lastmile_qr_scan"}, "lon": -76.98590866666666, "type": "electric_scooter", "fusion_lat": 0.0, "lat": 38.906543666666664, "name": "5a1b4afe2f117cd7a4839d5f5be52e3a", "fusion_lon": 0.0, "bike_id": "5a1b4afe2f117cd7a4839d5f5be52e3a", "is_disabled": 0, "is_reserved": 0}, {"rental_uris": {"ios": "https://dc.lft.to/lastmile_qr_scan", "android": "https://dc.lft.to/lastmile_qr_scan"}, "lon": -77.01221416666667, "type": "electric_scooter", "fusion_lat": 0.0, "lat": 38.909811833333336, "name": "84a217fb9bb3a747cccf0243962bfe92", "fusion_lon": 0.0, "bike_id": "84a217fb9bb3a747cccf0243962bfe92", "is_disabled": 0, "is_reserved": 0}, {"rental_uris": {"ios": "https://dc.lft.to/lastmile_qr_scan", "android": "https://dc.lft.to/lastmile_qr_scan"}, "lon": -77.01762583333333, "type": "electric_scooter", "fusion_lat": 0.0, "lat": 38.8768545, "name": "e6944af6ca3f608398aba51e02336c63", "fusion_lon": 0.0, "bike_id": "e6944af6ca3f608398aba51e02336c63", "is_disabled": 0, "is_reserved": 0}, {"rental_uris": {"ios": "https://dc.lft.to/lastmile_qr_scan", "android": "https://dc.lft.to/lastmile_qr_scan"}, "lon": -77.021531, "type": "electric_scooter", "fusion_lat": 0.0, "lat": 38.897063833333334, "name": "1e88e335f365ad6aa368c474e1527ace", "fusion_lon": 0.0, "bike_id": "1e88e335f365ad6aa368c474e1527ace", "is_disabled": 0, "is_reserved": 0}, {"rental_uris": {"ios": "https://dc.lft.to/lastmile_qr_scan", "android": "https://dc.lft.to/lastmile_qr_scan"}, "lon": -77.05324433333334, "type": "electric_scooter", "fusion_lat": 0.0, "lat": 38.9396635, "name": "8a4b99ea48de5a2bc768cdd3aa6d1e7e", "fusion_lon": 0.0, "bike_id": "8a4b99ea48de5a2bc768cdd3aa6d1e7e", "is_disabled": 0, "is_reserved": 0}, {"rental_uris": {"ios": "https://dc.lft.to/lastmile_qr_scan", "android": "https://dc.lft.to/lastmile_qr_scan"}, "lon": -76.9881875, "type": "electric_scooter", "fusion_lat": 0.0, "lat": 38.903346, "name": "292ae9a79007883c272e67a0fa5d5a27", "fusion_lon": 0.0, "bike_id": "292ae9a79007883c272e67a0fa5d5a27", "is_disabled": 0, "is_reserved": 0}, {"rental_uris": {"ios": "https://dc.lft.to/lastmile_qr_scan", "android": "https://dc.lft.to/lastmile_qr_scan"}, "lon": -77.01180983333333, "type": "electric_scooter", "fusion_lat": 0.0, "lat": 38.906505, "name": "b9029ba937a2ee3c7a2eaafa1aac3f66", "fusion_lon": 0.0, "bike_id": "b9029ba937a2ee3c7a2eaafa1aac3f66", "is_disabled": 0, "is_reserved": 0}, {"rental_uris": {"ios": "https://dc.lft.to/lastmile_qr_scan", "android": "https://dc.lft.to/lastmile_qr_scan"}, "lon": -77.0222255, "type": "electric_scooter", "fusion_lat": 0.0, "lat": 38.89356266666667, "name": "677efa13cb633cc09c99d38424c1f552", "fusion_lon": 0.0, "bike_id": "677efa13cb633cc09c99d38424c1f552", "is_disabled": 0, "is_reserved": 0}, {"rental_uris": {"ios": "https://dc.lft.to/lastmile_qr_scan", "android": "https://dc.lft.to/lastmile_qr_scan"}, "lon": -76.933026, "type": "electric_scooter", "fusion_lat": 0.0, "lat": 38.898947, "name": "7ea044bd19f75ba78e14bd10eb89870a", "fusion_lon": 0.0, "bike_id": "7ea044bd19f75ba78e14bd10eb89870a", "is_disabled": 0, "is_reserved": 0}, {"rental_uris": {"ios": "https://dc.lft.to/lastmile_qr_scan", "android": "https://dc.lft.to/lastmile_qr_scan"}, "lon": -77.0275405, "type": "electric_scooter", "fusion_lat": 0.0, "lat": 38.923767166666664, "name": "dada90bb90f963b18a1c893ff0af17f8", "fusion_lon": 0.0, "bike_id": "dada90bb90f963b18a1c893ff0af17f8", "is_disabled": 0, "is_reserved": 0}, {"rental_uris": {"ios": "https://dc.lft.to/lastmile_qr_scan", "android": "https://dc.lft.to/lastmile_qr_scan"}, "lon": -77.095522, "type": "electric_scooter", "fusion_lat": 0.0, "lat": 38.9165645, "name": "5adfcad2ef32bbc96f45be13f17f8d09", "fusion_lon": 0.0, "bike_id": "5adfcad2ef32bbc96f45be13f17f8d09", "is_disabled": 0, "is_reserved": 0}, {"rental_uris": {"ios": "https://dc.lft.to/lastmile_qr_scan", "android": "https://dc.lft.to/lastmile_qr_scan"}, "lon": -77.10456666666667, "type": "electric_bike", "fusion_lat": 0.0, "lat": 38.896367833333336, "name": "10615c68e9ae56e2f68fa47b365774e8", "fusion_lon": 0.0, "bike_id": "10615c68e9ae56e2f68fa47b365774e8", "is_disabled": 0, "is_reserved": 0}, {"rental_uris": {"ios": "https://dc.lft.to/lastmile_qr_scan", "android": "https://dc.lft.to/lastmile_qr_scan"}, "lon": -77.044405, "type": "electric_scooter", "fusion_lat": 0.0, "lat": 38.910137666666664, "name": "67d28bd2e3bc38d9cf95e99ea5df9a7e", "fusion_lon": 0.0, "bike_id": "67d28bd2e3bc38d9cf95e99ea5df9a7e", "is_disabled": 0, "is_reserved": 0}, {"rental_uris": {"ios": "https://dc.lft.to/lastmile_qr_scan", "android": "https://dc.lft.to/lastmile_qr_scan"}, "lon": -77.0259635, "type": "electric_scooter", "fusion_lat": 0.0, "lat": 38.929869, "name": "e5d8c578799595cd64fb5d84e86184c0", "fusion_lon": 0.0, "bike_id": "e5d8c578799595cd64fb5d84e86184c0", "is_disabled": 0, "is_reserved": 0}, {"rental_uris": {"ios": "https://dc.lft.to/lastmile_qr_scan", "android": "https://dc.lft.to/lastmile_qr_scan"}, "lon": -77.02820466666667, "type": "electric_scooter", "fusion_lat": 0.0, "lat": 38.91114816666666, "name": "e290ff2bba8d4f3932056d78bf563452", "fusion_lon": 0.0, "bike_id": "e290ff2bba8d4f3932056d78bf563452", "is_disabled": 0, "is_reserved": 0}, {"rental_uris": {"ios": "https://dc.lft.to/lastmile_qr_scan", "android": "https://dc.lft.to/lastmile_qr_scan"}, "lon": -77.04554733333333, "type": "electric_scooter", "fusion_lat": 0.0, "lat": 38.93406183333333, "name": "c322836e66e2a18507b46da554adcd95", "fusion_lon": 0.0, "bike_id": "c322836e66e2a18507b46da554adcd95", "is_disabled": 0, "is_reserved": 0}, {"rental_uris": {"ios": "https://dc.lft.to/lastmile_qr_scan", "android": "https://dc.lft.to/lastmile_qr_scan"}, "lon": -76.9463315, "type": "electric_scooter", "fusion_lat": 0.0, "lat": 38.89831483333333, "name": "89a2411a10516a09d2634d1153e59e2b", "fusion_lon": 0.0, "bike_id": "89a2411a10516a09d2634d1153e59e2b", "is_disabled": 0, "is_reserved": 0}, {"rental_uris": {"ios": "https://dc.lft.to/lastmile_qr_scan", "android": "https://dc.lft.to/lastmile_qr_scan"}, "lon": -77.03293466666666, "type": "electric_scooter", "fusion_lat": 0.0, "lat": 38.92349816666667, "name": "2a9618fe026b547fa4840ff5ad5f8cfa", "fusion_lon": 0.0, "bike_id": "2a9618fe026b547fa4840ff5ad5f8cfa", "is_disabled": 0, "is_reserved": 0}, {"rental_uris": {"ios": "https://dc.lft.to/lastmile_qr_scan", "android": "https://dc.lft.to/lastmile_qr_scan"}, "lon": -77.044826, "type": "electric_scooter", "fusion_lat": 0.0, "lat": 38.90842333333333, "name": "a1cdd947343420857ab65f8867bbb8bf", "fusion_lon": 0.0, "bike_id": "a1cdd947343420857ab65f8867bbb8bf", "is_disabled": 0, "is_reserved": 0}, {"rental_uris": {"ios": "https://dc.lft.to/lastmile_qr_scan", "android": "https://dc.lft.to/lastmile_qr_scan"}, "lon": -77.000968, "type": "electric_scooter", "fusion_lat": 0.0, "lat": 38.908439666666666, "name": "4115ce86b6818c2d9ea67c145a077552", "fusion_lon": 0.0, "bike_id": "4115ce86b6818c2d9ea67c145a077552", "is_disabled": 0, "is_reserved": 0}, {"rental_uris": {"ios": "https://dc.lft.to/lastmile_qr_scan", "android": "https://dc.lft.to/lastmile_qr_scan"}, "lon": -77.0661785, "type": "electric_bike", "fusion_lat": 0.0, "lat": 38.91132433333333, "name": "2de94326776844d90ccae06c84dff33d", "fusion_lon": 0.0, "bike_id": "2de94326776844d90ccae06c84dff33d", "is_disabled": 0, "is_reserved": 0}, {"rental_uris": {"ios": "https://dc.lft.to/lastmile_qr_scan", "android": "https://dc.lft.to/lastmile_qr_scan"}, "lon": -77.03867483333333, "type": "electric_scooter", "fusion_lat": 0.0, "lat": 38.915523, "name": "33e964c9b4aafc4ebe0fc18f14f9214a", "fusion_lon": 0.0, "bike_id": "33e964c9b4aafc4ebe0fc18f14f9214a", "is_disabled": 0, "is_reserved": 0}, {"rental_uris": {"ios": "https://dc.lft.to/lastmile_qr_scan", "android": "https://dc.lft.to/lastmile_qr_scan"}, "lon": -77.06692266666667, "type": "electric_scooter", "fusion_lat": 0.0, "lat": 38.90975783333333, "name": "140df162956e13d5d858f92b0b191fe4", "fusion_lon": 0.0, "bike_id": "140df162956e13d5d858f92b0b191fe4", "is_disabled": 0, "is_reserved": 0}, {"rental_uris": {"ios": "https://dc.lft.to/lastmile_qr_scan", "android": "https://dc.lft.to/lastmile_qr_scan"}, "lon": -77.035212, "type": "electric_scooter", "fusion_lat": 0.0, "lat": 38.923392666666665, "name": "96b795bee1640ff23205f36450ff74b7", "fusion_lon": 0.0, "bike_id": "96b795bee1640ff23205f36450ff74b7", "is_disabled": 0, "is_reserved": 0}, {"rental_uris": {"ios": "https://dc.lft.to/lastmile_qr_scan", "android": "https://dc.lft.to/lastmile_qr_scan"}, "lon": -77.039606, "type": "electric_scooter", "fusion_lat": 0.0, "lat": 38.916262833333334, "name": "ac766160fb51df8e8e75ea80b7a5c894", "fusion_lon": 0.0, "bike_id": "ac766160fb51df8e8e75ea80b7a5c894", "is_disabled": 0, "is_reserved": 0}, {"rental_uris": {"ios": "https://dc.lft.to/lastmile_qr_scan", "android": "https://dc.lft.to/lastmile_qr_scan"}, "lon": -76.99037333333334, "type": "electric_scooter", "fusion_lat": 0.0, "lat": 38.85872666666667, "name": "a4e34134a9024e24e0900148fe66d666", "fusion_lon": 0.0, "bike_id": "a4e34134a9024e24e0900148fe66d666", "is_disabled": 0, "is_reserved": 0}, {"rental_uris": {"ios": "https://dc.lft.to/lastmile_qr_scan", "android": "https://dc.lft.to/lastmile_qr_scan"}, "lon": -77.00916783333334, "type": "electric_scooter", "fusion_lat": 0.0, "lat": 38.91239433333333, "name": "c464b3f7e52c1869b19a320dec2df8e9", "fusion_lon": 0.0, "bike_id": "c464b3f7e52c1869b19a320dec2df8e9", "is_disabled": 0, "is_reserved": 0}, {"rental_uris": {"ios": "https://dc.lft.to/lastmile_qr_scan", "android": "https://dc.lft.to/lastmile_qr_scan"}, "lon": -77.02981016666666, "type": "electric_scooter", "fusion_lat": 0.0, "lat": 38.905282, "name": "02865c83210d4b8255dd09584cda02d1", "fusion_lon": 0.0, "bike_id": "02865c83210d4b8255dd09584cda02d1", "is_disabled": 0, "is_reserved": 0}, {"rental_uris": {"ios": "https://dc.lft.to/lastmile_qr_scan", "android": "https://dc.lft.to/lastmile_qr_scan"}, "lon": -77.08186466666666, "type": "electric_bike", "fusion_lat": 0.0, "lat": 38.92202433333333, "name": "5480d6b0749f740cfd8ffa9ef7760129", "fusion_lon": 0.0, "bike_id": "5480d6b0749f740cfd8ffa9ef7760129", "is_disabled": 0, "is_reserved": 0}, {"rental_uris": {"ios": "https://dc.lft.to/lastmile_qr_scan", "android": "https://dc.lft.to/lastmile_qr_scan"}, "lon": -77.02851666666666, "type": "electric_scooter", "fusion_lat": 0.0, "lat": 38.9238015, "name": "d2d0e13e321de38529d8d65d3b4c3216", "fusion_lon": 0.0, "bike_id": "d2d0e13e321de38529d8d65d3b4c3216", "is_disabled": 0, "is_reserved": 0}, {"rental_uris": {"ios": "https://dc.lft.to/lastmile_qr_scan", "android": "https://dc.lft.to/lastmile_qr_scan"}, "lon": -77.0471095, "type": "electric_scooter", "fusion_lat": 0.0, "lat": 38.9086375, "name": "ec511f05db78232930936472bde062c5", "fusion_lon": 0.0, "bike_id": "ec511f05db78232930936472bde062c5", "is_disabled": 0, "is_reserved": 0}, {"rental_uris": {"ios": "https://dc.lft.to/lastmile_qr_scan", "android": "https://dc.lft.to/lastmile_qr_scan"}, "lon": -76.97609033333333, "type": "electric_bike", "fusion_lat": 0.0, "lat": 38.91309783333333, "name": "7c0599c5caaf86b6111c9879e4bf871e", "fusion_lon": 0.0, "bike_id": "7c0599c5caaf86b6111c9879e4bf871e", "is_disabled": 0, "is_reserved": 0}, {"rental_uris": {"ios": "https://dc.lft.to/lastmile_qr_scan", "android": "https://dc.lft.to/lastmile_qr_scan"}, "lon": -77.06118816666667, "type": "electric_scooter", "fusion_lat": 0.0, "lat": 38.91294283333333, "name": "edeece392617a4e0fd41ebbede07c80f", "fusion_lon": 0.0, "bike_id": "edeece392617a4e0fd41ebbede07c80f", "is_disabled": 0, "is_reserved": 0}, {"rental_uris": {"ios": "https://dc.lft.to/lastmile_qr_scan", "android": "https://dc.lft.to/lastmile_qr_scan"}, "lon": -77.03668166666667, "type": "electric_scooter", "fusion_lat": 0.0, "lat": 38.91706716666667, "name": "bf1e68693ea165ae7bddbc546122a37d", "fusion_lon": 0.0, "bike_id": "bf1e68693ea165ae7bddbc546122a37d", "is_disabled": 0, "is_reserved": 0}, {"rental_uris": {"ios": "https://dc.lft.to/lastmile_qr_scan", "android": "https://dc.lft.to/lastmile_qr_scan"}, "lon": -76.990018, "type": "electric_scooter", "fusion_lat": 0.0, "lat": 38.8650745, "name": "c7f8e9c4e6cecc5c3cec45f8ac5fd1a5", "fusion_lon": 0.0, "bike_id": "c7f8e9c4e6cecc5c3cec45f8ac5fd1a5", "is_disabled": 0, "is_reserved": 0}, {"rental_uris": {"ios": "https://dc.lft.to/lastmile_qr_scan", "android": "https://dc.lft.to/lastmile_qr_scan"}, "lon": -77.0249115, "type": "electric_scooter", "fusion_lat": 0.0, "lat": 38.9418645, "name": "6a0cf25cd7dcdf934dee8705917ba490", "fusion_lon": 0.0, "bike_id": "6a0cf25cd7dcdf934dee8705917ba490", "is_disabled": 0, "is_reserved": 0}, {"rental_uris": {"ios": "https://dc.lft.to/lastmile_qr_scan", "android": "https://dc.lft.to/lastmile_qr_scan"}, "lon": -77.03872316666667, "type": "electric_scooter", "fusion_lat": 0.0, "lat": 38.942006166666665, "name": "ad3f67f86cbd796d3fab8440ada310ca", "fusion_lon": 0.0, "bike_id": "ad3f67f86cbd796d3fab8440ada310ca", "is_disabled": 0, "is_reserved": 0}, {"rental_uris": {"ios": "https://dc.lft.to/lastmile_qr_scan", "android": "https://dc.lft.to/lastmile_qr_scan"}, "lon": -77.0324465, "type": "electric_scooter", "fusion_lat": 0.0, "lat": 38.91266616666667, "name": "962de836d82e71120b9ed343936cd684", "fusion_lon": 0.0, "bike_id": "962de836d82e71120b9ed343936cd684", "is_disabled": 0, "is_reserved": 0}, {"rental_uris": {"ios": "https://dc.lft.to/lastmile_qr_scan", "android": "https://dc.lft.to/lastmile_qr_scan"}, "lon": -77.00635233333334, "type": "electric_scooter", "fusion_lat": 0.0, "lat": 38.905755, "name": "bbf6ddc9651cbb608e7e9a2db999d825", "fusion_lon": 0.0, "bike_id": "bbf6ddc9651cbb608e7e9a2db999d825", "is_disabled": 0, "is_reserved": 0}, {"rental_uris": {"ios": "https://dc.lft.to/lastmile_qr_scan", "android": "https://dc.lft.to/lastmile_qr_scan"}, "lon": -77.04892983333333, "type": "electric_scooter", "fusion_lat": 0.0, "lat": 38.90590783333333, "name": "527cf58719490d2de6470fece7c0a43d", "fusion_lon": 0.0, "bike_id": "527cf58719490d2de6470fece7c0a43d", "is_disabled": 0, "is_reserved": 0}, {"rental_uris": {"ios": "https://dc.lft.to/lastmile_qr_scan", "android": "https://dc.lft.to/lastmile_qr_scan"}, "lon": -77.03872633333333, "type": "electric_scooter", "fusion_lat": 0.0, "lat": 38.9156325, "name": "03dbb1bbfe6dc91f6259a023233c38f9", "fusion_lon": 0.0, "bike_id": "03dbb1bbfe6dc91f6259a023233c38f9", "is_disabled": 0, "is_reserved": 0}, {"rental_uris": {"ios": "https://dc.lft.to/lastmile_qr_scan", "android": "https://dc.lft.to/lastmile_qr_scan"}, "lon": -77.04238266666667, "type": "electric_scooter", "fusion_lat": 0.0, "lat": 38.92148433333333, "name": "bc57679d5884bba7a81caa2ec42d3e84", "fusion_lon": 0.0, "bike_id": "bc57679d5884bba7a81caa2ec42d3e84", "is_disabled": 0, "is_reserved": 0}, {"rental_uris": {"ios": "https://dc.lft.to/lastmile_qr_scan", "android": "https://dc.lft.to/lastmile_qr_scan"}, "lon": -77.0050905, "type": "electric_scooter", "fusion_lat": 0.0, "lat": 38.87849283333333, "name": "617e7e39fd6ddabe3435e2f9d5a31cae", "fusion_lon": 0.0, "bike_id": "617e7e39fd6ddabe3435e2f9d5a31cae", "is_disabled": 0, "is_reserved": 0}, {"rental_uris": {"ios": "https://dc.lft.to/lastmile_qr_scan", "android": "https://dc.lft.to/lastmile_qr_scan"}, "lon": -77.03222016666666, "type": "electric_scooter", "fusion_lat": 0.0, "lat": 38.907377833333335, "name": "01fb26454f1584fd4b6cc26a63572ae2", "fusion_lon": 0.0, "bike_id": "01fb26454f1584fd4b6cc26a63572ae2", "is_disabled": 0, "is_reserved": 0}, {"rental_uris": {"ios": "https://dc.lft.to/lastmile_qr_scan", "android": "https://dc.lft.to/lastmile_qr_scan"}, "lon": -76.925918, "type": "electric_scooter", "fusion_lat": 0.0, "lat": 38.89729083333334, "name": "5d22a0183d1f425ce9914a9dc30d03e5", "fusion_lon": 0.0, "bike_id": "5d22a0183d1f425ce9914a9dc30d03e5", "is_disabled": 0, "is_reserved": 0}, {"rental_uris": {"ios": "https://dc.lft.to/lastmile_qr_scan", "android": "https://dc.lft.to/lastmile_qr_scan"}, "lon": -77.0128225, "type": "electric_bike", "fusion_lat": 0.0, "lat": 38.88118983333333, "name": "b77fc8ab618ab0b1b6418da7efa4e17a", "fusion_lon": 0.0, "bike_id": "b77fc8ab618ab0b1b6418da7efa4e17a", "is_disabled": 0, "is_reserved": 0}, {"rental_uris": {"ios": "https://dc.lft.to/lastmile_qr_scan", "android": "https://dc.lft.to/lastmile_qr_scan"}, "lon": -77.02976733333334, "type": "electric_scooter", "fusion_lat": 0.0, "lat": 38.96223466666667, "name": "6f7510f35c9943168a026034497aa570", "fusion_lon": 0.0, "bike_id": "6f7510f35c9943168a026034497aa570", "is_disabled": 0, "is_reserved": 0}, {"rental_uris": {"ios": "https://dc.lft.to/lastmile_qr_scan", "android": "https://dc.lft.to/lastmile_qr_scan"}, "lon": -77.03851783333333, "type": "electric_scooter", "fusion_lat": 0.0, "lat": 38.91325583333333, "name": "c0a5d7fd771bd4b17196f38a06229b14", "fusion_lon": 0.0, "bike_id": "c0a5d7fd771bd4b17196f38a06229b14", "is_disabled": 0, "is_reserved": 0}, {"rental_uris": {"ios": "https://dc.lft.to/lastmile_qr_scan", "android": "https://dc.lft.to/lastmile_qr_scan"}, "lon": -77.103355, "type": "electric_bike", "fusion_lat": 0.0, "lat": 38.852282333333335, "name": "5e269c61ad8aef96c1fa880d5debd07e", "fusion_lon": 0.0, "bike_id": "5e269c61ad8aef96c1fa880d5debd07e", "is_disabled": 0, "is_reserved": 0}, {"rental_uris": {"ios": "https://dc.lft.to/lastmile_qr_scan", "android": "https://dc.lft.to/lastmile_qr_scan"}, "lon": -77.02692033333334, "type": "electric_scooter", "fusion_lat": 0.0, "lat": 38.88122416666667, "name": "bac55bfef2cce72d57b8f19697674984", "fusion_lon": 0.0, "bike_id": "bac55bfef2cce72d57b8f19697674984", "is_disabled": 0, "is_reserved": 0}, {"rental_uris": {"ios": "https://dc.lft.to/lastmile_qr_scan", "android": "https://dc.lft.to/lastmile_qr_scan"}, "lon": -77.04730816666667, "type": "electric_scooter", "fusion_lat": 0.0, "lat": 38.90583633333333, "name": "2ab073ea76e858a6b68e30940870848c", "fusion_lon": 0.0, "bike_id": "2ab073ea76e858a6b68e30940870848c", "is_disabled": 0, "is_reserved": 0}, {"rental_uris": {"ios": "https://dc.lft.to/lastmile_qr_scan", "android": "https://dc.lft.to/lastmile_qr_scan"}, "lon": -77.00137133333334, "type": "electric_scooter", "fusion_lat": 0.0, "lat": 38.904042, "name": "1282d1871d2ad8aa8dfcef83870b60ce", "fusion_lon": 0.0, "bike_id": "1282d1871d2ad8aa8dfcef83870b60ce", "is_disabled": 0, "is_reserved": 0}, {"rental_uris": {"ios": "https://dc.lft.to/lastmile_qr_scan", "android": "https://dc.lft.to/lastmile_qr_scan"}, "lon": -76.92721533333334, "type": "electric_scooter", "fusion_lat": 0.0, "lat": 38.88036233333333, "name": "3283334756b3faae4c861bcc6ca8ffcd", "fusion_lon": 0.0, "bike_id": "3283334756b3faae4c861bcc6ca8ffcd", "is_disabled": 0, "is_reserved": 0}, {"rental_uris": {"ios": "https://dc.lft.to/lastmile_qr_scan", "android": "https://dc.lft.to/lastmile_qr_scan"}, "lon": -77.00878916666667, "type": "electric_scooter", "fusion_lat": 0.0, "lat": 38.9141105, "name": "293281cdef0958d24902bdb71edd0037", "fusion_lon": 0.0, "bike_id": "293281cdef0958d24902bdb71edd0037", "is_disabled": 0, "is_reserved": 0}, {"rental_uris": {"ios": "https://dc.lft.to/lastmile_qr_scan", "android": "https://dc.lft.to/lastmile_qr_scan"}, "lon": -77.03121483333334, "type": "electric_scooter", "fusion_lat": 0.0, "lat": 38.963072, "name": "3f179aa3b7c5492b097be85fda2a4449", "fusion_lon": 0.0, "bike_id": "3f179aa3b7c5492b097be85fda2a4449", "is_disabled": 0, "is_reserved": 0}, {"rental_uris": {"ios": "https://dc.lft.to/lastmile_qr_scan", "android": "https://dc.lft.to/lastmile_qr_scan"}, "lon": -77.0320525, "type": "electric_scooter", "fusion_lat": 0.0, "lat": 38.9099055, "name": "60c861362338856e0455a72c6d35f945", "fusion_lon": 0.0, "bike_id": "60c861362338856e0455a72c6d35f945", "is_disabled": 0, "is_reserved": 0}, {"rental_uris": {"ios": "https://dc.lft.to/lastmile_qr_scan", "android": "https://dc.lft.to/lastmile_qr_scan"}, "lon": -76.98657133333333, "type": "electric_scooter", "fusion_lat": 0.0, "lat": 38.858040333333335, "name": "dab507dfa74ecca82b3cd47841bd3eb3", "fusion_lon": 0.0, "bike_id": "dab507dfa74ecca82b3cd47841bd3eb3", "is_disabled": 0, "is_reserved": 0}, {"rental_uris": {"ios": "https://dc.lft.to/lastmile_qr_scan", "android": "https://dc.lft.to/lastmile_qr_scan"}, "lon": -76.98012866666667, "type": "electric_scooter", "fusion_lat": 0.0, "lat": 38.853222333333335, "name": "dca264eae0cbed0c180f84237a978f02", "fusion_lon": 0.0, "bike_id": "dca264eae0cbed0c180f84237a978f02", "is_disabled": 0, "is_reserved": 0}, {"rental_uris": {"ios": "https://dc.lft.to/lastmile_qr_scan", "android": "https://dc.lft.to/lastmile_qr_scan"}, "lon": -77.048093, "type": "electric_scooter", "fusion_lat": 0.0, "lat": 38.9110655, "name": "230e5dbb85f12552ca18fd2d4120857a", "fusion_lon": 0.0, "bike_id": "230e5dbb85f12552ca18fd2d4120857a", "is_disabled": 0, "is_reserved": 0}, {"rental_uris": {"ios": "https://dc.lft.to/lastmile_qr_scan", "android": "https://dc.lft.to/lastmile_qr_scan"}, "lon": -76.979274, "type": "electric_scooter", "fusion_lat": 0.0, "lat": 38.90502266666667, "name": "aae55a9cd97f28f4056d1ae4843b15eb", "fusion_lon": 0.0, "bike_id": "aae55a9cd97f28f4056d1ae4843b15eb", "is_disabled": 0, "is_reserved": 0}, {"rental_uris": {"ios": "https://dc.lft.to/lastmile_qr_scan", "android": "https://dc.lft.to/lastmile_qr_scan"}, "lon": -77.03654866666666, "type": "electric_scooter", "fusion_lat": 0.0, "lat": 38.92208433333333, "name": "5b3977ed1a2278c5fbf4c12d1bd139df", "fusion_lon": 0.0, "bike_id": "5b3977ed1a2278c5fbf4c12d1bd139df", "is_disabled": 0, "is_reserved": 0}, {"rental_uris": {"ios": "https://dc.lft.to/lastmile_qr_scan", "android": "https://dc.lft.to/lastmile_qr_scan"}, "lon": -77.0418195, "type": "electric_scooter", "fusion_lat": 0.0, "lat": 38.92054316666667, "name": "9f0d86dba005e8e720da0bbcc20425e2", "fusion_lon": 0.0, "bike_id": "9f0d86dba005e8e720da0bbcc20425e2", "is_disabled": 0, "is_reserved": 0}, {"rental_uris": {"ios": "https://dc.lft.to/lastmile_qr_scan", "android": "https://dc.lft.to/lastmile_qr_scan"}, "lon": -77.1002745, "type": "electric_bike", "fusion_lat": 0.0, "lat": 38.990624333333336, "name": "3dcfa93275807f9c17d760fb668968ca", "fusion_lon": 0.0, "bike_id": "3dcfa93275807f9c17d760fb668968ca", "is_disabled": 0, "is_reserved": 0}, {"rental_uris": {"ios": "https://dc.lft.to/lastmile_qr_scan", "android": "https://dc.lft.to/lastmile_qr_scan"}, "lon": -76.98573066666667, "type": "electric_scooter", "fusion_lat": 0.0, "lat": 38.855832666666664, "name": "4170b86b102a9f80494583347fbe8a2c", "fusion_lon": 0.0, "bike_id": "4170b86b102a9f80494583347fbe8a2c", "is_disabled": 0, "is_reserved": 0}, {"rental_uris": {"ios": "https://dc.lft.to/lastmile_qr_scan", "android": "https://dc.lft.to/lastmile_qr_scan"}, "lon": -77.04900116666667, "type": "electric_bike", "fusion_lat": 0.0, "lat": 38.8749145, "name": "d58e590246a4a91bc1bc5959d4b2433c", "fusion_lon": 0.0, "bike_id": "d58e590246a4a91bc1bc5959d4b2433c", "is_disabled": 0, "is_reserved": 0}, {"rental_uris": {"ios": "https://dc.lft.to/lastmile_qr_scan", "android": "https://dc.lft.to/lastmile_qr_scan"}, "lon": -77.00385633333333, "type": "electric_scooter", "fusion_lat": 0.0, "lat": 38.897790666666666, "name": "e13d47ed73a77ad4f3683cd44e9f7d5b", "fusion_lon": 0.0, "bike_id": "e13d47ed73a77ad4f3683cd44e9f7d5b", "is_disabled": 0, "is_reserved": 0}, {"rental_uris": {"ios": "https://dc.lft.to/lastmile_qr_scan", "android": "https://dc.lft.to/lastmile_qr_scan"}, "lon": -77.0222145, "type": "electric_scooter", "fusion_lat": 0.0, "lat": 38.89356516666667, "name": "5766d3393da8b24835e4e44c9d78cb48", "fusion_lon": 0.0, "bike_id": "5766d3393da8b24835e4e44c9d78cb48", "is_disabled": 0, "is_reserved": 0}, {"rental_uris": {"ios": "https://dc.lft.to/lastmile_qr_scan", "android": "https://dc.lft.to/lastmile_qr_scan"}, "lon": -77.02332183333333, "type": "electric_scooter", "fusion_lat": 0.0, "lat": 38.93052983333333, "name": "f1fe589f7b64d4ba0cae970c1c92332f", "fusion_lon": 0.0, "bike_id": "f1fe589f7b64d4ba0cae970c1c92332f", "is_disabled": 0, "is_reserved": 0}, {"rental_uris": {"ios": "https://dc.lft.to/lastmile_qr_scan", "android": "https://dc.lft.to/lastmile_qr_scan"}, "lon": -76.98571333333334, "type": "electric_scooter", "fusion_lat": 0.0, "lat": 38.898856333333335, "name": "cadc59015d73b9108d633b746baa3487", "fusion_lon": 0.0, "bike_id": "cadc59015d73b9108d633b746baa3487", "is_disabled": 0, "is_reserved": 0}, {"rental_uris": {"ios": "https://dc.lft.to/lastmile_qr_scan", "android": "https://dc.lft.to/lastmile_qr_scan"}, "lon": -76.946528, "type": "electric_scooter", "fusion_lat": 0.0, "lat": 38.89826033333333, "name": "2641ff88bf22a76b3c8089312723405d", "fusion_lon": 0.0, "bike_id": "2641ff88bf22a76b3c8089312723405d", "is_disabled": 0, "is_reserved": 0}, {"rental_uris": {"ios": "https://dc.lft.to/lastmile_qr_scan", "android": "https://dc.lft.to/lastmile_qr_scan"}, "lon": -76.986551, "type": "electric_scooter", "fusion_lat": 0.0, "lat": 38.85807, "name": "1dd2d52f93339a5faad7a1e02e8aac53", "fusion_lon": 0.0, "bike_id": "1dd2d52f93339a5faad7a1e02e8aac53", "is_disabled": 0, "is_reserved": 0}, {"rental_uris": {"ios": "https://dc.lft.to/lastmile_qr_scan", "android": "https://dc.lft.to/lastmile_qr_scan"},