{"data": {"bikes": [{"bike_id": "4c697d58d62ba2b04b47c866b0c7fbd4", "fusion_lon": 0.0, "type": "electric_scooter", "name": "4c697d58d62ba2b04b47c866b0c7fbd4", "rental_uris": {"android": "https://dc.lft.to/lastmile_qr_scan", "ios": "https://dc.lft.to/lastmile_qr_scan"}, "fusion_lat": 0.0, "lat": 38.93881433333333, "is_disabled": 0, "lon": -77.02481183333333, "is_reserved": 0}, {"bike_id": "71055ec4fe4deddae5c2216373e41fc9", "fusion_lon": 0.0, "type": "electric_scooter", "name": "71055ec4fe4deddae5c2216373e41fc9", "rental_uris": {"android": "https://dc.lft.to/lastmile_qr_scan", "ios": "https://dc.lft.to/lastmile_qr_scan"}, "fusion_lat": 0.0, "lat": 38.9002965, "is_disabled": 0, "lon": -76.99623933333334, "is_reserved": 0}, {"bike_id": "ad0c8e8b165125094a7b86dd3e9dfc0f", "fusion_lon": 0.0, "type": "electric_scooter", "name": "ad0c8e8b165125094a7b86dd3e9dfc0f", "rental_uris": {"android": "https://dc.lft.to/lastmile_qr_scan", "ios": "https://dc.lft.to/lastmile_qr_scan"}, "fusion_lat": 0.0, "lat": 38.917093, "is_disabled": 0, "lon": -77.03860666666667, "is_reserved": 0}, {"bike_id": "b5babf1a9d95e4ad780aba4fa4d5a447", "fusion_lon": 0.0, "type": "electric_scooter", "name": "b5babf1a9d95e4ad780aba4fa4d5a447", "rental_uris": {"android": "https://dc.lft.to/lastmile_qr_scan", "ios": "https://dc.lft.to/lastmile_qr_scan"}, "fusion_lat": 0.0, "lat": 38.92646533333333, "is_disabled": 0, "lon": -77.03703416666667, "is_reserved": 0}, {"bike_id": "db7110b15dad5ec570a5f8dc37177656", "fusion_lon": 0.0, "type": "electric_scooter", "name": "db7110b15dad5ec570a5f8dc37177656", "rental_uris": {"android": "https://dc.lft.to/lastmile_qr_scan", "ios": "https://dc.lft.to/lastmile_qr_scan"}, "fusion_lat": 0.0, "lat": 38.91700866666667, "is_disabled": 0, "lon": -77.00803616666667, "is_reserved": 0}, {"bike_id": "fa15b1d3cac748b0e5620b9d6db7e313", "fusion_lon": 0.0, "type": "electric_scooter", "name": "fa15b1d3cac748b0e5620b9d6db7e313", "rental_uris": {"android": "https://dc.lft.to/lastmile_qr_scan", "ios": "https://dc.lft.to/lastmile_qr_scan"}, "fusion_lat": 0.0, "lat": 38.9284605, "is_disabled": 0, "lon": -77.01588566666666, "is_reserved": 0}, {"bike_id": "d604282429db61d7c43dec32caed8a88", "fusion_lon": 0.0, "type": "electric_bike", "name": "d604282429db61d7c43dec32caed8a88", "rental_uris": {"android": "https://dc.lft.to/lastmile_qr_scan", "ios": "https://dc.lft.to/lastmile_qr_scan"}, "fusion_lat": 0.0, "lat": 38.895781, "is_disabled": 0, "lon": -76.9762165, "is_reserved": 0}, {"bike_id": "256488da6dc0f200eee19445ffb0f971", "fusion_lon": 0.0, "type": "electric_scooter", "name": "256488da6dc0f200eee19445ffb0f971", "rental_uris": {"android": "https://dc.lft.to/lastmile_qr_scan", "ios": "https://dc.lft.to/lastmile_qr_scan"}, "fusion_lat": 0.0, "lat": 38.872445166666665, "is_disabled": 0, "lon": -77.01059433333333, "is_reserved": 0}, {"bike_id": "6417884c58ffb2cf40586edde55927d9", "fusion_lon": 0.0, "type": "electric_scooter", "name": "6417884c58ffb2cf40586edde55927d9", "rental_uris": {"android": "https://dc.lft.to/lastmile_qr_scan", "ios": "https://dc.lft.to/lastmile_qr_scan"}, "fusion_lat": 0.0, "lat": 38.9073965, "is_disabled": 0, "lon": -77.04269466666666, "is_reserved": 0}, {"bike_id": "43bad73d201182f23076a7c6a8ce64dc", "fusion_lon": 0.0, "type": "electric_scooter", "name": "43bad73d201182f23076a7c6a8ce64dc", "rental_uris": {"android": "https://dc.lft.to/lastmile_qr_scan", "ios": "https://dc.lft.to/lastmile_qr_scan"}, "fusion_lat": 0.0, "lat": 38.893474, "is_disabled": 0, "lon": -77.01161933333333, "is_reserved": 0}, {"bike_id": "a3678ba9307164eb829e5884eb5a2582", "fusion_lon": 0.0, "type": "electric_scooter", "name": "a3678ba9307164eb829e5884eb5a2582", "rental_uris": {"android": "https://dc.lft.to/lastmile_qr_scan", "ios": "https://dc.lft.to/lastmile_qr_scan"}, "fusion_lat": 0.0, "lat": 38.88322316666667, "is_disabled": 0, "lon": -76.94941433333334, "is_reserved": 0}, {"bike_id": "9147659ca9095cb8463e16b15b66eb25", "fusion_lon": 0.0, "type": "electric_scooter", "name": "9147659ca9095cb8463e16b15b66eb25", "rental_uris": {"android": "https://dc.lft.to/lastmile_qr_scan", "ios": "https://dc.lft.to/lastmile_qr_scan"}, "fusion_lat": 0.0, "lat": 38.9001405, "is_disabled": 0, "lon": -77.00138316666667, "is_reserved": 0}, {"bike_id": "2ef53ee6be84070e044bd0f867dc186e", "fusion_lon": 0.0, "type": "electric_scooter", "name": "2ef53ee6be84070e044bd0f867dc186e", "rental_uris": {"android": "https://dc.lft.to/lastmile_qr_scan", "ios": "https://dc.lft.to/lastmile_qr_scan"}, "fusion_lat": 0.0, "lat": 38.9087385, "is_disabled": 0, "lon": -77.02387783333333, "is_reserved": 0}, {"bike_id": "f5514e0c08ba857b3851547abe7ea2b0", "fusion_lon": 0.0, "type": "electric_scooter", "name": "f5514e0c08ba857b3851547abe7ea2b0", "rental_uris": {"android": "https://dc.lft.to/lastmile_qr_scan", "ios": "https://dc.lft.to/lastmile_qr_scan"}, "fusion_lat": 0.0, "lat": 38.95652966666667, "is_disabled": 0, "lon": -77.03282766666666, "is_reserved": 0}, {"bike_id": "991a23ddd0565ed734511efde448fcff", "fusion_lon": 0.0, "type": "electric_bike", "name": "991a23ddd0565ed734511efde448fcff", "rental_uris": {"android": "https://dc.lft.to/lastmile_qr_scan", "ios": "https://dc.lft.to/lastmile_qr_scan"}, "fusion_lat": 0.0, "lat": 38.975885, "is_disabled": 0, "lon": -77.035121, "is_reserved": 0}, {"bike_id": "ec5f6a4cbf739925091cd7360e3eb61a", "fusion_lon": 0.0, "type": "electric_bike", "name": "ec5f6a4cbf739925091cd7360e3eb61a", "rental_uris": {"android": "https://dc.lft.to/lastmile_qr_scan", "ios": "https://dc.lft.to/lastmile_qr_scan"}, "fusion_lat": 0.0, "lat": 38.836108333333335, "is_disabled": 0, "lon": -77.0037105, "is_reserved": 0}, {"bike_id": "351e985f5ecdcf288a2989008d3faf2b", "fusion_lon": 0.0, "type": "electric_scooter", "name": "351e985f5ecdcf288a2989008d3faf2b", "rental_uris": {"android": "https://dc.lft.to/lastmile_qr_scan", "ios": "https://dc.lft.to/lastmile_qr_scan"}, "fusion_lat": 0.0, "lat": 38.89628, "is_disabled": 0, "lon": -76.947629, "is_reserved": 0}, {"bike_id": "51c3cce8a15416f82c0773d6da166b83", "fusion_lon": 0.0, "type": "electric_bike", "name": "51c3cce8a15416f82c0773d6da166b83", "rental_uris": {"android": "https://dc.lft.to/lastmile_qr_scan", "ios": "https://dc.lft.to/lastmile_qr_scan"}, "fusion_lat": 0.0, "lat": 38.8521785, "is_disabled": 0, "lon": -77.12962016666667, "is_reserved": 0}, {"bike_id": "602220a645656a98a0a1c014a6551e7f", "fusion_lon": 0.0, "type": "electric_scooter", "name": "602220a645656a98a0a1c014a6551e7f", "rental_uris": {"android": "https://dc.lft.to/lastmile_qr_scan", "ios": "https://dc.lft.to/lastmile_qr_scan"}, "fusion_lat": 0.0, "lat": 38.913283666666665, "is_disabled": 0, "lon": -77.04535383333334, "is_reserved": 0}, {"bike_id": "2dd88b253865cc4b486e42640c716672", "fusion_lon": 0.0, "type": "electric_scooter", "name": "2dd88b253865cc4b486e42640c716672", "rental_uris": {"android": "https://dc.lft.to/lastmile_qr_scan", "ios": "https://dc.lft.to/lastmile_qr_scan"}, "fusion_lat": 0.0, "lat": 38.905755, "is_disabled": 0, "lon": -77.00598166666667, "is_reserved": 0}, {"bike_id": "8080ef087b56b63e9035563d7498cd88", "fusion_lon": 0.0, "type": "electric_scooter", "name": "8080ef087b56b63e9035563d7498cd88", "rental_uris": {"android": "https://dc.lft.to/lastmile_qr_scan", "ios": "https://dc.lft.to/lastmile_qr_scan"}, "fusion_lat": 0.0, "lat": 38.95565066666666, "is_disabled": 0, "lon": -77.0063475, "is_reserved": 0}, {"bike_id": "a575c98df522626af152875fdda6a2a5", "fusion_lon": 0.0, "type": "electric_scooter", "name": "a575c98df522626af152875fdda6a2a5", "rental_uris": {"android": "https://dc.lft.to/lastmile_qr_scan", "ios": "https://dc.lft.to/lastmile_qr_scan"}, "fusion_lat": 0.0, "lat": 38.941348, "is_disabled": 0, "lon": -77.09204716666666, "is_reserved": 0}, {"bike_id": "2be4c81f545c3af94cfeae8caba3c2f6", "fusion_lon": 0.0, "type": "electric_bike", "name": "2be4c81f545c3af94cfeae8caba3c2f6", "rental_uris": {"android": "https://dc.lft.to/lastmile_qr_scan", "ios": "https://dc.lft.to/lastmile_qr_scan"}, "fusion_lat": 0.0, "lat": 38.86594083333333, "is_disabled": 0, "lon": -76.932322, "is_reserved": 0}, {"bike_id": "7e500fd51348e67f963ea49725207202", "fusion_lon": 0.0, "type": "electric_scooter", "name": "7e500fd51348e67f963ea49725207202", "rental_uris": {"android": "https://dc.lft.to/lastmile_qr_scan", "ios": "https://dc.lft.to/lastmile_qr_scan"}, "fusion_lat": 0.0, "lat": 38.92796516666667, "is_disabled": 0, "lon": -77.027262, "is_reserved": 0}, {"bike_id": "787a93f92ba2650a1ab9e5c43d80f337", "fusion_lon": 0.0, "type": "electric_scooter", "name": "787a93f92ba2650a1ab9e5c43d80f337", "rental_uris": {"android": "https://dc.lft.to/lastmile_qr_scan", "ios": "https://dc.lft.to/lastmile_qr_scan"}, "fusion_lat": 0.0, "lat": 38.905119, "is_disabled": 0, "lon": -77.04059266666667, "is_reserved": 0}, {"bike_id": "6bef8f4e729ef5d78a3a1cbc02cced61", "fusion_lon": 0.0, "type": "electric_scooter", "name": "6bef8f4e729ef5d78a3a1cbc02cced61", "rental_uris": {"android": "https://dc.lft.to/lastmile_qr_scan", "ios": "https://dc.lft.to/lastmile_qr_scan"}, "fusion_lat": 0.0, "lat": 38.91754866666667, "is_disabled": 0, "lon": -77.02493283333334, "is_reserved": 0}, {"bike_id": "0ba7356e9fb4fe1de9cd421ac7d07459", "fusion_lon": 0.0, "type": "electric_scooter", "name": "0ba7356e9fb4fe1de9cd421ac7d07459", "rental_uris": {"android": "https://dc.lft.to/lastmile_qr_scan", "ios": "https://dc.lft.to/lastmile_qr_scan"}, "fusion_lat": 0.0, "lat": 38.903532166666665, "is_disabled": 0, "lon": -77.01615483333333, "is_reserved": 0}, {"bike_id": "0881ba03c985989ec1672f40830d6d0b", "fusion_lon": 0.0, "type": "electric_bike", "name": "0881ba03c985989ec1672f40830d6d0b", "rental_uris": {"android": "https://dc.lft.to/lastmile_qr_scan", "ios": "https://dc.lft.to/lastmile_qr_scan"}, "fusion_lat": 0.0, "lat": 38.90382966666667, "is_disabled": 0, "lon": -77.017606, "is_reserved": 0}, {"bike_id": "a277bf9d8e3ce32c4dd15d1bac031f7e", "fusion_lon": 0.0, "type": "electric_scooter", "name": "a277bf9d8e3ce32c4dd15d1bac031f7e", "rental_uris": {"android": "https://dc.lft.to/lastmile_qr_scan", "ios": "https://dc.lft.to/lastmile_qr_scan"}, "fusion_lat": 0.0, "lat": 38.90168033333333, "is_disabled": 0, "lon": -77.02212783333333, "is_reserved": 0}, {"bike_id": "6f2365144f1a86c845eec4bc61c91caf", "fusion_lon": 0.0, "type": "electric_scooter", "name": "6f2365144f1a86c845eec4bc61c91caf", "rental_uris": {"android": "https://dc.lft.to/lastmile_qr_scan", "ios": "https://dc.lft.to/lastmile_qr_scan"}, "fusion_lat": 0.0, "lat": 38.89481033333333, "is_disabled": 0, "lon": -76.995172, "is_reserved": 0}, {"bike_id": "6322e3f864ecb8f35ccaa7d0f8326416", "fusion_lon": 0.0, "type": "electric_scooter", "name": "6322e3f864ecb8f35ccaa7d0f8326416", "rental_uris": {"android": "https://dc.lft.to/lastmile_qr_scan", "ios": "https://dc.lft.to/lastmile_qr_scan"}, "fusion_lat": 0.0, "lat": 38.900260333333335, "is_disabled": 0, "lon": -76.986987, "is_reserved": 0}, {"bike_id": "2aa455f49dcf4ac1e3163290696499fd", "fusion_lon": 0.0, "type": "electric_scooter", "name": "2aa455f49dcf4ac1e3163290696499fd", "rental_uris": {"android": "https://dc.lft.to/lastmile_qr_scan", "ios": "https://dc.lft.to/lastmile_qr_scan"}, "fusion_lat": 0.0, "lat": 38.91420566666667, "is_disabled": 0, "lon": -77.04158, "is_reserved": 0}, {"bike_id": "2edbbb594b17df417e38dd8d041d2202", "fusion_lon": 0.0, "type": "electric_scooter", "name": "2edbbb594b17df417e38dd8d041d2202", "rental_uris": {"android": "https://dc.lft.to/lastmile_qr_scan", "ios": "https://dc.lft.to/lastmile_qr_scan"}, "fusion_lat": 0.0, "lat": 38.88754816666667, "is_disabled": 0, "lon": -77.01604166666667, "is_reserved": 0}, {"bike_id": "4a42f3dee052efe2c931631ae07938d9", "fusion_lon": 0.0, "type": "electric_scooter", "name": "4a42f3dee052efe2c931631ae07938d9", "rental_uris": {"android": "https://dc.lft.to/lastmile_qr_scan", "ios": "https://dc.lft.to/lastmile_qr_scan"}, "fusion_lat": 0.0, "lat": 38.92245616666666, "is_disabled": 0, "lon": -77.099546, "is_reserved": 0}, {"bike_id": "5b1425a1ae1f94bd668126d1f37f8ad4", "fusion_lon": 0.0, "type": "electric_bike", "name": "5b1425a1ae1f94bd668126d1f37f8ad4", "rental_uris": {"android": "https://dc.lft.to/lastmile_qr_scan", "ios": "https://dc.lft.to/lastmile_qr_scan"}, "fusion_lat": 0.0, "lat": 38.9421075, "is_disabled": 0, "lon": -76.96616366666666, "is_reserved": 0}, {"bike_id": "290bfe3e8996cf61ec6e5d378699ade8", "fusion_lon": 0.0, "type": "electric_scooter", "name": "290bfe3e8996cf61ec6e5d378699ade8", "rental_uris": {"android": "https://dc.lft.to/lastmile_qr_scan", "ios": "https://dc.lft.to/lastmile_qr_scan"}, "fusion_lat": 0.0, "lat": 38.93863266666666, "is_disabled": 0, "lon": -77.02651216666666, "is_reserved": 0}, {"bike_id": "afeee2fb711aced5874b15ebff740cd4", "fusion_lon": 0.0, "type": "electric_scooter", "name": "afeee2fb711aced5874b15ebff740cd4", "rental_uris": {"android": "https://dc.lft.to/lastmile_qr_scan", "ios": "https://dc.lft.to/lastmile_qr_scan"}, "fusion_lat": 0.0, "lat": 38.8874975, "is_disabled": 0, "lon": -77.022656, "is_reserved": 0}, {"bike_id": "831ef4bb7d5e93ef633b70690e011a8b", "fusion_lon": 0.0, "type": "electric_scooter", "name": "831ef4bb7d5e93ef633b70690e011a8b", "rental_uris": {"android": "https://dc.lft.to/lastmile_qr_scan", "ios": "https://dc.lft.to/lastmile_qr_scan"}, "fusion_lat": 0.0, "lat": 38.92671683333333, "is_disabled": 0, "lon": -77.07834666666666, "is_reserved": 0}, {"bike_id": "205d689c5889ccf133e8e3bca3536e5a", "fusion_lon": 0.0, "type": "electric_scooter", "name": "205d689c5889ccf133e8e3bca3536e5a", "rental_uris": {"android": "https://dc.lft.to/lastmile_qr_scan", "ios": "https://dc.lft.to/lastmile_qr_scan"}, "fusion_lat": 0.0, "lat": 38.90072133333334, "is_disabled": 0, "lon": -77.002154, "is_reserved": 0}, {"bike_id": "8092233ac1cbcd062d694906a2ff8105", "fusion_lon": 0.0, "type": "electric_scooter", "name": "8092233ac1cbcd062d694906a2ff8105", "rental_uris": {"android": "https://dc.lft.to/lastmile_qr_scan", "ios": "https://dc.lft.to/lastmile_qr_scan"}, "fusion_lat": 0.0, "lat": 38.8863265, "is_disabled": 0, "lon": -77.021931, "is_reserved": 0}, {"bike_id": "afc8c3a9d2cd98740f20d437869b67a0", "fusion_lon": 0.0, "type": "electric_scooter", "name": "afc8c3a9d2cd98740f20d437869b67a0", "rental_uris": {"android": "https://dc.lft.to/lastmile_qr_scan", "ios": "https://dc.lft.to/lastmile_qr_scan"}, "fusion_lat": 0.0, "lat": 38.89055066666667, "is_disabled": 0, "lon": -76.95519133333333, "is_reserved": 0}, {"bike_id": "50e004a439cc0f159ea1aeee99c33dda", "fusion_lon": 0.0, "type": "electric_bike", "name": "50e004a439cc0f159ea1aeee99c33dda", "rental_uris": {"android": "https://dc.lft.to/lastmile_qr_scan", "ios": "https://dc.lft.to/lastmile_qr_scan"}, "fusion_lat": 0.0, "lat": 38.956293, "is_disabled": 0, "lon": -76.93887933333333, "is_reserved": 0}, {"bike_id": "3d68e4c457e1822e4a54684dd052ccd2", "fusion_lon": 0.0, "type": "electric_bike", "name": "3d68e4c457e1822e4a54684dd052ccd2", "rental_uris": {"android": "https://dc.lft.to/lastmile_qr_scan", "ios": "https://dc.lft.to/lastmile_qr_scan"}, "fusion_lat": 0.0, "lat": 38.868917833333334, "is_disabled": 0, "lon": -76.98560516666667, "is_reserved": 0}, {"bike_id": "c5cfb29d2f28b8a1d06d777820b2ac70", "fusion_lon": 0.0, "type": "electric_scooter", "name": "c5cfb29d2f28b8a1d06d777820b2ac70", "rental_uris": {"android": "https://dc.lft.to/lastmile_qr_scan", "ios": "https://dc.lft.to/lastmile_qr_scan"}, "fusion_lat": 0.0, "lat": 38.92012233333333, "is_disabled": 0, "lon": -77.02466933333334, "is_reserved": 0}, {"bike_id": "65fb119daf40d3e26581c90f4a2fbf86", "fusion_lon": 0.0, "type": "electric_scooter", "name": "65fb119daf40d3e26581c90f4a2fbf86", "rental_uris": {"android": "https://dc.lft.to/lastmile_qr_scan", "ios": "https://dc.lft.to/lastmile_qr_scan"}, "fusion_lat": 0.0, "lat": 38.8919925, "is_disabled": 0, "lon": -76.9812475, "is_reserved": 0}, {"bike_id": "c228dd01e139142d83352e527fab6dc3", "fusion_lon": 0.0, "type": "electric_scooter", "name": "c228dd01e139142d83352e527fab6dc3", "rental_uris": {"android": "https://dc.lft.to/lastmile_qr_scan", "ios": "https://dc.lft.to/lastmile_qr_scan"}, "fusion_lat": 0.0, "lat": 38.9166325, "is_disabled": 0, "lon": -77.03705416666666, "is_reserved": 0}, {"bike_id": "6197e1ac14732e90f6e4d80bde99bea9", "fusion_lon": 0.0, "type": "electric_scooter", "name": "6197e1ac14732e90f6e4d80bde99bea9", "rental_uris": {"android": "https://dc.lft.to/lastmile_qr_scan", "ios": "https://dc.lft.to/lastmile_qr_scan"}, "fusion_lat": 0.0, "lat": 38.911074, "is_disabled": 0, "lon": -77.04234083333333, "is_reserved": 0}, {"bike_id": "250d47e97e444e880347325ff24a07a0", "fusion_lon": 0.0, "type": "electric_scooter", "name": "250d47e97e444e880347325ff24a07a0", "rental_uris": {"android": "https://dc.lft.to/lastmile_qr_scan", "ios": "https://dc.lft.to/lastmile_qr_scan"}, "fusion_lat": 0.0, "lat": 38.9066455, "is_disabled": 0, "lon": -77.07114766666666, "is_reserved": 0}, {"bike_id": "cd7037fa2c1989360f187dd11b19666e", "fusion_lon": 0.0, "type": "electric_scooter", "name": "cd7037fa2c1989360f187dd11b19666e", "rental_uris": {"android": "https://dc.lft.to/lastmile_qr_scan", "ios": "https://dc.lft.to/lastmile_qr_scan"}, "fusion_lat": 0.0, "lat": 38.916917, "is_disabled": 0, "lon": -77.02200533333334, "is_reserved": 0}, {"bike_id": "41a715ae3348c3d820a9d4360d1347a9", "fusion_lon": 0.0, "type": "electric_scooter", "name": "41a715ae3348c3d820a9d4360d1347a9", "rental_uris": {"android": "https://dc.lft.to/lastmile_qr_scan", "ios": "https://dc.lft.to/lastmile_qr_scan"}, "fusion_lat": 0.0, "lat": 38.893608, "is_disabled": 0, "lon": -77.0319345, "is_reserved": 0}, {"bike_id": "3bd032aa74ce17617b68a437252b2376", "fusion_lon": 0.0, "type": "electric_scooter", "name": "3bd032aa74ce17617b68a437252b2376", "rental_uris": {"android": "https://dc.lft.to/lastmile_qr_scan", "ios": "https://dc.lft.to/lastmile_qr_scan"}, "fusion_lat": 0.0, "lat": 38.93566116666667, "is_disabled": 0, "lon": -77.03491433333333, "is_reserved": 0}, {"bike_id": "b8ed5878d73a453431d52a13184188b8", "fusion_lon": 0.0, "type": "electric_scooter", "name": "b8ed5878d73a453431d52a13184188b8", "rental_uris": {"android": "https://dc.lft.to/lastmile_qr_scan", "ios": "https://dc.lft.to/lastmile_qr_scan"}, "fusion_lat": 0.0, "lat": 38.9044585, "is_disabled": 0, "lon": -77.03130816666666, "is_reserved": 0}, {"bike_id": "35e9cedf80e585216a2b7aba91ac0037", "fusion_lon": 0.0, "type": "electric_scooter", "name": "35e9cedf80e585216a2b7aba91ac0037", "rental_uris": {"android": "https://dc.lft.to/lastmile_qr_scan", "ios": "https://dc.lft.to/lastmile_qr_scan"}, "fusion_lat": 0.0, "lat": 38.929250333333336, "is_disabled": 0, "lon": -77.03266166666667, "is_reserved": 0}, {"bike_id": "7c2c4bf7620cfdcaf65647325500c27f", "fusion_lon": 0.0, "type": "electric_scooter", "name": "7c2c4bf7620cfdcaf65647325500c27f", "rental_uris": {"android": "https://dc.lft.to/lastmile_qr_scan", "ios": "https://dc.lft.to/lastmile_qr_scan"}, "fusion_lat": 0.0, "lat": 38.9379495, "is_disabled": 0, "lon": -77.03284833333333, "is_reserved": 0}, {"bike_id": "d4664e35e86428ed95ecbcfd98edf03a", "fusion_lon": 0.0, "type": "electric_scooter", "name": "d4664e35e86428ed95ecbcfd98edf03a", "rental_uris": {"android": "https://dc.lft.to/lastmile_qr_scan", "ios": "https://dc.lft.to/lastmile_qr_scan"}, "fusion_lat": 0.0, "lat": 38.903098166666666, "is_disabled": 0, "lon": -77.033348, "is_reserved": 0}, {"bike_id": "847505168b455f5765b7f874101cb419", "fusion_lon": 0.0, "type": "electric_scooter", "name": "847505168b455f5765b7f874101cb419", "rental_uris": {"android": "https://dc.lft.to/lastmile_qr_scan", "ios": "https://dc.lft.to/lastmile_qr_scan"}, "fusion_lat": 0.0, "lat": 38.9059725, "is_disabled": 0, "lon": -77.07159066666667, "is_reserved": 0}, {"bike_id": "80908af7c68c249dd1759d724c1947a4", "fusion_lon": 0.0, "type": "electric_scooter", "name": "80908af7c68c249dd1759d724c1947a4", "rental_uris": {"android": "https://dc.lft.to/lastmile_qr_scan", "ios": "https://dc.lft.to/lastmile_qr_scan"}, "fusion_lat": 0.0, "lat": 38.92364533333333, "is_disabled": 0, "lon": -77.051149, "is_reserved": 0}, {"bike_id": "aee0b1a2ac0a8a3b42e2c801dab1ab39", "fusion_lon": 0.0, "type": "electric_scooter", "name": "aee0b1a2ac0a8a3b42e2c801dab1ab39", "rental_uris": {"android": "https://dc.lft.to/lastmile_qr_scan", "ios": "https://dc.lft.to/lastmile_qr_scan"}, "fusion_lat": 0.0, "lat": 38.887392, "is_disabled": 0, "lon": -77.02316166666667, "is_reserved": 0}, {"bike_id": "3d4b75e5f61de938b7480f9b9e625f39", "fusion_lon": 0.0, "type": "electric_scooter", "name": "3d4b75e5f61de938b7480f9b9e625f39", "rental_uris": {"android": "https://dc.lft.to/lastmile_qr_scan", "ios": "https://dc.lft.to/lastmile_qr_scan"}, "fusion_lat": 0.0, "lat": 38.9001445, "is_disabled": 0, "lon": -77.04559866666666, "is_reserved": 0}, {"bike_id": "09231e7fb4c4cad365de55e859453722", "fusion_lon": 0.0, "type": "electric_scooter", "name": "09231e7fb4c4cad365de55e859453722", "rental_uris": {"android": "https://dc.lft.to/lastmile_qr_scan", "ios": "https://dc.lft.to/lastmile_qr_scan"}, "fusion_lat": 0.0, "lat": 38.924625166666665, "is_disabled": 0, "lon": -77.02964433333334, "is_reserved": 0}, {"bike_id": "33e7c38ddf7c04b641d5f147ec88daa6", "fusion_lon": 0.0, "type": "electric_scooter", "name": "33e7c38ddf7c04b641d5f147ec88daa6", "rental_uris": {"android": "https://dc.lft.to/lastmile_qr_scan", "ios": "https://dc.lft.to/lastmile_qr_scan"}, "fusion_lat": 0.0, "lat": 38.89981816666667, "is_disabled": 0, "lon": -76.99272383333333, "is_reserved": 0}, {"bike_id": "2dce6510b0cca1f076c2cd720d6d54ef", "fusion_lon": 0.0, "type": "electric_scooter", "name": "2dce6510b0cca1f076c2cd720d6d54ef", "rental_uris": {"android": "https://dc.lft.to/lastmile_qr_scan", "ios": "https://dc.lft.to/lastmile_qr_scan"}, "fusion_lat": 0.0, "lat": 38.93145283333333, "is_disabled": 0, "lon": -77.07841266666667, "is_reserved": 0}, {"bike_id": "5bdac87fd58e9c6158ab5058410cc48a", "fusion_lon": 0.0, "type": "electric_bike", "name": "5bdac87fd58e9c6158ab5058410cc48a", "rental_uris": {"android": "https://dc.lft.to/lastmile_qr_scan", "ios": "https://dc.lft.to/lastmile_qr_scan"}, "fusion_lat": 0.0, "lat": 38.953214333333335, "is_disabled": 0, "lon": -76.9544045, "is_reserved": 0}, {"bike_id": "1fdbdc07ee4b65ad9f88c0047e4455c6", "fusion_lon": 0.0, "type": "electric_scooter", "name": "1fdbdc07ee4b65ad9f88c0047e4455c6", "rental_uris": {"android": "https://dc.lft.to/lastmile_qr_scan", "ios": "https://dc.lft.to/lastmile_qr_scan"}, "fusion_lat": 0.0, "lat": 38.89230283333333, "is_disabled": 0, "lon": -76.98800816666666, "is_reserved": 0}, {"bike_id": "d3e61b8582f21323b8e7c657ef336b39", "fusion_lon": 0.0, "type": "electric_bike", "name": "d3e61b8582f21323b8e7c657ef336b39", "rental_uris": {"android": "https://dc.lft.to/lastmile_qr_scan", "ios": "https://dc.lft.to/lastmile_qr_scan"}, "fusion_lat": 0.0, "lat": 38.84517266666667, "is_disabled": 0, "lon": -77.077956, "is_reserved": 0}, {"bike_id": "feb077a52f5cccd542e132cd3abbf8e7", "fusion_lon": 0.0, "type": "electric_scooter", "name": "feb077a52f5cccd542e132cd3abbf8e7", "rental_uris": {"android": "https://dc.lft.to/lastmile_qr_scan", "ios": "https://dc.lft.to/lastmile_qr_scan"}, "fusion_lat": 0.0, "lat": 38.887405666666666, "is_disabled": 0, "lon": -77.01539383333333, "is_reserved": 0}, {"bike_id": "52b4700dc4f3f0db00cb7e9720f41ae9", "fusion_lon": 0.0, "type": "electric_scooter", "name": "52b4700dc4f3f0db00cb7e9720f41ae9", "rental_uris": {"android": "https://dc.lft.to/lastmile_qr_scan", "ios": "https://dc.lft.to/lastmile_qr_scan"}, "fusion_lat": 0.0, "lat": 38.917703333333336, "is_disabled": 0, "lon": -77.02345933333334, "is_reserved": 0}, {"bike_id": "401d4cae0a498f83ec14eccb04360a2e", "fusion_lon": 0.0, "type": "electric_scooter", "name": "401d4cae0a498f83ec14eccb04360a2e", "rental_uris": {"android": "https://dc.lft.to/lastmile_qr_scan", "ios": "https://dc.lft.to/lastmile_qr_scan"}, "fusion_lat": 0.0, "lat": 38.92794, "is_disabled": 0, "lon": -77.0319525, "is_reserved": 0}, {"bike_id": "42a94abdc89caa3ff06742b4714cadee", "fusion_lon": 0.0, "type": "electric_scooter", "name": "42a94abdc89caa3ff06742b4714cadee", "rental_uris": {"android": "https://dc.lft.to/lastmile_qr_scan", "ios": "https://dc.lft.to/lastmile_qr_scan"}, "fusion_lat": 0.0, "lat": 38.8619995, "is_disabled": 0, "lon": -76.995104, "is_reserved": 0}, {"bike_id": "1afeacdfc8ba72c47812cf2de92fc459", "fusion_lon": 0.0, "type": "electric_scooter", "name": "1afeacdfc8ba72c47812cf2de92fc459", "rental_uris": {"android": "https://dc.lft.to/lastmile_qr_scan", "ios": "https://dc.lft.to/lastmile_qr_scan"}, "fusion_lat": 0.0, "lat": 38.87939683333333, "is_disabled": 0, "lon": -77.02150266666666, "is_reserved": 0}, {"bike_id": "f79d1fb63be305a109dfff0d2af90a2a", "fusion_lon": 0.0, "type": "electric_scooter", "name": "f79d1fb63be305a109dfff0d2af90a2a", "rental_uris": {"android": "https://dc.lft.to/lastmile_qr_scan", "ios": "https://dc.lft.to/lastmile_qr_scan"}, "fusion_lat": 0.0, "lat": 38.97236616666667, "is_disabled": 0, "lon": -77.02715983333333, "is_reserved": 0}, {"bike_id": "ae68b9ad8ed6987981140e799fc04f30", "fusion_lon": 0.0, "type": "electric_scooter", "name": "ae68b9ad8ed6987981140e799fc04f30", "rental_uris": {"android": "https://dc.lft.to/lastmile_qr_scan", "ios": "https://dc.lft.to/lastmile_qr_scan"}, "fusion_lat": 0.0, "lat": 38.842940666666664, "is_disabled": 0, "lon": -76.99941933333334, "is_reserved": 0}, {"bike_id": "226e61d2abdbd1a64483adaf46f620ce", "fusion_lon": 0.0, "type": "electric_scooter", "name": "226e61d2abdbd1a64483adaf46f620ce", "rental_uris": {"android": "https://dc.lft.to/lastmile_qr_scan", "ios": "https://dc.lft.to/lastmile_qr_scan"}, "fusion_lat": 0.0, "lat": 38.915537666666665, "is_disabled": 0, "lon": -77.04187366666666, "is_reserved": 0}, {"bike_id": "f138851ef9a10ae45867408ae7e26b96", "fusion_lon": 0.0, "type": "electric_scooter", "name": "f138851ef9a10ae45867408ae7e26b96", "rental_uris": {"android": "https://dc.lft.to/lastmile_qr_scan", "ios": "https://dc.lft.to/lastmile_qr_scan"}, "fusion_lat": 0.0, "lat": 38.90012216666667, "is_disabled": 0, "lon": -77.0320425, "is_reserved": 0}, {"bike_id": "90a7adb46db751c68654f2a515cb568e", "fusion_lon": 0.0, "type": "electric_scooter", "name": "90a7adb46db751c68654f2a515cb568e", "rental_uris": {"android": "https://dc.lft.to/lastmile_qr_scan", "ios": "https://dc.lft.to/lastmile_qr_scan"}, "fusion_lat": 0.0, "lat": 38.91836766666667, "is_disabled": 0, "lon": -76.96554883333333, "is_reserved": 0}, {"bike_id": "f0a166886ab22b2240bf9a10a7add731", "fusion_lon": 0.0, "type": "electric_scooter", "name": "f0a166886ab22b2240bf9a10a7add731", "rental_uris": {"android": "https://dc.lft.to/lastmile_qr_scan", "ios": "https://dc.lft.to/lastmile_qr_scan"}, "fusion_lat": 0.0, "lat": 38.887390333333336, "is_disabled": 0, "lon": -77.02402683333334, "is_reserved": 0}, {"bike_id": "6be08840262114e77e7e6a969207d99f", "fusion_lon": 0.0, "type": "electric_bike", "name": "6be08840262114e77e7e6a969207d99f", "rental_uris": {"android": "https://dc.lft.to/lastmile_qr_scan", "ios": "https://dc.lft.to/lastmile_qr_scan"}, "fusion_lat": 0.0, "lat": 39.05197316666667, "is_disabled": 0, "lon": -77.109171, "is_reserved": 0}, {"bike_id": "c6e8bc0694097cf190897eafaf352677", "fusion_lon": 0.0, "type": "electric_scooter", "name": "c6e8bc0694097cf190897eafaf352677", "rental_uris": {"android": "https://dc.lft.to/lastmile_qr_scan", "ios": "https://dc.lft.to/lastmile_qr_scan"}, "fusion_lat": 0.0, "lat": 38.90812483333333, "is_disabled": 0, "lon": -77.01824233333333, "is_reserved": 0}, {"bike_id": "443320f5cd25a4997b6b0f914e780d63", "fusion_lon": 0.0, "type": "electric_scooter", "name": "443320f5cd25a4997b6b0f914e780d63", "rental_uris": {"android": "https://dc.lft.to/lastmile_qr_scan", "ios": "https://dc.lft.to/lastmile_qr_scan"}, "fusion_lat": 0.0, "lat": 38.876503666666665, "is_disabled": 0, "lon": -76.96509566666667, "is_reserved": 0}, {"bike_id": "fec2cc108016cbbe657b5c82da92725a", "fusion_lon": 0.0, "type": "electric_scooter", "name": "fec2cc108016cbbe657b5c82da92725a", "rental_uris": {"android": "https://dc.lft.to/lastmile_qr_scan", "ios": "https://dc.lft.to/lastmile_qr_scan"}, "fusion_lat": 0.0, "lat": 38.922769333333335, "is_disabled": 0, "lon": -77.04390933333333, "is_reserved": 0}, {"bike_id": "1d73afa2d45a9343ea0afe2d59c36f9f", "fusion_lon": 0.0, "type": "electric_scooter", "name": "1d73afa2d45a9343ea0afe2d59c36f9f", "rental_uris": {"android": "https://dc.lft.to/lastmile_qr_scan", "ios": "https://dc.lft.to/lastmile_qr_scan"}, "fusion_lat": 0.0, "lat": 38.9087475, "is_disabled": 0, "lon": -77.023442, "is_reserved": 0}, {"bike_id": "fcf037f7379eb11c044635eb8a424824", "fusion_lon": 0.0, "type": "electric_scooter", "name": "fcf037f7379eb11c044635eb8a424824", "rental_uris": {"android": "https://dc.lft.to/lastmile_qr_scan", "ios": "https://dc.lft.to/lastmile_qr_scan"}, "fusion_lat": 0.0, "lat": 38.87108216666667, "is_disabled": 0, "lon": -77.01074166666666, "is_reserved": 0}, {"bike_id": "803d3c615c2c237243fc27b6ef198d82", "fusion_lon": 0.0, "type": "electric_scooter", "name": "803d3c615c2c237243fc27b6ef198d82", "rental_uris": {"android": "https://dc.lft.to/lastmile_qr_scan", "ios": "https://dc.lft.to/lastmile_qr_scan"}, "fusion_lat": 0.0, "lat": 38.914812166666664, "is_disabled": 0, "lon": -77.032168, "is_reserved": 0}, {"bike_id": "48843e7e3e02bc5a3f5c08cbd4546a22", "fusion_lon": 0.0, "type": "electric_scooter", "name": "48843e7e3e02bc5a3f5c08cbd4546a22", "rental_uris": {"android": "https://dc.lft.to/lastmile_qr_scan", "ios": "https://dc.lft.to/lastmile_qr_scan"}, "fusion_lat": 0.0, "lat": 38.892187, "is_disabled": 0, "lon": -77.02174516666666, "is_reserved": 0}, {"bike_id": "2c77cd420b5dde8c5488c9cf1fa6a777", "fusion_lon": 0.0, "type": "electric_scooter", "name": "2c77cd420b5dde8c5488c9cf1fa6a777", "rental_uris": {"android": "https://dc.lft.to/lastmile_qr_scan", "ios": "https://dc.lft.to/lastmile_qr_scan"}, "fusion_lat": 0.0, "lat": 38.900126666666665, "is_disabled": 0, "lon": -77.0014285, "is_reserved": 0}, {"bike_id": "71f42d145e4cec30ea2fa11d6e937c96", "fusion_lon": 0.0, "type": "electric_scooter", "name": "71f42d145e4cec30ea2fa11d6e937c96", "rental_uris": {"android": "https://dc.lft.to/lastmile_qr_scan", "ios": "https://dc.lft.to/lastmile_qr_scan"}, "fusion_lat": 0.0, "lat": 38.892165, "is_disabled": 0, "lon": -77.02846933333333, "is_reserved": 0}, {"bike_id": "753ca9c64338ce7c9d977d84595582bb", "fusion_lon": 0.0, "type": "electric_scooter", "name": "753ca9c64338ce7c9d977d84595582bb", "rental_uris": {"android": "https://dc.lft.to/lastmile_qr_scan", "ios": "https://dc.lft.to/lastmile_qr_scan"}, "fusion_lat": 0.0, "lat": 38.916735833333334, "is_disabled": 0, "lon": -76.98231966666667, "is_reserved": 0}, {"bike_id": "bc0aba585459194ff1375128ba356ee3", "fusion_lon": 0.0, "type": "electric_scooter", "name": "bc0aba585459194ff1375128ba356ee3", "rental_uris": {"android": "https://dc.lft.to/lastmile_qr_scan", "ios": "https://dc.lft.to/lastmile_qr_scan"}, "fusion_lat": 0.0, "lat": 38.9359315, "is_disabled": 0, "lon": -77.03807733333333, "is_reserved": 0}, {"bike_id": "8e1062387f5a714301e04cd84d7c2be2", "fusion_lon": 0.0, "type": "electric_scooter", "name": "8e1062387f5a714301e04cd84d7c2be2", "rental_uris": {"android": "https://dc.lft.to/lastmile_qr_scan", "ios": "https://dc.lft.to/lastmile_qr_scan"}, "fusion_lat": 0.0, "lat": 38.862432166666665, "is_disabled": 0, "lon": -76.99493383333333, "is_reserved": 0}, {"bike_id": "a3712e57642724eae102117a53d29c08", "fusion_lon": 0.0, "type": "electric_scooter", "name": "a3712e57642724eae102117a53d29c08", "rental_uris": {"android": "https://dc.lft.to/lastmile_qr_scan", "ios": "https://dc.lft.to/lastmile_qr_scan"}, "fusion_lat": 0.0, "lat": 38.92238583333334, "is_disabled": 0, "lon": -77.035186, "is_reserved": 0}, {"bike_id": "6edd075d415ee2c118661da60f3e241d", "fusion_lon": 0.0, "type": "electric_bike", "name": "6edd075d415ee2c118661da60f3e241d", "rental_uris": {"android": "https://dc.lft.to/lastmile_qr_scan", "ios": "https://dc.lft.to/lastmile_qr_scan"}, "fusion_lat": 0.0, "lat": 38.91935333333333, "is_disabled": 0, "lon": -76.97502683333333, "is_reserved": 0}, {"bike_id": "07efaa02703f09184c5f12de4113fd59", "fusion_lon": 0.0, "type": "electric_scooter", "name": "07efaa02703f09184c5f12de4113fd59", "rental_uris": {"android": "https://dc.lft.to/lastmile_qr_scan", "ios": "https://dc.lft.to/lastmile_qr_scan"}, "fusion_lat": 0.0, "lat": 38.9192135, "is_disabled": 0, "lon": -77.04591066666667, "is_reserved": 0}, {"bike_id": "e70f3d1360060259e8e04803966b94b8", "fusion_lon": 0.0, "type": "electric_scooter", "name": "e70f3d1360060259e8e04803966b94b8", "rental_uris": {"android": "https://dc.lft.to/lastmile_qr_scan", "ios": "https://dc.lft.to/lastmile_qr_scan"}, "fusion_lat": 0.0, "lat": 38.915537666666665, "is_disabled": 0, "lon": -77.03839766666667, "is_reserved": 0}, {"bike_id": "0a439a632e9e56c50c92093377584de7", "fusion_lon": 0.0, "type": "electric_scooter", "name": "0a439a632e9e56c50c92093377584de7", "rental_uris": {"android": "https://dc.lft.to/lastmile_qr_scan", "ios": "https://dc.lft.to/lastmile_qr_scan"}, "fusion_lat": 0.0, "lat": 38.900292, "is_disabled": 0, "lon": -76.98777733333333, "is_reserved": 0}, {"bike_id": "065605425b72fd58632ed80540b08e90", "fusion_lon": 0.0, "type": "electric_scooter", "name": "065605425b72fd58632ed80540b08e90", "rental_uris": {"android": "https://dc.lft.to/lastmile_qr_scan", "ios": "https://dc.lft.to/lastmile_qr_scan"}, "fusion_lat": 0.0, "lat": 38.9044595, "is_disabled": 0, "lon": -76.9756045, "is_reserved": 0}, {"bike_id": "b7f461b413c34231f633658edf0d5b4b", "fusion_lon": 0.0, "type": "electric_scooter", "name": "b7f461b413c34231f633658edf0d5b4b", "rental_uris": {"android": "https://dc.lft.to/lastmile_qr_scan", "ios": "https://dc.lft.to/lastmile_qr_scan"}, "fusion_lat": 0.0, "lat": 38.86095816666667, "is_disabled": 0, "lon": -76.98605883333333, "is_reserved": 0}, {"bike_id": "f96579eb9dc6ad8f4945b839a38eae8b", "fusion_lon": 0.0, "type": "electric_scooter", "name": "f96579eb9dc6ad8f4945b839a38eae8b", "rental_uris": {"android": "https://dc.lft.to/lastmile_qr_scan", "ios": "https://dc.lft.to/lastmile_qr_scan"}, "fusion_lat": 0.0, "lat": 38.89517766666667, "is_disabled": 0, "lon": -76.9490325, "is_reserved": 0}, {"bike_id": "09caad4fb06bf45669e116e55026c2a6", "fusion_lon": 0.0, "type": "electric_scooter", "name": "09caad4fb06bf45669e116e55026c2a6", "rental_uris": {"android": "https://dc.lft.to/lastmile_qr_scan", "ios": "https://dc.lft.to/lastmile_qr_scan"}, "fusion_lat": 0.0, "lat": 38.935319, "is_disabled": 0, "lon": -77.0338925, "is_reserved": 0}, {"bike_id": "ddbbc99afb62bfabb8e31a82694981ba", "fusion_lon": 0.0, "type": "electric_scooter", "name": "ddbbc99afb62bfabb8e31a82694981ba", "rental_uris": {"android": "https://dc.lft.to/lastmile_qr_scan", "ios": "https://dc.lft.to/lastmile_qr_scan"}, "fusion_lat": 0.0, "lat": 38.91879933333333, "is_disabled": 0, "lon": -77.02194066666667, "is_reserved": 0}, {"bike_id": "7550e0de25043485cf674f6ff9ec29af", "fusion_lon": 0.0, "type": "electric_scooter", "name": "7550e0de25043485cf674f6ff9ec29af", "rental_uris": {"android": "https://dc.lft.to/lastmile_qr_scan", "ios": "https://dc.lft.to/lastmile_qr_scan"}, "fusion_lat": 0.0, "lat": 38.892264833333336, "is_disabled": 0, "lon": -77.02685383333333, "is_reserved": 0}, {"bike_id": "29ed38063be8ec5565532a23606b7ba6", "fusion_lon": 0.0, "type": "electric_bike", "name": "29ed38063be8ec5565532a23606b7ba6", "rental_uris": {"android": "https://dc.lft.to/lastmile_qr_scan", "ios": "https://dc.lft.to/lastmile_qr_scan"}, "fusion_lat": 0.0, "lat": 38.85065083333333, "is_disabled": 0, "lon": -76.97330366666667, "is_reserved": 0}, {"bike_id": "b955c03f7ff1f28311b642ad3cc7c36b", "fusion_lon": 0.0, "type": "electric_scooter", "name": "b955c03f7ff1f28311b642ad3cc7c36b", "rental_uris": {"android": "https://dc.lft.to/lastmile_qr_scan", "ios": "https://dc.lft.to/lastmile_qr_scan"}, "fusion_lat": 0.0, "lat": 38.906717666666665, "is_disabled": 0, "lon": -77.02465583333333, "is_reserved": 0}, {"bike_id": "6848b3a9045f0fea89fe9457926a77da", "fusion_lon": 0.0, "type": "electric_scooter", "name": "6848b3a9045f0fea89fe9457926a77da", "rental_uris": {"android": "https://dc.lft.to/lastmile_qr_scan", "ios": "https://dc.lft.to/lastmile_qr_scan"}, "fusion_lat": 0.0, "lat": 38.9342235, "is_disabled": 0, "lon": -77.0246365, "is_reserved": 0}, {"bike_id": "5afdc4cfd94f862484c91a1dfa560a5c", "fusion_lon": 0.0, "type": "electric_scooter", "name": "5afdc4cfd94f862484c91a1dfa560a5c", "rental_uris": {"android": "https://dc.lft.to/lastmile_qr_scan", "ios": "https://dc.lft.to/lastmile_qr_scan"}, "fusion_lat": 0.0, "lat": 38.91884433333333, "is_disabled": 0, "lon": -77.03762516666667, "is_reserved": 0}, {"bike_id": "8902c6123a3fdafd670507e65a382fb5", "fusion_lon": 0.0, "type": "electric_scooter", "name": "8902c6123a3fdafd670507e65a382fb5", "rental_uris": {"android": "https://dc.lft.to/lastmile_qr_scan", "ios": "https://dc.lft.to/lastmile_qr_scan"}, "fusion_lat": 0.0, "lat": 38.918315666666665, "is_disabled": 0, "lon": -77.0322445, "is_reserved": 0}, {"bike_id": "d862f2540dfc3e8acf08119d011b3f4a", "fusion_lon": 0.0, "type": "electric_scooter", "name": "d862f2540dfc3e8acf08119d011b3f4a", "rental_uris": {"android": "https://dc.lft.to/lastmile_qr_scan", "ios": "https://dc.lft.to/lastmile_qr_scan"}, "fusion_lat": 0.0, "lat": 38.912636666666664, "is_disabled": 0, "lon": -77.03867, "is_reserved": 0}, {"bike_id": "0f2fd43bdd860bfcc0aae79c27f79b5e", "fusion_lon": 0.0, "type": "electric_scooter", "name": "0f2fd43bdd860bfcc0aae79c27f79b5e", "rental_uris": {"android": "https://dc.lft.to/lastmile_qr_scan", "ios": "https://dc.lft.to/lastmile_qr_scan"}, "fusion_lat": 0.0, "lat": 38.928810666666664, "is_disabled": 0, "lon": -77.027082, "is_reserved": 0}, {"bike_id": "430ecd10821a465475b598a3044dac71", "fusion_lon": 0.0, "type": "electric_scooter", "name": "430ecd10821a465475b598a3044dac71", "rental_uris": {"android": "https://dc.lft.to/lastmile_qr_scan", "ios": "https://dc.lft.to/lastmile_qr_scan"}, "fusion_lat": 0.0, "lat": 38.90590533333334, "is_disabled": 0, "lon": -77.0701285, "is_reserved": 0}, {"bike_id": "6ed142448bc689075186205214078ccf", "fusion_lon": 0.0, "type": "electric_scooter", "name": "6ed142448bc689075186205214078ccf", "rental_uris": {"android": "https://dc.lft.to/lastmile_qr_scan", "ios": "https://dc.lft.to/lastmile_qr_scan"}, "fusion_lat": 0.0, "lat": 38.90370933333333, "is_disabled": 0, "lon": -77.03319383333333, "is_reserved": 0}, {"bike_id": "991d8c88401dbf7aadc4aff314afc955", "fusion_lon": 0.0, "type": "electric_scooter", "name": "991d8c88401dbf7aadc4aff314afc955", "rental_uris": {"android": "https://dc.lft.to/lastmile_qr_scan", "ios": "https://dc.lft.to/lastmile_qr_scan"}, "fusion_lat": 0.0, "lat": 38.91026466666667, "is_disabled": 0, "lon": -77.02215283333334, "is_reserved": 0}, {"bike_id": "e4584efa51d64bd452be393f77c4dfee", "fusion_lon": 0.0, "type": "electric_scooter", "name": "e4584efa51d64bd452be393f77c4dfee", "rental_uris": {"android": "https://dc.lft.to/lastmile_qr_scan", "ios": "https://dc.lft.to/lastmile_qr_scan"}, "fusion_lat": 0.0, "lat": 38.91708366666667, "is_disabled": 0, "lon": -77.03866133333334, "is_reserved": 0}, {"bike_id": "a3063f5cfdeb63adc3227ec57927e18b", "fusion_lon": 0.0, "type": "electric_scooter", "name": "a3063f5cfdeb63adc3227ec57927e18b", "rental_uris": {"android": "https://dc.lft.to/lastmile_qr_scan", "ios": "https://dc.lft.to/lastmile_qr_scan"}, "fusion_lat": 0.0, "lat": 38.910148166666666, "is_disabled": 0, "lon": -77.0527165, "is_reserved": 0}, {"bike_id": "3ee48c301db226b24f431e229b2bc798", "fusion_lon": 0.0, "type": "electric_scooter", "name": "3ee48c301db226b24f431e229b2bc798", "rental_uris": {"android": "https://dc.lft.to/lastmile_qr_scan", "ios": "https://dc.lft.to/lastmile_qr_scan"}, "fusion_lat": 0.0, "lat": 38.911407, "is_disabled": 0, "lon": -77.02805833333333, "is_reserved": 0}, {"bike_id": "a0bb4d03d265e01b1c3c893de12d0716", "fusion_lon": 0.0, "type": "electric_bike", "name": "a0bb4d03d265e01b1c3c893de12d0716", "rental_uris": {"android": "https://dc.lft.to/lastmile_qr_scan", "ios": "https://dc.lft.to/lastmile_qr_scan"}, "fusion_lat": 0.0, "lat": 39.08904583333333, "is_disabled": 0, "lon": -77.1784765, "is_reserved": 0}, {"bike_id": "8e9fe0a5c44ff69fcfe5e7df4ccb65e1", "fusion_lon": 0.0, "type": "electric_scooter", "name": "8e9fe0a5c44ff69fcfe5e7df4ccb65e1", "rental_uris": {"android": "https://dc.lft.to/lastmile_qr_scan", "ios": "https://dc.lft.to/lastmile_qr_scan"}, "fusion_lat": 0.0, "lat": 38.9136105, "is_disabled": 0, "lon": -77.039744, "is_reserved": 0}, {"bike_id": "ddf5fb560fd91262b96e83ba253f286d", "fusion_lon": 0.0, "type": "electric_scooter", "name": "ddf5fb560fd91262b96e83ba253f286d", "rental_uris": {"android": "https://dc.lft.to/lastmile_qr_scan", "ios": "https://dc.lft.to/lastmile_qr_scan"}, "fusion_lat": 0.0, "lat": 38.86676416666667, "is_disabled": 0, "lon": -76.98879666666667, "is_reserved": 0}, {"bike_id": "a0a63eabc7b759b417e29cd3b84a00d5", "fusion_lon": 0.0, "type": "electric_scooter", "name": "a0a63eabc7b759b417e29cd3b84a00d5", "rental_uris": {"android": "https://dc.lft.to/lastmile_qr_scan", "ios": "https://dc.lft.to/lastmile_qr_scan"}, "fusion_lat": 0.0, "lat": 38.950684833333334, "is_disabled": 0, "lon": -77.06536616666666, "is_reserved": 0}, {"bike_id": "78eddf10ffd9038ef22ab93de44819ee", "fusion_lon": 0.0, "type": "electric_bike", "name": "78eddf10ffd9038ef22ab93de44819ee", "rental_uris": {"android": "https://dc.lft.to/lastmile_qr_scan", "ios": "https://dc.lft.to/lastmile_qr_scan"}, "fusion_lat": 0.0, "lat": 38.856205833333334, "is_disabled": 0, "lon": -77.08540733333334, "is_reserved": 0}, {"bike_id": "d478c92e3998ec4c91e378fc9098584e", "fusion_lon": 0.0, "type": "electric_scooter", "name": "d478c92e3998ec4c91e378fc9098584e", "rental_uris": {"android": "https://dc.lft.to/lastmile_qr_scan", "ios": "https://dc.lft.to/lastmile_qr_scan"}, "fusion_lat": 0.0, "lat": 38.907353666666666, "is_disabled": 0, "lon": -77.0344505, "is_reserved": 0}, {"bike_id": "fd4f61d8b4af5b5fde8e096a6aa051bd", "fusion_lon": 0.0, "type": "electric_scooter", "name": "fd4f61d8b4af5b5fde8e096a6aa051bd", "rental_uris": {"android": "https://dc.lft.to/lastmile_qr_scan", "ios": "https://dc.lft.to/lastmile_qr_scan"}, "fusion_lat": 0.0, "lat": 38.88607433333333, "is_disabled": 0, "lon": -76.99457066666666, "is_reserved": 0}, {"bike_id": "e9aaecb929b5fe8644f7375d6fbab578", "fusion_lon": 0.0, "type": "electric_bike", "name": "e9aaecb929b5fe8644f7375d6fbab578", "rental_uris": {"android": "https://dc.lft.to/lastmile_qr_scan", "ios": "https://dc.lft.to/lastmile_qr_scan"}, "fusion_lat": 0.0, "lat": 38.962244, "is_disabled": 0, "lon": -77.02631583333333, "is_reserved": 0}, {"bike_id": "b281bf3a291ba97aa3382a4ece2d5595", "fusion_lon": 0.0, "type": "electric_scooter", "name": "b281bf3a291ba97aa3382a4ece2d5595", "rental_uris": {"android": "https://dc.lft.to/lastmile_qr_scan", "ios": "https://dc.lft.to/lastmile_qr_scan"}, "fusion_lat": 0.0, "lat": 38.906845, "is_disabled": 0, "lon": -77.0269755, "is_reserved": 0}, {"bike_id": "c1f0914e9b0d4a52f96b8d68e765800d", "fusion_lon": 0.0, "type": "electric_scooter", "name": "c1f0914e9b0d4a52f96b8d68e765800d", "rental_uris": {"android": "https://dc.lft.to/lastmile_qr_scan", "ios": "https://dc.lft.to/lastmile_qr_scan"}, "fusion_lat": 0.0, "lat": 38.940946, "is_disabled": 0, "lon": -77.025531, "is_reserved": 0}, {"bike_id": "4937fe2ce6ab89f4b52cc832aa49a852", "fusion_lon": 0.0, "type": "electric_scooter", "name": "4937fe2ce6ab89f4b52cc832aa49a852", "rental_uris": {"android": "https://dc.lft.to/lastmile_qr_scan", "ios": "https://dc.lft.to/lastmile_qr_scan"}, "fusion_lat": 0.0, "lat": 38.956605, "is_disabled": 0, "lon": -77.03334716666667, "is_reserved": 0}, {"bike_id": "50cc03d4a85ca2302b74c463d6e92051", "fusion_lon": 0.0, "type": "electric_scooter", "name": "50cc03d4a85ca2302b74c463d6e92051", "rental_uris": {"android": "https://dc.lft.to/lastmile_qr_scan", "ios": "https://dc.lft.to/lastmile_qr_scan"}, "fusion_lat": 0.0, "lat": 38.88510816666667, "is_disabled": 0, "lon": -77.03348033333333, "is_reserved": 0}, {"bike_id": "28775378f87e67c170acc6915ddf750e", "fusion_lon": 0.0, "type": "electric_scooter", "name": "28775378f87e67c170acc6915ddf750e", "rental_uris": {"android": "https://dc.lft.to/lastmile_qr_scan", "ios": "https://dc.lft.to/lastmile_qr_scan"}, "fusion_lat": 0.0, "lat": 38.89618266666667, "is_disabled": 0, "lon": -77.022099, "is_reserved": 0}, {"bike_id": "ecdaa297f66e42dced11c8609da01d97", "fusion_lon": 0.0, "type": "electric_scooter", "name": "ecdaa297f66e42dced11c8609da01d97", "rental_uris": {"android": "https://dc.lft.to/lastmile_qr_scan", "ios": "https://dc.lft.to/lastmile_qr_scan"}, "fusion_lat": 0.0, "lat": 38.8873745, "is_disabled": 0, "lon": -77.01539433333333, "is_reserved": 0}, {"bike_id": "322101fb63e3616da84347d190c2efdf", "fusion_lon": 0.0, "type": "electric_scooter", "name": "322101fb63e3616da84347d190c2efdf", "rental_uris": {"android": "https://dc.lft.to/lastmile_qr_scan", "ios": "https://dc.lft.to/lastmile_qr_scan"}, "fusion_lat": 0.0, "lat": 38.900385166666666, "is_disabled": 0, "lon": -77.0331935, "is_reserved": 0}, {"bike_id": "c8fe9f658eedad54833f47c8915c6ee3", "fusion_lon": 0.0, "type": "electric_scooter", "name": "c8fe9f658eedad54833f47c8915c6ee3", "rental_uris": {"android": "https://dc.lft.to/lastmile_qr_scan", "ios": "https://dc.lft.to/lastmile_qr_scan"}, "fusion_lat": 0.0, "lat": 38.91746333333333, "is_disabled": 0, "lon": -77.02295916666667, "is_reserved": 0}, {"bike_id": "588dcb099ef150dcaef231dcd1a91d1a", "fusion_lon": 0.0, "type": "electric_scooter", "name": "588dcb099ef150dcaef231dcd1a91d1a", "rental_uris": {"android": "https://dc.lft.to/lastmile_qr_scan", "ios": "https://dc.lft.to/lastmile_qr_scan"}, "fusion_lat": 0.0, "lat": 38.9279755, "is_disabled": 0, "lon": -77.03081816666666, "is_reserved": 0}, {"bike_id": "cac9fe123704a6c71580b45f0745f874", "fusion_lon": 0.0, "type": "electric_bike", "name": "cac9fe123704a6c71580b45f0745f874", "rental_uris": {"android": "https://dc.lft.to/lastmile_qr_scan", "ios": "https://dc.lft.to/lastmile_qr_scan"}, "fusion_lat": 0.0, "lat": 38.97403166666667, "is_disabled": 0, "lon": -77.02496566666667, "is_reserved": 0}, {"bike_id": "b890c09777426ae81dd084daab22da21", "fusion_lon": 0.0, "type": "electric_scooter", "name": "b890c09777426ae81dd084daab22da21", "rental_uris": {"android": "https://dc.lft.to/lastmile_qr_scan", "ios": "https://dc.lft.to/lastmile_qr_scan"}, "fusion_lat": 0.0, "lat": 38.842911666666666, "is_disabled": 0, "lon": -76.999502, "is_reserved": 0}, {"bike_id": "9b3354febe8c74e0aed3f926916b29b5", "fusion_lon": 0.0, "type": "electric_scooter", "name": "9b3354febe8c74e0aed3f926916b29b5", "rental_uris": {"android": "https://dc.lft.to/lastmile_qr_scan", "ios": "https://dc.lft.to/lastmile_qr_scan"}, "fusion_lat": 0.0, "lat": 38.91688333333333, "is_disabled": 0, "lon": -76.98039866666667, "is_reserved": 0}, {"bike_id": "c168b2f2bfc3ae81795d773c8bd9c635", "fusion_lon": 0.0, "type": "electric_scooter", "name": "c168b2f2bfc3ae81795d773c8bd9c635", "rental_uris": {"android": "https://dc.lft.to/lastmile_qr_scan", "ios": "https://dc.lft.to/lastmile_qr_scan"}, "fusion_lat": 0.0, "lat": 38.89604283333333, "is_disabled": 0, "lon": -77.05436916666666, "is_reserved": 0}, {"bike_id": "11ce7938747a43669326b29aa6ae268d", "fusion_lon": 0.0, "type": "electric_scooter", "name": "11ce7938747a43669326b29aa6ae268d", "rental_uris": {"android": "https://dc.lft.to/lastmile_qr_scan", "ios": "https://dc.lft.to/lastmile_qr_scan"}, "fusion_lat": 0.0, "lat": 38.9278305, "is_disabled": 0, "lon": -77.0313725, "is_reserved": 0}, {"bike_id": "484bc992a35126cde2fe1d2b1d354df4", "fusion_lon": 0.0, "type": "electric_scooter", "name": "484bc992a35126cde2fe1d2b1d354df4", "rental_uris": {"android": "https://dc.lft.to/lastmile_qr_scan", "ios": "https://dc.lft.to/lastmile_qr_scan"}, "fusion_lat": 0.0, "lat": 38.90409116666667, "is_disabled": 0, "lon": -77.06266616666667, "is_reserved": 0}, {"bike_id": "f38074fcf8991d1bbcbaba0871c1bdd0", "fusion_lon": 0.0, "type": "electric_scooter", "name": "f38074fcf8991d1bbcbaba0871c1bdd0", "rental_uris": {"android": "https://dc.lft.to/lastmile_qr_scan", "ios": "https://dc.lft.to/lastmile_qr_scan"}, "fusion_lat": 0.0, "lat": 38.8850385, "is_disabled": 0, "lon": -77.00567766666667, "is_reserved": 0}, {"bike_id": "2495c8994bca3df085892ee41bbe87e4", "fusion_lon": 0.0, "type": "electric_scooter", "name": "2495c8994bca3df085892ee41bbe87e4", "rental_uris": {"android": "https://dc.lft.to/lastmile_qr_scan", "ios": "https://dc.lft.to/lastmile_qr_scan"}, "fusion_lat": 0.0, "lat": 38.91191383333334, "is_disabled": 0, "lon": -77.03369016666667, "is_reserved": 0}, {"bike_id": "1ab356d8ad54e534c3b186b5aeccd67b", "fusion_lon": 0.0, "type": "electric_scooter", "name": "1ab356d8ad54e534c3b186b5aeccd67b", "rental_uris": {"android": "https://dc.lft.to/lastmile_qr_scan", "ios": "https://dc.lft.to/lastmile_qr_scan"}, "fusion_lat": 0.0, "lat": 38.928701333333336, "is_disabled": 0, "lon": -77.03478183333333, "is_reserved": 0}, {"bike_id": "a0f01849c1325cf570663f7dcb3f30d3", "fusion_lon": 0.0, "type": "electric_scooter", "name": "a0f01849c1325cf570663f7dcb3f30d3", "rental_uris": {"android": "https://dc.lft.to/lastmile_qr_scan", "ios": "https://dc.lft.to/lastmile_qr_scan"}, "fusion_lat": 0.0, "lat": 38.877790166666664, "is_disabled": 0, "lon": -77.0144035, "is_reserved": 0}, {"bike_id": "590002038a6831b029a7facca460069b", "fusion_lon": 0.0, "type": "electric_bike", "name": "590002038a6831b029a7facca460069b", "rental_uris": {"android": "https://dc.lft.to/lastmile_qr_scan", "ios": "https://dc.lft.to/lastmile_qr_scan"}, "fusion_lat": 0.0, "lat": 39.05343833333333, "is_disabled": 0, "lon": -77.136014, "is_reserved": 0}, {"bike_id": "71d5287cb0625aaf513248612bc1edf2", "fusion_lon": 0.0, "type": "electric_scooter", "name": "71d5287cb0625aaf513248612bc1edf2", "rental_uris": {"android": "https://dc.lft.to/lastmile_qr_scan", "ios": "https://dc.lft.to/lastmile_qr_scan"}, "fusion_lat": 0.0, "lat": 38.929160333333336, "is_disabled": 0, "lon": -77.036206, "is_reserved": 0}, {"bike_id": "e85f8c4e316e5c48246d8d04c380baca", "fusion_lon": 0.0, "type": "electric_scooter", "name": "e85f8c4e316e5c48246d8d04c380baca", "rental_uris": {"android": "https://dc.lft.to/lastmile_qr_scan", "ios": "https://dc.lft.to/lastmile_qr_scan"}, "fusion_lat": 0.0, "lat": 38.84500233333333, "is_disabled": 0, "lon": -76.98755583333333, "is_reserved": 0}, {"bike_id": "12a539606f5ef5d020f1dedcc19a8397", "fusion_lon": 0.0, "type": "electric_scooter", "name": "12a539606f5ef5d020f1dedcc19a8397", "rental_uris": {"android": "https://dc.lft.to/lastmile_qr_scan", "ios": "https://dc.lft.to/lastmile_qr_scan"}, "fusion_lat": 0.0, "lat": 38.91181816666667, "is_disabled": 0, "lon": -77.03661816666667, "is_reserved": 0}, {"bike_id": "091136728f3b50ae06b84c6526d1270f", "fusion_lon": 0.0, "type": "electric_scooter", "name": "091136728f3b50ae06b84c6526d1270f", "rental_uris": {"android": "https://dc.lft.to/lastmile_qr_scan", "ios": "https://dc.lft.to/lastmile_qr_scan"}, "fusion_lat": 0.0, "lat": 38.892204666666665, "is_disabled": 0, "lon": -77.02630983333333, "is_reserved": 0}, {"bike_id": "22438b01951acffc8ea54c5fff324808", "fusion_lon": 0.0, "type": "electric_scooter", "name": "22438b01951acffc8ea54c5fff324808", "rental_uris": {"android": "https://dc.lft.to/lastmile_qr_scan", "ios": "https://dc.lft.to/lastmile_qr_scan"}, "fusion_lat": 0.0, "lat": 38.842886, "is_disabled": 0, "lon": -76.990895, "is_reserved": 0}, {"bike_id": "bc94cde437939d90b81fccd592b0a8e7", "fusion_lon": 0.0, "type": "electric_scooter", "name": "bc94cde437939d90b81fccd592b0a8e7", "rental_uris": {"android": "https://dc.lft.to/lastmile_qr_scan", "ios": "https://dc.lft.to/lastmile_qr_scan"}, "fusion_lat": 0.0, "lat": 38.9366695, "is_disabled": 0, "lon": -77.05934216666667, "is_reserved": 0}, {"bike_id": "bf57ba2e31d8b0f177335a1d9a5dafec", "fusion_lon": 0.0, "type": "electric_scooter", "name": "bf57ba2e31d8b0f177335a1d9a5dafec", "rental_uris": {"android": "https://dc.lft.to/lastmile_qr_scan", "ios": "https://dc.lft.to/lastmile_qr_scan"}, "fusion_lat": 0.0, "lat": 38.892489833333336, "is_disabled": 0, "lon": -77.03162366666666, "is_reserved": 0}, {"bike_id": "69c6444ca05e4fb3f7020bd056572435", "fusion_lon": 0.0, "type": "electric_scooter", "name": "69c6444ca05e4fb3f7020bd056572435", "rental_uris": {"android": "https://dc.lft.to/lastmile_qr_scan", "ios": "https://dc.lft.to/lastmile_qr_scan"}, "fusion_lat": 0.0, "lat": 38.907062333333336, "is_disabled": 0, "lon": -76.9869735, "is_reserved": 0}, {"bike_id": "95f1111c51878d6c9c7914ae354f25b0", "fusion_lon": 0.0, "type": "electric_scooter", "name": "95f1111c51878d6c9c7914ae354f25b0", "rental_uris": {"android": "https://dc.lft.to/lastmile_qr_scan", "ios": "https://dc.lft.to/lastmile_qr_scan"}, "fusion_lat": 0.0, "lat": 38.89477683333333, "is_disabled": 0, "lon": -77.04541133333333, "is_reserved": 0}, {"bike_id": "d2691b986319662659113404c9c1122e", "fusion_lon": 0.0, "type": "electric_scooter", "name": "d2691b986319662659113404c9c1122e", "rental_uris": {"android": "https://dc.lft.to/lastmile_qr_scan", "ios": "https://dc.lft.to/lastmile_qr_scan"}, "fusion_lat": 0.0, "lat": 38.887429, "is_disabled": 0, "lon": -77.0282945, "is_reserved": 0}, {"bike_id": "65b4d3edf028d2dd3e5a4a491e185d0a", "fusion_lon": 0.0, "type": "electric_scooter", "name": "65b4d3edf028d2dd3e5a4a491e185d0a", "rental_uris": {"android": "https://dc.lft.to/lastmile_qr_scan", "ios": "https://dc.lft.to/lastmile_qr_scan"}, "fusion_lat": 0.0, "lat": 38.9373425, "is_disabled": 0, "lon": -77.0349315, "is_reserved": 0}, {"bike_id": "e2ca424cbed268e28c8168c01174471d", "fusion_lon": 0.0, "type": "electric_scooter", "name": "e2ca424cbed268e28c8168c01174471d", "rental_uris": {"android": "https://dc.lft.to/lastmile_qr_scan", "ios": "https://dc.lft.to/lastmile_qr_scan"}, "fusion_lat": 0.0, "lat": 38.9355155, "is_disabled": 0, "lon": -77.03466816666666, "is_reserved": 0}, {"bike_id": "b3805ffeb08135a65e05206d19432d87", "fusion_lon": 0.0, "type": "electric_bike", "name": "b3805ffeb08135a65e05206d19432d87", "rental_uris": {"android": "https://dc.lft.to/lastmile_qr_scan", "ios": "https://dc.lft.to/lastmile_qr_scan"}, "fusion_lat": 0.0, "lat": 38.92576366666667, "is_disabled": 0, "lon": -76.986138, "is_reserved": 0}, {"bike_id": "e9148a1e5ed971b8454a497db9d685b9", "fusion_lon": 0.0, "type": "electric_scooter", "name": "e9148a1e5ed971b8454a497db9d685b9", "rental_uris": {"android": "https://dc.lft.to/lastmile_qr_scan", "ios": "https://dc.lft.to/lastmile_qr_scan"}, "fusion_lat": 0.0, "lat": 38.920334833333335, "is_disabled": 0, "lon": -76.97021583333333, "is_reserved": 0}, {"bike_id": "5d303ea0f8902b383ff95d2e4932f5b7", "fusion_lon": 0.0, "type": "electric_scooter", "name": "5d303ea0f8902b383ff95d2e4932f5b7", "rental_uris": {"android": "https://dc.lft.to/lastmile_qr_scan", "ios": "https://dc.lft.to/lastmile_qr_scan"}, "fusion_lat": 0.0, "lat": 38.90010683333333, "is_disabled": 0, "lon": -77.044929, "is_reserved": 0}, {"bike_id": "481d49fc7f6e19a1065e77518ac70141", "fusion_lon": 0.0, "type": "electric_scooter", "name": "481d49fc7f6e19a1065e77518ac70141", "rental_uris": {"android": "https://dc.lft.to/lastmile_qr_scan", "ios": "https://dc.lft.to/lastmile_qr_scan"}, "fusion_lat": 0.0, "lat": 38.8983485, "is_disabled": 0, "lon": -77.03338516666666, "is_reserved": 0}, {"bike_id": "b6d97ff47d2061efb2fe73a414a332c8", "fusion_lon": 0.0, "type": "electric_bike", "name": "b6d97ff47d2061efb2fe73a414a332c8", "rental_uris": {"android": "https://dc.lft.to/lastmile_qr_scan", "ios": "https://dc.lft.to/lastmile_qr_scan"}, "fusion_lat": 0.0, "lat": 38.89631083333333, "is_disabled": 0, "lon": -76.94782616666667, "is_reserved": 0}, {"bike_id": "9a245da35082e0630673556e138785f9", "fusion_lon": 0.0, "type": "electric_scooter", "name": "9a245da35082e0630673556e138785f9", "rental_uris": {"android": "https://dc.lft.to/lastmile_qr_scan", "ios": "https://dc.lft.to/lastmile_qr_scan"}, "fusion_lat": 0.0, "lat": 38.922165, "is_disabled": 0, "lon": -77.0376345, "is_reserved": 0}, {"bike_id": "7dc702e7fc48fac791da9e2da18cc04e", "fusion_lon": 0.0, "type": "electric_scooter", "name": "7dc702e7fc48fac791da9e2da18cc04e", "rental_uris": {"android": "https://dc.lft.to/lastmile_qr_scan", "ios": "https://dc.lft.to/lastmile_qr_scan"}, "fusion_lat": 0.0, "lat": 38.957099666666664, "is_disabled": 0, "lon": -77.023963, "is_reserved": 0}, {"bike_id": "332475223f1439dfd2a0b9a5c15fac6f", "fusion_lon": 0.0, "type": "electric_scooter", "name": "332475223f1439dfd2a0b9a5c15fac6f", "rental_uris": {"android": "https://dc.lft.to/lastmile_qr_scan", "ios": "https://dc.lft.to/lastmile_qr_scan"}, "fusion_lat": 0.0, "lat": 38.92989766666667, "is_disabled": 0, "lon": -77.03220783333333, "is_reserved": 0}, {"bike_id": "d71faadb588e3ffd1f4b8aaf4507f1bf", "fusion_lon": 0.0, "type": "electric_scooter", "name": "d71faadb588e3ffd1f4b8aaf4507f1bf", "rental_uris": {"android": "https://dc.lft.to/lastmile_qr_scan", "ios": "https://dc.lft.to/lastmile_qr_scan"}, "fusion_lat": 0.0, "lat": 38.88742466666667, "is_disabled": 0, "lon": -77.0283315, "is_reserved": 0}, {"bike_id": "c1fe4057145000118d84ea0c6d71d988", "fusion_lon": 0.0, "type": "electric_scooter", "name": "c1fe4057145000118d84ea0c6d71d988", "rental_uris": {"android": "https://dc.lft.to/lastmile_qr_scan", "ios": "https://dc.lft.to/lastmile_qr_scan"}, "fusion_lat": 0.0, "lat": 38.86719433333333, "is_disabled": 0, "lon": -76.98727333333333, "is_reserved": 0}, {"bike_id": "9d3805af6998b3b7539440e743e9665b", "fusion_lon": 0.0, "type": "electric_scooter", "name": "9d3805af6998b3b7539440e743e9665b", "rental_uris": {"android": "https://dc.lft.to/lastmile_qr_scan", "ios": "https://dc.lft.to/lastmile_qr_scan"}, "fusion_lat": 0.0, "lat": 38.90255366666667, "is_disabled": 0, "lon": -77.02038016666667, "is_reserved": 0}, {"bike_id": "92a61edf3049cb040b97e83ebb124b17", "fusion_lon": 0.0, "type": "electric_scooter", "name": "92a61edf3049cb040b97e83ebb124b17", "rental_uris": {"android": "https://dc.lft.to/lastmile_qr_scan", "ios": "https://dc.lft.to/lastmile_qr_scan"}, "fusion_lat": 0.0, "lat": 38.863537666666666, "is_disabled": 0, "lon": -76.9909295, "is_reserved": 0}, {"bike_id": "c30faed87301cee433497bad4a4f170e", "fusion_lon": 0.0, "type": "electric_scooter", "name": "c30faed87301cee433497bad4a4f170e", "rental_uris": {"android": "https://dc.lft.to/lastmile_qr_scan", "ios": "https://dc.lft.to/lastmile_qr_scan"}, "fusion_lat": 0.0, "lat": 38.90042366666667, "is_disabled": 0, "lon": -76.99362416666666, "is_reserved": 0}, {"bike_id": "39e215586e2ee3a039f5a291bcb3002a", "fusion_lon": 0.0, "type": "electric_bike", "name": "39e215586e2ee3a039f5a291bcb3002a", "rental_uris": {"android": "https://dc.lft.to/lastmile_qr_scan", "ios": "https://dc.lft.to/lastmile_qr_scan"}, "fusion_lat": 0.0, "lat": 38.936685, "is_disabled": 0, "lon": -76.95203683333334, "is_reserved": 0}, {"bike_id": "5683b9bab09c1ed1ccd1d24753e9233e", "fusion_lon": 0.0, "type": "electric_scooter", "name": "5683b9bab09c1ed1ccd1d24753e9233e", "rental_uris": {"android": "https://dc.lft.to/lastmile_qr_scan", "ios": "https://dc.lft.to/lastmile_qr_scan"}, "fusion_lat": 0.0, "lat": 38.91174316666667, "is_disabled": 0, "lon": -77.08442583333333, "is_reserved": 0}, {"bike_id": "8ae770bd80fca7f99308a99d17f7896b", "fusion_lon": 0.0, "type": "electric_scooter", "name": "8ae770bd80fca7f99308a99d17f7896b", "rental_uris": {"android": "https://dc.lft.to/lastmile_qr_scan", "ios": "https://dc.lft.to/lastmile_qr_scan"}, "fusion_lat": 0.0, "lat": 38.93024966666667, "is_disabled": 0, "lon": -77.012914, "is_reserved": 0}, {"bike_id": "bf5c0f976533b523a1b4b251f31d685b", "fusion_lon": 0.0, "type": "electric_scooter", "name": "bf5c0f976533b523a1b4b251f31d685b", "rental_uris": {"android": "https://dc.lft.to/lastmile_qr_scan", "ios": "https://dc.lft.to/lastmile_qr_scan"}, "fusion_lat": 0.0, "lat": 38.911059, "is_disabled": 0, "lon": -77.02412183333334, "is_reserved": 0}, {"bike_id": "62f3c87137f8f43aa368d1cf735ada6e", "fusion_lon": 0.0, "type": "electric_scooter", "name": "62f3c87137f8f43aa368d1cf735ada6e", "rental_uris": {"android": "https://dc.lft.to/lastmile_qr_scan", "ios": "https://dc.lft.to/lastmile_qr_scan"}, "fusion_lat": 0.0, "lat": 38.9148515, "is_disabled": 0, "lon": -77.04150166666666, "is_reserved": 0}, {"bike_id": "a866bfa9daaecf4bfe07f94c3c776399", "fusion_lon": 0.0, "type": "electric_scooter", "name": "a866bfa9daaecf4bfe07f94c3c776399", "rental_uris": {"android": "https://dc.lft.to/lastmile_qr_scan", "ios": "https://dc.lft.to/lastmile_qr_scan"}, "fusion_lat": 0.0, "lat": 38.9201765, "is_disabled": 0, "lon": -77.01696983333333, "is_reserved": 0}, {"bike_id": "cf70aa07671b7f08a81a5b64f1264dd7", "fusion_lon": 0.0, "type": "electric_scooter", "name": "cf70aa07671b7f08a81a5b64f1264dd7", "rental_uris": {"android": "https://dc.lft.to/lastmile_qr_scan", "ios": "https://dc.lft.to/lastmile_qr_scan"}, "fusion_lat": 0.0, "lat": 38.90030216666667, "is_disabled": 0, "lon": -77.000179, "is_reserved": 0}, {"bike_id": "d0ed2f7d16641111a5837e2e69e70aab", "fusion_lon": 0.0, "type": "electric_scooter", "name": "d0ed2f7d16641111a5837e2e69e70aab", "rental_uris": {"android": "https://dc.lft.to/lastmile_qr_scan", "ios": "https://dc.lft.to/lastmile_qr_scan"}, "fusion_lat": 0.0, "lat": 38.92171883333334, "is_disabled": 0, "lon": -77.0390675, "is_reserved": 0}, {"bike_id": "0dd66cf4f6344ac5c68137871effd608", "fusion_lon": 0.0, "type": "electric_scooter", "name": "0dd66cf4f6344ac5c68137871effd608", "rental_uris": {"android": "https://dc.lft.to/lastmile_qr_scan", "ios": "https://dc.lft.to/lastmile_qr_scan"}, "fusion_lat": 0.0, "lat": 38.9172675, "is_disabled": 0, "lon": -77.03661, "is_reserved": 0}, {"bike_id": "ef281bf1a28fee7f0b8e68ff1db506bc", "fusion_lon": 0.0, "type": "electric_scooter", "name": "ef281bf1a28fee7f0b8e68ff1db506bc", "rental_uris": {"android": "https://dc.lft.to/lastmile_qr_scan", "ios": "https://dc.lft.to/lastmile_qr_scan"}, "fusion_lat": 0.0, "lat": 38.89983183333333, "is_disabled": 0, "lon": -77.01918683333334, "is_reserved": 0}, {"bike_id": "c22cd0088f8f352d226cf977905ec613", "fusion_lon": 0.0, "type": "electric_scooter", "name": "c22cd0088f8f352d226cf977905ec613", "rental_uris": {"android": "https://dc.lft.to/lastmile_qr_scan", "ios": "https://dc.lft.to/lastmile_qr_scan"}, "fusion_lat": 0.0, "lat": 38.900725333333334, "is_disabled": 0, "lon": -77.048237, "is_reserved": 0}, {"bike_id": "6c607e43d103031c4553d9ea4140428c", "fusion_lon": 0.0, "type": "electric_scooter", "name": "6c607e43d103031c4553d9ea4140428c", "rental_uris": {"android": "https://dc.lft.to/lastmile_qr_scan", "ios": "https://dc.lft.to/lastmile_qr_scan"}, "fusion_lat": 0.0, "lat": 38.933207, "is_disabled": 0, "lon": -77.02353433333333, "is_reserved": 0}, {"bike_id": "ecaba64d3c3dbdf1e5fa0007ec5193d7", "fusion_lon": 0.0, "type": "electric_scooter", "name": "ecaba64d3c3dbdf1e5fa0007ec5193d7", "rental_uris": {"android": "https://dc.lft.to/lastmile_qr_scan", "ios": "https://dc.lft.to/lastmile_qr_scan"}, "fusion_lat": 0.0, "lat": 38.874621, "is_disabled": 0, "lon": -77.00600283333333, "is_reserved": 0}, {"bike_id": "31175609c2dce9c8dede75d3df5dd839", "fusion_lon": 0.0, "type": "electric_scooter", "name": "31175609c2dce9c8dede75d3df5dd839", "rental_uris": {"android": "https://dc.lft.to/lastmile_qr_scan", "ios": "https://dc.lft.to/lastmile_qr_scan"}, "fusion_lat": 0.0, "lat": 38.935211333333335, "is_disabled": 0, "lon": -77.02544833333333, "is_reserved": 0}, {"bike_id": "6f03ea1529aabdd0f73fb824ea3ead22", "fusion_lon": 0.0, "type": "electric_scooter", "name": "6f03ea1529aabdd0f73fb824ea3ead22", "rental_uris": {"android": "https://dc.lft.to/lastmile_qr_scan", "ios": "https://dc.lft.to/lastmile_qr_scan"}, "fusion_lat": 0.0, "lat": 38.90243666666667, "is_disabled": 0, "lon": -76.98969316666667, "is_reserved": 0}, {"bike_id": "3f7f78bae1e544693f1e2bcf829d282c", "fusion_lon": 0.0, "type": "electric_scooter", "name": "3f7f78bae1e544693f1e2bcf829d282c", "rental_uris": {"android": "https://dc.lft.to/lastmile_qr_scan", "ios": "https://dc.lft.to/lastmile_qr_scan"}, "fusion_lat": 0.0, "lat": 38.87478333333333, "is_disabled": 0, "lon": -77.00671666666666, "is_reserved": 0}, {"bike_id": "aa065a00caedd8128a85d9e9650e1b64", "fusion_lon": 0.0, "type": "electric_scooter", "name": "aa065a00caedd8128a85d9e9650e1b64", "rental_uris": {"android": "https://dc.lft.to/lastmile_qr_scan", "ios": "https://dc.lft.to/lastmile_qr_scan"}, "fusion_lat": 0.0, "lat": 38.90640066666667, "is_disabled": 0, "lon": -77.01795666666666, "is_reserved": 0}, {"bike_id": "97848b90e81e3b008b3439af7e5567de", "fusion_lon": 0.0, "type": "electric_scooter", "name": "97848b90e81e3b008b3439af7e5567de", "rental_uris": {"android": "https://dc.lft.to/lastmile_qr_scan", "ios": "https://dc.lft.to/lastmile_qr_scan"}, "fusion_lat": 0.0, "lat": 38.931822, "is_disabled": 0, "lon": -77.028521, "is_reserved": 0}, {"bike_id": "ea89ebbc4c443ef6b265fa08d799fb2e", "fusion_lon": 0.0, "type": "electric_scooter", "name": "ea89ebbc4c443ef6b265fa08d799fb2e", "rental_uris": {"android": "https://dc.lft.to/lastmile_qr_scan", "ios": "https://dc.lft.to/lastmile_qr_scan"}, "fusion_lat": 0.0, "lat": 38.9251995, "is_disabled": 0, "lon": -77.05229716666666, "is_reserved": 0}, {"bike_id": "10cdf58ef63373f01040c7e1ebf1e8a1", "fusion_lon": 0.0, "type": "electric_scooter", "name": "10cdf58ef63373f01040c7e1ebf1e8a1", "rental_uris": {"android": "https://dc.lft.to/lastmile_qr_scan", "ios": "https://dc.lft.to/lastmile_qr_scan"}, "fusion_lat": 0.0, "lat": 38.8770765, "is_disabled": 0, "lon": -77.01741283333334, "is_reserved": 0}, {"bike_id": "959c7a370ea845938d68cb2b70912206", "fusion_lon": 0.0, "type": "electric_scooter", "name": "959c7a370ea845938d68cb2b70912206", "rental_uris": {"android": "https://dc.lft.to/lastmile_qr_scan", "ios": "https://dc.lft.to/lastmile_qr_scan"}, "fusion_lat": 0.0, "lat": 38.90414083333334, "is_disabled": 0, "lon": -77.00134616666666, "is_reserved": 0}, {"bike_id": "e1de158c90ea8b8f7a5c32d2655b58f6", "fusion_lon": 0.0, "type": "electric_scooter", "name": "e1de158c90ea8b8f7a5c32d2655b58f6", "rental_uris": {"android": "https://dc.lft.to/lastmile_qr_scan", "ios": "https://dc.lft.to/lastmile_qr_scan"}, "fusion_lat": 0.0, "lat": 38.90491683333333, "is_disabled": 0, "lon": -76.98686316666667, "is_reserved": 0}, {"bike_id": "4529e604f15b71f385dc5dd530f0e7eb", "fusion_lon": 0.0, "type": "electric_bike", "name": "4529e604f15b71f385dc5dd530f0e7eb", "rental_uris": {"android": "https://dc.lft.to/lastmile_qr_scan", "ios": "https://dc.lft.to/lastmile_qr_scan"}, "fusion_lat": 0.0, "lat": 38.891852, "is_disabled": 0, "lon": -76.95032133333333, "is_reserved": 0}, {"bike_id": "79029387892a46c20be95f9b042b5cfe", "fusion_lon": 0.0, "type": "electric_scooter", "name": "79029387892a46c20be95f9b042b5cfe", "rental_uris": {"android": "https://dc.lft.to/lastmile_qr_scan", "ios": "https://dc.lft.to/lastmile_qr_scan"}, "fusion_lat": 0.0, "lat": 38.918117, "is_disabled": 0, "lon": -77.04007566666667, "is_reserved": 0}, {"bike_id": "fb2af255d1588353ecf435b658541391", "fusion_lon": 0.0, "type": "electric_scooter", "name": "fb2af255d1588353ecf435b658541391", "rental_uris": {"android": "https://dc.lft.to/lastmile_qr_scan", "ios": "https://dc.lft.to/lastmile_qr_scan"}, "fusion_lat": 0.0, "lat": 38.902660833333336, "is_disabled": 0, "lon": -77.03477983333333, "is_reserved": 0}, {"bike_id": "597bc645e5d50dd8a053045ae6c7ea0f", "fusion_lon": 0.0, "type": "electric_bike", "name": "597bc645e5d50dd8a053045ae6c7ea0f", "rental_uris": {"android": "https://dc.lft.to/lastmile_qr_scan", "ios": "https://dc.lft.to/lastmile_qr_scan"}, "fusion_lat": 0.0, "lat": 38.96304383333333, "is_disabled": 0, "lon": -77.01106783333333, "is_reserved": 0}, {"bike_id": "5cf57ec023b0b18ac9cc3498a08abf1f", "fusion_lon": 0.0, "type": "electric_scooter", "name": "5cf57ec023b0b18ac9cc3498a08abf1f", "rental_uris": {"android": "https://dc.lft.to/lastmile_qr_scan", "ios": "https://dc.lft.to/lastmile_qr_scan"}, "fusion_lat": 0.0, "lat": 38.915441, "is_disabled": 0, "lon": -77.03856966666666, "is_reserved": 0}, {"bike_id": "45e89d5207b6c2011e0c92297c6fa50d", "fusion_lon": 0.0, "type": "electric_scooter", "name": "45e89d5207b6c2011e0c92297c6fa50d", "rental_uris": {"android": "https://dc.lft.to/lastmile_qr_scan", "ios": "https://dc.lft.to/lastmile_qr_scan"}, "fusion_lat": 0.0, "lat": 38.900043833333335, "is_disabled": 0, "lon": -77.0289195, "is_reserved": 0}, {"bike_id": "e3972a623d677998c6c603c01ab355d7", "fusion_lon": 0.0, "type": "electric_scooter", "name": "e3972a623d677998c6c603c01ab355d7", "rental_uris": {"android": "https://dc.lft.to/lastmile_qr_scan", "ios": "https://dc.lft.to/lastmile_qr_scan"}, "fusion_lat": 0.0, "lat": 38.897465833333335, "is_disabled": 0, "lon": -77.03347516666666, "is_reserved": 0}, {"bike_id": "8ef78d1470baaea5d04619bb64d38428", "fusion_lon": 0.0, "type": "electric_scooter", "name": "8ef78d1470baaea5d04619bb64d38428", "rental_uris": {"android": "https://dc.lft.to/lastmile_qr_scan", "ios": "https://dc.lft.to/lastmile_qr_scan"}, "fusion_lat": 0.0, "lat": 38.90846783333333, "is_disabled": 0, "lon": -77.025958, "is_reserved": 0}, {"bike_id": "a7b42e9c2dcd1eed2dd61699a36a7a8d", "fusion_lon": 0.0, "type": "electric_bike", "name": "a7b42e9c2dcd1eed2dd61699a36a7a8d", "rental_uris": {"android": "https://dc.lft.to/lastmile_qr_scan", "ios": "https://dc.lft.to/lastmile_qr_scan"}, "fusion_lat": 0.0, "lat": 38.89352616666667, "is_disabled": 0, "lon": -77.1874045, "is_reserved": 0}, {"bike_id": "c94a2910ca923d11ebf2a17b9fb3ba54", "fusion_lon": 0.0, "type": "electric_scooter", "name": "c94a2910ca923d11ebf2a17b9fb3ba54", "rental_uris": {"android": "https://dc.lft.to/lastmile_qr_scan", "ios": "https://dc.lft.to/lastmile_qr_scan"}, "fusion_lat": 0.0, "lat": 38.85722483333333, "is_disabled": 0, "lon": -76.970869, "is_reserved": 0}, {"bike_id": "c3ffab64c854edafda0262f8a1a5ecda", "fusion_lon": 0.0, "type": "electric_scooter", "name": "c3ffab64c854edafda0262f8a1a5ecda", "rental_uris": {"android": "https://dc.lft.to/lastmile_qr_scan", "ios": "https://dc.lft.to/lastmile_qr_scan"}, "fusion_lat": 0.0, "lat": 38.89657666666667, "is_disabled": 0, "lon": -77.03219133333333, "is_reserved": 0}, {"bike_id": "36f4de400e7730e0cf61e27dee518965", "fusion_lon": 0.0, "type": "electric_scooter", "name": "36f4de400e7730e0cf61e27dee518965", "rental_uris": {"android": "https://dc.lft.to/lastmile_qr_scan", "ios": "https://dc.lft.to/lastmile_qr_scan"}, "fusion_lat": 0.0, "lat": 38.93113233333333, "is_disabled": 0, "lon": -77.03818933333334, "is_reserved": 0}, {"bike_id": "b618a21b015f465166b0425270d39905", "fusion_lon": 0.0, "type": "electric_scooter", "name": "b618a21b015f465166b0425270d39905", "rental_uris": {"android": "https://dc.lft.to/lastmile_qr_scan", "ios": "https://dc.lft.to/lastmile_qr_scan"}, "fusion_lat": 0.0, "lat": 38.895079833333334, "is_disabled": 0, "lon": -77.0268415, "is_reserved": 0}, {"bike_id": "73cd8e88cd7eea798bc9b582cd31a991", "fusion_lon": 0.0, "type": "electric_scooter", "name": "73cd8e88cd7eea798bc9b582cd31a991", "rental_uris": {"android": "https://dc.lft.to/lastmile_qr_scan", "ios": "https://dc.lft.to/lastmile_qr_scan"}, "fusion_lat": 0.0, "lat": 38.898241666666664, "is_disabled": 0, "lon": -76.946528, "is_reserved": 0}, {"bike_id": "feaa7acdd8181183d69ef925808a6877", "fusion_lon": 0.0, "type": "electric_scooter", "name": "feaa7acdd8181183d69ef925808a6877", "rental_uris": {"android": "https://dc.lft.to/lastmile_qr_scan", "ios": "https://dc.lft.to/lastmile_qr_scan"}, "fusion_lat": 0.0, "lat": 38.911902, "is_disabled": 0, "lon": -77.00251983333334, "is_reserved": 0}, {"bike_id": "a2ecd3883b7681d812868fcbcfe2aea2", "fusion_lon": 0.0, "type": "electric_scooter", "name": "a2ecd3883b7681d812868fcbcfe2aea2", "rental_uris": {"android": "https://dc.lft.to/lastmile_qr_scan", "ios": "https://dc.lft.to/lastmile_qr_scan"}, "fusion_lat": 0.0, "lat": 38.91269066666667, "is_disabled": 0, "lon": -77.03872233333334, "is_reserved": 0}, {"bike_id": "b1f4817ee9d06f9e3373f73961f629da", "fusion_lon": 0.0, "type": "electric_scooter", "name": "b1f4817ee9d06f9e3373f73961f629da", "rental_uris": {"android": "https://dc.lft.to/lastmile_qr_scan", "ios": "https://dc.lft.to/lastmile_qr_scan"}, "fusion_lat": 0.0, "lat": 38.92187033333333, "is_disabled": 0, "lon": -77.040127, "is_reserved": 0}, {"bike_id": "04bccfd85aa1a0ab66d0dc62f2070ddb", "fusion_lon": 0.0, "type": "electric_scooter", "name": "04bccfd85aa1a0ab66d0dc62f2070ddb", "rental_uris": {"android": "https://dc.lft.to/lastmile_qr_scan", "ios": "https://dc.lft.to/lastmile_qr_scan"}, "fusion_lat": 0.0, "lat": 38.89616616666667, "is_disabled": 0, "lon": -76.95656433333333, "is_reserved": 0}, {"bike_id": "ba6c5adf25877f93c9aaaaedb23b7c4e", "fusion_lon": 0.0, "type": "electric_scooter", "name": "ba6c5adf25877f93c9aaaaedb23b7c4e", "rental_uris": {"android": "https://dc.lft.to/lastmile_qr_scan", "ios": "https://dc.lft.to/lastmile_qr_scan"}, "fusion_lat": 0.0, "lat": 38.92460833333333, "is_disabled": 0, "lon": -77.07820566666666, "is_reserved": 0}, {"bike_id": "ba52d36e49bc078a79356c1c27bf8f07", "fusion_lon": 0.0, "type": "electric_bike", "name": "ba52d36e49bc078a79356c1c27bf8f07", "rental_uris": {"android": "https://dc.lft.to/lastmile_qr_scan", "ios": "https://dc.lft.to/lastmile_qr_scan"}, "fusion_lat": 0.0, "lat": 38.90104566666667, "is_disabled": 0, "lon": -77.0318005, "is_reserved": 0}, {"bike_id": "9fdd2559ded7396c3935580d4f907d03", "fusion_lon": 0.0, "type": "electric_bike", "name": "9fdd2559ded7396c3935580d4f907d03", "rental_uris": {"android": "https://dc.lft.to/lastmile_qr_scan", "ios": "https://dc.lft.to/lastmile_qr_scan"}, "fusion_lat": 0.0, "lat": 38.95739733333333, "is_disabled": 0, "lon": -76.97254566666666, "is_reserved": 0}, {"bike_id": "99f9b1cc14cad8e821026c8232654c90", "fusion_lon": 0.0, "type": "electric_scooter", "name": "99f9b1cc14cad8e821026c8232654c90", "rental_uris": {"android": "https://dc.lft.to/lastmile_qr_scan", "ios": "https://dc.lft.to/lastmile_qr_scan"}, "fusion_lat": 0.0, "lat": 38.900042666666664, "is_disabled": 0, "lon": -77.04480816666667, "is_reserved": 0}, {"bike_id": "67f709bdec28720cd71285e783753501", "fusion_lon": 0.0, "type": "electric_scooter", "name": "67f709bdec28720cd71285e783753501", "rental_uris": {"android": "https://dc.lft.to/lastmile_qr_scan", "ios": "https://dc.lft.to/lastmile_qr_scan"}, "fusion_lat": 0.0, "lat": 38.864853333333336, "is_disabled": 0, "lon": -76.98351766666667, "is_reserved": 0}, {"bike_id": "6557363a1db712a5826d50da1c998909", "fusion_lon": 0.0, "type": "electric_scooter", "name": "6557363a1db712a5826d50da1c998909", "rental_uris": {"android": "https://dc.lft.to/lastmile_qr_scan", "ios": "https://dc.lft.to/lastmile_qr_scan"}, "fusion_lat": 0.0, "lat": 38.922898833333335, "is_disabled": 0, "lon": -77.02968883333334, "is_reserved": 0}, {"bike_id": "b2593442442c30aa937ea2c1c3d8bdb5", "fusion_lon": 0.0, "type": "electric_bike", "name": "b2593442442c30aa937ea2c1c3d8bdb5", "rental_uris": {"android": "https://dc.lft.to/lastmile_qr_scan", "ios": "https://dc.lft.to/lastmile_qr_scan"}, "fusion_lat": 0.0, "lat": 38.852448833333334, "is_disabled": 0, "lon": -77.11429766666667, "is_reserved": 0}, {"bike_id": "85886f010f70359d1eb2af05b351ae7c", "fusion_lon": 0.0, "type": "electric_scooter", "name": "85886f010f70359d1eb2af05b351ae7c", "rental_uris": {"android": "https://dc.lft.to/lastmile_qr_scan", "ios": "https://dc.lft.to/lastmile_qr_scan"}, "fusion_lat": 0.0, "lat": 38.9237465, "is_disabled": 0, "lon": -77.04033366666667, "is_reserved": 0}, {"bike_id": "18cca5eb90808416747f07ee5d55bc06", "fusion_lon": 0.0, "type": "electric_bike", "name": "18cca5eb90808416747f07ee5d55bc06", "rental_uris": {"android": "https://dc.lft.to/lastmile_qr_scan", "ios": "https://dc.lft.to/lastmile_qr_scan"}, "fusion_lat": 0.0, "lat": 38.89531566666667, "is_disabled": 0, "lon": -77.03979216666667, "is_reserved": 0}, {"bike_id": "22478f03183c5d7c11cd9448eeca5074", "fusion_lon": 0.0, "type": "electric_scooter", "name": "22478f03183c5d7c11cd9448eeca5074", "rental_uris": {"android": "https://dc.lft.to/lastmile_qr_scan", "ios": "https://dc.lft.to/lastmile_qr_scan"}, "fusion_lat": 0.0, "lat": 38.9198795, "is_disabled": 0, "lon": -77.0398005, "is_reserved": 0}, {"bike_id": "62708bd7994046577a3da5994b9d7e28", "fusion_lon": 0.0, "type": "electric_scooter", "name": "62708bd7994046577a3da5994b9d7e28", "rental_uris": {"android": "https://dc.lft.to/lastmile_qr_scan", "ios": "https://dc.lft.to/lastmile_qr_scan"}, "fusion_lat": 0.0, "lat": 38.962058, "is_disabled": 0, "lon": -77.0234165, "is_reserved": 0}, {"bike_id": "31a8dc75f3e147e4329c23d8e0d15829", "fusion_lon": 0.0, "type": "electric_scooter", "name": "31a8dc75f3e147e4329c23d8e0d15829", "rental_uris": {"android": "https://dc.lft.to/lastmile_qr_scan", "ios": "https://dc.lft.to/lastmile_qr_scan"}, "fusion_lat": 0.0, "lat": 38.911847, "is_disabled": 0, "lon": -77.04498683333334, "is_reserved": 0}, {"bike_id": "9096ca100ed962a5495b92776bdf394a", "fusion_lon": 0.0, "type": "electric_scooter", "name": "9096ca100ed962a5495b92776bdf394a", "rental_uris": {"android": "https://dc.lft.to/lastmile_qr_scan", "ios": "https://dc.lft.to/lastmile_qr_scan"}, "fusion_lat": 0.0, "lat": 38.88419483333333, "is_disabled": 0, "lon": -76.9954815, "is_reserved": 0}, {"bike_id": "183cfef9a57ad78bfaba83fce5381ba1", "fusion_lon": 0.0, "type": "electric_scooter", "name": "183cfef9a57ad78bfaba83fce5381ba1", "rental_uris": {"android": "https://dc.lft.to/lastmile_qr_scan", "ios": "https://dc.lft.to/lastmile_qr_scan"}, "fusion_lat": 0.0, "lat": 38.933702833333335, "is_disabled": 0, "lon": -77.05729583333333, "is_reserved": 0}, {"bike_id": "df4840144a2825ec726d770fec3d65d7", "fusion_lon": 0.0, "type": "electric_scooter", "name": "df4840144a2825ec726d770fec3d65d7", "rental_uris": {"android": "https://dc.lft.to/lastmile_qr_scan", "ios": "https://dc.lft.to/lastmile_qr_scan"}, "fusion_lat": 0.0, "lat": 38.926740833333334, "is_disabled": 0, "lon": -77.0075525, "is_reserved": 0}, {"bike_id": "d19b7096e2ef3292ef330cba5aa7bbb9", "fusion_lon": 0.0, "type": "electric_scooter", "name": "d19b7096e2ef3292ef330cba5aa7bbb9", "rental_uris": {"android": "https://dc.lft.to/lastmile_qr_scan", "ios": "https://dc.lft.to/lastmile_qr_scan"}, "fusion_lat": 0.0, "lat": 38.902999333333334, "is_disabled": 0, "lon": -77.03452316666667, "is_reserved": 0}, {"bike_id": "45d0cd21b368411d2760ce70e0f32f2a", "fusion_lon": 0.0, "type": "electric_scooter", "name": "45d0cd21b368411d2760ce70e0f32f2a", "rental_uris": {"android": "https://dc.lft.to/lastmile_qr_scan", "ios": "https://dc.lft.to/lastmile_qr_scan"}, "fusion_lat": 0.0, "lat": 38.9095005, "is_disabled": 0, "lon": -77.04053633333334, "is_reserved": 0}, {"bike_id": "b5c91b731df0a80ca0cf1f40fbcb601c", "fusion_lon": 0.0, "type": "electric_scooter", "name": "b5c91b731df0a80ca0cf1f40fbcb601c", "rental_uris": {"android": "https://dc.lft.to/lastmile_qr_scan", "ios": "https://dc.lft.to/lastmile_qr_scan"}, "fusion_lat": 0.0, "lat": 38.92226316666667, "is_disabled": 0, "lon": -77.0433675, "is_reserved": 0}, {"bike_id": "15985d0157fc1e6eef38bd17fe84e7d3", "fusion_lon": 0.0, "type": "electric_scooter", "name": "15985d0157fc1e6eef38bd17fe84e7d3", "rental_uris": {"android": "https://dc.lft.to/lastmile_qr_scan", "ios": "https://dc.lft.to/lastmile_qr_scan"}, "fusion_lat": 0.0, "lat": 38.909065166666664, "is_disabled": 0, "lon": -77.041449, "is_reserved": 0}, {"bike_id": "c1d621be09af8a76beac12f2ebb399dc", "fusion_lon": 0.0, "type": "electric_bike", "name": "c1d621be09af8a76beac12f2ebb399dc", "rental_uris": {"android": "https://dc.lft.to/lastmile_qr_scan", "ios": "https://dc.lft.to/lastmile_qr_scan"}, "fusion_lat": 0.0, "lat": 38.88108616666667, "is_disabled": 0, "lon": -77.1119445, "is_reserved": 0}, {"bike_id": "db790dc2b8b5be00a5c3c6c0c22364a6", "fusion_lon": 0.0, "type": "electric_scooter", "name": "db790dc2b8b5be00a5c3c6c0c22364a6", "rental_uris": {"android": "https://dc.lft.to/lastmile_qr_scan", "ios": "https://dc.lft.to/lastmile_qr_scan"}, "fusion_lat": 0.0, "lat": 38.90032866666667, "is_disabled": 0, "lon": -76.99623783333334, "is_reserved": 0}, {"bike_id": "fc64d3ad719fb5835b18ec496ff36a32", "fusion_lon": 0.0, "type": "electric_bike", "name": "fc64d3ad719fb5835b18ec496ff36a32", "rental_uris": {"android": "https://dc.lft.to/lastmile_qr_scan", "ios": "https://dc.lft.to/lastmile_qr_scan"}, "fusion_lat": 0.0, "lat": 38.9564445, "is_disabled": 0, "lon": -77.0228975, "is_reserved": 0}, {"bike_id": "9708dac79450092b89ca2865beb39110", "fusion_lon": 0.0, "type": "electric_scooter", "name": "9708dac79450092b89ca2865beb39110", "rental_uris": {"android": "https://dc.lft.to/lastmile_qr_scan", "ios": "https://dc.lft.to/lastmile_qr_scan"}, "fusion_lat": 0.0, "lat": 38.901566333333335, "is_disabled": 0, "lon": -77.02227833333333, "is_reserved": 0}, {"bike_id": "54eada7a09da0ba7e2bae6f44a779f9e", "fusion_lon": 0.0, "type": "electric_scooter", "name": "54eada7a09da0ba7e2bae6f44a779f9e", "rental_uris": {"android": "https://dc.lft.to/lastmile_qr_scan", "ios": "https://dc.lft.to/lastmile_qr_scan"}, "fusion_lat": 0.0, "lat": 38.935886333333336, "is_disabled": 0, "lon": -77.0193415, "is_reserved": 0}, {"bike_id": "b6b480189541fb4c3594dbb88eb75ea6", "fusion_lon": 0.0, "type": "electric_scooter", "name": "b6b480189541fb4c3594dbb88eb75ea6", "rental_uris": {"android": "https://dc.lft.to/lastmile_qr_scan", "ios": "https://dc.lft.to/lastmile_qr_scan"}, "fusion_lat": 0.0, "lat": 38.899570833333335, "is_disabled": 0, "lon": -76.98571083333333, "is_reserved": 0}, {"bike_id": "e8433eca9ab452d2203356b06e707ae6", "fusion_lon": 0.0, "type": "electric_scooter", "name": "e8433eca9ab452d2203356b06e707ae6", "rental_uris": {"android": "https://dc.lft.to/lastmile_qr_scan", "ios": "https://dc.lft.to/lastmile_qr_scan"}, "fusion_lat": 0.0, "lat": 38.881542, "is_disabled": 0, "lon": -77.02705033333334, "is_reserved": 0}, {"bike_id": "36b5700da381e67375e89d900606f28f", "fusion_lon": 0.0, "type": "electric_scooter", "name": "36b5700da381e67375e89d900606f28f", "rental_uris": {"android": "https://dc.lft.to/lastmile_qr_scan", "ios": "https://dc.lft.to/lastmile_qr_scan"}, "fusion_lat": 0.0, "lat": 38.905182833333335, "is_disabled": 0, "lon": -77.06654383333333, "is_reserved": 0}, {"bike_id": "4b51eb1d16af70470cf96d2a41626fb3", "fusion_lon": 0.0, "type": "electric_scooter", "name": "4b51eb1d16af70470cf96d2a41626fb3", "rental_uris": {"android": "https://dc.lft.to/lastmile_qr_scan", "ios": "https://dc.lft.to/lastmile_qr_scan"}, "fusion_lat": 0.0, "lat": 38.89157933333333, "is_disabled": 0, "lon": -77.00352316666667, "is_reserved": 0}, {"bike_id": "dab7482661135604717287a0040388ed", "fusion_lon": 0.0, "type": "electric_bike", "name": "dab7482661135604717287a0040388ed", "rental_uris": {"android": "https://dc.lft.to/lastmile_qr_scan", "ios": "https://dc.lft.to/lastmile_qr_scan"}, "fusion_lat": 0.0, "lat": 39.09458633333333, "is_disabled": 0, "lon": -77.14989166666666, "is_reserved": 0}, {"bike_id": "4826a1b1bfc97c264f56833323e6826e", "fusion_lon": 0.0, "type": "electric_scooter", "name": "4826a1b1bfc97c264f56833323e6826e", "rental_uris": {"android": "https://dc.lft.to/lastmile_qr_scan", "ios": "https://dc.lft.to/lastmile_qr_scan"}, "fusion_lat": 0.0, "lat": 38.9275645, "is_disabled": 0, "lon": -77.03328266666666, "is_reserved": 0}, {"bike_id": "12758fb8953c08d456b56b9eaf6533d9", "fusion_lon": 0.0, "type": "electric_bike", "name": "12758fb8953c08d456b56b9eaf6533d9", "rental_uris": {"android": "https://dc.lft.to/lastmile_qr_scan", "ios": "https://dc.lft.to/lastmile_qr_scan"}, "fusion_lat": 0.0, "lat": 38.875289, "is_disabled": 0, "lon": -77.1991085, "is_reserved": 0}, {"bike_id": "080fda8abea915401ec6861efe321ddf", "fusion_lon": 0.0, "type": "electric_scooter", "name": "080fda8abea915401ec6861efe321ddf", "rental_uris": {"android": "https://dc.lft.to/lastmile_qr_scan", "ios": "https://dc.lft.to/lastmile_qr_scan"}, "fusion_lat": 0.0, "lat": 38.947946333333334, "is_disabled": 0, "lon": -77.0363145, "is_reserved": 0}, {"bike_id": "7fadd676fda7d533bdd744d3239cc53e", "fusion_lon": 0.0, "type": "electric_scooter", "name": "7fadd676fda7d533bdd744d3239cc53e", "rental_uris": {"android": "https://dc.lft.to/lastmile_qr_scan", "ios": "https://dc.lft.to/lastmile_qr_scan"}, "fusion_lat": 0.0, "lat": 38.906674333333335, "is_disabled": 0, "lon": -77.07491383333333, "is_reserved": 0}, {"bike_id": "2fd7dc36b464416932d0192c8f264724", "fusion_lon": 0.0, "type": "electric_scooter", "name": "2fd7dc36b464416932d0192c8f264724", "rental_uris": {"android": "https://dc.lft.to/lastmile_qr_scan", "ios": "https://dc.lft.to/lastmile_qr_scan"}, "fusion_lat": 0.0, "lat": 38.910402166666664, "is_disabled": 0, "lon": -77.02808816666666, "is_reserved": 0}, {"bike_id": "b9143123cbbcc38b4d35eb7249026bfe", "fusion_lon": 0.0, "type": "electric_scooter", "name": "b9143123cbbcc38b4d35eb7249026bfe", "rental_uris": {"android": "https://dc.lft.to/lastmile_qr_scan", "ios": "https://dc.lft.to/lastmile_qr_scan"}, "fusion_lat": 0.0, "lat": 38.917298833333334, "is_disabled": 0, "lon": -77.04177166666666, "is_reserved": 0}, {"bike_id": "e8705025d9082209749908acc908830f", "fusion_lon": 0.0, "type": "electric_bike", "name": "e8705025d9082209749908acc908830f", "rental_uris": {"android": "https://dc.lft.to/lastmile_qr_scan", "ios": "https://dc.lft.to/lastmile_qr_scan"}, "fusion_lat": 0.0, "lat": 38.8412165, "is_disabled": 0, "lon": -77.09021816666667, "is_reserved": 0}, {"bike_id": "be005e927f9bc7bb5bcb89019bc089de", "fusion_lon": 0.0, "type": "electric_scooter", "name": "be005e927f9bc7bb5bcb89019bc089de", "rental_uris": {"android": "https://dc.lft.to/lastmile_qr_scan", "ios": "https://dc.lft.to/lastmile_qr_scan"}, "fusion_lat": 0.0, "lat": 38.956390166666665, "is_disabled": 0, "lon": -77.03295083333333, "is_reserved": 0}, {"bike_id": "121b8e6d9b4cadfcb9fd6fdc82c607ad", "fusion_lon": 0.0, "type": "electric_scooter", "name": "121b8e6d9b4cadfcb9fd6fdc82c607ad", "rental_uris": {"android": "https://dc.lft.to/lastmile_qr_scan", "ios": "https://dc.lft.to/lastmile_qr_scan"}, "fusion_lat": 0.0, "lat": 38.904351166666665, "is_disabled": 0, "lon": -77.03947666666667, "is_reserved": 0}, {"bike_id": "37c8a5409f0840279fae813ab41df53b", "fusion_lon": 0.0, "type": "electric_scooter", "name": "37c8a5409f0840279fae813ab41df53b", "rental_uris": {"android": "https://dc.lft.to/lastmile_qr_scan", "ios": "https://dc.lft.to/lastmile_qr_scan"}, "fusion_lat": 0.0, "lat": 38.91712883333334, "is_disabled": 0, "lon": -77.09206833333333, "is_reserved": 0}, {"bike_id": "6cf73db151100aea214fb6e9544baf1f", "fusion_lon": 0.0, "type": "electric_scooter", "name": "6cf73db151100aea214fb6e9544baf1f", "rental_uris": {"android": "https://dc.lft.to/lastmile_qr_scan", "ios": "https://dc.lft.to/lastmile_qr_scan"}, "fusion_lat": 0.0, "lat": 38.924027333333335, "is_disabled": 0, "lon": -77.05640616666666, "is_reserved": 0}, {"bike_id": "e7087704a0a2f3ece54e6e88e497a28e", "fusion_lon": 0.0, "type": "electric_scooter", "name": "e7087704a0a2f3ece54e6e88e497a28e", "rental_uris": {"android": "https://dc.lft.to/lastmile_qr_scan", "ios": "https://dc.lft.to/lastmile_qr_scan"}, "fusion_lat": 0.0, "lat": 38.9031015, "is_disabled": 0, "lon": -77.03460816666667, "is_reserved": 0}, {"bike_id": "e19a29fead45c48f8846f8bea021889a", "fusion_lon": 0.0, "type": "electric_scooter", "name": "e19a29fead45c48f8846f8bea021889a", "rental_uris": {"android": "https://dc.lft.to/lastmile_qr_scan", "ios": "https://dc.lft.to/lastmile_qr_scan"}, "fusion_lat": 0.0, "lat": 38.8956325, "is_disabled": 0, "lon": -77.029747, "is_reserved": 0}, {"bike_id": "75cd243d4640e8ab73ba56a0fee8d0fe", "fusion_lon": 0.0, "type": "electric_scooter", "name": "75cd243d4640e8ab73ba56a0fee8d0fe", "rental_uris": {"android": "https://dc.lft.to/lastmile_qr_scan", "ios": "https://dc.lft.to/lastmile_qr_scan"}, "fusion_lat": 0.0, "lat": 38.91359516666667, "is_disabled": 0, "lon": -77.02246183333334, "is_reserved": 0}, {"bike_id": "e677738f84d641038071e5299bfd95c2", "fusion_lon": 0.0, "type": "electric_scooter", "name": "e677738f84d641038071e5299bfd95c2", "rental_uris": {"android": "https://dc.lft.to/lastmile_qr_scan", "ios": "https://dc.lft.to/lastmile_qr_scan"}, "fusion_lat": 0.0, "lat": 38.917041, "is_disabled": 0, "lon": -77.04260283333333, "is_reserved": 0}, {"bike_id": "eef4bdeb25a33a573c283b9895c9ca22", "fusion_lon": 0.0, "type": "electric_scooter", "name": "eef4bdeb25a33a573c283b9895c9ca22", "rental_uris": {"android": "https://dc.lft.to/lastmile_qr_scan", "ios": "https://dc.lft.to/lastmile_qr_scan"}, "fusion_lat": 0.0, "lat": 38.9018885, "is_disabled": 0, "lon": -77.04831466666667, "is_reserved": 0}, {"bike_id": "4334e9d07b7e0d9438a8e40bd82d83f8", "fusion_lon": 0.0, "type": "electric_scooter", "name": "4334e9d07b7e0d9438a8e40bd82d83f8", "rental_uris": {"android": "https://dc.lft.to/lastmile_qr_scan", "ios": "https://dc.lft.to/lastmile_qr_scan"}, "fusion_lat": 0.0, "lat": 38.93704783333333, "is_disabled": 0, "lon": -77.03216283333333, "is_reserved": 0}, {"bike_id": "950d05b325be5fba4322dfe24f3516b3", "fusion_lon": 0.0, "type": "electric_scooter", "name": "950d05b325be5fba4322dfe24f3516b3", "rental_uris": {"android": "https://dc.lft.to/lastmile_qr_scan", "ios": "https://dc.lft.to/lastmile_qr_scan"}, "fusion_lat": 0.0, "lat": 38.8955515, "is_disabled": 0, "lon": -77.00910183333333, "is_reserved": 0}, {"bike_id": "fc86153e5515e0c33da7e5045d759516", "fusion_lon": 0.0, "type": "electric_scooter", "name": "fc86153e5515e0c33da7e5045d759516", "rental_uris": {"android": "https://dc.lft.to/lastmile_qr_scan", "ios": "https://dc.lft.to/lastmile_qr_scan"}, "fusion_lat": 0.0, "lat": 38.917298, "is_disabled": 0, "lon": -77.02291866666667, "is_reserved": 0}, {"bike_id": "ae51319556e88425721b2738d84682c8", "fusion_lon": 0.0, "type": "electric_scooter", "name": "ae51319556e88425721b2738d84682c8", "rental_uris": {"android": "https://dc.lft.to/lastmile_qr_scan", "ios": "https://dc.lft.to/lastmile_qr_scan"}, "fusion_lat": 0.0, "lat": 38.95636066666667, "is_disabled": 0, "lon": -77.0363645, "is_reserved": 0}, {"bike_id": "f62ee9820a6aaae808ec2f50c9649652", "fusion_lon": 0.0, "type": "electric_bike", "name": "f62ee9820a6aaae808ec2f50c9649652", "rental_uris": {"android": "https://dc.lft.to/lastmile_qr_scan", "ios": "https://dc.lft.to/lastmile_qr_scan"}, "fusion_lat": 0.0, "lat": 38.93580266666667, "is_disabled": 0, "lon": -77.10686316666667, "is_reserved": 0}, {"bike_id": "49751c5ff86bef8d88fd4bd1ff357076", "fusion_lon": 0.0, "type": "electric_scooter", "name": "49751c5ff86bef8d88fd4bd1ff357076", "rental_uris": {"android": "https://dc.lft.to/lastmile_qr_scan", "ios": "https://dc.lft.to/lastmile_qr_scan"}, "fusion_lat": 0.0, "lat": 38.90028816666667, "is_disabled": 0, "lon": -76.99121783333334, "is_reserved": 0}, {"bike_id": "56774772b34cbd7c9a91c5fbbb7a58ac", "fusion_lon": 0.0, "type": "electric_scooter", "name": "56774772b34cbd7c9a91c5fbbb7a58ac", "rental_uris": {"android": "https://dc.lft.to/lastmile_qr_scan", "ios": "https://dc.lft.to/lastmile_qr_scan"}, "fusion_lat": 0.0, "lat": 38.893353, "is_disabled": 0, "lon": -77.0466085, "is_reserved": 0}, {"bike_id": "d08d0f5df9794e8d754c6614666abce8", "fusion_lon": 0.0, "type": "electric_scooter", "name": "d08d0f5df9794e8d754c6614666abce8", "rental_uris": {"android": "https://dc.lft.to/lastmile_qr_scan", "ios": "https://dc.lft.to/lastmile_qr_scan"}, "fusion_lat": 0.0, "lat": 38.904176666666665, "is_disabled": 0, "lon": -77.02396183333333, "is_reserved": 0}, {"bike_id": "11b2f9f92ab5f39c00ef9e629c33aabd", "fusion_lon": 0.0, "type": "electric_scooter", "name": "11b2f9f92ab5f39c00ef9e629c33aabd", "rental_uris": {"android": "https://dc.lft.to/lastmile_qr_scan", "ios": "https://dc.lft.to/lastmile_qr_scan"}, "fusion_lat": 0.0, "lat": 38.9025105, "is_disabled": 0, "lon": -77.04518483333334, "is_reserved": 0}, {"bike_id": "607b330f66e6d30fed0c7e9576141b1a", "fusion_lon": 0.0, "type": "electric_scooter", "name": "607b330f66e6d30fed0c7e9576141b1a", "rental_uris": {"android": "https://dc.lft.to/lastmile_qr_scan", "ios": "https://dc.lft.to/lastmile_qr_scan"}, "fusion_lat": 0.0, "lat": 38.92126733333333, "is_disabled": 0, "lon": -77.01023633333334, "is_reserved": 0}, {"bike_id": "738489850a3c1fe4ca6de3222ab77124", "fusion_lon": 0.0, "type": "electric_scooter", "name": "738489850a3c1fe4ca6de3222ab77124", "rental_uris": {"android": "https://dc.lft.to/lastmile_qr_scan", "ios": "https://dc.lft.to/lastmile_qr_scan"}, "fusion_lat": 0.0, "lat": 38.914082, "is_disabled": 0, "lon": -77.03909983333334, "is_reserved": 0}, {"bike_id": "b124e754628ad73942a52ddcab58566b", "fusion_lon": 0.0, "type": "electric_scooter", "name": "b124e754628ad73942a52ddcab58566b", "rental_uris": {"android": "https://dc.lft.to/lastmile_qr_scan", "ios": "https://dc.lft.to/lastmile_qr_scan"}, "fusion_lat": 0.0, "lat": 38.930463333333336, "is_disabled": 0, "lon": -77.0322085, "is_reserved": 0}, {"bike_id": "88ab270c817a6b09949285032bbd8a90", "fusion_lon": 0.0, "type": "electric_scooter", "name": "88ab270c817a6b09949285032bbd8a90", "rental_uris": {"android": "https://dc.lft.to/lastmile_qr_scan", "ios": "https://dc.lft.to/lastmile_qr_scan"}, "fusion_lat": 0.0, "lat": 38.894347833333335, "is_disabled": 0, "lon": -76.9790905, "is_reserved": 0}, {"bike_id": "519c10928683b12f976fc82848735ee3", "fusion_lon": 0.0, "type": "electric_scooter", "name": "519c10928683b12f976fc82848735ee3", "rental_uris": {"android": "https://dc.lft.to/lastmile_qr_scan", "ios": "https://dc.lft.to/lastmile_qr_scan"}, "fusion_lat": 0.0, "lat": 38.90471733333333, "is_disabled": 0, "lon": -77.01997916666667, "is_reserved": 0}, {"bike_id": "0150e712c73c8e934ec474d57a433040", "fusion_lon": 0.0, "type": "electric_scooter", "name": "0150e712c73c8e934ec474d57a433040", "rental_uris": {"android": "https://dc.lft.to/lastmile_qr_scan", "ios": "https://dc.lft.to/lastmile_qr_scan"}, "fusion_lat": 0.0, "lat": 38.9366815, "is_disabled": 0, "lon": -77.032652, "is_reserved": 0}, {"bike_id": "7fcd55ccc610ada3d7d2efe19c717711", "fusion_lon": 0.0, "type": "electric_scooter", "name": "7fcd55ccc610ada3d7d2efe19c717711", "rental_uris": {"android": "https://dc.lft.to/lastmile_qr_scan", "ios": "https://dc.lft.to/lastmile_qr_scan"}, "fusion_lat": 0.0, "lat": 38.923657666666664, "is_disabled": 0, "lon": -77.05035566666666, "is_reserved": 0}, {"bike_id": "b469f10c3621a89cbd11b4fdec69c55f", "fusion_lon": 0.0, "type": "electric_bike", "name": "b469f10c3621a89cbd11b4fdec69c55f", "rental_uris": {"android": "https://dc.lft.to/lastmile_qr_scan", "ios": "https://dc.lft.to/lastmile_qr_scan"}, "fusion_lat": 0.0, "lat": 38.91565516666667, "is_disabled": 0, "lon": -77.0020265, "is_reserved": 0}, {"bike_id": "ee90c6ee432414d1c8fc9352615e4677", "fusion_lon": 0.0, "type": "electric_scooter", "name": "ee90c6ee432414d1c8fc9352615e4677", "rental_uris": {"android": "https://dc.lft.to/lastmile_qr_scan", "ios": "https://dc.lft.to/lastmile_qr_scan"}, "fusion_lat": 0.0, "lat": 38.90135633333333, "is_disabled": 0, "lon": -76.994196, "is_reserved": 0}, {"bike_id": "35ddf485c9ba76ec0b9f673a48dd82a4", "fusion_lon": 0.0, "type": "electric_scooter", "name": "35ddf485c9ba76ec0b9f673a48dd82a4", "rental_uris": {"android": "https://dc.lft.to/lastmile_qr_scan", "ios": "https://dc.lft.to/lastmile_qr_scan"}, "fusion_lat": 0.0, "lat": 38.91478583333333, "is_disabled": 0, "lon": -77.01457283333333, "is_reserved": 0}, {"bike_id": "2da68a952f1e81f6277534507450ac7c", "fusion_lon": 0.0, "type": "electric_scooter", "name": "2da68a952f1e81f6277534507450ac7c", "rental_uris": {"android": "https://dc.lft.to/lastmile_qr_scan", "ios": "https://dc.lft.to/lastmile_qr_scan"}, "fusion_lat": 0.0, "lat": 38.8996455, "is_disabled": 0, "lon": -76.93434116666667, "is_reserved": 0}, {"bike_id": "541ae53b82cd46e4b95794c1e63f9261", "fusion_lon": 0.0, "type": "electric_scooter", "name": "541ae53b82cd46e4b95794c1e63f9261", "rental_uris": {"android": "https://dc.lft.to/lastmile_qr_scan", "ios": "https://dc.lft.to/lastmile_qr_scan"}, "fusion_lat": 0.0, "lat": 38.93318566666667, "is_disabled": 0, "lon": -76.99098433333333, "is_reserved": 0}, {"bike_id": "ed81661fc3bf0c6f1c6cc5f27b938494", "fusion_lon": 0.0, "type": "electric_scooter", "name": "ed81661fc3bf0c6f1c6cc5f27b938494", "rental_uris": {"android": "https://dc.lft.to/lastmile_qr_scan", "ios": "https://dc.lft.to/lastmile_qr_scan"}, "fusion_lat": 0.0, "lat": 38.9080145, "is_disabled": 0, "lon": -77.05144883333334, "is_reserved": 0}, {"bike_id": "4719f5129bda61aa11999c9526d51557", "fusion_lon": 0.0, "type": "electric_scooter", "name": "4719f5129bda61aa11999c9526d51557", "rental_uris": {"android": "https://dc.lft.to/lastmile_qr_scan", "ios": "https://dc.lft.to/lastmile_qr_scan"}, "fusion_lat": 0.0, "lat": 38.89710933333333, "is_disabled": 0, "lon": -77.021365, "is_reserved": 0}, {"bike_id": "c6eeb7c6cf566ae824fc28466ece9cc8", "fusion_lon": 0.0, "type": "electric_bike", "name": "c6eeb7c6cf566ae824fc28466ece9cc8", "rental_uris": {"android": "https://dc.lft.to/lastmile_qr_scan", "ios": "https://dc.lft.to/lastmile_qr_scan"}, "fusion_lat": 0.0, "lat": 38.84131683333333, "is_disabled": 0, "lon": -77.06314716666667, "is_reserved": 0}, {"bike_id": "dc0278ba3357905377c3b257be4a822e", "fusion_lon": 0.0, "type": "electric_scooter", "name": "dc0278ba3357905377c3b257be4a822e", "rental_uris": {"android": "https://dc.lft.to/lastmile_qr_scan", "ios": "https://dc.lft.to/lastmile_qr_scan"}, "fusion_lat": 0.0, "lat": 38.9321365, "is_disabled": 0, "lon": -77.03266883333333, "is_reserved": 0}, {"bike_id": "96d74683a1dd9b29c1501409cbb141aa", "fusion_lon": 0.0, "type": "electric_scooter", "name": "96d74683a1dd9b29c1501409cbb141aa", "rental_uris": {"android": "https://dc.lft.to/lastmile_qr_scan", "ios": "https://dc.lft.to/lastmile_qr_scan"}, "fusion_lat": 0.0, "lat": 38.902570833333336, "is_disabled": 0, "lon": -77.027995, "is_reserved": 0}, {"bike_id": "4917c24b8dad98c4c489754e7fe6af52", "fusion_lon": 0.0, "type": "electric_bike", "name": "4917c24b8dad98c4c489754e7fe6af52", "rental_uris": {"android": "https://dc.lft.to/lastmile_qr_scan", "ios": "https://dc.lft.to/lastmile_qr_scan"}, "fusion_lat": 0.0, "lat": 38.84108283333333, "is_disabled": 0, "lon": -77.0894805, "is_reserved": 0}, {"bike_id": "74f5dd0a5504040fed2586879a4f6d69", "fusion_lon": 0.0, "type": "electric_scooter", "name": "74f5dd0a5504040fed2586879a4f6d69", "rental_uris": {"android": "https://dc.lft.to/lastmile_qr_scan", "ios": "https://dc.lft.to/lastmile_qr_scan"}, "fusion_lat": 0.0, "lat": 38.899872333333334, "is_disabled": 0, "lon": -77.02175733333333, "is_reserved": 0}, {"bike_id": "37fa3af6aef08204b28e6ad34dc48cb0", "fusion_lon": 0.0, "type": "electric_scooter", "name": "37fa3af6aef08204b28e6ad34dc48cb0", "rental_uris": {"android": "https://dc.lft.to/lastmile_qr_scan", "ios": "https://dc.lft.to/lastmile_qr_scan"}, "fusion_lat": 0.0, "lat": 38.88740966666667, "is_disabled": 0, "lon": -77.02627233333334, "is_reserved": 0}, {"bike_id": "5ec3872883fc79ea71bf97b4611d4100", "fusion_lon": 0.0, "type": "electric_bike", "name": "5ec3872883fc79ea71bf97b4611d4100", "rental_uris": {"android": "https://dc.lft.to/lastmile_qr_scan", "ios": "https://dc.lft.to/lastmile_qr_scan"}, "fusion_lat": 0.0, "lat": 38.812434333333336, "is_disabled": 0, "lon": -77.04071583333334, "is_reserved": 0}, {"bike_id": "71d153669ced471311bd2c5437880ef8", "fusion_lon": 0.0, "type": "electric_scooter", "name": "71d153669ced471311bd2c5437880ef8", "rental_uris": {"android": "https://dc.lft.to/lastmile_qr_scan", "ios": "https://dc.lft.to/lastmile_qr_scan"}, "fusion_lat": 0.0, "lat": 38.9173035, "is_disabled": 0, "lon": -77.0193775, "is_reserved": 0},