{"data": {"bikes": [{"name": "b57fc59cec133477dcfd18d42e4977ce", "lon": -77.0174165, "lat": 38.903654333333336, "type": "electric_scooter", "fusion_lon": 0.0, "is_reserved": 0, "bike_id": "b57fc59cec133477dcfd18d42e4977ce", "fusion_lat": 0.0, "is_disabled": 0, "rental_uris": {"ios": "https://dc.lft.to/lastmile_qr_scan", "android": "https://dc.lft.to/lastmile_qr_scan"}}, {"name": "5a78a7bb7a76488d0f03f325eaed3dee", "lon": -77.04730533333333, "lat": 38.913363833333335, "type": "electric_scooter", "fusion_lon": 0.0, "is_reserved": 0, "bike_id": "5a78a7bb7a76488d0f03f325eaed3dee", "fusion_lat": 0.0, "is_disabled": 0, "rental_uris": {"ios": "https://dc.lft.to/lastmile_qr_scan", "android": "https://dc.lft.to/lastmile_qr_scan"}}, {"name": "967ec390d9eed00186606579d0f98528", "lon": -77.02597016666667, "lat": 38.9623775, "type": "electric_bike", "fusion_lon": 0.0, "is_reserved": 0, "bike_id": "967ec390d9eed00186606579d0f98528", "fusion_lat": 0.0, "is_disabled": 0, "rental_uris": {"ios": "https://dc.lft.to/lastmile_qr_scan", "android": "https://dc.lft.to/lastmile_qr_scan"}}, {"name": "908c34fb335194c40d79d044158557c2", "lon": -77.00983666666667, "lat": 38.87294116666666, "type": "electric_scooter", "fusion_lon": 0.0, "is_reserved": 0, "bike_id": "908c34fb335194c40d79d044158557c2", "fusion_lat": 0.0, "is_disabled": 0, "rental_uris": {"ios": "https://dc.lft.to/lastmile_qr_scan", "android": "https://dc.lft.to/lastmile_qr_scan"}}, {"name": "d229c3959ea526e24eaf0980cf149b4c", "lon": -77.03417666666667, "lat": 38.91267166666667, "type": "electric_scooter", "fusion_lon": 0.0, "is_reserved": 0, "bike_id": "d229c3959ea526e24eaf0980cf149b4c", "fusion_lat": 0.0, "is_disabled": 0, "rental_uris": {"ios": "https://dc.lft.to/lastmile_qr_scan", "android": "https://dc.lft.to/lastmile_qr_scan"}}, {"name": "d0975d8b5380f7a68463fc62fdf2e972", "lon": -77.07324333333334, "lat": 38.92726183333333, "type": "electric_bike", "fusion_lon": 0.0, "is_reserved": 0, "bike_id": "d0975d8b5380f7a68463fc62fdf2e972", "fusion_lat": 0.0, "is_disabled": 0, "rental_uris": {"ios": "https://dc.lft.to/lastmile_qr_scan", "android": "https://dc.lft.to/lastmile_qr_scan"}}, {"name": "215e7d6f7714dd114e70978896d7117d", "lon": -76.97345133333333, "lat": 38.84964433333333, "type": "electric_scooter", "fusion_lon": 0.0, "is_reserved": 0, "bike_id": "215e7d6f7714dd114e70978896d7117d", "fusion_lat": 0.0, "is_disabled": 0, "rental_uris": {"ios": "https://dc.lft.to/lastmile_qr_scan", "android": "https://dc.lft.to/lastmile_qr_scan"}}, {"name": "8fb0ef9b8ba15682bae3f054dc0667a4", "lon": -77.03858033333333, "lat": 38.915590333333334, "type": "electric_scooter", "fusion_lon": 0.0, "is_reserved": 0, "bike_id": "8fb0ef9b8ba15682bae3f054dc0667a4", "fusion_lat": 0.0, "is_disabled": 0, "rental_uris": {"ios": "https://dc.lft.to/lastmile_qr_scan", "android": "https://dc.lft.to/lastmile_qr_scan"}}, {"name": "1225b67ac9d119d99064179b188ab395", "lon": -77.02393, "lat": 38.919604666666665, "type": "electric_scooter", "fusion_lon": 0.0, "is_reserved": 0, "bike_id": "1225b67ac9d119d99064179b188ab395", "fusion_lat": 0.0, "is_disabled": 0, "rental_uris": {"ios": "https://dc.lft.to/lastmile_qr_scan", "android": "https://dc.lft.to/lastmile_qr_scan"}}, {"name": "52d9759e9423192e6b272a11c1aa3e00", "lon": -77.01758833333334, "lat": 38.8768835, "type": "electric_scooter", "fusion_lon": 0.0, "is_reserved": 0, "bike_id": "52d9759e9423192e6b272a11c1aa3e00", "fusion_lat": 0.0, "is_disabled": 0, "rental_uris": {"ios": "https://dc.lft.to/lastmile_qr_scan", "android": "https://dc.lft.to/lastmile_qr_scan"}}, {"name": "0ba4541278b47d004056069c839ae8ba", "lon": -77.028641, "lat": 38.998939166666666, "type": "electric_bike", "fusion_lon": 0.0, "is_reserved": 0, "bike_id": "0ba4541278b47d004056069c839ae8ba", "fusion_lat": 0.0, "is_disabled": 0, "rental_uris": {"ios": "https://dc.lft.to/lastmile_qr_scan", "android": "https://dc.lft.to/lastmile_qr_scan"}}, {"name": "925b43526fbb5a3023860cf088a30b0f", "lon": -77.04650533333333, "lat": 39.0550625, "type": "electric_bike", "fusion_lon": 0.0, "is_reserved": 0, "bike_id": "925b43526fbb5a3023860cf088a30b0f", "fusion_lat": 0.0, "is_disabled": 0, "rental_uris": {"ios": "https://dc.lft.to/lastmile_qr_scan", "android": "https://dc.lft.to/lastmile_qr_scan"}}, {"name": "642c9ee1a98f17b0960f8f35268915bb", "lon": -76.9565465, "lat": 38.89618183333333, "type": "electric_scooter", "fusion_lon": 0.0, "is_reserved": 0, "bike_id": "642c9ee1a98f17b0960f8f35268915bb", "fusion_lat": 0.0, "is_disabled": 0, "rental_uris": {"ios": "https://dc.lft.to/lastmile_qr_scan", "android": "https://dc.lft.to/lastmile_qr_scan"}}, {"name": "49ccd672755f8781574f8e458c46a8cb", "lon": -77.07258583333333, "lat": 38.9352245, "type": "electric_scooter", "fusion_lon": 0.0, "is_reserved": 0, "bike_id": "49ccd672755f8781574f8e458c46a8cb", "fusion_lat": 0.0, "is_disabled": 0, "rental_uris": {"ios": "https://dc.lft.to/lastmile_qr_scan", "android": "https://dc.lft.to/lastmile_qr_scan"}}, {"name": "21a98f74b0f49a664225de9d0452ad57", "lon": -77.00653283333334, "lat": 38.91157533333333, "type": "electric_scooter", "fusion_lon": 0.0, "is_reserved": 0, "bike_id": "21a98f74b0f49a664225de9d0452ad57", "fusion_lat": 0.0, "is_disabled": 0, "rental_uris": {"ios": "https://dc.lft.to/lastmile_qr_scan", "android": "https://dc.lft.to/lastmile_qr_scan"}}, {"name": "3d6975d3c0effbc89b1b240412596b70", "lon": -77.06327666666667, "lat": 38.94421083333334, "type": "electric_scooter", "fusion_lon": 0.0, "is_reserved": 0, "bike_id": "3d6975d3c0effbc89b1b240412596b70", "fusion_lat": 0.0, "is_disabled": 0, "rental_uris": {"ios": "https://dc.lft.to/lastmile_qr_scan", "android": "https://dc.lft.to/lastmile_qr_scan"}}, {"name": "31f7ab74d3851379ffd2f5c40a3cbf3c", "lon": -77.0182075, "lat": 38.92215233333334, "type": "electric_scooter", "fusion_lon": 0.0, "is_reserved": 0, "bike_id": "31f7ab74d3851379ffd2f5c40a3cbf3c", "fusion_lat": 0.0, "is_disabled": 0, "rental_uris": {"ios": "https://dc.lft.to/lastmile_qr_scan", "android": "https://dc.lft.to/lastmile_qr_scan"}}, {"name": "5be1f9e3551797d4cd29b61a74adaaec", "lon": -77.03865683333333, "lat": 38.915602166666666, "type": "electric_scooter", "fusion_lon": 0.0, "is_reserved": 0, "bike_id": "5be1f9e3551797d4cd29b61a74adaaec", "fusion_lat": 0.0, "is_disabled": 0, "rental_uris": {"ios": "https://dc.lft.to/lastmile_qr_scan", "android": "https://dc.lft.to/lastmile_qr_scan"}}, {"name": "40f259e9302934010179c07bc246e208", "lon": -76.99028016666666, "lat": 38.90289966666667, "type": "electric_scooter", "fusion_lon": 0.0, "is_reserved": 0, "bike_id": "40f259e9302934010179c07bc246e208", "fusion_lat": 0.0, "is_disabled": 0, "rental_uris": {"ios": "https://dc.lft.to/lastmile_qr_scan", "android": "https://dc.lft.to/lastmile_qr_scan"}}, {"name": "0b42f9242a5e24987c18339c11c0ecef", "lon": -77.026864, "lat": 38.896142, "type": "electric_scooter", "fusion_lon": 0.0, "is_reserved": 0, "bike_id": "0b42f9242a5e24987c18339c11c0ecef", "fusion_lat": 0.0, "is_disabled": 0, "rental_uris": {"ios": "https://dc.lft.to/lastmile_qr_scan", "android": "https://dc.lft.to/lastmile_qr_scan"}}, {"name": "39cc499ddb3e94df96f6839c90c29789", "lon": -77.02523616666667, "lat": 38.914925333333336, "type": "electric_scooter", "fusion_lon": 0.0, "is_reserved": 0, "bike_id": "39cc499ddb3e94df96f6839c90c29789", "fusion_lat": 0.0, "is_disabled": 0, "rental_uris": {"ios": "https://dc.lft.to/lastmile_qr_scan", "android": "https://dc.lft.to/lastmile_qr_scan"}}, {"name": "ab7b3fdaf093fefd4b858bef9f7e599d", "lon": -77.1207535, "lat": 38.85420466666667, "type": "electric_bike", "fusion_lon": 0.0, "is_reserved": 0, "bike_id": "ab7b3fdaf093fefd4b858bef9f7e599d", "fusion_lat": 0.0, "is_disabled": 0, "rental_uris": {"ios": "https://dc.lft.to/lastmile_qr_scan", "android": "https://dc.lft.to/lastmile_qr_scan"}}, {"name": "f1c179c440192b4f9d4676f387826f23", "lon": -77.02828183333334, "lat": 38.88625316666667, "type": "electric_scooter", "fusion_lon": 0.0, "is_reserved": 0, "bike_id": "f1c179c440192b4f9d4676f387826f23", "fusion_lat": 0.0, "is_disabled": 0, "rental_uris": {"ios": "https://dc.lft.to/lastmile_qr_scan", "android": "https://dc.lft.to/lastmile_qr_scan"}}, {"name": "0c81d43b8269b32ffd5e47c7566d6a72", "lon": -76.98250433333334, "lat": 38.904531166666665, "type": "electric_scooter", "fusion_lon": 0.0, "is_reserved": 0, "bike_id": "0c81d43b8269b32ffd5e47c7566d6a72", "fusion_lat": 0.0, "is_disabled": 0, "rental_uris": {"ios": "https://dc.lft.to/lastmile_qr_scan", "android": "https://dc.lft.to/lastmile_qr_scan"}}, {"name": "7adb3c47d386069a2bf02ec776796a4a", "lon": -77.0225425, "lat": 38.927406500000004, "type": "electric_scooter", "fusion_lon": 0.0, "is_reserved": 0, "bike_id": "7adb3c47d386069a2bf02ec776796a4a", "fusion_lat": 0.0, "is_disabled": 0, "rental_uris": {"ios": "https://dc.lft.to/lastmile_qr_scan", "android": "https://dc.lft.to/lastmile_qr_scan"}}, {"name": "b3220f18596b672e085237415922e9c5", "lon": -77.01577216666666, "lat": 38.9167875, "type": "electric_scooter", "fusion_lon": 0.0, "is_reserved": 0, "bike_id": "b3220f18596b672e085237415922e9c5", "fusion_lat": 0.0, "is_disabled": 0, "rental_uris": {"ios": "https://dc.lft.to/lastmile_qr_scan", "android": "https://dc.lft.to/lastmile_qr_scan"}}, {"name": "97f40d5e27b49eefc591b5a26ec26dd7", "lon": -76.99637716666666, "lat": 38.92561716666667, "type": "electric_scooter", "fusion_lon": 0.0, "is_reserved": 0, "bike_id": "97f40d5e27b49eefc591b5a26ec26dd7", "fusion_lat": 0.0, "is_disabled": 0, "rental_uris": {"ios": "https://dc.lft.to/lastmile_qr_scan", "android": "https://dc.lft.to/lastmile_qr_scan"}}, {"name": "7957989325902205e535512200cb1f19", "lon": -77.038441, "lat": 38.912156333333336, "type": "electric_scooter", "fusion_lon": 0.0, "is_reserved": 0, "bike_id": "7957989325902205e535512200cb1f19", "fusion_lat": 0.0, "is_disabled": 0, "rental_uris": {"ios": "https://dc.lft.to/lastmile_qr_scan", "android": "https://dc.lft.to/lastmile_qr_scan"}}, {"name": "fb67e68f005abc544a69b323c3978af6", "lon": -77.02573816666667, "lat": 38.88348633333333, "type": "electric_scooter", "fusion_lon": 0.0, "is_reserved": 0, "bike_id": "fb67e68f005abc544a69b323c3978af6", "fusion_lat": 0.0, "is_disabled": 0, "rental_uris": {"ios": "https://dc.lft.to/lastmile_qr_scan", "android": "https://dc.lft.to/lastmile_qr_scan"}}, {"name": "9efd4a6fce3b39b52abd50f2ca9d1a61", "lon": -77.04030083333333, "lat": 38.91286933333333, "type": "electric_scooter", "fusion_lon": 0.0, "is_reserved": 0, "bike_id": "9efd4a6fce3b39b52abd50f2ca9d1a61", "fusion_lat": 0.0, "is_disabled": 0, "rental_uris": {"ios": "https://dc.lft.to/lastmile_qr_scan", "android": "https://dc.lft.to/lastmile_qr_scan"}}, {"name": "272af3b5ed0d3571ecb60d0f2534b46f", "lon": -77.02226633333333, "lat": 38.89222616666667, "type": "electric_scooter", "fusion_lon": 0.0, "is_reserved": 0, "bike_id": "272af3b5ed0d3571ecb60d0f2534b46f", "fusion_lat": 0.0, "is_disabled": 0, "rental_uris": {"ios": "https://dc.lft.to/lastmile_qr_scan", "android": "https://dc.lft.to/lastmile_qr_scan"}}, {"name": "7b83e8fb4b2a93dadd40f24f1b88aac1", "lon": -77.00085566666667, "lat": 38.916324333333336, "type": "electric_scooter", "fusion_lon": 0.0, "is_reserved": 0, "bike_id": "7b83e8fb4b2a93dadd40f24f1b88aac1", "fusion_lat": 0.0, "is_disabled": 0, "rental_uris": {"ios": "https://dc.lft.to/lastmile_qr_scan", "android": "https://dc.lft.to/lastmile_qr_scan"}}, {"name": "6013279c0e3aa026c39f55237c1702fa", "lon": -77.03785633333334, "lat": 38.91703716666667, "type": "electric_scooter", "fusion_lon": 0.0, "is_reserved": 0, "bike_id": "6013279c0e3aa026c39f55237c1702fa", "fusion_lat": 0.0, "is_disabled": 0, "rental_uris": {"ios": "https://dc.lft.to/lastmile_qr_scan", "android": "https://dc.lft.to/lastmile_qr_scan"}}, {"name": "cb7b97ce8b0a2155ff3d7a1dd73cf1d1", "lon": -77.0468975, "lat": 38.8922185, "type": "electric_scooter", "fusion_lon": 0.0, "is_reserved": 0, "bike_id": "cb7b97ce8b0a2155ff3d7a1dd73cf1d1", "fusion_lat": 0.0, "is_disabled": 0, "rental_uris": {"ios": "https://dc.lft.to/lastmile_qr_scan", "android": "https://dc.lft.to/lastmile_qr_scan"}}, {"name": "43ec4fbf6cde585a47eaf81358f68e25", "lon": -77.01355833333334, "lat": 38.869708833333334, "type": "electric_scooter", "fusion_lon": 0.0, "is_reserved": 0, "bike_id": "43ec4fbf6cde585a47eaf81358f68e25", "fusion_lat": 0.0, "is_disabled": 0, "rental_uris": {"ios": "https://dc.lft.to/lastmile_qr_scan", "android": "https://dc.lft.to/lastmile_qr_scan"}}, {"name": "9d471dbe0443cd49a74911f5d68f0957", "lon": -76.99872083333334, "lat": 38.90027666666667, "type": "electric_scooter", "fusion_lon": 0.0, "is_reserved": 0, "bike_id": "9d471dbe0443cd49a74911f5d68f0957", "fusion_lat": 0.0, "is_disabled": 0, "rental_uris": {"ios": "https://dc.lft.to/lastmile_qr_scan", "android": "https://dc.lft.to/lastmile_qr_scan"}}, {"name": "49e1e6d768198e2febd54a3f3466d940", "lon": -77.0075765, "lat": 38.9267665, "type": "electric_scooter", "fusion_lon": 0.0, "is_reserved": 0, "bike_id": "49e1e6d768198e2febd54a3f3466d940", "fusion_lat": 0.0, "is_disabled": 0, "rental_uris": {"ios": "https://dc.lft.to/lastmile_qr_scan", "android": "https://dc.lft.to/lastmile_qr_scan"}}, {"name": "5377b4fe640f736217b47577d79a59a4", "lon": -77.02368, "lat": 38.902165333333336, "type": "electric_scooter", "fusion_lon": 0.0, "is_reserved": 0, "bike_id": "5377b4fe640f736217b47577d79a59a4", "fusion_lat": 0.0, "is_disabled": 0, "rental_uris": {"ios": "https://dc.lft.to/lastmile_qr_scan", "android": "https://dc.lft.to/lastmile_qr_scan"}}, {"name": "83140dd570db40eff3848bf38d290898", "lon": -77.0088885, "lat": 38.91473883333333, "type": "electric_scooter", "fusion_lon": 0.0, "is_reserved": 0, "bike_id": "83140dd570db40eff3848bf38d290898", "fusion_lat": 0.0, "is_disabled": 0, "rental_uris": {"ios": "https://dc.lft.to/lastmile_qr_scan", "android": "https://dc.lft.to/lastmile_qr_scan"}}, {"name": "66543a4aeeca1a19eb10b6b0544f5fc6", "lon": -77.00211416666667, "lat": 38.924525833333334, "type": "electric_scooter", "fusion_lon": 0.0, "is_reserved": 0, "bike_id": "66543a4aeeca1a19eb10b6b0544f5fc6", "fusion_lat": 0.0, "is_disabled": 0, "rental_uris": {"ios": "https://dc.lft.to/lastmile_qr_scan", "android": "https://dc.lft.to/lastmile_qr_scan"}}, {"name": "d8429f07a427549fd6541b236758061c", "lon": -76.989705, "lat": 38.882243833333334, "type": "electric_bike", "fusion_lon": 0.0, "is_reserved": 0, "bike_id": "d8429f07a427549fd6541b236758061c", "fusion_lat": 0.0, "is_disabled": 0, "rental_uris": {"ios": "https://dc.lft.to/lastmile_qr_scan", "android": "https://dc.lft.to/lastmile_qr_scan"}}, {"name": "835d3f21986cb6447c915be34ccc5caf", "lon": -77.11848616666667, "lat": 38.87740216666667, "type": "electric_bike", "fusion_lon": 0.0, "is_reserved": 0, "bike_id": "835d3f21986cb6447c915be34ccc5caf", "fusion_lat": 0.0, "is_disabled": 0, "rental_uris": {"ios": "https://dc.lft.to/lastmile_qr_scan", "android": "https://dc.lft.to/lastmile_qr_scan"}}, {"name": "8c74f02064bb50339f4b33e35e528906", "lon": -77.03843016666667, "lat": 38.91637933333333, "type": "electric_scooter", "fusion_lon": 0.0, "is_reserved": 0, "bike_id": "8c74f02064bb50339f4b33e35e528906", "fusion_lat": 0.0, "is_disabled": 0, "rental_uris": {"ios": "https://dc.lft.to/lastmile_qr_scan", "android": "https://dc.lft.to/lastmile_qr_scan"}}, {"name": "580a15a7ef2178cd11b07a8ffd8994e2", "lon": -77.02097766666667, "lat": 38.931156333333334, "type": "electric_scooter", "fusion_lon": 0.0, "is_reserved": 0, "bike_id": "580a15a7ef2178cd11b07a8ffd8994e2", "fusion_lat": 0.0, "is_disabled": 0, "rental_uris": {"ios": "https://dc.lft.to/lastmile_qr_scan", "android": "https://dc.lft.to/lastmile_qr_scan"}}, {"name": "e9409920a93795059d11cf6c7ab70340", "lon": -76.93544733333333, "lat": 38.9518675, "type": "electric_bike", "fusion_lon": 0.0, "is_reserved": 0, "bike_id": "e9409920a93795059d11cf6c7ab70340", "fusion_lat": 0.0, "is_disabled": 0, "rental_uris": {"ios": "https://dc.lft.to/lastmile_qr_scan", "android": "https://dc.lft.to/lastmile_qr_scan"}}, {"name": "89f1b5f50bc4da506f5bf6111e8733d2", "lon": -77.00197416666667, "lat": 38.90239183333333, "type": "electric_scooter", "fusion_lon": 0.0, "is_reserved": 0, "bike_id": "89f1b5f50bc4da506f5bf6111e8733d2", "fusion_lat": 0.0, "is_disabled": 0, "rental_uris": {"ios": "https://dc.lft.to/lastmile_qr_scan", "android": "https://dc.lft.to/lastmile_qr_scan"}}, {"name": "c6882d276c05f5d06d0be6e5022ea22a", "lon": -76.98656683333333, "lat": 38.86734333333333, "type": "electric_scooter", "fusion_lon": 0.0, "is_reserved": 0, "bike_id": "c6882d276c05f5d06d0be6e5022ea22a", "fusion_lat": 0.0, "is_disabled": 0, "rental_uris": {"ios": "https://dc.lft.to/lastmile_qr_scan", "android": "https://dc.lft.to/lastmile_qr_scan"}}, {"name": "98bcf58addfcf5f8d5a64e01a8a5d334", "lon": -76.99009266666667, "lat": 38.85883716666667, "type": "electric_scooter", "fusion_lon": 0.0, "is_reserved": 0, "bike_id": "98bcf58addfcf5f8d5a64e01a8a5d334", "fusion_lat": 0.0, "is_disabled": 0, "rental_uris": {"ios": "https://dc.lft.to/lastmile_qr_scan", "android": "https://dc.lft.to/lastmile_qr_scan"}}, {"name": "83b428d02829093bd0d868d1514086d1", "lon": -76.95474416666667, "lat": 38.8864005, "type": "electric_scooter", "fusion_lon": 0.0, "is_reserved": 0, "bike_id": "83b428d02829093bd0d868d1514086d1", "fusion_lat": 0.0, "is_disabled": 0, "rental_uris": {"ios": "https://dc.lft.to/lastmile_qr_scan", "android": "https://dc.lft.to/lastmile_qr_scan"}}, {"name": "4051de42455b218577b08050ff4fab6c", "lon": -77.0117025, "lat": 38.91565166666667, "type": "electric_scooter", "fusion_lon": 0.0, "is_reserved": 0, "bike_id": "4051de42455b218577b08050ff4fab6c", "fusion_lat": 0.0, "is_disabled": 0, "rental_uris": {"ios": "https://dc.lft.to/lastmile_qr_scan", "android": "https://dc.lft.to/lastmile_qr_scan"}}, {"name": "1c6024a6ac6b45f42096d778acac7dd6", "lon": -77.18317166666667, "lat": 38.890688, "type": "electric_bike", "fusion_lon": 0.0, "is_reserved": 0, "bike_id": "1c6024a6ac6b45f42096d778acac7dd6", "fusion_lat": 0.0, "is_disabled": 0, "rental_uris": {"ios": "https://dc.lft.to/lastmile_qr_scan", "android": "https://dc.lft.to/lastmile_qr_scan"}}, {"name": "d3ffa79939e4293d6ed105a5b620f507", "lon": -77.03642616666667, "lat": 38.916198333333334, "type": "electric_scooter", "fusion_lon": 0.0, "is_reserved": 0, "bike_id": "d3ffa79939e4293d6ed105a5b620f507", "fusion_lat": 0.0, "is_disabled": 0, "rental_uris": {"ios": "https://dc.lft.to/lastmile_qr_scan", "android": "https://dc.lft.to/lastmile_qr_scan"}}, {"name": "1fb4a933b3e8e499b7aafbb433ba365e", "lon": -76.98491933333334, "lat": 38.903897666666666, "type": "electric_scooter", "fusion_lon": 0.0, "is_reserved": 0, "bike_id": "1fb4a933b3e8e499b7aafbb433ba365e", "fusion_lat": 0.0, "is_disabled": 0, "rental_uris": {"ios": "https://dc.lft.to/lastmile_qr_scan", "android": "https://dc.lft.to/lastmile_qr_scan"}}, {"name": "e2f87c8fb299d4330232966a230b8876", "lon": -77.04611833333334, "lat": 38.916799, "type": "electric_scooter", "fusion_lon": 0.0, "is_reserved": 0, "bike_id": "e2f87c8fb299d4330232966a230b8876", "fusion_lat": 0.0, "is_disabled": 0, "rental_uris": {"ios": "https://dc.lft.to/lastmile_qr_scan", "android": "https://dc.lft.to/lastmile_qr_scan"}}, {"name": "28a6ba80d21b92152283655317c8f0dd", "lon": -77.023234, "lat": 38.93603366666667, "type": "electric_scooter", "fusion_lon": 0.0, "is_reserved": 0, "bike_id": "28a6ba80d21b92152283655317c8f0dd", "fusion_lat": 0.0, "is_disabled": 0, "rental_uris": {"ios": "https://dc.lft.to/lastmile_qr_scan", "android": "https://dc.lft.to/lastmile_qr_scan"}}, {"name": "311eb815d485e8b61cbef819490a97c1", "lon": -77.03418116666667, "lat": 38.91926383333333, "type": "electric_scooter", "fusion_lon": 0.0, "is_reserved": 0, "bike_id": "311eb815d485e8b61cbef819490a97c1", "fusion_lat": 0.0, "is_disabled": 0, "rental_uris": {"ios": "https://dc.lft.to/lastmile_qr_scan", "android": "https://dc.lft.to/lastmile_qr_scan"}}, {"name": "8ba50aa5f543b7d983fa606d99bc0074", "lon": -76.93991816666667, "lat": 38.899858333333334, "type": "electric_scooter", "fusion_lon": 0.0, "is_reserved": 0, "bike_id": "8ba50aa5f543b7d983fa606d99bc0074", "fusion_lat": 0.0, "is_disabled": 0, "rental_uris": {"ios": "https://dc.lft.to/lastmile_qr_scan", "android": "https://dc.lft.to/lastmile_qr_scan"}}, {"name": "fc0ce814a36ec234c9c7ef3d83b9572d", "lon": -77.02189266666667, "lat": 38.915149666666665, "type": "electric_scooter", "fusion_lon": 0.0, "is_reserved": 0, "bike_id": "fc0ce814a36ec234c9c7ef3d83b9572d", "fusion_lat": 0.0, "is_disabled": 0, "rental_uris": {"ios": "https://dc.lft.to/lastmile_qr_scan", "android": "https://dc.lft.to/lastmile_qr_scan"}}, {"name": "e62f16112a210e885805f59cf20ad3af", "lon": -77.03662, "lat": 38.922864833333335, "type": "electric_bike", "fusion_lon": 0.0, "is_reserved": 0, "bike_id": "e62f16112a210e885805f59cf20ad3af", "fusion_lat": 0.0, "is_disabled": 0, "rental_uris": {"ios": "https://dc.lft.to/lastmile_qr_scan", "android": "https://dc.lft.to/lastmile_qr_scan"}}, {"name": "65e31b0d22d8beffc86b5c101656cd7a", "lon": -77.03335916666667, "lat": 38.958279166666664, "type": "electric_scooter", "fusion_lon": 0.0, "is_reserved": 0, "bike_id": "65e31b0d22d8beffc86b5c101656cd7a", "fusion_lat": 0.0, "is_disabled": 0, "rental_uris": {"ios": "https://dc.lft.to/lastmile_qr_scan", "android": "https://dc.lft.to/lastmile_qr_scan"}}, {"name": "4c88a0bc29a0f6eca5420850d17db2bc", "lon": -77.03264283333333, "lat": 38.9373805, "type": "electric_scooter", "fusion_lon": 0.0, "is_reserved": 0, "bike_id": "4c88a0bc29a0f6eca5420850d17db2bc", "fusion_lat": 0.0, "is_disabled": 0, "rental_uris": {"ios": "https://dc.lft.to/lastmile_qr_scan", "android": "https://dc.lft.to/lastmile_qr_scan"}}, {"name": "48b5dd7fc4fa06dd9886fe008a794d3a", "lon": -77.03317166666666, "lat": 38.91323783333333, "type": "electric_scooter", "fusion_lon": 0.0, "is_reserved": 0, "bike_id": "48b5dd7fc4fa06dd9886fe008a794d3a", "fusion_lat": 0.0, "is_disabled": 0, "rental_uris": {"ios": "https://dc.lft.to/lastmile_qr_scan", "android": "https://dc.lft.to/lastmile_qr_scan"}}, {"name": "8e089e9a867caa9e3762d8e1cc73ec04", "lon": -77.02310783333333, "lat": 38.9178885, "type": "electric_scooter", "fusion_lon": 0.0, "is_reserved": 0, "bike_id": "8e089e9a867caa9e3762d8e1cc73ec04", "fusion_lat": 0.0, "is_disabled": 0, "rental_uris": {"ios": "https://dc.lft.to/lastmile_qr_scan", "android": "https://dc.lft.to/lastmile_qr_scan"}}, {"name": "e65bfa890a2008fa6a180ddd1a71bd21", "lon": -76.99510033333334, "lat": 38.879179666666666, "type": "electric_scooter", "fusion_lon": 0.0, "is_reserved": 0, "bike_id": "e65bfa890a2008fa6a180ddd1a71bd21", "fusion_lat": 0.0, "is_disabled": 0, "rental_uris": {"ios": "https://dc.lft.to/lastmile_qr_scan", "android": "https://dc.lft.to/lastmile_qr_scan"}}, {"name": "5493c24d2ac12d957096debc83ee284a", "lon": -76.999066, "lat": 38.94688466666667, "type": "electric_scooter", "fusion_lon": 0.0, "is_reserved": 0, "bike_id": "5493c24d2ac12d957096debc83ee284a", "fusion_lat": 0.0, "is_disabled": 0, "rental_uris": {"ios": "https://dc.lft.to/lastmile_qr_scan", "android": "https://dc.lft.to/lastmile_qr_scan"}}, {"name": "dcc6d5c54f70fe8f8986c8d4f5f8791a", "lon": -77.0443465, "lat": 38.921847, "type": "electric_scooter", "fusion_lon": 0.0, "is_reserved": 0, "bike_id": "dcc6d5c54f70fe8f8986c8d4f5f8791a", "fusion_lat": 0.0, "is_disabled": 0, "rental_uris": {"ios": "https://dc.lft.to/lastmile_qr_scan", "android": "https://dc.lft.to/lastmile_qr_scan"}}, {"name": "4077fccfd7ac236cf4d00589cc7e90a4", "lon": -77.020931, "lat": 38.921577666666664, "type": "electric_scooter", "fusion_lon": 0.0, "is_reserved": 0, "bike_id": "4077fccfd7ac236cf4d00589cc7e90a4", "fusion_lat": 0.0, "is_disabled": 0, "rental_uris": {"ios": "https://dc.lft.to/lastmile_qr_scan", "android": "https://dc.lft.to/lastmile_qr_scan"}}, {"name": "3f4d857c54f462802aa889893d29de38", "lon": -77.02346666666666, "lat": 38.946147833333335, "type": "electric_scooter", "fusion_lon": 0.0, "is_reserved": 0, "bike_id": "3f4d857c54f462802aa889893d29de38", "fusion_lat": 0.0, "is_disabled": 0, "rental_uris": {"ios": "https://dc.lft.to/lastmile_qr_scan", "android": "https://dc.lft.to/lastmile_qr_scan"}}, {"name": "3cd78b39add2a29a5b35e0219a2d49c3", "lon": -77.0453785, "lat": 38.913272166666665, "type": "electric_scooter", "fusion_lon": 0.0, "is_reserved": 0, "bike_id": "3cd78b39add2a29a5b35e0219a2d49c3", "fusion_lat": 0.0, "is_disabled": 0, "rental_uris": {"ios": "https://dc.lft.to/lastmile_qr_scan", "android": "https://dc.lft.to/lastmile_qr_scan"}}, {"name": "64e2ae6f485e78a87bc03af46bcf0cfa", "lon": -76.95098133333333, "lat": 38.884495, "type": "electric_scooter", "fusion_lon": 0.0, "is_reserved": 0, "bike_id": "64e2ae6f485e78a87bc03af46bcf0cfa", "fusion_lat": 0.0, "is_disabled": 0, "rental_uris": {"ios": "https://dc.lft.to/lastmile_qr_scan", "android": "https://dc.lft.to/lastmile_qr_scan"}}, {"name": "95e5192e4eb6d6f7088d8051eb1330da", "lon": -77.02418016666667, "lat": 38.917070333333335, "type": "electric_scooter", "fusion_lon": 0.0, "is_reserved": 0, "bike_id": "95e5192e4eb6d6f7088d8051eb1330da", "fusion_lat": 0.0, "is_disabled": 0, "rental_uris": {"ios": "https://dc.lft.to/lastmile_qr_scan", "android": "https://dc.lft.to/lastmile_qr_scan"}}, {"name": "bd709e2906fd753ff3434010d26052ff", "lon": -77.01096116666666, "lat": 38.915614166666664, "type": "electric_scooter", "fusion_lon": 0.0, "is_reserved": 0, "bike_id": "bd709e2906fd753ff3434010d26052ff", "fusion_lat": 0.0, "is_disabled": 0, "rental_uris": {"ios": "https://dc.lft.to/lastmile_qr_scan", "android": "https://dc.lft.to/lastmile_qr_scan"}}, {"name": "9eb4dca6b5e205968c4423a51d30dac4", "lon": -77.04222533333333, "lat": 38.92176416666667, "type": "electric_scooter", "fusion_lon": 0.0, "is_reserved": 0, "bike_id": "9eb4dca6b5e205968c4423a51d30dac4", "fusion_lat": 0.0, "is_disabled": 0, "rental_uris": {"ios": "https://dc.lft.to/lastmile_qr_scan", "android": "https://dc.lft.to/lastmile_qr_scan"}}, {"name": "848ab1c7a55ee2baf8deffd8dc70c09e", "lon": -77.0269255, "lat": 38.906884833333336, "type": "electric_scooter", "fusion_lon": 0.0, "is_reserved": 0, "bike_id": "848ab1c7a55ee2baf8deffd8dc70c09e", "fusion_lat": 0.0, "is_disabled": 0, "rental_uris": {"ios": "https://dc.lft.to/lastmile_qr_scan", "android": "https://dc.lft.to/lastmile_qr_scan"}}, {"name": "977b4dd4fdd03884ddd8d791e8c2208c", "lon": -77.0162315, "lat": 38.9060925, "type": "electric_scooter", "fusion_lon": 0.0, "is_reserved": 0, "bike_id": "977b4dd4fdd03884ddd8d791e8c2208c", "fusion_lat": 0.0, "is_disabled": 0, "rental_uris": {"ios": "https://dc.lft.to/lastmile_qr_scan", "android": "https://dc.lft.to/lastmile_qr_scan"}}, {"name": "ee76472ff10af12c62330f12a2cbc5d9", "lon": -77.041349, "lat": 38.805041833333334, "type": "electric_bike", "fusion_lon": 0.0, "is_reserved": 0, "bike_id": "ee76472ff10af12c62330f12a2cbc5d9", "fusion_lat": 0.0, "is_disabled": 0, "rental_uris": {"ios": "https://dc.lft.to/lastmile_qr_scan", "android": "https://dc.lft.to/lastmile_qr_scan"}}, {"name": "42dce09001d6770a97f35af957312468", "lon": -77.04020583333333, "lat": 38.92263833333333, "type": "electric_scooter", "fusion_lon": 0.0, "is_reserved": 0, "bike_id": "42dce09001d6770a97f35af957312468", "fusion_lat": 0.0, "is_disabled": 0, "rental_uris": {"ios": "https://dc.lft.to/lastmile_qr_scan", "android": "https://dc.lft.to/lastmile_qr_scan"}}, {"name": "cdf35a6cfc5704e7e3589df8ca728e7c", "lon": -77.02301083333333, "lat": 38.91546316666667, "type": "electric_scooter", "fusion_lon": 0.0, "is_reserved": 0, "bike_id": "cdf35a6cfc5704e7e3589df8ca728e7c", "fusion_lat": 0.0, "is_disabled": 0, "rental_uris": {"ios": "https://dc.lft.to/lastmile_qr_scan", "android": "https://dc.lft.to/lastmile_qr_scan"}}, {"name": "487fe041f44b83ed0c825d37320cfffb", "lon": -77.002026, "lat": 38.81936483333333, "type": "electric_bike", "fusion_lon": 0.0, "is_reserved": 0, "bike_id": "487fe041f44b83ed0c825d37320cfffb", "fusion_lat": 0.0, "is_disabled": 0, "rental_uris": {"ios": "https://dc.lft.to/lastmile_qr_scan", "android": "https://dc.lft.to/lastmile_qr_scan"}}, {"name": "7550f9b9351f8a616807dafb1c96ad88", "lon": -77.02486533333334, "lat": 38.929920833333334, "type": "electric_bike", "fusion_lon": 0.0, "is_reserved": 0, "bike_id": "7550f9b9351f8a616807dafb1c96ad88", "fusion_lat": 0.0, "is_disabled": 0, "rental_uris": {"ios": "https://dc.lft.to/lastmile_qr_scan", "android": "https://dc.lft.to/lastmile_qr_scan"}}, {"name": "1e854249541db5b7f3186a47877a873a", "lon": -77.013683, "lat": 38.8870715, "type": "electric_scooter", "fusion_lon": 0.0, "is_reserved": 0, "bike_id": "1e854249541db5b7f3186a47877a873a", "fusion_lat": 0.0, "is_disabled": 0, "rental_uris": {"ios": "https://dc.lft.to/lastmile_qr_scan", "android": "https://dc.lft.to/lastmile_qr_scan"}}, {"name": "84018975045d9c7a715c4c2d886e2c8c", "lon": -77.0412535, "lat": 38.92321616666667, "type": "electric_scooter", "fusion_lon": 0.0, "is_reserved": 0, "bike_id": "84018975045d9c7a715c4c2d886e2c8c", "fusion_lat": 0.0, "is_disabled": 0, "rental_uris": {"ios": "https://dc.lft.to/lastmile_qr_scan", "android": "https://dc.lft.to/lastmile_qr_scan"}}, {"name": "44c93f5cac54b7d8d88b5decb61a054e", "lon": -76.99503716666666, "lat": 38.88211366666667, "type": "electric_bike", "fusion_lon": 0.0, "is_reserved": 0, "bike_id": "44c93f5cac54b7d8d88b5decb61a054e", "fusion_lat": 0.0, "is_disabled": 0, "rental_uris": {"ios": "https://dc.lft.to/lastmile_qr_scan", "android": "https://dc.lft.to/lastmile_qr_scan"}}, {"name": "677a913f7bd7100f6c7feb2b58f3f2fe", "lon": -77.01781533333333, "lat": 38.920211, "type": "electric_scooter", "fusion_lon": 0.0, "is_reserved": 0, "bike_id": "677a913f7bd7100f6c7feb2b58f3f2fe", "fusion_lat": 0.0, "is_disabled": 0, "rental_uris": {"ios": "https://dc.lft.to/lastmile_qr_scan", "android": "https://dc.lft.to/lastmile_qr_scan"}}, {"name": "8efe9687dd89e806c87abd6447862dff", "lon": -77.04129083333333, "lat": 38.92163983333333, "type": "electric_scooter", "fusion_lon": 0.0, "is_reserved": 0, "bike_id": "8efe9687dd89e806c87abd6447862dff", "fusion_lat": 0.0, "is_disabled": 0, "rental_uris": {"ios": "https://dc.lft.to/lastmile_qr_scan", "android": "https://dc.lft.to/lastmile_qr_scan"}}, {"name": "d7179e7255404d2267f379bfe3ad2622", "lon": -77.02616166666667, "lat": 38.927598833333334, "type": "electric_scooter", "fusion_lon": 0.0, "is_reserved": 0, "bike_id": "d7179e7255404d2267f379bfe3ad2622", "fusion_lat": 0.0, "is_disabled": 0, "rental_uris": {"ios": "https://dc.lft.to/lastmile_qr_scan", "android": "https://dc.lft.to/lastmile_qr_scan"}}, {"name": "d3e284d66d9f8933e01182641846aac0", "lon": -77.03637666666667, "lat": 38.92746016666667, "type": "electric_scooter", "fusion_lon": 0.0, "is_reserved": 0, "bike_id": "d3e284d66d9f8933e01182641846aac0", "fusion_lat": 0.0, "is_disabled": 0, "rental_uris": {"ios": "https://dc.lft.to/lastmile_qr_scan", "android": "https://dc.lft.to/lastmile_qr_scan"}}, {"name": "799d8887aa1af525bf252b2436d295dc", "lon": -77.11050416666667, "lat": 38.870793666666664, "type": "electric_bike", "fusion_lon": 0.0, "is_reserved": 0, "bike_id": "799d8887aa1af525bf252b2436d295dc", "fusion_lat": 0.0, "is_disabled": 0, "rental_uris": {"ios": "https://dc.lft.to/lastmile_qr_scan", "android": "https://dc.lft.to/lastmile_qr_scan"}}, {"name": "ca364c05adf59aa676591e5ab5f6e6e9", "lon": -77.116147, "lat": 38.8548795, "type": "electric_bike", "fusion_lon": 0.0, "is_reserved": 0, "bike_id": "ca364c05adf59aa676591e5ab5f6e6e9", "fusion_lat": 0.0, "is_disabled": 0, "rental_uris": {"ios": "https://dc.lft.to/lastmile_qr_scan", "android": "https://dc.lft.to/lastmile_qr_scan"}}, {"name": "8fa6af95ab5a78e4336840884dc179fb", "lon": -76.99621766666667, "lat": 38.900956666666666, "type": "electric_scooter", "fusion_lon": 0.0, "is_reserved": 0, "bike_id": "8fa6af95ab5a78e4336840884dc179fb", "fusion_lat": 0.0, "is_disabled": 0, "rental_uris": {"ios": "https://dc.lft.to/lastmile_qr_scan", "android": "https://dc.lft.to/lastmile_qr_scan"}}, {"name": "104c8132aeb23896a55a8caa83a720ec", "lon": -76.93195916666667, "lat": 38.89882566666667, "type": "electric_scooter", "fusion_lon": 0.0, "is_reserved": 0, "bike_id": "104c8132aeb23896a55a8caa83a720ec", "fusion_lat": 0.0, "is_disabled": 0, "rental_uris": {"ios": "https://dc.lft.to/lastmile_qr_scan", "android": "https://dc.lft.to/lastmile_qr_scan"}}, {"name": "cb12746877eea32f357ab9fb2613f179", "lon": -77.04091833333334, "lat": 38.923906, "type": "electric_scooter", "fusion_lon": 0.0, "is_reserved": 0, "bike_id": "cb12746877eea32f357ab9fb2613f179", "fusion_lat": 0.0, "is_disabled": 0, "rental_uris": {"ios": "https://dc.lft.to/lastmile_qr_scan", "android": "https://dc.lft.to/lastmile_qr_scan"}}, {"name": "1f58564fa2987f175b6a39e4b79f27f3", "lon": -77.027033, "lat": 38.9288595, "type": "electric_scooter", "fusion_lon": 0.0, "is_reserved": 0, "bike_id": "1f58564fa2987f175b6a39e4b79f27f3", "fusion_lat": 0.0, "is_disabled": 0, "rental_uris": {"ios": "https://dc.lft.to/lastmile_qr_scan", "android": "https://dc.lft.to/lastmile_qr_scan"}}, {"name": "d356443d5249040084f496f6a4af2910", "lon": -76.99901733333333, "lat": 38.94817416666667, "type": "electric_scooter", "fusion_lon": 0.0, "is_reserved": 0, "bike_id": "d356443d5249040084f496f6a4af2910", "fusion_lat": 0.0, "is_disabled": 0, "rental_uris": {"ios": "https://dc.lft.to/lastmile_qr_scan", "android": "https://dc.lft.to/lastmile_qr_scan"}}, {"name": "1b06e9f5e93902c9a97203360e6a8173", "lon": -77.02956816666666, "lat": 38.8992745, "type": "electric_scooter", "fusion_lon": 0.0, "is_reserved": 0, "bike_id": "1b06e9f5e93902c9a97203360e6a8173", "fusion_lat": 0.0, "is_disabled": 0, "rental_uris": {"ios": "https://dc.lft.to/lastmile_qr_scan", "android": "https://dc.lft.to/lastmile_qr_scan"}}, {"name": "58839e642165103e7eded6abc376a85e", "lon": -77.02713333333334, "lat": 38.924581333333336, "type": "electric_scooter", "fusion_lon": 0.0, "is_reserved": 0, "bike_id": "58839e642165103e7eded6abc376a85e", "fusion_lat": 0.0, "is_disabled": 0, "rental_uris": {"ios": "https://dc.lft.to/lastmile_qr_scan", "android": "https://dc.lft.to/lastmile_qr_scan"}}, {"name": "1294cfe634ba96b171339a24fe45cff8", "lon": -77.127323, "lat": 38.895611333333335, "type": "electric_bike", "fusion_lon": 0.0, "is_reserved": 0, "bike_id": "1294cfe634ba96b171339a24fe45cff8", "fusion_lat": 0.0, "is_disabled": 0, "rental_uris": {"ios": "https://dc.lft.to/lastmile_qr_scan", "android": "https://dc.lft.to/lastmile_qr_scan"}}, {"name": "6cce86d5d1aa3a89ac763187885c0ea0", "lon": -77.0230035, "lat": 38.91605933333334, "type": "electric_scooter", "fusion_lon": 0.0, "is_reserved": 0, "bike_id": "6cce86d5d1aa3a89ac763187885c0ea0", "fusion_lat": 0.0, "is_disabled": 0, "rental_uris": {"ios": "https://dc.lft.to/lastmile_qr_scan", "android": "https://dc.lft.to/lastmile_qr_scan"}}, {"name": "ea9b0d19aa28ee49ff4e1b04a661588f", "lon": -77.02393166666667, "lat": 38.927616, "type": "electric_bike", "fusion_lon": 0.0, "is_reserved": 0, "bike_id": "ea9b0d19aa28ee49ff4e1b04a661588f", "fusion_lat": 0.0, "is_disabled": 0, "rental_uris": {"ios": "https://dc.lft.to/lastmile_qr_scan", "android": "https://dc.lft.to/lastmile_qr_scan"}}, {"name": "bea191067784286ad8a4a241e2fbcbe2", "lon": -77.01964766666667, "lat": 38.9565405, "type": "electric_scooter", "fusion_lon": 0.0, "is_reserved": 0, "bike_id": "bea191067784286ad8a4a241e2fbcbe2", "fusion_lat": 0.0, "is_disabled": 0, "rental_uris": {"ios": "https://dc.lft.to/lastmile_qr_scan", "android": "https://dc.lft.to/lastmile_qr_scan"}}, {"name": "8082b79a3dc1e38ec2186d05616dcb6b", "lon": -77.115654, "lat": 38.993323, "type": "electric_bike", "fusion_lon": 0.0, "is_reserved": 0, "bike_id": "8082b79a3dc1e38ec2186d05616dcb6b", "fusion_lat": 0.0, "is_disabled": 0, "rental_uris": {"ios": "https://dc.lft.to/lastmile_qr_scan", "android": "https://dc.lft.to/lastmile_qr_scan"}}, {"name": "f71c3abda9f07c5db22c7af7286e5904", "lon": -77.01305333333333, "lat": 38.8947525, "type": "electric_scooter", "fusion_lon": 0.0, "is_reserved": 0, "bike_id": "f71c3abda9f07c5db22c7af7286e5904", "fusion_lat": 0.0, "is_disabled": 0, "rental_uris": {"ios": "https://dc.lft.to/lastmile_qr_scan", "android": "https://dc.lft.to/lastmile_qr_scan"}}, {"name": "687a83b019455856c5515a0762b73290", "lon": -77.02901016666667, "lat": 38.917029, "type": "electric_scooter", "fusion_lon": 0.0, "is_reserved": 0, "bike_id": "687a83b019455856c5515a0762b73290", "fusion_lat": 0.0, "is_disabled": 0, "rental_uris": {"ios": "https://dc.lft.to/lastmile_qr_scan", "android": "https://dc.lft.to/lastmile_qr_scan"}}, {"name": "f14921e8794ba063ce390acae6c5a397", "lon": -77.02973883333334, "lat": 38.90517066666666, "type": "electric_scooter", "fusion_lon": 0.0, "is_reserved": 0, "bike_id": "f14921e8794ba063ce390acae6c5a397", "fusion_lat": 0.0, "is_disabled": 0, "rental_uris": {"ios": "https://dc.lft.to/lastmile_qr_scan", "android": "https://dc.lft.to/lastmile_qr_scan"}}, {"name": "88842847362af68171e91c259b6116ba", "lon": -77.02716216666667, "lat": 38.918238833333334, "type": "electric_scooter", "fusion_lon": 0.0, "is_reserved": 0, "bike_id": "88842847362af68171e91c259b6116ba", "fusion_lat": 0.0, "is_disabled": 0, "rental_uris": {"ios": "https://dc.lft.to/lastmile_qr_scan", "android": "https://dc.lft.to/lastmile_qr_scan"}}, {"name": "f1a184f19f90f5a329de57e7fd625268", "lon": -77.02988716666667, "lat": 38.897507, "type": "electric_scooter", "fusion_lon": 0.0, "is_reserved": 0, "bike_id": "f1a184f19f90f5a329de57e7fd625268", "fusion_lat": 0.0, "is_disabled": 0, "rental_uris": {"ios": "https://dc.lft.to/lastmile_qr_scan", "android": "https://dc.lft.to/lastmile_qr_scan"}}, {"name": "33dfc51b5c52c164c2df66881dc782cb", "lon": -77.044113, "lat": 38.92137966666667, "type": "electric_scooter", "fusion_lon": 0.0, "is_reserved": 0, "bike_id": "33dfc51b5c52c164c2df66881dc782cb", "fusion_lat": 0.0, "is_disabled": 0, "rental_uris": {"ios": "https://dc.lft.to/lastmile_qr_scan", "android": "https://dc.lft.to/lastmile_qr_scan"}}, {"name": "929ea4ce7c8b67108225ecea28b47b38", "lon": -77.040676, "lat": 38.92543216666667, "type": "electric_scooter", "fusion_lon": 0.0, "is_reserved": 0, "bike_id": "929ea4ce7c8b67108225ecea28b47b38", "fusion_lat": 0.0, "is_disabled": 0, "rental_uris": {"ios": "https://dc.lft.to/lastmile_qr_scan", "android": "https://dc.lft.to/lastmile_qr_scan"}}, {"name": "5c957b9dcf34a255a54aace0da6154ec", "lon": -77.04873116666667, "lat": 38.892714833333336, "type": "electric_scooter", "fusion_lon": 0.0, "is_reserved": 0, "bike_id": "5c957b9dcf34a255a54aace0da6154ec", "fusion_lat": 0.0, "is_disabled": 0, "rental_uris": {"ios": "https://dc.lft.to/lastmile_qr_scan", "android": "https://dc.lft.to/lastmile_qr_scan"}}, {"name": "df999598beecf14f5ae16f60d98a07e4", "lon": -77.04614283333333, "lat": 38.92327, "type": "electric_scooter", "fusion_lon": 0.0, "is_reserved": 0, "bike_id": "df999598beecf14f5ae16f60d98a07e4", "fusion_lat": 0.0, "is_disabled": 0, "rental_uris": {"ios": "https://dc.lft.to/lastmile_qr_scan", "android": "https://dc.lft.to/lastmile_qr_scan"}}, {"name": "bb6459b6bf7407d9792a45e14440cc66", "lon": -77.02822816666666, "lat": 38.9650585, "type": "electric_bike", "fusion_lon": 0.0, "is_reserved": 0, "bike_id": "bb6459b6bf7407d9792a45e14440cc66", "fusion_lat": 0.0, "is_disabled": 0, "rental_uris": {"ios": "https://dc.lft.to/lastmile_qr_scan", "android": "https://dc.lft.to/lastmile_qr_scan"}}, {"name": "e79bc44ed9e502d792421ef7e0a0a12a", "lon": -76.9887215, "lat": 38.86657966666667, "type": "electric_scooter", "fusion_lon": 0.0, "is_reserved": 0, "bike_id": "e79bc44ed9e502d792421ef7e0a0a12a", "fusion_lat": 0.0, "is_disabled": 0, "rental_uris": {"ios": "https://dc.lft.to/lastmile_qr_scan", "android": "https://dc.lft.to/lastmile_qr_scan"}}, {"name": "812b94838a18295d6286003fde597b7a", "lon": -77.04659833333334, "lat": 38.91364083333333, "type": "electric_scooter", "fusion_lon": 0.0, "is_reserved": 0, "bike_id": "812b94838a18295d6286003fde597b7a", "fusion_lat": 0.0, "is_disabled": 0, "rental_uris": {"ios": "https://dc.lft.to/lastmile_qr_scan", "android": "https://dc.lft.to/lastmile_qr_scan"}}, {"name": "bb7e45eb7d18feac5651262f2770f787", "lon": -77.04932333333333, "lat": 38.90999133333333, "type": "electric_scooter", "fusion_lon": 0.0, "is_reserved": 0, "bike_id": "bb7e45eb7d18feac5651262f2770f787", "fusion_lat": 0.0, "is_disabled": 0, "rental_uris": {"ios": "https://dc.lft.to/lastmile_qr_scan", "android": "https://dc.lft.to/lastmile_qr_scan"}}, {"name": "da8b6f238edf7304bd9dcda026a99932", "lon": -76.95019883333333, "lat": 38.89388666666667, "type": "electric_scooter", "fusion_lon": 0.0, "is_reserved": 0, "bike_id": "da8b6f238edf7304bd9dcda026a99932", "fusion_lat": 0.0, "is_disabled": 0, "rental_uris": {"ios": "https://dc.lft.to/lastmile_qr_scan", "android": "https://dc.lft.to/lastmile_qr_scan"}}, {"name": "e2c264a7e05f5e130773a64a636db664", "lon": -76.9853505, "lat": 38.909562333333334, "type": "electric_scooter", "fusion_lon": 0.0, "is_reserved": 0, "bike_id": "e2c264a7e05f5e130773a64a636db664", "fusion_lat": 0.0, "is_disabled": 0, "rental_uris": {"ios": "https://dc.lft.to/lastmile_qr_scan", "android": "https://dc.lft.to/lastmile_qr_scan"}}, {"name": "f4155e1e230238e2015d4b3e813ff284", "lon": -77.03348483333333, "lat": 38.88628466666667, "type": "electric_scooter", "fusion_lon": 0.0, "is_reserved": 0, "bike_id": "f4155e1e230238e2015d4b3e813ff284", "fusion_lat": 0.0, "is_disabled": 0, "rental_uris": {"ios": "https://dc.lft.to/lastmile_qr_scan", "android": "https://dc.lft.to/lastmile_qr_scan"}}, {"name": "365c7eef38adff069268f8e5463c0597", "lon": -77.02512083333333, "lat": 38.91973983333333, "type": "electric_scooter", "fusion_lon": 0.0, "is_reserved": 0, "bike_id": "365c7eef38adff069268f8e5463c0597", "fusion_lat": 0.0, "is_disabled": 0, "rental_uris": {"ios": "https://dc.lft.to/lastmile_qr_scan", "android": "https://dc.lft.to/lastmile_qr_scan"}}, {"name": "576bd451b007de11fcb12abcb5ed7982", "lon": -77.02735416666667, "lat": 38.927642166666665, "type": "electric_scooter", "fusion_lon": 0.0, "is_reserved": 0, "bike_id": "576bd451b007de11fcb12abcb5ed7982", "fusion_lat": 0.0, "is_disabled": 0, "rental_uris": {"ios": "https://dc.lft.to/lastmile_qr_scan", "android": "https://dc.lft.to/lastmile_qr_scan"}}, {"name": "19e90ac12e9d00b42cd934c021bd3b5d", "lon": -77.0243055, "lat": 38.956288666666666, "type": "electric_scooter", "fusion_lon": 0.0, "is_reserved": 0, "bike_id": "19e90ac12e9d00b42cd934c021bd3b5d", "fusion_lat": 0.0, "is_disabled": 0, "rental_uris": {"ios": "https://dc.lft.to/lastmile_qr_scan", "android": "https://dc.lft.to/lastmile_qr_scan"}}, {"name": "89e47f482354a8c984fab169a622daf8", "lon": -76.964659, "lat": 38.93448266666667, "type": "electric_scooter", "fusion_lon": 0.0, "is_reserved": 0, "bike_id": "89e47f482354a8c984fab169a622daf8", "fusion_lat": 0.0, "is_disabled": 0, "rental_uris": {"ios": "https://dc.lft.to/lastmile_qr_scan", "android": "https://dc.lft.to/lastmile_qr_scan"}}, {"name": "672218313759d1b3efd5e7a630171d36", "lon": -77.023734, "lat": 38.8792985, "type": "electric_scooter", "fusion_lon": 0.0, "is_reserved": 0, "bike_id": "672218313759d1b3efd5e7a630171d36", "fusion_lat": 0.0, "is_disabled": 0, "rental_uris": {"ios": "https://dc.lft.to/lastmile_qr_scan", "android": "https://dc.lft.to/lastmile_qr_scan"}}, {"name": "71bcb0a8f36a008654c234a7436f7815", "lon": -77.02217183333333, "lat": 38.90577966666667, "type": "electric_scooter", "fusion_lon": 0.0, "is_reserved": 0, "bike_id": "71bcb0a8f36a008654c234a7436f7815", "fusion_lat": 0.0, "is_disabled": 0, "rental_uris": {"ios": "https://dc.lft.to/lastmile_qr_scan", "android": "https://dc.lft.to/lastmile_qr_scan"}}, {"name": "7c619b457b96a0bc61b532db464eb99e", "lon": -77.02531166666667, "lat": 38.94257966666667, "type": "electric_scooter", "fusion_lon": 0.0, "is_reserved": 0, "bike_id": "7c619b457b96a0bc61b532db464eb99e", "fusion_lat": 0.0, "is_disabled": 0, "rental_uris": {"ios": "https://dc.lft.to/lastmile_qr_scan", "android": "https://dc.lft.to/lastmile_qr_scan"}}, {"name": "a909d765749c4f092a224f66db0f85d7", "lon": -77.0364035, "lat": 38.90389866666666, "type": "electric_scooter", "fusion_lon": 0.0, "is_reserved": 0, "bike_id": "a909d765749c4f092a224f66db0f85d7", "fusion_lat": 0.0, "is_disabled": 0, "rental_uris": {"ios": "https://dc.lft.to/lastmile_qr_scan", "android": "https://dc.lft.to/lastmile_qr_scan"}}, {"name": "01649f9416c239c748cee128d2bff1d4", "lon": -77.028832, "lat": 38.913366833333335, "type": "electric_scooter", "fusion_lon": 0.0, "is_reserved": 0, "bike_id": "01649f9416c239c748cee128d2bff1d4", "fusion_lat": 0.0, "is_disabled": 0, "rental_uris": {"ios": "https://dc.lft.to/lastmile_qr_scan", "android": "https://dc.lft.to/lastmile_qr_scan"}}, {"name": "4e2db7ba690aeb3617e414196838f4b7", "lon": -77.085914, "lat": 38.9087085, "type": "electric_scooter", "fusion_lon": 0.0, "is_reserved": 0, "bike_id": "4e2db7ba690aeb3617e414196838f4b7", "fusion_lat": 0.0, "is_disabled": 0, "rental_uris": {"ios": "https://dc.lft.to/lastmile_qr_scan", "android": "https://dc.lft.to/lastmile_qr_scan"}}, {"name": "62deb0b6b796ffdcc583ec4c0b03e0a3", "lon": -77.03377816666666, "lat": 38.9103955, "type": "electric_scooter", "fusion_lon": 0.0, "is_reserved": 0, "bike_id": "62deb0b6b796ffdcc583ec4c0b03e0a3", "fusion_lat": 0.0, "is_disabled": 0, "rental_uris": {"ios": "https://dc.lft.to/lastmile_qr_scan", "android": "https://dc.lft.to/lastmile_qr_scan"}}, {"name": "2a6b6e2736339c7748d4a33c47f879e0", "lon": -77.04335966666666, "lat": 38.8952565, "type": "electric_scooter", "fusion_lon": 0.0, "is_reserved": 0, "bike_id": "2a6b6e2736339c7748d4a33c47f879e0", "fusion_lat": 0.0, "is_disabled": 0, "rental_uris": {"ios": "https://dc.lft.to/lastmile_qr_scan", "android": "https://dc.lft.to/lastmile_qr_scan"}}, {"name": "f5c91c947d4cb3419540a82cc48d3d84", "lon": -76.99951333333334, "lat": 38.8429815, "type": "electric_scooter", "fusion_lon": 0.0, "is_reserved": 0, "bike_id": "f5c91c947d4cb3419540a82cc48d3d84", "fusion_lat": 0.0, "is_disabled": 0, "rental_uris": {"ios": "https://dc.lft.to/lastmile_qr_scan", "android": "https://dc.lft.to/lastmile_qr_scan"}}, {"name": "1df2710ccb2ab03459d821efb2f53d2d", "lon": -77.00918133333333, "lat": 38.91339766666667, "type": "electric_scooter", "fusion_lon": 0.0, "is_reserved": 0, "bike_id": "1df2710ccb2ab03459d821efb2f53d2d", "fusion_lat": 0.0, "is_disabled": 0, "rental_uris": {"ios": "https://dc.lft.to/lastmile_qr_scan", "android": "https://dc.lft.to/lastmile_qr_scan"}}, {"name": "1985d04c578979dfc7a0b42ae8a826cf", "lon": -76.94247383333334, "lat": 38.896708833333335, "type": "electric_scooter", "fusion_lon": 0.0, "is_reserved": 0, "bike_id": "1985d04c578979dfc7a0b42ae8a826cf", "fusion_lat": 0.0, "is_disabled": 0, "rental_uris": {"ios": "https://dc.lft.to/lastmile_qr_scan", "android": "https://dc.lft.to/lastmile_qr_scan"}}, {"name": "a9b69d5c2b7e278262c025b1eb544dca", "lon": -77.00891033333333, "lat": 38.92483516666667, "type": "electric_scooter", "fusion_lon": 0.0, "is_reserved": 0, "bike_id": "a9b69d5c2b7e278262c025b1eb544dca", "fusion_lat": 0.0, "is_disabled": 0, "rental_uris": {"ios": "https://dc.lft.to/lastmile_qr_scan", "android": "https://dc.lft.to/lastmile_qr_scan"}}, {"name": "0386bfac33a0c940af2b21a0419deba9", "lon": -77.05755483333333, "lat": 38.92493183333333, "type": "electric_scooter", "fusion_lon": 0.0, "is_reserved": 0, "bike_id": "0386bfac33a0c940af2b21a0419deba9", "fusion_lat": 0.0, "is_disabled": 0, "rental_uris": {"ios": "https://dc.lft.to/lastmile_qr_scan", "android": "https://dc.lft.to/lastmile_qr_scan"}}, {"name": "bf424a5a09371a42c213b69918aa235b", "lon": -77.035377, "lat": 38.925389333333335, "type": "electric_scooter", "fusion_lon": 0.0, "is_reserved": 0, "bike_id": "bf424a5a09371a42c213b69918aa235b", "fusion_lat": 0.0, "is_disabled": 0, "rental_uris": {"ios": "https://dc.lft.to/lastmile_qr_scan", "android": "https://dc.lft.to/lastmile_qr_scan"}}, {"name": "bf94800c0f98c8f48cdcbffa4ab32c53", "lon": -77.01425966666666, "lat": 38.90575183333333, "type": "electric_bike", "fusion_lon": 0.0, "is_reserved": 0, "bike_id": "bf94800c0f98c8f48cdcbffa4ab32c53", "fusion_lat": 0.0, "is_disabled": 0, "rental_uris": {"ios": "https://dc.lft.to/lastmile_qr_scan", "android": "https://dc.lft.to/lastmile_qr_scan"}}, {"name": "16e514a9c145d9f41a3123deb566dad2", "lon": -76.96627883333333, "lat": 38.871060166666666, "type": "electric_scooter", "fusion_lon": 0.0, "is_reserved": 0, "bike_id": "16e514a9c145d9f41a3123deb566dad2", "fusion_lat": 0.0, "is_disabled": 0, "rental_uris": {"ios": "https://dc.lft.to/lastmile_qr_scan", "android": "https://dc.lft.to/lastmile_qr_scan"}}, {"name": "6e232b1ceb003b9ada33d6b9b58e9eed", "lon": -77.00122983333333, "lat": 38.905040166666666, "type": "electric_scooter", "fusion_lon": 0.0, "is_reserved": 0, "bike_id": "6e232b1ceb003b9ada33d6b9b58e9eed", "fusion_lat": 0.0, "is_disabled": 0, "rental_uris": {"ios": "https://dc.lft.to/lastmile_qr_scan", "android": "https://dc.lft.to/lastmile_qr_scan"}}, {"name": "ca1401e6b064fc88090db56f2672f14c", "lon": -77.03295833333334, "lat": 38.956372333333334, "type": "electric_scooter", "fusion_lon": 0.0, "is_reserved": 0, "bike_id": "ca1401e6b064fc88090db56f2672f14c", "fusion_lat": 0.0, "is_disabled": 0, "rental_uris": {"ios": "https://dc.lft.to/lastmile_qr_scan", "android": "https://dc.lft.to/lastmile_qr_scan"}}, {"name": "30d5281036db16e45e0ced13e367165b", "lon": -77.02992066666667, "lat": 38.896495333333334, "type": "electric_scooter", "fusion_lon": 0.0, "is_reserved": 0, "bike_id": "30d5281036db16e45e0ced13e367165b", "fusion_lat": 0.0, "is_disabled": 0, "rental_uris": {"ios": "https://dc.lft.to/lastmile_qr_scan", "android": "https://dc.lft.to/lastmile_qr_scan"}}, {"name": "decddc11d1292ad68ad2ddbe963f9d2d", "lon": -77.0303755, "lat": 38.898249166666666, "type": "electric_scooter", "fusion_lon": 0.0, "is_reserved": 0, "bike_id": "decddc11d1292ad68ad2ddbe963f9d2d", "fusion_lat": 0.0, "is_disabled": 0, "rental_uris": {"ios": "https://dc.lft.to/lastmile_qr_scan", "android": "https://dc.lft.to/lastmile_qr_scan"}}, {"name": "e05aa47acf32ec7f83e5fd5dbe45ef2d", "lon": -76.9462145, "lat": 38.83235716666667, "type": "electric_bike", "fusion_lon": 0.0, "is_reserved": 0, "bike_id": "e05aa47acf32ec7f83e5fd5dbe45ef2d", "fusion_lat": 0.0, "is_disabled": 0, "rental_uris": {"ios": "https://dc.lft.to/lastmile_qr_scan", "android": "https://dc.lft.to/lastmile_qr_scan"}}, {"name": "dd8f961c10897cf4a1d6f065c66a3899", "lon": -77.03422966666666, "lat": 38.91925116666667, "type": "electric_scooter", "fusion_lon": 0.0, "is_reserved": 0, "bike_id": "dd8f961c10897cf4a1d6f065c66a3899", "fusion_lat": 0.0, "is_disabled": 0, "rental_uris": {"ios": "https://dc.lft.to/lastmile_qr_scan", "android": "https://dc.lft.to/lastmile_qr_scan"}}, {"name": "be5dedd2e9fcf1347b05910dc76f097b", "lon": -77.04331083333334, "lat": 38.892283666666664, "type": "electric_scooter", "fusion_lon": 0.0, "is_reserved": 0, "bike_id": "be5dedd2e9fcf1347b05910dc76f097b", "fusion_lat": 0.0, "is_disabled": 0, "rental_uris": {"ios": "https://dc.lft.to/lastmile_qr_scan", "android": "https://dc.lft.to/lastmile_qr_scan"}}, {"name": "20cdba9811c59417f2681e39554d3934", "lon": -77.04980233333333, "lat": 39.06297883333333, "type": "electric_bike", "fusion_lon": 0.0, "is_reserved": 0, "bike_id": "20cdba9811c59417f2681e39554d3934", "fusion_lat": 0.0, "is_disabled": 0, "rental_uris": {"ios": "https://dc.lft.to/lastmile_qr_scan", "android": "https://dc.lft.to/lastmile_qr_scan"}}, {"name": "745cf88a08a54d63e1758bd860393bd9", "lon": -77.03278433333334, "lat": 38.931443333333334, "type": "electric_scooter", "fusion_lon": 0.0, "is_reserved": 0, "bike_id": "745cf88a08a54d63e1758bd860393bd9", "fusion_lat": 0.0, "is_disabled": 0, "rental_uris": {"ios": "https://dc.lft.to/lastmile_qr_scan", "android": "https://dc.lft.to/lastmile_qr_scan"}}, {"name": "e019f4244c7a7f22233ea2fa045324bc", "lon": -76.953641, "lat": 38.8920695, "type": "electric_scooter", "fusion_lon": 0.0, "is_reserved": 0, "bike_id": "e019f4244c7a7f22233ea2fa045324bc", "fusion_lat": 0.0, "is_disabled": 0, "rental_uris": {"ios": "https://dc.lft.to/lastmile_qr_scan", "android": "https://dc.lft.to/lastmile_qr_scan"}}, {"name": "4d605253e974407f4cde2495212989c8", "lon": -76.987127, "lat": 38.8670145, "type": "electric_scooter", "fusion_lon": 0.0, "is_reserved": 0, "bike_id": "4d605253e974407f4cde2495212989c8", "fusion_lat": 0.0, "is_disabled": 0, "rental_uris": {"ios": "https://dc.lft.to/lastmile_qr_scan", "android": "https://dc.lft.to/lastmile_qr_scan"}}, {"name": "7f731fcc55f344999df1aa2f7a441774", "lon": -77.0512225, "lat": 38.89965866666667, "type": "electric_scooter", "fusion_lon": 0.0, "is_reserved": 0, "bike_id": "7f731fcc55f344999df1aa2f7a441774", "fusion_lat": 0.0, "is_disabled": 0, "rental_uris": {"ios": "https://dc.lft.to/lastmile_qr_scan", "android": "https://dc.lft.to/lastmile_qr_scan"}}, {"name": "73d6e6c96f1f83797ea2754d7b29cf60", "lon": -77.02371866666667, "lat": 38.8922265, "type": "electric_scooter", "fusion_lon": 0.0, "is_reserved": 0, "bike_id": "73d6e6c96f1f83797ea2754d7b29cf60", "fusion_lat": 0.0, "is_disabled": 0, "rental_uris": {"ios": "https://dc.lft.to/lastmile_qr_scan", "android": "https://dc.lft.to/lastmile_qr_scan"}}, {"name": "8c305b3c9592f3537b00297b710253ff", "lon": -77.05394333333334, "lat": 38.928163, "type": "electric_scooter", "fusion_lon": 0.0, "is_reserved": 0, "bike_id": "8c305b3c9592f3537b00297b710253ff", "fusion_lat": 0.0, "is_disabled": 0, "rental_uris": {"ios": "https://dc.lft.to/lastmile_qr_scan", "android": "https://dc.lft.to/lastmile_qr_scan"}}, {"name": "7bbcc0ee8c9de784e1ae1328ce027eb7", "lon": -77.036625, "lat": 38.91751033333333, "type": "electric_scooter", "fusion_lon": 0.0, "is_reserved": 0, "bike_id": "7bbcc0ee8c9de784e1ae1328ce027eb7", "fusion_lat": 0.0, "is_disabled": 0, "rental_uris": {"ios": "https://dc.lft.to/lastmile_qr_scan", "android": "https://dc.lft.to/lastmile_qr_scan"}}, {"name": "4d369cc566b8060e7786354ba90303f9", "lon": -77.0118845, "lat": 38.91549283333333, "type": "electric_scooter", "fusion_lon": 0.0, "is_reserved": 0, "bike_id": "4d369cc566b8060e7786354ba90303f9", "fusion_lat": 0.0, "is_disabled": 0, "rental_uris": {"ios": "https://dc.lft.to/lastmile_qr_scan", "android": "https://dc.lft.to/lastmile_qr_scan"}}, {"name": "294e0ef9d2c8a31f51ebdbb33e42565d", "lon": -76.9961395, "lat": 38.88645266666666, "type": "electric_scooter", "fusion_lon": 0.0, "is_reserved": 0, "bike_id": "294e0ef9d2c8a31f51ebdbb33e42565d", "fusion_lat": 0.0, "is_disabled": 0, "rental_uris": {"ios": "https://dc.lft.to/lastmile_qr_scan", "android": "https://dc.lft.to/lastmile_qr_scan"}}, {"name": "681fbcc5bd75027aaffccaeea3528673", "lon": -77.02553083333333, "lat": 38.92483716666667, "type": "electric_scooter", "fusion_lon": 0.0, "is_reserved": 0, "bike_id": "681fbcc5bd75027aaffccaeea3528673", "fusion_lat": 0.0, "is_disabled": 0, "rental_uris": {"ios": "https://dc.lft.to/lastmile_qr_scan", "android": "https://dc.lft.to/lastmile_qr_scan"}}, {"name": "15b31382eb8577c4ca5cc88e90a90576", "lon": -76.98304433333334, "lat": 38.905273333333334, "type": "electric_scooter", "fusion_lon": 0.0, "is_reserved": 0, "bike_id": "15b31382eb8577c4ca5cc88e90a90576", "fusion_lat": 0.0, "is_disabled": 0, "rental_uris": {"ios": "https://dc.lft.to/lastmile_qr_scan", "android": "https://dc.lft.to/lastmile_qr_scan"}}, {"name": "11d1895d3e03bf8d445e790052776ed0", "lon": -77.036687, "lat": 38.936437166666664, "type": "electric_scooter", "fusion_lon": 0.0, "is_reserved": 0, "bike_id": "11d1895d3e03bf8d445e790052776ed0", "fusion_lat": 0.0, "is_disabled": 0, "rental_uris": {"ios": "https://dc.lft.to/lastmile_qr_scan", "android": "https://dc.lft.to/lastmile_qr_scan"}}, {"name": "b0ef53a28e1d5231f4df3f7d08a14473", "lon": -77.02584866666666, "lat": 38.92032783333333, "type": "electric_scooter", "fusion_lon": 0.0, "is_reserved": 0, "bike_id": "b0ef53a28e1d5231f4df3f7d08a14473", "fusion_lat": 0.0, "is_disabled": 0, "rental_uris": {"ios": "https://dc.lft.to/lastmile_qr_scan", "android": "https://dc.lft.to/lastmile_qr_scan"}}, {"name": "fa4454847082aa45796ef59eb38570a8", "lon": -77.03833066666667, "lat": 38.911256333333334, "type": "electric_scooter", "fusion_lon": 0.0, "is_reserved": 0, "bike_id": "fa4454847082aa45796ef59eb38570a8", "fusion_lat": 0.0, "is_disabled": 0, "rental_uris": {"ios": "https://dc.lft.to/lastmile_qr_scan", "android": "https://dc.lft.to/lastmile_qr_scan"}}, {"name": "c16de35892dcc70360d72545e8a03850", "lon": -77.00381883333333, "lat": 38.83610083333333, "type": "electric_bike", "fusion_lon": 0.0, "is_reserved": 0, "bike_id": "c16de35892dcc70360d72545e8a03850", "fusion_lat": 0.0, "is_disabled": 0, "rental_uris": {"ios": "https://dc.lft.to/lastmile_qr_scan", "android": "https://dc.lft.to/lastmile_qr_scan"}}, {"name": "0f7cebe7fd04f81c1e8e19161db18651", "lon": -77.01406966666667, "lat": 38.88121066666667, "type": "electric_scooter", "fusion_lon": 0.0, "is_reserved": 0, "bike_id": "0f7cebe7fd04f81c1e8e19161db18651", "fusion_lat": 0.0, "is_disabled": 0, "rental_uris": {"ios": "https://dc.lft.to/lastmile_qr_scan", "android": "https://dc.lft.to/lastmile_qr_scan"}}, {"name": "4a889c4930597c8ada3e97f3ebcf364f", "lon": -77.01438183333333, "lat": 38.91966266666667, "type": "electric_scooter", "fusion_lon": 0.0, "is_reserved": 0, "bike_id": "4a889c4930597c8ada3e97f3ebcf364f", "fusion_lat": 0.0, "is_disabled": 0, "rental_uris": {"ios": "https://dc.lft.to/lastmile_qr_scan", "android": "https://dc.lft.to/lastmile_qr_scan"}}, {"name": "17e446667962beed2e586a5288e89b48", "lon": -77.0413605, "lat": 38.93066016666667, "type": "electric_scooter", "fusion_lon": 0.0, "is_reserved": 0, "bike_id": "17e446667962beed2e586a5288e89b48", "fusion_lat": 0.0, "is_disabled": 0, "rental_uris": {"ios": "https://dc.lft.to/lastmile_qr_scan", "android": "https://dc.lft.to/lastmile_qr_scan"}}, {"name": "0f3dada90b79edf194e8ece202aecf04", "lon": -77.0462635, "lat": 38.919281833333336, "type": "electric_scooter", "fusion_lon": 0.0, "is_reserved": 0, "bike_id": "0f3dada90b79edf194e8ece202aecf04", "fusion_lat": 0.0, "is_disabled": 0, "rental_uris": {"ios": "https://dc.lft.to/lastmile_qr_scan", "android": "https://dc.lft.to/lastmile_qr_scan"}}, {"name": "b2358886354fa54d206c28678240a1e3", "lon": -77.02323466666667, "lat": 38.907342166666666, "type": "electric_scooter", "fusion_lon": 0.0, "is_reserved": 0, "bike_id": "b2358886354fa54d206c28678240a1e3", "fusion_lat": 0.0, "is_disabled": 0, "rental_uris": {"ios": "https://dc.lft.to/lastmile_qr_scan", "android": "https://dc.lft.to/lastmile_qr_scan"}}, {"name": "a7cd0d9054bb158eb0b30286def2c12c", "lon": -76.98219066666667, "lat": 38.901926333333336, "type": "electric_scooter", "fusion_lon": 0.0, "is_reserved": 0, "bike_id": "a7cd0d9054bb158eb0b30286def2c12c", "fusion_lat": 0.0, "is_disabled": 0, "rental_uris": {"ios": "https://dc.lft.to/lastmile_qr_scan", "android": "https://dc.lft.to/lastmile_qr_scan"}}, {"name": "b7103e7e5af3d1fd5a622cad2a0072e4", "lon": -77.02552383333334, "lat": 38.92478766666667, "type": "electric_scooter", "fusion_lon": 0.0, "is_reserved": 0, "bike_id": "b7103e7e5af3d1fd5a622cad2a0072e4", "fusion_lat": 0.0, "is_disabled": 0, "rental_uris": {"ios": "https://dc.lft.to/lastmile_qr_scan", "android": "https://dc.lft.to/lastmile_qr_scan"}}, {"name": "9d0e64a94bd0e0ae8ee3b2f5028e3777", "lon": -77.02512816666666, "lat": 38.93092033333333, "type": "electric_scooter", "fusion_lon": 0.0, "is_reserved": 0, "bike_id": "9d0e64a94bd0e0ae8ee3b2f5028e3777", "fusion_lat": 0.0, "is_disabled": 0, "rental_uris": {"ios": "https://dc.lft.to/lastmile_qr_scan", "android": "https://dc.lft.to/lastmile_qr_scan"}}, {"name": "c5a9c7a97e1661d99ed3de0b7abc7f66", "lon": -77.03214866666667, "lat": 38.89222633333333, "type": "electric_scooter", "fusion_lon": 0.0, "is_reserved": 0, "bike_id": "c5a9c7a97e1661d99ed3de0b7abc7f66", "fusion_lat": 0.0, "is_disabled": 0, "rental_uris": {"ios": "https://dc.lft.to/lastmile_qr_scan", "android": "https://dc.lft.to/lastmile_qr_scan"}}, {"name": "562f2cdeaabdbab733746f1b80ed1aed", "lon": -76.98060716666667, "lat": 38.957053333333334, "type": "electric_bike", "fusion_lon": 0.0, "is_reserved": 0, "bike_id": "562f2cdeaabdbab733746f1b80ed1aed", "fusion_lat": 0.0, "is_disabled": 0, "rental_uris": {"ios": "https://dc.lft.to/lastmile_qr_scan", "android": "https://dc.lft.to/lastmile_qr_scan"}}, {"name": "b34b4e6ef86be0ed7df11ddee09c8551", "lon": -77.03472266666667, "lat": 38.917094166666665, "type": "electric_scooter", "fusion_lon": 0.0, "is_reserved": 0, "bike_id": "b34b4e6ef86be0ed7df11ddee09c8551", "fusion_lat": 0.0, "is_disabled": 0, "rental_uris": {"ios": "https://dc.lft.to/lastmile_qr_scan", "android": "https://dc.lft.to/lastmile_qr_scan"}}, {"name": "c12936e848e2141fe48e1aeb55826f64", "lon": -77.16092433333333, "lat": 38.88685066666667, "type": "electric_bike", "fusion_lon": 0.0, "is_reserved": 0, "bike_id": "c12936e848e2141fe48e1aeb55826f64", "fusion_lat": 0.0, "is_disabled": 0, "rental_uris": {"ios": "https://dc.lft.to/lastmile_qr_scan", "android": "https://dc.lft.to/lastmile_qr_scan"}}, {"name": "cb2bcc24577b96d4d05a09aa4416d7f8", "lon": -77.07915316666667, "lat": 38.80228, "type": "electric_bike", "fusion_lon": 0.0, "is_reserved": 0, "bike_id": "cb2bcc24577b96d4d05a09aa4416d7f8", "fusion_lat": 0.0, "is_disabled": 0, "rental_uris": {"ios": "https://dc.lft.to/lastmile_qr_scan", "android": "https://dc.lft.to/lastmile_qr_scan"}}, {"name": "59510c8244cbd15726df095db73bc99d", "lon": -77.02169983333333, "lat": 38.90561, "type": "electric_scooter", "fusion_lon": 0.0, "is_reserved": 0, "bike_id": "59510c8244cbd15726df095db73bc99d", "fusion_lat": 0.0, "is_disabled": 0, "rental_uris": {"ios": "https://dc.lft.to/lastmile_qr_scan", "android": "https://dc.lft.to/lastmile_qr_scan"}}, {"name": "a1b350b8458bb7b9b25388e74c932e58", "lon": -77.0181745, "lat": 38.92040683333333, "type": "electric_scooter", "fusion_lon": 0.0, "is_reserved": 0, "bike_id": "a1b350b8458bb7b9b25388e74c932e58", "fusion_lat": 0.0, "is_disabled": 0, "rental_uris": {"ios": "https://dc.lft.to/lastmile_qr_scan", "android": "https://dc.lft.to/lastmile_qr_scan"}}, {"name": "de153d61b297aae01f0370393cbf4eb9", "lon": -76.995186, "lat": 38.8837315, "type": "electric_scooter", "fusion_lon": 0.0, "is_reserved": 0, "bike_id": "de153d61b297aae01f0370393cbf4eb9", "fusion_lat": 0.0, "is_disabled": 0, "rental_uris": {"ios": "https://dc.lft.to/lastmile_qr_scan", "android": "https://dc.lft.to/lastmile_qr_scan"}}, {"name": "30a1ae7da19e54b31b08e9baa0801e80", "lon": -77.04007116666666, "lat": 38.925795, "type": "electric_scooter", "fusion_lon": 0.0, "is_reserved": 0, "bike_id": "30a1ae7da19e54b31b08e9baa0801e80", "fusion_lat": 0.0, "is_disabled": 0, "rental_uris": {"ios": "https://dc.lft.to/lastmile_qr_scan", "android": "https://dc.lft.to/lastmile_qr_scan"}}, {"name": "11d3b7e6afd441db67d76c85913befef", "lon": -77.014647, "lat": 38.8765685, "type": "electric_bike", "fusion_lon": 0.0, "is_reserved": 0, "bike_id": "11d3b7e6afd441db67d76c85913befef", "fusion_lat": 0.0, "is_disabled": 0, "rental_uris": {"ios": "https://dc.lft.to/lastmile_qr_scan", "android": "https://dc.lft.to/lastmile_qr_scan"}}, {"name": "7bff731df49adea8394b50f628ccbf82", "lon": -77.02640833333334, "lat": 38.892195, "type": "electric_scooter", "fusion_lon": 0.0, "is_reserved": 0, "bike_id": "7bff731df49adea8394b50f628ccbf82", "fusion_lat": 0.0, "is_disabled": 0, "rental_uris": {"ios": "https://dc.lft.to/lastmile_qr_scan", "android": "https://dc.lft.to/lastmile_qr_scan"}}, {"name": "506e05edd781cb5495a3e87210d0efb6", "lon": -76.9888185, "lat": 38.866573833333334, "type": "electric_scooter", "fusion_lon": 0.0, "is_reserved": 0, "bike_id": "506e05edd781cb5495a3e87210d0efb6", "fusion_lat": 0.0, "is_disabled": 0, "rental_uris": {"ios": "https://dc.lft.to/lastmile_qr_scan", "android": "https://dc.lft.to/lastmile_qr_scan"}}, {"name": "58110bd8a14cd0764bfc808009fe83b1", "lon": -77.02509633333334, "lat": 38.905625666666666, "type": "electric_scooter", "fusion_lon": 0.0, "is_reserved": 0, "bike_id": "58110bd8a14cd0764bfc808009fe83b1", "fusion_lat": 0.0, "is_disabled": 0, "rental_uris": {"ios": "https://dc.lft.to/lastmile_qr_scan", "android": "https://dc.lft.to/lastmile_qr_scan"}}, {"name": "736049a8c650d5cdae67ed03db55d9e9", "lon": -77.01755916666667, "lat": 38.88273016666667, "type": "electric_scooter", "fusion_lon": 0.0, "is_reserved": 0, "bike_id": "736049a8c650d5cdae67ed03db55d9e9", "fusion_lat": 0.0, "is_disabled": 0, "rental_uris": {"ios": "https://dc.lft.to/lastmile_qr_scan", "android": "https://dc.lft.to/lastmile_qr_scan"}}, {"name": "fee38e58c997ee8bc6a019d0c502eedf", "lon": -76.9847765, "lat": 38.910936, "type": "electric_bike", "fusion_lon": 0.0, "is_reserved": 0, "bike_id": "fee38e58c997ee8bc6a019d0c502eedf", "fusion_lat": 0.0, "is_disabled": 0, "rental_uris": {"ios": "https://dc.lft.to/lastmile_qr_scan", "android": "https://dc.lft.to/lastmile_qr_scan"}}, {"name": "473d943f72258b392006b5db13233f36", "lon": -76.98845383333334, "lat": 38.90198, "type": "electric_scooter", "fusion_lon": 0.0, "is_reserved": 0, "bike_id": "473d943f72258b392006b5db13233f36", "fusion_lat": 0.0, "is_disabled": 0, "rental_uris": {"ios": "https://dc.lft.to/lastmile_qr_scan", "android": "https://dc.lft.to/lastmile_qr_scan"}}, {"name": "6eb3b65af7b13aecf28847c100350c42", "lon": -77.0259735, "lat": 38.916914, "type": "electric_scooter", "fusion_lon": 0.0, "is_reserved": 0, "bike_id": "6eb3b65af7b13aecf28847c100350c42", "fusion_lat": 0.0, "is_disabled": 0, "rental_uris": {"ios": "https://dc.lft.to/lastmile_qr_scan", "android": "https://dc.lft.to/lastmile_qr_scan"}}, {"name": "a1e4b71792d22ed207d4832370e0489d", "lon": -77.03328866666666, "lat": 38.89845416666667, "type": "electric_scooter", "fusion_lon": 0.0, "is_reserved": 0, "bike_id": "a1e4b71792d22ed207d4832370e0489d", "fusion_lat": 0.0, "is_disabled": 0, "rental_uris": {"ios": "https://dc.lft.to/lastmile_qr_scan", "android": "https://dc.lft.to/lastmile_qr_scan"}}, {"name": "4730ff2dece48665ac2dd06b7e62afee", "lon": -77.03288766666667, "lat": 38.920691833333336, "type": "electric_scooter", "fusion_lon": 0.0, "is_reserved": 0, "bike_id": "4730ff2dece48665ac2dd06b7e62afee", "fusion_lat": 0.0, "is_disabled": 0, "rental_uris": {"ios": "https://dc.lft.to/lastmile_qr_scan", "android": "https://dc.lft.to/lastmile_qr_scan"}}, {"name": "d8713476391cbb83c1786c63602b2a4b", "lon": -77.02434616666666, "lat": 38.909638, "type": "electric_scooter", "fusion_lon": 0.0, "is_reserved": 0, "bike_id": "d8713476391cbb83c1786c63602b2a4b", "fusion_lat": 0.0, "is_disabled": 0, "rental_uris": {"ios": "https://dc.lft.to/lastmile_qr_scan", "android": "https://dc.lft.to/lastmile_qr_scan"}}, {"name": "a39334a2746bdffeff77fbed405e89ad", "lon": -77.03046116666667, "lat": 38.91335616666667, "type": "electric_scooter", "fusion_lon": 0.0, "is_reserved": 0, "bike_id": "a39334a2746bdffeff77fbed405e89ad", "fusion_lat": 0.0, "is_disabled": 0, "rental_uris": {"ios": "https://dc.lft.to/lastmile_qr_scan", "android": "https://dc.lft.to/lastmile_qr_scan"}}, {"name": "48095655cf7b98bed796c75d16e3d413", "lon": -77.0244895, "lat": 38.924041333333335, "type": "electric_scooter", "fusion_lon": 0.0, "is_reserved": 0, "bike_id": "48095655cf7b98bed796c75d16e3d413", "fusion_lat": 0.0, "is_disabled": 0, "rental_uris": {"ios": "https://dc.lft.to/lastmile_qr_scan", "android": "https://dc.lft.to/lastmile_qr_scan"}}, {"name": "287899569d9f7f4ad869c8cba0295532", "lon": -76.98601683333334, "lat": 38.9062385, "type": "electric_bike", "fusion_lon": 0.0, "is_reserved": 0, "bike_id": "287899569d9f7f4ad869c8cba0295532", "fusion_lat": 0.0, "is_disabled": 0, "rental_uris": {"ios": "https://dc.lft.to/lastmile_qr_scan", "android": "https://dc.lft.to/lastmile_qr_scan"}}, {"name": "881dc00438625f24c776e0040d1a7f51", "lon": -77.0337835, "lat": 38.903954, "type": "electric_scooter", "fusion_lon": 0.0, "is_reserved": 0, "bike_id": "881dc00438625f24c776e0040d1a7f51", "fusion_lat": 0.0, "is_disabled": 0, "rental_uris": {"ios": "https://dc.lft.to/lastmile_qr_scan", "android": "https://dc.lft.to/lastmile_qr_scan"}}, {"name": "724ad1dd376d5038e2155d79f0778555", "lon": -77.02776, "lat": 38.939620833333336, "type": "electric_scooter", "fusion_lon": 0.0, "is_reserved": 0, "bike_id": "724ad1dd376d5038e2155d79f0778555", "fusion_lat": 0.0, "is_disabled": 0, "rental_uris": {"ios": "https://dc.lft.to/lastmile_qr_scan", "android": "https://dc.lft.to/lastmile_qr_scan"}}, {"name": "87a553c379545cbe4952cb94674fcf01", "lon": -76.98275666666666, "lat": 38.8853055, "type": "electric_scooter", "fusion_lon": 0.0, "is_reserved": 0, "bike_id": "87a553c379545cbe4952cb94674fcf01", "fusion_lat": 0.0, "is_disabled": 0, "rental_uris": {"ios": "https://dc.lft.to/lastmile_qr_scan", "android": "https://dc.lft.to/lastmile_qr_scan"}}, {"name": "b971eb981a7eaf62568983abe36c5823", "lon": -76.99839883333334, "lat": 38.8907755, "type": "electric_scooter", "fusion_lon": 0.0, "is_reserved": 0, "bike_id": "b971eb981a7eaf62568983abe36c5823", "fusion_lat": 0.0, "is_disabled": 0, "rental_uris": {"ios": "https://dc.lft.to/lastmile_qr_scan", "android": "https://dc.lft.to/lastmile_qr_scan"}}, {"name": "dfd99a6acf8e89ed842caffb3afe6dc2", "lon": -77.0456105, "lat": 38.9410395, "type": "electric_scooter", "fusion_lon": 0.0, "is_reserved": 0, "bike_id": "dfd99a6acf8e89ed842caffb3afe6dc2", "fusion_lat": 0.0, "is_disabled": 0, "rental_uris": {"ios": "https://dc.lft.to/lastmile_qr_scan", "android": "https://dc.lft.to/lastmile_qr_scan"}}, {"name": "e9cd6b39b212c1af628168fa70e1a5ea", "lon": -77.04619883333334, "lat": 38.91934116666667, "type": "electric_scooter", "fusion_lon": 0.0, "is_reserved": 0, "bike_id": "e9cd6b39b212c1af628168fa70e1a5ea", "fusion_lat": 0.0, "is_disabled": 0, "rental_uris": {"ios": "https://dc.lft.to/lastmile_qr_scan", "android": "https://dc.lft.to/lastmile_qr_scan"}}, {"name": "73bf760cba3a92ec0b80232b876ef22b", "lon": -77.03448216666666, "lat": 38.907372333333335, "type": "electric_scooter", "fusion_lon": 0.0, "is_reserved": 0, "bike_id": "73bf760cba3a92ec0b80232b876ef22b", "fusion_lat": 0.0, "is_disabled": 0, "rental_uris": {"ios": "https://dc.lft.to/lastmile_qr_scan", "android": "https://dc.lft.to/lastmile_qr_scan"}}, {"name": "57fc329c7f62b9949b54cf3443c2d215", "lon": -77.03837066666667, "lat": 38.90718616666667, "type": "electric_scooter", "fusion_lon": 0.0, "is_reserved": 0, "bike_id": "57fc329c7f62b9949b54cf3443c2d215", "fusion_lat": 0.0, "is_disabled": 0, "rental_uris": {"ios": "https://dc.lft.to/lastmile_qr_scan", "android": "https://dc.lft.to/lastmile_qr_scan"}}, {"name": "f4e359b8995db4515c38b9c6b6123bf9", "lon": -77.02333133333333, "lat": 38.92616266666667, "type": "electric_scooter", "fusion_lon": 0.0, "is_reserved": 0, "bike_id": "f4e359b8995db4515c38b9c6b6123bf9", "fusion_lat": 0.0, "is_disabled": 0, "rental_uris": {"ios": "https://dc.lft.to/lastmile_qr_scan", "android": "https://dc.lft.to/lastmile_qr_scan"}}, {"name": "04068bceebf6311ac04e391fe56240b2", "lon": -77.06102633333333, "lat": 38.937014833333336, "type": "electric_scooter", "fusion_lon": 0.0, "is_reserved": 0, "bike_id": "04068bceebf6311ac04e391fe56240b2", "fusion_lat": 0.0, "is_disabled": 0, "rental_uris": {"ios": "https://dc.lft.to/lastmile_qr_scan", "android": "https://dc.lft.to/lastmile_qr_scan"}}, {"name": "2126b9faa8b00183ed4cfc99d215eae7", "lon": -77.04788233333333, "lat": 38.893705833333335, "type": "electric_scooter", "fusion_lon": 0.0, "is_reserved": 0, "bike_id": "2126b9faa8b00183ed4cfc99d215eae7", "fusion_lat": 0.0, "is_disabled": 0, "rental_uris": {"ios": "https://dc.lft.to/lastmile_qr_scan", "android": "https://dc.lft.to/lastmile_qr_scan"}}, {"name": "9126168d368bf6f601ef6c241eff2f00", "lon": -77.07148816666667, "lat": 38.94563016666667, "type": "electric_scooter", "fusion_lon": 0.0, "is_reserved": 0, "bike_id": "9126168d368bf6f601ef6c241eff2f00", "fusion_lat": 0.0, "is_disabled": 0, "rental_uris": {"ios": "https://dc.lft.to/lastmile_qr_scan", "android": "https://dc.lft.to/lastmile_qr_scan"}}, {"name": "f30933b2b38e1402f09f52c6bb193f59", "lon": -77.02175683333333, "lat": 38.942933, "type": "electric_scooter", "fusion_lon": 0.0, "is_reserved": 0, "bike_id": "f30933b2b38e1402f09f52c6bb193f59", "fusion_lat": 0.0, "is_disabled": 0, "rental_uris": {"ios": "https://dc.lft.to/lastmile_qr_scan", "android": "https://dc.lft.to/lastmile_qr_scan"}}, {"name": "f66e92c6b6fa8604deaaa63b4870e129", "lon": -76.9797295, "lat": 38.95375116666666, "type": "electric_bike", "fusion_lon": 0.0, "is_reserved": 0, "bike_id": "f66e92c6b6fa8604deaaa63b4870e129", "fusion_lat": 0.0, "is_disabled": 0, "rental_uris": {"ios": "https://dc.lft.to/lastmile_qr_scan", "android": "https://dc.lft.to/lastmile_qr_scan"}}, {"name": "c06eea878bca71c5a0c2ad22121b6515", "lon": -77.02631283333334, "lat": 38.962299333333334, "type": "electric_bike", "fusion_lon": 0.0, "is_reserved": 0, "bike_id": "c06eea878bca71c5a0c2ad22121b6515", "fusion_lat": 0.0, "is_disabled": 0, "rental_uris": {"ios": "https://dc.lft.to/lastmile_qr_scan", "android": "https://dc.lft.to/lastmile_qr_scan"}}, {"name": "6921d15f7069843bbd7e1b4264aa6ff0", "lon": -77.016072, "lat": 38.899661, "type": "electric_scooter", "fusion_lon": 0.0, "is_reserved": 0, "bike_id": "6921d15f7069843bbd7e1b4264aa6ff0", "fusion_lat": 0.0, "is_disabled": 0, "rental_uris": {"ios": "https://dc.lft.to/lastmile_qr_scan", "android": "https://dc.lft.to/lastmile_qr_scan"}}, {"name": "164c9012888e5660b626d4b8f7d511e6", "lon": -77.034401, "lat": 38.918126, "type": "electric_scooter", "fusion_lon": 0.0, "is_reserved": 0, "bike_id": "164c9012888e5660b626d4b8f7d511e6", "fusion_lat": 0.0, "is_disabled": 0, "rental_uris": {"ios": "https://dc.lft.to/lastmile_qr_scan", "android": "https://dc.lft.to/lastmile_qr_scan"}}, {"name": "cb3945699363239056ae637a98e9a109", "lon": -77.04393266666666, "lat": 38.914047833333335, "type": "electric_scooter", "fusion_lon": 0.0, "is_reserved": 0, "bike_id": "cb3945699363239056ae637a98e9a109", "fusion_lat": 0.0, "is_disabled": 0, "rental_uris": {"ios": "https://dc.lft.to/lastmile_qr_scan", "android": "https://dc.lft.to/lastmile_qr_scan"}}, {"name": "a8a3440c5111ee8df68bb7a6506164f9", "lon": -77.077306, "lat": 38.9226515, "type": "electric_bike", "fusion_lon": 0.0, "is_reserved": 0, "bike_id": "a8a3440c5111ee8df68bb7a6506164f9", "fusion_lat": 0.0, "is_disabled": 0, "rental_uris": {"ios": "https://dc.lft.to/lastmile_qr_scan", "android": "https://dc.lft.to/lastmile_qr_scan"}}, {"name": "9c6dcbf5d727457d282b29b8f0ec2b6e", "lon": -77.01744116666667, "lat": 38.90263483333333, "type": "electric_scooter", "fusion_lon": 0.0, "is_reserved": 0, "bike_id": "9c6dcbf5d727457d282b29b8f0ec2b6e", "fusion_lat": 0.0, "is_disabled": 0, "rental_uris": {"ios": "https://dc.lft.to/lastmile_qr_scan", "android": "https://dc.lft.to/lastmile_qr_scan"}}, {"name": "13e87d2557877c0f5a6fbc45bdc7937a", "lon": -77.0327055, "lat": 38.92747116666666, "type": "electric_scooter", "fusion_lon": 0.0, "is_reserved": 0, "bike_id": "13e87d2557877c0f5a6fbc45bdc7937a", "fusion_lat": 0.0, "is_disabled": 0, "rental_uris": {"ios": "https://dc.lft.to/lastmile_qr_scan", "android": "https://dc.lft.to/lastmile_qr_scan"}}, {"name": "cfc7d8be42ac6efa83ced25b96d06012", "lon": -76.96530333333334, "lat": 38.876225166666664, "type": "electric_scooter", "fusion_lon": 0.0, "is_reserved": 0, "bike_id": "cfc7d8be42ac6efa83ced25b96d06012", "fusion_lat": 0.0, "is_disabled": 0, "rental_uris": {"ios": "https://dc.lft.to/lastmile_qr_scan", "android": "https://dc.lft.to/lastmile_qr_scan"}}, {"name": "fb3511b8f90532ff0188b5e7bf49094b", "lon": -77.02765066666667, "lat": 38.95428916666667, "type": "electric_scooter", "fusion_lon": 0.0, "is_reserved": 0, "bike_id": "fb3511b8f90532ff0188b5e7bf49094b", "fusion_lat": 0.0, "is_disabled": 0, "rental_uris": {"ios": "https://dc.lft.to/lastmile_qr_scan", "android": "https://dc.lft.to/lastmile_qr_scan"}}, {"name": "9624a48825237b6d3e8c8514e3bc4bca", "lon": -76.93143383333333, "lat": 38.89335783333333, "type": "electric_scooter", "fusion_lon": 0.0, "is_reserved": 0, "bike_id": "9624a48825237b6d3e8c8514e3bc4bca", "fusion_lat": 0.0, "is_disabled": 0, "rental_uris": {"ios": "https://dc.lft.to/lastmile_qr_scan", "android": "https://dc.lft.to/lastmile_qr_scan"}}, {"name": "3be7a76d37bd7e123e1ae862fd1fe32a", "lon": -77.02688733333333, "lat": 38.904094666666666, "type": "electric_scooter", "fusion_lon": 0.0, "is_reserved": 0, "bike_id": "3be7a76d37bd7e123e1ae862fd1fe32a", "fusion_lat": 0.0, "is_disabled": 0, "rental_uris": {"ios": "https://dc.lft.to/lastmile_qr_scan", "android": "https://dc.lft.to/lastmile_qr_scan"}}, {"name": "96c18ac030ea3b9f25dbeb44f6e17e83", "lon": -77.02824933333333, "lat": 38.899502, "type": "electric_scooter", "fusion_lon": 0.0, "is_reserved": 0, "bike_id": "96c18ac030ea3b9f25dbeb44f6e17e83", "fusion_lat": 0.0, "is_disabled": 0, "rental_uris": {"ios": "https://dc.lft.to/lastmile_qr_scan", "android": "https://dc.lft.to/lastmile_qr_scan"}}, {"name": "82f467b3039488f3b207e67324e4a5bb", "lon": -76.98701366666667, "lat": 38.86245983333333, "type": "electric_scooter", "fusion_lon": 0.0, "is_reserved": 0, "bike_id": "82f467b3039488f3b207e67324e4a5bb", "fusion_lat": 0.0, "is_disabled": 0, "rental_uris": {"ios": "https://dc.lft.to/lastmile_qr_scan", "android": "https://dc.lft.to/lastmile_qr_scan"}}, {"name": "a1231560899d126ec816f54cb2b7f879", "lon": -77.00275933333333, "lat": 38.91176266666667, "type": "electric_bike", "fusion_lon": 0.0, "is_reserved": 0, "bike_id": "a1231560899d126ec816f54cb2b7f879", "fusion_lat": 0.0, "is_disabled": 0, "rental_uris": {"ios": "https://dc.lft.to/lastmile_qr_scan", "android": "https://dc.lft.to/lastmile_qr_scan"}}, {"name": "45598e3f438d623162529f0d8d246e9c", "lon": -77.02280983333333, "lat": 38.9096465, "type": "electric_scooter", "fusion_lon": 0.0, "is_reserved": 0, "bike_id": "45598e3f438d623162529f0d8d246e9c", "fusion_lat": 0.0, "is_disabled": 0, "rental_uris": {"ios": "https://dc.lft.to/lastmile_qr_scan", "android": "https://dc.lft.to/lastmile_qr_scan"}}, {"name": "2b350d64def282df315f40586e76aa51", "lon": -77.05859083333333, "lat": 38.936099, "type": "electric_scooter", "fusion_lon": 0.0, "is_reserved": 0, "bike_id": "2b350d64def282df315f40586e76aa51", "fusion_lat": 0.0, "is_disabled": 0, "rental_uris": {"ios": "https://dc.lft.to/lastmile_qr_scan", "android": "https://dc.lft.to/lastmile_qr_scan"}}, {"name": "04e969e9cfb3474375ed454480172765", "lon": -77.00205866666667, "lat": 38.895444166666664, "type": "electric_scooter", "fusion_lon": 0.0, "is_reserved": 0, "bike_id": "04e969e9cfb3474375ed454480172765", "fusion_lat": 0.0, "is_disabled": 0, "rental_uris": {"ios": "https://dc.lft.to/lastmile_qr_scan", "android": "https://dc.lft.to/lastmile_qr_scan"}}, {"name": "4c5dd5d1831d1292cb18520a11f61313", "lon": -77.02980566666666, "lat": 38.936979, "type": "electric_bike", "fusion_lon": 0.0, "is_reserved": 0, "bike_id": "4c5dd5d1831d1292cb18520a11f61313", "fusion_lat": 0.0, "is_disabled": 0, "rental_uris": {"ios": "https://dc.lft.to/lastmile_qr_scan", "android": "https://dc.lft.to/lastmile_qr_scan"}}, {"name": "c22d6640b4ac35d89d4d57feb1aa03f9", "lon": -76.99363433333333, "lat": 38.92839433333333, "type": "electric_scooter", "fusion_lon": 0.0, "is_reserved": 0, "bike_id": "c22d6640b4ac35d89d4d57feb1aa03f9", "fusion_lat": 0.0, "is_disabled": 0, "rental_uris": {"ios": "https://dc.lft.to/lastmile_qr_scan", "android": "https://dc.lft.to/lastmile_qr_scan"}}, {"name": "06b0cba2e11541e68844c3bfff9676d9", "lon": -77.02975166666667, "lat": 38.92192083333333, "type": "electric_scooter", "fusion_lon": 0.0, "is_reserved": 0, "bike_id": "06b0cba2e11541e68844c3bfff9676d9", "fusion_lat": 0.0, "is_disabled": 0, "rental_uris": {"ios": "https://dc.lft.to/lastmile_qr_scan", "android": "https://dc.lft.to/lastmile_qr_scan"}}, {"name": "1930b8183afc4235c68b2b1ec90872ae", "lon": -77.04331133333334, "lat": 38.89227483333333, "type": "electric_scooter", "fusion_lon": 0.0, "is_reserved": 0, "bike_id": "1930b8183afc4235c68b2b1ec90872ae", "fusion_lat": 0.0, "is_disabled": 0, "rental_uris": {"ios": "https://dc.lft.to/lastmile_qr_scan", "android": "https://dc.lft.to/lastmile_qr_scan"}}, {"name": "0857635e1fba18320ce333ec46a7bcf4", "lon": -77.03837916666667, "lat": 38.907178, "type": "electric_scooter", "fusion_lon": 0.0, "is_reserved": 0, "bike_id": "0857635e1fba18320ce333ec46a7bcf4", "fusion_lat": 0.0, "is_disabled": 0, "rental_uris": {"ios": "https://dc.lft.to/lastmile_qr_scan", "android": "https://dc.lft.to/lastmile_qr_scan"}}, {"name": "1e1837c7a85074afea7006882cdeb623", "lon": -77.03449966666666, "lat": 38.9214525, "type": "electric_scooter", "fusion_lon": 0.0, "is_reserved": 0, "bike_id": "1e1837c7a85074afea7006882cdeb623", "fusion_lat": 0.0, "is_disabled": 0, "rental_uris": {"ios": "https://dc.lft.to/lastmile_qr_scan", "android": "https://dc.lft.to/lastmile_qr_scan"}}, {"name": "282113950bf22b9473be069b6b21eb43", "lon": -77.03323233333333, "lat": 38.921702, "type": "electric_scooter", "fusion_lon": 0.0, "is_reserved": 0, "bike_id": "282113950bf22b9473be069b6b21eb43", "fusion_lat": 0.0, "is_disabled": 0, "rental_uris": {"ios": "https://dc.lft.to/lastmile_qr_scan", "android": "https://dc.lft.to/lastmile_qr_scan"}}, {"name": "53ad1800691d3ff026d756385602c4c1", "lon": -77.0492565, "lat": 39.02934483333333, "type": "electric_bike", "fusion_lon": 0.0, "is_reserved": 0, "bike_id": "53ad1800691d3ff026d756385602c4c1", "fusion_lat": 0.0, "is_disabled": 0, "rental_uris": {"ios": "https://dc.lft.to/lastmile_qr_scan", "android": "https://dc.lft.to/lastmile_qr_scan"}}, {"name": "0ad2e0e08b291026fba4c0b72f6b7834", "lon": -77.04423233333333, "lat": 38.921270666666665, "type": "electric_scooter", "fusion_lon": 0.0, "is_reserved": 0, "bike_id": "0ad2e0e08b291026fba4c0b72f6b7834", "fusion_lat": 0.0, "is_disabled": 0, "rental_uris": {"ios": "https://dc.lft.to/lastmile_qr_scan", "android": "https://dc.lft.to/lastmile_qr_scan"}}, {"name": "ea86a12f54fb54fc49b296308dda117d", "lon": -77.02727683333333, "lat": 38.915654333333336, "type": "electric_scooter", "fusion_lon": 0.0, "is_reserved": 0, "bike_id": "ea86a12f54fb54fc49b296308dda117d", "fusion_lat": 0.0, "is_disabled": 0, "rental_uris": {"ios": "https://dc.lft.to/lastmile_qr_scan", "android": "https://dc.lft.to/lastmile_qr_scan"}}, {"name": "6584170db9ca23c8b6821e689457af90", "lon": -76.99453116666666, "lat": 38.908252, "type": "electric_scooter", "fusion_lon": 0.0, "is_reserved": 0, "bike_id": "6584170db9ca23c8b6821e689457af90", "fusion_lat": 0.0, "is_disabled": 0, "rental_uris": {"ios": "https://dc.lft.to/lastmile_qr_scan", "android": "https://dc.lft.to/lastmile_qr_scan"}}, {"name": "9fcfc6c186f2badcfe86e7cb313e2a77", "lon": -77.03033533333333, "lat": 38.93119383333333, "type": "electric_scooter", "fusion_lon": 0.0, "is_reserved": 0, "bike_id": "9fcfc6c186f2badcfe86e7cb313e2a77", "fusion_lat": 0.0, "is_disabled": 0, "rental_uris": {"ios": "https://dc.lft.to/lastmile_qr_scan", "android": "https://dc.lft.to/lastmile_qr_scan"}}, {"name": "46f75d4006e99da87a06eba36a68a453", "lon": -76.98156366666667, "lat": 38.92262, "type": "electric_bike", "fusion_lon": 0.0, "is_reserved": 0, "bike_id": "46f75d4006e99da87a06eba36a68a453", "fusion_lat": 0.0, "is_disabled": 0, "rental_uris": {"ios": "https://dc.lft.to/lastmile_qr_scan", "android": "https://dc.lft.to/lastmile_qr_scan"}}, {"name": "33b9b2dd176d021698747e1fe54a6b05", "lon": -76.997988, "lat": 38.908507, "type": "electric_scooter", "fusion_lon": 0.0, "is_reserved": 0, "bike_id": "33b9b2dd176d021698747e1fe54a6b05", "fusion_lat": 0.0, "is_disabled": 0, "rental_uris": {"ios": "https://dc.lft.to/lastmile_qr_scan", "android": "https://dc.lft.to/lastmile_qr_scan"}}, {"name": "9a7cdbb67e13e00d23c473f6fe573227", "lon": -77.03993433333333, "lat": 38.91416816666667, "type": "electric_scooter", "fusion_lon": 0.0, "is_reserved": 0, "bike_id": "9a7cdbb67e13e00d23c473f6fe573227", "fusion_lat": 0.0, "is_disabled": 0, "rental_uris": {"ios": "https://dc.lft.to/lastmile_qr_scan", "android": "https://dc.lft.to/lastmile_qr_scan"}}, {"name": "a448d3428aee0774265cfb8d579116f9", "lon": -77.03015316666666, "lat": 38.905095, "type": "electric_scooter", "fusion_lon": 0.0, "is_reserved": 0, "bike_id": "a448d3428aee0774265cfb8d579116f9", "fusion_lat": 0.0, "is_disabled": 0, "rental_uris": {"ios": "https://dc.lft.to/lastmile_qr_scan", "android": "https://dc.lft.to/lastmile_qr_scan"}}, {"name": "f7596f14be0f28f7696d1e5b8729a262", "lon": -77.04337916666667, "lat": 38.89525866666666, "type": "electric_scooter", "fusion_lon": 0.0, "is_reserved": 0, "bike_id": "f7596f14be0f28f7696d1e5b8729a262", "fusion_lat": 0.0, "is_disabled": 0, "rental_uris": {"ios": "https://dc.lft.to/lastmile_qr_scan", "android": "https://dc.lft.to/lastmile_qr_scan"}}, {"name": "cdea02167e50e67a9618bcbd764af044", "lon": -77.01600333333333, "lat": 38.917126333333336, "type": "electric_scooter", "fusion_lon": 0.0, "is_reserved": 0, "bike_id": "cdea02167e50e67a9618bcbd764af044", "fusion_lat": 0.0, "is_disabled": 0, "rental_uris": {"ios": "https://dc.lft.to/lastmile_qr_scan", "android": "https://dc.lft.to/lastmile_qr_scan"}}, {"name": "4bb542ad647e9e9be39f8e72dd165101", "lon": -77.0769785, "lat": 38.84092016666666, "type": "electric_bike", "fusion_lon": 0.0, "is_reserved": 0, "bike_id": "4bb542ad647e9e9be39f8e72dd165101", "fusion_lat": 0.0, "is_disabled": 0, "rental_uris": {"ios": "https://dc.lft.to/lastmile_qr_scan", "android": "https://dc.lft.to/lastmile_qr_scan"}}, {"name": "ba8ae6da1ca25d36af246f938cd3d6e3", "lon": -77.04174516666667, "lat": 38.917324, "type": "electric_scooter", "fusion_lon": 0.0, "is_reserved": 0, "bike_id": "ba8ae6da1ca25d36af246f938cd3d6e3", "fusion_lat": 0.0, "is_disabled": 0, "rental_uris": {"ios": "https://dc.lft.to/lastmile_qr_scan", "android": "https://dc.lft.to/lastmile_qr_scan"}}, {"name": "d33eec56321541a134f4f4140c95a70d", "lon": -77.00454366666666, "lat": 38.9207875, "type": "electric_scooter", "fusion_lon": 0.0, "is_reserved": 0, "bike_id": "d33eec56321541a134f4f4140c95a70d", "fusion_lat": 0.0, "is_disabled": 0, "rental_uris": {"ios": "https://dc.lft.to/lastmile_qr_scan", "android": "https://dc.lft.to/lastmile_qr_scan"}}, {"name": "9cb1adcc7816293a26c6b86672c02980", "lon": -77.0296265, "lat": 38.923340833333334, "type": "electric_scooter", "fusion_lon": 0.0, "is_reserved": 0, "bike_id": "9cb1adcc7816293a26c6b86672c02980", "fusion_lat": 0.0, "is_disabled": 0, "rental_uris": {"ios": "https://dc.lft.to/lastmile_qr_scan", "android": "https://dc.lft.to/lastmile_qr_scan"}}, {"name": "154e2a84f03d5490d4f75a0a6e9cd9c0", "lon": -77.0460355, "lat": 38.917290666666666, "type": "electric_scooter", "fusion_lon": 0.0, "is_reserved": 0, "bike_id": "154e2a84f03d5490d4f75a0a6e9cd9c0", "fusion_lat": 0.0, "is_disabled": 0, "rental_uris": {"ios": "https://dc.lft.to/lastmile_qr_scan", "android": "https://dc.lft.to/lastmile_qr_scan"}}, {"name": "f973f93e1f579ce43de51f9956320a38", "lon": -77.04328333333333, "lat": 38.89226633333333, "type": "electric_scooter", "fusion_lon": 0.0, "is_reserved": 0, "bike_id": "f973f93e1f579ce43de51f9956320a38", "fusion_lat": 0.0, "is_disabled": 0, "rental_uris": {"ios": "https://dc.lft.to/lastmile_qr_scan", "android": "https://dc.lft.to/lastmile_qr_scan"}}, {"name": "005b740dd653066dea1cc296b214364b", "lon": -77.01192716666667, "lat": 38.900317, "type": "electric_scooter", "fusion_lon": 0.0, "is_reserved": 0, "bike_id": "005b740dd653066dea1cc296b214364b", "fusion_lat": 0.0, "is_disabled": 0, "rental_uris": {"ios": "https://dc.lft.to/lastmile_qr_scan", "android": "https://dc.lft.to/lastmile_qr_scan"}}, {"name": "74321d6a83b8cd24159bc1347c5b8602", "lon": -77.00068816666666, "lat": 38.916102333333335, "type": "electric_scooter", "fusion_lon": 0.0, "is_reserved": 0, "bike_id": "74321d6a83b8cd24159bc1347c5b8602", "fusion_lat": 0.0, "is_disabled": 0, "rental_uris": {"ios": "https://dc.lft.to/lastmile_qr_scan", "android": "https://dc.lft.to/lastmile_qr_scan"}}, {"name": "9ca2a6d2b50739c83f87202cbdbabda0", "lon": -77.01526866666667, "lat": 38.884146333333334, "type": "electric_scooter", "fusion_lon": 0.0, "is_reserved": 0, "bike_id": "9ca2a6d2b50739c83f87202cbdbabda0", "fusion_lat": 0.0, "is_disabled": 0, "rental_uris": {"ios": "https://dc.lft.to/lastmile_qr_scan", "android": "https://dc.lft.to/lastmile_qr_scan"}}, {"name": "10eb544d1e1bc7429dd2aeea67119ebb", "lon": -77.020365, "lat": 38.892785333333336, "type": "electric_scooter", "fusion_lon": 0.0, "is_reserved": 0, "bike_id": "10eb544d1e1bc7429dd2aeea67119ebb", "fusion_lat": 0.0, "is_disabled": 0, "rental_uris": {"ios": "https://dc.lft.to/lastmile_qr_scan", "android": "https://dc.lft.to/lastmile_qr_scan"}}, {"name": "d03fb90b87271a03b82368cadd30bbd6", "lon": -77.02968416666667, "lat": 38.90516866666667, "type": "electric_scooter", "fusion_lon": 0.0, "is_reserved": 0, "bike_id": "d03fb90b87271a03b82368cadd30bbd6", "fusion_lat": 0.0, "is_disabled": 0, "rental_uris": {"ios": "https://dc.lft.to/lastmile_qr_scan", "android": "https://dc.lft.to/lastmile_qr_scan"}}, {"name": "c1403e4124289c83044ddf348af4c307", "lon": -77.02166633333333, "lat": 38.902007833333336, "type": "electric_scooter", "fusion_lon": 0.0, "is_reserved": 0, "bike_id": "c1403e4124289c83044ddf348af4c307", "fusion_lat": 0.0, "is_disabled": 0, "rental_uris": {"ios": "https://dc.lft.to/lastmile_qr_scan", "android": "https://dc.lft.to/lastmile_qr_scan"}}, {"name": "dfdd52140d7fd29c33514d48d062c2b1", "lon": -77.02949116666667, "lat": 38.90535416666667, "type": "electric_scooter", "fusion_lon": 0.0, "is_reserved": 0, "bike_id": "dfdd52140d7fd29c33514d48d062c2b1", "fusion_lat": 0.0, "is_disabled": 0, "rental_uris": {"ios": "https://dc.lft.to/lastmile_qr_scan", "android": "https://dc.lft.to/lastmile_qr_scan"}}, {"name": "e929c1df16174af904d58cfa477f5809", "lon": -77.03308116666666, "lat": 38.956383333333335, "type": "electric_scooter", "fusion_lon": 0.0, "is_reserved": 0, "bike_id": "e929c1df16174af904d58cfa477f5809", "fusion_lat": 0.0, "is_disabled": 0, "rental_uris": {"ios": "https://dc.lft.to/lastmile_qr_scan", "android": "https://dc.lft.to/lastmile_qr_scan"}}, {"name": "7aeed9f1f70f003c2751328f402ef189", "lon": -76.92532766666666, "lat": 38.95927566666667, "type": "electric_bike", "fusion_lon": 0.0, "is_reserved": 0, "bike_id": "7aeed9f1f70f003c2751328f402ef189", "fusion_lat": 0.0, "is_disabled": 0, "rental_uris": {"ios": "https://dc.lft.to/lastmile_qr_scan", "android": "https://dc.lft.to/lastmile_qr_scan"}}, {"name": "fc837f416de3b286120d57d4b46066df", "lon": -76.98991083333334, "lat": 38.8638835, "type": "electric_bike", "fusion_lon": 0.0, "is_reserved": 0, "bike_id": "fc837f416de3b286120d57d4b46066df", "fusion_lat": 0.0, "is_disabled": 0, "rental_uris": {"ios": "https://dc.lft.to/lastmile_qr_scan", "android": "https://dc.lft.to/lastmile_qr_scan"}}, {"name": "779d0ea0134f53328e97b994ac601fe7", "lon": -77.02978583333334, "lat": 38.916771, "type": "electric_scooter", "fusion_lon": 0.0, "is_reserved": 0, "bike_id": "779d0ea0134f53328e97b994ac601fe7", "fusion_lat": 0.0, "is_disabled": 0, "rental_uris": {"ios": "https://dc.lft.to/lastmile_qr_scan", "android": "https://dc.lft.to/lastmile_qr_scan"}}, {"name": "657b005d74ae1c0c1f91dd32be5add1b", "lon": -76.99089383333333, "lat": 38.86238066666667, "type": "electric_bike", "fusion_lon": 0.0, "is_reserved": 0, "bike_id": "657b005d74ae1c0c1f91dd32be5add1b", "fusion_lat": 0.0, "is_disabled": 0, "rental_uris": {"ios": "https://dc.lft.to/lastmile_qr_scan", "android": "https://dc.lft.to/lastmile_qr_scan"}}, {"name": "ac0b85af216033322b9d2942b3b1bc02", "lon": -77.0276465, "lat": 38.954279666666665, "type": "electric_scooter", "fusion_lon": 0.0, "is_reserved": 0, "bike_id": "ac0b85af216033322b9d2942b3b1bc02", "fusion_lat": 0.0, "is_disabled": 0, "rental_uris": {"ios": "https://dc.lft.to/lastmile_qr_scan", "android": "https://dc.lft.to/lastmile_qr_scan"}}, {"name": "ff247e952ac4671852fbedfd5dd3ccc7", "lon": -77.02826933333333, "lat": 38.88736766666667, "type": "electric_scooter", "fusion_lon": 0.0, "is_reserved": 0, "bike_id": "ff247e952ac4671852fbedfd5dd3ccc7", "fusion_lat": 0.0, "is_disabled": 0, "rental_uris": {"ios": "https://dc.lft.to/lastmile_qr_scan", "android": "https://dc.lft.to/lastmile_qr_scan"}}, {"name": "02a237d8dfc82b7ef01741c91242dbce", "lon": -77.05867966666666, "lat": 38.936062166666666, "type": "electric_scooter", "fusion_lon": 0.0, "is_reserved": 0, "bike_id": "02a237d8dfc82b7ef01741c91242dbce", "fusion_lat": 0.0, "is_disabled": 0, "rental_uris": {"ios": "https://dc.lft.to/lastmile_qr_scan", "android": "https://dc.lft.to/lastmile_qr_scan"}}, {"name": "b0addb2f116572b448255833c047704e", "lon": -77.04624133333333, "lat": 38.90280716666667, "type": "electric_scooter", "fusion_lon": 0.0, "is_reserved": 0, "bike_id": "b0addb2f116572b448255833c047704e", "fusion_lat": 0.0, "is_disabled": 0, "rental_uris": {"ios": "https://dc.lft.to/lastmile_qr_scan", "android": "https://dc.lft.to/lastmile_qr_scan"}}, {"name": "e4865548bec110b1287cfb4042728fb6", "lon": -77.0476465, "lat": 38.9176935, "type": "electric_scooter", "fusion_lon": 0.0, "is_reserved": 0, "bike_id": "e4865548bec110b1287cfb4042728fb6", "fusion_lat": 0.0, "is_disabled": 0, "rental_uris": {"ios": "https://dc.lft.to/lastmile_qr_scan", "android": "https://dc.lft.to/lastmile_qr_scan"}}, {"name": "37b66f25daad382d2bc61498ac689dc9", "lon": -77.06164116666666, "lat": 38.913021666666666, "type": "electric_scooter", "fusion_lon": 0.0, "is_reserved": 0, "bike_id": "37b66f25daad382d2bc61498ac689dc9", "fusion_lat": 0.0, "is_disabled": 0, "rental_uris": {"ios": "https://dc.lft.to/lastmile_qr_scan", "android": "https://dc.lft.to/lastmile_qr_scan"}}, {"name": "26514dd9bbef02b9824b498ef0426179", "lon": -77.03547133333333, "lat": 38.917119166666666, "type": "electric_scooter", "fusion_lon": 0.0, "is_reserved": 0, "bike_id": "26514dd9bbef02b9824b498ef0426179", "fusion_lat": 0.0, "is_disabled": 0, "rental_uris": {"ios": "https://dc.lft.to/lastmile_qr_scan", "android": "https://dc.lft.to/lastmile_qr_scan"}}, {"name": "f5c2b3df0604c1b97f91af59502da10f", "lon": -77.03818866666667, "lat": 38.931360833333336, "type": "electric_scooter", "fusion_lon": 0.0, "is_reserved": 0, "bike_id": "f5c2b3df0604c1b97f91af59502da10f", "fusion_lat": 0.0, "is_disabled": 0, "rental_uris": {"ios": "https://dc.lft.to/lastmile_qr_scan", "android": "https://dc.lft.to/lastmile_qr_scan"}}, {"name": "468743eff5568af41f601e8a06293fc9", "lon": -77.0320935, "lat": 38.917902166666664, "type": "electric_scooter", "fusion_lon": 0.0, "is_reserved": 0, "bike_id": "468743eff5568af41f601e8a06293fc9", "fusion_lat": 0.0, "is_disabled": 0, "rental_uris": {"ios": "https://dc.lft.to/lastmile_qr_scan", "android": "https://dc.lft.to/lastmile_qr_scan"}}, {"name": "0f6f15783111ddf6e9dd0004de4ff6d4", "lon": -76.96529933333333, "lat": 38.876278, "type": "electric_scooter", "fusion_lon": 0.0, "is_reserved": 0, "bike_id": "0f6f15783111ddf6e9dd0004de4ff6d4", "fusion_lat": 0.0, "is_disabled": 0, "rental_uris": {"ios": "https://dc.lft.to/lastmile_qr_scan", "android": "https://dc.lft.to/lastmile_qr_scan"}}, {"name": "a8f174ab6fe31830f95d9449c93cdffb", "lon": -77.0020785, "lat": 38.90069183333333, "type": "electric_scooter", "fusion_lon": 0.0, "is_reserved": 0, "bike_id": "a8f174ab6fe31830f95d9449c93cdffb", "fusion_lat": 0.0, "is_disabled": 0, "rental_uris": {"ios": "https://dc.lft.to/lastmile_qr_scan", "android": "https://dc.lft.to/lastmile_qr_scan"}}, {"name": "3f56f80df9a0043b901300ef07dcedd9", "lon": -77.0387395, "lat": 38.934261166666666, "type": "electric_scooter", "fusion_lon": 0.0, "is_reserved": 0, "bike_id": "3f56f80df9a0043b901300ef07dcedd9", "fusion_lat": 0.0, "is_disabled": 0, "rental_uris": {"ios": "https://dc.lft.to/lastmile_qr_scan", "android": "https://dc.lft.to/lastmile_qr_scan"}}, {"name": "fd1c17dd2d1257633d6b9ed088dee70b", "lon": -77.00589433333333, "lat": 38.90574466666666, "type": "electric_scooter", "fusion_lon": 0.0, "is_reserved": 0, "bike_id": "fd1c17dd2d1257633d6b9ed088dee70b", "fusion_lat": 0.0, "is_disabled": 0, "rental_uris": {"ios": "https://dc.lft.to/lastmile_qr_scan", "android": "https://dc.lft.to/lastmile_qr_scan"}}, {"name": "297d1d7a8db22150435f3e677bf8f001", "lon": -77.0042845, "lat": 38.912441333333334, "type": "electric_scooter", "fusion_lon": 0.0, "is_reserved": 0, "bike_id": "297d1d7a8db22150435f3e677bf8f001", "fusion_lat": 0.0, "is_disabled": 0, "rental_uris": {"ios": "https://dc.lft.to/lastmile_qr_scan", "android": "https://dc.lft.to/lastmile_qr_scan"}}, {"name": "5b531c0b38b7ceea104b99ddccebdfef", "lon": -77.01073266666667, "lat": 38.907343, "type": "electric_scooter", "fusion_lon": 0.0, "is_reserved": 0, "bike_id": "5b531c0b38b7ceea104b99ddccebdfef", "fusion_lat": 0.0, "is_disabled": 0, "rental_uris": {"ios": "https://dc.lft.to/lastmile_qr_scan", "android": "https://dc.lft.to/lastmile_qr_scan"}}, {"name": "d49a3beaa0237b942f8bb92bc2b9cd3d", "lon": -77.03940616666667, "lat": 38.91761566666667, "type": "electric_scooter", "fusion_lon": 0.0, "is_reserved": 0, "bike_id": "d49a3beaa0237b942f8bb92bc2b9cd3d", "fusion_lat": 0.0, "is_disabled": 0, "rental_uris": {"ios": "https://dc.lft.to/lastmile_qr_scan", "android": "https://dc.lft.to/lastmile_qr_scan"}}, {"name": "b61308d02de6adf3075eb373cafde4be", "lon": -77.0295175, "lat": 38.92856966666667, "type": "electric_scooter", "fusion_lon": 0.0, "is_reserved": 0, "bike_id": "b61308d02de6adf3075eb373cafde4be", "fusion_lat": 0.0, "is_disabled": 0, "rental_uris": {"ios": "https://dc.lft.to/lastmile_qr_scan", "android": "https://dc.lft.to/lastmile_qr_scan"}}, {"name": "7f9837d7918ff7ce8f49235907996abb", "lon": -77.03910783333333, "lat": 38.91831666666667, "type": "electric_scooter", "fusion_lon": 0.0, "is_reserved": 0, "bike_id": "7f9837d7918ff7ce8f49235907996abb", "fusion_lat": 0.0, "is_disabled": 0, "rental_uris": {"ios": "https://dc.lft.to/lastmile_qr_scan", "android": "https://dc.lft.to/lastmile_qr_scan"}}, {"name": "eb9b990d46bc4eb5949e535eea7766fb", "lon": -77.04354283333333, "lat": 38.91053216666667, "type": "electric_scooter", "fusion_lon": 0.0, "is_reserved": 0, "bike_id": "eb9b990d46bc4eb5949e535eea7766fb", "fusion_lat": 0.0, "is_disabled": 0, "rental_uris": {"ios": "https://dc.lft.to/lastmile_qr_scan", "android": "https://dc.lft.to/lastmile_qr_scan"}}, {"name": "69bb8f655cea11be4819f27069c2a651", "lon": -77.024606, "lat": 38.93888466666667, "type": "electric_bike", "fusion_lon": 0.0, "is_reserved": 0, "bike_id": "69bb8f655cea11be4819f27069c2a651", "fusion_lat": 0.0, "is_disabled": 0, "rental_uris": {"ios": "https://dc.lft.to/lastmile_qr_scan", "android": "https://dc.lft.to/lastmile_qr_scan"}}, {"name": "b10adbfd6cf9f916d53c8ec2117bc2af", "lon": -77.03249316666667, "lat": 38.91566, "type": "electric_scooter", "fusion_lon": 0.0, "is_reserved": 0, "bike_id": "b10adbfd6cf9f916d53c8ec2117bc2af", "fusion_lat": 0.0, "is_disabled": 0, "rental_uris": {"ios": "https://dc.lft.to/lastmile_qr_scan", "android": "https://dc.lft.to/lastmile_qr_scan"}}, {"name": "f8efb54ca40423ff0e432dec1182ef04", "lon": -77.0349955, "lat": 38.963848666666664, "type": "electric_scooter", "fusion_lon": 0.0, "is_reserved": 0, "bike_id": "f8efb54ca40423ff0e432dec1182ef04", "fusion_lat": 0.0, "is_disabled": 0, "rental_uris": {"ios": "https://dc.lft.to/lastmile_qr_scan", "android": "https://dc.lft.to/lastmile_qr_scan"}}, {"name": "ec012afd96ae8e2b67da676065b518ac", "lon": -77.02377516666667, "lat": 38.919923833333335, "type": "electric_scooter", "fusion_lon": 0.0, "is_reserved": 0, "bike_id": "ec012afd96ae8e2b67da676065b518ac", "fusion_lat": 0.0, "is_disabled": 0, "rental_uris": {"ios": "https://dc.lft.to/lastmile_qr_scan", "android": "https://dc.lft.to/lastmile_qr_scan"}}, {"name": "0c91dac3bf98885e607d31bf958eb999", "lon": -77.03260766666666, "lat": 38.934104, "type": "electric_scooter", "fusion_lon": 0.0, "is_reserved": 0, "bike_id": "0c91dac3bf98885e607d31bf958eb999", "fusion_lat": 0.0, "is_disabled": 0, "rental_uris": {"ios": "https://dc.lft.to/lastmile_qr_scan", "android": "https://dc.lft.to/lastmile_qr_scan"}},