{"data": {"bikes": [{"rental_uris": {"ios": "https://dc.lft.to/lastmile_qr_scan", "android": "https://dc.lft.to/lastmile_qr_scan"}, "type": "electric_scooter", "name": "18979c8cc1f9e0c74715c9015d985bf8", "is_reserved": 0, "lon": -77.0121345, "is_disabled": 0, "fusion_lat": 0.0, "lat": 38.916898833333335, "bike_id": "18979c8cc1f9e0c74715c9015d985bf8", "fusion_lon": 0.0}, {"rental_uris": {"ios": "https://dc.lft.to/lastmile_qr_scan", "android": "https://dc.lft.to/lastmile_qr_scan"}, "type": "electric_scooter", "name": "3eaf78c7b8a911f3db3ac62d366695a7", "is_reserved": 0, "lon": -77.04409983333333, "is_disabled": 0, "fusion_lat": 0.0, "lat": 38.901252166666666, "bike_id": "3eaf78c7b8a911f3db3ac62d366695a7", "fusion_lon": 0.0}, {"rental_uris": {"ios": "https://dc.lft.to/lastmile_qr_scan", "android": "https://dc.lft.to/lastmile_qr_scan"}, "type": "electric_scooter", "name": "4841c444851b97e885f0cc7e2e898c7c", "is_reserved": 0, "lon": -77.03452666666666, "is_disabled": 0, "fusion_lat": 0.0, "lat": 38.91797533333333, "bike_id": "4841c444851b97e885f0cc7e2e898c7c", "fusion_lon": 0.0}, {"rental_uris": {"ios": "https://dc.lft.to/lastmile_qr_scan", "android": "https://dc.lft.to/lastmile_qr_scan"}, "type": "electric_scooter", "name": "6f926a89d5f82a7dbadc7698dab6f124", "is_reserved": 0, "lon": -77.033573, "is_disabled": 0, "fusion_lat": 0.0, "lat": 38.95480466666667, "bike_id": "6f926a89d5f82a7dbadc7698dab6f124", "fusion_lon": 0.0}, {"rental_uris": {"ios": "https://dc.lft.to/lastmile_qr_scan", "android": "https://dc.lft.to/lastmile_qr_scan"}, "type": "electric_scooter", "name": "30c49f924cfaf99962efa19720cdcf95", "is_reserved": 0, "lon": -77.03099633333333, "is_disabled": 0, "fusion_lat": 0.0, "lat": 38.92480833333333, "bike_id": "30c49f924cfaf99962efa19720cdcf95", "fusion_lon": 0.0}, {"rental_uris": {"ios": "https://dc.lft.to/lastmile_qr_scan", "android": "https://dc.lft.to/lastmile_qr_scan"}, "type": "electric_bike", "name": "f771462bde6935086f4ae444cd6959f8", "is_reserved": 0, "lon": -77.01083383333334, "is_disabled": 0, "fusion_lat": 0.0, "lat": 38.871651666666665, "bike_id": "f771462bde6935086f4ae444cd6959f8", "fusion_lon": 0.0}, {"rental_uris": {"ios": "https://dc.lft.to/lastmile_qr_scan", "android": "https://dc.lft.to/lastmile_qr_scan"}, "type": "electric_scooter", "name": "1c62502930d0f36aac1eec10b22041c0", "is_reserved": 0, "lon": -77.04467383333333, "is_disabled": 0, "fusion_lat": 0.0, "lat": 38.9126375, "bike_id": "1c62502930d0f36aac1eec10b22041c0", "fusion_lon": 0.0}, {"rental_uris": {"ios": "https://dc.lft.to/lastmile_qr_scan", "android": "https://dc.lft.to/lastmile_qr_scan"}, "type": "electric_scooter", "name": "91f200a2f99afb2bdff683efb3488248", "is_reserved": 0, "lon": -77.04481333333334, "is_disabled": 0, "fusion_lat": 0.0, "lat": 38.91074116666667, "bike_id": "91f200a2f99afb2bdff683efb3488248", "fusion_lon": 0.0}, {"rental_uris": {"ios": "https://dc.lft.to/lastmile_qr_scan", "android": "https://dc.lft.to/lastmile_qr_scan"}, "type": "electric_scooter", "name": "62b166d79f33dbd879f0bd8f228a2174", "is_reserved": 0, "lon": -77.07450816666666, "is_disabled": 0, "fusion_lat": 0.0, "lat": 38.9378155, "bike_id": "62b166d79f33dbd879f0bd8f228a2174", "fusion_lon": 0.0}, {"rental_uris": {"ios": "https://dc.lft.to/lastmile_qr_scan", "android": "https://dc.lft.to/lastmile_qr_scan"}, "type": "electric_scooter", "name": "d72ee2c90bb1de380e7bf932c92fff8f", "is_reserved": 0, "lon": -77.0217305, "is_disabled": 0, "fusion_lat": 0.0, "lat": 38.89473266666667, "bike_id": "d72ee2c90bb1de380e7bf932c92fff8f", "fusion_lon": 0.0}, {"rental_uris": {"ios": "https://dc.lft.to/lastmile_qr_scan", "android": "https://dc.lft.to/lastmile_qr_scan"}, "type": "electric_scooter", "name": "31a2c76088a81ac1bc712b01990828f5", "is_reserved": 0, "lon": -76.94907683333334, "is_disabled": 0, "fusion_lat": 0.0, "lat": 38.895398, "bike_id": "31a2c76088a81ac1bc712b01990828f5", "fusion_lon": 0.0}, {"rental_uris": {"ios": "https://dc.lft.to/lastmile_qr_scan", "android": "https://dc.lft.to/lastmile_qr_scan"}, "type": "electric_scooter", "name": "6d7dc5f788500dddedbbe352041960d5", "is_reserved": 0, "lon": -76.99615666666666, "is_disabled": 0, "fusion_lat": 0.0, "lat": 38.88757716666667, "bike_id": "6d7dc5f788500dddedbbe352041960d5", "fusion_lon": 0.0}, {"rental_uris": {"ios": "https://dc.lft.to/lastmile_qr_scan", "android": "https://dc.lft.to/lastmile_qr_scan"}, "type": "electric_scooter", "name": "f4f08e3c66b24f59c3eaec50c6ebc53f", "is_reserved": 0, "lon": -77.04203666666666, "is_disabled": 0, "fusion_lat": 0.0, "lat": 38.92062333333333, "bike_id": "f4f08e3c66b24f59c3eaec50c6ebc53f", "fusion_lon": 0.0}, {"rental_uris": {"ios": "https://dc.lft.to/lastmile_qr_scan", "android": "https://dc.lft.to/lastmile_qr_scan"}, "type": "electric_scooter", "name": "2299a53d7f60cac5da5143ad5e52e85e", "is_reserved": 0, "lon": -77.05022683333334, "is_disabled": 0, "fusion_lat": 0.0, "lat": 38.8967855, "bike_id": "2299a53d7f60cac5da5143ad5e52e85e", "fusion_lon": 0.0}, {"rental_uris": {"ios": "https://dc.lft.to/lastmile_qr_scan", "android": "https://dc.lft.to/lastmile_qr_scan"}, "type": "electric_scooter", "name": "ee9c4a6dd776ea8f585a334af716e541", "is_reserved": 0, "lon": -77.0412825, "is_disabled": 0, "fusion_lat": 0.0, "lat": 38.933631166666665, "bike_id": "ee9c4a6dd776ea8f585a334af716e541", "fusion_lon": 0.0}, {"rental_uris": {"ios": "https://dc.lft.to/lastmile_qr_scan", "android": "https://dc.lft.to/lastmile_qr_scan"}, "type": "electric_scooter", "name": "f8526354702be150e8c530f08c02b542", "is_reserved": 0, "lon": -77.02799283333333, "is_disabled": 0, "fusion_lat": 0.0, "lat": 38.91689916666667, "bike_id": "f8526354702be150e8c530f08c02b542", "fusion_lon": 0.0}, {"rental_uris": {"ios": "https://dc.lft.to/lastmile_qr_scan", "android": "https://dc.lft.to/lastmile_qr_scan"}, "type": "electric_bike", "name": "dfea8287360fbd809368660d28f4e443", "is_reserved": 0, "lon": -76.91719583333334, "is_disabled": 0, "fusion_lat": 0.0, "lat": 38.8802925, "bike_id": "dfea8287360fbd809368660d28f4e443", "fusion_lon": 0.0}, {"rental_uris": {"ios": "https://dc.lft.to/lastmile_qr_scan", "android": "https://dc.lft.to/lastmile_qr_scan"}, "type": "electric_scooter", "name": "1311aa78a6bf7a1a33b6a8c9fd99529f", "is_reserved": 0, "lon": -77.01762333333333, "is_disabled": 0, "fusion_lat": 0.0, "lat": 38.902531, "bike_id": "1311aa78a6bf7a1a33b6a8c9fd99529f", "fusion_lon": 0.0}, {"rental_uris": {"ios": "https://dc.lft.to/lastmile_qr_scan", "android": "https://dc.lft.to/lastmile_qr_scan"}, "type": "electric_scooter", "name": "28ed31d3c56e1989102fab508509d7cc", "is_reserved": 0, "lon": -76.995012, "is_disabled": 0, "fusion_lat": 0.0, "lat": 38.88310383333334, "bike_id": "28ed31d3c56e1989102fab508509d7cc", "fusion_lon": 0.0}, {"rental_uris": {"ios": "https://dc.lft.to/lastmile_qr_scan", "android": "https://dc.lft.to/lastmile_qr_scan"}, "type": "electric_scooter", "name": "9adcee546b32ce4bc23dc5f51c398804", "is_reserved": 0, "lon": -77.02586716666667, "is_disabled": 0, "fusion_lat": 0.0, "lat": 38.88424966666667, "bike_id": "9adcee546b32ce4bc23dc5f51c398804", "fusion_lon": 0.0}, {"rental_uris": {"ios": "https://dc.lft.to/lastmile_qr_scan", "android": "https://dc.lft.to/lastmile_qr_scan"}, "type": "electric_scooter", "name": "b863643cf7e62e750d246a41409f2ff2", "is_reserved": 0, "lon": -77.0388225, "is_disabled": 0, "fusion_lat": 0.0, "lat": 38.903612333333335, "bike_id": "b863643cf7e62e750d246a41409f2ff2", "fusion_lon": 0.0}, {"rental_uris": {"ios": "https://dc.lft.to/lastmile_qr_scan", "android": "https://dc.lft.to/lastmile_qr_scan"}, "type": "electric_scooter", "name": "8507667d0ab3111035f528b4d7de0ebf", "is_reserved": 0, "lon": -77.05318716666666, "is_disabled": 0, "fusion_lat": 0.0, "lat": 38.90641883333333, "bike_id": "8507667d0ab3111035f528b4d7de0ebf", "fusion_lon": 0.0}, {"rental_uris": {"ios": "https://dc.lft.to/lastmile_qr_scan", "android": "https://dc.lft.to/lastmile_qr_scan"}, "type": "electric_scooter", "name": "ab7a94743881ec3c760fc599206635a7", "is_reserved": 0, "lon": -77.0331525, "is_disabled": 0, "fusion_lat": 0.0, "lat": 38.903831333333336, "bike_id": "ab7a94743881ec3c760fc599206635a7", "fusion_lon": 0.0}, {"rental_uris": {"ios": "https://dc.lft.to/lastmile_qr_scan", "android": "https://dc.lft.to/lastmile_qr_scan"}, "type": "electric_scooter", "name": "b960ea9cbc7835b47b43e1eb665b51e0", "is_reserved": 0, "lon": -77.04162233333334, "is_disabled": 0, "fusion_lat": 0.0, "lat": 38.907285, "bike_id": "b960ea9cbc7835b47b43e1eb665b51e0", "fusion_lon": 0.0}, {"rental_uris": {"ios": "https://dc.lft.to/lastmile_qr_scan", "android": "https://dc.lft.to/lastmile_qr_scan"}, "type": "electric_scooter", "name": "4206eb94a2e52bda280bb0318db96e94", "is_reserved": 0, "lon": -77.02336133333333, "is_disabled": 0, "fusion_lat": 0.0, "lat": 38.92232, "bike_id": "4206eb94a2e52bda280bb0318db96e94", "fusion_lon": 0.0}, {"rental_uris": {"ios": "https://dc.lft.to/lastmile_qr_scan", "android": "https://dc.lft.to/lastmile_qr_scan"}, "type": "electric_scooter", "name": "bc24b8b8f83f13a2d374c032b238ee0e", "is_reserved": 0, "lon": -77.03844083333334, "is_disabled": 0, "fusion_lat": 0.0, "lat": 38.90369466666667, "bike_id": "bc24b8b8f83f13a2d374c032b238ee0e", "fusion_lon": 0.0}, {"rental_uris": {"ios": "https://dc.lft.to/lastmile_qr_scan", "android": "https://dc.lft.to/lastmile_qr_scan"}, "type": "electric_bike", "name": "581b9d38a7522526d546ff3ccd49d7b1", "is_reserved": 0, "lon": -77.1140845, "is_disabled": 0, "fusion_lat": 0.0, "lat": 38.873219666666664, "bike_id": "581b9d38a7522526d546ff3ccd49d7b1", "fusion_lon": 0.0}, {"rental_uris": {"ios": "https://dc.lft.to/lastmile_qr_scan", "android": "https://dc.lft.to/lastmile_qr_scan"}, "type": "electric_scooter", "name": "44a655f71d3a2dd4e9781b3efc990dcd", "is_reserved": 0, "lon": -76.98446616666666, "is_disabled": 0, "fusion_lat": 0.0, "lat": 38.914511166666664, "bike_id": "44a655f71d3a2dd4e9781b3efc990dcd", "fusion_lon": 0.0}, {"rental_uris": {"ios": "https://dc.lft.to/lastmile_qr_scan", "android": "https://dc.lft.to/lastmile_qr_scan"}, "type": "electric_scooter", "name": "f0081ac731f79fbb9603bd462beddd8f", "is_reserved": 0, "lon": -77.0624665, "is_disabled": 0, "fusion_lat": 0.0, "lat": 38.90530716666667, "bike_id": "f0081ac731f79fbb9603bd462beddd8f", "fusion_lon": 0.0}, {"rental_uris": {"ios": "https://dc.lft.to/lastmile_qr_scan", "android": "https://dc.lft.to/lastmile_qr_scan"}, "type": "electric_scooter", "name": "0561837aaa16a56377056a9ed60ee2e5", "is_reserved": 0, "lon": -77.02830883333333, "is_disabled": 0, "fusion_lat": 0.0, "lat": 38.938854166666665, "bike_id": "0561837aaa16a56377056a9ed60ee2e5", "fusion_lon": 0.0}, {"rental_uris": {"ios": "https://dc.lft.to/lastmile_qr_scan", "android": "https://dc.lft.to/lastmile_qr_scan"}, "type": "electric_scooter", "name": "051332a55338a0eb13a00b49cdeb659d", "is_reserved": 0, "lon": -77.03494316666666, "is_disabled": 0, "fusion_lat": 0.0, "lat": 38.92871783333333, "bike_id": "051332a55338a0eb13a00b49cdeb659d", "fusion_lon": 0.0}, {"rental_uris": {"ios": "https://dc.lft.to/lastmile_qr_scan", "android": "https://dc.lft.to/lastmile_qr_scan"}, "type": "electric_scooter", "name": "86ef23d3a0508f51d9c927ffba8becf8", "is_reserved": 0, "lon": -77.04414566666667, "is_disabled": 0, "fusion_lat": 0.0, "lat": 38.9196555, "bike_id": "86ef23d3a0508f51d9c927ffba8becf8", "fusion_lon": 0.0}, {"rental_uris": {"ios": "https://dc.lft.to/lastmile_qr_scan", "android": "https://dc.lft.to/lastmile_qr_scan"}, "type": "electric_scooter", "name": "aed4d73ce1e8cf5b2d79c53fb1833480", "is_reserved": 0, "lon": -77.07655933333334, "is_disabled": 0, "fusion_lat": 0.0, "lat": 38.910829, "bike_id": "aed4d73ce1e8cf5b2d79c53fb1833480", "fusion_lon": 0.0}, {"rental_uris": {"ios": "https://dc.lft.to/lastmile_qr_scan", "android": "https://dc.lft.to/lastmile_qr_scan"}, "type": "electric_scooter", "name": "875d277cffc13b217c7cd6ba0838fe21", "is_reserved": 0, "lon": -77.024453, "is_disabled": 0, "fusion_lat": 0.0, "lat": 38.93777, "bike_id": "875d277cffc13b217c7cd6ba0838fe21", "fusion_lon": 0.0}, {"rental_uris": {"ios": "https://dc.lft.to/lastmile_qr_scan", "android": "https://dc.lft.to/lastmile_qr_scan"}, "type": "electric_scooter", "name": "daa8f0099f53a311034607920691fc3e", "is_reserved": 0, "lon": -77.06337716666667, "is_disabled": 0, "fusion_lat": 0.0, "lat": 38.90692816666667, "bike_id": "daa8f0099f53a311034607920691fc3e", "fusion_lon": 0.0}, {"rental_uris": {"ios": "https://dc.lft.to/lastmile_qr_scan", "android": "https://dc.lft.to/lastmile_qr_scan"}, "type": "electric_scooter", "name": "57dcb0629ea3a3a7b80c3d9f76785ff8", "is_reserved": 0, "lon": -76.9855255, "is_disabled": 0, "fusion_lat": 0.0, "lat": 38.8899905, "bike_id": "57dcb0629ea3a3a7b80c3d9f76785ff8", "fusion_lon": 0.0}, {"rental_uris": {"ios": "https://dc.lft.to/lastmile_qr_scan", "android": "https://dc.lft.to/lastmile_qr_scan"}, "type": "electric_scooter", "name": "8d70c8823da4b1986456c3cdd2c3671c", "is_reserved": 0, "lon": -77.03310566666667, "is_disabled": 0, "fusion_lat": 0.0, "lat": 38.903777, "bike_id": "8d70c8823da4b1986456c3cdd2c3671c", "fusion_lon": 0.0}, {"rental_uris": {"ios": "https://dc.lft.to/lastmile_qr_scan", "android": "https://dc.lft.to/lastmile_qr_scan"}, "type": "electric_scooter", "name": "35b1cbc653495b37d2e8b77414b67061", "is_reserved": 0, "lon": -76.97667116666666, "is_disabled": 0, "fusion_lat": 0.0, "lat": 38.92634866666667, "bike_id": "35b1cbc653495b37d2e8b77414b67061", "fusion_lon": 0.0}, {"rental_uris": {"ios": "https://dc.lft.to/lastmile_qr_scan", "android": "https://dc.lft.to/lastmile_qr_scan"}, "type": "electric_scooter", "name": "d235890a84e484e089731eab29f4b775", "is_reserved": 0, "lon": -77.03717333333333, "is_disabled": 0, "fusion_lat": 0.0, "lat": 38.9169685, "bike_id": "d235890a84e484e089731eab29f4b775", "fusion_lon": 0.0}, {"rental_uris": {"ios": "https://dc.lft.to/lastmile_qr_scan", "android": "https://dc.lft.to/lastmile_qr_scan"}, "type": "electric_scooter", "name": "16f6f067e986239c3f94ebe9f61427f9", "is_reserved": 0, "lon": -77.0338965, "is_disabled": 0, "fusion_lat": 0.0, "lat": 38.886609166666666, "bike_id": "16f6f067e986239c3f94ebe9f61427f9", "fusion_lon": 0.0}, {"rental_uris": {"ios": "https://dc.lft.to/lastmile_qr_scan", "android": "https://dc.lft.to/lastmile_qr_scan"}, "type": "electric_scooter", "name": "290040c851ba54ce1b65d40914b49342", "is_reserved": 0, "lon": -77.044924, "is_disabled": 0, "fusion_lat": 0.0, "lat": 38.91085316666667, "bike_id": "290040c851ba54ce1b65d40914b49342", "fusion_lon": 0.0}, {"rental_uris": {"ios": "https://dc.lft.to/lastmile_qr_scan", "android": "https://dc.lft.to/lastmile_qr_scan"}, "type": "electric_scooter", "name": "2e886548d8c1288c419d089d10b9a9db", "is_reserved": 0, "lon": -77.03331866666667, "is_disabled": 0, "fusion_lat": 0.0, "lat": 38.88777533333333, "bike_id": "2e886548d8c1288c419d089d10b9a9db", "fusion_lon": 0.0}, {"rental_uris": {"ios": "https://dc.lft.to/lastmile_qr_scan", "android": "https://dc.lft.to/lastmile_qr_scan"}, "type": "electric_scooter", "name": "5a34d308b5f72fb78195bff99368950e", "is_reserved": 0, "lon": -77.01854733333333, "is_disabled": 0, "fusion_lat": 0.0, "lat": 38.954318666666666, "bike_id": "5a34d308b5f72fb78195bff99368950e", "fusion_lon": 0.0}, {"rental_uris": {"ios": "https://dc.lft.to/lastmile_qr_scan", "android": "https://dc.lft.to/lastmile_qr_scan"}, "type": "electric_scooter", "name": "14cd05bfdb0988a597233b44014be642", "is_reserved": 0, "lon": -77.0240285, "is_disabled": 0, "fusion_lat": 0.0, "lat": 38.915949833333336, "bike_id": "14cd05bfdb0988a597233b44014be642", "fusion_lon": 0.0}, {"rental_uris": {"ios": "https://dc.lft.to/lastmile_qr_scan", "android": "https://dc.lft.to/lastmile_qr_scan"}, "type": "electric_scooter", "name": "65461f3317b1385dc8403888e06b9896", "is_reserved": 0, "lon": -76.98981633333334, "is_disabled": 0, "fusion_lat": 0.0, "lat": 38.91762, "bike_id": "65461f3317b1385dc8403888e06b9896", "fusion_lon": 0.0}, {"rental_uris": {"ios": "https://dc.lft.to/lastmile_qr_scan", "android": "https://dc.lft.to/lastmile_qr_scan"}, "type": "electric_scooter", "name": "4778faac60a9994e62a556c8b54dad60", "is_reserved": 0, "lon": -76.99912983333333, "is_disabled": 0, "fusion_lat": 0.0, "lat": 38.92457316666667, "bike_id": "4778faac60a9994e62a556c8b54dad60", "fusion_lon": 0.0}, {"rental_uris": {"ios": "https://dc.lft.to/lastmile_qr_scan", "android": "https://dc.lft.to/lastmile_qr_scan"}, "type": "electric_scooter", "name": "d81a8cc06f06a8a9fedfc628f4bcf549", "is_reserved": 0, "lon": -77.05126966666667, "is_disabled": 0, "fusion_lat": 0.0, "lat": 38.903689666666665, "bike_id": "d81a8cc06f06a8a9fedfc628f4bcf549", "fusion_lon": 0.0}, {"rental_uris": {"ios": "https://dc.lft.to/lastmile_qr_scan", "android": "https://dc.lft.to/lastmile_qr_scan"}, "type": "electric_scooter", "name": "da4440264a48c13804b9cfe4b08441fc", "is_reserved": 0, "lon": -77.03204666666667, "is_disabled": 0, "fusion_lat": 0.0, "lat": 38.9160425, "bike_id": "da4440264a48c13804b9cfe4b08441fc", "fusion_lon": 0.0}, {"rental_uris": {"ios": "https://dc.lft.to/lastmile_qr_scan", "android": "https://dc.lft.to/lastmile_qr_scan"}, "type": "electric_scooter", "name": "def0baa1a4d82bb87f661ee5b5ccf4cd", "is_reserved": 0, "lon": -77.0288415, "is_disabled": 0, "fusion_lat": 0.0, "lat": 38.91720683333333, "bike_id": "def0baa1a4d82bb87f661ee5b5ccf4cd", "fusion_lon": 0.0}, {"rental_uris": {"ios": "https://dc.lft.to/lastmile_qr_scan", "android": "https://dc.lft.to/lastmile_qr_scan"}, "type": "electric_scooter", "name": "d35d0de48ebedb3ec9d64def326224ac", "is_reserved": 0, "lon": -77.04639833333333, "is_disabled": 0, "fusion_lat": 0.0, "lat": 38.915921833333336, "bike_id": "d35d0de48ebedb3ec9d64def326224ac", "fusion_lon": 0.0}, {"rental_uris": {"ios": "https://dc.lft.to/lastmile_qr_scan", "android": "https://dc.lft.to/lastmile_qr_scan"}, "type": "electric_scooter", "name": "c03ddf68851c9ccef605dff0d279357a", "is_reserved": 0, "lon": -76.9265915, "is_disabled": 0, "fusion_lat": 0.0, "lat": 38.88238183333333, "bike_id": "c03ddf68851c9ccef605dff0d279357a", "fusion_lon": 0.0}, {"rental_uris": {"ios": "https://dc.lft.to/lastmile_qr_scan", "android": "https://dc.lft.to/lastmile_qr_scan"}, "type": "electric_scooter", "name": "99bc74a37ac031ccd511dca9a9d1dc8f", "is_reserved": 0, "lon": -76.99494366666667, "is_disabled": 0, "fusion_lat": 0.0, "lat": 38.862199333333336, "bike_id": "99bc74a37ac031ccd511dca9a9d1dc8f", "fusion_lon": 0.0}, {"rental_uris": {"ios": "https://dc.lft.to/lastmile_qr_scan", "android": "https://dc.lft.to/lastmile_qr_scan"}, "type": "electric_scooter", "name": "910b1af6af523fb6d356b20602aa51af", "is_reserved": 0, "lon": -77.01042566666666, "is_disabled": 0, "fusion_lat": 0.0, "lat": 38.9110935, "bike_id": "910b1af6af523fb6d356b20602aa51af", "fusion_lon": 0.0}, {"rental_uris": {"ios": "https://dc.lft.to/lastmile_qr_scan", "android": "https://dc.lft.to/lastmile_qr_scan"}, "type": "electric_scooter", "name": "65975dc38c1070db80a0f62e1cbb77e6", "is_reserved": 0, "lon": -77.0312215, "is_disabled": 0, "fusion_lat": 0.0, "lat": 38.917004666666664, "bike_id": "65975dc38c1070db80a0f62e1cbb77e6", "fusion_lon": 0.0}, {"rental_uris": {"ios": "https://dc.lft.to/lastmile_qr_scan", "android": "https://dc.lft.to/lastmile_qr_scan"}, "type": "electric_scooter", "name": "bc489603d736cce803e0a021d94b2c37", "is_reserved": 0, "lon": -77.03481783333334, "is_disabled": 0, "fusion_lat": 0.0, "lat": 38.9054195, "bike_id": "bc489603d736cce803e0a021d94b2c37", "fusion_lon": 0.0}, {"rental_uris": {"ios": "https://dc.lft.to/lastmile_qr_scan", "android": "https://dc.lft.to/lastmile_qr_scan"}, "type": "electric_scooter", "name": "d6d6da306c1adda8cd27d25a644a24ba", "is_reserved": 0, "lon": -77.0241175, "is_disabled": 0, "fusion_lat": 0.0, "lat": 38.93817466666667, "bike_id": "d6d6da306c1adda8cd27d25a644a24ba", "fusion_lon": 0.0}, {"rental_uris": {"ios": "https://dc.lft.to/lastmile_qr_scan", "android": "https://dc.lft.to/lastmile_qr_scan"}, "type": "electric_scooter", "name": "bea5bcdc9d4b9b1e3518b758d3887b86", "is_reserved": 0, "lon": -77.03086933333333, "is_disabled": 0, "fusion_lat": 0.0, "lat": 38.91345033333333, "bike_id": "bea5bcdc9d4b9b1e3518b758d3887b86", "fusion_lon": 0.0}, {"rental_uris": {"ios": "https://dc.lft.to/lastmile_qr_scan", "android": "https://dc.lft.to/lastmile_qr_scan"}, "type": "electric_scooter", "name": "55f0b60b6d92c8c9883918fcdbfd851f", "is_reserved": 0, "lon": -77.01552466666666, "is_disabled": 0, "fusion_lat": 0.0, "lat": 38.902158, "bike_id": "55f0b60b6d92c8c9883918fcdbfd851f", "fusion_lon": 0.0}, {"rental_uris": {"ios": "https://dc.lft.to/lastmile_qr_scan", "android": "https://dc.lft.to/lastmile_qr_scan"}, "type": "electric_scooter", "name": "740b09f074fe63efbcce48e3395fea27", "is_reserved": 0, "lon": -77.04675316666666, "is_disabled": 0, "fusion_lat": 0.0, "lat": 38.892299333333334, "bike_id": "740b09f074fe63efbcce48e3395fea27", "fusion_lon": 0.0}, {"rental_uris": {"ios": "https://dc.lft.to/lastmile_qr_scan", "android": "https://dc.lft.to/lastmile_qr_scan"}, "type": "electric_scooter", "name": "3173cc69151f1c1123e9d5b70ca8d729", "is_reserved": 0, "lon": -77.031805, "is_disabled": 0, "fusion_lat": 0.0, "lat": 38.91920183333333, "bike_id": "3173cc69151f1c1123e9d5b70ca8d729", "fusion_lon": 0.0}, {"rental_uris": {"ios": "https://dc.lft.to/lastmile_qr_scan", "android": "https://dc.lft.to/lastmile_qr_scan"}, "type": "electric_scooter", "name": "c2fa8bb2eeb36796e9f4caec666fe586", "is_reserved": 0, "lon": -77.03152183333333, "is_disabled": 0, "fusion_lat": 0.0, "lat": 38.929630333333336, "bike_id": "c2fa8bb2eeb36796e9f4caec666fe586", "fusion_lon": 0.0}, {"rental_uris": {"ios": "https://dc.lft.to/lastmile_qr_scan", "android": "https://dc.lft.to/lastmile_qr_scan"}, "type": "electric_bike", "name": "fed645632112997eb913babfba1f08f1", "is_reserved": 0, "lon": -76.99275933333334, "is_disabled": 0, "fusion_lat": 0.0, "lat": 38.972594666666666, "bike_id": "fed645632112997eb913babfba1f08f1", "fusion_lon": 0.0}, {"rental_uris": {"ios": "https://dc.lft.to/lastmile_qr_scan", "android": "https://dc.lft.to/lastmile_qr_scan"}, "type": "electric_scooter", "name": "9e7d97df18447e3871569bc2a4fdfcef", "is_reserved": 0, "lon": -77.04281316666666, "is_disabled": 0, "fusion_lat": 0.0, "lat": 38.9227065, "bike_id": "9e7d97df18447e3871569bc2a4fdfcef", "fusion_lon": 0.0}, {"rental_uris": {"ios": "https://dc.lft.to/lastmile_qr_scan", "android": "https://dc.lft.to/lastmile_qr_scan"}, "type": "electric_bike", "name": "be060f2bf9c4d39a5e5c5383a038828b", "is_reserved": 0, "lon": -76.9970235, "is_disabled": 0, "fusion_lat": 0.0, "lat": 38.83867516666667, "bike_id": "be060f2bf9c4d39a5e5c5383a038828b", "fusion_lon": 0.0}, {"rental_uris": {"ios": "https://dc.lft.to/lastmile_qr_scan", "android": "https://dc.lft.to/lastmile_qr_scan"}, "type": "electric_scooter", "name": "80a7d9faae4d7c2fddf793720a4beef9", "is_reserved": 0, "lon": -77.03860783333333, "is_disabled": 0, "fusion_lat": 0.0, "lat": 38.903856833333336, "bike_id": "80a7d9faae4d7c2fddf793720a4beef9", "fusion_lon": 0.0}, {"rental_uris": {"ios": "https://dc.lft.to/lastmile_qr_scan", "android": "https://dc.lft.to/lastmile_qr_scan"}, "type": "electric_scooter", "name": "808dc4c6fa4ca8b5b2976646e46416a3", "is_reserved": 0, "lon": -77.0522285, "is_disabled": 0, "fusion_lat": 0.0, "lat": 38.92493483333333, "bike_id": "808dc4c6fa4ca8b5b2976646e46416a3", "fusion_lon": 0.0}, {"rental_uris": {"ios": "https://dc.lft.to/lastmile_qr_scan", "android": "https://dc.lft.to/lastmile_qr_scan"}, "type": "electric_scooter", "name": "137541599910f1f67ed1e34c024043c0", "is_reserved": 0, "lon": -77.03456, "is_disabled": 0, "fusion_lat": 0.0, "lat": 38.910262333333336, "bike_id": "137541599910f1f67ed1e34c024043c0", "fusion_lon": 0.0}, {"rental_uris": {"ios": "https://dc.lft.to/lastmile_qr_scan", "android": "https://dc.lft.to/lastmile_qr_scan"}, "type": "electric_bike", "name": "5d1c346d19e2e962e79642e6203915ec", "is_reserved": 0, "lon": -77.1132035, "is_disabled": 0, "fusion_lat": 0.0, "lat": 38.85584466666667, "bike_id": "5d1c346d19e2e962e79642e6203915ec", "fusion_lon": 0.0}, {"rental_uris": {"ios": "https://dc.lft.to/lastmile_qr_scan", "android": "https://dc.lft.to/lastmile_qr_scan"}, "type": "electric_scooter", "name": "dfee193c6f62f8e6e5b706485dbcaedc", "is_reserved": 0, "lon": -77.0486635, "is_disabled": 0, "fusion_lat": 0.0, "lat": 38.89917333333333, "bike_id": "dfee193c6f62f8e6e5b706485dbcaedc", "fusion_lon": 0.0}, {"rental_uris": {"ios": "https://dc.lft.to/lastmile_qr_scan", "android": "https://dc.lft.to/lastmile_qr_scan"}, "type": "electric_scooter", "name": "f7ecf9d210036e1fe0c1741579664812", "is_reserved": 0, "lon": -77.03261666666667, "is_disabled": 0, "fusion_lat": 0.0, "lat": 38.938853, "bike_id": "f7ecf9d210036e1fe0c1741579664812", "fusion_lon": 0.0}, {"rental_uris": {"ios": "https://dc.lft.to/lastmile_qr_scan", "android": "https://dc.lft.to/lastmile_qr_scan"}, "type": "electric_scooter", "name": "67e4ea84f2016bdc9c10c5461f297041", "is_reserved": 0, "lon": -76.99386516666667, "is_disabled": 0, "fusion_lat": 0.0, "lat": 38.910137, "bike_id": "67e4ea84f2016bdc9c10c5461f297041", "fusion_lon": 0.0}, {"rental_uris": {"ios": "https://dc.lft.to/lastmile_qr_scan", "android": "https://dc.lft.to/lastmile_qr_scan"}, "type": "electric_scooter", "name": "56420929d256fb931e8da8c0d2c7fbbd", "is_reserved": 0, "lon": -77.02776833333333, "is_disabled": 0, "fusion_lat": 0.0, "lat": 38.917110666666666, "bike_id": "56420929d256fb931e8da8c0d2c7fbbd", "fusion_lon": 0.0}, {"rental_uris": {"ios": "https://dc.lft.to/lastmile_qr_scan", "android": "https://dc.lft.to/lastmile_qr_scan"}, "type": "electric_scooter", "name": "ffab14d9138493660c10dc935db4f5b0", "is_reserved": 0, "lon": -77.00783783333334, "is_disabled": 0, "fusion_lat": 0.0, "lat": 38.897224333333334, "bike_id": "ffab14d9138493660c10dc935db4f5b0", "fusion_lon": 0.0}, {"rental_uris": {"ios": "https://dc.lft.to/lastmile_qr_scan", "android": "https://dc.lft.to/lastmile_qr_scan"}, "type": "electric_scooter", "name": "e205dac8174c84b69b29d57bb0626599", "is_reserved": 0, "lon": -77.02829883333334, "is_disabled": 0, "fusion_lat": 0.0, "lat": 38.9388495, "bike_id": "e205dac8174c84b69b29d57bb0626599", "fusion_lon": 0.0}, {"rental_uris": {"ios": "https://dc.lft.to/lastmile_qr_scan", "android": "https://dc.lft.to/lastmile_qr_scan"}, "type": "electric_scooter", "name": "21ed34632fe3a42e442ea2551895380c", "is_reserved": 0, "lon": -77.02580183333333, "is_disabled": 0, "fusion_lat": 0.0, "lat": 38.887213, "bike_id": "21ed34632fe3a42e442ea2551895380c", "fusion_lon": 0.0}, {"rental_uris": {"ios": "https://dc.lft.to/lastmile_qr_scan", "android": "https://dc.lft.to/lastmile_qr_scan"}, "type": "electric_scooter", "name": "a42b260361e62b245ec07ffe0414eecf", "is_reserved": 0, "lon": -76.996252, "is_disabled": 0, "fusion_lat": 0.0, "lat": 38.90452483333333, "bike_id": "a42b260361e62b245ec07ffe0414eecf", "fusion_lon": 0.0}, {"rental_uris": {"ios": "https://dc.lft.to/lastmile_qr_scan", "android": "https://dc.lft.to/lastmile_qr_scan"}, "type": "electric_scooter", "name": "2a0c6ee037f16ef7495a9e131db89318", "is_reserved": 0, "lon": -77.0371145, "is_disabled": 0, "fusion_lat": 0.0, "lat": 38.92654616666667, "bike_id": "2a0c6ee037f16ef7495a9e131db89318", "fusion_lon": 0.0}, {"rental_uris": {"ios": "https://dc.lft.to/lastmile_qr_scan", "android": "https://dc.lft.to/lastmile_qr_scan"}, "type": "electric_scooter", "name": "4a49a33b219f6b7e33e352d54dd181fe", "is_reserved": 0, "lon": -77.03083333333333, "is_disabled": 0, "fusion_lat": 0.0, "lat": 38.938778666666664, "bike_id": "4a49a33b219f6b7e33e352d54dd181fe", "fusion_lon": 0.0}, {"rental_uris": {"ios": "https://dc.lft.to/lastmile_qr_scan", "android": "https://dc.lft.to/lastmile_qr_scan"}, "type": "electric_bike", "name": "bff7014dcaefe9d242fae64b43b5f494", "is_reserved": 0, "lon": -77.06343433333333, "is_disabled": 0, "fusion_lat": 0.0, "lat": 38.908393333333336, "bike_id": "bff7014dcaefe9d242fae64b43b5f494", "fusion_lon": 0.0}, {"rental_uris": {"ios": "https://dc.lft.to/lastmile_qr_scan", "android": "https://dc.lft.to/lastmile_qr_scan"}, "type": "electric_scooter", "name": "bb35698b6be773c58f126b067bee70db", "is_reserved": 0, "lon": -77.02137683333333, "is_disabled": 0, "fusion_lat": 0.0, "lat": 38.924888333333335, "bike_id": "bb35698b6be773c58f126b067bee70db", "fusion_lon": 0.0}, {"rental_uris": {"ios": "https://dc.lft.to/lastmile_qr_scan", "android": "https://dc.lft.to/lastmile_qr_scan"}, "type": "electric_scooter", "name": "431ff3b09a668c8e090ae5fc661223b8", "is_reserved": 0, "lon": -77.016252, "is_disabled": 0, "fusion_lat": 0.0, "lat": 38.90867466666667, "bike_id": "431ff3b09a668c8e090ae5fc661223b8", "fusion_lon": 0.0}, {"rental_uris": {"ios": "https://dc.lft.to/lastmile_qr_scan", "android": "https://dc.lft.to/lastmile_qr_scan"}, "type": "electric_scooter", "name": "f5ecf18bd107ccfa7bc2b1f45c049129", "is_reserved": 0, "lon": -77.07715033333334, "is_disabled": 0, "fusion_lat": 0.0, "lat": 38.9429025, "bike_id": "f5ecf18bd107ccfa7bc2b1f45c049129", "fusion_lon": 0.0}, {"rental_uris": {"ios": "https://dc.lft.to/lastmile_qr_scan", "android": "https://dc.lft.to/lastmile_qr_scan"}, "type": "electric_scooter", "name": "e13316d044dc94109281f78b57bf246d", "is_reserved": 0, "lon": -77.02294183333333, "is_disabled": 0, "fusion_lat": 0.0, "lat": 38.901594333333335, "bike_id": "e13316d044dc94109281f78b57bf246d", "fusion_lon": 0.0}, {"rental_uris": {"ios": "https://dc.lft.to/lastmile_qr_scan", "android": "https://dc.lft.to/lastmile_qr_scan"}, "type": "electric_scooter", "name": "519f396652ce691bbc4875cdbca41b1e", "is_reserved": 0, "lon": -77.02821916666667, "is_disabled": 0, "fusion_lat": 0.0, "lat": 38.89556616666667, "bike_id": "519f396652ce691bbc4875cdbca41b1e", "fusion_lon": 0.0}, {"rental_uris": {"ios": "https://dc.lft.to/lastmile_qr_scan", "android": "https://dc.lft.to/lastmile_qr_scan"}, "type": "electric_scooter", "name": "8b9ba8c998b0f1e55cfb9c7430adfa07", "is_reserved": 0, "lon": -77.02809966666666, "is_disabled": 0, "fusion_lat": 0.0, "lat": 38.9073355, "bike_id": "8b9ba8c998b0f1e55cfb9c7430adfa07", "fusion_lon": 0.0}, {"rental_uris": {"ios": "https://dc.lft.to/lastmile_qr_scan", "android": "https://dc.lft.to/lastmile_qr_scan"}, "type": "electric_scooter", "name": "f259cefc9b2b41174b1c5fa0a753b7df", "is_reserved": 0, "lon": -77.03337483333334, "is_disabled": 0, "fusion_lat": 0.0, "lat": 38.9169495, "bike_id": "f259cefc9b2b41174b1c5fa0a753b7df", "fusion_lon": 0.0}, {"rental_uris": {"ios": "https://dc.lft.to/lastmile_qr_scan", "android": "https://dc.lft.to/lastmile_qr_scan"}, "type": "electric_scooter", "name": "54a237544eaea1b5fcdd0b534d5b0398", "is_reserved": 0, "lon": -77.0325725, "is_disabled": 0, "fusion_lat": 0.0, "lat": 38.90964233333333, "bike_id": "54a237544eaea1b5fcdd0b534d5b0398", "fusion_lon": 0.0}, {"rental_uris": {"ios": "https://dc.lft.to/lastmile_qr_scan", "android": "https://dc.lft.to/lastmile_qr_scan"}, "type": "electric_scooter", "name": "9a7ee6af7facd69043de22de619f5d47", "is_reserved": 0, "lon": -77.02199983333334, "is_disabled": 0, "fusion_lat": 0.0, "lat": 38.89555, "bike_id": "9a7ee6af7facd69043de22de619f5d47", "fusion_lon": 0.0}, {"rental_uris": {"ios": "https://dc.lft.to/lastmile_qr_scan", "android": "https://dc.lft.to/lastmile_qr_scan"}, "type": "electric_scooter", "name": "cf6f66579a996df3b804dd2c64be7b24", "is_reserved": 0, "lon": -77.03778466666667, "is_disabled": 0, "fusion_lat": 0.0, "lat": 38.93969333333333, "bike_id": "cf6f66579a996df3b804dd2c64be7b24", "fusion_lon": 0.0}, {"rental_uris": {"ios": "https://dc.lft.to/lastmile_qr_scan", "android": "https://dc.lft.to/lastmile_qr_scan"}, "type": "electric_scooter", "name": "edcb88bad7bf54f22c3df81f5fea8596", "is_reserved": 0, "lon": -77.0324235, "is_disabled": 0, "fusion_lat": 0.0, "lat": 38.905438333333336, "bike_id": "edcb88bad7bf54f22c3df81f5fea8596", "fusion_lon": 0.0}, {"rental_uris": {"ios": "https://dc.lft.to/lastmile_qr_scan", "android": "https://dc.lft.to/lastmile_qr_scan"}, "type": "electric_scooter", "name": "ef4a5cbbe11ca686f9d32ddef8f2d8b5", "is_reserved": 0, "lon": -76.99990333333334, "is_disabled": 0, "fusion_lat": 0.0, "lat": 38.90856566666667, "bike_id": "ef4a5cbbe11ca686f9d32ddef8f2d8b5", "fusion_lon": 0.0}, {"rental_uris": {"ios": "https://dc.lft.to/lastmile_qr_scan", "android": "https://dc.lft.to/lastmile_qr_scan"}, "type": "electric_scooter", "name": "e54371adb3486e7a6dc857f1832a12b1", "is_reserved": 0, "lon": -77.01865883333333, "is_disabled": 0, "fusion_lat": 0.0, "lat": 38.9136225, "bike_id": "e54371adb3486e7a6dc857f1832a12b1", "fusion_lon": 0.0}, {"rental_uris": {"ios": "https://dc.lft.to/lastmile_qr_scan", "android": "https://dc.lft.to/lastmile_qr_scan"}, "type": "electric_scooter", "name": "4285c8a363c1c3bbbcb0f56ef945476f", "is_reserved": 0, "lon": -77.01938883333334, "is_disabled": 0, "fusion_lat": 0.0, "lat": 38.947032, "bike_id": "4285c8a363c1c3bbbcb0f56ef945476f", "fusion_lon": 0.0}, {"rental_uris": {"ios": "https://dc.lft.to/lastmile_qr_scan", "android": "https://dc.lft.to/lastmile_qr_scan"}, "type": "electric_scooter", "name": "7b5ab8da332b4d0f0c908d3b303170d3", "is_reserved": 0, "lon": -77.03176816666667, "is_disabled": 0, "fusion_lat": 0.0, "lat": 38.914231, "bike_id": "7b5ab8da332b4d0f0c908d3b303170d3", "fusion_lon": 0.0}, {"rental_uris": {"ios": "https://dc.lft.to/lastmile_qr_scan", "android": "https://dc.lft.to/lastmile_qr_scan"}, "type": "electric_scooter", "name": "9ce64f029a51cfdc6715a64ed6b46173", "is_reserved": 0, "lon": -77.04439766666667, "is_disabled": 0, "fusion_lat": 0.0, "lat": 38.90123583333333, "bike_id": "9ce64f029a51cfdc6715a64ed6b46173", "fusion_lon": 0.0}, {"rental_uris": {"ios": "https://dc.lft.to/lastmile_qr_scan", "android": "https://dc.lft.to/lastmile_qr_scan"}, "type": "electric_bike", "name": "55b7d9a8ac2eaecdc9b64e87e6085b58", "is_reserved": 0, "lon": -76.97310866666666, "is_disabled": 0, "fusion_lat": 0.0, "lat": 38.91754366666667, "bike_id": "55b7d9a8ac2eaecdc9b64e87e6085b58", "fusion_lon": 0.0}, {"rental_uris": {"ios": "https://dc.lft.to/lastmile_qr_scan", "android": "https://dc.lft.to/lastmile_qr_scan"}, "type": "electric_bike", "name": "309900f414555d64859ff540155889c2", "is_reserved": 0, "lon": -76.96085816666667, "is_disabled": 0, "fusion_lat": 0.0, "lat": 38.918573333333335, "bike_id": "309900f414555d64859ff540155889c2", "fusion_lon": 0.0}, {"rental_uris": {"ios": "https://dc.lft.to/lastmile_qr_scan", "android": "https://dc.lft.to/lastmile_qr_scan"}, "type": "electric_scooter", "name": "c0833944931a39364563405d9481d6ab", "is_reserved": 0, "lon": -77.00923966666667, "is_disabled": 0, "fusion_lat": 0.0, "lat": 38.89987683333333, "bike_id": "c0833944931a39364563405d9481d6ab", "fusion_lon": 0.0}, {"rental_uris": {"ios": "https://dc.lft.to/lastmile_qr_scan", "android": "https://dc.lft.to/lastmile_qr_scan"}, "type": "electric_scooter", "name": "c2197698d846ddb645f731fa14d7eaa4", "is_reserved": 0, "lon": -77.00045016666667, "is_disabled": 0, "fusion_lat": 0.0, "lat": 38.87498166666666, "bike_id": "c2197698d846ddb645f731fa14d7eaa4", "fusion_lon": 0.0}, {"rental_uris": {"ios": "https://dc.lft.to/lastmile_qr_scan", "android": "https://dc.lft.to/lastmile_qr_scan"}, "type": "electric_scooter", "name": "caf11e20d90f0f3264600ce11810ad00", "is_reserved": 0, "lon": -77.0037375, "is_disabled": 0, "fusion_lat": 0.0, "lat": 38.89272716666667, "bike_id": "caf11e20d90f0f3264600ce11810ad00", "fusion_lon": 0.0}, {"rental_uris": {"ios": "https://dc.lft.to/lastmile_qr_scan", "android": "https://dc.lft.to/lastmile_qr_scan"}, "type": "electric_scooter", "name": "b1ea856e5cf34875db787cc994419489", "is_reserved": 0, "lon": -77.01905766666667, "is_disabled": 0, "fusion_lat": 0.0, "lat": 38.89486466666666, "bike_id": "b1ea856e5cf34875db787cc994419489", "fusion_lon": 0.0}, {"rental_uris": {"ios": "https://dc.lft.to/lastmile_qr_scan", "android": "https://dc.lft.to/lastmile_qr_scan"}, "type": "electric_scooter", "name": "fb7dbc9fd467de195020a48d8b973081", "is_reserved": 0, "lon": -77.02128433333333, "is_disabled": 0, "fusion_lat": 0.0, "lat": 38.923830333333335, "bike_id": "fb7dbc9fd467de195020a48d8b973081", "fusion_lon": 0.0}, {"rental_uris": {"ios": "https://dc.lft.to/lastmile_qr_scan", "android": "https://dc.lft.to/lastmile_qr_scan"}, "type": "electric_scooter", "name": "b4f68428370825612488534e18d40c3e", "is_reserved": 0, "lon": -77.03853783333334, "is_disabled": 0, "fusion_lat": 0.0, "lat": 38.915482, "bike_id": "b4f68428370825612488534e18d40c3e", "fusion_lon": 0.0}, {"rental_uris": {"ios": "https://dc.lft.to/lastmile_qr_scan", "android": "https://dc.lft.to/lastmile_qr_scan"}, "type": "electric_scooter", "name": "d83390afe87be9eed5373de23e6be63f", "is_reserved": 0, "lon": -76.98099916666666, "is_disabled": 0, "fusion_lat": 0.0, "lat": 38.9039835, "bike_id": "d83390afe87be9eed5373de23e6be63f", "fusion_lon": 0.0}, {"rental_uris": {"ios": "https://dc.lft.to/lastmile_qr_scan", "android": "https://dc.lft.to/lastmile_qr_scan"}, "type": "electric_scooter", "name": "6f691cc39519f0a3a7c486eab5705590", "is_reserved": 0, "lon": -77.02388583333334, "is_disabled": 0, "fusion_lat": 0.0, "lat": 38.931949, "bike_id": "6f691cc39519f0a3a7c486eab5705590", "fusion_lon": 0.0}, {"rental_uris": {"ios": "https://dc.lft.to/lastmile_qr_scan", "android": "https://dc.lft.to/lastmile_qr_scan"}, "type": "electric_scooter", "name": "7868814ca27d6830d2e016b5b972cb67", "is_reserved": 0, "lon": -77.04056616666666, "is_disabled": 0, "fusion_lat": 0.0, "lat": 38.91747266666667, "bike_id": "7868814ca27d6830d2e016b5b972cb67", "fusion_lon": 0.0}, {"rental_uris": {"ios": "https://dc.lft.to/lastmile_qr_scan", "android": "https://dc.lft.to/lastmile_qr_scan"}, "type": "electric_scooter", "name": "a80d44a1adeb1afb4da88e21db6ff8e5", "is_reserved": 0, "lon": -77.02660416666667, "is_disabled": 0, "fusion_lat": 0.0, "lat": 38.938614666666666, "bike_id": "a80d44a1adeb1afb4da88e21db6ff8e5", "fusion_lon": 0.0}, {"rental_uris": {"ios": "https://dc.lft.to/lastmile_qr_scan", "android": "https://dc.lft.to/lastmile_qr_scan"}, "type": "electric_bike", "name": "76cd0ed09da3b0aeeb16bd679a2cdfdc", "is_reserved": 0, "lon": -76.95821066666667, "is_disabled": 0, "fusion_lat": 0.0, "lat": 38.919942, "bike_id": "76cd0ed09da3b0aeeb16bd679a2cdfdc", "fusion_lon": 0.0}, {"rental_uris": {"ios": "https://dc.lft.to/lastmile_qr_scan", "android": "https://dc.lft.to/lastmile_qr_scan"}, "type": "electric_scooter", "name": "bff7f2529848340709fe362b4ed354cf", "is_reserved": 0, "lon": -77.021755, "is_disabled": 0, "fusion_lat": 0.0, "lat": 38.894848, "bike_id": "bff7f2529848340709fe362b4ed354cf", "fusion_lon": 0.0}, {"rental_uris": {"ios": "https://dc.lft.to/lastmile_qr_scan", "android": "https://dc.lft.to/lastmile_qr_scan"}, "type": "electric_scooter", "name": "866741bf83bfade651f01f88b0a739c4", "is_reserved": 0, "lon": -77.02130483333333, "is_disabled": 0, "fusion_lat": 0.0, "lat": 38.924150833333336, "bike_id": "866741bf83bfade651f01f88b0a739c4", "fusion_lon": 0.0}, {"rental_uris": {"ios": "https://dc.lft.to/lastmile_qr_scan", "android": "https://dc.lft.to/lastmile_qr_scan"}, "type": "electric_scooter", "name": "774ef779b9bc2a8247ceb34eebbdf3de", "is_reserved": 0, "lon": -77.03871116666667, "is_disabled": 0, "fusion_lat": 0.0, "lat": 38.9188085, "bike_id": "774ef779b9bc2a8247ceb34eebbdf3de", "fusion_lon": 0.0}, {"rental_uris": {"ios": "https://dc.lft.to/lastmile_qr_scan", "android": "https://dc.lft.to/lastmile_qr_scan"}, "type": "electric_scooter", "name": "61ae7ec28a9ecd20e42ee7777b440ad7", "is_reserved": 0, "lon": -77.02081016666666, "is_disabled": 0, "fusion_lat": 0.0, "lat": 38.924053, "bike_id": "61ae7ec28a9ecd20e42ee7777b440ad7", "fusion_lon": 0.0}, {"rental_uris": {"ios": "https://dc.lft.to/lastmile_qr_scan", "android": "https://dc.lft.to/lastmile_qr_scan"}, "type": "electric_scooter", "name": "eb0a42a1cb806bf2fa35a0d376527ba4", "is_reserved": 0, "lon": -76.94854283333333, "is_disabled": 0, "fusion_lat": 0.0, "lat": 38.883024, "bike_id": "eb0a42a1cb806bf2fa35a0d376527ba4", "fusion_lon": 0.0}, {"rental_uris": {"ios": "https://dc.lft.to/lastmile_qr_scan", "android": "https://dc.lft.to/lastmile_qr_scan"}, "type": "electric_scooter", "name": "081bd0a4ebf4bbeea8a1b92cd6b59e20", "is_reserved": 0, "lon": -77.03854233333334, "is_disabled": 0, "fusion_lat": 0.0, "lat": 38.915497333333334, "bike_id": "081bd0a4ebf4bbeea8a1b92cd6b59e20", "fusion_lon": 0.0}, {"rental_uris": {"ios": "https://dc.lft.to/lastmile_qr_scan", "android": "https://dc.lft.to/lastmile_qr_scan"}, "type": "electric_scooter", "name": "d51e9384427fcf9cda34c06f7d27581c", "is_reserved": 0, "lon": -77.013621, "is_disabled": 0, "fusion_lat": 0.0, "lat": 38.91919633333333, "bike_id": "d51e9384427fcf9cda34c06f7d27581c", "fusion_lon": 0.0}, {"rental_uris": {"ios": "https://dc.lft.to/lastmile_qr_scan", "android": "https://dc.lft.to/lastmile_qr_scan"}, "type": "electric_scooter", "name": "d66642ff0093bb5e477d481c1e76c1ec", "is_reserved": 0, "lon": -77.0263435, "is_disabled": 0, "fusion_lat": 0.0, "lat": 38.896367833333336, "bike_id": "d66642ff0093bb5e477d481c1e76c1ec", "fusion_lon": 0.0}, {"rental_uris": {"ios": "https://dc.lft.to/lastmile_qr_scan", "android": "https://dc.lft.to/lastmile_qr_scan"}, "type": "electric_scooter", "name": "51721063eb60c0eaa61ad9e7b338c5c6", "is_reserved": 0, "lon": -76.996862, "is_disabled": 0, "fusion_lat": 0.0, "lat": 38.921856, "bike_id": "51721063eb60c0eaa61ad9e7b338c5c6", "fusion_lon": 0.0}, {"rental_uris": {"ios": "https://dc.lft.to/lastmile_qr_scan", "android": "https://dc.lft.to/lastmile_qr_scan"}, "type": "electric_scooter", "name": "3729350ced8396bbe3643ee30ee3c38f", "is_reserved": 0, "lon": -77.03243766666667, "is_disabled": 0, "fusion_lat": 0.0, "lat": 38.90547983333333, "bike_id": "3729350ced8396bbe3643ee30ee3c38f", "fusion_lon": 0.0}, {"rental_uris": {"ios": "https://dc.lft.to/lastmile_qr_scan", "android": "https://dc.lft.to/lastmile_qr_scan"}, "type": "electric_scooter", "name": "7c6a33c2a27f672252ac36df15c2e589", "is_reserved": 0, "lon": -77.04067616666667, "is_disabled": 0, "fusion_lat": 0.0, "lat": 38.90458016666667, "bike_id": "7c6a33c2a27f672252ac36df15c2e589", "fusion_lon": 0.0}, {"rental_uris": {"ios": "https://dc.lft.to/lastmile_qr_scan", "android": "https://dc.lft.to/lastmile_qr_scan"}, "type": "electric_scooter", "name": "c53ff8caf34be44cf9d6c65c076f6158", "is_reserved": 0, "lon": -77.06746933333334, "is_disabled": 0, "fusion_lat": 0.0, "lat": 38.90504116666666, "bike_id": "c53ff8caf34be44cf9d6c65c076f6158", "fusion_lon": 0.0}, {"rental_uris": {"ios": "https://dc.lft.to/lastmile_qr_scan", "android": "https://dc.lft.to/lastmile_qr_scan"}, "type": "electric_scooter", "name": "456091da18875d803b266b6f11ece704", "is_reserved": 0, "lon": -77.03178766666667, "is_disabled": 0, "fusion_lat": 0.0, "lat": 38.90113366666667, "bike_id": "456091da18875d803b266b6f11ece704", "fusion_lon": 0.0}, {"rental_uris": {"ios": "https://dc.lft.to/lastmile_qr_scan", "android": "https://dc.lft.to/lastmile_qr_scan"}, "type": "electric_scooter", "name": "03b2dca33ff4a83dc54ee1052bacba34", "is_reserved": 0, "lon": -76.99478066666667, "is_disabled": 0, "fusion_lat": 0.0, "lat": 38.862147666666665, "bike_id": "03b2dca33ff4a83dc54ee1052bacba34", "fusion_lon": 0.0}, {"rental_uris": {"ios": "https://dc.lft.to/lastmile_qr_scan", "android": "https://dc.lft.to/lastmile_qr_scan"}, "type": "electric_scooter", "name": "f0c00f5ac7d98c0db502923f7dc1cbb3", "is_reserved": 0, "lon": -77.03048866666667, "is_disabled": 0, "fusion_lat": 0.0, "lat": 38.908242, "bike_id": "f0c00f5ac7d98c0db502923f7dc1cbb3", "fusion_lon": 0.0}, {"rental_uris": {"ios": "https://dc.lft.to/lastmile_qr_scan", "android": "https://dc.lft.to/lastmile_qr_scan"}, "type": "electric_scooter", "name": "d18a3b0efa045bcd9c4717665d4314c6", "is_reserved": 0, "lon": -77.06144816666666, "is_disabled": 0, "fusion_lat": 0.0, "lat": 38.91298466666667, "bike_id": "d18a3b0efa045bcd9c4717665d4314c6", "fusion_lon": 0.0}, {"rental_uris": {"ios": "https://dc.lft.to/lastmile_qr_scan", "android": "https://dc.lft.to/lastmile_qr_scan"}, "type": "electric_bike", "name": "3d3ce28faafa8bac83640da601f70f15", "is_reserved": 0, "lon": -77.02365133333333, "is_disabled": 0, "fusion_lat": 0.0, "lat": 38.884801333333336, "bike_id": "3d3ce28faafa8bac83640da601f70f15", "fusion_lon": 0.0}, {"rental_uris": {"ios": "https://dc.lft.to/lastmile_qr_scan", "android": "https://dc.lft.to/lastmile_qr_scan"}, "type": "electric_scooter", "name": "fac16dba4f85f2d57ce86f7e0f220e07", "is_reserved": 0, "lon": -77.00605766666666, "is_disabled": 0, "fusion_lat": 0.0, "lat": 38.87180133333333, "bike_id": "fac16dba4f85f2d57ce86f7e0f220e07", "fusion_lon": 0.0}, {"rental_uris": {"ios": "https://dc.lft.to/lastmile_qr_scan", "android": "https://dc.lft.to/lastmile_qr_scan"}, "type": "electric_scooter", "name": "dd08e28b35109950665cf8d61586b8db", "is_reserved": 0, "lon": -76.99213883333333, "is_disabled": 0, "fusion_lat": 0.0, "lat": 38.889700166666664, "bike_id": "dd08e28b35109950665cf8d61586b8db", "fusion_lon": 0.0}, {"rental_uris": {"ios": "https://dc.lft.to/lastmile_qr_scan", "android": "https://dc.lft.to/lastmile_qr_scan"}, "type": "electric_bike", "name": "12c5120f083dac067cb578aab9e140ac", "is_reserved": 0, "lon": -77.128401, "is_disabled": 0, "fusion_lat": 0.0, "lat": 38.80053066666667, "bike_id": "12c5120f083dac067cb578aab9e140ac", "fusion_lon": 0.0}, {"rental_uris": {"ios": "https://dc.lft.to/lastmile_qr_scan", "android": "https://dc.lft.to/lastmile_qr_scan"}, "type": "electric_scooter", "name": "0fa720067ca64067c1fe60a8a8aa7d35", "is_reserved": 0, "lon": -77.03207183333333, "is_disabled": 0, "fusion_lat": 0.0, "lat": 38.90898283333333, "bike_id": "0fa720067ca64067c1fe60a8a8aa7d35", "fusion_lon": 0.0}, {"rental_uris": {"ios": "https://dc.lft.to/lastmile_qr_scan", "android": "https://dc.lft.to/lastmile_qr_scan"}, "type": "electric_scooter", "name": "a548241791e0cc6753ae3554f191e7a6", "is_reserved": 0, "lon": -77.03829516666667, "is_disabled": 0, "fusion_lat": 0.0, "lat": 38.91255116666667, "bike_id": "a548241791e0cc6753ae3554f191e7a6", "fusion_lon": 0.0}, {"rental_uris": {"ios": "https://dc.lft.to/lastmile_qr_scan", "android": "https://dc.lft.to/lastmile_qr_scan"}, "type": "electric_scooter", "name": "f6d54b8c3208117691c39cc326a6a2e8", "is_reserved": 0, "lon": -77.04627016666667, "is_disabled": 0, "fusion_lat": 0.0, "lat": 38.91806916666667, "bike_id": "f6d54b8c3208117691c39cc326a6a2e8", "fusion_lon": 0.0}, {"rental_uris": {"ios": "https://dc.lft.to/lastmile_qr_scan", "android": "https://dc.lft.to/lastmile_qr_scan"}, "type": "electric_scooter", "name": "05a91d8a6cd3df90af93b3f3897e9f8a", "is_reserved": 0, "lon": -77.00334833333334, "is_disabled": 0, "fusion_lat": 0.0, "lat": 38.8960525, "bike_id": "05a91d8a6cd3df90af93b3f3897e9f8a", "fusion_lon": 0.0}, {"rental_uris": {"ios": "https://dc.lft.to/lastmile_qr_scan", "android": "https://dc.lft.to/lastmile_qr_scan"}, "type": "electric_scooter", "name": "412e55b9b0197ece54e48de7a0be09ba", "is_reserved": 0, "lon": -77.02354316666667, "is_disabled": 0, "fusion_lat": 0.0, "lat": 38.892162666666664, "bike_id": "412e55b9b0197ece54e48de7a0be09ba", "fusion_lon": 0.0}, {"rental_uris": {"ios": "https://dc.lft.to/lastmile_qr_scan", "android": "https://dc.lft.to/lastmile_qr_scan"}, "type": "electric_scooter", "name": "4a37c67ceb26b1d311546483160319c9", "is_reserved": 0, "lon": -77.03317766666666, "is_disabled": 0, "fusion_lat": 0.0, "lat": 38.88769816666667, "bike_id": "4a37c67ceb26b1d311546483160319c9", "fusion_lon": 0.0}, {"rental_uris": {"ios": "https://dc.lft.to/lastmile_qr_scan", "android": "https://dc.lft.to/lastmile_qr_scan"}, "type": "electric_scooter", "name": "7c95dfd7bdd072d0e3f2c99477e6260f", "is_reserved": 0, "lon": -77.0241595, "is_disabled": 0, "fusion_lat": 0.0, "lat": 38.905679166666665, "bike_id": "7c95dfd7bdd072d0e3f2c99477e6260f", "fusion_lon": 0.0}, {"rental_uris": {"ios": "https://dc.lft.to/lastmile_qr_scan", "android": "https://dc.lft.to/lastmile_qr_scan"}, "type": "electric_scooter", "name": "854295d18075c3399dc4c9a13be32849", "is_reserved": 0, "lon": -77.02299666666667, "is_disabled": 0, "fusion_lat": 0.0, "lat": 38.9251675, "bike_id": "854295d18075c3399dc4c9a13be32849", "fusion_lon": 0.0}, {"rental_uris": {"ios": "https://dc.lft.to/lastmile_qr_scan", "android": "https://dc.lft.to/lastmile_qr_scan"}, "type": "electric_scooter", "name": "ee4158d702ca8208231fa9aaf82ca812", "is_reserved": 0, "lon": -77.03147516666667, "is_disabled": 0, "fusion_lat": 0.0, "lat": 38.91899983333333, "bike_id": "ee4158d702ca8208231fa9aaf82ca812", "fusion_lon": 0.0}, {"rental_uris": {"ios": "https://dc.lft.to/lastmile_qr_scan", "android": "https://dc.lft.to/lastmile_qr_scan"}, "type": "electric_scooter", "name": "3195d83e68c42ec010348b07e5673585", "is_reserved": 0, "lon": -77.02806766666667, "is_disabled": 0, "fusion_lat": 0.0, "lat": 38.907399833333336, "bike_id": "3195d83e68c42ec010348b07e5673585", "fusion_lon": 0.0}, {"rental_uris": {"ios": "https://dc.lft.to/lastmile_qr_scan", "android": "https://dc.lft.to/lastmile_qr_scan"}, "type": "electric_scooter", "name": "49f1b91d80136cb37fa68947d8fbc6b7", "is_reserved": 0, "lon": -77.00537216666666, "is_disabled": 0, "fusion_lat": 0.0, "lat": 38.900316833333335, "bike_id": "49f1b91d80136cb37fa68947d8fbc6b7", "fusion_lon": 0.0}, {"rental_uris": {"ios": "https://dc.lft.to/lastmile_qr_scan", "android": "https://dc.lft.to/lastmile_qr_scan"}, "type": "electric_scooter", "name": "8a257ba06d779ea11499b22b4a0fe97b", "is_reserved": 0, "lon": -77.01738783333333, "is_disabled": 0, "fusion_lat": 0.0, "lat": 38.920572, "bike_id": "8a257ba06d779ea11499b22b4a0fe97b", "fusion_lon": 0.0}, {"rental_uris": {"ios": "https://dc.lft.to/lastmile_qr_scan", "android": "https://dc.lft.to/lastmile_qr_scan"}, "type": "electric_scooter", "name": "612dd12eb39c2cff050c8743780604ad", "is_reserved": 0, "lon": -77.0280565, "is_disabled": 0, "fusion_lat": 0.0, "lat": 38.90738666666667, "bike_id": "612dd12eb39c2cff050c8743780604ad", "fusion_lon": 0.0}, {"rental_uris": {"ios": "https://dc.lft.to/lastmile_qr_scan", "android": "https://dc.lft.to/lastmile_qr_scan"}, "type": "electric_scooter", "name": "d7d15910f8a1c07aad4bc8966300ba22", "is_reserved": 0, "lon": -77.04019183333334, "is_disabled": 0, "fusion_lat": 0.0, "lat": 38.917956333333336, "bike_id": "d7d15910f8a1c07aad4bc8966300ba22", "fusion_lon": 0.0}, {"rental_uris": {"ios": "https://dc.lft.to/lastmile_qr_scan", "android": "https://dc.lft.to/lastmile_qr_scan"}, "type": "electric_scooter", "name": "ac996729db98e8b64dea4996811708ff", "is_reserved": 0, "lon": -77.02529666666666, "is_disabled": 0, "fusion_lat": 0.0, "lat": 38.94535283333333, "bike_id": "ac996729db98e8b64dea4996811708ff", "fusion_lon": 0.0}, {"rental_uris": {"ios": "https://dc.lft.to/lastmile_qr_scan", "android": "https://dc.lft.to/lastmile_qr_scan"}, "type": "electric_scooter", "name": "2906487031599fb93da0547eb8d8df0b", "is_reserved": 0, "lon": -77.0065565, "is_disabled": 0, "fusion_lat": 0.0, "lat": 38.901019166666664, "bike_id": "2906487031599fb93da0547eb8d8df0b", "fusion_lon": 0.0}, {"rental_uris": {"ios": "https://dc.lft.to/lastmile_qr_scan", "android": "https://dc.lft.to/lastmile_qr_scan"}, "type": "electric_scooter", "name": "4684c31d9b00e1b5f878c27e55d84631", "is_reserved": 0, "lon": -77.05513333333333, "is_disabled": 0, "fusion_lat": 0.0, "lat": 38.929787166666664, "bike_id": "4684c31d9b00e1b5f878c27e55d84631", "fusion_lon": 0.0}, {"rental_uris": {"ios": "https://dc.lft.to/lastmile_qr_scan", "android": "https://dc.lft.to/lastmile_qr_scan"}, "type": "electric_scooter", "name": "e276aa49fef2b8f7b6dc4b1d606804b3", "is_reserved": 0, "lon": -77.0384505, "is_disabled": 0, "fusion_lat": 0.0, "lat": 38.91099633333333, "bike_id": "e276aa49fef2b8f7b6dc4b1d606804b3", "fusion_lon": 0.0}, {"rental_uris": {"ios": "https://dc.lft.to/lastmile_qr_scan", "android": "https://dc.lft.to/lastmile_qr_scan"}, "type": "electric_scooter", "name": "18f9614af0a8fea6aa6f0e9e90ddeda8", "is_reserved": 0, "lon": -77.04821716666666, "is_disabled": 0, "fusion_lat": 0.0, "lat": 38.909684666666664, "bike_id": "18f9614af0a8fea6aa6f0e9e90ddeda8", "fusion_lon": 0.0}, {"rental_uris": {"ios": "https://dc.lft.to/lastmile_qr_scan", "android": "https://dc.lft.to/lastmile_qr_scan"}, "type": "electric_scooter", "name": "debadc50332bb1777cb2c97fe152f140", "is_reserved": 0, "lon": -76.94323466666667, "is_disabled": 0, "fusion_lat": 0.0, "lat": 38.879100666666666, "bike_id": "debadc50332bb1777cb2c97fe152f140", "fusion_lon": 0.0}, {"rental_uris": {"ios": "https://dc.lft.to/lastmile_qr_scan", "android": "https://dc.lft.to/lastmile_qr_scan"}, "type": "electric_scooter", "name": "2cd11818b92eaf11de2918aa7c52c69f", "is_reserved": 0, "lon": -77.042312, "is_disabled": 0, "fusion_lat": 0.0, "lat": 38.90971866666667, "bike_id": "2cd11818b92eaf11de2918aa7c52c69f", "fusion_lon": 0.0}, {"rental_uris": {"ios": "https://dc.lft.to/lastmile_qr_scan", "android": "https://dc.lft.to/lastmile_qr_scan"}, "type": "electric_bike", "name": "cb76fb88075b910dbf07e9ea2489e4d0", "is_reserved": 0, "lon": -77.07245783333333, "is_disabled": 0, "fusion_lat": 0.0, "lat": 38.813645333333334, "bike_id": "cb76fb88075b910dbf07e9ea2489e4d0", "fusion_lon": 0.0}, {"rental_uris": {"ios": "https://dc.lft.to/lastmile_qr_scan", "android": "https://dc.lft.to/lastmile_qr_scan"}, "type": "electric_scooter", "name": "9d4c169c4a1f2c63e44236f41710b914", "is_reserved": 0, "lon": -77.032049, "is_disabled": 0, "fusion_lat": 0.0, "lat": 38.9138735, "bike_id": "9d4c169c4a1f2c63e44236f41710b914", "fusion_lon": 0.0}, {"rental_uris": {"ios": "https://dc.lft.to/lastmile_qr_scan", "android": "https://dc.lft.to/lastmile_qr_scan"}, "type": "electric_scooter", "name": "c1c7404ae6eecb2c4e701080ff55076d", "is_reserved": 0, "lon": -77.04755566666667, "is_disabled": 0, "fusion_lat": 0.0, "lat": 38.9014075, "bike_id": "c1c7404ae6eecb2c4e701080ff55076d", "fusion_lon": 0.0}, {"rental_uris": {"ios": "https://dc.lft.to/lastmile_qr_scan", "android": "https://dc.lft.to/lastmile_qr_scan"}, "type": "electric_scooter", "name": "6a5a1c4cdf767add072be6311dffd554", "is_reserved": 0, "lon": -77.04407166666667, "is_disabled": 0, "fusion_lat": 0.0, "lat": 38.925941, "bike_id": "6a5a1c4cdf767add072be6311dffd554", "fusion_lon": 0.0}, {"rental_uris": {"ios": "https://dc.lft.to/lastmile_qr_scan", "android": "https://dc.lft.to/lastmile_qr_scan"}, "type": "electric_scooter", "name": "fc8579f3199884f8c4a5ba62ef301875", "is_reserved": 0, "lon": -76.98566583333333, "is_disabled": 0, "fusion_lat": 0.0, "lat": 38.89616516666667, "bike_id": "fc8579f3199884f8c4a5ba62ef301875", "fusion_lon": 0.0}, {"rental_uris": {"ios": "https://dc.lft.to/lastmile_qr_scan", "android": "https://dc.lft.to/lastmile_qr_scan"}, "type": "electric_scooter", "name": "3c0205d2dd7175176d69dcb7158b86bd", "is_reserved": 0, "lon": -77.0500575, "is_disabled": 0, "fusion_lat": 0.0, "lat": 38.89231, "bike_id": "3c0205d2dd7175176d69dcb7158b86bd", "fusion_lon": 0.0}, {"rental_uris": {"ios": "https://dc.lft.to/lastmile_qr_scan", "android": "https://dc.lft.to/lastmile_qr_scan"}, "type": "electric_scooter", "name": "b044c8bccbf6259f9b874a85e53d1822", "is_reserved": 0, "lon": -77.01537866666666, "is_disabled": 0, "fusion_lat": 0.0, "lat": 38.901461, "bike_id": "b044c8bccbf6259f9b874a85e53d1822", "fusion_lon": 0.0}, {"rental_uris": {"ios": "https://dc.lft.to/lastmile_qr_scan", "android": "https://dc.lft.to/lastmile_qr_scan"}, "type": "electric_scooter", "name": "ad7655d3117f4830299d0e82822cd5e3", "is_reserved": 0, "lon": -77.02759316666666, "is_disabled": 0, "fusion_lat": 0.0, "lat": 38.913425333333336, "bike_id": "ad7655d3117f4830299d0e82822cd5e3", "fusion_lon": 0.0}, {"rental_uris": {"ios": "https://dc.lft.to/lastmile_qr_scan", "android": "https://dc.lft.to/lastmile_qr_scan"}, "type": "electric_scooter", "name": "15e5992acd9ad9de35742554898c1bec", "is_reserved": 0, "lon": -77.04043666666666, "is_disabled": 0, "fusion_lat": 0.0, "lat": 38.9246, "bike_id": "15e5992acd9ad9de35742554898c1bec", "fusion_lon": 0.0}, {"rental_uris": {"ios": "https://dc.lft.to/lastmile_qr_scan", "android": "https://dc.lft.to/lastmile_qr_scan"}, "type": "electric_bike", "name": "9ea47fb3da96422f867d634ff442275e", "is_reserved": 0, "lon": -77.0752505, "is_disabled": 0, "fusion_lat": 0.0, "lat": 38.84286866666667, "bike_id": "9ea47fb3da96422f867d634ff442275e", "fusion_lon": 0.0}, {"rental_uris": {"ios": "https://dc.lft.to/lastmile_qr_scan", "android": "https://dc.lft.to/lastmile_qr_scan"}, "type": "electric_scooter", "name": "532b56c0b50077613be09b9bb9956625", "is_reserved": 0, "lon": -77.043757, "is_disabled": 0, "fusion_lat": 0.0, "lat": 38.93502433333333, "bike_id": "532b56c0b50077613be09b9bb9956625", "fusion_lon": 0.0}, {"rental_uris": {"ios": "https://dc.lft.to/lastmile_qr_scan", "android": "https://dc.lft.to/lastmile_qr_scan"}, "type": "electric_scooter", "name": "f4cb39ff849eccdb385c7afa01dea299", "is_reserved": 0, "lon": -77.01443233333333, "is_disabled": 0, "fusion_lat": 0.0, "lat": 38.91107, "bike_id": "f4cb39ff849eccdb385c7afa01dea299", "fusion_lon": 0.0}, {"rental_uris": {"ios": "https://dc.lft.to/lastmile_qr_scan", "android": "https://dc.lft.to/lastmile_qr_scan"}, "type": "electric_bike", "name": "5956e947cad5a7d90927fa44c5306a87", "is_reserved": 0, "lon": -76.95246033333333, "is_disabled": 0, "fusion_lat": 0.0, "lat": 38.8846475, "bike_id": "5956e947cad5a7d90927fa44c5306a87", "fusion_lon": 0.0}, {"rental_uris": {"ios": "https://dc.lft.to/lastmile_qr_scan", "android": "https://dc.lft.to/lastmile_qr_scan"}, "type": "electric_scooter", "name": "7a71917207b03f9ae7210a434735ff18", "is_reserved": 0, "lon": -77.0379275, "is_disabled": 0, "fusion_lat": 0.0, "lat": 38.931070166666665, "bike_id": "7a71917207b03f9ae7210a434735ff18", "fusion_lon": 0.0}, {"rental_uris": {"ios": "https://dc.lft.to/lastmile_qr_scan", "android": "https://dc.lft.to/lastmile_qr_scan"}, "type": "electric_bike", "name": "a4bd095a8ad4135fdcdad1c2f05fb4e2", "is_reserved": 0, "lon": -76.9452425, "is_disabled": 0, "fusion_lat": 0.0, "lat": 38.98270083333333, "bike_id": "a4bd095a8ad4135fdcdad1c2f05fb4e2", "fusion_lon": 0.0}, {"rental_uris": {"ios": "https://dc.lft.to/lastmile_qr_scan", "android": "https://dc.lft.to/lastmile_qr_scan"}, "type": "electric_bike", "name": "fcf38cd81ca471abcff8a1b43d701d7b", "is_reserved": 0, "lon": -77.07382866666667, "is_disabled": 0, "fusion_lat": 0.0, "lat": 38.96168516666667, "bike_id": "fcf38cd81ca471abcff8a1b43d701d7b", "fusion_lon": 0.0}, {"rental_uris": {"ios": "https://dc.lft.to/lastmile_qr_scan", "android": "https://dc.lft.to/lastmile_qr_scan"}, "type": "electric_scooter", "name": "28a9bd8972b6c14926cefc7d02a4292b", "is_reserved": 0, "lon": -77.08400916666666, "is_disabled": 0, "fusion_lat": 0.0, "lat": 38.908074666666664, "bike_id": "28a9bd8972b6c14926cefc7d02a4292b", "fusion_lon": 0.0}, {"rental_uris": {"ios": "https://dc.lft.to/lastmile_qr_scan", "android": "https://dc.lft.to/lastmile_qr_scan"}, "type": "electric_scooter", "name": "aed6fdc322c94d86ceb5e2ddad9ade46", "is_reserved": 0, "lon": -77.00299966666667, "is_disabled": 0, "fusion_lat": 0.0, "lat": 38.877255, "bike_id": "aed6fdc322c94d86ceb5e2ddad9ade46", "fusion_lon": 0.0}, {"rental_uris": {"ios": "https://dc.lft.to/lastmile_qr_scan", "android": "https://dc.lft.to/lastmile_qr_scan"}, "type": "electric_scooter", "name": "fe85006642a8323e1d43a89d35367bda", "is_reserved": 0, "lon": -77.04346716666667, "is_disabled": 0, "fusion_lat": 0.0, "lat": 38.9234385, "bike_id": "fe85006642a8323e1d43a89d35367bda", "fusion_lon": 0.0}, {"rental_uris": {"ios": "https://dc.lft.to/lastmile_qr_scan", "android": "https://dc.lft.to/lastmile_qr_scan"}, "type": "electric_scooter", "name": "47dabf0ace591b15246631c913169245", "is_reserved": 0, "lon": -77.0043465, "is_disabled": 0, "fusion_lat": 0.0, "lat": 38.88514833333333, "bike_id": "47dabf0ace591b15246631c913169245", "fusion_lon": 0.0}, {"rental_uris": {"ios": "https://dc.lft.to/lastmile_qr_scan", "android": "https://dc.lft.to/lastmile_qr_scan"}, "type": "electric_scooter", "name": "91e31e634f08bc39454bd6a5b7d777c2", "is_reserved": 0, "lon": -77.04482616666667, "is_disabled": 0, "fusion_lat": 0.0, "lat": 38.91208233333333, "bike_id": "91e31e634f08bc39454bd6a5b7d777c2", "fusion_lon": 0.0}, {"rental_uris": {"ios": "https://dc.lft.to/lastmile_qr_scan", "android": "https://dc.lft.to/lastmile_qr_scan"}, "type": "electric_scooter", "name": "edcaef1bcf101cd25daa6e8990de66d0", "is_reserved": 0, "lon": -77.04533716666667, "is_disabled": 0, "fusion_lat": 0.0, "lat": 38.90066066666667, "bike_id": "edcaef1bcf101cd25daa6e8990de66d0", "fusion_lon": 0.0}, {"rental_uris": {"ios": "https://dc.lft.to/lastmile_qr_scan", "android": "https://dc.lft.to/lastmile_qr_scan"}, "type": "electric_scooter", "name": "2a55a390e9b2d02ce1819d1b1916cc65", "is_reserved": 0, "lon": -77.038171, "is_disabled": 0, "fusion_lat": 0.0, "lat": 38.91516466666667, "bike_id": "2a55a390e9b2d02ce1819d1b1916cc65", "fusion_lon": 0.0}, {"rental_uris": {"ios": "https://dc.lft.to/lastmile_qr_scan", "android": "https://dc.lft.to/lastmile_qr_scan"}, "type": "electric_scooter", "name": "69d3db222910fb21bbc181553120ec6f", "is_reserved": 0, "lon": -77.02697666666667, "is_disabled": 0, "fusion_lat": 0.0, "lat": 38.926694499999996, "bike_id": "69d3db222910fb21bbc181553120ec6f", "fusion_lon": 0.0}, {"rental_uris": {"ios": "https://dc.lft.to/lastmile_qr_scan", "android": "https://dc.lft.to/lastmile_qr_scan"}, "type": "electric_scooter", "name": "1b12123d85dd4b776c37e2361ce5b273", "is_reserved": 0, "lon": -77.01773133333333, "is_disabled": 0, "fusion_lat": 0.0, "lat": 38.88727133333333, "bike_id": "1b12123d85dd4b776c37e2361ce5b273", "fusion_lon": 0.0}, {"rental_uris": {"ios": "https://dc.lft.to/lastmile_qr_scan", "android": "https://dc.lft.to/lastmile_qr_scan"}, "type": "electric_scooter", "name": "eba1dcb2df16ac21576a2d235777e9de", "is_reserved": 0, "lon": -77.044706, "is_disabled": 0, "fusion_lat": 0.0, "lat": 38.90057383333333, "bike_id": "eba1dcb2df16ac21576a2d235777e9de", "fusion_lon": 0.0}, {"rental_uris": {"ios": "https://dc.lft.to/lastmile_qr_scan", "android": "https://dc.lft.to/lastmile_qr_scan"}, "type": "electric_scooter", "name": "5eb1f1148eab82df6674ba5080121dd9", "is_reserved": 0, "lon": -77.06763666666667, "is_disabled": 0, "fusion_lat": 0.0, "lat": 38.903972833333334, "bike_id": "5eb1f1148eab82df6674ba5080121dd9", "fusion_lon": 0.0}, {"rental_uris": {"ios": "https://dc.lft.to/lastmile_qr_scan", "android": "https://dc.lft.to/lastmile_qr_scan"}, "type": "electric_scooter", "name": "f4a9c5b4b8abf43b40c338bad59392d7", "is_reserved": 0, "lon": -77.04469483333334, "is_disabled": 0, "fusion_lat": 0.0, "lat": 38.9144455, "bike_id": "f4a9c5b4b8abf43b40c338bad59392d7", "fusion_lon": 0.0}, {"rental_uris": {"ios": "https://dc.lft.to/lastmile_qr_scan", "android": "https://dc.lft.to/lastmile_qr_scan"}, "type": "electric_scooter", "name": "ae3c4456ea35d8845d1e648e8404dea2", "is_reserved": 0, "lon": -77.0384715, "is_disabled": 0, "fusion_lat": 0.0, "lat": 38.910932, "bike_id": "ae3c4456ea35d8845d1e648e8404dea2", "fusion_lon": 0.0}, {"rental_uris": {"ios": "https://dc.lft.to/lastmile_qr_scan", "android": "https://dc.lft.to/lastmile_qr_scan"}, "type": "electric_scooter", "name": "63305dfb1eac599b8114d76668179b6d", "is_reserved": 0, "lon": -77.02417333333334, "is_disabled": 0, "fusion_lat": 0.0, "lat": 38.8975255, "bike_id": "63305dfb1eac599b8114d76668179b6d", "fusion_lon": 0.0}, {"rental_uris": {"ios": "https://dc.lft.to/lastmile_qr_scan", "android": "https://dc.lft.to/lastmile_qr_scan"}, "type": "electric_scooter", "name": "a062f180038a97eec30522348259a96b", "is_reserved": 0, "lon": -77.03469716666666, "is_disabled": 0, "fusion_lat": 0.0, "lat": 38.9084, "bike_id": "a062f180038a97eec30522348259a96b", "fusion_lon": 0.0}, {"rental_uris": {"ios": "https://dc.lft.to/lastmile_qr_scan", "android": "https://dc.lft.to/lastmile_qr_scan"}, "type": "electric_scooter", "name": "d525c259b2ebbc9d080388927ddb12c7", "is_reserved": 0, "lon": -77.0250025, "is_disabled": 0, "fusion_lat": 0.0, "lat": 38.94175833333333, "bike_id": "d525c259b2ebbc9d080388927ddb12c7", "fusion_lon": 0.0}, {"rental_uris": {"ios": "https://dc.lft.to/lastmile_qr_scan", "android": "https://dc.lft.to/lastmile_qr_scan"}, "type": "electric_scooter", "name": "028acdd86f7ab9726f4bf02510bb8566", "is_reserved": 0, "lon": -77.02962566666666, "is_disabled": 0, "fusion_lat": 0.0, "lat": 38.92848333333333, "bike_id": "028acdd86f7ab9726f4bf02510bb8566", "fusion_lon": 0.0}, {"rental_uris": {"ios": "https://dc.lft.to/lastmile_qr_scan", "android": "https://dc.lft.to/lastmile_qr_scan"}, "type": "electric_bike", "name": "997da8a470d45796249a38536feed6bb", "is_reserved": 0, "lon": -77.08137783333333, "is_disabled": 0, "fusion_lat": 0.0, "lat": 38.82293, "bike_id": "997da8a470d45796249a38536feed6bb", "fusion_lon": 0.0}, {"rental_uris": {"ios": "https://dc.lft.to/lastmile_qr_scan", "android": "https://dc.lft.to/lastmile_qr_scan"}, "type": "electric_scooter", "name": "c46d1092e34791f2fd0fcbd7e75c01dd", "is_reserved": 0, "lon": -77.02428666666667, "is_disabled": 0, "fusion_lat": 0.0, "lat": 38.907252666666665, "bike_id": "c46d1092e34791f2fd0fcbd7e75c01dd", "fusion_lon": 0.0}, {"rental_uris": {"ios": "https://dc.lft.to/lastmile_qr_scan", "android": "https://dc.lft.to/lastmile_qr_scan"}, "type": "electric_scooter", "name": "2f0d132e7cd151ee503a20d492c1c8da", "is_reserved": 0, "lon": -77.07856366666667, "is_disabled": 0, "fusion_lat": 0.0, "lat": 38.931348666666665, "bike_id": "2f0d132e7cd151ee503a20d492c1c8da", "fusion_lon": 0.0}, {"rental_uris": {"ios": "https://dc.lft.to/lastmile_qr_scan", "android": "https://dc.lft.to/lastmile_qr_scan"}, "type": "electric_scooter", "name": "10e923b4fe9c6aee75d35b1bb5927625", "is_reserved": 0, "lon": -77.03781316666667, "is_disabled": 0, "fusion_lat": 0.0, "lat": 38.9126075, "bike_id": "10e923b4fe9c6aee75d35b1bb5927625", "fusion_lon": 0.0}, {"rental_uris": {"ios": "https://dc.lft.to/lastmile_qr_scan", "android": "https://dc.lft.to/lastmile_qr_scan"}, "type": "electric_bike", "name": "0d1d3905059fa29567f9519066dc383d", "is_reserved": 0, "lon": -76.96323416666667, "is_disabled": 0, "fusion_lat": 0.0, "lat": 38.938976833333335, "bike_id": "0d1d3905059fa29567f9519066dc383d", "fusion_lon": 0.0}, {"rental_uris": {"ios": "https://dc.lft.to/lastmile_qr_scan", "android": "https://dc.lft.to/lastmile_qr_scan"}, "type": "electric_scooter", "name": "a32a09cbfb681056372affabeec6392a", "is_reserved": 0, "lon": -77.034405, "is_disabled": 0, "fusion_lat": 0.0, "lat": 38.90668466666666, "bike_id": "a32a09cbfb681056372affabeec6392a", "fusion_lon": 0.0}, {"rental_uris": {"ios": "https://dc.lft.to/lastmile_qr_scan", "android": "https://dc.lft.to/lastmile_qr_scan"}, "type": "electric_scooter", "name": "42b5edf2eba1eb28d47ca6ad8c5a4b52", "is_reserved": 0, "lon": -77.05920483333334, "is_disabled": 0, "fusion_lat": 0.0, "lat": 38.90205666666667, "bike_id": "42b5edf2eba1eb28d47ca6ad8c5a4b52", "fusion_lon": 0.0}, {"rental_uris": {"ios": "https://dc.lft.to/lastmile_qr_scan", "android": "https://dc.lft.to/lastmile_qr_scan"}, "type": "electric_scooter", "name": "11d78d05f104f60b2843869652d19023", "is_reserved": 0, "lon": -77.053236, "is_disabled": 0, "fusion_lat": 0.0, "lat": 38.902702166666664, "bike_id": "11d78d05f104f60b2843869652d19023", "fusion_lon": 0.0}, {"rental_uris": {"ios": "https://dc.lft.to/lastmile_qr_scan", "android": "https://dc.lft.to/lastmile_qr_scan"}, "type": "electric_bike", "name": "db7d61eda3517e13eb5785042bb8f636", "is_reserved": 0, "lon": -77.038835, "is_disabled": 0, "fusion_lat": 0.0, "lat": 39.02635166666666, "bike_id": "db7d61eda3517e13eb5785042bb8f636", "fusion_lon": 0.0}, {"rental_uris": {"ios": "https://dc.lft.to/lastmile_qr_scan", "android": "https://dc.lft.to/lastmile_qr_scan"}, "type": "electric_scooter", "name": "e2677f1f3def208a2831d3750e9b2cbe", "is_reserved": 0, "lon": -77.00332866666666, "is_disabled": 0, "fusion_lat": 0.0, "lat": 38.90738616666667, "bike_id": "e2677f1f3def208a2831d3750e9b2cbe", "fusion_lon": 0.0}, {"rental_uris": {"ios": "https://dc.lft.to/lastmile_qr_scan", "android": "https://dc.lft.to/lastmile_qr_scan"}, "type": "electric_bike", "name": "da87b3de24ddba40f2e2bdcb18b0646e", "is_reserved": 0, "lon": -77.09619016666667, "is_disabled": 0, "fusion_lat": 0.0, "lat": 38.9524665, "bike_id": "da87b3de24ddba40f2e2bdcb18b0646e", "fusion_lon": 0.0}, {"rental_uris": {"ios": "https://dc.lft.to/lastmile_qr_scan", "android": "https://dc.lft.to/lastmile_qr_scan"}, "type": "electric_scooter", "name": "f9838816389e57767aa1cf129028d062", "is_reserved": 0, "lon": -76.99528716666667, "is_disabled": 0, "fusion_lat": 0.0, "lat": 38.9206515, "bike_id": "f9838816389e57767aa1cf129028d062", "fusion_lon": 0.0}, {"rental_uris": {"ios": "https://dc.lft.to/lastmile_qr_scan", "android": "https://dc.lft.to/lastmile_qr_scan"}, "type": "electric_bike", "name": "e4af54e14aeaa86c4f6883707917afd1", "is_reserved": 0, "lon": -77.00457983333334, "is_disabled": 0, "fusion_lat": 0.0, "lat": 38.911867666666666, "bike_id": "e4af54e14aeaa86c4f6883707917afd1", "fusion_lon": 0.0}, {"rental_uris": {"ios": "https://dc.lft.to/lastmile_qr_scan", "android": "https://dc.lft.to/lastmile_qr_scan"}, "type": "electric_scooter", "name": "8e63cc1bf7375320a6c5eeffd2fe0192", "is_reserved": 0, "lon": -77.06089083333333, "is_disabled": 0, "fusion_lat": 0.0, "lat": 38.902375666666664, "bike_id": "8e63cc1bf7375320a6c5eeffd2fe0192", "fusion_lon": 0.0}, {"rental_uris": {"ios": "https://dc.lft.to/lastmile_qr_scan", "android": "https://dc.lft.to/lastmile_qr_scan"}, "type": "electric_bike", "name": "f01c42102f76fe6a73fdc568d20b2b49", "is_reserved": 0, "lon": -77.1623645, "is_disabled": 0, "fusion_lat": 0.0, "lat": 38.88663566666666, "bike_id": "f01c42102f76fe6a73fdc568d20b2b49", "fusion_lon": 0.0}, {"rental_uris": {"ios": "https://dc.lft.to/lastmile_qr_scan", "android": "https://dc.lft.to/lastmile_qr_scan"}, "type": "electric_scooter", "name": "e4984fcd3e88645ae22ad6bec0645359", "is_reserved": 0, "lon": -76.99620433333334, "is_disabled": 0, "fusion_lat": 0.0, "lat": 38.891906, "bike_id": "e4984fcd3e88645ae22ad6bec0645359", "fusion_lon": 0.0}, {"rental_uris": {"ios": "https://dc.lft.to/lastmile_qr_scan", "android": "https://dc.lft.to/lastmile_qr_scan"}, "type": "electric_scooter", "name": "02bdeb6c02fb0cefc343c74cfa48055f", "is_reserved": 0, "lon": -77.03711766666666, "is_disabled": 0, "fusion_lat": 0.0, "lat": 38.92655516666667, "bike_id": "02bdeb6c02fb0cefc343c74cfa48055f", "fusion_lon": 0.0}, {"rental_uris": {"ios": "https://dc.lft.to/lastmile_qr_scan", "android": "https://dc.lft.to/lastmile_qr_scan"}, "type": "electric_scooter", "name": "bc324f7bec6e7f09fa54063c976595b5", "is_reserved": 0, "lon": -77.03337366666666, "is_disabled": 0, "fusion_lat": 0.0, "lat": 38.8922045, "bike_id": "bc324f7bec6e7f09fa54063c976595b5", "fusion_lon": 0.0}, {"rental_uris": {"ios": "https://dc.lft.to/lastmile_qr_scan", "android": "https://dc.lft.to/lastmile_qr_scan"}, "type": "electric_scooter", "name": "79dd8c1c8d6ff34e49489ad92b520b5a", "is_reserved": 0, "lon": -77.010185, "is_disabled": 0, "fusion_lat": 0.0, "lat": 38.914059, "bike_id": "79dd8c1c8d6ff34e49489ad92b520b5a", "fusion_lon": 0.0}, {"rental_uris": {"ios": "https://dc.lft.to/lastmile_qr_scan", "android": "https://dc.lft.to/lastmile_qr_scan"}, "type": "electric_scooter", "name": "cc2ed780168b4e27392e62e8a014b190", "is_reserved": 0, "lon": -77.02691166666666, "is_disabled": 0, "fusion_lat": 0.0, "lat": 38.9115015, "bike_id": "cc2ed780168b4e27392e62e8a014b190", "fusion_lon": 0.0}, {"rental_uris": {"ios": "https://dc.lft.to/lastmile_qr_scan", "android": "https://dc.lft.to/lastmile_qr_scan"}, "type": "electric_scooter", "name": "420ed2183fb91c366b8d4a53fb1b605e", "is_reserved": 0, "lon": -77.01989, "is_disabled": 0, "fusion_lat": 0.0, "lat": 38.898243, "bike_id": "420ed2183fb91c366b8d4a53fb1b605e", "fusion_lon": 0.0}, {"rental_uris": {"ios": "https://dc.lft.to/lastmile_qr_scan", "android": "https://dc.lft.to/lastmile_qr_scan"}, "type": "electric_scooter", "name": "c329303a5d25f7202268f4a0e75dcdfc", "is_reserved": 0, "lon": -77.04232866666666, "is_disabled": 0, "fusion_lat": 0.0, "lat": 38.92194966666667, "bike_id": "c329303a5d25f7202268f4a0e75dcdfc", "fusion_lon": 0.0}, {"rental_uris": {"ios": "https://dc.lft.to/lastmile_qr_scan", "android": "https://dc.lft.to/lastmile_qr_scan"}, "type": "electric_scooter", "name": "5405cf1e866ae10774492c693a575be0", "is_reserved": 0, "lon": -77.033671, "is_disabled": 0, "fusion_lat": 0.0, "lat": 38.930589, "bike_id": "5405cf1e866ae10774492c693a575be0", "fusion_lon": 0.0}, {"rental_uris": {"ios": "https://dc.lft.to/lastmile_qr_scan", "android": "https://dc.lft.to/lastmile_qr_scan"}, "type": "electric_scooter", "name": "bd64cf6534a7a17a01dd49413ea94b3f", "is_reserved": 0, "lon": -77.0559905, "is_disabled": 0, "fusion_lat": 0.0, "lat": 38.894244666666665, "bike_id": "bd64cf6534a7a17a01dd49413ea94b3f", "fusion_lon": 0.0}, {"rental_uris": {"ios": "https://dc.lft.to/lastmile_qr_scan", "android": "https://dc.lft.to/lastmile_qr_scan"}, "type": "electric_scooter", "name": "faa675f2610999b3263df73c413eb325", "is_reserved": 0, "lon": -77.03290783333334, "is_disabled": 0, "fusion_lat": 0.0, "lat": 38.92448516666666, "bike_id": "faa675f2610999b3263df73c413eb325", "fusion_lon": 0.0}, {"rental_uris": {"ios": "https://dc.lft.to/lastmile_qr_scan", "android": "https://dc.lft.to/lastmile_qr_scan"}, "type": "electric_scooter", "name": "91988f1dd3125a9be4f9c9e1b36c532c", "is_reserved": 0, "lon": -77.02091633333333, "is_disabled": 0, "fusion_lat": 0.0, "lat": 38.927151, "bike_id": "91988f1dd3125a9be4f9c9e1b36c532c", "fusion_lon": 0.0}, {"rental_uris": {"ios": "https://dc.lft.to/lastmile_qr_scan", "android": "https://dc.lft.to/lastmile_qr_scan"}, "type": "electric_scooter", "name": "3990201270a8b0378831fa512c8389f9", "is_reserved": 0, "lon": -77.0213485, "is_disabled": 0, "fusion_lat": 0.0, "lat": 38.913200833333335, "bike_id": "3990201270a8b0378831fa512c8389f9", "fusion_lon": 0.0}, {"rental_uris": {"ios": "https://dc.lft.to/lastmile_qr_scan", "android": "https://dc.lft.to/lastmile_qr_scan"}, "type": "electric_scooter", "name": "3549f6ea6e6f7d95a72ac41888b876a9", "is_reserved": 0, "lon": -77.030618, "is_disabled": 0, "fusion_lat": 0.0, "lat": 38.909610666666666, "bike_id": "3549f6ea6e6f7d95a72ac41888b876a9", "fusion_lon": 0.0}, {"rental_uris": {"ios": "https://dc.lft.to/lastmile_qr_scan", "android": "https://dc.lft.to/lastmile_qr_scan"}, "type": "electric_scooter", "name": "3e72e9ee4a209c0ca9f5e5a75346af38", "is_reserved": 0, "lon": -77.01355983333333, "is_disabled": 0, "fusion_lat": 0.0, "lat": 38.9194065, "bike_id": "3e72e9ee4a209c0ca9f5e5a75346af38", "fusion_lon": 0.0}, {"rental_uris": {"ios": "https://dc.lft.to/lastmile_qr_scan", "android": "https://dc.lft.to/lastmile_qr_scan"}, "type": "electric_scooter", "name": "260f43a309bd30dc5abc9df69fd6cf0b", "is_reserved": 0, "lon": -77.03812583333334, "is_disabled": 0, "fusion_lat": 0.0, "lat": 38.914176, "bike_id": "260f43a309bd30dc5abc9df69fd6cf0b", "fusion_lon": 0.0}, {"rental_uris": {"ios": "https://dc.lft.to/lastmile_qr_scan", "android": "https://dc.lft.to/lastmile_qr_scan"}, "type": "electric_scooter", "name": "ce157a89104b6f7257c719f719026494", "is_reserved": 0, "lon": -76.9915005, "is_disabled": 0, "fusion_lat": 0.0, "lat": 38.900394, "bike_id": "ce157a89104b6f7257c719f719026494", "fusion_lon": 0.0}, {"rental_uris": {"ios": "https://dc.lft.to/lastmile_qr_scan", "android": "https://dc.lft.to/lastmile_qr_scan"}, "type": "electric_scooter", "name": "39906f5ae4d0eace023eff16ea2b95e8", "is_reserved": 0, "lon": -77.003936, "is_disabled": 0, "fusion_lat": 0.0, "lat": 38.907639333333336, "bike_id": "39906f5ae4d0eace023eff16ea2b95e8", "fusion_lon": 0.0}, {"rental_uris": {"ios": "https://dc.lft.to/lastmile_qr_scan", "android": "https://dc.lft.to/lastmile_qr_scan"}, "type": "electric_scooter", "name": "5df144f8976a3fd97fecde800478f899", "is_reserved": 0, "lon": -77.03443216666666, "is_disabled": 0, "fusion_lat": 0.0, "lat": 38.91015733333333, "bike_id": "5df144f8976a3fd97fecde800478f899", "fusion_lon": 0.0}, {"rental_uris": {"ios": "https://dc.lft.to/lastmile_qr_scan", "android": "https://dc.lft.to/lastmile_qr_scan"}, "type": "electric_scooter", "name": "5c123fcb1612c3179324cc9012ccdef4", "is_reserved": 0, "lon": -76.9888585, "is_disabled": 0, "fusion_lat": 0.0, "lat": 38.89954816666667, "bike_id": "5c123fcb1612c3179324cc9012ccdef4", "fusion_lon": 0.0}, {"rental_uris": {"ios": "https://dc.lft.to/lastmile_qr_scan", "android": "https://dc.lft.to/lastmile_qr_scan"}, "type": "electric_scooter", "name": "d18960ca8b5e409dc68e74411824b217", "is_reserved": 0, "lon": -77.0320765, "is_disabled": 0, "fusion_lat": 0.0, "lat": 38.89231683333333, "bike_id": "d18960ca8b5e409dc68e74411824b217", "fusion_lon": 0.0}, {"rental_uris": {"ios": "https://dc.lft.to/lastmile_qr_scan", "android": "https://dc.lft.to/lastmile_qr_scan"}, "type": "electric_scooter", "name": "6ee43b9c1e5979d8555afc69eb74d1e3", "is_reserved": 0, "lon": -77.031847, "is_disabled": 0, "fusion_lat": 0.0, "lat": 38.92488433333333, "bike_id": "6ee43b9c1e5979d8555afc69eb74d1e3", "fusion_lon": 0.0}, {"rental_uris": {"ios": "https://dc.lft.to/lastmile_qr_scan", "android": "https://dc.lft.to/lastmile_qr_scan"}, "type": "electric_scooter", "name": "dba1c9ac125d1408e8bc97811c84e8f7", "is_reserved": 0, "lon": -77.04184466666666, "is_disabled": 0, "fusion_lat": 0.0, "lat": 38.901491, "bike_id": "dba1c9ac125d1408e8bc97811c84e8f7", "fusion_lon": 0.0}, {"rental_uris": {"ios": "https://dc.lft.to/lastmile_qr_scan", "android": "https://dc.lft.to/lastmile_qr_scan"}, "type": "electric_scooter", "name": "e79431eaf65e6a7eaf0c310a5faf8b4a", "is_reserved": 0, "lon": -77.007365, "is_disabled": 0, "fusion_lat": 0.0, "lat": 38.898355333333335, "bike_id": "e79431eaf65e6a7eaf0c310a5faf8b4a", "fusion_lon": 0.0}, {"rental_uris": {"ios": "https://dc.lft.to/lastmile_qr_scan", "android": "https://dc.lft.to/lastmile_qr_scan"}, "type": "electric_scooter", "name": "c95e14d796e1b1a0d0b87f66b27fa5b7", "is_reserved": 0, "lon": -77.0322345, "is_disabled": 0, "fusion_lat": 0.0, "lat": 38.907165666666664, "bike_id": "c95e14d796e1b1a0d0b87f66b27fa5b7", "fusion_lon": 0.0}, {"rental_uris": {"ios": "https://dc.lft.to/lastmile_qr_scan", "android": "https://dc.lft.to/lastmile_qr_scan"}, "type": "electric_scooter", "name": "a355a01101199396f29ffb59c55febef", "is_reserved": 0, "lon": -76.990991, "is_disabled": 0, "fusion_lat": 0.0, "lat": 38.85733183333333, "bike_id": "a355a01101199396f29ffb59c55febef", "fusion_lon": 0.0}, {"rental_uris": {"ios": "https://dc.lft.to/lastmile_qr_scan", "android": "https://dc.lft.to/lastmile_qr_scan"}, "type": "electric_scooter", "name": "6ac480b55714a2b8d13eda3ab9df9909", "is_reserved": 0, "lon": -77.05322516666666, "is_disabled": 0, "fusion_lat": 0.0, "lat": 38.902645, "bike_id": "6ac480b55714a2b8d13eda3ab9df9909", "fusion_lon": 0.0}, {"rental_uris": {"ios": "https://dc.lft.to/lastmile_qr_scan", "android": "https://dc.lft.to/lastmile_qr_scan"}, "type": "electric_scooter", "name": "ab8bb658702b8daaecfac7cba4572089", "is_reserved": 0, "lon": -77.0311185, "is_disabled": 0, "fusion_lat": 0.0, "lat": 38.918558833333336, "bike_id": "ab8bb658702b8daaecfac7cba4572089", "fusion_lon": 0.0}, {"rental_uris": {"ios": "https://dc.lft.to/lastmile_qr_scan", "android": "https://dc.lft.to/lastmile_qr_scan"}, "type": "electric_scooter", "name": "34bee2853115e1d65c251b7ceee6660d", "is_reserved": 0, "lon": -76.9942295, "is_disabled": 0, "fusion_lat": 0.0, "lat": 38.916905166666666, "bike_id": "34bee2853115e1d65c251b7ceee6660d", "fusion_lon": 0.0}, {"rental_uris": {"ios": "https://dc.lft.to/lastmile_qr_scan", "android": "https://dc.lft.to/lastmile_qr_scan"}, "type": "electric_scooter", "name": "bad9893cd267292f79d8f51acfe3f821", "is_reserved": 0, "lon": -77.04732383333334, "is_disabled": 0, "fusion_lat": 0.0, "lat": 38.895526333333336, "bike_id": "bad9893cd267292f79d8f51acfe3f821", "fusion_lon": 0.0}, {"rental_uris": {"ios": "https://dc.lft.to/lastmile_qr_scan", "android": "https://dc.lft.to/lastmile_qr_scan"}, "type": "electric_scooter", "name": "9cc34c3c05076117bd89e25e16589c50", "is_reserved": 0, "lon": -77.0248695, "is_disabled": 0, "fusion_lat": 0.0, "lat": 38.91812766666666, "bike_id": "9cc34c3c05076117bd89e25e16589c50", "fusion_lon": 0.0}, {"rental_uris": {"ios": "https://dc.lft.to/lastmile_qr_scan", "android": "https://dc.lft.to/lastmile_qr_scan"}, "type": "electric_scooter", "name": "4014f94c60fb0b0beb65409b0d681a76", "is_reserved": 0, "lon": -77.038552, "is_disabled": 0, "fusion_lat": 0.0, "lat": 38.91315216666667, "bike_id": "4014f94c60fb0b0beb65409b0d681a76", "fusion_lon": 0.0}, {"rental_uris": {"ios": "https://dc.lft.to/lastmile_qr_scan", "android": "https://dc.lft.to/lastmile_qr_scan"}, "type": "electric_scooter", "name": "ae1b67ca74dc2affc037ab576a2aab77", "is_reserved": 0, "lon": -77.02440333333334, "is_disabled": 0, "fusion_lat": 0.0, "lat": 38.897134333333334, "bike_id": "ae1b67ca74dc2affc037ab576a2aab77", "fusion_lon": 0.0}, {"rental_uris": {"ios": "https://dc.lft.to/lastmile_qr_scan", "android": "https://dc.lft.to/lastmile_qr_scan"}, "type": "electric_bike", "name": "bc5db1ebd65e7ab3ce7e8d20844fb7e5", "is_reserved": 0, "lon": -76.98358683333333, "is_disabled": 0, "fusion_lat": 0.0, "lat": 38.8625905, "bike_id": "bc5db1ebd65e7ab3ce7e8d20844fb7e5", "fusion_lon": 0.0}, {"rental_uris": {"ios": "https://dc.lft.to/lastmile_qr_scan", "android": "https://dc.lft.to/lastmile_qr_scan"}, "type": "electric_bike", "name": "cddac218766cc21b60290b1f14e1f567", "is_reserved": 0, "lon": -76.9288865, "is_disabled": 0, "fusion_lat": 0.0, "lat": 38.97824933333333, "bike_id": "cddac218766cc21b60290b1f14e1f567", "fusion_lon": 0.0}, {"rental_uris": {"ios": "https://dc.lft.to/lastmile_qr_scan", "android": "https://dc.lft.to/lastmile_qr_scan"}, "type": "electric_scooter", "name": "00cd361c91609798221916bcdfd3b5fd", "is_reserved": 0, "lon": -77.04654916666667, "is_disabled": 0, "fusion_lat": 0.0, "lat": 38.90975666666667, "bike_id": "00cd361c91609798221916bcdfd3b5fd", "fusion_lon": 0.0}, {"rental_uris": {"ios": "https://dc.lft.to/lastmile_qr_scan", "android": "https://dc.lft.to/lastmile_qr_scan"}, "type": "electric_scooter", "name": "957eb5a6dc3f1d18e7e14fa17a359b24", "is_reserved": 0, "lon": -77.02208566666667, "is_disabled": 0, "fusion_lat": 0.0, "lat": 38.910143166666664, "bike_id": "957eb5a6dc3f1d18e7e14fa17a359b24", "fusion_lon": 0.0}, {"rental_uris": {"ios": "https://dc.lft.to/lastmile_qr_scan", "android": "https://dc.lft.to/lastmile_qr_scan"}, "type": "electric_scooter", "name": "19e4075f07328032936426b54d981d40", "is_reserved": 0, "lon": -77.02769616666667, "is_disabled": 0, "fusion_lat": 0.0, "lat": 38.91695716666667, "bike_id": "19e4075f07328032936426b54d981d40", "fusion_lon": 0.0}, {"rental_uris": {"ios": "https://dc.lft.to/lastmile_qr_scan", "android": "https://dc.lft.to/lastmile_qr_scan"}, "type": "electric_scooter", "name": "3d0eb9af491f13379f80c6df509e72b7", "is_reserved": 0, "lon": -77.01203833333334, "is_disabled": 0, "fusion_lat": 0.0, "lat": 38.871763333333334, "bike_id": "3d0eb9af491f13379f80c6df509e72b7", "fusion_lon": 0.0}, {"rental_uris": {"ios": "https://dc.lft.to/lastmile_qr_scan", "android": "https://dc.lft.to/lastmile_qr_scan"}, "type": "electric_scooter", "name": "4491936c37b2f23943a10dd4dab72cfd", "is_reserved": 0, "lon": -77.04899466666667, "is_disabled": 0, "fusion_lat": 0.0, "lat": 38.90373, "bike_id": "4491936c37b2f23943a10dd4dab72cfd", "fusion_lon": 0.0}, {"rental_uris": {"ios": "https://dc.lft.to/lastmile_qr_scan", "android": "https://dc.lft.to/lastmile_qr_scan"}, "type": "electric_bike", "name": "62adb03bb05910ddce9281d8573c2d87", "is_reserved": 0, "lon": -76.97952466666666, "is_disabled": 0, "fusion_lat": 0.0, "lat": 38.920378, "bike_id": "62adb03bb05910ddce9281d8573c2d87", "fusion_lon": 0.0}, {"rental_uris": {"ios": "https://dc.lft.to/lastmile_qr_scan", "android": "https://dc.lft.to/lastmile_qr_scan"}, "type": "electric_scooter", "name": "8ce6e2bc6bc77c6a5fe7ec8399a5a429", "is_reserved": 0, "lon": -76.9839955, "is_disabled": 0, "fusion_lat": 0.0, "lat": 38.925143, "bike_id": "8ce6e2bc6bc77c6a5fe7ec8399a5a429", "fusion_lon": 0.0}, {"rental_uris": {"ios": "https://dc.lft.to/lastmile_qr_scan", "android": "https://dc.lft.to/lastmile_qr_scan"}, "type": "electric_scooter", "name": "f3bf35dd8cdcfcc1dd2d69eb31be3728", "is_reserved": 0, "lon": -77.04288483333333, "is_disabled": 0, "fusion_lat": 0.0, "lat": 38.92252333333333, "bike_id": "f3bf35dd8cdcfcc1dd2d69eb31be3728", "fusion_lon": 0.0}, {"rental_uris": {"ios": "https://dc.lft.to/lastmile_qr_scan", "android": "https://dc.lft.to/lastmile_qr_scan"}, "type": "electric_scooter", "name": "892de1f6435fa31bf1543f5d4f3f8333", "is_reserved": 0, "lon": -76.98607166666666, "is_disabled": 0, "fusion_lat": 0.0, "lat": 38.87838083333333, "bike_id": "892de1f6435fa31bf1543f5d4f3f8333", "fusion_lon": 0.0}, {"rental_uris": {"ios": "https://dc.lft.to/lastmile_qr_scan", "android": "https://dc.lft.to/lastmile_qr_scan"}, "type": "electric_scooter", "name": "c4902327f6332f1ec73f0386e4b22ec5", "is_reserved": 0, "lon": -77.00870333333333, "is_disabled": 0, "fusion_lat": 0.0, "lat": 38.912626833333334, "bike_id": "c4902327f6332f1ec73f0386e4b22ec5", "fusion_lon": 0.0}, {"rental_uris": {"ios": "https://dc.lft.to/lastmile_qr_scan", "android": "https://dc.lft.to/lastmile_qr_scan"}, "type": "electric_scooter", "name": "d9787abb1ed3a5f28493bea58c52433e", "is_reserved": 0, "lon": -76.99144133333333, "is_disabled": 0, "fusion_lat": 0.0, "lat": 38.90866483333333, "bike_id": "d9787abb1ed3a5f28493bea58c52433e", "fusion_lon": 0.0}, {"rental_uris": {"ios": "https://dc.lft.to/lastmile_qr_scan", "android": "https://dc.lft.to/lastmile_qr_scan"}, "type": "electric_scooter", "name": "b47533f87b62af42eb570ce0a23e8638", "is_reserved": 0, "lon": -77.02053233333334, "is_disabled": 0, "fusion_lat": 0.0, "lat": 38.9224755, "bike_id": "b47533f87b62af42eb570ce0a23e8638", "fusion_lon": 0.0}, {"rental_uris": {"ios": "https://dc.lft.to/lastmile_qr_scan", "android": "https://dc.lft.to/lastmile_qr_scan"}, "type": "electric_scooter", "name": "24598887ea2d7e25de429a2c349a5c76", "is_reserved": 0, "lon": -77.034727, "is_disabled": 0, "fusion_lat": 0.0, "lat": 38.93021366666667, "bike_id": "24598887ea2d7e25de429a2c349a5c76", "fusion_lon": 0.0}, {"rental_uris": {"ios": "https://dc.lft.to/lastmile_qr_scan", "android": "https://dc.lft.to/lastmile_qr_scan"}, "type": "electric_scooter", "name": "e3ea8d81d280a6d51d45ee0a5c80227e", "is_reserved": 0, "lon": -76.99414416666667, "is_disabled": 0, "fusion_lat": 0.0, "lat": 38.877849833333336, "bike_id": "e3ea8d81d280a6d51d45ee0a5c80227e", "fusion_lon": 0.0}, {"rental_uris": {"ios": "https://dc.lft.to/lastmile_qr_scan", "android": "https://dc.lft.to/lastmile_qr_scan"}, "type": "electric_bike", "name": "e971e7bb710e47a8a85ecf878edb4a3b", "is_reserved": 0, "lon": -76.88970983333333, "is_disabled": 0, "fusion_lat": 0.0, "lat": 39.00788766666667, "bike_id": "e971e7bb710e47a8a85ecf878edb4a3b", "fusion_lon": 0.0}, {"rental_uris": {"ios": "https://dc.lft.to/lastmile_qr_scan", "android": "https://dc.lft.to/lastmile_qr_scan"}, "type": "electric_scooter", "name": "99ebdc0a3046b6f3ba21a54f4091250a", "is_reserved": 0, "lon": -77.04071916666666, "is_disabled": 0, "fusion_lat": 0.0, "lat": 38.9141195, "bike_id": "99ebdc0a3046b6f3ba21a54f4091250a", "fusion_lon": 0.0}, {"rental_uris": {"ios": "https://dc.lft.to/lastmile_qr_scan", "android": "https://dc.lft.to/lastmile_qr_scan"}, "type": "electric_scooter", "name": "a864c2523f4a4e695b3eaa80e98fcdae", "is_reserved": 0, "lon": -77.04501833333333, "is_disabled": 0, "fusion_lat": 0.0, "lat": 38.8962235, "bike_id": "a864c2523f4a4e695b3eaa80e98fcdae", "fusion_lon": 0.0}, {"rental_uris": {"ios": "https://dc.lft.to/lastmile_qr_scan", "android": "https://dc.lft.to/lastmile_qr_scan"}, "type": "electric_scooter", "name": "f29936f60153bed6326cb2eba6afd994", "is_reserved": 0, "lon": -77.0552145, "is_disabled": 0, "fusion_lat": 0.0, "lat": 38.93015166666667, "bike_id": "f29936f60153bed6326cb2eba6afd994", "fusion_lon": 0.0}, {"rental_uris": {"ios": "https://dc.lft.to/lastmile_qr_scan", "android": "https://dc.lft.to/lastmile_qr_scan"}, "type": "electric_bike", "name": "c2799f16a4f81e86c8897ce27294d3fb", "is_reserved": 0, "lon": -76.99856133333333, "is_disabled": 0, "fusion_lat": 0.0, "lat": 38.900035, "bike_id": "c2799f16a4f81e86c8897ce27294d3fb", "fusion_lon": 0.0}, {"rental_uris": {"ios": "https://dc.lft.to/lastmile_qr_scan", "android": "https://dc.lft.to/lastmile_qr_scan"}, "type": "electric_scooter", "name": "19c818036cd3e886c75fb7f6f6d3c0b6", "is_reserved": 0, "lon": -77.04014833333333, "is_disabled": 0, "fusion_lat": 0.0, "lat": 38.9183475, "bike_id": "19c818036cd3e886c75fb7f6f6d3c0b6", "fusion_lon": 0.0}, {"rental_uris": {"ios": "https://dc.lft.to/lastmile_qr_scan", "android": "https://dc.lft.to/lastmile_qr_scan"}, "type": "electric_scooter", "name": "a6c189823ebf413ed63bf9f01572e7e2", "is_reserved": 0, "lon": -77.0072075, "is_disabled": 0, "fusion_lat": 0.0, "lat": 38.876191666666664, "bike_id": "a6c189823ebf413ed63bf9f01572e7e2", "fusion_lon": 0.0}, {"rental_uris": {"ios": "https://dc.lft.to/lastmile_qr_scan", "android": "https://dc.lft.to/lastmile_qr_scan"}, "type": "electric_scooter", "name": "7defd7dde6fb2a0d69e5f7114b0c7f83", "is_reserved": 0, "lon": -76.99415716666667, "is_disabled": 0, "fusion_lat": 0.0, "lat": 38.9208755, "bike_id": "7defd7dde6fb2a0d69e5f7114b0c7f83", "fusion_lon": 0.0}, {"rental_uris": {"ios": "https://dc.lft.to/lastmile_qr_scan", "android": "https://dc.lft.to/lastmile_qr_scan"}, "type": "electric_scooter", "name": "5b0516f43e17bc46a1eeb00115962093", "is_reserved": 0, "lon": -77.05022283333334, "is_disabled": 0, "fusion_lat": 0.0, "lat": 38.92354866666667, "bike_id": "5b0516f43e17bc46a1eeb00115962093", "fusion_lon": 0.0}, {"rental_uris": {"ios": "https://dc.lft.to/lastmile_qr_scan", "android": "https://dc.lft.to/lastmile_qr_scan"}, "type": "electric_scooter", "name": "42ad1b195530b068e86bcd34885844c3", "is_reserved": 0, "lon": -77.03175516666667, "is_disabled": 0, "fusion_lat": 0.0, "lat": 38.91184633333334, "bike_id": "42ad1b195530b068e86bcd34885844c3", "fusion_lon": 0.0}, {"rental_uris": {"ios": "https://dc.lft.to/lastmile_qr_scan", "android": "https://dc.lft.to/lastmile_qr_scan"}, "type": "electric_scooter", "name": "3697c8b3855f4903fb51048a830cee08", "is_reserved": 0, "lon": -77.03838333333333, "is_disabled": 0, "fusion_lat": 0.0, "lat": 38.91081333333333, "bike_id": "3697c8b3855f4903fb51048a830cee08", "fusion_lon": 0.0}, {"rental_uris": {"ios": "https://dc.lft.to/lastmile_qr_scan", "android": "https://dc.lft.to/lastmile_qr_scan"}, "type": "electric_scooter", "name": "68eee28a7fc77c0e890f3211cccdcafd", "is_reserved": 0, "lon": -77.03539266666667, "is_disabled": 0, "fusion_lat": 0.0, "lat": 38.90461116666667, "bike_id": "68eee28a7fc77c0e890f3211cccdcafd", "fusion_lon": 0.0}, {"rental_uris": {"ios": "https://dc.lft.to/lastmile_qr_scan", "android": "https://dc.lft.to/lastmile_qr_scan"}, "type": "electric_scooter", "name": "ade4d48f52ec21e3098bd79761dab19b", "is_reserved": 0, "lon": -77.04487083333333, "is_disabled": 0, "fusion_lat": 0.0, "lat": 38.89337366666667, "bike_id": "ade4d48f52ec21e3098bd79761dab19b", "fusion_lon": 0.0}, {"rental_uris": {"ios": "https://dc.lft.to/lastmile_qr_scan", "android": "https://dc.lft.to/lastmile_qr_scan"}, "type": "electric_scooter", "name": "8ed2d55c00bfc0a7cde72d761110f4b7", "is_reserved": 0, "lon": -77.00952683333334, "is_disabled": 0, "fusion_lat": 0.0, "lat": 38.87633116666667, "bike_id": "8ed2d55c00bfc0a7cde72d761110f4b7", "fusion_lon": 0.0}, {"rental_uris": {"ios": "https://dc.lft.to/lastmile_qr_scan", "android": "https://dc.lft.to/lastmile_qr_scan"}, "type": "electric_scooter", "name": "604dfbc29f9265f8c6306977612f7e79", "is_reserved": 0, "lon": -77.0109245, "is_disabled": 0, "fusion_lat": 0.0, "lat": 38.90333016666666, "bike_id": "604dfbc29f9265f8c6306977612f7e79", "fusion_lon": 0.0}, {"rental_uris": {"ios": "https://dc.lft.to/lastmile_qr_scan", "android": "https://dc.lft.to/lastmile_qr_scan"}, "type": "electric_scooter", "name": "a8d87abb70f7855569ca8a470a42a66e", "is_reserved": 0, "lon": -77.021288, "is_disabled": 0, "fusion_lat": 0.0, "lat": 38.92412, "bike_id": "a8d87abb70f7855569ca8a470a42a66e", "fusion_lon": 0.0}, {"rental_uris": {"ios": "https://dc.lft.to/lastmile_qr_scan", "android": "https://dc.lft.to/lastmile_qr_scan"}, "type": "electric_scooter", "name": "bfb5e9ec3eb13e0e27fad6b93c422292", "is_reserved": 0, "lon": -77.00197516666667, "is_disabled": 0, "fusion_lat": 0.0, "lat": 38.90239116666667, "bike_id": "bfb5e9ec3eb13e0e27fad6b93c422292", "fusion_lon": 0.0}, {"rental_uris": {"ios": "https://dc.lft.to/lastmile_qr_scan", "android": "https://dc.lft.to/lastmile_qr_scan"}, "type": "electric_scooter", "name": "80c21dfcd0b52fc768db62533b435f5e", "is_reserved": 0, "lon": -76.994657, "is_disabled": 0, "fusion_lat": 0.0, "lat": 38.90551116666666, "bike_id": "80c21dfcd0b52fc768db62533b435f5e", "fusion_lon": 0.0}, {"rental_uris": {"ios": "https://dc.lft.to/lastmile_qr_scan", "android": "https://dc.lft.to/lastmile_qr_scan"}, "type": "electric_scooter", "name": "6a351196aacb361a25b9099148767823", "is_reserved": 0, "lon": -77.06000166666666, "is_disabled": 0, "fusion_lat": 0.0, "lat": 38.904043, "bike_id": "6a351196aacb361a25b9099148767823", "fusion_lon": 0.0}, {"rental_uris": {"ios": "https://dc.lft.to/lastmile_qr_scan", "android": "https://dc.lft.to/lastmile_qr_scan"}, "type": "electric_scooter", "name": "a9c5d554534ad3e390c09de58fb58293", "is_reserved": 0, "lon": -77.03180566666667, "is_disabled": 0, "fusion_lat": 0.0, "lat": 38.9172385, "bike_id": "a9c5d554534ad3e390c09de58fb58293", "fusion_lon": 0.0}, {"rental_uris": {"ios": "https://dc.lft.to/lastmile_qr_scan", "android": "https://dc.lft.to/lastmile_qr_scan"}, "type": "electric_scooter", "name": "5329abcb8e23f0679150745653764ed0", "is_reserved": 0, "lon": -77.02196783333333, "is_disabled": 0, "fusion_lat": 0.0, "lat": 38.89396, "bike_id": "5329abcb8e23f0679150745653764ed0", "fusion_lon": 0.0}, {"rental_uris": {"ios": "https://dc.lft.to/lastmile_qr_scan", "android": "https://dc.lft.to/lastmile_qr_scan"}, "type": "electric_scooter", "name": "644484d014ed0990b5e99bca7c5df0bc", "is_reserved": 0, "lon": -77.0234045, "is_disabled": 0, "fusion_lat": 0.0, "lat": 38.929691166666665, "bike_id": "644484d014ed0990b5e99bca7c5df0bc", "fusion_lon": 0.0}, {"rental_uris": {"ios": "https://dc.lft.to/lastmile_qr_scan", "android": "https://dc.lft.to/lastmile_qr_scan"}, "type": "electric_scooter", "name": "62322d84f93ac301cfd60afd48a63b70", "is_reserved": 0, "lon": -77.01153733333334, "is_disabled": 0, "fusion_lat": 0.0, "lat": 38.9568655, "bike_id": "62322d84f93ac301cfd60afd48a63b70", "fusion_lon": 0.0}, {"rental_uris": {"ios": "https://dc.lft.to/lastmile_qr_scan", "android": "https://dc.lft.to/lastmile_qr_scan"}, "type": "electric_scooter", "name": "20ec462e4159989c010dd0656920cdae", "is_reserved": 0, "lon": -76.94195333333333, "is_disabled": 0, "fusion_lat": 0.0, "lat": 38.902258833333335, "bike_id": "20ec462e4159989c010dd0656920cdae", "fusion_lon": 0.0}, {"rental_uris": {"ios": "https://dc.lft.to/lastmile_qr_scan", "android": "https://dc.lft.to/lastmile_qr_scan"}, "type": "electric_scooter", "name": "39923bd927956a6d7d0865b58d1b76f9", "is_reserved": 0, "lon": -77.03275133333334, "is_disabled": 0, "fusion_lat": 0.0, "lat": 38.905569666666665, "bike_id": "39923bd927956a6d7d0865b58d1b76f9", "fusion_lon": 0.0}, {"rental_uris": {"ios": "https://dc.lft.to/lastmile_qr_scan", "android": "https://dc.lft.to/lastmile_qr_scan"}, "type": "electric_scooter", "name": "6803d5be1267a5eff4f7f64408617079", "is_reserved": 0, "lon": -77.02152283333334, "is_disabled": 0, "fusion_lat": 0.0, "lat": 38.903090166666665, "bike_id": "6803d5be1267a5eff4f7f64408617079", "fusion_lon": 0.0}, {"rental_uris": {"ios": "https://dc.lft.to/lastmile_qr_scan", "android": "https://dc.lft.to/lastmile_qr_scan"}, "type": "electric_scooter", "name": "dea30f9965a9518431fee32257e6d8b9", "is_reserved": 0, "lon": -77.0756595, "is_disabled": 0, "fusion_lat": 0.0, "lat": 38.9208515, "bike_id": "dea30f9965a9518431fee32257e6d8b9", "fusion_lon": 0.0}, {"rental_uris": {"ios": "https://dc.lft.to/lastmile_qr_scan", "android": "https://dc.lft.to/lastmile_qr_scan"}, "type": "electric_scooter", "name": "054137faeef794e434261ace2a370a88", "is_reserved": 0, "lon": -77.0007015, "is_disabled": 0, "fusion_lat": 0.0, "lat": 38.876904, "bike_id": "054137faeef794e434261ace2a370a88", "fusion_lon": 0.0}, {"rental_uris": {"ios": "https://dc.lft.to/lastmile_qr_scan", "android": "https://dc.lft.to/lastmile_qr_scan"}, "type": "electric_scooter", "name": "aa1286bccef36abfd7589b15bcb69048", "is_reserved": 0, "lon": -76.9855885, "is_disabled": 0, "fusion_lat": 0.0, "lat": 38.859974666666666, "bike_id": "aa1286bccef36abfd7589b15bcb69048", "fusion_lon": 0.0}, {"rental_uris": {"ios": "https://dc.lft.to/lastmile_qr_scan", "android": "https://dc.lft.to/lastmile_qr_scan"}, "type": "electric_scooter", "name": "2cd98ae4cdf8afbd8415093a05e2acf7", "is_reserved": 0, "lon": -77.07022783333333, "is_disabled": 0, "fusion_lat": 0.0, "lat": 38.90514066666667, "bike_id": "2cd98ae4cdf8afbd8415093a05e2acf7", "fusion_lon": 0.0}, {"rental_uris": {"ios": "https://dc.lft.to/lastmile_qr_scan", "android": "https://dc.lft.to/lastmile_qr_scan"}, "type": "electric_scooter", "name": "cc33e4fb2312dc79f02cb7123fb7965e", "is_reserved": 0, "lon": -77.04236533333334, "is_disabled": 0, "fusion_lat": 0.0, "lat": 38.9226995, "bike_id": "cc33e4fb2312dc79f02cb7123fb7965e", "fusion_lon": 0.0}, {"rental_uris": {"ios": "https://dc.lft.to/lastmile_qr_scan", "android": "https://dc.lft.to/lastmile_qr_scan"}, "type": "electric_scooter", "name": "1f7d5eedd03ab4c7ff126da18e751eed", "is_reserved": 0, "lon": -77.04485383333333, "is_disabled": 0, "fusion_lat": 0.0, "lat": 38.91084383333333, "bike_id": "1f7d5eedd03ab4c7ff126da18e751eed", "fusion_lon": 0.0}, {"rental_uris": {"ios": "https://dc.lft.to/lastmile_qr_scan", "android": "https://dc.lft.to/lastmile_qr_scan"}, "type": "electric_scooter", "name": "efc9e5479be0e3e384bad7eb9d537369", "is_reserved": 0, "lon": -77.06408666666667, "is_disabled": 0, "fusion_lat": 0.0, "lat": 38.908592666666664, "bike_id": "efc9e5479be0e3e384bad7eb9d537369", "fusion_lon": 0.0}, {"rental_uris": {"ios": "https://dc.lft.to/lastmile_qr_scan", "android": "https://dc.lft.to/lastmile_qr_scan"}, "type": "electric_bike", "name": "e2685288254e6765e62288f1a6666551", "is_reserved": 0, "lon": -77.12891433333333, "is_disabled": 0, "fusion_lat": 0.0, "lat": 38.9061585, "bike_id": "e2685288254e6765e62288f1a6666551", "fusion_lon": 0.0}, {"rental_uris": {"ios": "https://dc.lft.to/lastmile_qr_scan", "android": "https://dc.lft.to/lastmile_qr_scan"}, "type": "electric_scooter", "name": "54b91a4608745f42da0bf53b6dbcf35b", "is_reserved": 0, "lon": -77.03866016666667, "is_disabled": 0, "fusion_lat": 0.0, "lat": 38.945041833333335, "bike_id": "54b91a4608745f42da0bf53b6dbcf35b", "fusion_lon": 0.0}, {"rental_uris": {"ios": "https://dc.lft.to/lastmile_qr_scan", "android": "https://dc.lft.to/lastmile_qr_scan"}, "type": "electric_scooter", "name": "e134fe22afc219bb07ca68cdb5a420f0", "is_reserved": 0, "lon": -77.01863916666667, "is_disabled": 0, "fusion_lat": 0.0, "lat": 38.902586166666666, "bike_id": "e134fe22afc219bb07ca68cdb5a420f0", "fusion_lon": 0.0}, {"rental_uris": {"ios": "https://dc.lft.to/lastmile_qr_scan", "android": "https://dc.lft.to/lastmile_qr_scan"}, "type": "electric_scooter", "name": "0a21a06f449746230766613f53d51399", "is_reserved": 0, "lon": -77.05317383333333, "is_disabled": 0, "fusion_lat": 0.0, "lat": 38.94095633333333, "bike_id": "0a21a06f449746230766613f53d51399", "fusion_lon": 0.0},