{"data": {"bikes": [{"name": "116e41f9454d389ce5a562e019ffcf7a", "fusion_lat": 0.0, "type": "electric_scooter", "lat": 38.89878216666666, "is_reserved": 0, "is_disabled": 0, "fusion_lon": 0.0, "bike_id": "116e41f9454d389ce5a562e019ffcf7a", "lon": -77.03335083333333, "rental_uris": {"ios": "https://dc.lft.to/lastmile_qr_scan", "android": "https://dc.lft.to/lastmile_qr_scan"}}, {"name": "498e8d06e48d87e9ccce935667515957", "fusion_lat": 0.0, "type": "electric_scooter", "lat": 38.93573116666666, "is_reserved": 0, "is_disabled": 0, "fusion_lon": 0.0, "bike_id": "498e8d06e48d87e9ccce935667515957", "lon": -77.0212295, "rental_uris": {"ios": "https://dc.lft.to/lastmile_qr_scan", "android": "https://dc.lft.to/lastmile_qr_scan"}}, {"name": "c42f39f378f11c63a9c8f04831e40bbf", "fusion_lat": 0.0, "type": "electric_scooter", "lat": 38.935661333333336, "is_reserved": 0, "is_disabled": 0, "fusion_lon": 0.0, "bike_id": "c42f39f378f11c63a9c8f04831e40bbf", "lon": -77.02134133333334, "rental_uris": {"ios": "https://dc.lft.to/lastmile_qr_scan", "android": "https://dc.lft.to/lastmile_qr_scan"}}, {"name": "79d78319490eaf1d9078f17b1e4ce80d", "fusion_lat": 0.0, "type": "electric_scooter", "lat": 38.93091066666667, "is_reserved": 0, "is_disabled": 0, "fusion_lon": 0.0, "bike_id": "79d78319490eaf1d9078f17b1e4ce80d", "lon": -77.023954, "rental_uris": {"ios": "https://dc.lft.to/lastmile_qr_scan", "android": "https://dc.lft.to/lastmile_qr_scan"}}, {"name": "95afac2b4d2deb246315985969788d36", "fusion_lat": 0.0, "type": "electric_scooter", "lat": 38.90964433333333, "is_reserved": 0, "is_disabled": 0, "fusion_lon": 0.0, "bike_id": "95afac2b4d2deb246315985969788d36", "lon": -77.02686316666667, "rental_uris": {"ios": "https://dc.lft.to/lastmile_qr_scan", "android": "https://dc.lft.to/lastmile_qr_scan"}}, {"name": "c8e4102c50457e029db16db39e3f5d90", "fusion_lat": 0.0, "type": "electric_bike", "lat": 38.897691, "is_reserved": 0, "is_disabled": 0, "fusion_lon": 0.0, "bike_id": "c8e4102c50457e029db16db39e3f5d90", "lon": -76.90435383333333, "rental_uris": {"ios": "https://dc.lft.to/lastmile_qr_scan", "android": "https://dc.lft.to/lastmile_qr_scan"}}, {"name": "d0c52c9cc52e5d4d154a510b078326bd", "fusion_lat": 0.0, "type": "electric_scooter", "lat": 38.909610666666666, "is_reserved": 0, "is_disabled": 0, "fusion_lon": 0.0, "bike_id": "d0c52c9cc52e5d4d154a510b078326bd", "lon": -77.03867683333333, "rental_uris": {"ios": "https://dc.lft.to/lastmile_qr_scan", "android": "https://dc.lft.to/lastmile_qr_scan"}}, {"name": "5572a8367aba94cafa1ae26319d84b91", "fusion_lat": 0.0, "type": "electric_scooter", "lat": 38.89623616666667, "is_reserved": 0, "is_disabled": 0, "fusion_lon": 0.0, "bike_id": "5572a8367aba94cafa1ae26319d84b91", "lon": -77.0506535, "rental_uris": {"ios": "https://dc.lft.to/lastmile_qr_scan", "android": "https://dc.lft.to/lastmile_qr_scan"}}, {"name": "36e5cf77269579c241d4b5720c5d504f", "fusion_lat": 0.0, "type": "electric_scooter", "lat": 38.90505533333334, "is_reserved": 0, "is_disabled": 0, "fusion_lon": 0.0, "bike_id": "36e5cf77269579c241d4b5720c5d504f", "lon": -77.06226533333333, "rental_uris": {"ios": "https://dc.lft.to/lastmile_qr_scan", "android": "https://dc.lft.to/lastmile_qr_scan"}}, {"name": "28227545316c2262af8cddcad36df5a8", "fusion_lat": 0.0, "type": "electric_bike", "lat": 38.99359833333333, "is_reserved": 0, "is_disabled": 0, "fusion_lon": 0.0, "bike_id": "28227545316c2262af8cddcad36df5a8", "lon": -77.026836, "rental_uris": {"ios": "https://dc.lft.to/lastmile_qr_scan", "android": "https://dc.lft.to/lastmile_qr_scan"}}, {"name": "4f4e6c356a6535d2bcc0ccaefce29dee", "fusion_lat": 0.0, "type": "electric_scooter", "lat": 38.93899783333333, "is_reserved": 0, "is_disabled": 0, "fusion_lon": 0.0, "bike_id": "4f4e6c356a6535d2bcc0ccaefce29dee", "lon": -77.032833, "rental_uris": {"ios": "https://dc.lft.to/lastmile_qr_scan", "android": "https://dc.lft.to/lastmile_qr_scan"}}, {"name": "c641a3e6261d162b80863a1844b85ffc", "fusion_lat": 0.0, "type": "electric_scooter", "lat": 38.87289883333333, "is_reserved": 0, "is_disabled": 0, "fusion_lon": 0.0, "bike_id": "c641a3e6261d162b80863a1844b85ffc", "lon": -77.00986733333333, "rental_uris": {"ios": "https://dc.lft.to/lastmile_qr_scan", "android": "https://dc.lft.to/lastmile_qr_scan"}}, {"name": "8b789f424312ba11b61f063ecd4a9188", "fusion_lat": 0.0, "type": "electric_scooter", "lat": 38.911879666666664, "is_reserved": 0, "is_disabled": 0, "fusion_lon": 0.0, "bike_id": "8b789f424312ba11b61f063ecd4a9188", "lon": -77.04158566666666, "rental_uris": {"ios": "https://dc.lft.to/lastmile_qr_scan", "android": "https://dc.lft.to/lastmile_qr_scan"}}, {"name": "c5276a1fe4288f6cf3a16b21cbb7bc4c", "fusion_lat": 0.0, "type": "electric_scooter", "lat": 38.944656333333334, "is_reserved": 0, "is_disabled": 0, "fusion_lon": 0.0, "bike_id": "c5276a1fe4288f6cf3a16b21cbb7bc4c", "lon": -77.00659983333334, "rental_uris": {"ios": "https://dc.lft.to/lastmile_qr_scan", "android": "https://dc.lft.to/lastmile_qr_scan"}}, {"name": "689cf82e8a477cafc987bc2405bf91c7", "fusion_lat": 0.0, "type": "electric_scooter", "lat": 38.908512, "is_reserved": 0, "is_disabled": 0, "fusion_lon": 0.0, "bike_id": "689cf82e8a477cafc987bc2405bf91c7", "lon": -77.03184683333333, "rental_uris": {"ios": "https://dc.lft.to/lastmile_qr_scan", "android": "https://dc.lft.to/lastmile_qr_scan"}}, {"name": "dc2b074dac674c6c1be248221a95ce36", "fusion_lat": 0.0, "type": "electric_scooter", "lat": 38.9036845, "is_reserved": 0, "is_disabled": 0, "fusion_lon": 0.0, "bike_id": "dc2b074dac674c6c1be248221a95ce36", "lon": -77.04272616666667, "rental_uris": {"ios": "https://dc.lft.to/lastmile_qr_scan", "android": "https://dc.lft.to/lastmile_qr_scan"}}, {"name": "83a82f6ffcd3ae948b4d552e0a5e1183", "fusion_lat": 0.0, "type": "electric_scooter", "lat": 38.90942716666667, "is_reserved": 0, "is_disabled": 0, "fusion_lon": 0.0, "bike_id": "83a82f6ffcd3ae948b4d552e0a5e1183", "lon": -77.04667116666667, "rental_uris": {"ios": "https://dc.lft.to/lastmile_qr_scan", "android": "https://dc.lft.to/lastmile_qr_scan"}}, {"name": "388ab3b428a3ce7a5f445e161830ee91", "fusion_lat": 0.0, "type": "electric_scooter", "lat": 38.90766333333333, "is_reserved": 0, "is_disabled": 0, "fusion_lon": 0.0, "bike_id": "388ab3b428a3ce7a5f445e161830ee91", "lon": -77.05976316666667, "rental_uris": {"ios": "https://dc.lft.to/lastmile_qr_scan", "android": "https://dc.lft.to/lastmile_qr_scan"}}, {"name": "bf7007534fe579c1bc7fb1914e4b9e11", "fusion_lat": 0.0, "type": "electric_scooter", "lat": 38.90566033333333, "is_reserved": 0, "is_disabled": 0, "fusion_lon": 0.0, "bike_id": "bf7007534fe579c1bc7fb1914e4b9e11", "lon": -77.00606616666667, "rental_uris": {"ios": "https://dc.lft.to/lastmile_qr_scan", "android": "https://dc.lft.to/lastmile_qr_scan"}}, {"name": "32ed078cbe3fd16da0adc9a55cba3602", "fusion_lat": 0.0, "type": "electric_scooter", "lat": 38.92349866666667, "is_reserved": 0, "is_disabled": 0, "fusion_lon": 0.0, "bike_id": "32ed078cbe3fd16da0adc9a55cba3602", "lon": -77.0339325, "rental_uris": {"ios": "https://dc.lft.to/lastmile_qr_scan", "android": "https://dc.lft.to/lastmile_qr_scan"}}, {"name": "759f52ed9f336ec6d1b6fe35223a09e3", "fusion_lat": 0.0, "type": "electric_scooter", "lat": 38.907352833333334, "is_reserved": 0, "is_disabled": 0, "fusion_lon": 0.0, "bike_id": "759f52ed9f336ec6d1b6fe35223a09e3", "lon": -77.04887533333333, "rental_uris": {"ios": "https://dc.lft.to/lastmile_qr_scan", "android": "https://dc.lft.to/lastmile_qr_scan"}}, {"name": "092ea2a2e0bc7faea7fe3b198e3160a0", "fusion_lat": 0.0, "type": "electric_scooter", "lat": 38.913374166666664, "is_reserved": 0, "is_disabled": 0, "fusion_lon": 0.0, "bike_id": "092ea2a2e0bc7faea7fe3b198e3160a0", "lon": -77.04871883333334, "rental_uris": {"ios": "https://dc.lft.to/lastmile_qr_scan", "android": "https://dc.lft.to/lastmile_qr_scan"}}, {"name": "1d43fc9e4950da436eb0f66dbbc668af", "fusion_lat": 0.0, "type": "electric_scooter", "lat": 38.92705733333333, "is_reserved": 0, "is_disabled": 0, "fusion_lon": 0.0, "bike_id": "1d43fc9e4950da436eb0f66dbbc668af", "lon": -77.02426616666666, "rental_uris": {"ios": "https://dc.lft.to/lastmile_qr_scan", "android": "https://dc.lft.to/lastmile_qr_scan"}}, {"name": "41ebf9f9125716e397656c823f65ee3b", "fusion_lat": 0.0, "type": "electric_bike", "lat": 38.97090683333333, "is_reserved": 0, "is_disabled": 0, "fusion_lon": 0.0, "bike_id": "41ebf9f9125716e397656c823f65ee3b", "lon": -77.0696285, "rental_uris": {"ios": "https://dc.lft.to/lastmile_qr_scan", "android": "https://dc.lft.to/lastmile_qr_scan"}}, {"name": "82e4123edb5531e56ea4bff6f892f361", "fusion_lat": 0.0, "type": "electric_scooter", "lat": 38.899780166666666, "is_reserved": 0, "is_disabled": 0, "fusion_lon": 0.0, "bike_id": "82e4123edb5531e56ea4bff6f892f361", "lon": -77.05567633333334, "rental_uris": {"ios": "https://dc.lft.to/lastmile_qr_scan", "android": "https://dc.lft.to/lastmile_qr_scan"}}, {"name": "15885663bbb799ee2159c38a860ab121", "fusion_lat": 0.0, "type": "electric_bike", "lat": 38.910017, "is_reserved": 0, "is_disabled": 0, "fusion_lon": 0.0, "bike_id": "15885663bbb799ee2159c38a860ab121", "lon": -77.06177, "rental_uris": {"ios": "https://dc.lft.to/lastmile_qr_scan", "android": "https://dc.lft.to/lastmile_qr_scan"}}, {"name": "94baa3a0cff86e6c070ceff7df1505cb", "fusion_lat": 0.0, "type": "electric_scooter", "lat": 38.91193966666667, "is_reserved": 0, "is_disabled": 0, "fusion_lon": 0.0, "bike_id": "94baa3a0cff86e6c070ceff7df1505cb", "lon": -77.0453495, "rental_uris": {"ios": "https://dc.lft.to/lastmile_qr_scan", "android": "https://dc.lft.to/lastmile_qr_scan"}}, {"name": "056f710e21c08f6fa062a2836e10531d", "fusion_lat": 0.0, "type": "electric_scooter", "lat": 38.915897333333334, "is_reserved": 0, "is_disabled": 0, "fusion_lon": 0.0, "bike_id": "056f710e21c08f6fa062a2836e10531d", "lon": -77.01721233333333, "rental_uris": {"ios": "https://dc.lft.to/lastmile_qr_scan", "android": "https://dc.lft.to/lastmile_qr_scan"}}, {"name": "2dcbff49c3717244f322e40183662b56", "fusion_lat": 0.0, "type": "electric_scooter", "lat": 38.91275016666667, "is_reserved": 0, "is_disabled": 0, "fusion_lon": 0.0, "bike_id": "2dcbff49c3717244f322e40183662b56", "lon": -77.04510316666666, "rental_uris": {"ios": "https://dc.lft.to/lastmile_qr_scan", "android": "https://dc.lft.to/lastmile_qr_scan"}}, {"name": "5ad7d20cb3c61b1551d853237a866f5f", "fusion_lat": 0.0, "type": "electric_scooter", "lat": 38.895156666666665, "is_reserved": 0, "is_disabled": 0, "fusion_lon": 0.0, "bike_id": "5ad7d20cb3c61b1551d853237a866f5f", "lon": -77.01092216666666, "rental_uris": {"ios": "https://dc.lft.to/lastmile_qr_scan", "android": "https://dc.lft.to/lastmile_qr_scan"}}, {"name": "6bd66e9f53a2cb96e2fb1fb4add6f6d3", "fusion_lat": 0.0, "type": "electric_scooter", "lat": 38.9354395, "is_reserved": 0, "is_disabled": 0, "fusion_lon": 0.0, "bike_id": "6bd66e9f53a2cb96e2fb1fb4add6f6d3", "lon": -77.03416583333333, "rental_uris": {"ios": "https://dc.lft.to/lastmile_qr_scan", "android": "https://dc.lft.to/lastmile_qr_scan"}}, {"name": "a4b6e869f8db2521f22bef14b74c3608", "fusion_lat": 0.0, "type": "electric_scooter", "lat": 38.926256333333335, "is_reserved": 0, "is_disabled": 0, "fusion_lon": 0.0, "bike_id": "a4b6e869f8db2521f22bef14b74c3608", "lon": -77.038028, "rental_uris": {"ios": "https://dc.lft.to/lastmile_qr_scan", "android": "https://dc.lft.to/lastmile_qr_scan"}}, {"name": "5eb9e6b21e25ab43c740cbaeef07207d", "fusion_lat": 0.0, "type": "electric_scooter", "lat": 38.909707833333336, "is_reserved": 0, "is_disabled": 0, "fusion_lon": 0.0, "bike_id": "5eb9e6b21e25ab43c740cbaeef07207d", "lon": -77.03677166666667, "rental_uris": {"ios": "https://dc.lft.to/lastmile_qr_scan", "android": "https://dc.lft.to/lastmile_qr_scan"}}, {"name": "17d7c5c855345a54198815e49d91bb6b", "fusion_lat": 0.0, "type": "electric_scooter", "lat": 38.9057125, "is_reserved": 0, "is_disabled": 0, "fusion_lon": 0.0, "bike_id": "17d7c5c855345a54198815e49d91bb6b", "lon": -77.02961116666667, "rental_uris": {"ios": "https://dc.lft.to/lastmile_qr_scan", "android": "https://dc.lft.to/lastmile_qr_scan"}}, {"name": "8d4fd442147d56094ba5f838117ab266", "fusion_lat": 0.0, "type": "electric_bike", "lat": 38.895667333333336, "is_reserved": 0, "is_disabled": 0, "fusion_lon": 0.0, "bike_id": "8d4fd442147d56094ba5f838117ab266", "lon": -77.127382, "rental_uris": {"ios": "https://dc.lft.to/lastmile_qr_scan", "android": "https://dc.lft.to/lastmile_qr_scan"}}, {"name": "0111b7cdc6b95a60c0bab0da2e912b99", "fusion_lat": 0.0, "type": "electric_scooter", "lat": 38.911862666666664, "is_reserved": 0, "is_disabled": 0, "fusion_lon": 0.0, "bike_id": "0111b7cdc6b95a60c0bab0da2e912b99", "lon": -77.04501566666667, "rental_uris": {"ios": "https://dc.lft.to/lastmile_qr_scan", "android": "https://dc.lft.to/lastmile_qr_scan"}}, {"name": "e874aa7c9ff2b837b991670e778bfc04", "fusion_lat": 0.0, "type": "electric_scooter", "lat": 38.89605266666667, "is_reserved": 0, "is_disabled": 0, "fusion_lon": 0.0, "bike_id": "e874aa7c9ff2b837b991670e778bfc04", "lon": -77.041214, "rental_uris": {"ios": "https://dc.lft.to/lastmile_qr_scan", "android": "https://dc.lft.to/lastmile_qr_scan"}}, {"name": "6a37ab4c6e9c334e71834b9d53553bbf", "fusion_lat": 0.0, "type": "electric_scooter", "lat": 38.90239716666667, "is_reserved": 0, "is_disabled": 0, "fusion_lon": 0.0, "bike_id": "6a37ab4c6e9c334e71834b9d53553bbf", "lon": -77.02691816666666, "rental_uris": {"ios": "https://dc.lft.to/lastmile_qr_scan", "android": "https://dc.lft.to/lastmile_qr_scan"}}, {"name": "1da23391e1b27be79b0bff2b1dba7d46", "fusion_lat": 0.0, "type": "electric_scooter", "lat": 38.896386, "is_reserved": 0, "is_disabled": 0, "fusion_lon": 0.0, "bike_id": "1da23391e1b27be79b0bff2b1dba7d46", "lon": -77.046517, "rental_uris": {"ios": "https://dc.lft.to/lastmile_qr_scan", "android": "https://dc.lft.to/lastmile_qr_scan"}}, {"name": "8ad5393aa876b0c7363519a9a5b8684b", "fusion_lat": 0.0, "type": "electric_bike", "lat": 38.955466666666666, "is_reserved": 0, "is_disabled": 0, "fusion_lon": 0.0, "bike_id": "8ad5393aa876b0c7363519a9a5b8684b", "lon": -77.01616166666666, "rental_uris": {"ios": "https://dc.lft.to/lastmile_qr_scan", "android": "https://dc.lft.to/lastmile_qr_scan"}}, {"name": "b97f77a960d4394936ab201791674284", "fusion_lat": 0.0, "type": "electric_bike", "lat": 39.1056815, "is_reserved": 0, "is_disabled": 0, "fusion_lon": 0.0, "bike_id": "b97f77a960d4394936ab201791674284", "lon": -77.15270483333333, "rental_uris": {"ios": "https://dc.lft.to/lastmile_qr_scan", "android": "https://dc.lft.to/lastmile_qr_scan"}}, {"name": "05ce172ae9a128669ff26070d3ae5400", "fusion_lat": 0.0, "type": "electric_scooter", "lat": 38.94285416666666, "is_reserved": 0, "is_disabled": 0, "fusion_lon": 0.0, "bike_id": "05ce172ae9a128669ff26070d3ae5400", "lon": -77.02506316666667, "rental_uris": {"ios": "https://dc.lft.to/lastmile_qr_scan", "android": "https://dc.lft.to/lastmile_qr_scan"}}, {"name": "13ab9e68c58f4d2eb9d6848c466fcb72", "fusion_lat": 0.0, "type": "electric_scooter", "lat": 38.923870666666666, "is_reserved": 0, "is_disabled": 0, "fusion_lon": 0.0, "bike_id": "13ab9e68c58f4d2eb9d6848c466fcb72", "lon": -77.03100316666666, "rental_uris": {"ios": "https://dc.lft.to/lastmile_qr_scan", "android": "https://dc.lft.to/lastmile_qr_scan"}}, {"name": "800f98440e525b87c8511948df80b97c", "fusion_lat": 0.0, "type": "electric_scooter", "lat": 38.876523, "is_reserved": 0, "is_disabled": 0, "fusion_lon": 0.0, "bike_id": "800f98440e525b87c8511948df80b97c", "lon": -76.96508466666667, "rental_uris": {"ios": "https://dc.lft.to/lastmile_qr_scan", "android": "https://dc.lft.to/lastmile_qr_scan"}}, {"name": "32e2d299a5d197e02b8b6f7c23fb357a", "fusion_lat": 0.0, "type": "electric_scooter", "lat": 38.90690633333333, "is_reserved": 0, "is_disabled": 0, "fusion_lon": 0.0, "bike_id": "32e2d299a5d197e02b8b6f7c23fb357a", "lon": -77.02228583333333, "rental_uris": {"ios": "https://dc.lft.to/lastmile_qr_scan", "android": "https://dc.lft.to/lastmile_qr_scan"}}, {"name": "28ecf5e327342eb747601c6a9f34fb7f", "fusion_lat": 0.0, "type": "electric_scooter", "lat": 38.924379, "is_reserved": 0, "is_disabled": 0, "fusion_lon": 0.0, "bike_id": "28ecf5e327342eb747601c6a9f34fb7f", "lon": -77.04230233333334, "rental_uris": {"ios": "https://dc.lft.to/lastmile_qr_scan", "android": "https://dc.lft.to/lastmile_qr_scan"}}, {"name": "e1903e6151c73bffd20004f73ff090bc", "fusion_lat": 0.0, "type": "electric_scooter", "lat": 38.9243055, "is_reserved": 0, "is_disabled": 0, "fusion_lon": 0.0, "bike_id": "e1903e6151c73bffd20004f73ff090bc", "lon": -77.042506, "rental_uris": {"ios": "https://dc.lft.to/lastmile_qr_scan", "android": "https://dc.lft.to/lastmile_qr_scan"}}, {"name": "89e703dbb1032303084ab75653777ad4", "fusion_lat": 0.0, "type": "electric_scooter", "lat": 38.88503333333333, "is_reserved": 0, "is_disabled": 0, "fusion_lon": 0.0, "bike_id": "89e703dbb1032303084ab75653777ad4", "lon": -77.020888, "rental_uris": {"ios": "https://dc.lft.to/lastmile_qr_scan", "android": "https://dc.lft.to/lastmile_qr_scan"}}, {"name": "642d387f22befdbe62615baedc5748ca", "fusion_lat": 0.0, "type": "electric_scooter", "lat": 38.86659066666667, "is_reserved": 0, "is_disabled": 0, "fusion_lon": 0.0, "bike_id": "642d387f22befdbe62615baedc5748ca", "lon": -76.98882966666666, "rental_uris": {"ios": "https://dc.lft.to/lastmile_qr_scan", "android": "https://dc.lft.to/lastmile_qr_scan"}}, {"name": "cbcd2594a2c93ddc27a37f8c8712df03", "fusion_lat": 0.0, "type": "electric_scooter", "lat": 38.907612, "is_reserved": 0, "is_disabled": 0, "fusion_lon": 0.0, "bike_id": "cbcd2594a2c93ddc27a37f8c8712df03", "lon": -77.03577083333333, "rental_uris": {"ios": "https://dc.lft.to/lastmile_qr_scan", "android": "https://dc.lft.to/lastmile_qr_scan"}}, {"name": "a1f62b1b3f5a19c2ddae9be01832f14a", "fusion_lat": 0.0, "type": "electric_scooter", "lat": 38.919949333333335, "is_reserved": 0, "is_disabled": 0, "fusion_lon": 0.0, "bike_id": "a1f62b1b3f5a19c2ddae9be01832f14a", "lon": -77.03210483333334, "rental_uris": {"ios": "https://dc.lft.to/lastmile_qr_scan", "android": "https://dc.lft.to/lastmile_qr_scan"}}, {"name": "07220e593ecc9740d9db4800be5f3f37", "fusion_lat": 0.0, "type": "electric_scooter", "lat": 38.900341833333336, "is_reserved": 0, "is_disabled": 0, "fusion_lon": 0.0, "bike_id": "07220e593ecc9740d9db4800be5f3f37", "lon": -77.043212, "rental_uris": {"ios": "https://dc.lft.to/lastmile_qr_scan", "android": "https://dc.lft.to/lastmile_qr_scan"}}, {"name": "e00a34e4de890e2d5511070f81551c24", "fusion_lat": 0.0, "type": "electric_scooter", "lat": 38.91814733333333, "is_reserved": 0, "is_disabled": 0, "fusion_lon": 0.0, "bike_id": "e00a34e4de890e2d5511070f81551c24", "lon": -77.03171766666667, "rental_uris": {"ios": "https://dc.lft.to/lastmile_qr_scan", "android": "https://dc.lft.to/lastmile_qr_scan"}}, {"name": "d636880963ffede78be8757dd9fff1eb", "fusion_lat": 0.0, "type": "electric_scooter", "lat": 38.928495, "is_reserved": 0, "is_disabled": 0, "fusion_lon": 0.0, "bike_id": "d636880963ffede78be8757dd9fff1eb", "lon": -77.01379866666667, "rental_uris": {"ios": "https://dc.lft.to/lastmile_qr_scan", "android": "https://dc.lft.to/lastmile_qr_scan"}}, {"name": "29a886b1ed2aa8c7431c5d147694a0f5", "fusion_lat": 0.0, "type": "electric_scooter", "lat": 38.9050945, "is_reserved": 0, "is_disabled": 0, "fusion_lon": 0.0, "bike_id": "29a886b1ed2aa8c7431c5d147694a0f5", "lon": -77.06379966666667, "rental_uris": {"ios": "https://dc.lft.to/lastmile_qr_scan", "android": "https://dc.lft.to/lastmile_qr_scan"}}, {"name": "21899d55e69256349682d425233ac5e7", "fusion_lat": 0.0, "type": "electric_scooter", "lat": 38.941855333333336, "is_reserved": 0, "is_disabled": 0, "fusion_lon": 0.0, "bike_id": "21899d55e69256349682d425233ac5e7", "lon": -77.024914, "rental_uris": {"ios": "https://dc.lft.to/lastmile_qr_scan", "android": "https://dc.lft.to/lastmile_qr_scan"}}, {"name": "6ff40044a0ad84507feb990b958d476d", "fusion_lat": 0.0, "type": "electric_scooter", "lat": 38.8985775, "is_reserved": 0, "is_disabled": 0, "fusion_lon": 0.0, "bike_id": "6ff40044a0ad84507feb990b958d476d", "lon": -76.99035333333333, "rental_uris": {"ios": "https://dc.lft.to/lastmile_qr_scan", "android": "https://dc.lft.to/lastmile_qr_scan"}}, {"name": "52a6e9197b6284dec97f4066b4bb511c", "fusion_lat": 0.0, "type": "electric_scooter", "lat": 38.90093133333333, "is_reserved": 0, "is_disabled": 0, "fusion_lon": 0.0, "bike_id": "52a6e9197b6284dec97f4066b4bb511c", "lon": -77.01336366666666, "rental_uris": {"ios": "https://dc.lft.to/lastmile_qr_scan", "android": "https://dc.lft.to/lastmile_qr_scan"}}, {"name": "a37c82714138be567bb8dffc4fe86dbd", "fusion_lat": 0.0, "type": "electric_scooter", "lat": 38.93996683333334, "is_reserved": 0, "is_disabled": 0, "fusion_lon": 0.0, "bike_id": "a37c82714138be567bb8dffc4fe86dbd", "lon": -77.02959116666666, "rental_uris": {"ios": "https://dc.lft.to/lastmile_qr_scan", "android": "https://dc.lft.to/lastmile_qr_scan"}}, {"name": "f2d341e41cf054606e287f4dac02608d", "fusion_lat": 0.0, "type": "electric_scooter", "lat": 38.93257083333334, "is_reserved": 0, "is_disabled": 0, "fusion_lon": 0.0, "bike_id": "f2d341e41cf054606e287f4dac02608d", "lon": -77.04007416666667, "rental_uris": {"ios": "https://dc.lft.to/lastmile_qr_scan", "android": "https://dc.lft.to/lastmile_qr_scan"}}, {"name": "dbaeaab7e03e94df7e688fa95caf8d92", "fusion_lat": 0.0, "type": "electric_scooter", "lat": 38.89485233333333, "is_reserved": 0, "is_disabled": 0, "fusion_lon": 0.0, "bike_id": "dbaeaab7e03e94df7e688fa95caf8d92", "lon": -76.94875583333334, "rental_uris": {"ios": "https://dc.lft.to/lastmile_qr_scan", "android": "https://dc.lft.to/lastmile_qr_scan"}}, {"name": "ce32c572aa62f961085cf6c09d405ddb", "fusion_lat": 0.0, "type": "electric_scooter", "lat": 38.90822216666667, "is_reserved": 0, "is_disabled": 0, "fusion_lon": 0.0, "bike_id": "ce32c572aa62f961085cf6c09d405ddb", "lon": -76.99955416666667, "rental_uris": {"ios": "https://dc.lft.to/lastmile_qr_scan", "android": "https://dc.lft.to/lastmile_qr_scan"}}, {"name": "f286ae2169ae3e8536342b6f1dd33c6a", "fusion_lat": 0.0, "type": "electric_bike", "lat": 38.945506333333334, "is_reserved": 0, "is_disabled": 0, "fusion_lon": 0.0, "bike_id": "f286ae2169ae3e8536342b6f1dd33c6a", "lon": -76.89535516666666, "rental_uris": {"ios": "https://dc.lft.to/lastmile_qr_scan", "android": "https://dc.lft.to/lastmile_qr_scan"}}, {"name": "4a4753f87ff8d291807cd0d89b2eabf0", "fusion_lat": 0.0, "type": "electric_scooter", "lat": 38.892823166666666, "is_reserved": 0, "is_disabled": 0, "fusion_lon": 0.0, "bike_id": "4a4753f87ff8d291807cd0d89b2eabf0", "lon": -77.03227666666666, "rental_uris": {"ios": "https://dc.lft.to/lastmile_qr_scan", "android": "https://dc.lft.to/lastmile_qr_scan"}}, {"name": "21e63a57abf48ab9138b97b996f31809", "fusion_lat": 0.0, "type": "electric_scooter", "lat": 38.931250666666664, "is_reserved": 0, "is_disabled": 0, "fusion_lon": 0.0, "bike_id": "21e63a57abf48ab9138b97b996f31809", "lon": -77.03606583333334, "rental_uris": {"ios": "https://dc.lft.to/lastmile_qr_scan", "android": "https://dc.lft.to/lastmile_qr_scan"}}, {"name": "0738ec299e2087ffc4c19984572b0c76", "fusion_lat": 0.0, "type": "electric_scooter", "lat": 38.9154845, "is_reserved": 0, "is_disabled": 0, "fusion_lon": 0.0, "bike_id": "0738ec299e2087ffc4c19984572b0c76", "lon": -77.03854216666667, "rental_uris": {"ios": "https://dc.lft.to/lastmile_qr_scan", "android": "https://dc.lft.to/lastmile_qr_scan"}}, {"name": "45c08d6c4e12c1cc15f024953e5fa080", "fusion_lat": 0.0, "type": "electric_scooter", "lat": 38.897693333333336, "is_reserved": 0, "is_disabled": 0, "fusion_lon": 0.0, "bike_id": "45c08d6c4e12c1cc15f024953e5fa080", "lon": -76.99158116666666, "rental_uris": {"ios": "https://dc.lft.to/lastmile_qr_scan", "android": "https://dc.lft.to/lastmile_qr_scan"}}, {"name": "00d0eaa2d2765ec59fbfc50795302f71", "fusion_lat": 0.0, "type": "electric_bike", "lat": 38.9733085, "is_reserved": 0, "is_disabled": 0, "fusion_lon": 0.0, "bike_id": "00d0eaa2d2765ec59fbfc50795302f71", "lon": -77.02150766666666, "rental_uris": {"ios": "https://dc.lft.to/lastmile_qr_scan", "android": "https://dc.lft.to/lastmile_qr_scan"}}, {"name": "d805f0e6963e861bf510d7c07de7b72a", "fusion_lat": 0.0, "type": "electric_scooter", "lat": 38.884040666666664, "is_reserved": 0, "is_disabled": 0, "fusion_lon": 0.0, "bike_id": "d805f0e6963e861bf510d7c07de7b72a", "lon": -76.93048616666667, "rental_uris": {"ios": "https://dc.lft.to/lastmile_qr_scan", "android": "https://dc.lft.to/lastmile_qr_scan"}}, {"name": "8a4121c278f6c39f477ca654766bbbe9", "fusion_lat": 0.0, "type": "electric_scooter", "lat": 38.916175, "is_reserved": 0, "is_disabled": 0, "fusion_lon": 0.0, "bike_id": "8a4121c278f6c39f477ca654766bbbe9", "lon": -77.03857133333334, "rental_uris": {"ios": "https://dc.lft.to/lastmile_qr_scan", "android": "https://dc.lft.to/lastmile_qr_scan"}}, {"name": "ddfc0c348ff3118840d8aa831d2a17d7", "fusion_lat": 0.0, "type": "electric_scooter", "lat": 38.90813166666667, "is_reserved": 0, "is_disabled": 0, "fusion_lon": 0.0, "bike_id": "ddfc0c348ff3118840d8aa831d2a17d7", "lon": -77.02603466666666, "rental_uris": {"ios": "https://dc.lft.to/lastmile_qr_scan", "android": "https://dc.lft.to/lastmile_qr_scan"}}, {"name": "96266693ec23558a9f5ed69380342eec", "fusion_lat": 0.0, "type": "electric_scooter", "lat": 38.9075125, "is_reserved": 0, "is_disabled": 0, "fusion_lon": 0.0, "bike_id": "96266693ec23558a9f5ed69380342eec", "lon": -77.00007183333334, "rental_uris": {"ios": "https://dc.lft.to/lastmile_qr_scan", "android": "https://dc.lft.to/lastmile_qr_scan"}}, {"name": "19336e4af518b79743cfa17767907a5e", "fusion_lat": 0.0, "type": "electric_bike", "lat": 38.94632933333333, "is_reserved": 0, "is_disabled": 0, "fusion_lon": 0.0, "bike_id": "19336e4af518b79743cfa17767907a5e", "lon": -77.018437, "rental_uris": {"ios": "https://dc.lft.to/lastmile_qr_scan", "android": "https://dc.lft.to/lastmile_qr_scan"}}, {"name": "9b9b6f2f2d20cc96338b94de23e46b51", "fusion_lat": 0.0, "type": "electric_scooter", "lat": 38.9038365, "is_reserved": 0, "is_disabled": 0, "fusion_lon": 0.0, "bike_id": "9b9b6f2f2d20cc96338b94de23e46b51", "lon": -77.04191416666667, "rental_uris": {"ios": "https://dc.lft.to/lastmile_qr_scan", "android": "https://dc.lft.to/lastmile_qr_scan"}}, {"name": "b3915724cea661f8889702c914fcbb29", "fusion_lat": 0.0, "type": "electric_bike", "lat": 38.93101583333333, "is_reserved": 0, "is_disabled": 0, "fusion_lon": 0.0, "bike_id": "b3915724cea661f8889702c914fcbb29", "lon": -77.02476833333333, "rental_uris": {"ios": "https://dc.lft.to/lastmile_qr_scan", "android": "https://dc.lft.to/lastmile_qr_scan"}}, {"name": "fdc5ac72baf76dfa5b85d9f6d634ff9e", "fusion_lat": 0.0, "type": "electric_scooter", "lat": 38.917205, "is_reserved": 0, "is_disabled": 0, "fusion_lon": 0.0, "bike_id": "fdc5ac72baf76dfa5b85d9f6d634ff9e", "lon": -77.03557216666667, "rental_uris": {"ios": "https://dc.lft.to/lastmile_qr_scan", "android": "https://dc.lft.to/lastmile_qr_scan"}}, {"name": "197e354c3961486c9ac9a59a6fb244ba", "fusion_lat": 0.0, "type": "electric_scooter", "lat": 38.917161666666665, "is_reserved": 0, "is_disabled": 0, "fusion_lon": 0.0, "bike_id": "197e354c3961486c9ac9a59a6fb244ba", "lon": -77.02883316666667, "rental_uris": {"ios": "https://dc.lft.to/lastmile_qr_scan", "android": "https://dc.lft.to/lastmile_qr_scan"}}, {"name": "c8cd8f3a698e6befb09e1b97e8fa7ada", "fusion_lat": 0.0, "type": "electric_scooter", "lat": 38.93213033333333, "is_reserved": 0, "is_disabled": 0, "fusion_lon": 0.0, "bike_id": "c8cd8f3a698e6befb09e1b97e8fa7ada", "lon": -77.0364715, "rental_uris": {"ios": "https://dc.lft.to/lastmile_qr_scan", "android": "https://dc.lft.to/lastmile_qr_scan"}}, {"name": "4b97d0d271b1e106feb4e8706e65436b", "fusion_lat": 0.0, "type": "electric_scooter", "lat": 38.9176085, "is_reserved": 0, "is_disabled": 0, "fusion_lon": 0.0, "bike_id": "4b97d0d271b1e106feb4e8706e65436b", "lon": -77.04741816666667, "rental_uris": {"ios": "https://dc.lft.to/lastmile_qr_scan", "android": "https://dc.lft.to/lastmile_qr_scan"}}, {"name": "6c9f0f0e45e41539fde681f609906f0e", "fusion_lat": 0.0, "type": "electric_bike", "lat": 38.8544805, "is_reserved": 0, "is_disabled": 0, "fusion_lon": 0.0, "bike_id": "6c9f0f0e45e41539fde681f609906f0e", "lon": -77.11685183333333, "rental_uris": {"ios": "https://dc.lft.to/lastmile_qr_scan", "android": "https://dc.lft.to/lastmile_qr_scan"}}, {"name": "736f04ba31f6cfede63ae20c6e066493", "fusion_lat": 0.0, "type": "electric_bike", "lat": 38.858792, "is_reserved": 0, "is_disabled": 0, "fusion_lon": 0.0, "bike_id": "736f04ba31f6cfede63ae20c6e066493", "lon": -77.095577, "rental_uris": {"ios": "https://dc.lft.to/lastmile_qr_scan", "android": "https://dc.lft.to/lastmile_qr_scan"}}, {"name": "fb7b9b30a2090008c2cc04cbc41d86ac", "fusion_lat": 0.0, "type": "electric_scooter", "lat": 38.9291505, "is_reserved": 0, "is_disabled": 0, "fusion_lon": 0.0, "bike_id": "fb7b9b30a2090008c2cc04cbc41d86ac", "lon": -77.0196065, "rental_uris": {"ios": "https://dc.lft.to/lastmile_qr_scan", "android": "https://dc.lft.to/lastmile_qr_scan"}}, {"name": "874c9f5ac94b840be5ef756644c56c03", "fusion_lat": 0.0, "type": "electric_scooter", "lat": 38.892134166666665, "is_reserved": 0, "is_disabled": 0, "fusion_lon": 0.0, "bike_id": "874c9f5ac94b840be5ef756644c56c03", "lon": -76.99570866666667, "rental_uris": {"ios": "https://dc.lft.to/lastmile_qr_scan", "android": "https://dc.lft.to/lastmile_qr_scan"}}, {"name": "b5c87b0ed648d5fd04210705c4e0a72e", "fusion_lat": 0.0, "type": "electric_scooter", "lat": 38.91338666666667, "is_reserved": 0, "is_disabled": 0, "fusion_lon": 0.0, "bike_id": "b5c87b0ed648d5fd04210705c4e0a72e", "lon": -77.04267883333333, "rental_uris": {"ios": "https://dc.lft.to/lastmile_qr_scan", "android": "https://dc.lft.to/lastmile_qr_scan"}}, {"name": "eae780bc8ea84b592c36fea372f69af9", "fusion_lat": 0.0, "type": "electric_scooter", "lat": 38.90837416666667, "is_reserved": 0, "is_disabled": 0, "fusion_lon": 0.0, "bike_id": "eae780bc8ea84b592c36fea372f69af9", "lon": -77.03274883333333, "rental_uris": {"ios": "https://dc.lft.to/lastmile_qr_scan", "android": "https://dc.lft.to/lastmile_qr_scan"}}, {"name": "30673d9a978b9387d4520bd9babed39c", "fusion_lat": 0.0, "type": "electric_scooter", "lat": 38.92346283333333, "is_reserved": 0, "is_disabled": 0, "fusion_lon": 0.0, "bike_id": "30673d9a978b9387d4520bd9babed39c", "lon": -77.05098366666667, "rental_uris": {"ios": "https://dc.lft.to/lastmile_qr_scan", "android": "https://dc.lft.to/lastmile_qr_scan"}}, {"name": "8cbf8bc16039bcba0bed270a59037601", "fusion_lat": 0.0, "type": "electric_scooter", "lat": 38.895301333333336, "is_reserved": 0, "is_disabled": 0, "fusion_lon": 0.0, "bike_id": "8cbf8bc16039bcba0bed270a59037601", "lon": -77.01606, "rental_uris": {"ios": "https://dc.lft.to/lastmile_qr_scan", "android": "https://dc.lft.to/lastmile_qr_scan"}}, {"name": "24d47c09806c836a304174de9e60f1f0", "fusion_lat": 0.0, "type": "electric_scooter", "lat": 38.906560999999996, "is_reserved": 0, "is_disabled": 0, "fusion_lon": 0.0, "bike_id": "24d47c09806c836a304174de9e60f1f0", "lon": -77.00602133333334, "rental_uris": {"ios": "https://dc.lft.to/lastmile_qr_scan", "android": "https://dc.lft.to/lastmile_qr_scan"}}, {"name": "1b3ccb1567542377d184dad1bf5a3284", "fusion_lat": 0.0, "type": "electric_scooter", "lat": 38.917675, "is_reserved": 0, "is_disabled": 0, "fusion_lon": 0.0, "bike_id": "1b3ccb1567542377d184dad1bf5a3284", "lon": -77.09673433333333, "rental_uris": {"ios": "https://dc.lft.to/lastmile_qr_scan", "android": "https://dc.lft.to/lastmile_qr_scan"}}, {"name": "36dcb8bff9bfefe6e49ec4de0cfe94ad", "fusion_lat": 0.0, "type": "electric_scooter", "lat": 38.925207, "is_reserved": 0, "is_disabled": 0, "fusion_lon": 0.0, "bike_id": "36dcb8bff9bfefe6e49ec4de0cfe94ad", "lon": -77.033186, "rental_uris": {"ios": "https://dc.lft.to/lastmile_qr_scan", "android": "https://dc.lft.to/lastmile_qr_scan"}}, {"name": "8f56e19c3a386f9c64c0cd652702a437", "fusion_lat": 0.0, "type": "electric_scooter", "lat": 38.866585666666666, "is_reserved": 0, "is_disabled": 0, "fusion_lon": 0.0, "bike_id": "8f56e19c3a386f9c64c0cd652702a437", "lon": -76.98888933333333, "rental_uris": {"ios": "https://dc.lft.to/lastmile_qr_scan", "android": "https://dc.lft.to/lastmile_qr_scan"}}, {"name": "e2dfd21354eb05ebf595ffd67316733f", "fusion_lat": 0.0, "type": "electric_scooter", "lat": 38.919344333333335, "is_reserved": 0, "is_disabled": 0, "fusion_lon": 0.0, "bike_id": "e2dfd21354eb05ebf595ffd67316733f", "lon": -77.041556, "rental_uris": {"ios": "https://dc.lft.to/lastmile_qr_scan", "android": "https://dc.lft.to/lastmile_qr_scan"}}, {"name": "0f261e73d44323c195c1f5b3c94ff736", "fusion_lat": 0.0, "type": "electric_scooter", "lat": 38.923635833333336, "is_reserved": 0, "is_disabled": 0, "fusion_lon": 0.0, "bike_id": "0f261e73d44323c195c1f5b3c94ff736", "lon": -77.05839266666666, "rental_uris": {"ios": "https://dc.lft.to/lastmile_qr_scan", "android": "https://dc.lft.to/lastmile_qr_scan"}}, {"name": "423ea9d53a83cb4fc403ae0d3a56b656", "fusion_lat": 0.0, "type": "electric_scooter", "lat": 38.91114066666667, "is_reserved": 0, "is_disabled": 0, "fusion_lon": 0.0, "bike_id": "423ea9d53a83cb4fc403ae0d3a56b656", "lon": -77.024658, "rental_uris": {"ios": "https://dc.lft.to/lastmile_qr_scan", "android": "https://dc.lft.to/lastmile_qr_scan"}}, {"name": "97571036c233d4bd937794657478088c", "fusion_lat": 0.0, "type": "electric_scooter", "lat": 38.883764166666666, "is_reserved": 0, "is_disabled": 0, "fusion_lon": 0.0, "bike_id": "97571036c233d4bd937794657478088c", "lon": -76.92376316666666, "rental_uris": {"ios": "https://dc.lft.to/lastmile_qr_scan", "android": "https://dc.lft.to/lastmile_qr_scan"}}, {"name": "9e12f3c47fd16374ba909745b235ed62", "fusion_lat": 0.0, "type": "electric_scooter", "lat": 38.924767, "is_reserved": 0, "is_disabled": 0, "fusion_lon": 0.0, "bike_id": "9e12f3c47fd16374ba909745b235ed62", "lon": -77.02892366666667, "rental_uris": {"ios": "https://dc.lft.to/lastmile_qr_scan", "android": "https://dc.lft.to/lastmile_qr_scan"}}, {"name": "dee10a1551068c9fbdd9f42cc2ba6af0", "fusion_lat": 0.0, "type": "electric_scooter", "lat": 38.925155333333336, "is_reserved": 0, "is_disabled": 0, "fusion_lon": 0.0, "bike_id": "dee10a1551068c9fbdd9f42cc2ba6af0", "lon": -77.00179633333333, "rental_uris": {"ios": "https://dc.lft.to/lastmile_qr_scan", "android": "https://dc.lft.to/lastmile_qr_scan"}}, {"name": "9c2bb3c2cf9cf9692476b99cda2a8f7a", "fusion_lat": 0.0, "type": "electric_scooter", "lat": 38.912736, "is_reserved": 0, "is_disabled": 0, "fusion_lon": 0.0, "bike_id": "9c2bb3c2cf9cf9692476b99cda2a8f7a", "lon": -77.04507483333333, "rental_uris": {"ios": "https://dc.lft.to/lastmile_qr_scan", "android": "https://dc.lft.to/lastmile_qr_scan"}}, {"name": "b779b1491460ae02e32a007c3434928b", "fusion_lat": 0.0, "type": "electric_scooter", "lat": 38.89527916666667, "is_reserved": 0, "is_disabled": 0, "fusion_lon": 0.0, "bike_id": "b779b1491460ae02e32a007c3434928b", "lon": -77.01134916666666, "rental_uris": {"ios": "https://dc.lft.to/lastmile_qr_scan", "android": "https://dc.lft.to/lastmile_qr_scan"}}, {"name": "1edd4c125a89c06e5c63a1a44ac99c34", "fusion_lat": 0.0, "type": "electric_scooter", "lat": 38.919315, "is_reserved": 0, "is_disabled": 0, "fusion_lon": 0.0, "bike_id": "1edd4c125a89c06e5c63a1a44ac99c34", "lon": -77.03424516666666, "rental_uris": {"ios": "https://dc.lft.to/lastmile_qr_scan", "android": "https://dc.lft.to/lastmile_qr_scan"}}, {"name": "d4614e50a4f999d228380026bf166790", "fusion_lat": 0.0, "type": "electric_scooter", "lat": 38.906762666666665, "is_reserved": 0, "is_disabled": 0, "fusion_lon": 0.0, "bike_id": "d4614e50a4f999d228380026bf166790", "lon": -77.04652, "rental_uris": {"ios": "https://dc.lft.to/lastmile_qr_scan", "android": "https://dc.lft.to/lastmile_qr_scan"}}, {"name": "97c171895c70783eea09473a118bed7f", "fusion_lat": 0.0, "type": "electric_scooter", "lat": 38.90204716666667, "is_reserved": 0, "is_disabled": 0, "fusion_lon": 0.0, "bike_id": "97c171895c70783eea09473a118bed7f", "lon": -76.982116, "rental_uris": {"ios": "https://dc.lft.to/lastmile_qr_scan", "android": "https://dc.lft.to/lastmile_qr_scan"}}, {"name": "8cb18a629ec6d4f4b56998fba91e160b", "fusion_lat": 0.0, "type": "electric_scooter", "lat": 38.928534166666665, "is_reserved": 0, "is_disabled": 0, "fusion_lon": 0.0, "bike_id": "8cb18a629ec6d4f4b56998fba91e160b", "lon": -77.027351, "rental_uris": {"ios": "https://dc.lft.to/lastmile_qr_scan", "android": "https://dc.lft.to/lastmile_qr_scan"}}, {"name": "e0322219f740c7633b2cfc661dc63e77", "fusion_lat": 0.0, "type": "electric_scooter", "lat": 38.896184833333336, "is_reserved": 0, "is_disabled": 0, "fusion_lon": 0.0, "bike_id": "e0322219f740c7633b2cfc661dc63e77", "lon": -77.04469866666666, "rental_uris": {"ios": "https://dc.lft.to/lastmile_qr_scan", "android": "https://dc.lft.to/lastmile_qr_scan"}}, {"name": "9e9b41b7c14f0eab593ae9163bc0f011", "fusion_lat": 0.0, "type": "electric_scooter", "lat": 38.909628833333336, "is_reserved": 0, "is_disabled": 0, "fusion_lon": 0.0, "bike_id": "9e9b41b7c14f0eab593ae9163bc0f011", "lon": -77.02743733333334, "rental_uris": {"ios": "https://dc.lft.to/lastmile_qr_scan", "android": "https://dc.lft.to/lastmile_qr_scan"}}, {"name": "0809143e302f75b3b77db02ce1cf6268", "fusion_lat": 0.0, "type": "electric_scooter", "lat": 38.93474633333334, "is_reserved": 0, "is_disabled": 0, "fusion_lon": 0.0, "bike_id": "0809143e302f75b3b77db02ce1cf6268", "lon": -77.02850666666667, "rental_uris": {"ios": "https://dc.lft.to/lastmile_qr_scan", "android": "https://dc.lft.to/lastmile_qr_scan"}}, {"name": "21cf2952b9058d56e2162f8e8895f23e", "fusion_lat": 0.0, "type": "electric_scooter", "lat": 38.903774, "is_reserved": 0, "is_disabled": 0, "fusion_lon": 0.0, "bike_id": "21cf2952b9058d56e2162f8e8895f23e", "lon": -77.04514266666666, "rental_uris": {"ios": "https://dc.lft.to/lastmile_qr_scan", "android": "https://dc.lft.to/lastmile_qr_scan"}}, {"name": "b8cd7d1ad890b951aa2d4c663db6aee9", "fusion_lat": 0.0, "type": "electric_scooter", "lat": 38.902612, "is_reserved": 0, "is_disabled": 0, "fusion_lon": 0.0, "bike_id": "b8cd7d1ad890b951aa2d4c663db6aee9", "lon": -76.996076, "rental_uris": {"ios": "https://dc.lft.to/lastmile_qr_scan", "android": "https://dc.lft.to/lastmile_qr_scan"}}, {"name": "6c83823a95ee9341a6d57599a5e2aab4", "fusion_lat": 0.0, "type": "electric_scooter", "lat": 38.937715833333336, "is_reserved": 0, "is_disabled": 0, "fusion_lon": 0.0, "bike_id": "6c83823a95ee9341a6d57599a5e2aab4", "lon": -77.03288583333334, "rental_uris": {"ios": "https://dc.lft.to/lastmile_qr_scan", "android": "https://dc.lft.to/lastmile_qr_scan"}}, {"name": "014496fb5a5095d179560b6441e0eac4", "fusion_lat": 0.0, "type": "electric_scooter", "lat": 38.9264585, "is_reserved": 0, "is_disabled": 0, "fusion_lon": 0.0, "bike_id": "014496fb5a5095d179560b6441e0eac4", "lon": -77.03699233333333, "rental_uris": {"ios": "https://dc.lft.to/lastmile_qr_scan", "android": "https://dc.lft.to/lastmile_qr_scan"}}, {"name": "c6edd86dfbb86e0881bd4da9a55a574c", "fusion_lat": 0.0, "type": "electric_scooter", "lat": 38.909681, "is_reserved": 0, "is_disabled": 0, "fusion_lon": 0.0, "bike_id": "c6edd86dfbb86e0881bd4da9a55a574c", "lon": -77.0337955, "rental_uris": {"ios": "https://dc.lft.to/lastmile_qr_scan", "android": "https://dc.lft.to/lastmile_qr_scan"}}, {"name": "9119da75b71bf9d186c14fa35712b49d", "fusion_lat": 0.0, "type": "electric_scooter", "lat": 38.889196, "is_reserved": 0, "is_disabled": 0, "fusion_lon": 0.0, "bike_id": "9119da75b71bf9d186c14fa35712b49d", "lon": -76.95378316666667, "rental_uris": {"ios": "https://dc.lft.to/lastmile_qr_scan", "android": "https://dc.lft.to/lastmile_qr_scan"}}, {"name": "681bc65bd7ccc70b81fd4d2d89b2c08b", "fusion_lat": 0.0, "type": "electric_scooter", "lat": 38.9012225, "is_reserved": 0, "is_disabled": 0, "fusion_lon": 0.0, "bike_id": "681bc65bd7ccc70b81fd4d2d89b2c08b", "lon": -77.021814, "rental_uris": {"ios": "https://dc.lft.to/lastmile_qr_scan", "android": "https://dc.lft.to/lastmile_qr_scan"}}, {"name": "3399b9c948a6911dd892ee1ed3718a9f", "fusion_lat": 0.0, "type": "electric_scooter", "lat": 38.92892533333333, "is_reserved": 0, "is_disabled": 0, "fusion_lon": 0.0, "bike_id": "3399b9c948a6911dd892ee1ed3718a9f", "lon": -77.023104, "rental_uris": {"ios": "https://dc.lft.to/lastmile_qr_scan", "android": "https://dc.lft.to/lastmile_qr_scan"}}, {"name": "4d621e529f8d6a6769b1eeb391635a43", "fusion_lat": 0.0, "type": "electric_scooter", "lat": 38.905704666666665, "is_reserved": 0, "is_disabled": 0, "fusion_lon": 0.0, "bike_id": "4d621e529f8d6a6769b1eeb391635a43", "lon": -77.02759, "rental_uris": {"ios": "https://dc.lft.to/lastmile_qr_scan", "android": "https://dc.lft.to/lastmile_qr_scan"}}, {"name": "3f58bd0979213d71056a14cc4481e287", "fusion_lat": 0.0, "type": "electric_scooter", "lat": 38.9119965, "is_reserved": 0, "is_disabled": 0, "fusion_lon": 0.0, "bike_id": "3f58bd0979213d71056a14cc4481e287", "lon": -77.0445705, "rental_uris": {"ios": "https://dc.lft.to/lastmile_qr_scan", "android": "https://dc.lft.to/lastmile_qr_scan"}}, {"name": "59c96f996d04f39befea162107db0e29", "fusion_lat": 0.0, "type": "electric_scooter", "lat": 38.89198966666667, "is_reserved": 0, "is_disabled": 0, "fusion_lon": 0.0, "bike_id": "59c96f996d04f39befea162107db0e29", "lon": -77.002407, "rental_uris": {"ios": "https://dc.lft.to/lastmile_qr_scan", "android": "https://dc.lft.to/lastmile_qr_scan"}}, {"name": "8295fcfdef04580a02f40f8a85d6c558", "fusion_lat": 0.0, "type": "electric_scooter", "lat": 38.900045, "is_reserved": 0, "is_disabled": 0, "fusion_lon": 0.0, "bike_id": "8295fcfdef04580a02f40f8a85d6c558", "lon": -77.05338633333334, "rental_uris": {"ios": "https://dc.lft.to/lastmile_qr_scan", "android": "https://dc.lft.to/lastmile_qr_scan"}}, {"name": "dd3686049ac7fdfdef164c02845af181", "fusion_lat": 0.0, "type": "electric_scooter", "lat": 38.97510416666667, "is_reserved": 0, "is_disabled": 0, "fusion_lon": 0.0, "bike_id": "dd3686049ac7fdfdef164c02845af181", "lon": -77.01697033333333, "rental_uris": {"ios": "https://dc.lft.to/lastmile_qr_scan", "android": "https://dc.lft.to/lastmile_qr_scan"}}, {"name": "f2d5cc8243352e6cc6874b5d237d139e", "fusion_lat": 0.0, "type": "electric_bike", "lat": 38.953342166666665, "is_reserved": 0, "is_disabled": 0, "fusion_lon": 0.0, "bike_id": "f2d5cc8243352e6cc6874b5d237d139e", "lon": -76.978343, "rental_uris": {"ios": "https://dc.lft.to/lastmile_qr_scan", "android": "https://dc.lft.to/lastmile_qr_scan"}}, {"name": "8cb359d6384300e02921a9719665a269", "fusion_lat": 0.0, "type": "electric_scooter", "lat": 38.928264166666665, "is_reserved": 0, "is_disabled": 0, "fusion_lon": 0.0, "bike_id": "8cb359d6384300e02921a9719665a269", "lon": -77.022576, "rental_uris": {"ios": "https://dc.lft.to/lastmile_qr_scan", "android": "https://dc.lft.to/lastmile_qr_scan"}}, {"name": "fc157816acbb3cc7a1eee63c70b0218a", "fusion_lat": 0.0, "type": "electric_scooter", "lat": 38.926558666666665, "is_reserved": 0, "is_disabled": 0, "fusion_lon": 0.0, "bike_id": "fc157816acbb3cc7a1eee63c70b0218a", "lon": -77.03730033333333, "rental_uris": {"ios": "https://dc.lft.to/lastmile_qr_scan", "android": "https://dc.lft.to/lastmile_qr_scan"}}, {"name": "d96d2ef5f21351f46c4ee6b2e2341ac1", "fusion_lat": 0.0, "type": "electric_scooter", "lat": 38.869627, "is_reserved": 0, "is_disabled": 0, "fusion_lon": 0.0, "bike_id": "d96d2ef5f21351f46c4ee6b2e2341ac1", "lon": -77.01376433333333, "rental_uris": {"ios": "https://dc.lft.to/lastmile_qr_scan", "android": "https://dc.lft.to/lastmile_qr_scan"}}, {"name": "4d18218d6eee14246de95c830564a096", "fusion_lat": 0.0, "type": "electric_scooter", "lat": 38.905614166666666, "is_reserved": 0, "is_disabled": 0, "fusion_lon": 0.0, "bike_id": "4d18218d6eee14246de95c830564a096", "lon": -77.05917016666666, "rental_uris": {"ios": "https://dc.lft.to/lastmile_qr_scan", "android": "https://dc.lft.to/lastmile_qr_scan"}}, {"name": "5ffe1d3f21dfd966f6e9ab7df3899412", "fusion_lat": 0.0, "type": "electric_scooter", "lat": 38.901434333333334, "is_reserved": 0, "is_disabled": 0, "fusion_lon": 0.0, "bike_id": "5ffe1d3f21dfd966f6e9ab7df3899412", "lon": -77.00057016666666, "rental_uris": {"ios": "https://dc.lft.to/lastmile_qr_scan", "android": "https://dc.lft.to/lastmile_qr_scan"}}, {"name": "1a555aa29d0fef46b8eb22fc4bad7bd6", "fusion_lat": 0.0, "type": "electric_scooter", "lat": 38.910498833333335, "is_reserved": 0, "is_disabled": 0, "fusion_lon": 0.0, "bike_id": "1a555aa29d0fef46b8eb22fc4bad7bd6", "lon": -77.02194866666666, "rental_uris": {"ios": "https://dc.lft.to/lastmile_qr_scan", "android": "https://dc.lft.to/lastmile_qr_scan"}}, {"name": "a3b98b09e223b0b3e12b56875400803b", "fusion_lat": 0.0, "type": "electric_scooter", "lat": 38.9182175, "is_reserved": 0, "is_disabled": 0, "fusion_lon": 0.0, "bike_id": "a3b98b09e223b0b3e12b56875400803b", "lon": -77.03460683333333, "rental_uris": {"ios": "https://dc.lft.to/lastmile_qr_scan", "android": "https://dc.lft.to/lastmile_qr_scan"}}, {"name": "15352460370203b9bce9d812529ef48a", "fusion_lat": 0.0, "type": "electric_bike", "lat": 38.877540333333336, "is_reserved": 0, "is_disabled": 0, "fusion_lon": 0.0, "bike_id": "15352460370203b9bce9d812529ef48a", "lon": -76.97993383333333, "rental_uris": {"ios": "https://dc.lft.to/lastmile_qr_scan", "android": "https://dc.lft.to/lastmile_qr_scan"}}, {"name": "22f386baad7d3afd40c04eff07b3532a", "fusion_lat": 0.0, "type": "electric_scooter", "lat": 38.91240366666667, "is_reserved": 0, "is_disabled": 0, "fusion_lon": 0.0, "bike_id": "22f386baad7d3afd40c04eff07b3532a", "lon": -77.04878633333334, "rental_uris": {"ios": "https://dc.lft.to/lastmile_qr_scan", "android": "https://dc.lft.to/lastmile_qr_scan"}}, {"name": "b72da980c22c54eae9ab61700c0ec1f1", "fusion_lat": 0.0, "type": "electric_scooter", "lat": 38.895618166666665, "is_reserved": 0, "is_disabled": 0, "fusion_lon": 0.0, "bike_id": "b72da980c22c54eae9ab61700c0ec1f1", "lon": -76.9488895, "rental_uris": {"ios": "https://dc.lft.to/lastmile_qr_scan", "android": "https://dc.lft.to/lastmile_qr_scan"}}, {"name": "1e7e6d94afc552ff0003f0a5430a7e8c", "fusion_lat": 0.0, "type": "electric_bike", "lat": 38.939548333333335, "is_reserved": 0, "is_disabled": 0, "fusion_lon": 0.0, "bike_id": "1e7e6d94afc552ff0003f0a5430a7e8c", "lon": -77.36096816666667, "rental_uris": {"ios": "https://dc.lft.to/lastmile_qr_scan", "android": "https://dc.lft.to/lastmile_qr_scan"}}, {"name": "314d36bd2f5ea68212d9e40e293c3aeb", "fusion_lat": 0.0, "type": "electric_scooter", "lat": 38.909707166666664, "is_reserved": 0, "is_disabled": 0, "fusion_lon": 0.0, "bike_id": "314d36bd2f5ea68212d9e40e293c3aeb", "lon": -77.011167, "rental_uris": {"ios": "https://dc.lft.to/lastmile_qr_scan", "android": "https://dc.lft.to/lastmile_qr_scan"}}, {"name": "0443ba0099b54e51ebf027981873c705", "fusion_lat": 0.0, "type": "electric_scooter", "lat": 38.900253666666664, "is_reserved": 0, "is_disabled": 0, "fusion_lon": 0.0, "bike_id": "0443ba0099b54e51ebf027981873c705", "lon": -77.03361, "rental_uris": {"ios": "https://dc.lft.to/lastmile_qr_scan", "android": "https://dc.lft.to/lastmile_qr_scan"}}, {"name": "aa537b662f72b3e2469b4f11e7aa2023", "fusion_lat": 0.0, "type": "electric_bike", "lat": 38.959294666666665, "is_reserved": 0, "is_disabled": 0, "fusion_lon": 0.0, "bike_id": "aa537b662f72b3e2469b4f11e7aa2023", "lon": -76.92537983333334, "rental_uris": {"ios": "https://dc.lft.to/lastmile_qr_scan", "android": "https://dc.lft.to/lastmile_qr_scan"}}, {"name": "cfeb11d00a98a296894df848280e9ebd", "fusion_lat": 0.0, "type": "electric_scooter", "lat": 38.917055500000004, "is_reserved": 0, "is_disabled": 0, "fusion_lon": 0.0, "bike_id": "cfeb11d00a98a296894df848280e9ebd", "lon": -77.04175816666667, "rental_uris": {"ios": "https://dc.lft.to/lastmile_qr_scan", "android": "https://dc.lft.to/lastmile_qr_scan"}}, {"name": "620d21580abaa5af71e9368355d60e46", "fusion_lat": 0.0, "type": "electric_scooter", "lat": 38.90451, "is_reserved": 0, "is_disabled": 0, "fusion_lon": 0.0, "bike_id": "620d21580abaa5af71e9368355d60e46", "lon": -77.02848233333333, "rental_uris": {"ios": "https://dc.lft.to/lastmile_qr_scan", "android": "https://dc.lft.to/lastmile_qr_scan"}}, {"name": "fb325651a6842a21629eb88af3893941", "fusion_lat": 0.0, "type": "electric_scooter", "lat": 38.90826416666667, "is_reserved": 0, "is_disabled": 0, "fusion_lon": 0.0, "bike_id": "fb325651a6842a21629eb88af3893941", "lon": -77.039429, "rental_uris": {"ios": "https://dc.lft.to/lastmile_qr_scan", "android": "https://dc.lft.to/lastmile_qr_scan"}}, {"name": "8fcfba915f42f29d02ba2b6197eca742", "fusion_lat": 0.0, "type": "electric_scooter", "lat": 38.903903166666666, "is_reserved": 0, "is_disabled": 0, "fusion_lon": 0.0, "bike_id": "8fcfba915f42f29d02ba2b6197eca742", "lon": -77.0069735, "rental_uris": {"ios": "https://dc.lft.to/lastmile_qr_scan", "android": "https://dc.lft.to/lastmile_qr_scan"}}, {"name": "53f7eb50af2b5c2d4c9098bffabd94ba", "fusion_lat": 0.0, "type": "electric_scooter", "lat": 38.914052, "is_reserved": 0, "is_disabled": 0, "fusion_lon": 0.0, "bike_id": "53f7eb50af2b5c2d4c9098bffabd94ba", "lon": -77.02228916666667, "rental_uris": {"ios": "https://dc.lft.to/lastmile_qr_scan", "android": "https://dc.lft.to/lastmile_qr_scan"}}, {"name": "5a6b65b58d6304b0d59d36e7168436da", "fusion_lat": 0.0, "type": "electric_scooter", "lat": 38.874987, "is_reserved": 0, "is_disabled": 0, "fusion_lon": 0.0, "bike_id": "5a6b65b58d6304b0d59d36e7168436da", "lon": -76.997969, "rental_uris": {"ios": "https://dc.lft.to/lastmile_qr_scan", "android": "https://dc.lft.to/lastmile_qr_scan"}}, {"name": "596c46257be385cd0a67cdcdd1269cf7", "fusion_lat": 0.0, "type": "electric_scooter", "lat": 38.906385666666665, "is_reserved": 0, "is_disabled": 0, "fusion_lon": 0.0, "bike_id": "596c46257be385cd0a67cdcdd1269cf7", "lon": -77.005872, "rental_uris": {"ios": "https://dc.lft.to/lastmile_qr_scan", "android": "https://dc.lft.to/lastmile_qr_scan"}}, {"name": "27eb71beca38f7348735b8b064e9317b", "fusion_lat": 0.0, "type": "electric_bike", "lat": 38.935816833333334, "is_reserved": 0, "is_disabled": 0, "fusion_lon": 0.0, "bike_id": "27eb71beca38f7348735b8b064e9317b", "lon": -77.02127366666667, "rental_uris": {"ios": "https://dc.lft.to/lastmile_qr_scan", "android": "https://dc.lft.to/lastmile_qr_scan"}}, {"name": "a01a7378e239675610ba9fdfd0d15771", "fusion_lat": 0.0, "type": "electric_scooter", "lat": 38.91695216666667, "is_reserved": 0, "is_disabled": 0, "fusion_lon": 0.0, "bike_id": "a01a7378e239675610ba9fdfd0d15771", "lon": -77.031704, "rental_uris": {"ios": "https://dc.lft.to/lastmile_qr_scan", "android": "https://dc.lft.to/lastmile_qr_scan"}}, {"name": "a3e7e52f3bc345b25d42ede52a58250f", "fusion_lat": 0.0, "type": "electric_scooter", "lat": 38.92289866666667, "is_reserved": 0, "is_disabled": 0, "fusion_lon": 0.0, "bike_id": "a3e7e52f3bc345b25d42ede52a58250f", "lon": -77.02959383333334, "rental_uris": {"ios": "https://dc.lft.to/lastmile_qr_scan", "android": "https://dc.lft.to/lastmile_qr_scan"}}, {"name": "643131d27994a5fdb3643f9750cb48b2", "fusion_lat": 0.0, "type": "electric_scooter", "lat": 38.90038, "is_reserved": 0, "is_disabled": 0, "fusion_lon": 0.0, "bike_id": "643131d27994a5fdb3643f9750cb48b2", "lon": -77.0009025, "rental_uris": {"ios": "https://dc.lft.to/lastmile_qr_scan", "android": "https://dc.lft.to/lastmile_qr_scan"}}, {"name": "4c6607048016344f0c97596895115544", "fusion_lat": 0.0, "type": "electric_scooter", "lat": 38.920651666666664, "is_reserved": 0, "is_disabled": 0, "fusion_lon": 0.0, "bike_id": "4c6607048016344f0c97596895115544", "lon": -77.02368366666667, "rental_uris": {"ios": "https://dc.lft.to/lastmile_qr_scan", "android": "https://dc.lft.to/lastmile_qr_scan"}}, {"name": "114e078c7b116af13525233bc0292a8f", "fusion_lat": 0.0, "type": "electric_scooter", "lat": 38.918230666666666, "is_reserved": 0, "is_disabled": 0, "fusion_lon": 0.0, "bike_id": "114e078c7b116af13525233bc0292a8f", "lon": -77.03462566666667, "rental_uris": {"ios": "https://dc.lft.to/lastmile_qr_scan", "android": "https://dc.lft.to/lastmile_qr_scan"}}, {"name": "d3975491b7adb5d4e1f972314097aab8", "fusion_lat": 0.0, "type": "electric_scooter", "lat": 38.89674983333333, "is_reserved": 0, "is_disabled": 0, "fusion_lon": 0.0, "bike_id": "d3975491b7adb5d4e1f972314097aab8", "lon": -76.947333, "rental_uris": {"ios": "https://dc.lft.to/lastmile_qr_scan", "android": "https://dc.lft.to/lastmile_qr_scan"}}, {"name": "51cc2f9d40d299693da9e72f38d0e147", "fusion_lat": 0.0, "type": "electric_scooter", "lat": 38.91549466666667, "is_reserved": 0, "is_disabled": 0, "fusion_lon": 0.0, "bike_id": "51cc2f9d40d299693da9e72f38d0e147", "lon": -77.03854633333333, "rental_uris": {"ios": "https://dc.lft.to/lastmile_qr_scan", "android": "https://dc.lft.to/lastmile_qr_scan"}}, {"name": "902c01f2e289943066d57cbcfe127ade", "fusion_lat": 0.0, "type": "electric_scooter", "lat": 38.914162833333336, "is_reserved": 0, "is_disabled": 0, "fusion_lon": 0.0, "bike_id": "902c01f2e289943066d57cbcfe127ade", "lon": -77.0098155, "rental_uris": {"ios": "https://dc.lft.to/lastmile_qr_scan", "android": "https://dc.lft.to/lastmile_qr_scan"}}, {"name": "a67b1cbf205666350ded74fb708ea511", "fusion_lat": 0.0, "type": "electric_bike", "lat": 38.86873716666667, "is_reserved": 0, "is_disabled": 0, "fusion_lon": 0.0, "bike_id": "a67b1cbf205666350ded74fb708ea511", "lon": -76.9166715, "rental_uris": {"ios": "https://dc.lft.to/lastmile_qr_scan", "android": "https://dc.lft.to/lastmile_qr_scan"}}, {"name": "7c85be787f5b3d87c1060c1b06917075", "fusion_lat": 0.0, "type": "electric_bike", "lat": 38.8965275, "is_reserved": 0, "is_disabled": 0, "fusion_lon": 0.0, "bike_id": "7c85be787f5b3d87c1060c1b06917075", "lon": -77.10455566666667, "rental_uris": {"ios": "https://dc.lft.to/lastmile_qr_scan", "android": "https://dc.lft.to/lastmile_qr_scan"}}, {"name": "4572ed94c8c257967baa7da9372c2aa3", "fusion_lat": 0.0, "type": "electric_scooter", "lat": 38.9039715, "is_reserved": 0, "is_disabled": 0, "fusion_lon": 0.0, "bike_id": "4572ed94c8c257967baa7da9372c2aa3", "lon": -76.98947066666666, "rental_uris": {"ios": "https://dc.lft.to/lastmile_qr_scan", "android": "https://dc.lft.to/lastmile_qr_scan"}}, {"name": "f03fce3d999b2fca203c1a6d272341c0", "fusion_lat": 0.0, "type": "electric_scooter", "lat": 38.918775, "is_reserved": 0, "is_disabled": 0, "fusion_lon": 0.0, "bike_id": "f03fce3d999b2fca203c1a6d272341c0", "lon": -77.04447216666667, "rental_uris": {"ios": "https://dc.lft.to/lastmile_qr_scan", "android": "https://dc.lft.to/lastmile_qr_scan"}}, {"name": "a55acdac75735c8cb5286690c3078d98", "fusion_lat": 0.0, "type": "electric_scooter", "lat": 38.87896666666666, "is_reserved": 0, "is_disabled": 0, "fusion_lon": 0.0, "bike_id": "a55acdac75735c8cb5286690c3078d98", "lon": -77.02285433333333, "rental_uris": {"ios": "https://dc.lft.to/lastmile_qr_scan", "android": "https://dc.lft.to/lastmile_qr_scan"}}, {"name": "7f1e8b31df261f09d35dc85f78ea6fc6", "fusion_lat": 0.0, "type": "electric_scooter", "lat": 38.908538666666665, "is_reserved": 0, "is_disabled": 0, "fusion_lon": 0.0, "bike_id": "7f1e8b31df261f09d35dc85f78ea6fc6", "lon": -76.999393, "rental_uris": {"ios": "https://dc.lft.to/lastmile_qr_scan", "android": "https://dc.lft.to/lastmile_qr_scan"}}, {"name": "7b529b4158d4371656cb2c7f9caa7011", "fusion_lat": 0.0, "type": "electric_scooter", "lat": 38.92485766666667, "is_reserved": 0, "is_disabled": 0, "fusion_lon": 0.0, "bike_id": "7b529b4158d4371656cb2c7f9caa7011", "lon": -77.02839566666667, "rental_uris": {"ios": "https://dc.lft.to/lastmile_qr_scan", "android": "https://dc.lft.to/lastmile_qr_scan"}}, {"name": "fce125da024622c6d96dc134ca3b97f9", "fusion_lat": 0.0, "type": "electric_scooter", "lat": 38.936155666666664, "is_reserved": 0, "is_disabled": 0, "fusion_lon": 0.0, "bike_id": "fce125da024622c6d96dc134ca3b97f9", "lon": -77.03216166666667, "rental_uris": {"ios": "https://dc.lft.to/lastmile_qr_scan", "android": "https://dc.lft.to/lastmile_qr_scan"}}, {"name": "bd892bcfb96d9e9e130d35fbb0f54f66", "fusion_lat": 0.0, "type": "electric_scooter", "lat": 38.90149316666667, "is_reserved": 0, "is_disabled": 0, "fusion_lon": 0.0, "bike_id": "bd892bcfb96d9e9e130d35fbb0f54f66", "lon": -77.00066283333334, "rental_uris": {"ios": "https://dc.lft.to/lastmile_qr_scan", "android": "https://dc.lft.to/lastmile_qr_scan"}}, {"name": "24a7c18587bf8df57eeba564c3267cda", "fusion_lat": 0.0, "type": "electric_scooter", "lat": 38.92948116666667, "is_reserved": 0, "is_disabled": 0, "fusion_lon": 0.0, "bike_id": "24a7c18587bf8df57eeba564c3267cda", "lon": -76.99748733333334, "rental_uris": {"ios": "https://dc.lft.to/lastmile_qr_scan", "android": "https://dc.lft.to/lastmile_qr_scan"}}, {"name": "7550bb2fe461d618ef6a8df3c7a9d496", "fusion_lat": 0.0, "type": "electric_bike", "lat": 38.91102383333333, "is_reserved": 0, "is_disabled": 0, "fusion_lon": 0.0, "bike_id": "7550bb2fe461d618ef6a8df3c7a9d496", "lon": -77.004934, "rental_uris": {"ios": "https://dc.lft.to/lastmile_qr_scan", "android": "https://dc.lft.to/lastmile_qr_scan"}}, {"name": "39a25a7cc7f1bc25b02a6c1ac0764b2e", "fusion_lat": 0.0, "type": "electric_scooter", "lat": 38.8922975, "is_reserved": 0, "is_disabled": 0, "fusion_lon": 0.0, "bike_id": "39a25a7cc7f1bc25b02a6c1ac0764b2e", "lon": -77.050081, "rental_uris": {"ios": "https://dc.lft.to/lastmile_qr_scan", "android": "https://dc.lft.to/lastmile_qr_scan"}}, {"name": "310d578255cff64e2e637680e7ee8334", "fusion_lat": 0.0, "type": "electric_scooter", "lat": 38.919512166666664, "is_reserved": 0, "is_disabled": 0, "fusion_lon": 0.0, "bike_id": "310d578255cff64e2e637680e7ee8334", "lon": -77.01401583333333, "rental_uris": {"ios": "https://dc.lft.to/lastmile_qr_scan", "android": "https://dc.lft.to/lastmile_qr_scan"}}, {"name": "0d2c017b11b6a1d760c13b430f6263ab", "fusion_lat": 0.0, "type": "electric_scooter", "lat": 38.9242225, "is_reserved": 0, "is_disabled": 0, "fusion_lon": 0.0, "bike_id": "0d2c017b11b6a1d760c13b430f6263ab", "lon": -77.01948333333333, "rental_uris": {"ios": "https://dc.lft.to/lastmile_qr_scan", "android": "https://dc.lft.to/lastmile_qr_scan"}}, {"name": "70aab796363f587ac6e73060c356739c", "fusion_lat": 0.0, "type": "electric_scooter", "lat": 38.918168333333334, "is_reserved": 0, "is_disabled": 0, "fusion_lon": 0.0, "bike_id": "70aab796363f587ac6e73060c356739c", "lon": -77.04009816666667, "rental_uris": {"ios": "https://dc.lft.to/lastmile_qr_scan", "android": "https://dc.lft.to/lastmile_qr_scan"}}, {"name": "e10f5cfff0727227e311903598917286", "fusion_lat": 0.0, "type": "electric_scooter", "lat": 38.87756683333333, "is_reserved": 0, "is_disabled": 0, "fusion_lon": 0.0, "bike_id": "e10f5cfff0727227e311903598917286", "lon": -77.01996733333333, "rental_uris": {"ios": "https://dc.lft.to/lastmile_qr_scan", "android": "https://dc.lft.to/lastmile_qr_scan"}}, {"name": "f13b94786fcba95e5ecdd1ae6bcf1b5b", "fusion_lat": 0.0, "type": "electric_scooter", "lat": 38.9014835, "is_reserved": 0, "is_disabled": 0, "fusion_lon": 0.0, "bike_id": "f13b94786fcba95e5ecdd1ae6bcf1b5b", "lon": -77.03970516666666, "rental_uris": {"ios": "https://dc.lft.to/lastmile_qr_scan", "android": "https://dc.lft.to/lastmile_qr_scan"}}, {"name": "20810f41e649ccaf1ecfcd025fc32019", "fusion_lat": 0.0, "type": "electric_scooter", "lat": 38.90734233333333, "is_reserved": 0, "is_disabled": 0, "fusion_lon": 0.0, "bike_id": "20810f41e649ccaf1ecfcd025fc32019", "lon": -77.03472633333334, "rental_uris": {"ios": "https://dc.lft.to/lastmile_qr_scan", "android": "https://dc.lft.to/lastmile_qr_scan"}}, {"name": "ba3dd4c7560e144c978666e1ee32cacc", "fusion_lat": 0.0, "type": "electric_scooter", "lat": 38.9014025, "is_reserved": 0, "is_disabled": 0, "fusion_lon": 0.0, "bike_id": "ba3dd4c7560e144c978666e1ee32cacc", "lon": -77.0449635, "rental_uris": {"ios": "https://dc.lft.to/lastmile_qr_scan", "android": "https://dc.lft.to/lastmile_qr_scan"}}, {"name": "e361aa3f0a0f7471be00d07806b0882c", "fusion_lat": 0.0, "type": "electric_scooter", "lat": 38.90847483333334, "is_reserved": 0, "is_disabled": 0, "fusion_lon": 0.0, "bike_id": "e361aa3f0a0f7471be00d07806b0882c", "lon": -77.03187183333333, "rental_uris": {"ios": "https://dc.lft.to/lastmile_qr_scan", "android": "https://dc.lft.to/lastmile_qr_scan"}}, {"name": "ca250eab63a6f2b8369e6b47fad0cc94", "fusion_lat": 0.0, "type": "electric_scooter", "lat": 38.911232, "is_reserved": 0, "is_disabled": 0, "fusion_lon": 0.0, "bike_id": "ca250eab63a6f2b8369e6b47fad0cc94", "lon": -77.03733416666667, "rental_uris": {"ios": "https://dc.lft.to/lastmile_qr_scan", "android": "https://dc.lft.to/lastmile_qr_scan"}}, {"name": "0b729dc9da0d27eebe303277dec9afef", "fusion_lat": 0.0, "type": "electric_scooter", "lat": 38.90464583333333, "is_reserved": 0, "is_disabled": 0, "fusion_lon": 0.0, "bike_id": "0b729dc9da0d27eebe303277dec9afef", "lon": -76.98254416666667, "rental_uris": {"ios": "https://dc.lft.to/lastmile_qr_scan", "android": "https://dc.lft.to/lastmile_qr_scan"}}, {"name": "950747046a4308c0ed46320ab0bc04b5", "fusion_lat": 0.0, "type": "electric_bike", "lat": 38.943620333333335, "is_reserved": 0, "is_disabled": 0, "fusion_lon": 0.0, "bike_id": "950747046a4308c0ed46320ab0bc04b5", "lon": -77.00346416666666, "rental_uris": {"ios": "https://dc.lft.to/lastmile_qr_scan", "android": "https://dc.lft.to/lastmile_qr_scan"}}, {"name": "c43bd5c45c64ab73997ca4eaab99d2c7", "fusion_lat": 0.0, "type": "electric_scooter", "lat": 38.906512, "is_reserved": 0, "is_disabled": 0, "fusion_lon": 0.0, "bike_id": "c43bd5c45c64ab73997ca4eaab99d2c7", "lon": -77.053215, "rental_uris": {"ios": "https://dc.lft.to/lastmile_qr_scan", "android": "https://dc.lft.to/lastmile_qr_scan"}}, {"name": "4a7022ff5937961dc2e6c3b3b9ee3644", "fusion_lat": 0.0, "type": "electric_bike", "lat": 38.992329833333336, "is_reserved": 0, "is_disabled": 0, "fusion_lon": 0.0, "bike_id": "4a7022ff5937961dc2e6c3b3b9ee3644", "lon": -76.8782705, "rental_uris": {"ios": "https://dc.lft.to/lastmile_qr_scan", "android": "https://dc.lft.to/lastmile_qr_scan"}}, {"name": "986770accc1c73c06131283173ddaa17", "fusion_lat": 0.0, "type": "electric_scooter", "lat": 38.90339133333333, "is_reserved": 0, "is_disabled": 0, "fusion_lon": 0.0, "bike_id": "986770accc1c73c06131283173ddaa17", "lon": -76.94668433333334, "rental_uris": {"ios": "https://dc.lft.to/lastmile_qr_scan", "android": "https://dc.lft.to/lastmile_qr_scan"}}, {"name": "88bfad491c8ac69196ee6a469cd10a27", "fusion_lat": 0.0, "type": "electric_scooter", "lat": 38.91252016666667, "is_reserved": 0, "is_disabled": 0, "fusion_lon": 0.0, "bike_id": "88bfad491c8ac69196ee6a469cd10a27", "lon": -77.038386, "rental_uris": {"ios": "https://dc.lft.to/lastmile_qr_scan", "android": "https://dc.lft.to/lastmile_qr_scan"}}, {"name": "24920c1d04da7a1176bee036d0368a04", "fusion_lat": 0.0, "type": "electric_scooter", "lat": 38.8973295, "is_reserved": 0, "is_disabled": 0, "fusion_lon": 0.0, "bike_id": "24920c1d04da7a1176bee036d0368a04", "lon": -77.04647666666666, "rental_uris": {"ios": "https://dc.lft.to/lastmile_qr_scan", "android": "https://dc.lft.to/lastmile_qr_scan"}}, {"name": "a968e44e60329353ccfe80b394e8e654", "fusion_lat": 0.0, "type": "electric_scooter", "lat": 38.91418133333333, "is_reserved": 0, "is_disabled": 0, "fusion_lon": 0.0, "bike_id": "a968e44e60329353ccfe80b394e8e654", "lon": -77.04507783333334, "rental_uris": {"ios": "https://dc.lft.to/lastmile_qr_scan", "android": "https://dc.lft.to/lastmile_qr_scan"}}, {"name": "3a0f2da3e6171c9d317bd291a7c2b313", "fusion_lat": 0.0, "type": "electric_scooter", "lat": 38.912818666666666, "is_reserved": 0, "is_disabled": 0, "fusion_lon": 0.0, "bike_id": "3a0f2da3e6171c9d317bd291a7c2b313", "lon": -77.03939333333334, "rental_uris": {"ios": "https://dc.lft.to/lastmile_qr_scan", "android": "https://dc.lft.to/lastmile_qr_scan"}}, {"name": "377eaace0fcc473cbd86c63f20694794", "fusion_lat": 0.0, "type": "electric_bike", "lat": 38.903018, "is_reserved": 0, "is_disabled": 0, "fusion_lon": 0.0, "bike_id": "377eaace0fcc473cbd86c63f20694794", "lon": -76.94439766666666, "rental_uris": {"ios": "https://dc.lft.to/lastmile_qr_scan", "android": "https://dc.lft.to/lastmile_qr_scan"}}, {"name": "d0d09d8f23ea82aec03f504476c56a65", "fusion_lat": 0.0, "type": "electric_scooter", "lat": 38.917255, "is_reserved": 0, "is_disabled": 0, "fusion_lon": 0.0, "bike_id": "d0d09d8f23ea82aec03f504476c56a65", "lon": -77.0186775, "rental_uris": {"ios": "https://dc.lft.to/lastmile_qr_scan", "android": "https://dc.lft.to/lastmile_qr_scan"}}, {"name": "06b0eb0ca703c525900d288914ae9630", "fusion_lat": 0.0, "type": "electric_scooter", "lat": 38.897634333333336, "is_reserved": 0, "is_disabled": 0, "fusion_lon": 0.0, "bike_id": "06b0eb0ca703c525900d288914ae9630", "lon": -77.0515445, "rental_uris": {"ios": "https://dc.lft.to/lastmile_qr_scan", "android": "https://dc.lft.to/lastmile_qr_scan"}}, {"name": "adb837da0c24ba3bf2afa0571a4ae3d5", "fusion_lat": 0.0, "type": "electric_bike", "lat": 38.939521, "is_reserved": 0, "is_disabled": 0, "fusion_lon": 0.0, "bike_id": "adb837da0c24ba3bf2afa0571a4ae3d5", "lon": -77.03270383333333, "rental_uris": {"ios": "https://dc.lft.to/lastmile_qr_scan", "android": "https://dc.lft.to/lastmile_qr_scan"}}, {"name": "c85d2164cbb6c9a8780b291b3d4479e9", "fusion_lat": 0.0, "type": "electric_scooter", "lat": 38.922569333333335, "is_reserved": 0, "is_disabled": 0, "fusion_lon": 0.0, "bike_id": "c85d2164cbb6c9a8780b291b3d4479e9", "lon": -77.030567, "rental_uris": {"ios": "https://dc.lft.to/lastmile_qr_scan", "android": "https://dc.lft.to/lastmile_qr_scan"}}, {"name": "da3e961103ad4db23cd1d3923a23b284", "fusion_lat": 0.0, "type": "electric_bike", "lat": 38.9923915, "is_reserved": 0, "is_disabled": 0, "fusion_lon": 0.0, "bike_id": "da3e961103ad4db23cd1d3923a23b284", "lon": -77.10013116666667, "rental_uris": {"ios": "https://dc.lft.to/lastmile_qr_scan", "android": "https://dc.lft.to/lastmile_qr_scan"}}, {"name": "d42e88121ab100a6bd654000f750de42", "fusion_lat": 0.0, "type": "electric_scooter", "lat": 38.95779133333333, "is_reserved": 0, "is_disabled": 0, "fusion_lon": 0.0, "bike_id": "d42e88121ab100a6bd654000f750de42", "lon": -77.02760283333333, "rental_uris": {"ios": "https://dc.lft.to/lastmile_qr_scan", "android": "https://dc.lft.to/lastmile_qr_scan"}}, {"name": "b434b9735deaba5bb642f995a2f22a54", "fusion_lat": 0.0, "type": "electric_scooter", "lat": 38.91965183333333, "is_reserved": 0, "is_disabled": 0, "fusion_lon": 0.0, "bike_id": "b434b9735deaba5bb642f995a2f22a54", "lon": -77.03856466666667, "rental_uris": {"ios": "https://dc.lft.to/lastmile_qr_scan", "android": "https://dc.lft.to/lastmile_qr_scan"}}, {"name": "941e03ed8aff8f3df6bc7b2a89f7b9b9", "fusion_lat": 0.0, "type": "electric_scooter", "lat": 38.917638333333336, "is_reserved": 0, "is_disabled": 0, "fusion_lon": 0.0, "bike_id": "941e03ed8aff8f3df6bc7b2a89f7b9b9", "lon": -77.0251305, "rental_uris": {"ios": "https://dc.lft.to/lastmile_qr_scan", "android": "https://dc.lft.to/lastmile_qr_scan"}}, {"name": "5b10adf0f455789831e2b949914deacf", "fusion_lat": 0.0, "type": "electric_scooter", "lat": 38.906526166666666, "is_reserved": 0, "is_disabled": 0, "fusion_lon": 0.0, "bike_id": "5b10adf0f455789831e2b949914deacf", "lon": -77.01417433333333, "rental_uris": {"ios": "https://dc.lft.to/lastmile_qr_scan", "android": "https://dc.lft.to/lastmile_qr_scan"}}, {"name": "799d6027a876a1c7965f7680dfbc2955", "fusion_lat": 0.0, "type": "electric_scooter", "lat": 38.87087016666667, "is_reserved": 0, "is_disabled": 0, "fusion_lon": 0.0, "bike_id": "799d6027a876a1c7965f7680dfbc2955", "lon": -76.96866733333333, "rental_uris": {"ios": "https://dc.lft.to/lastmile_qr_scan", "android": "https://dc.lft.to/lastmile_qr_scan"}}, {"name": "ee838067e6bbbc44470a6ad2bf12f827", "fusion_lat": 0.0, "type": "electric_scooter", "lat": 38.9277825, "is_reserved": 0, "is_disabled": 0, "fusion_lon": 0.0, "bike_id": "ee838067e6bbbc44470a6ad2bf12f827", "lon": -77.02656483333334, "rental_uris": {"ios": "https://dc.lft.to/lastmile_qr_scan", "android": "https://dc.lft.to/lastmile_qr_scan"}}, {"name": "b87dbdf550bff53c4b5124fbb35bac69", "fusion_lat": 0.0, "type": "electric_scooter", "lat": 38.920239, "is_reserved": 0, "is_disabled": 0, "fusion_lon": 0.0, "bike_id": "b87dbdf550bff53c4b5124fbb35bac69", "lon": -77.03969083333334, "rental_uris": {"ios": "https://dc.lft.to/lastmile_qr_scan", "android": "https://dc.lft.to/lastmile_qr_scan"}}, {"name": "5f4910c3df102aa3aff1bea328719beb", "fusion_lat": 0.0, "type": "electric_scooter", "lat": 38.872309666666666, "is_reserved": 0, "is_disabled": 0, "fusion_lon": 0.0, "bike_id": "5f4910c3df102aa3aff1bea328719beb", "lon": -77.01173316666667, "rental_uris": {"ios": "https://dc.lft.to/lastmile_qr_scan", "android": "https://dc.lft.to/lastmile_qr_scan"}}, {"name": "a99db660598b507fa45b29a19c402810", "fusion_lat": 0.0, "type": "electric_scooter", "lat": 38.92244016666667, "is_reserved": 0, "is_disabled": 0, "fusion_lon": 0.0, "bike_id": "a99db660598b507fa45b29a19c402810", "lon": -77.04490783333334, "rental_uris": {"ios": "https://dc.lft.to/lastmile_qr_scan", "android": "https://dc.lft.to/lastmile_qr_scan"}}, {"name": "58995f5649933c4d76802be61f61e8a6", "fusion_lat": 0.0, "type": "electric_bike", "lat": 39.03049733333334, "is_reserved": 0, "is_disabled": 0, "fusion_lon": 0.0, "bike_id": "58995f5649933c4d76802be61f61e8a6", "lon": -77.094877, "rental_uris": {"ios": "https://dc.lft.to/lastmile_qr_scan", "android": "https://dc.lft.to/lastmile_qr_scan"}}, {"name": "fc5fe985cb23c630a526626476eed28f", "fusion_lat": 0.0, "type": "electric_scooter", "lat": 38.9003085, "is_reserved": 0, "is_disabled": 0, "fusion_lon": 0.0, "bike_id": "fc5fe985cb23c630a526626476eed28f", "lon": -76.9884785, "rental_uris": {"ios": "https://dc.lft.to/lastmile_qr_scan", "android": "https://dc.lft.to/lastmile_qr_scan"}}, {"name": "5b82fc854540aa447928ef1862e318e7", "fusion_lat": 0.0, "type": "electric_scooter", "lat": 38.884397, "is_reserved": 0, "is_disabled": 0, "fusion_lon": 0.0, "bike_id": "5b82fc854540aa447928ef1862e318e7", "lon": -76.99596433333333, "rental_uris": {"ios": "https://dc.lft.to/lastmile_qr_scan", "android": "https://dc.lft.to/lastmile_qr_scan"}}, {"name": "9358dc26bb7ba27bdb65d88701238a72", "fusion_lat": 0.0, "type": "electric_scooter", "lat": 38.90030516666667, "is_reserved": 0, "is_disabled": 0, "fusion_lon": 0.0, "bike_id": "9358dc26bb7ba27bdb65d88701238a72", "lon": -76.998321, "rental_uris": {"ios": "https://dc.lft.to/lastmile_qr_scan", "android": "https://dc.lft.to/lastmile_qr_scan"}}, {"name": "64f51ba96b43040278507b68903b5a5b", "fusion_lat": 0.0, "type": "electric_scooter", "lat": 38.8960335, "is_reserved": 0, "is_disabled": 0, "fusion_lon": 0.0, "bike_id": "64f51ba96b43040278507b68903b5a5b", "lon": -77.04137316666667, "rental_uris": {"ios": "https://dc.lft.to/lastmile_qr_scan", "android": "https://dc.lft.to/lastmile_qr_scan"}}, {"name": "cb3718378d0a7cb2ba081a652ede782d", "fusion_lat": 0.0, "type": "electric_bike", "lat": 38.86393116666667, "is_reserved": 0, "is_disabled": 0, "fusion_lon": 0.0, "bike_id": "cb3718378d0a7cb2ba081a652ede782d", "lon": -76.9899515, "rental_uris": {"ios": "https://dc.lft.to/lastmile_qr_scan", "android": "https://dc.lft.to/lastmile_qr_scan"}}, {"name": "dfa4063ccf74c4716f3ffe82c6d0af67", "fusion_lat": 0.0, "type": "electric_scooter", "lat": 38.94178683333333, "is_reserved": 0, "is_disabled": 0, "fusion_lon": 0.0, "bike_id": "dfa4063ccf74c4716f3ffe82c6d0af67", "lon": -77.041345, "rental_uris": {"ios": "https://dc.lft.to/lastmile_qr_scan", "android": "https://dc.lft.to/lastmile_qr_scan"}}, {"name": "d5c6d6ad96164118c802200546a0b216", "fusion_lat": 0.0, "type": "electric_bike", "lat": 38.99823683333334, "is_reserved": 0, "is_disabled": 0, "fusion_lon": 0.0, "bike_id": "d5c6d6ad96164118c802200546a0b216", "lon": -76.88374183333333, "rental_uris": {"ios": "https://dc.lft.to/lastmile_qr_scan", "android": "https://dc.lft.to/lastmile_qr_scan"}}, {"name": "f02f97c4be2a4cb5581c45db91d19c34", "fusion_lat": 0.0, "type": "electric_scooter", "lat": 38.83601983333333, "is_reserved": 0, "is_disabled": 0, "fusion_lon": 0.0, "bike_id": "f02f97c4be2a4cb5581c45db91d19c34", "lon": -76.99359766666667, "rental_uris": {"ios": "https://dc.lft.to/lastmile_qr_scan", "android": "https://dc.lft.to/lastmile_qr_scan"}}, {"name": "6e4015b38f90c739606ce5381ce29364", "fusion_lat": 0.0, "type": "electric_scooter", "lat": 38.87427366666667, "is_reserved": 0, "is_disabled": 0, "fusion_lon": 0.0, "bike_id": "6e4015b38f90c739606ce5381ce29364", "lon": -76.97183433333333, "rental_uris": {"ios": "https://dc.lft.to/lastmile_qr_scan", "android": "https://dc.lft.to/lastmile_qr_scan"}}, {"name": "ea09a1e85ae40296ab20bc355ef007fc", "fusion_lat": 0.0, "type": "electric_scooter", "lat": 38.91849233333333, "is_reserved": 0, "is_disabled": 0, "fusion_lon": 0.0, "bike_id": "ea09a1e85ae40296ab20bc355ef007fc", "lon": -77.0260655, "rental_uris": {"ios": "https://dc.lft.to/lastmile_qr_scan", "android": "https://dc.lft.to/lastmile_qr_scan"}}, {"name": "39d46235933a1c529ec40c5a2ce2057c", "fusion_lat": 0.0, "type": "electric_scooter", "lat": 38.90363416666667, "is_reserved": 0, "is_disabled": 0, "fusion_lon": 0.0, "bike_id": "39d46235933a1c529ec40c5a2ce2057c", "lon": -77.011075, "rental_uris": {"ios": "https://dc.lft.to/lastmile_qr_scan", "android": "https://dc.lft.to/lastmile_qr_scan"}}, {"name": "77cda14947e6dc39fcf80c9d26f91c5d", "fusion_lat": 0.0, "type": "electric_scooter", "lat": 38.903549, "is_reserved": 0, "is_disabled": 0, "fusion_lon": 0.0, "bike_id": "77cda14947e6dc39fcf80c9d26f91c5d", "lon": -77.06658, "rental_uris": {"ios": "https://dc.lft.to/lastmile_qr_scan", "android": "https://dc.lft.to/lastmile_qr_scan"}}, {"name": "f7bead82a605b00441df103fcd0ae900", "fusion_lat": 0.0, "type": "electric_scooter", "lat": 38.898778, "is_reserved": 0, "is_disabled": 0, "fusion_lon": 0.0, "bike_id": "f7bead82a605b00441df103fcd0ae900", "lon": -76.93157833333333, "rental_uris": {"ios": "https://dc.lft.to/lastmile_qr_scan", "android": "https://dc.lft.to/lastmile_qr_scan"}}, {"name": "fdf9cb8198228a02f607e107c1a1376e", "fusion_lat": 0.0, "type": "electric_scooter", "lat": 38.911935, "is_reserved": 0, "is_disabled": 0, "fusion_lon": 0.0, "bike_id": "fdf9cb8198228a02f607e107c1a1376e", "lon": -77.03644966666667, "rental_uris": {"ios": "https://dc.lft.to/lastmile_qr_scan", "android": "https://dc.lft.to/lastmile_qr_scan"}}, {"name": "32e9a62aefc247c1bf145260cef143d1", "fusion_lat": 0.0, "type": "electric_scooter", "lat": 38.9066485, "is_reserved": 0, "is_disabled": 0, "fusion_lon": 0.0, "bike_id": "32e9a62aefc247c1bf145260cef143d1", "lon": -77.04162516666666, "rental_uris": {"ios": "https://dc.lft.to/lastmile_qr_scan", "android": "https://dc.lft.to/lastmile_qr_scan"}}, {"name": "34656243dbca6a320b4cf4b915faed5e", "fusion_lat": 0.0, "type": "electric_scooter", "lat": 38.91612716666667, "is_reserved": 0, "is_disabled": 0, "fusion_lon": 0.0, "bike_id": "34656243dbca6a320b4cf4b915faed5e", "lon": -77.02171133333333, "rental_uris": {"ios": "https://dc.lft.to/lastmile_qr_scan", "android": "https://dc.lft.to/lastmile_qr_scan"}}, {"name": "62c562f3a02645197533e115ffe547fb", "fusion_lat": 0.0, "type": "electric_scooter", "lat": 38.91486866666666, "is_reserved": 0, "is_disabled": 0, "fusion_lon": 0.0, "bike_id": "62c562f3a02645197533e115ffe547fb", "lon": -77.03255233333333, "rental_uris": {"ios": "https://dc.lft.to/lastmile_qr_scan", "android": "https://dc.lft.to/lastmile_qr_scan"}}, {"name": "7f25f371b4bb325c5d82d88e628b0c47", "fusion_lat": 0.0, "type": "electric_bike", "lat": 38.9489635, "is_reserved": 0, "is_disabled": 0, "fusion_lon": 0.0, "bike_id": "7f25f371b4bb325c5d82d88e628b0c47", "lon": -76.96380316666666, "rental_uris": {"ios": "https://dc.lft.to/lastmile_qr_scan", "android": "https://dc.lft.to/lastmile_qr_scan"}}, {"name": "575a4ff42dabd9806a4b9257cc723a77", "fusion_lat": 0.0, "type": "electric_scooter", "lat": 38.891329666666664, "is_reserved": 0, "is_disabled": 0, "fusion_lon": 0.0, "bike_id": "575a4ff42dabd9806a4b9257cc723a77", "lon": -76.99161583333333, "rental_uris": {"ios": "https://dc.lft.to/lastmile_qr_scan", "android": "https://dc.lft.to/lastmile_qr_scan"}}, {"name": "ea5a21bdec22e1682def9770350426f0", "fusion_lat": 0.0, "type": "electric_scooter", "lat": 38.91118783333334, "is_reserved": 0, "is_disabled": 0, "fusion_lon": 0.0, "bike_id": "ea5a21bdec22e1682def9770350426f0", "lon": -77.02417333333334, "rental_uris": {"ios": "https://dc.lft.to/lastmile_qr_scan", "android": "https://dc.lft.to/lastmile_qr_scan"}}, {"name": "0c641655a16f3aa7d3179c4e300126f2", "fusion_lat": 0.0, "type": "electric_scooter", "lat": 38.927557166666666, "is_reserved": 0, "is_disabled": 0, "fusion_lon": 0.0, "bike_id": "0c641655a16f3aa7d3179c4e300126f2", "lon": -77.03269866666666, "rental_uris": {"ios": "https://dc.lft.to/lastmile_qr_scan", "android": "https://dc.lft.to/lastmile_qr_scan"}}, {"name": "ea4bed933926806e7b071aa2316413c5", "fusion_lat": 0.0, "type": "electric_scooter", "lat": 38.92243633333333, "is_reserved": 0, "is_disabled": 0, "fusion_lon": 0.0, "bike_id": "ea4bed933926806e7b071aa2316413c5", "lon": -77.03663033333333, "rental_uris": {"ios": "https://dc.lft.to/lastmile_qr_scan", "android": "https://dc.lft.to/lastmile_qr_scan"}}, {"name": "e8984933fd3d8bae5ff54c3c9598a48a", "fusion_lat": 0.0, "type": "electric_scooter", "lat": 38.89976883333333, "is_reserved": 0, "is_disabled": 0, "fusion_lon": 0.0, "bike_id": "e8984933fd3d8bae5ff54c3c9598a48a", "lon": -77.03119016666666, "rental_uris": {"ios": "https://dc.lft.to/lastmile_qr_scan", "android": "https://dc.lft.to/lastmile_qr_scan"}}, {"name": "04c551caea639aac2ff7459739650ed7", "fusion_lat": 0.0, "type": "electric_bike", "lat": 38.968686, "is_reserved": 0, "is_disabled": 0, "fusion_lon": 0.0, "bike_id": "04c551caea639aac2ff7459739650ed7", "lon": -77.03334316666667, "rental_uris": {"ios": "https://dc.lft.to/lastmile_qr_scan", "android": "https://dc.lft.to/lastmile_qr_scan"}}, {"name": "bcab8801c6b965cf7aaa9076d93598d9", "fusion_lat": 0.0, "type": "electric_scooter", "lat": 38.9149055, "is_reserved": 0, "is_disabled": 0, "fusion_lon": 0.0, "bike_id": "bcab8801c6b965cf7aaa9076d93598d9", "lon": -77.03245016666666, "rental_uris": {"ios": "https://dc.lft.to/lastmile_qr_scan", "android": "https://dc.lft.to/lastmile_qr_scan"}}, {"name": "4a14f8b1288e7df1407647c4dd2c1b02", "fusion_lat": 0.0, "type": "electric_scooter", "lat": 38.89733416666667, "is_reserved": 0, "is_disabled": 0, "fusion_lon": 0.0, "bike_id": "4a14f8b1288e7df1407647c4dd2c1b02", "lon": -77.03280216666667, "rental_uris": {"ios": "https://dc.lft.to/lastmile_qr_scan", "android": "https://dc.lft.to/lastmile_qr_scan"}}, {"name": "26b80e7d039ade4c240d13dc9e6d95c0", "fusion_lat": 0.0, "type": "electric_scooter", "lat": 38.918781, "is_reserved": 0, "is_disabled": 0, "fusion_lon": 0.0, "bike_id": "26b80e7d039ade4c240d13dc9e6d95c0", "lon": -77.04351933333334, "rental_uris": {"ios": "https://dc.lft.to/lastmile_qr_scan", "android": "https://dc.lft.to/lastmile_qr_scan"}}, {"name": "c66eca2f642148b39aa3ce74bfd38934", "fusion_lat": 0.0, "type": "electric_scooter", "lat": 38.918109333333334, "is_reserved": 0, "is_disabled": 0, "fusion_lon": 0.0, "bike_id": "c66eca2f642148b39aa3ce74bfd38934", "lon": -77.0321515, "rental_uris": {"ios": "https://dc.lft.to/lastmile_qr_scan", "android": "https://dc.lft.to/lastmile_qr_scan"}}, {"name": "2d59b15286ed21566e2a7c5f3b791be3", "fusion_lat": 0.0, "type": "electric_scooter", "lat": 38.895762166666664, "is_reserved": 0, "is_disabled": 0, "fusion_lon": 0.0, "bike_id": "2d59b15286ed21566e2a7c5f3b791be3", "lon": -76.94884733333333, "rental_uris": {"ios": "https://dc.lft.to/lastmile_qr_scan", "android": "https://dc.lft.to/lastmile_qr_scan"}}, {"name": "2a50a9f1e088ec95e6ee3c78e8debf6d", "fusion_lat": 0.0, "type": "electric_scooter", "lat": 38.905767166666664, "is_reserved": 0, "is_disabled": 0, "fusion_lon": 0.0, "bike_id": "2a50a9f1e088ec95e6ee3c78e8debf6d", "lon": -77.03272016666666, "rental_uris": {"ios": "https://dc.lft.to/lastmile_qr_scan", "android": "https://dc.lft.to/lastmile_qr_scan"}}, {"name": "18c53a0f891a5ebf31958cd7e2ffdd72", "fusion_lat": 0.0, "type": "electric_scooter", "lat": 38.90093566666667, "is_reserved": 0, "is_disabled": 0, "fusion_lon": 0.0, "bike_id": "18c53a0f891a5ebf31958cd7e2ffdd72", "lon": -77.05002433333334, "rental_uris": {"ios": "https://dc.lft.to/lastmile_qr_scan", "android": "https://dc.lft.to/lastmile_qr_scan"}}, {"name": "f1510a90739076cfa185aeff017540c4", "fusion_lat": 0.0, "type": "electric_bike", "lat": 38.958465833333335, "is_reserved": 0, "is_disabled": 0, "fusion_lon": 0.0, "bike_id": "f1510a90739076cfa185aeff017540c4", "lon": -76.99874716666666, "rental_uris": {"ios": "https://dc.lft.to/lastmile_qr_scan", "android": "https://dc.lft.to/lastmile_qr_scan"}}, {"name": "15b6bb784267de108b961f8ea4fb3566", "fusion_lat": 0.0, "type": "electric_bike", "lat": 38.95088066666667, "is_reserved": 0, "is_disabled": 0, "fusion_lon": 0.0, "bike_id": "15b6bb784267de108b961f8ea4fb3566", "lon": -77.012273, "rental_uris": {"ios": "https://dc.lft.to/lastmile_qr_scan", "android": "https://dc.lft.to/lastmile_qr_scan"}}, {"name": "8efc10e13e0bfa90680e8432be688d7f", "fusion_lat": 0.0, "type": "electric_scooter", "lat": 38.90965166666667, "is_reserved": 0, "is_disabled": 0, "fusion_lon": 0.0, "bike_id": "8efc10e13e0bfa90680e8432be688d7f", "lon": -77.02318016666666, "rental_uris": {"ios": "https://dc.lft.to/lastmile_qr_scan", "android": "https://dc.lft.to/lastmile_qr_scan"}}, {"name": "899b69570587df38595561afa6451c14", "fusion_lat": 0.0, "type": "electric_scooter", "lat": 38.922448, "is_reserved": 0, "is_disabled": 0, "fusion_lon": 0.0, "bike_id": "899b69570587df38595561afa6451c14", "lon": -77.03665366666667, "rental_uris": {"ios": "https://dc.lft.to/lastmile_qr_scan", "android": "https://dc.lft.to/lastmile_qr_scan"}}, {"name": "0569ddef25bea2a8398f07d34353d92f", "fusion_lat": 0.0, "type": "electric_scooter", "lat": 38.931046, "is_reserved": 0, "is_disabled": 0, "fusion_lon": 0.0, "bike_id": "0569ddef25bea2a8398f07d34353d92f", "lon": -77.0245395, "rental_uris": {"ios": "https://dc.lft.to/lastmile_qr_scan", "android": "https://dc.lft.to/lastmile_qr_scan"}}, {"name": "c0fed49a7e4e372d370ef8764ba994eb", "fusion_lat": 0.0, "type": "electric_bike", "lat": 38.856863833333335, "is_reserved": 0, "is_disabled": 0, "fusion_lon": 0.0, "bike_id": "c0fed49a7e4e372d370ef8764ba994eb", "lon": -77.08546566666666, "rental_uris": {"ios": "https://dc.lft.to/lastmile_qr_scan", "android": "https://dc.lft.to/lastmile_qr_scan"}}, {"name": "bd8a0e9c70c8b4fca355ee31c21c1187", "fusion_lat": 0.0, "type": "electric_bike", "lat": 38.80755716666667, "is_reserved": 0, "is_disabled": 0, "fusion_lon": 0.0, "bike_id": "bd8a0e9c70c8b4fca355ee31c21c1187", "lon": -77.094575, "rental_uris": {"ios": "https://dc.lft.to/lastmile_qr_scan", "android": "https://dc.lft.to/lastmile_qr_scan"}}, {"name": "d631876739e4d78b817d45fcb9605799", "fusion_lat": 0.0, "type": "electric_scooter", "lat": 38.924562, "is_reserved": 0, "is_disabled": 0, "fusion_lon": 0.0, "bike_id": "d631876739e4d78b817d45fcb9605799", "lon": -77.0328055, "rental_uris": {"ios": "https://dc.lft.to/lastmile_qr_scan", "android": "https://dc.lft.to/lastmile_qr_scan"}}, {"name": "8c7c25c14e4ef15354e1ea8efe6a9bef", "fusion_lat": 0.0, "type": "electric_scooter", "lat": 38.88121566666667, "is_reserved": 0, "is_disabled": 0, "fusion_lon": 0.0, "bike_id": "8c7c25c14e4ef15354e1ea8efe6a9bef", "lon": -76.99016866666666, "rental_uris": {"ios": "https://dc.lft.to/lastmile_qr_scan", "android": "https://dc.lft.to/lastmile_qr_scan"}}, {"name": "95eac4cee8db264c69127a90ac6c1298", "fusion_lat": 0.0, "type": "electric_scooter", "lat": 38.921992833333334, "is_reserved": 0, "is_disabled": 0, "fusion_lon": 0.0, "bike_id": "95eac4cee8db264c69127a90ac6c1298", "lon": -77.02433316666666, "rental_uris": {"ios": "https://dc.lft.to/lastmile_qr_scan", "android": "https://dc.lft.to/lastmile_qr_scan"}}, {"name": "71a9b22881a728fce93ec01f53edb68f", "fusion_lat": 0.0, "type": "electric_scooter", "lat": 38.9206275, "is_reserved": 0, "is_disabled": 0, "fusion_lon": 0.0, "bike_id": "71a9b22881a728fce93ec01f53edb68f", "lon": -77.03463283333333, "rental_uris": {"ios": "https://dc.lft.to/lastmile_qr_scan", "android": "https://dc.lft.to/lastmile_qr_scan"}}, {"name": "c82552734bf4a3c841f1c005833489e6", "fusion_lat": 0.0, "type": "electric_scooter", "lat": 38.93064866666667, "is_reserved": 0, "is_disabled": 0, "fusion_lon": 0.0, "bike_id": "c82552734bf4a3c841f1c005833489e6", "lon": -77.0298265, "rental_uris": {"ios": "https://dc.lft.to/lastmile_qr_scan", "android": "https://dc.lft.to/lastmile_qr_scan"}}, {"name": "e5a26022e7abd2e978ec8a0a9e46f90f", "fusion_lat": 0.0, "type": "electric_scooter", "lat": 38.939653666666665, "is_reserved": 0, "is_disabled": 0, "fusion_lon": 0.0, "bike_id": "e5a26022e7abd2e978ec8a0a9e46f90f", "lon": -77.02754083333333, "rental_uris": {"ios": "https://dc.lft.to/lastmile_qr_scan", "android": "https://dc.lft.to/lastmile_qr_scan"}}, {"name": "5f6c49b12b108f687919ff2c9a4d64f5", "fusion_lat": 0.0, "type": "electric_scooter", "lat": 38.90400916666667, "is_reserved": 0, "is_disabled": 0, "fusion_lon": 0.0, "bike_id": "5f6c49b12b108f687919ff2c9a4d64f5", "lon": -77.03452116666666, "rental_uris": {"ios": "https://dc.lft.to/lastmile_qr_scan", "android": "https://dc.lft.to/lastmile_qr_scan"}}, {"name": "63a17e283e5a52d3e27d412e7b051506", "fusion_lat": 0.0, "type": "electric_bike", "lat": 38.9994075, "is_reserved": 0, "is_disabled": 0, "fusion_lon": 0.0, "bike_id": "63a17e283e5a52d3e27d412e7b051506", "lon": -77.01769983333334, "rental_uris": {"ios": "https://dc.lft.to/lastmile_qr_scan", "android": "https://dc.lft.to/lastmile_qr_scan"}}, {"name": "249a6e5621b7f5c8c31f069780bbc52e", "fusion_lat": 0.0, "type": "electric_bike", "lat": 38.949676333333336, "is_reserved": 0, "is_disabled": 0, "fusion_lon": 0.0, "bike_id": "249a6e5621b7f5c8c31f069780bbc52e", "lon": -76.961039, "rental_uris": {"ios": "https://dc.lft.to/lastmile_qr_scan", "android": "https://dc.lft.to/lastmile_qr_scan"}}, {"name": "67485eb844059580968a902c1496b299", "fusion_lat": 0.0, "type": "electric_scooter", "lat": 38.94184966666667, "is_reserved": 0, "is_disabled": 0, "fusion_lon": 0.0, "bike_id": "67485eb844059580968a902c1496b299", "lon": -77.03033066666667, "rental_uris": {"ios": "https://dc.lft.to/lastmile_qr_scan", "android": "https://dc.lft.to/lastmile_qr_scan"}}, {"name": "a76b8117f4c0a91bb8a1b4d3067b5a83", "fusion_lat": 0.0, "type": "electric_scooter", "lat": 38.8972975, "is_reserved": 0, "is_disabled": 0, "fusion_lon": 0.0, "bike_id": "a76b8117f4c0a91bb8a1b4d3067b5a83", "lon": -77.00931633333333, "rental_uris": {"ios": "https://dc.lft.to/lastmile_qr_scan", "android": "https://dc.lft.to/lastmile_qr_scan"}}, {"name": "f2bf1fb93a91ada13b142880f4846a5e", "fusion_lat": 0.0, "type": "electric_scooter", "lat": 38.91918833333333, "is_reserved": 0, "is_disabled": 0, "fusion_lon": 0.0, "bike_id": "f2bf1fb93a91ada13b142880f4846a5e", "lon": -77.02623566666666, "rental_uris": {"ios": "https://dc.lft.to/lastmile_qr_scan", "android": "https://dc.lft.to/lastmile_qr_scan"}}, {"name": "ddd11d154e836f2ed2ec8e88169e1519", "fusion_lat": 0.0, "type": "electric_scooter", "lat": 38.908451166666666, "is_reserved": 0, "is_disabled": 0, "fusion_lon": 0.0, "bike_id": "ddd11d154e836f2ed2ec8e88169e1519", "lon": -77.001162, "rental_uris": {"ios": "https://dc.lft.to/lastmile_qr_scan", "android": "https://dc.lft.to/lastmile_qr_scan"}}, {"name": "b58be5a70368d170fdc95d8c802a67a1", "fusion_lat": 0.0, "type": "electric_scooter", "lat": 38.906681166666665, "is_reserved": 0, "is_disabled": 0, "fusion_lon": 0.0, "bike_id": "b58be5a70368d170fdc95d8c802a67a1", "lon": -77.02712533333333, "rental_uris": {"ios": "https://dc.lft.to/lastmile_qr_scan", "android": "https://dc.lft.to/lastmile_qr_scan"}}, {"name": "26c1bc79c6470e5945b5310d4a1b0f58", "fusion_lat": 0.0, "type": "electric_bike", "lat": 38.84612666666666, "is_reserved": 0, "is_disabled": 0, "fusion_lon": 0.0, "bike_id": "26c1bc79c6470e5945b5310d4a1b0f58", "lon": -76.978349, "rental_uris": {"ios": "https://dc.lft.to/lastmile_qr_scan", "android": "https://dc.lft.to/lastmile_qr_scan"}}, {"name": "959ec27e33f0ef7450c761ac867c8bfc", "fusion_lat": 0.0, "type": "electric_scooter", "lat": 38.921517333333334, "is_reserved": 0, "is_disabled": 0, "fusion_lon": 0.0, "bike_id": "959ec27e33f0ef7450c761ac867c8bfc", "lon": -77.0338395, "rental_uris": {"ios": "https://dc.lft.to/lastmile_qr_scan", "android": "https://dc.lft.to/lastmile_qr_scan"}}, {"name": "8d90cd1cc7e7df15890d9bee8d9168de", "fusion_lat": 0.0, "type": "electric_bike", "lat": 39.05814616666667, "is_reserved": 0, "is_disabled": 0, "fusion_lon": 0.0, "bike_id": "8d90cd1cc7e7df15890d9bee8d9168de", "lon": -77.12626783333333, "rental_uris": {"ios": "https://dc.lft.to/lastmile_qr_scan", "android": "https://dc.lft.to/lastmile_qr_scan"}}, {"name": "051b853e11b741707096d4c77831fb48", "fusion_lat": 0.0, "type": "electric_scooter", "lat": 38.90905566666667, "is_reserved": 0, "is_disabled": 0, "fusion_lon": 0.0, "bike_id": "051b853e11b741707096d4c77831fb48", "lon": -77.02815916666667, "rental_uris": {"ios": "https://dc.lft.to/lastmile_qr_scan", "android": "https://dc.lft.to/lastmile_qr_scan"}}, {"name": "18ff1e018a4011effc0946749a01b4c1", "fusion_lat": 0.0, "type": "electric_scooter", "lat": 38.9033815, "is_reserved": 0, "is_disabled": 0, "fusion_lon": 0.0, "bike_id": "18ff1e018a4011effc0946749a01b4c1", "lon": -77.0529125, "rental_uris": {"ios": "https://dc.lft.to/lastmile_qr_scan", "android": "https://dc.lft.to/lastmile_qr_scan"}}, {"name": "564045127bb0cc6265e2df273a85a447", "fusion_lat": 0.0, "type": "electric_scooter", "lat": 38.91972066666666, "is_reserved": 0, "is_disabled": 0, "fusion_lon": 0.0, "bike_id": "564045127bb0cc6265e2df273a85a447", "lon": -77.03867866666667, "rental_uris": {"ios": "https://dc.lft.to/lastmile_qr_scan", "android": "https://dc.lft.to/lastmile_qr_scan"}}, {"name": "62580e00fd70692c17be4ea468a2539d", "fusion_lat": 0.0, "type": "electric_bike", "lat": 39.08902916666667, "is_reserved": 0, "is_disabled": 0, "fusion_lon": 0.0, "bike_id": "62580e00fd70692c17be4ea468a2539d", "lon": -77.178459, "rental_uris": {"ios": "https://dc.lft.to/lastmile_qr_scan", "android": "https://dc.lft.to/lastmile_qr_scan"}}, {"name": "48cc4742647648d1de76f2a08fe1c933", "fusion_lat": 0.0, "type": "electric_scooter", "lat": 38.913381, "is_reserved": 0, "is_disabled": 0, "fusion_lon": 0.0, "bike_id": "48cc4742647648d1de76f2a08fe1c933", "lon": -77.045793, "rental_uris": {"ios": "https://dc.lft.to/lastmile_qr_scan", "android": "https://dc.lft.to/lastmile_qr_scan"}}, {"name": "b702a4dbfb58b9e177a05d1b8b9ec7b5", "fusion_lat": 0.0, "type": "electric_scooter", "lat": 38.929035666666664, "is_reserved": 0, "is_disabled": 0, "fusion_lon": 0.0, "bike_id": "b702a4dbfb58b9e177a05d1b8b9ec7b5", "lon": -77.02501966666667, "rental_uris": {"ios": "https://dc.lft.to/lastmile_qr_scan", "android": "https://dc.lft.to/lastmile_qr_scan"}}, {"name": "f500e357bdc98b730b06143b83f271fe", "fusion_lat": 0.0, "type": "electric_scooter", "lat": 38.94837533333333, "is_reserved": 0, "is_disabled": 0, "fusion_lon": 0.0, "bike_id": "f500e357bdc98b730b06143b83f271fe", "lon": -77.0255255, "rental_uris": {"ios": "https://dc.lft.to/lastmile_qr_scan", "android": "https://dc.lft.to/lastmile_qr_scan"}}, {"name": "023f68e6a447a1c4fd539679b5800e24", "fusion_lat": 0.0, "type": "electric_scooter", "lat": 38.9232355, "is_reserved": 0, "is_disabled": 0, "fusion_lon": 0.0, "bike_id": "023f68e6a447a1c4fd539679b5800e24", "lon": -77.04116516666667, "rental_uris": {"ios": "https://dc.lft.to/lastmile_qr_scan", "android": "https://dc.lft.to/lastmile_qr_scan"}}, {"name": "9babccd3857df0d7896f54bc5ba709af", "fusion_lat": 0.0, "type": "electric_scooter", "lat": 38.89694266666667, "is_reserved": 0, "is_disabled": 0, "fusion_lon": 0.0, "bike_id": "9babccd3857df0d7896f54bc5ba709af", "lon": -77.021947, "rental_uris": {"ios": "https://dc.lft.to/lastmile_qr_scan", "android": "https://dc.lft.to/lastmile_qr_scan"}}, {"name": "59156dff34811afee6a75f4768db95f4", "fusion_lat": 0.0, "type": "electric_scooter", "lat": 38.94186333333333, "is_reserved": 0, "is_disabled": 0, "fusion_lon": 0.0, "bike_id": "59156dff34811afee6a75f4768db95f4", "lon": -77.02488816666667, "rental_uris": {"ios": "https://dc.lft.to/lastmile_qr_scan", "android": "https://dc.lft.to/lastmile_qr_scan"}}, {"name": "a4be261139a4c92da27bebdd88c6eccc", "fusion_lat": 0.0, "type": "electric_scooter", "lat": 38.8798375, "is_reserved": 0, "is_disabled": 0, "fusion_lon": 0.0, "bike_id": "a4be261139a4c92da27bebdd88c6eccc", "lon": -76.98387033333333, "rental_uris": {"ios": "https://dc.lft.to/lastmile_qr_scan", "android": "https://dc.lft.to/lastmile_qr_scan"}}, {"name": "303be43f2afca077c5b37ac5d1df6629", "fusion_lat": 0.0, "type": "electric_bike", "lat": 38.9481155, "is_reserved": 0, "is_disabled": 0, "fusion_lon": 0.0, "bike_id": "303be43f2afca077c5b37ac5d1df6629", "lon": -77.02147966666666, "rental_uris": {"ios": "https://dc.lft.to/lastmile_qr_scan", "android": "https://dc.lft.to/lastmile_qr_scan"}}, {"name": "a6d31d2086b0ccc4b165f7a23a15d3f5", "fusion_lat": 0.0, "type": "electric_scooter", "lat": 38.92379916666667, "is_reserved": 0, "is_disabled": 0, "fusion_lon": 0.0, "bike_id": "a6d31d2086b0ccc4b165f7a23a15d3f5", "lon": -77.01918466666666, "rental_uris": {"ios": "https://dc.lft.to/lastmile_qr_scan", "android": "https://dc.lft.to/lastmile_qr_scan"}}, {"name": "819590677fc6e0b666d63f72c1ad8318", "fusion_lat": 0.0, "type": "electric_bike", "lat": 38.870835666666665, "is_reserved": 0, "is_disabled": 0, "fusion_lon": 0.0, "bike_id": "819590677fc6e0b666d63f72c1ad8318", "lon": -77.11048316666667, "rental_uris": {"ios": "https://dc.lft.to/lastmile_qr_scan", "android": "https://dc.lft.to/lastmile_qr_scan"}}, {"name": "92557ff8dfecad42c2e5205c3f38a662", "fusion_lat": 0.0, "type": "electric_scooter", "lat": 38.877545, "is_reserved": 0, "is_disabled": 0, "fusion_lon": 0.0, "bike_id": "92557ff8dfecad42c2e5205c3f38a662", "lon": -76.97242383333334, "rental_uris": {"ios": "https://dc.lft.to/lastmile_qr_scan", "android": "https://dc.lft.to/lastmile_qr_scan"}}, {"name": "334002d1c34e9cc7ddaa71cf6ee8d7c4", "fusion_lat": 0.0, "type": "electric_scooter", "lat": 38.86218366666667, "is_reserved": 0, "is_disabled": 0, "fusion_lon": 0.0, "bike_id": "334002d1c34e9cc7ddaa71cf6ee8d7c4", "lon": -76.994688, "rental_uris": {"ios": "https://dc.lft.to/lastmile_qr_scan", "android": "https://dc.lft.to/lastmile_qr_scan"}}, {"name": "68ffda0c1aa02542aa5017e480172d66", "fusion_lat": 0.0, "type": "electric_scooter", "lat": 38.8614555, "is_reserved": 0, "is_disabled": 0, "fusion_lon": 0.0, "bike_id": "68ffda0c1aa02542aa5017e480172d66", "lon": -76.98931116666667, "rental_uris": {"ios": "https://dc.lft.to/lastmile_qr_scan", "android": "https://dc.lft.to/lastmile_qr_scan"}}, {"name": "be32398fb50d50fb6f41319448d1bd91", "fusion_lat": 0.0, "type": "electric_scooter", "lat": 38.917346333333334, "is_reserved": 0, "is_disabled": 0, "fusion_lon": 0.0, "bike_id": "be32398fb50d50fb6f41319448d1bd91", "lon": -77.01034683333333, "rental_uris": {"ios": "https://dc.lft.to/lastmile_qr_scan", "android": "https://dc.lft.to/lastmile_qr_scan"}}, {"name": "75e977ef75bdc63c92a7ec9a517cfd03", "fusion_lat": 0.0, "type": "electric_scooter", "lat": 38.905595166666664, "is_reserved": 0, "is_disabled": 0, "fusion_lon": 0.0, "bike_id": "75e977ef75bdc63c92a7ec9a517cfd03", "lon": -77.0223325, "rental_uris": {"ios": "https://dc.lft.to/lastmile_qr_scan", "android": "https://dc.lft.to/lastmile_qr_scan"}}, {"name": "6eb96dbbcacfe5c324d44046d1814c4d", "fusion_lat": 0.0, "type": "electric_scooter", "lat": 38.90890266666667, "is_reserved": 0, "is_disabled": 0, "fusion_lon": 0.0, "bike_id": "6eb96dbbcacfe5c324d44046d1814c4d", "lon": -77.00577783333334, "rental_uris": {"ios": "https://dc.lft.to/lastmile_qr_scan", "android": "https://dc.lft.to/lastmile_qr_scan"}}, {"name": "fcf3e9e192bfe1a881bdc0addaeb333f", "fusion_lat": 0.0, "type": "electric_scooter", "lat": 38.90481183333333, "is_reserved": 0, "is_disabled": 0, "fusion_lon": 0.0, "bike_id": "fcf3e9e192bfe1a881bdc0addaeb333f", "lon": -77.00735733333333, "rental_uris": {"ios": "https://dc.lft.to/lastmile_qr_scan", "android": "https://dc.lft.to/lastmile_qr_scan"}}, {"name": "00f0823cf89ddf67233820ca340c9ebe", "fusion_lat": 0.0, "type": "electric_scooter", "lat": 38.91765433333333, "is_reserved": 0, "is_disabled": 0, "fusion_lon": 0.0, "bike_id": "00f0823cf89ddf67233820ca340c9ebe", "lon": -77.018605, "rental_uris": {"ios": "https://dc.lft.to/lastmile_qr_scan", "android": "https://dc.lft.to/lastmile_qr_scan"}}, {"name": "559566478e1cc687390afd2b7bc894b2", "fusion_lat": 0.0, "type": "electric_bike", "lat": 38.96128366666667, "is_reserved": 0, "is_disabled": 0, "fusion_lon": 0.0, "bike_id": "559566478e1cc687390afd2b7bc894b2", "lon": -77.03273683333333, "rental_uris": {"ios": "https://dc.lft.to/lastmile_qr_scan", "android": "https://dc.lft.to/lastmile_qr_scan"}}, {"name": "57738cfab4a86cb1354a2cf43543618b", "fusion_lat": 0.0, "type": "electric_scooter", "lat": 38.930949, "is_reserved": 0, "is_disabled": 0, "fusion_lon": 0.0, "bike_id": "57738cfab4a86cb1354a2cf43543618b", "lon": -77.02404233333333, "rental_uris": {"ios": "https://dc.lft.to/lastmile_qr_scan", "android": "https://dc.lft.to/lastmile_qr_scan"}}, {"name": "bfd27f2c1fecae627c706cecbc912a2e", "fusion_lat": 0.0, "type": "electric_scooter", "lat": 38.914229666666664, "is_reserved": 0, "is_disabled": 0, "fusion_lon": 0.0, "bike_id": "bfd27f2c1fecae627c706cecbc912a2e", "lon": -77.03174566666667, "rental_uris": {"ios": "https://dc.lft.to/lastmile_qr_scan", "android": "https://dc.lft.to/lastmile_qr_scan"}}, {"name": "425a3f11c375b74ae4b830f8abc7ed75", "fusion_lat": 0.0, "type": "electric_scooter", "lat": 38.92446233333333, "is_reserved": 0, "is_disabled": 0, "fusion_lon": 0.0, "bike_id": "425a3f11c375b74ae4b830f8abc7ed75", "lon": -76.9933605, "rental_uris": {"ios": "https://dc.lft.to/lastmile_qr_scan", "android": "https://dc.lft.to/lastmile_qr_scan"}}, {"name": "c2fe52898eb274e947e089caaa030327", "fusion_lat": 0.0, "type": "electric_scooter", "lat": 38.90385833333333, "is_reserved": 0, "is_disabled": 0, "fusion_lon": 0.0, "bike_id": "c2fe52898eb274e947e089caaa030327", "lon": -77.017929, "rental_uris": {"ios": "https://dc.lft.to/lastmile_qr_scan", "android": "https://dc.lft.to/lastmile_qr_scan"}}, {"name": "9223fcbd0f1216a97ee5c6a37f527bc5", "fusion_lat": 0.0, "type": "electric_scooter", "lat": 38.939057, "is_reserved": 0, "is_disabled": 0, "fusion_lon": 0.0, "bike_id": "9223fcbd0f1216a97ee5c6a37f527bc5", "lon": -77.03270783333333, "rental_uris": {"ios": "https://dc.lft.to/lastmile_qr_scan", "android": "https://dc.lft.to/lastmile_qr_scan"}}, {"name": "36f2589646f5c5a636c2039ae6cf30ea", "fusion_lat": 0.0, "type": "electric_scooter", "lat": 38.898803, "is_reserved": 0, "is_disabled": 0, "fusion_lon": 0.0, "bike_id": "36f2589646f5c5a636c2039ae6cf30ea", "lon": -76.9316265, "rental_uris": {"ios": "https://dc.lft.to/lastmile_qr_scan", "android": "https://dc.lft.to/lastmile_qr_scan"}}, {"name": "c201f4d1cbef4107adc0c6a5d7a868d9", "fusion_lat": 0.0, "type": "electric_scooter", "lat": 38.90311916666667, "is_reserved": 0, "is_disabled": 0, "fusion_lon": 0.0, "bike_id": "c201f4d1cbef4107adc0c6a5d7a868d9", "lon": -77.024393, "rental_uris": {"ios": "https://dc.lft.to/lastmile_qr_scan", "android": "https://dc.lft.to/lastmile_qr_scan"}}, {"name": "18395139b384286800ff7e462db3ce20", "fusion_lat": 0.0, "type": "electric_scooter", "lat": 38.92805083333333, "is_reserved": 0, "is_disabled": 0, "fusion_lon": 0.0, "bike_id": "18395139b384286800ff7e462db3ce20", "lon": -77.039779, "rental_uris": {"ios": "https://dc.lft.to/lastmile_qr_scan", "android": "https://dc.lft.to/lastmile_qr_scan"}},