{"data": {"bikes": [{"is_disabled": 0, "fusion_lat": 0.0, "lat": 38.92066666666667, "type": "electric_scooter", "lon": -77.0438125, "is_reserved": 0, "fusion_lon": 0.0, "bike_id": "abd50138815adcf3b5d5f58fcb9c6322", "name": "abd50138815adcf3b5d5f58fcb9c6322", "rental_uris": {"ios": "https://dc.lft.to/lastmile_qr_scan", "android": "https://dc.lft.to/lastmile_qr_scan"}}, {"is_disabled": 0, "fusion_lat": 0.0, "lat": 38.91455583333333, "type": "electric_scooter", "lon": -77.04621083333333, "is_reserved": 0, "fusion_lon": 0.0, "bike_id": "b5fea967161cfdf69dacb7d4fc76ddae", "name": "b5fea967161cfdf69dacb7d4fc76ddae", "rental_uris": {"ios": "https://dc.lft.to/lastmile_qr_scan", "android": "https://dc.lft.to/lastmile_qr_scan"}}, {"is_disabled": 0, "fusion_lat": 0.0, "lat": 38.902259, "type": "electric_scooter", "lon": -77.04597066666666, "is_reserved": 0, "fusion_lon": 0.0, "bike_id": "a5cbcfb61f885c94176b244ea4a3b1ab", "name": "a5cbcfb61f885c94176b244ea4a3b1ab", "rental_uris": {"ios": "https://dc.lft.to/lastmile_qr_scan", "android": "https://dc.lft.to/lastmile_qr_scan"}}, {"is_disabled": 0, "fusion_lat": 0.0, "lat": 38.902684, "type": "electric_scooter", "lon": -77.05315683333333, "is_reserved": 0, "fusion_lon": 0.0, "bike_id": "19654cd1ac4975a8132e5d08a49406f4", "name": "19654cd1ac4975a8132e5d08a49406f4", "rental_uris": {"ios": "https://dc.lft.to/lastmile_qr_scan", "android": "https://dc.lft.to/lastmile_qr_scan"}}, {"is_disabled": 0, "fusion_lat": 0.0, "lat": 38.85054683333333, "type": "electric_bike", "lon": -76.97330233333334, "is_reserved": 0, "fusion_lon": 0.0, "bike_id": "9114997cf1d103ea3e4ca7090698ba17", "name": "9114997cf1d103ea3e4ca7090698ba17", "rental_uris": {"ios": "https://dc.lft.to/lastmile_qr_scan", "android": "https://dc.lft.to/lastmile_qr_scan"}}, {"is_disabled": 0, "fusion_lat": 0.0, "lat": 38.86367766666667, "type": "electric_bike", "lon": -76.97008966666667, "is_reserved": 0, "fusion_lon": 0.0, "bike_id": "7b5e0af0efa80045947a604a393f1fc4", "name": "7b5e0af0efa80045947a604a393f1fc4", "rental_uris": {"ios": "https://dc.lft.to/lastmile_qr_scan", "android": "https://dc.lft.to/lastmile_qr_scan"}}, {"is_disabled": 0, "fusion_lat": 0.0, "lat": 38.92565066666667, "type": "electric_scooter", "lon": -77.05278783333333, "is_reserved": 0, "fusion_lon": 0.0, "bike_id": "3ba72b85edea5937b82fa6e3b869712e", "name": "3ba72b85edea5937b82fa6e3b869712e", "rental_uris": {"ios": "https://dc.lft.to/lastmile_qr_scan", "android": "https://dc.lft.to/lastmile_qr_scan"}}, {"is_disabled": 0, "fusion_lat": 0.0, "lat": 38.94017983333333, "type": "electric_scooter", "lon": -77.07168666666666, "is_reserved": 0, "fusion_lon": 0.0, "bike_id": "83963dcbcd431dc0f82415ba1a33642a", "name": "83963dcbcd431dc0f82415ba1a33642a", "rental_uris": {"ios": "https://dc.lft.to/lastmile_qr_scan", "android": "https://dc.lft.to/lastmile_qr_scan"}}, {"is_disabled": 0, "fusion_lat": 0.0, "lat": 38.916951166666664, "type": "electric_scooter", "lon": -77.038707, "is_reserved": 0, "fusion_lon": 0.0, "bike_id": "46de7adf5a2ce8d747426b3c306223db", "name": "46de7adf5a2ce8d747426b3c306223db", "rental_uris": {"ios": "https://dc.lft.to/lastmile_qr_scan", "android": "https://dc.lft.to/lastmile_qr_scan"}}, {"is_disabled": 0, "fusion_lat": 0.0, "lat": 38.925490333333336, "type": "electric_bike", "lon": -77.00131516666667, "is_reserved": 0, "fusion_lon": 0.0, "bike_id": "fc8bb81639f66c3ac52811f5f61c8c19", "name": "fc8bb81639f66c3ac52811f5f61c8c19", "rental_uris": {"ios": "https://dc.lft.to/lastmile_qr_scan", "android": "https://dc.lft.to/lastmile_qr_scan"}}, {"is_disabled": 0, "fusion_lat": 0.0, "lat": 38.900176333333334, "type": "electric_scooter", "lon": -77.0122145, "is_reserved": 0, "fusion_lon": 0.0, "bike_id": "46d94520321111e9193f158005bb5511", "name": "46d94520321111e9193f158005bb5511", "rental_uris": {"ios": "https://dc.lft.to/lastmile_qr_scan", "android": "https://dc.lft.to/lastmile_qr_scan"}}, {"is_disabled": 0, "fusion_lat": 0.0, "lat": 38.8988225, "type": "electric_scooter", "lon": -76.9317995, "is_reserved": 0, "fusion_lon": 0.0, "bike_id": "6375a9974789f35a77abe97d4ff237cf", "name": "6375a9974789f35a77abe97d4ff237cf", "rental_uris": {"ios": "https://dc.lft.to/lastmile_qr_scan", "android": "https://dc.lft.to/lastmile_qr_scan"}}, {"is_disabled": 0, "fusion_lat": 0.0, "lat": 38.905536166666664, "type": "electric_scooter", "lon": -77.04654783333334, "is_reserved": 0, "fusion_lon": 0.0, "bike_id": "00617b301b4e45f7e5b1ec47c0e857f8", "name": "00617b301b4e45f7e5b1ec47c0e857f8", "rental_uris": {"ios": "https://dc.lft.to/lastmile_qr_scan", "android": "https://dc.lft.to/lastmile_qr_scan"}}, {"is_disabled": 0, "fusion_lat": 0.0, "lat": 38.91549466666667, "type": "electric_scooter", "lon": -77.041587, "is_reserved": 0, "fusion_lon": 0.0, "bike_id": "1075acc59ccacc791501218ae1c9ca38", "name": "1075acc59ccacc791501218ae1c9ca38", "rental_uris": {"ios": "https://dc.lft.to/lastmile_qr_scan", "android": "https://dc.lft.to/lastmile_qr_scan"}}, {"is_disabled": 0, "fusion_lat": 0.0, "lat": 38.9343195, "type": "electric_scooter", "lon": -77.034526, "is_reserved": 0, "fusion_lon": 0.0, "bike_id": "5510f10359ee4b159afdd87beb9c3810", "name": "5510f10359ee4b159afdd87beb9c3810", "rental_uris": {"ios": "https://dc.lft.to/lastmile_qr_scan", "android": "https://dc.lft.to/lastmile_qr_scan"}}, {"is_disabled": 0, "fusion_lat": 0.0, "lat": 38.8393415, "type": "electric_bike", "lon": -77.07898333333333, "is_reserved": 0, "fusion_lon": 0.0, "bike_id": "80643cc42ef0bdc817feb2ae33b029cf", "name": "80643cc42ef0bdc817feb2ae33b029cf", "rental_uris": {"ios": "https://dc.lft.to/lastmile_qr_scan", "android": "https://dc.lft.to/lastmile_qr_scan"}}, {"is_disabled": 0, "fusion_lat": 0.0, "lat": 38.91818816666667, "type": "electric_scooter", "lon": -77.03648416666667, "is_reserved": 0, "fusion_lon": 0.0, "bike_id": "c93cc083d490c98776b3a83cb13fe385", "name": "c93cc083d490c98776b3a83cb13fe385", "rental_uris": {"ios": "https://dc.lft.to/lastmile_qr_scan", "android": "https://dc.lft.to/lastmile_qr_scan"}}, {"is_disabled": 0, "fusion_lat": 0.0, "lat": 38.907447833333336, "type": "electric_scooter", "lon": -77.0240065, "is_reserved": 0, "fusion_lon": 0.0, "bike_id": "88f33e496687c634886236d9a0086a19", "name": "88f33e496687c634886236d9a0086a19", "rental_uris": {"ios": "https://dc.lft.to/lastmile_qr_scan", "android": "https://dc.lft.to/lastmile_qr_scan"}}, {"is_disabled": 0, "fusion_lat": 0.0, "lat": 38.9617305, "type": "electric_bike", "lon": -76.99589333333333, "is_reserved": 0, "fusion_lon": 0.0, "bike_id": "4df82765e0b73cfd6365b61152b08a3e", "name": "4df82765e0b73cfd6365b61152b08a3e", "rental_uris": {"ios": "https://dc.lft.to/lastmile_qr_scan", "android": "https://dc.lft.to/lastmile_qr_scan"}}, {"is_disabled": 0, "fusion_lat": 0.0, "lat": 38.8936935, "type": "electric_scooter", "lon": -76.94999333333334, "is_reserved": 0, "fusion_lon": 0.0, "bike_id": "86a4f38623194eaeef7b3d3b1ffbfd92", "name": "86a4f38623194eaeef7b3d3b1ffbfd92", "rental_uris": {"ios": "https://dc.lft.to/lastmile_qr_scan", "android": "https://dc.lft.to/lastmile_qr_scan"}}, {"is_disabled": 0, "fusion_lat": 0.0, "lat": 38.884329, "type": "electric_scooter", "lon": -76.95756783333333, "is_reserved": 0, "fusion_lon": 0.0, "bike_id": "51769eea77db4f4e2c5596fe25a91d33", "name": "51769eea77db4f4e2c5596fe25a91d33", "rental_uris": {"ios": "https://dc.lft.to/lastmile_qr_scan", "android": "https://dc.lft.to/lastmile_qr_scan"}}, {"is_disabled": 0, "fusion_lat": 0.0, "lat": 38.8933505, "type": "electric_scooter", "lon": -77.01207933333333, "is_reserved": 0, "fusion_lon": 0.0, "bike_id": "9714e5537933eaa13cf64f1d87fa9786", "name": "9714e5537933eaa13cf64f1d87fa9786", "rental_uris": {"ios": "https://dc.lft.to/lastmile_qr_scan", "android": "https://dc.lft.to/lastmile_qr_scan"}}, {"is_disabled": 0, "fusion_lat": 0.0, "lat": 38.938376, "type": "electric_scooter", "lon": -77.02450433333334, "is_reserved": 0, "fusion_lon": 0.0, "bike_id": "6df7ed58db324107af70a06084397008", "name": "6df7ed58db324107af70a06084397008", "rental_uris": {"ios": "https://dc.lft.to/lastmile_qr_scan", "android": "https://dc.lft.to/lastmile_qr_scan"}}, {"is_disabled": 0, "fusion_lat": 0.0, "lat": 38.90755566666667, "type": "electric_scooter", "lon": -77.000909, "is_reserved": 0, "fusion_lon": 0.0, "bike_id": "9f376b0973be61a332d234fb000799d9", "name": "9f376b0973be61a332d234fb000799d9", "rental_uris": {"ios": "https://dc.lft.to/lastmile_qr_scan", "android": "https://dc.lft.to/lastmile_qr_scan"}}, {"is_disabled": 0, "fusion_lat": 0.0, "lat": 38.92493666666667, "type": "electric_scooter", "lon": -77.0088455, "is_reserved": 0, "fusion_lon": 0.0, "bike_id": "f811f86dee43da8619beebd548b8c83c", "name": "f811f86dee43da8619beebd548b8c83c", "rental_uris": {"ios": "https://dc.lft.to/lastmile_qr_scan", "android": "https://dc.lft.to/lastmile_qr_scan"}}, {"is_disabled": 0, "fusion_lat": 0.0, "lat": 38.915468, "type": "electric_scooter", "lon": -77.02001783333333, "is_reserved": 0, "fusion_lon": 0.0, "bike_id": "5ca0aad1c2dd14bdbc7dad350c4aa039", "name": "5ca0aad1c2dd14bdbc7dad350c4aa039", "rental_uris": {"ios": "https://dc.lft.to/lastmile_qr_scan", "android": "https://dc.lft.to/lastmile_qr_scan"}}, {"is_disabled": 0, "fusion_lat": 0.0, "lat": 38.8822605, "type": "electric_scooter", "lon": -76.92659433333333, "is_reserved": 0, "fusion_lon": 0.0, "bike_id": "01ce3073ddb00c20ef9c34fdf458cfba", "name": "01ce3073ddb00c20ef9c34fdf458cfba", "rental_uris": {"ios": "https://dc.lft.to/lastmile_qr_scan", "android": "https://dc.lft.to/lastmile_qr_scan"}}, {"is_disabled": 0, "fusion_lat": 0.0, "lat": 38.95749433333334, "type": "electric_scooter", "lon": -77.02060533333334, "is_reserved": 0, "fusion_lon": 0.0, "bike_id": "09afd9b1f3ec4c50f7e8b3ca4aab28f3", "name": "09afd9b1f3ec4c50f7e8b3ca4aab28f3", "rental_uris": {"ios": "https://dc.lft.to/lastmile_qr_scan", "android": "https://dc.lft.to/lastmile_qr_scan"}}, {"is_disabled": 0, "fusion_lat": 0.0, "lat": 38.893715, "type": "electric_scooter", "lon": -76.94999266666667, "is_reserved": 0, "fusion_lon": 0.0, "bike_id": "6186f4d0a92f65d53fdbd6c73e204d6e", "name": "6186f4d0a92f65d53fdbd6c73e204d6e", "rental_uris": {"ios": "https://dc.lft.to/lastmile_qr_scan", "android": "https://dc.lft.to/lastmile_qr_scan"}}, {"is_disabled": 0, "fusion_lat": 0.0, "lat": 38.900688333333335, "type": "electric_scooter", "lon": -76.99840916666666, "is_reserved": 0, "fusion_lon": 0.0, "bike_id": "6e57c8d85311bc3325b825f5fe5cd3f0", "name": "6e57c8d85311bc3325b825f5fe5cd3f0", "rental_uris": {"ios": "https://dc.lft.to/lastmile_qr_scan", "android": "https://dc.lft.to/lastmile_qr_scan"}}, {"is_disabled": 0, "fusion_lat": 0.0, "lat": 38.9032785, "type": "electric_scooter", "lon": -77.03827783333334, "is_reserved": 0, "fusion_lon": 0.0, "bike_id": "d598cb65643b3dc6d1f314c242156478", "name": "d598cb65643b3dc6d1f314c242156478", "rental_uris": {"ios": "https://dc.lft.to/lastmile_qr_scan", "android": "https://dc.lft.to/lastmile_qr_scan"}}, {"is_disabled": 0, "fusion_lat": 0.0, "lat": 38.881785666666666, "type": "electric_scooter", "lon": -77.02808716666667, "is_reserved": 0, "fusion_lon": 0.0, "bike_id": "8774df8d31877bea2df839eb9e2e0d58", "name": "8774df8d31877bea2df839eb9e2e0d58", "rental_uris": {"ios": "https://dc.lft.to/lastmile_qr_scan", "android": "https://dc.lft.to/lastmile_qr_scan"}}, {"is_disabled": 0, "fusion_lat": 0.0, "lat": 38.973248166666664, "type": "electric_bike", "lon": -77.0214855, "is_reserved": 0, "fusion_lon": 0.0, "bike_id": "16f2183777bebe188e74a5051d0dfbf9", "name": "16f2183777bebe188e74a5051d0dfbf9", "rental_uris": {"ios": "https://dc.lft.to/lastmile_qr_scan", "android": "https://dc.lft.to/lastmile_qr_scan"}}, {"is_disabled": 0, "fusion_lat": 0.0, "lat": 38.92546033333333, "type": "electric_scooter", "lon": -76.981289, "is_reserved": 0, "fusion_lon": 0.0, "bike_id": "d573f1a8317470e816a45a75e0785e2e", "name": "d573f1a8317470e816a45a75e0785e2e", "rental_uris": {"ios": "https://dc.lft.to/lastmile_qr_scan", "android": "https://dc.lft.to/lastmile_qr_scan"}}, {"is_disabled": 0, "fusion_lat": 0.0, "lat": 38.95877616666667, "type": "electric_bike", "lon": -76.924961, "is_reserved": 0, "fusion_lon": 0.0, "bike_id": "d14fed98bfeecbeba9bb4add2f517502", "name": "d14fed98bfeecbeba9bb4add2f517502", "rental_uris": {"ios": "https://dc.lft.to/lastmile_qr_scan", "android": "https://dc.lft.to/lastmile_qr_scan"}}, {"is_disabled": 0, "fusion_lat": 0.0, "lat": 38.89607266666667, "type": "electric_scooter", "lon": -77.04239216666667, "is_reserved": 0, "fusion_lon": 0.0, "bike_id": "0dd0e0662a2d10bb680182e1eb2a14e1", "name": "0dd0e0662a2d10bb680182e1eb2a14e1", "rental_uris": {"ios": "https://dc.lft.to/lastmile_qr_scan", "android": "https://dc.lft.to/lastmile_qr_scan"}}, {"is_disabled": 0, "fusion_lat": 0.0, "lat": 38.8990155, "type": "electric_scooter", "lon": -77.0036675, "is_reserved": 0, "fusion_lon": 0.0, "bike_id": "08d705971c2cdf3616f54ba7e76a041e", "name": "08d705971c2cdf3616f54ba7e76a041e", "rental_uris": {"ios": "https://dc.lft.to/lastmile_qr_scan", "android": "https://dc.lft.to/lastmile_qr_scan"}}, {"is_disabled": 0, "fusion_lat": 0.0, "lat": 38.900243833333334, "type": "electric_scooter", "lon": -77.00213483333333, "is_reserved": 0, "fusion_lon": 0.0, "bike_id": "3ae21c294c0366453eaf254609e057fa", "name": "3ae21c294c0366453eaf254609e057fa", "rental_uris": {"ios": "https://dc.lft.to/lastmile_qr_scan", "android": "https://dc.lft.to/lastmile_qr_scan"}}, {"is_disabled": 0, "fusion_lat": 0.0, "lat": 38.905771, "type": "electric_scooter", "lon": -77.02205966666666, "is_reserved": 0, "fusion_lon": 0.0, "bike_id": "1795052e8aa273d510b2a949e92e7b39", "name": "1795052e8aa273d510b2a949e92e7b39", "rental_uris": {"ios": "https://dc.lft.to/lastmile_qr_scan", "android": "https://dc.lft.to/lastmile_qr_scan"}}, {"is_disabled": 0, "fusion_lat": 0.0, "lat": 38.919078999999996, "type": "electric_scooter", "lon": -77.04109633333333, "is_reserved": 0, "fusion_lon": 0.0, "bike_id": "d1ec899cc4353034e890e925b3dbde6c", "name": "d1ec899cc4353034e890e925b3dbde6c", "rental_uris": {"ios": "https://dc.lft.to/lastmile_qr_scan", "android": "https://dc.lft.to/lastmile_qr_scan"}}, {"is_disabled": 0, "fusion_lat": 0.0, "lat": 38.961476, "type": "electric_scooter", "lon": -76.99774416666666, "is_reserved": 0, "fusion_lon": 0.0, "bike_id": "2a13c0913491143dfaf5d49a56948b55", "name": "2a13c0913491143dfaf5d49a56948b55", "rental_uris": {"ios": "https://dc.lft.to/lastmile_qr_scan", "android": "https://dc.lft.to/lastmile_qr_scan"}}, {"is_disabled": 0, "fusion_lat": 0.0, "lat": 38.93395983333333, "type": "electric_scooter", "lon": -77.0205685, "is_reserved": 0, "fusion_lon": 0.0, "bike_id": "288f1cc1d615fafdb6a88765de26301d", "name": "288f1cc1d615fafdb6a88765de26301d", "rental_uris": {"ios": "https://dc.lft.to/lastmile_qr_scan", "android": "https://dc.lft.to/lastmile_qr_scan"}}, {"is_disabled": 0, "fusion_lat": 0.0, "lat": 38.922587166666666, "type": "electric_scooter", "lon": -77.0413975, "is_reserved": 0, "fusion_lon": 0.0, "bike_id": "d25108ba38146f87bcc8508de986ddd9", "name": "d25108ba38146f87bcc8508de986ddd9", "rental_uris": {"ios": "https://dc.lft.to/lastmile_qr_scan", "android": "https://dc.lft.to/lastmile_qr_scan"}}, {"is_disabled": 0, "fusion_lat": 0.0, "lat": 38.93315316666666, "type": "electric_scooter", "lon": -77.03290033333333, "is_reserved": 0, "fusion_lon": 0.0, "bike_id": "044251e00832eb7eeb4a0c480a72b99e", "name": "044251e00832eb7eeb4a0c480a72b99e", "rental_uris": {"ios": "https://dc.lft.to/lastmile_qr_scan", "android": "https://dc.lft.to/lastmile_qr_scan"}}, {"is_disabled": 0, "fusion_lat": 0.0, "lat": 38.8878315, "type": "electric_scooter", "lon": -76.9553425, "is_reserved": 0, "fusion_lon": 0.0, "bike_id": "f3bb83cb464bd34516cfdbe55ba14630", "name": "f3bb83cb464bd34516cfdbe55ba14630", "rental_uris": {"ios": "https://dc.lft.to/lastmile_qr_scan", "android": "https://dc.lft.to/lastmile_qr_scan"}}, {"is_disabled": 0, "fusion_lat": 0.0, "lat": 38.853207166666664, "type": "electric_scooter", "lon": -76.98004333333333, "is_reserved": 0, "fusion_lon": 0.0, "bike_id": "cbc18ef8281e37e6c511c489626dc78e", "name": "cbc18ef8281e37e6c511c489626dc78e", "rental_uris": {"ios": "https://dc.lft.to/lastmile_qr_scan", "android": "https://dc.lft.to/lastmile_qr_scan"}}, {"is_disabled": 0, "fusion_lat": 0.0, "lat": 38.940491, "type": "electric_scooter", "lon": -77.02978683333333, "is_reserved": 0, "fusion_lon": 0.0, "bike_id": "b52511bbe2980ed48890bbbcab913041", "name": "b52511bbe2980ed48890bbbcab913041", "rental_uris": {"ios": "https://dc.lft.to/lastmile_qr_scan", "android": "https://dc.lft.to/lastmile_qr_scan"}}, {"is_disabled": 0, "fusion_lat": 0.0, "lat": 38.91472683333333, "type": "electric_scooter", "lon": -77.00942283333333, "is_reserved": 0, "fusion_lon": 0.0, "bike_id": "da660442acd982a7f1569f42e2500160", "name": "da660442acd982a7f1569f42e2500160", "rental_uris": {"ios": "https://dc.lft.to/lastmile_qr_scan", "android": "https://dc.lft.to/lastmile_qr_scan"}}, {"is_disabled": 0, "fusion_lat": 0.0, "lat": 38.90843383333333, "type": "electric_scooter", "lon": -77.0446815, "is_reserved": 0, "fusion_lon": 0.0, "bike_id": "24118be8b2152937dca17e88c7a302c3", "name": "24118be8b2152937dca17e88c7a302c3", "rental_uris": {"ios": "https://dc.lft.to/lastmile_qr_scan", "android": "https://dc.lft.to/lastmile_qr_scan"}}, {"is_disabled": 0, "fusion_lat": 0.0, "lat": 38.87229583333333, "type": "electric_scooter", "lon": -77.012061, "is_reserved": 0, "fusion_lon": 0.0, "bike_id": "3d9b1bf10a34fcde0b40fd6be2966412", "name": "3d9b1bf10a34fcde0b40fd6be2966412", "rental_uris": {"ios": "https://dc.lft.to/lastmile_qr_scan", "android": "https://dc.lft.to/lastmile_qr_scan"}}, {"is_disabled": 0, "fusion_lat": 0.0, "lat": 38.90320166666667, "type": "electric_scooter", "lon": -76.97295016666666, "is_reserved": 0, "fusion_lon": 0.0, "bike_id": "a8e7c91f9bb9608e41918abffade0065", "name": "a8e7c91f9bb9608e41918abffade0065", "rental_uris": {"ios": "https://dc.lft.to/lastmile_qr_scan", "android": "https://dc.lft.to/lastmile_qr_scan"}}, {"is_disabled": 0, "fusion_lat": 0.0, "lat": 38.93108, "type": "electric_scooter", "lon": -77.0240415, "is_reserved": 0, "fusion_lon": 0.0, "bike_id": "b2391fc1659a3d9380f64f7227329959", "name": "b2391fc1659a3d9380f64f7227329959", "rental_uris": {"ios": "https://dc.lft.to/lastmile_qr_scan", "android": "https://dc.lft.to/lastmile_qr_scan"}}, {"is_disabled": 0, "fusion_lat": 0.0, "lat": 38.920790833333335, "type": "electric_scooter", "lon": -77.02389966666667, "is_reserved": 0, "fusion_lon": 0.0, "bike_id": "b867a3a1e7a4376a343b3bccba0aa808", "name": "b867a3a1e7a4376a343b3bccba0aa808", "rental_uris": {"ios": "https://dc.lft.to/lastmile_qr_scan", "android": "https://dc.lft.to/lastmile_qr_scan"}}, {"is_disabled": 0, "fusion_lat": 0.0, "lat": 38.904979166666664, "type": "electric_scooter", "lon": -77.06284466666666, "is_reserved": 0, "fusion_lon": 0.0, "bike_id": "2865305b40a83e7b9e5b612984944203", "name": "2865305b40a83e7b9e5b612984944203", "rental_uris": {"ios": "https://dc.lft.to/lastmile_qr_scan", "android": "https://dc.lft.to/lastmile_qr_scan"}}, {"is_disabled": 0, "fusion_lat": 0.0, "lat": 38.924429, "type": "electric_scooter", "lon": -77.03278833333333, "is_reserved": 0, "fusion_lon": 0.0, "bike_id": "78f106273ae715d45f79fc38153479a9", "name": "78f106273ae715d45f79fc38153479a9", "rental_uris": {"ios": "https://dc.lft.to/lastmile_qr_scan", "android": "https://dc.lft.to/lastmile_qr_scan"}}, {"is_disabled": 0, "fusion_lat": 0.0, "lat": 38.89595283333333, "type": "electric_scooter", "lon": -77.02779083333333, "is_reserved": 0, "fusion_lon": 0.0, "bike_id": "473b18bb321c02faf9093d20b06fae64", "name": "473b18bb321c02faf9093d20b06fae64", "rental_uris": {"ios": "https://dc.lft.to/lastmile_qr_scan", "android": "https://dc.lft.to/lastmile_qr_scan"}}, {"is_disabled": 0, "fusion_lat": 0.0, "lat": 38.862794, "type": "electric_scooter", "lon": -76.9923105, "is_reserved": 0, "fusion_lon": 0.0, "bike_id": "941e7486d17ad19c05802c8565529a3c", "name": "941e7486d17ad19c05802c8565529a3c", "rental_uris": {"ios": "https://dc.lft.to/lastmile_qr_scan", "android": "https://dc.lft.to/lastmile_qr_scan"}}, {"is_disabled": 0, "fusion_lat": 0.0, "lat": 38.9416895, "type": "electric_scooter", "lon": -77.0233685, "is_reserved": 0, "fusion_lon": 0.0, "bike_id": "c88ad1016698fedc592223a1fd44e145", "name": "c88ad1016698fedc592223a1fd44e145", "rental_uris": {"ios": "https://dc.lft.to/lastmile_qr_scan", "android": "https://dc.lft.to/lastmile_qr_scan"}}, {"is_disabled": 0, "fusion_lat": 0.0, "lat": 38.941655, "type": "electric_scooter", "lon": -77.02533416666667, "is_reserved": 0, "fusion_lon": 0.0, "bike_id": "d574f6bf31185648ad5de39dc98544df", "name": "d574f6bf31185648ad5de39dc98544df", "rental_uris": {"ios": "https://dc.lft.to/lastmile_qr_scan", "android": "https://dc.lft.to/lastmile_qr_scan"}}, {"is_disabled": 0, "fusion_lat": 0.0, "lat": 38.923792666666664, "type": "electric_scooter", "lon": -77.025541, "is_reserved": 0, "fusion_lon": 0.0, "bike_id": "a7fe133e07cc14537878696eb335f688", "name": "a7fe133e07cc14537878696eb335f688", "rental_uris": {"ios": "https://dc.lft.to/lastmile_qr_scan", "android": "https://dc.lft.to/lastmile_qr_scan"}}, {"is_disabled": 0, "fusion_lat": 0.0, "lat": 38.909613666666665, "type": "electric_scooter", "lon": -77.0143815, "is_reserved": 0, "fusion_lon": 0.0, "bike_id": "d4a99cf301857b2caeabe2f861c424f4", "name": "d4a99cf301857b2caeabe2f861c424f4", "rental_uris": {"ios": "https://dc.lft.to/lastmile_qr_scan", "android": "https://dc.lft.to/lastmile_qr_scan"}}, {"is_disabled": 0, "fusion_lat": 0.0, "lat": 38.95193416666667, "type": "electric_bike", "lon": -76.96721133333334, "is_reserved": 0, "fusion_lon": 0.0, "bike_id": "91d00c6afa8566451a04133424c4f58a", "name": "91d00c6afa8566451a04133424c4f58a", "rental_uris": {"ios": "https://dc.lft.to/lastmile_qr_scan", "android": "https://dc.lft.to/lastmile_qr_scan"}}, {"is_disabled": 0, "fusion_lat": 0.0, "lat": 38.9034405, "type": "electric_scooter", "lon": -76.97563533333333, "is_reserved": 0, "fusion_lon": 0.0, "bike_id": "7827ff6671d9db05ee839bea2d6b1260", "name": "7827ff6671d9db05ee839bea2d6b1260", "rental_uris": {"ios": "https://dc.lft.to/lastmile_qr_scan", "android": "https://dc.lft.to/lastmile_qr_scan"}}, {"is_disabled": 0, "fusion_lat": 0.0, "lat": 38.9133425, "type": "electric_scooter", "lon": -77.0300995, "is_reserved": 0, "fusion_lon": 0.0, "bike_id": "63e356c5b63a0a29013f75ab4a8105c7", "name": "63e356c5b63a0a29013f75ab4a8105c7", "rental_uris": {"ios": "https://dc.lft.to/lastmile_qr_scan", "android": "https://dc.lft.to/lastmile_qr_scan"}}, {"is_disabled": 0, "fusion_lat": 0.0, "lat": 38.941673333333334, "type": "electric_scooter", "lon": -77.0413245, "is_reserved": 0, "fusion_lon": 0.0, "bike_id": "2f57f3ce99a2ced5b7c37345b25dae0a", "name": "2f57f3ce99a2ced5b7c37345b25dae0a", "rental_uris": {"ios": "https://dc.lft.to/lastmile_qr_scan", "android": "https://dc.lft.to/lastmile_qr_scan"}}, {"is_disabled": 0, "fusion_lat": 0.0, "lat": 38.90683083333333, "type": "electric_scooter", "lon": -77.06351616666667, "is_reserved": 0, "fusion_lon": 0.0, "bike_id": "36765b1e7f2f1dd53b2ad216633549be", "name": "36765b1e7f2f1dd53b2ad216633549be", "rental_uris": {"ios": "https://dc.lft.to/lastmile_qr_scan", "android": "https://dc.lft.to/lastmile_qr_scan"}}, {"is_disabled": 0, "fusion_lat": 0.0, "lat": 38.8638695, "type": "electric_bike", "lon": -76.98990516666667, "is_reserved": 0, "fusion_lon": 0.0, "bike_id": "5a095e09693dc92ea4a54e351d67754c", "name": "5a095e09693dc92ea4a54e351d67754c", "rental_uris": {"ios": "https://dc.lft.to/lastmile_qr_scan", "android": "https://dc.lft.to/lastmile_qr_scan"}}, {"is_disabled": 0, "fusion_lat": 0.0, "lat": 38.912325333333335, "type": "electric_scooter", "lon": -77.04879216666667, "is_reserved": 0, "fusion_lon": 0.0, "bike_id": "815020d1faa2cb37c68acfbe1f3d0376", "name": "815020d1faa2cb37c68acfbe1f3d0376", "rental_uris": {"ios": "https://dc.lft.to/lastmile_qr_scan", "android": "https://dc.lft.to/lastmile_qr_scan"}}, {"is_disabled": 0, "fusion_lat": 0.0, "lat": 38.998185666666664, "type": "electric_bike", "lon": -76.8837605, "is_reserved": 0, "fusion_lon": 0.0, "bike_id": "974e63b68e02c879ac928274442cb882", "name": "974e63b68e02c879ac928274442cb882", "rental_uris": {"ios": "https://dc.lft.to/lastmile_qr_scan", "android": "https://dc.lft.to/lastmile_qr_scan"}}, {"is_disabled": 0, "fusion_lat": 0.0, "lat": 38.933197166666666, "type": "electric_scooter", "lon": -77.03278566666667, "is_reserved": 0, "fusion_lon": 0.0, "bike_id": "9381447d8d8a7b393dddc151ff2040fe", "name": "9381447d8d8a7b393dddc151ff2040fe", "rental_uris": {"ios": "https://dc.lft.to/lastmile_qr_scan", "android": "https://dc.lft.to/lastmile_qr_scan"}}, {"is_disabled": 0, "fusion_lat": 0.0, "lat": 38.90386516666667, "type": "electric_scooter", "lon": -77.01090316666667, "is_reserved": 0, "fusion_lon": 0.0, "bike_id": "d00b333e99e7c2fb81e2a0f293e1d630", "name": "d00b333e99e7c2fb81e2a0f293e1d630", "rental_uris": {"ios": "https://dc.lft.to/lastmile_qr_scan", "android": "https://dc.lft.to/lastmile_qr_scan"}}, {"is_disabled": 0, "fusion_lat": 0.0, "lat": 38.925512499999996, "type": "electric_scooter", "lon": -77.05293233333333, "is_reserved": 0, "fusion_lon": 0.0, "bike_id": "905f11d54196a65e22de6a757e3c1fc4", "name": "905f11d54196a65e22de6a757e3c1fc4", "rental_uris": {"ios": "https://dc.lft.to/lastmile_qr_scan", "android": "https://dc.lft.to/lastmile_qr_scan"}}, {"is_disabled": 0, "fusion_lat": 0.0, "lat": 38.96503, "type": "electric_bike", "lon": -77.02821516666667, "is_reserved": 0, "fusion_lon": 0.0, "bike_id": "312eb43f91ab9a8ce89fd6f8d0312f2e", "name": "312eb43f91ab9a8ce89fd6f8d0312f2e", "rental_uris": {"ios": "https://dc.lft.to/lastmile_qr_scan", "android": "https://dc.lft.to/lastmile_qr_scan"}}, {"is_disabled": 0, "fusion_lat": 0.0, "lat": 38.94976533333333, "type": "electric_scooter", "lon": -77.02693233333333, "is_reserved": 0, "fusion_lon": 0.0, "bike_id": "280cf62f57125f6cd8fce8f2583b10b8", "name": "280cf62f57125f6cd8fce8f2583b10b8", "rental_uris": {"ios": "https://dc.lft.to/lastmile_qr_scan", "android": "https://dc.lft.to/lastmile_qr_scan"}}, {"is_disabled": 0, "fusion_lat": 0.0, "lat": 38.94205066666667, "type": "electric_bike", "lon": -77.018238, "is_reserved": 0, "fusion_lon": 0.0, "bike_id": "bc4e5db304bfe2b63c2bacd239b2d3c5", "name": "bc4e5db304bfe2b63c2bacd239b2d3c5", "rental_uris": {"ios": "https://dc.lft.to/lastmile_qr_scan", "android": "https://dc.lft.to/lastmile_qr_scan"}}, {"is_disabled": 0, "fusion_lat": 0.0, "lat": 38.892263166666666, "type": "electric_scooter", "lon": -77.02444783333333, "is_reserved": 0, "fusion_lon": 0.0, "bike_id": "a5e97e0aa424a0f6283920b7d5db4fa4", "name": "a5e97e0aa424a0f6283920b7d5db4fa4", "rental_uris": {"ios": "https://dc.lft.to/lastmile_qr_scan", "android": "https://dc.lft.to/lastmile_qr_scan"}}, {"is_disabled": 0, "fusion_lat": 0.0, "lat": 38.94227883333333, "type": "electric_scooter", "lon": -77.01535633333333, "is_reserved": 0, "fusion_lon": 0.0, "bike_id": "86284cf97dc4c5eb514c2c85cd29d8dd", "name": "86284cf97dc4c5eb514c2c85cd29d8dd", "rental_uris": {"ios": "https://dc.lft.to/lastmile_qr_scan", "android": "https://dc.lft.to/lastmile_qr_scan"}}, {"is_disabled": 0, "fusion_lat": 0.0, "lat": 38.90798366666667, "type": "electric_scooter", "lon": -77.03418433333333, "is_reserved": 0, "fusion_lon": 0.0, "bike_id": "4d04281977eff506105a334115c88cde", "name": "4d04281977eff506105a334115c88cde", "rental_uris": {"ios": "https://dc.lft.to/lastmile_qr_scan", "android": "https://dc.lft.to/lastmile_qr_scan"}}, {"is_disabled": 0, "fusion_lat": 0.0, "lat": 38.94436783333333, "type": "electric_scooter", "lon": -77.06360266666667, "is_reserved": 0, "fusion_lon": 0.0, "bike_id": "2e298cbc5e1c8fe6e864c40b5f592d2a", "name": "2e298cbc5e1c8fe6e864c40b5f592d2a", "rental_uris": {"ios": "https://dc.lft.to/lastmile_qr_scan", "android": "https://dc.lft.to/lastmile_qr_scan"}}, {"is_disabled": 0, "fusion_lat": 0.0, "lat": 38.89533866666667, "type": "electric_scooter", "lon": -77.03219016666667, "is_reserved": 0, "fusion_lon": 0.0, "bike_id": "79a5bb4d8b8fa7f5a178ef36d812b7a2", "name": "79a5bb4d8b8fa7f5a178ef36d812b7a2", "rental_uris": {"ios": "https://dc.lft.to/lastmile_qr_scan", "android": "https://dc.lft.to/lastmile_qr_scan"}}, {"is_disabled": 0, "fusion_lat": 0.0, "lat": 38.90492716666667, "type": "electric_scooter", "lon": -77.0601315, "is_reserved": 0, "fusion_lon": 0.0, "bike_id": "7617e10f095231d0bbd179058b85af2e", "name": "7617e10f095231d0bbd179058b85af2e", "rental_uris": {"ios": "https://dc.lft.to/lastmile_qr_scan", "android": "https://dc.lft.to/lastmile_qr_scan"}}, {"is_disabled": 0, "fusion_lat": 0.0, "lat": 39.03883833333333, "type": "electric_bike", "lon": -76.99040166666667, "is_reserved": 0, "fusion_lon": 0.0, "bike_id": "b00a646d5699a7e16a4e93e8a5ae0ac2", "name": "b00a646d5699a7e16a4e93e8a5ae0ac2", "rental_uris": {"ios": "https://dc.lft.to/lastmile_qr_scan", "android": "https://dc.lft.to/lastmile_qr_scan"}}, {"is_disabled": 0, "fusion_lat": 0.0, "lat": 38.897664, "type": "electric_scooter", "lon": -76.98555683333333, "is_reserved": 0, "fusion_lon": 0.0, "bike_id": "7993bd55a9ec797e31821e88fabbf075", "name": "7993bd55a9ec797e31821e88fabbf075", "rental_uris": {"ios": "https://dc.lft.to/lastmile_qr_scan", "android": "https://dc.lft.to/lastmile_qr_scan"}}, {"is_disabled": 0, "fusion_lat": 0.0, "lat": 38.9050535, "type": "electric_scooter", "lon": -77.051361, "is_reserved": 0, "fusion_lon": 0.0, "bike_id": "2d4bad8f5c620d5146a1d355c61df031", "name": "2d4bad8f5c620d5146a1d355c61df031", "rental_uris": {"ios": "https://dc.lft.to/lastmile_qr_scan", "android": "https://dc.lft.to/lastmile_qr_scan"}}, {"is_disabled": 0, "fusion_lat": 0.0, "lat": 38.85808516666667, "type": "electric_scooter", "lon": -76.98655016666666, "is_reserved": 0, "fusion_lon": 0.0, "bike_id": "833d7f37fd6447ebbfb83fbde0aea0ee", "name": "833d7f37fd6447ebbfb83fbde0aea0ee", "rental_uris": {"ios": "https://dc.lft.to/lastmile_qr_scan", "android": "https://dc.lft.to/lastmile_qr_scan"}}, {"is_disabled": 0, "fusion_lat": 0.0, "lat": 38.90150583333333, "type": "electric_scooter", "lon": -77.0416125, "is_reserved": 0, "fusion_lon": 0.0, "bike_id": "b62c421b706d9b787ad0cb8b2aadf790", "name": "b62c421b706d9b787ad0cb8b2aadf790", "rental_uris": {"ios": "https://dc.lft.to/lastmile_qr_scan", "android": "https://dc.lft.to/lastmile_qr_scan"}}, {"is_disabled": 0, "fusion_lat": 0.0, "lat": 38.9042095, "type": "electric_scooter", "lon": -77.04860233333333, "is_reserved": 0, "fusion_lon": 0.0, "bike_id": "c9e4c944145a912943a753ea21bd16ca", "name": "c9e4c944145a912943a753ea21bd16ca", "rental_uris": {"ios": "https://dc.lft.to/lastmile_qr_scan", "android": "https://dc.lft.to/lastmile_qr_scan"}}, {"is_disabled": 0, "fusion_lat": 0.0, "lat": 38.91919, "type": "electric_scooter", "lon": -77.03425916666667, "is_reserved": 0, "fusion_lon": 0.0, "bike_id": "1e9ff6c7f6cff962207f6bb9f4041df6", "name": "1e9ff6c7f6cff962207f6bb9f4041df6", "rental_uris": {"ios": "https://dc.lft.to/lastmile_qr_scan", "android": "https://dc.lft.to/lastmile_qr_scan"}}, {"is_disabled": 0, "fusion_lat": 0.0, "lat": 38.915482, "type": "electric_scooter", "lon": -77.04157666666667, "is_reserved": 0, "fusion_lon": 0.0, "bike_id": "9c2b8fe50a43e2517b04bd4dae7a5da2", "name": "9c2b8fe50a43e2517b04bd4dae7a5da2", "rental_uris": {"ios": "https://dc.lft.to/lastmile_qr_scan", "android": "https://dc.lft.to/lastmile_qr_scan"}}, {"is_disabled": 0, "fusion_lat": 0.0, "lat": 38.91819483333333, "type": "electric_scooter", "lon": -77.03653416666667, "is_reserved": 0, "fusion_lon": 0.0, "bike_id": "5979689c8e133636b2ee9bd4ae940e45", "name": "5979689c8e133636b2ee9bd4ae940e45", "rental_uris": {"ios": "https://dc.lft.to/lastmile_qr_scan", "android": "https://dc.lft.to/lastmile_qr_scan"}}, {"is_disabled": 0, "fusion_lat": 0.0, "lat": 38.91205816666667, "type": "electric_scooter", "lon": -77.076103, "is_reserved": 0, "fusion_lon": 0.0, "bike_id": "351e758b1dcff4b36a2afcc9b6ccebf4", "name": "351e758b1dcff4b36a2afcc9b6ccebf4", "rental_uris": {"ios": "https://dc.lft.to/lastmile_qr_scan", "android": "https://dc.lft.to/lastmile_qr_scan"}}, {"is_disabled": 0, "fusion_lat": 0.0, "lat": 38.91103483333333, "type": "electric_scooter", "lon": -77.04203716666666, "is_reserved": 0, "fusion_lon": 0.0, "bike_id": "36239c17228e8200355920150edba607", "name": "36239c17228e8200355920150edba607", "rental_uris": {"ios": "https://dc.lft.to/lastmile_qr_scan", "android": "https://dc.lft.to/lastmile_qr_scan"}}, {"is_disabled": 0, "fusion_lat": 0.0, "lat": 38.92436216666667, "type": "electric_scooter", "lon": -77.05737133333334, "is_reserved": 0, "fusion_lon": 0.0, "bike_id": "69fe80d1add8e1c1ff0b76bb754820b9", "name": "69fe80d1add8e1c1ff0b76bb754820b9", "rental_uris": {"ios": "https://dc.lft.to/lastmile_qr_scan", "android": "https://dc.lft.to/lastmile_qr_scan"}}, {"is_disabled": 0, "fusion_lat": 0.0, "lat": 38.93271416666666, "type": "electric_bike", "lon": -77.03985083333333, "is_reserved": 0, "fusion_lon": 0.0, "bike_id": "7b9f3e3f1647979c6595295f920593d2", "name": "7b9f3e3f1647979c6595295f920593d2", "rental_uris": {"ios": "https://dc.lft.to/lastmile_qr_scan", "android": "https://dc.lft.to/lastmile_qr_scan"}}, {"is_disabled": 0, "fusion_lat": 0.0, "lat": 38.910038666666665, "type": "electric_scooter", "lon": -77.04003466666667, "is_reserved": 0, "fusion_lon": 0.0, "bike_id": "ec490ec4f8ca27d2511e71ef57da951a", "name": "ec490ec4f8ca27d2511e71ef57da951a", "rental_uris": {"ios": "https://dc.lft.to/lastmile_qr_scan", "android": "https://dc.lft.to/lastmile_qr_scan"}}, {"is_disabled": 0, "fusion_lat": 0.0, "lat": 38.9155535, "type": "electric_scooter", "lon": -77.00957033333333, "is_reserved": 0, "fusion_lon": 0.0, "bike_id": "adfd1bbd872c313f0c6a7fff51b847a3", "name": "adfd1bbd872c313f0c6a7fff51b847a3", "rental_uris": {"ios": "https://dc.lft.to/lastmile_qr_scan", "android": "https://dc.lft.to/lastmile_qr_scan"}}, {"is_disabled": 0, "fusion_lat": 0.0, "lat": 39.05198, "type": "electric_bike", "lon": -77.10923466666667, "is_reserved": 0, "fusion_lon": 0.0, "bike_id": "9e6db532384787d1c773acb752c31a4b", "name": "9e6db532384787d1c773acb752c31a4b", "rental_uris": {"ios": "https://dc.lft.to/lastmile_qr_scan", "android": "https://dc.lft.to/lastmile_qr_scan"}}, {"is_disabled": 0, "fusion_lat": 0.0, "lat": 38.922495, "type": "electric_scooter", "lon": -77.04247383333333, "is_reserved": 0, "fusion_lon": 0.0, "bike_id": "f8e110395a8cc08f07a0b63c9c6f9161", "name": "f8e110395a8cc08f07a0b63c9c6f9161", "rental_uris": {"ios": "https://dc.lft.to/lastmile_qr_scan", "android": "https://dc.lft.to/lastmile_qr_scan"}}, {"is_disabled": 0, "fusion_lat": 0.0, "lat": 38.907771, "type": "electric_scooter", "lon": -77.03861516666667, "is_reserved": 0, "fusion_lon": 0.0, "bike_id": "2ffc8115482b1cf9da05ed732c9149b0", "name": "2ffc8115482b1cf9da05ed732c9149b0", "rental_uris": {"ios": "https://dc.lft.to/lastmile_qr_scan", "android": "https://dc.lft.to/lastmile_qr_scan"}}, {"is_disabled": 0, "fusion_lat": 0.0, "lat": 38.898347333333334, "type": "electric_scooter", "lon": -76.94634466666666, "is_reserved": 0, "fusion_lon": 0.0, "bike_id": "90593ed54bf4ddb6f0cbf55cda84267f", "name": "90593ed54bf4ddb6f0cbf55cda84267f", "rental_uris": {"ios": "https://dc.lft.to/lastmile_qr_scan", "android": "https://dc.lft.to/lastmile_qr_scan"}}, {"is_disabled": 0, "fusion_lat": 0.0, "lat": 38.88769883333333, "type": "electric_scooter", "lon": -77.02232083333334, "is_reserved": 0, "fusion_lon": 0.0, "bike_id": "35e1e9a77d354d330259ed6c2951f03f", "name": "35e1e9a77d354d330259ed6c2951f03f", "rental_uris": {"ios": "https://dc.lft.to/lastmile_qr_scan", "android": "https://dc.lft.to/lastmile_qr_scan"}}, {"is_disabled": 0, "fusion_lat": 0.0, "lat": 38.9006185, "type": "electric_scooter", "lon": -76.9338865, "is_reserved": 0, "fusion_lon": 0.0, "bike_id": "9e21831750e882ff07332dc331595c95", "name": "9e21831750e882ff07332dc331595c95", "rental_uris": {"ios": "https://dc.lft.to/lastmile_qr_scan", "android": "https://dc.lft.to/lastmile_qr_scan"}}, {"is_disabled": 0, "fusion_lat": 0.0, "lat": 38.915621333333334, "type": "electric_scooter", "lon": -77.03070466666667, "is_reserved": 0, "fusion_lon": 0.0, "bike_id": "53d92b06609737514c5e0a4281777f12", "name": "53d92b06609737514c5e0a4281777f12", "rental_uris": {"ios": "https://dc.lft.to/lastmile_qr_scan", "android": "https://dc.lft.to/lastmile_qr_scan"}}, {"is_disabled": 0, "fusion_lat": 0.0, "lat": 38.884329666666666, "type": "electric_scooter", "lon": -76.95756416666667, "is_reserved": 0, "fusion_lon": 0.0, "bike_id": "4856e137bf64fda92123b257e1d50632", "name": "4856e137bf64fda92123b257e1d50632", "rental_uris": {"ios": "https://dc.lft.to/lastmile_qr_scan", "android": "https://dc.lft.to/lastmile_qr_scan"}}, {"is_disabled": 0, "fusion_lat": 0.0, "lat": 38.92290416666667, "type": "electric_scooter", "lon": -77.02074616666667, "is_reserved": 0, "fusion_lon": 0.0, "bike_id": "2f75d27d4ea6411aa9c0cc99e10dbeda", "name": "2f75d27d4ea6411aa9c0cc99e10dbeda", "rental_uris": {"ios": "https://dc.lft.to/lastmile_qr_scan", "android": "https://dc.lft.to/lastmile_qr_scan"}}, {"is_disabled": 0, "fusion_lat": 0.0, "lat": 38.919319, "type": "electric_scooter", "lon": -77.081364, "is_reserved": 0, "fusion_lon": 0.0, "bike_id": "6370c001dd8f1b8c2e36c4dd194fa2d1", "name": "6370c001dd8f1b8c2e36c4dd194fa2d1", "rental_uris": {"ios": "https://dc.lft.to/lastmile_qr_scan", "android": "https://dc.lft.to/lastmile_qr_scan"}}, {"is_disabled": 0, "fusion_lat": 0.0, "lat": 38.908026, "type": "electric_scooter", "lon": -77.02399616666666, "is_reserved": 0, "fusion_lon": 0.0, "bike_id": "1e5f170195cd25f8811fa8477fced564", "name": "1e5f170195cd25f8811fa8477fced564", "rental_uris": {"ios": "https://dc.lft.to/lastmile_qr_scan", "android": "https://dc.lft.to/lastmile_qr_scan"}}, {"is_disabled": 0, "fusion_lat": 0.0, "lat": 38.990751833333334, "type": "electric_bike", "lon": -76.87468933333334, "is_reserved": 0, "fusion_lon": 0.0, "bike_id": "3ac540adc3e309c37d83dc243c1c3d23", "name": "3ac540adc3e309c37d83dc243c1c3d23", "rental_uris": {"ios": "https://dc.lft.to/lastmile_qr_scan", "android": "https://dc.lft.to/lastmile_qr_scan"}}, {"is_disabled": 0, "fusion_lat": 0.0, "lat": 38.8610225, "type": "electric_scooter", "lon": -76.98336166666667, "is_reserved": 0, "fusion_lon": 0.0, "bike_id": "f5b1e835abd54cabd709d52431078224", "name": "f5b1e835abd54cabd709d52431078224", "rental_uris": {"ios": "https://dc.lft.to/lastmile_qr_scan", "android": "https://dc.lft.to/lastmile_qr_scan"}}, {"is_disabled": 0, "fusion_lat": 0.0, "lat": 38.919216666666664, "type": "electric_scooter", "lon": -77.03174616666666, "is_reserved": 0, "fusion_lon": 0.0, "bike_id": "b14149a196c91e574e51351a5fdfba86", "name": "b14149a196c91e574e51351a5fdfba86", "rental_uris": {"ios": "https://dc.lft.to/lastmile_qr_scan", "android": "https://dc.lft.to/lastmile_qr_scan"}}, {"is_disabled": 0, "fusion_lat": 0.0, "lat": 38.93190283333333, "type": "electric_scooter", "lon": -77.02835433333334, "is_reserved": 0, "fusion_lon": 0.0, "bike_id": "22d61f6b4a3e71770f6b5cf0c81f8ac5", "name": "22d61f6b4a3e71770f6b5cf0c81f8ac5", "rental_uris": {"ios": "https://dc.lft.to/lastmile_qr_scan", "android": "https://dc.lft.to/lastmile_qr_scan"}}, {"is_disabled": 0, "fusion_lat": 0.0, "lat": 38.8961295, "type": "electric_scooter", "lon": -77.044978, "is_reserved": 0, "fusion_lon": 0.0, "bike_id": "eefa768a5496de7f2b4ad7dc03ea3ef9", "name": "eefa768a5496de7f2b4ad7dc03ea3ef9", "rental_uris": {"ios": "https://dc.lft.to/lastmile_qr_scan", "android": "https://dc.lft.to/lastmile_qr_scan"}}, {"is_disabled": 0, "fusion_lat": 0.0, "lat": 38.87477, "type": "electric_scooter", "lon": -77.010713, "is_reserved": 0, "fusion_lon": 0.0, "bike_id": "38869aa7a52f9a9c7530f2cdcd172b58", "name": "38869aa7a52f9a9c7530f2cdcd172b58", "rental_uris": {"ios": "https://dc.lft.to/lastmile_qr_scan", "android": "https://dc.lft.to/lastmile_qr_scan"}}, {"is_disabled": 0, "fusion_lat": 0.0, "lat": 38.864386, "type": "electric_scooter", "lon": -76.97381966666667, "is_reserved": 0, "fusion_lon": 0.0, "bike_id": "8359102af9eff552d07db7e8658663ea", "name": "8359102af9eff552d07db7e8658663ea", "rental_uris": {"ios": "https://dc.lft.to/lastmile_qr_scan", "android": "https://dc.lft.to/lastmile_qr_scan"}}, {"is_disabled": 0, "fusion_lat": 0.0, "lat": 38.894535833333336, "type": "electric_bike", "lon": -76.97038316666666, "is_reserved": 0, "fusion_lon": 0.0, "bike_id": "374dc97f42ead9b32e8a9cfa9dfba78a", "name": "374dc97f42ead9b32e8a9cfa9dfba78a", "rental_uris": {"ios": "https://dc.lft.to/lastmile_qr_scan", "android": "https://dc.lft.to/lastmile_qr_scan"}}, {"is_disabled": 0, "fusion_lat": 0.0, "lat": 38.87658316666667, "type": "electric_scooter", "lon": -77.00456183333333, "is_reserved": 0, "fusion_lon": 0.0, "bike_id": "fb572a00da5cb7ac2f9fa95883eb6349", "name": "fb572a00da5cb7ac2f9fa95883eb6349", "rental_uris": {"ios": "https://dc.lft.to/lastmile_qr_scan", "android": "https://dc.lft.to/lastmile_qr_scan"}}, {"is_disabled": 0, "fusion_lat": 0.0, "lat": 38.93245666666667, "type": "electric_scooter", "lon": -77.03285083333333, "is_reserved": 0, "fusion_lon": 0.0, "bike_id": "709542c44bf54e80eef49a451773c3b5", "name": "709542c44bf54e80eef49a451773c3b5", "rental_uris": {"ios": "https://dc.lft.to/lastmile_qr_scan", "android": "https://dc.lft.to/lastmile_qr_scan"}}, {"is_disabled": 0, "fusion_lat": 0.0, "lat": 38.908087333333334, "type": "electric_scooter", "lon": -76.998445, "is_reserved": 0, "fusion_lon": 0.0, "bike_id": "6f83f87ca13aea98338f7de2cb45cae3", "name": "6f83f87ca13aea98338f7de2cb45cae3", "rental_uris": {"ios": "https://dc.lft.to/lastmile_qr_scan", "android": "https://dc.lft.to/lastmile_qr_scan"}}, {"is_disabled": 0, "fusion_lat": 0.0, "lat": 38.9057165, "type": "electric_scooter", "lon": -77.02987616666667, "is_reserved": 0, "fusion_lon": 0.0, "bike_id": "05d3454e65ec85ab1a3578831aa2593a", "name": "05d3454e65ec85ab1a3578831aa2593a", "rental_uris": {"ios": "https://dc.lft.to/lastmile_qr_scan", "android": "https://dc.lft.to/lastmile_qr_scan"}}, {"is_disabled": 0, "fusion_lat": 0.0, "lat": 38.8995765, "type": "electric_scooter", "lon": -77.05168283333333, "is_reserved": 0, "fusion_lon": 0.0, "bike_id": "d17024b2ca8b635b0d24294f45f6a45a", "name": "d17024b2ca8b635b0d24294f45f6a45a", "rental_uris": {"ios": "https://dc.lft.to/lastmile_qr_scan", "android": "https://dc.lft.to/lastmile_qr_scan"}}, {"is_disabled": 0, "fusion_lat": 0.0, "lat": 38.9081095, "type": "electric_scooter", "lon": -77.04365283333334, "is_reserved": 0, "fusion_lon": 0.0, "bike_id": "f4d1a430c70023270b4f9c25862d1a48", "name": "f4d1a430c70023270b4f9c25862d1a48", "rental_uris": {"ios": "https://dc.lft.to/lastmile_qr_scan", "android": "https://dc.lft.to/lastmile_qr_scan"}}, {"is_disabled": 0, "fusion_lat": 0.0, "lat": 38.822603, "type": "electric_bike", "lon": -77.00552383333333, "is_reserved": 0, "fusion_lon": 0.0, "bike_id": "419c713d5940f257648508e84cae6404", "name": "419c713d5940f257648508e84cae6404", "rental_uris": {"ios": "https://dc.lft.to/lastmile_qr_scan", "android": "https://dc.lft.to/lastmile_qr_scan"}}, {"is_disabled": 0, "fusion_lat": 0.0, "lat": 38.89221766666667, "type": "electric_scooter", "lon": -77.026493, "is_reserved": 0, "fusion_lon": 0.0, "bike_id": "113c98d10c75cf47c958809505999747", "name": "113c98d10c75cf47c958809505999747", "rental_uris": {"ios": "https://dc.lft.to/lastmile_qr_scan", "android": "https://dc.lft.to/lastmile_qr_scan"}}, {"is_disabled": 0, "fusion_lat": 0.0, "lat": 38.92615633333333, "type": "electric_scooter", "lon": -77.03774416666667, "is_reserved": 0, "fusion_lon": 0.0, "bike_id": "3ea1dc41c732f43d220bc5dd740c4801", "name": "3ea1dc41c732f43d220bc5dd740c4801", "rental_uris": {"ios": "https://dc.lft.to/lastmile_qr_scan", "android": "https://dc.lft.to/lastmile_qr_scan"}}, {"is_disabled": 0, "fusion_lat": 0.0, "lat": 38.89258983333333, "type": "electric_scooter", "lon": -76.94150333333333, "is_reserved": 0, "fusion_lon": 0.0, "bike_id": "78ac2accc0ce77d1885d6b71a5d23ad5", "name": "78ac2accc0ce77d1885d6b71a5d23ad5", "rental_uris": {"ios": "https://dc.lft.to/lastmile_qr_scan", "android": "https://dc.lft.to/lastmile_qr_scan"}}, {"is_disabled": 0, "fusion_lat": 0.0, "lat": 38.89742233333333, "type": "electric_scooter", "lon": -77.04673583333333, "is_reserved": 0, "fusion_lon": 0.0, "bike_id": "88ebbc911c160ce7364a6bce286e0d11", "name": "88ebbc911c160ce7364a6bce286e0d11", "rental_uris": {"ios": "https://dc.lft.to/lastmile_qr_scan", "android": "https://dc.lft.to/lastmile_qr_scan"}}, {"is_disabled": 0, "fusion_lat": 0.0, "lat": 38.923462, "type": "electric_scooter", "lon": -77.03577566666667, "is_reserved": 0, "fusion_lon": 0.0, "bike_id": "fad4026bfcab63806a7659f72a1bd934", "name": "fad4026bfcab63806a7659f72a1bd934", "rental_uris": {"ios": "https://dc.lft.to/lastmile_qr_scan", "android": "https://dc.lft.to/lastmile_qr_scan"}}, {"is_disabled": 0, "fusion_lat": 0.0, "lat": 38.91404266666667, "type": "electric_scooter", "lon": -77.01291033333334, "is_reserved": 0, "fusion_lon": 0.0, "bike_id": "6b949e98b8cc17764520239b240d687f", "name": "6b949e98b8cc17764520239b240d687f", "rental_uris": {"ios": "https://dc.lft.to/lastmile_qr_scan", "android": "https://dc.lft.to/lastmile_qr_scan"}}, {"is_disabled": 0, "fusion_lat": 0.0, "lat": 38.8922235, "type": "electric_scooter", "lon": -77.046512, "is_reserved": 0, "fusion_lon": 0.0, "bike_id": "a476964cec4dfca8b12ea6e02cc24e04", "name": "a476964cec4dfca8b12ea6e02cc24e04", "rental_uris": {"ios": "https://dc.lft.to/lastmile_qr_scan", "android": "https://dc.lft.to/lastmile_qr_scan"}}, {"is_disabled": 0, "fusion_lat": 0.0, "lat": 38.922551, "type": "electric_scooter", "lon": -77.0340945, "is_reserved": 0, "fusion_lon": 0.0, "bike_id": "a3e5dbb733b599b63fa967477d8910af", "name": "a3e5dbb733b599b63fa967477d8910af", "rental_uris": {"ios": "https://dc.lft.to/lastmile_qr_scan", "android": "https://dc.lft.to/lastmile_qr_scan"}}, {"is_disabled": 0, "fusion_lat": 0.0, "lat": 38.9244835, "type": "electric_scooter", "lon": -77.041181, "is_reserved": 0, "fusion_lon": 0.0, "bike_id": "f5c32d8a2054a419a18874bc34d94c50", "name": "f5c32d8a2054a419a18874bc34d94c50", "rental_uris": {"ios": "https://dc.lft.to/lastmile_qr_scan", "android": "https://dc.lft.to/lastmile_qr_scan"}}, {"is_disabled": 0, "fusion_lat": 0.0, "lat": 38.917106, "type": "electric_scooter", "lon": -77.03121383333334, "is_reserved": 0, "fusion_lon": 0.0, "bike_id": "9735ceb9ef176c00ceaef871935f1f31", "name": "9735ceb9ef176c00ceaef871935f1f31", "rental_uris": {"ios": "https://dc.lft.to/lastmile_qr_scan", "android": "https://dc.lft.to/lastmile_qr_scan"}}, {"is_disabled": 0, "fusion_lat": 0.0, "lat": 38.954018, "type": "electric_scooter", "lon": -77.02748016666666, "is_reserved": 0, "fusion_lon": 0.0, "bike_id": "b39d0c6fd167a5ef795e8f221a0fc9b1", "name": "b39d0c6fd167a5ef795e8f221a0fc9b1", "rental_uris": {"ios": "https://dc.lft.to/lastmile_qr_scan", "android": "https://dc.lft.to/lastmile_qr_scan"}}, {"is_disabled": 0, "fusion_lat": 0.0, "lat": 38.89533566666667, "type": "electric_scooter", "lon": -76.94891883333334, "is_reserved": 0, "fusion_lon": 0.0, "bike_id": "b12d0b7022e948104fe15203b75dbe05", "name": "b12d0b7022e948104fe15203b75dbe05", "rental_uris": {"ios": "https://dc.lft.to/lastmile_qr_scan", "android": "https://dc.lft.to/lastmile_qr_scan"}}, {"is_disabled": 0, "fusion_lat": 0.0, "lat": 38.892473833333334, "type": "electric_scooter", "lon": -77.03956983333333, "is_reserved": 0, "fusion_lon": 0.0, "bike_id": "cf069ee2ad198e0e92f207bd2a3073a2", "name": "cf069ee2ad198e0e92f207bd2a3073a2", "rental_uris": {"ios": "https://dc.lft.to/lastmile_qr_scan", "android": "https://dc.lft.to/lastmile_qr_scan"}}, {"is_disabled": 0, "fusion_lat": 0.0, "lat": 38.911914, "type": "electric_scooter", "lon": -77.06097133333333, "is_reserved": 0, "fusion_lon": 0.0, "bike_id": "bc5200e01274f33228ca84ecf49c0265", "name": "bc5200e01274f33228ca84ecf49c0265", "rental_uris": {"ios": "https://dc.lft.to/lastmile_qr_scan", "android": "https://dc.lft.to/lastmile_qr_scan"}}, {"is_disabled": 0, "fusion_lat": 0.0, "lat": 38.95648966666667, "type": "electric_bike", "lon": -77.02254666666667, "is_reserved": 0, "fusion_lon": 0.0, "bike_id": "3e72f67a47918c54ca29e5613658bec2", "name": "3e72f67a47918c54ca29e5613658bec2", "rental_uris": {"ios": "https://dc.lft.to/lastmile_qr_scan", "android": "https://dc.lft.to/lastmile_qr_scan"}}, {"is_disabled": 0, "fusion_lat": 0.0, "lat": 38.861639, "type": "electric_bike", "lon": -76.95073416666666, "is_reserved": 0, "fusion_lon": 0.0, "bike_id": "3dcd3a773f29e0acf56191f5ee37d01a", "name": "3dcd3a773f29e0acf56191f5ee37d01a", "rental_uris": {"ios": "https://dc.lft.to/lastmile_qr_scan", "android": "https://dc.lft.to/lastmile_qr_scan"}}, {"is_disabled": 0, "fusion_lat": 0.0, "lat": 38.923769666666665, "type": "electric_scooter", "lon": -77.03537116666666, "is_reserved": 0, "fusion_lon": 0.0, "bike_id": "54e101189c012657fb75bcae48dbfcc5", "name": "54e101189c012657fb75bcae48dbfcc5", "rental_uris": {"ios": "https://dc.lft.to/lastmile_qr_scan", "android": "https://dc.lft.to/lastmile_qr_scan"}}, {"is_disabled": 0, "fusion_lat": 0.0, "lat": 38.928437333333335, "type": "electric_scooter", "lon": -77.05428416666666, "is_reserved": 0, "fusion_lon": 0.0, "bike_id": "b536bbc0b854a338c431003d131364b9", "name": "b536bbc0b854a338c431003d131364b9", "rental_uris": {"ios": "https://dc.lft.to/lastmile_qr_scan", "android": "https://dc.lft.to/lastmile_qr_scan"}}, {"is_disabled": 0, "fusion_lat": 0.0, "lat": 38.896105166666665, "type": "electric_scooter", "lon": -77.04790616666666, "is_reserved": 0, "fusion_lon": 0.0, "bike_id": "366cf7a79e6a21be87a2bb0332b07c5e", "name": "366cf7a79e6a21be87a2bb0332b07c5e", "rental_uris": {"ios": "https://dc.lft.to/lastmile_qr_scan", "android": "https://dc.lft.to/lastmile_qr_scan"}}, {"is_disabled": 0, "fusion_lat": 0.0, "lat": 38.923132, "type": "electric_scooter", "lon": -77.04758866666667, "is_reserved": 0, "fusion_lon": 0.0, "bike_id": "4587da414b3e6612921d8d936d9b9982", "name": "4587da414b3e6612921d8d936d9b9982", "rental_uris": {"ios": "https://dc.lft.to/lastmile_qr_scan", "android": "https://dc.lft.to/lastmile_qr_scan"}}, {"is_disabled": 0, "fusion_lat": 0.0, "lat": 38.9233055, "type": "electric_scooter", "lon": -77.05683616666667, "is_reserved": 0, "fusion_lon": 0.0, "bike_id": "b16534b40e260d9320f0e73e26bc789c", "name": "b16534b40e260d9320f0e73e26bc789c", "rental_uris": {"ios": "https://dc.lft.to/lastmile_qr_scan", "android": "https://dc.lft.to/lastmile_qr_scan"}}, {"is_disabled": 0, "fusion_lat": 0.0, "lat": 38.90968316666667, "type": "electric_scooter", "lon": -77.04875066666666, "is_reserved": 0, "fusion_lon": 0.0, "bike_id": "f1b313d0c491754b9820a0e2773ea5b4", "name": "f1b313d0c491754b9820a0e2773ea5b4", "rental_uris": {"ios": "https://dc.lft.to/lastmile_qr_scan", "android": "https://dc.lft.to/lastmile_qr_scan"}}, {"is_disabled": 0, "fusion_lat": 0.0, "lat": 38.8766335, "type": "electric_scooter", "lon": -77.0045635, "is_reserved": 0, "fusion_lon": 0.0, "bike_id": "3d5115eddb40d6ec81da63a8ea89aa49", "name": "3d5115eddb40d6ec81da63a8ea89aa49", "rental_uris": {"ios": "https://dc.lft.to/lastmile_qr_scan", "android": "https://dc.lft.to/lastmile_qr_scan"}}, {"is_disabled": 0, "fusion_lat": 0.0, "lat": 38.90408466666667, "type": "electric_scooter", "lon": -77.02072416666667, "is_reserved": 0, "fusion_lon": 0.0, "bike_id": "f1dda7abf3358ee0f465eb642d13555b", "name": "f1dda7abf3358ee0f465eb642d13555b", "rental_uris": {"ios": "https://dc.lft.to/lastmile_qr_scan", "android": "https://dc.lft.to/lastmile_qr_scan"}}, {"is_disabled": 0, "fusion_lat": 0.0, "lat": 38.96023, "type": "electric_scooter", "lon": -77.028311, "is_reserved": 0, "fusion_lon": 0.0, "bike_id": "c87aee4095e0f4ed520d4bc7b1374cee", "name": "c87aee4095e0f4ed520d4bc7b1374cee", "rental_uris": {"ios": "https://dc.lft.to/lastmile_qr_scan", "android": "https://dc.lft.to/lastmile_qr_scan"}}, {"is_disabled": 0, "fusion_lat": 0.0, "lat": 38.91267583333333, "type": "electric_scooter", "lon": -77.01692366666667, "is_reserved": 0, "fusion_lon": 0.0, "bike_id": "2f1d6a3d55a45004bda7b0b97fefb307", "name": "2f1d6a3d55a45004bda7b0b97fefb307", "rental_uris": {"ios": "https://dc.lft.to/lastmile_qr_scan", "android": "https://dc.lft.to/lastmile_qr_scan"}}, {"is_disabled": 0, "fusion_lat": 0.0, "lat": 38.9216545, "type": "electric_scooter", "lon": -77.03863766666667, "is_reserved": 0, "fusion_lon": 0.0, "bike_id": "925b7691b9b5fffc5249fd429d2b37fa", "name": "925b7691b9b5fffc5249fd429d2b37fa", "rental_uris": {"ios": "https://dc.lft.to/lastmile_qr_scan", "android": "https://dc.lft.to/lastmile_qr_scan"}}, {"is_disabled": 0, "fusion_lat": 0.0, "lat": 38.931695166666664, "type": "electric_scooter", "lon": -77.02839583333333, "is_reserved": 0, "fusion_lon": 0.0, "bike_id": "0d1db6ef02b2b279f2530cefd2c4b7ea", "name": "0d1db6ef02b2b279f2530cefd2c4b7ea", "rental_uris": {"ios": "https://dc.lft.to/lastmile_qr_scan", "android": "https://dc.lft.to/lastmile_qr_scan"}}, {"is_disabled": 0, "fusion_lat": 0.0, "lat": 38.8974285, "type": "electric_scooter", "lon": -77.04501466666666, "is_reserved": 0, "fusion_lon": 0.0, "bike_id": "bbfd0ea5408f113900276759aa7ea046", "name": "bbfd0ea5408f113900276759aa7ea046", "rental_uris": {"ios": "https://dc.lft.to/lastmile_qr_scan", "android": "https://dc.lft.to/lastmile_qr_scan"}}, {"is_disabled": 0, "fusion_lat": 0.0, "lat": 38.965745166666665, "type": "electric_bike", "lon": -77.01619483333333, "is_reserved": 0, "fusion_lon": 0.0, "bike_id": "ee1b2ddefec4f0a89ff8cd73eecd6cf0", "name": "ee1b2ddefec4f0a89ff8cd73eecd6cf0", "rental_uris": {"ios": "https://dc.lft.to/lastmile_qr_scan", "android": "https://dc.lft.to/lastmile_qr_scan"}}, {"is_disabled": 0, "fusion_lat": 0.0, "lat": 38.90412233333333, "type": "electric_scooter", "lon": -77.0323475, "is_reserved": 0, "fusion_lon": 0.0, "bike_id": "95130470cafa5e85f00e7ff515d40f4a", "name": "95130470cafa5e85f00e7ff515d40f4a", "rental_uris": {"ios": "https://dc.lft.to/lastmile_qr_scan", "android": "https://dc.lft.to/lastmile_qr_scan"}}, {"is_disabled": 0, "fusion_lat": 0.0, "lat": 38.90667916666666, "type": "electric_scooter", "lon": -77.0005595, "is_reserved": 0, "fusion_lon": 0.0, "bike_id": "a443da6f4086553678e9e6f8e971099e", "name": "a443da6f4086553678e9e6f8e971099e", "rental_uris": {"ios": "https://dc.lft.to/lastmile_qr_scan", "android": "https://dc.lft.to/lastmile_qr_scan"}}, {"is_disabled": 0, "fusion_lat": 0.0, "lat": 38.91200933333333, "type": "electric_scooter", "lon": -77.00379866666667, "is_reserved": 0, "fusion_lon": 0.0, "bike_id": "5f6374d49a405b6293562dd301ba8bee", "name": "5f6374d49a405b6293562dd301ba8bee", "rental_uris": {"ios": "https://dc.lft.to/lastmile_qr_scan", "android": "https://dc.lft.to/lastmile_qr_scan"}}, {"is_disabled": 0, "fusion_lat": 0.0, "lat": 38.92529433333333, "type": "electric_scooter", "lon": -77.04423466666667, "is_reserved": 0, "fusion_lon": 0.0, "bike_id": "8cf6c3c5aa3ed1872f47bf5740e3f6cc", "name": "8cf6c3c5aa3ed1872f47bf5740e3f6cc", "rental_uris": {"ios": "https://dc.lft.to/lastmile_qr_scan", "android": "https://dc.lft.to/lastmile_qr_scan"}}, {"is_disabled": 0, "fusion_lat": 0.0, "lat": 38.902388333333334, "type": "electric_scooter", "lon": -77.0019665, "is_reserved": 0, "fusion_lon": 0.0, "bike_id": "d053f0e4a4f865f9c83e4aeff14ef2ed", "name": "d053f0e4a4f865f9c83e4aeff14ef2ed", "rental_uris": {"ios": "https://dc.lft.to/lastmile_qr_scan", "android": "https://dc.lft.to/lastmile_qr_scan"}}, {"is_disabled": 0, "fusion_lat": 0.0, "lat": 38.9119, "type": "electric_scooter", "lon": -77.01056466666667, "is_reserved": 0, "fusion_lon": 0.0, "bike_id": "f0613c0d93f92f3d507b3e15be764fcb", "name": "f0613c0d93f92f3d507b3e15be764fcb", "rental_uris": {"ios": "https://dc.lft.to/lastmile_qr_scan", "android": "https://dc.lft.to/lastmile_qr_scan"}}, {"is_disabled": 0, "fusion_lat": 0.0, "lat": 38.910169833333335, "type": "electric_scooter", "lon": -77.03860983333334, "is_reserved": 0, "fusion_lon": 0.0, "bike_id": "0ab57e720da6ce2102affff3b0e053f3", "name": "0ab57e720da6ce2102affff3b0e053f3", "rental_uris": {"ios": "https://dc.lft.to/lastmile_qr_scan", "android": "https://dc.lft.to/lastmile_qr_scan"}}, {"is_disabled": 0, "fusion_lat": 0.0, "lat": 38.905021166666664, "type": "electric_scooter", "lon": -76.99013266666667, "is_reserved": 0, "fusion_lon": 0.0, "bike_id": "5b08a7a397ce4783cd7d12986de7b4d2", "name": "5b08a7a397ce4783cd7d12986de7b4d2", "rental_uris": {"ios": "https://dc.lft.to/lastmile_qr_scan", "android": "https://dc.lft.to/lastmile_qr_scan"}}, {"is_disabled": 0, "fusion_lat": 0.0, "lat": 38.90199166666667, "type": "electric_scooter", "lon": -77.0237175, "is_reserved": 0, "fusion_lon": 0.0, "bike_id": "d6c9ecdb7926867c7a968d9508165c2d", "name": "d6c9ecdb7926867c7a968d9508165c2d", "rental_uris": {"ios": "https://dc.lft.to/lastmile_qr_scan", "android": "https://dc.lft.to/lastmile_qr_scan"}}, {"is_disabled": 0, "fusion_lat": 0.0, "lat": 38.9025995, "type": "electric_scooter", "lon": -77.01563233333333, "is_reserved": 0, "fusion_lon": 0.0, "bike_id": "ad14495ef84908ecac1061d1038dadc8", "name": "ad14495ef84908ecac1061d1038dadc8", "rental_uris": {"ios": "https://dc.lft.to/lastmile_qr_scan", "android": "https://dc.lft.to/lastmile_qr_scan"}}, {"is_disabled": 0, "fusion_lat": 0.0, "lat": 38.9050025, "type": "electric_scooter", "lon": -77.02960016666667, "is_reserved": 0, "fusion_lon": 0.0, "bike_id": "c19202e4b565dc71cc388e3d0d207f1e", "name": "c19202e4b565dc71cc388e3d0d207f1e", "rental_uris": {"ios": "https://dc.lft.to/lastmile_qr_scan", "android": "https://dc.lft.to/lastmile_qr_scan"}}, {"is_disabled": 0, "fusion_lat": 0.0, "lat": 38.90623266666667, "type": "electric_bike", "lon": -76.9861595, "is_reserved": 0, "fusion_lon": 0.0, "bike_id": "59976c02ab58c6de4e761c9a799a2b15", "name": "59976c02ab58c6de4e761c9a799a2b15", "rental_uris": {"ios": "https://dc.lft.to/lastmile_qr_scan", "android": "https://dc.lft.to/lastmile_qr_scan"}}, {"is_disabled": 0, "fusion_lat": 0.0, "lat": 38.9258985, "type": "electric_scooter", "lon": -77.00481916666666, "is_reserved": 0, "fusion_lon": 0.0, "bike_id": "4394526ef095a7f016fcd251ba884f18", "name": "4394526ef095a7f016fcd251ba884f18", "rental_uris": {"ios": "https://dc.lft.to/lastmile_qr_scan", "android": "https://dc.lft.to/lastmile_qr_scan"}}, {"is_disabled": 0, "fusion_lat": 0.0, "lat": 38.900438333333334, "type": "electric_scooter", "lon": -77.00212566666667, "is_reserved": 0, "fusion_lon": 0.0, "bike_id": "8d68c01f312676a711e7a899bd16c99f", "name": "8d68c01f312676a711e7a899bd16c99f", "rental_uris": {"ios": "https://dc.lft.to/lastmile_qr_scan", "android": "https://dc.lft.to/lastmile_qr_scan"}}, {"is_disabled": 0, "fusion_lat": 0.0, "lat": 38.91557933333333, "type": "electric_scooter", "lon": -77.04883316666667, "is_reserved": 0, "fusion_lon": 0.0, "bike_id": "c42a021844e8fd49a737c3baff6e24e1", "name": "c42a021844e8fd49a737c3baff6e24e1", "rental_uris": {"ios": "https://dc.lft.to/lastmile_qr_scan", "android": "https://dc.lft.to/lastmile_qr_scan"}}, {"is_disabled": 0, "fusion_lat": 0.0, "lat": 38.88502233333333, "type": "electric_scooter", "lon": -77.01550916666666, "is_reserved": 0, "fusion_lon": 0.0, "bike_id": "912d38100da87cb50ab1865385ceff3c", "name": "912d38100da87cb50ab1865385ceff3c", "rental_uris": {"ios": "https://dc.lft.to/lastmile_qr_scan", "android": "https://dc.lft.to/lastmile_qr_scan"}}, {"is_disabled": 0, "fusion_lat": 0.0, "lat": 38.90311066666666, "type": "electric_scooter", "lon": -76.9780495, "is_reserved": 0, "fusion_lon": 0.0, "bike_id": "fa12e66c504b4624ba63b01710085ff3", "name": "fa12e66c504b4624ba63b01710085ff3", "rental_uris": {"ios": "https://dc.lft.to/lastmile_qr_scan", "android": "https://dc.lft.to/lastmile_qr_scan"}}, {"is_disabled": 0, "fusion_lat": 0.0, "lat": 38.867050666666664, "type": "electric_bike", "lon": -76.9895495, "is_reserved": 0, "fusion_lon": 0.0, "bike_id": "8a81f0dd91c7ecc175340f8b23a3cfb3", "name": "8a81f0dd91c7ecc175340f8b23a3cfb3", "rental_uris": {"ios": "https://dc.lft.to/lastmile_qr_scan", "android": "https://dc.lft.to/lastmile_qr_scan"}}, {"is_disabled": 0, "fusion_lat": 0.0, "lat": 38.970857333333335, "type": "electric_bike", "lon": -77.06967316666666, "is_reserved": 0, "fusion_lon": 0.0, "bike_id": "71754dd632bbd78d66a53f6301d8d178", "name": "71754dd632bbd78d66a53f6301d8d178", "rental_uris": {"ios": "https://dc.lft.to/lastmile_qr_scan", "android": "https://dc.lft.to/lastmile_qr_scan"}}, {"is_disabled": 0, "fusion_lat": 0.0, "lat": 38.92511416666667, "type": "electric_scooter", "lon": -77.0388725, "is_reserved": 0, "fusion_lon": 0.0, "bike_id": "377efb65596c1f695bbe2496dcfa550b", "name": "377efb65596c1f695bbe2496dcfa550b", "rental_uris": {"ios": "https://dc.lft.to/lastmile_qr_scan", "android": "https://dc.lft.to/lastmile_qr_scan"}}, {"is_disabled": 0, "fusion_lat": 0.0, "lat": 38.898755666666666, "type": "electric_scooter", "lon": -76.93185933333334, "is_reserved": 0, "fusion_lon": 0.0, "bike_id": "499655967b9318511e304fa6cf8944c7", "name": "499655967b9318511e304fa6cf8944c7", "rental_uris": {"ios": "https://dc.lft.to/lastmile_qr_scan", "android": "https://dc.lft.to/lastmile_qr_scan"}}, {"is_disabled": 0, "fusion_lat": 0.0, "lat": 38.89981083333333, "type": "electric_scooter", "lon": -77.026893, "is_reserved": 0, "fusion_lon": 0.0, "bike_id": "41d2fd6c05d0ca9440a91b4a61d5934e", "name": "41d2fd6c05d0ca9440a91b4a61d5934e", "rental_uris": {"ios": "https://dc.lft.to/lastmile_qr_scan", "android": "https://dc.lft.to/lastmile_qr_scan"}}, {"is_disabled": 0, "fusion_lat": 0.0, "lat": 38.89736583333333, "type": "electric_scooter", "lon": -77.02705433333334, "is_reserved": 0, "fusion_lon": 0.0, "bike_id": "7df916ad01a4a728393a1f7c8e2d496f", "name": "7df916ad01a4a728393a1f7c8e2d496f", "rental_uris": {"ios": "https://dc.lft.to/lastmile_qr_scan", "android": "https://dc.lft.to/lastmile_qr_scan"}}, {"is_disabled": 0, "fusion_lat": 0.0, "lat": 38.90268983333333, "type": "electric_scooter", "lon": -77.0385385, "is_reserved": 0, "fusion_lon": 0.0, "bike_id": "38c17f36d50cee2127ccd4bea3e6ae68", "name": "38c17f36d50cee2127ccd4bea3e6ae68", "rental_uris": {"ios": "https://dc.lft.to/lastmile_qr_scan", "android": "https://dc.lft.to/lastmile_qr_scan"}}, {"is_disabled": 0, "fusion_lat": 0.0, "lat": 38.92722833333333, "type": "electric_scooter", "lon": -77.03974683333334, "is_reserved": 0, "fusion_lon": 0.0, "bike_id": "77f38c491c5b1cd643c18b0e7c3843a6", "name": "77f38c491c5b1cd643c18b0e7c3843a6", "rental_uris": {"ios": "https://dc.lft.to/lastmile_qr_scan", "android": "https://dc.lft.to/lastmile_qr_scan"}}, {"is_disabled": 0, "fusion_lat": 0.0, "lat": 38.88499266666667, "type": "electric_scooter", "lon": -77.0057315, "is_reserved": 0, "fusion_lon": 0.0, "bike_id": "7b0cecb60811288e8b13f142b54703f0", "name": "7b0cecb60811288e8b13f142b54703f0", "rental_uris": {"ios": "https://dc.lft.to/lastmile_qr_scan", "android": "https://dc.lft.to/lastmile_qr_scan"}}, {"is_disabled": 0, "fusion_lat": 0.0, "lat": 38.89220683333333, "type": "electric_scooter", "lon": -77.02223566666666, "is_reserved": 0, "fusion_lon": 0.0, "bike_id": "1ae71c1d3d847afcad5a360e1bc3c93b", "name": "1ae71c1d3d847afcad5a360e1bc3c93b", "rental_uris": {"ios": "https://dc.lft.to/lastmile_qr_scan", "android": "https://dc.lft.to/lastmile_qr_scan"}}, {"is_disabled": 0, "fusion_lat": 0.0, "lat": 38.89347583333333, "type": "electric_scooter", "lon": -76.949281, "is_reserved": 0, "fusion_lon": 0.0, "bike_id": "a8be694221837c9e5f16668a9d0031ce", "name": "a8be694221837c9e5f16668a9d0031ce", "rental_uris": {"ios": "https://dc.lft.to/lastmile_qr_scan", "android": "https://dc.lft.to/lastmile_qr_scan"}}, {"is_disabled": 0, "fusion_lat": 0.0, "lat": 38.881233, "type": "electric_scooter", "lon": -77.00092483333333, "is_reserved": 0, "fusion_lon": 0.0, "bike_id": "89f27b56a5ff01ed67d5a793e515947f", "name": "89f27b56a5ff01ed67d5a793e515947f", "rental_uris": {"ios": "https://dc.lft.to/lastmile_qr_scan", "android": "https://dc.lft.to/lastmile_qr_scan"}}, {"is_disabled": 0, "fusion_lat": 0.0, "lat": 38.919417, "type": "electric_scooter", "lon": -77.04150333333334, "is_reserved": 0, "fusion_lon": 0.0, "bike_id": "1bc9aa995974bd889982b7ed9a0459d6", "name": "1bc9aa995974bd889982b7ed9a0459d6", "rental_uris": {"ios": "https://dc.lft.to/lastmile_qr_scan", "android": "https://dc.lft.to/lastmile_qr_scan"}}, {"is_disabled": 0, "fusion_lat": 0.0, "lat": 38.91775966666667, "type": "electric_scooter", "lon": -77.05263216666667, "is_reserved": 0, "fusion_lon": 0.0, "bike_id": "5285a909abe0dad9c72c674cb5948d4e", "name": "5285a909abe0dad9c72c674cb5948d4e", "rental_uris": {"ios": "https://dc.lft.to/lastmile_qr_scan", "android": "https://dc.lft.to/lastmile_qr_scan"}}, {"is_disabled": 0, "fusion_lat": 0.0, "lat": 38.873734166666665, "type": "electric_bike", "lon": -77.11801833333334, "is_reserved": 0, "fusion_lon": 0.0, "bike_id": "efe1ba0b80f7eb6519baedf8095f7579", "name": "efe1ba0b80f7eb6519baedf8095f7579", "rental_uris": {"ios": "https://dc.lft.to/lastmile_qr_scan", "android": "https://dc.lft.to/lastmile_qr_scan"}}, {"is_disabled": 0, "fusion_lat": 0.0, "lat": 38.965596833333336, "type": "electric_bike", "lon": -77.02296266666667, "is_reserved": 0, "fusion_lon": 0.0, "bike_id": "cad40bf96c32a51ae1dd3c1053992328", "name": "cad40bf96c32a51ae1dd3c1053992328", "rental_uris": {"ios": "https://dc.lft.to/lastmile_qr_scan", "android": "https://dc.lft.to/lastmile_qr_scan"}}, {"is_disabled": 0, "fusion_lat": 0.0, "lat": 38.944279333333334, "type": "electric_scooter", "lon": -76.99195866666666, "is_reserved": 0, "fusion_lon": 0.0, "bike_id": "908357c5f556f8cbeb5b4a4043ed4825", "name": "908357c5f556f8cbeb5b4a4043ed4825", "rental_uris": {"ios": "https://dc.lft.to/lastmile_qr_scan", "android": "https://dc.lft.to/lastmile_qr_scan"}}, {"is_disabled": 0, "fusion_lat": 0.0, "lat": 38.90599366666667, "type": "electric_scooter", "lon": -77.041066, "is_reserved": 0, "fusion_lon": 0.0, "bike_id": "9bee588914c00356f3c91ff655a37fd8", "name": "9bee588914c00356f3c91ff655a37fd8", "rental_uris": {"ios": "https://dc.lft.to/lastmile_qr_scan", "android": "https://dc.lft.to/lastmile_qr_scan"}}, {"is_disabled": 0, "fusion_lat": 0.0, "lat": 38.89500866666667, "type": "electric_scooter", "lon": -77.02292683333333, "is_reserved": 0, "fusion_lon": 0.0, "bike_id": "40a77e907981c8691e3403f0b1fec3c9", "name": "40a77e907981c8691e3403f0b1fec3c9", "rental_uris": {"ios": "https://dc.lft.to/lastmile_qr_scan", "android": "https://dc.lft.to/lastmile_qr_scan"}}, {"is_disabled": 0, "fusion_lat": 0.0, "lat": 38.934723, "type": "electric_scooter", "lon": -77.01929283333334, "is_reserved": 0, "fusion_lon": 0.0, "bike_id": "72b2964d23e54bc66bc534cd8c1c7640", "name": "72b2964d23e54bc66bc534cd8c1c7640", "rental_uris": {"ios": "https://dc.lft.to/lastmile_qr_scan", "android": "https://dc.lft.to/lastmile_qr_scan"}}, {"is_disabled": 0, "fusion_lat": 0.0, "lat": 38.83985766666667, "type": "electric_bike", "lon": -77.005728, "is_reserved": 0, "fusion_lon": 0.0, "bike_id": "1a23920416c7dd4479f0b74225ef8203", "name": "1a23920416c7dd4479f0b74225ef8203", "rental_uris": {"ios": "https://dc.lft.to/lastmile_qr_scan", "android": "https://dc.lft.to/lastmile_qr_scan"}}, {"is_disabled": 0, "fusion_lat": 0.0, "lat": 38.88133, "type": "electric_bike", "lon": -76.980932, "is_reserved": 0, "fusion_lon": 0.0, "bike_id": "4aa874717d3cd29082526e4a8624d5e8", "name": "4aa874717d3cd29082526e4a8624d5e8", "rental_uris": {"ios": "https://dc.lft.to/lastmile_qr_scan", "android": "https://dc.lft.to/lastmile_qr_scan"}}, {"is_disabled": 0, "fusion_lat": 0.0, "lat": 38.898938333333334, "type": "electric_scooter", "lon": -76.933086, "is_reserved": 0, "fusion_lon": 0.0, "bike_id": "af58f88960cadb47b589cf362fd9044c", "name": "af58f88960cadb47b589cf362fd9044c", "rental_uris": {"ios": "https://dc.lft.to/lastmile_qr_scan", "android": "https://dc.lft.to/lastmile_qr_scan"}}, {"is_disabled": 0, "fusion_lat": 0.0, "lat": 38.915658666666666, "type": "electric_scooter", "lon": -77.01194983333333, "is_reserved": 0, "fusion_lon": 0.0, "bike_id": "a13b96d3543a53bc5c2f24734e0e19af", "name": "a13b96d3543a53bc5c2f24734e0e19af", "rental_uris": {"ios": "https://dc.lft.to/lastmile_qr_scan", "android": "https://dc.lft.to/lastmile_qr_scan"}}, {"is_disabled": 0, "fusion_lat": 0.0, "lat": 38.91977033333333, "type": "electric_scooter", "lon": -77.04168616666666, "is_reserved": 0, "fusion_lon": 0.0, "bike_id": "5b882104605d37a43a6ba45f8fb889e2", "name": "5b882104605d37a43a6ba45f8fb889e2", "rental_uris": {"ios": "https://dc.lft.to/lastmile_qr_scan", "android": "https://dc.lft.to/lastmile_qr_scan"}}, {"is_disabled": 0, "fusion_lat": 0.0, "lat": 38.89993316666666, "type": "electric_scooter", "lon": -77.05228666666666, "is_reserved": 0, "fusion_lon": 0.0, "bike_id": "a3b4b8c4d197df0113ba14dfe91a00ed", "name": "a3b4b8c4d197df0113ba14dfe91a00ed", "rental_uris": {"ios": "https://dc.lft.to/lastmile_qr_scan", "android": "https://dc.lft.to/lastmile_qr_scan"}}, {"is_disabled": 0, "fusion_lat": 0.0, "lat": 38.90777633333333, "type": "electric_scooter", "lon": -77.0382915, "is_reserved": 0, "fusion_lon": 0.0, "bike_id": "1010d05741e2fb5e4d329b3c51987447", "name": "1010d05741e2fb5e4d329b3c51987447", "rental_uris": {"ios": "https://dc.lft.to/lastmile_qr_scan", "android": "https://dc.lft.to/lastmile_qr_scan"}}, {"is_disabled": 0, "fusion_lat": 0.0, "lat": 38.86655183333333, "type": "electric_scooter", "lon": -76.99017833333333, "is_reserved": 0, "fusion_lon": 0.0, "bike_id": "e7fc00c1daa2607babb5f08d65728b55", "name": "e7fc00c1daa2607babb5f08d65728b55", "rental_uris": {"ios": "https://dc.lft.to/lastmile_qr_scan", "android": "https://dc.lft.to/lastmile_qr_scan"}}, {"is_disabled": 0, "fusion_lat": 0.0, "lat": 38.917330666666665, "type": "electric_scooter", "lon": -77.02699466666667, "is_reserved": 0, "fusion_lon": 0.0, "bike_id": "638defa5a980411e126f6c5de510ad65", "name": "638defa5a980411e126f6c5de510ad65", "rental_uris": {"ios": "https://dc.lft.to/lastmile_qr_scan", "android": "https://dc.lft.to/lastmile_qr_scan"}}, {"is_disabled": 0, "fusion_lat": 0.0, "lat": 38.9228365, "type": "electric_scooter", "lon": -77.03198016666667, "is_reserved": 0, "fusion_lon": 0.0, "bike_id": "2a1c31ad9fd5faf2942729e6c39c5c71", "name": "2a1c31ad9fd5faf2942729e6c39c5c71", "rental_uris": {"ios": "https://dc.lft.to/lastmile_qr_scan", "android": "https://dc.lft.to/lastmile_qr_scan"}}, {"is_disabled": 0, "fusion_lat": 0.0, "lat": 38.875385666666666, "type": "electric_scooter", "lon": -77.00065283333333, "is_reserved": 0, "fusion_lon": 0.0, "bike_id": "192a341e63b026ffc7fb78a12a78d026", "name": "192a341e63b026ffc7fb78a12a78d026", "rental_uris": {"ios": "https://dc.lft.to/lastmile_qr_scan", "android": "https://dc.lft.to/lastmile_qr_scan"}}, {"is_disabled": 0, "fusion_lat": 0.0, "lat": 38.8988575, "type": "electric_scooter", "lon": -77.03305983333334, "is_reserved": 0, "fusion_lon": 0.0, "bike_id": "9b215268f53fcfb36c934ed63f2f8936", "name": "9b215268f53fcfb36c934ed63f2f8936", "rental_uris": {"ios": "https://dc.lft.to/lastmile_qr_scan", "android": "https://dc.lft.to/lastmile_qr_scan"}}, {"is_disabled": 0, "fusion_lat": 0.0, "lat": 38.941829166666665, "type": "electric_scooter", "lon": -77.02493183333333, "is_reserved": 0, "fusion_lon": 0.0, "bike_id": "0ab3a759db294f5cfe7c67ac5c9b63a4", "name": "0ab3a759db294f5cfe7c67ac5c9b63a4", "rental_uris": {"ios": "https://dc.lft.to/lastmile_qr_scan", "android": "https://dc.lft.to/lastmile_qr_scan"}}, {"is_disabled": 0, "fusion_lat": 0.0, "lat": 38.90371533333333, "type": "electric_scooter", "lon": -77.03890783333334, "is_reserved": 0, "fusion_lon": 0.0, "bike_id": "c22e50784bd49b9abff95d2be273a88a", "name": "c22e50784bd49b9abff95d2be273a88a", "rental_uris": {"ios": "https://dc.lft.to/lastmile_qr_scan", "android": "https://dc.lft.to/lastmile_qr_scan"}}, {"is_disabled": 0, "fusion_lat": 0.0, "lat": 38.92149916666666, "type": "electric_scooter", "lon": -77.03868783333333, "is_reserved": 0, "fusion_lon": 0.0, "bike_id": "e13a6428d6051d15b28848ae4e627851", "name": "e13a6428d6051d15b28848ae4e627851", "rental_uris": {"ios": "https://dc.lft.to/lastmile_qr_scan", "android": "https://dc.lft.to/lastmile_qr_scan"}}, {"is_disabled": 0, "fusion_lat": 0.0, "lat": 38.901395, "type": "electric_scooter", "lon": -76.9979825, "is_reserved": 0, "fusion_lon": 0.0, "bike_id": "401953f8ebda8a9a0d65c6d7b64969a7", "name": "401953f8ebda8a9a0d65c6d7b64969a7", "rental_uris": {"ios": "https://dc.lft.to/lastmile_qr_scan", "android": "https://dc.lft.to/lastmile_qr_scan"}}, {"is_disabled": 0, "fusion_lat": 0.0, "lat": 38.89251683333333, "type": "electric_scooter", "lon": -76.943425, "is_reserved": 0, "fusion_lon": 0.0, "bike_id": "65119c2c2db6e3cd01fd1fcb99105ca6", "name": "65119c2c2db6e3cd01fd1fcb99105ca6", "rental_uris": {"ios": "https://dc.lft.to/lastmile_qr_scan", "android": "https://dc.lft.to/lastmile_qr_scan"}}, {"is_disabled": 0, "fusion_lat": 0.0, "lat": 38.9161595, "type": "electric_scooter", "lon": -77.0270275, "is_reserved": 0, "fusion_lon": 0.0, "bike_id": "ee146f72e27bce0d74196ed014cd4855", "name": "ee146f72e27bce0d74196ed014cd4855", "rental_uris": {"ios": "https://dc.lft.to/lastmile_qr_scan", "android": "https://dc.lft.to/lastmile_qr_scan"}}, {"is_disabled": 0, "fusion_lat": 0.0, "lat": 38.9127535, "type": "electric_scooter", "lon": -77.04173666666667, "is_reserved": 0, "fusion_lon": 0.0, "bike_id": "dfdc8f2e094f913d90db1daf3a3791f9", "name": "dfdc8f2e094f913d90db1daf3a3791f9", "rental_uris": {"ios": "https://dc.lft.to/lastmile_qr_scan", "android": "https://dc.lft.to/lastmile_qr_scan"}}, {"is_disabled": 0, "fusion_lat": 0.0, "lat": 38.94800216666667, "type": "electric_bike", "lon": -77.00815966666667, "is_reserved": 0, "fusion_lon": 0.0, "bike_id": "995a7631c9235e60afdf056c8bb79055", "name": "995a7631c9235e60afdf056c8bb79055", "rental_uris": {"ios": "https://dc.lft.to/lastmile_qr_scan", "android": "https://dc.lft.to/lastmile_qr_scan"}}, {"is_disabled": 0, "fusion_lat": 0.0, "lat": 38.90847566666667, "type": "electric_scooter", "lon": -77.02462566666667, "is_reserved": 0, "fusion_lon": 0.0, "bike_id": "665d0c8f233451222f408224b33dcaeb", "name": "665d0c8f233451222f408224b33dcaeb", "rental_uris": {"ios": "https://dc.lft.to/lastmile_qr_scan", "android": "https://dc.lft.to/lastmile_qr_scan"}}, {"is_disabled": 0, "fusion_lat": 0.0, "lat": 38.89619183333333, "type": "electric_scooter", "lon": -76.994125, "is_reserved": 0, "fusion_lon": 0.0, "bike_id": "33b189c0040bb0418dcb7e3a00c2bd4e", "name": "33b189c0040bb0418dcb7e3a00c2bd4e", "rental_uris": {"ios": "https://dc.lft.to/lastmile_qr_scan", "android": "https://dc.lft.to/lastmile_qr_scan"}}, {"is_disabled": 0, "fusion_lat": 0.0, "lat": 38.871464833333334, "type": "electric_bike", "lon": -76.93668316666667, "is_reserved": 0, "fusion_lon": 0.0, "bike_id": "cc7e4a7e7c4593fbc2916d0d3b8a26d0", "name": "cc7e4a7e7c4593fbc2916d0d3b8a26d0", "rental_uris": {"ios": "https://dc.lft.to/lastmile_qr_scan", "android": "https://dc.lft.to/lastmile_qr_scan"}}, {"is_disabled": 0, "fusion_lat": 0.0, "lat": 38.953517, "type": "electric_bike", "lon": -76.98088383333334, "is_reserved": 0, "fusion_lon": 0.0, "bike_id": "1882fba3514c069482eb7d314f157898", "name": "1882fba3514c069482eb7d314f157898", "rental_uris": {"ios": "https://dc.lft.to/lastmile_qr_scan", "android": "https://dc.lft.to/lastmile_qr_scan"}}, {"is_disabled": 0, "fusion_lat": 0.0, "lat": 38.92495666666667, "type": "electric_scooter", "lon": -77.02153566666667, "is_reserved": 0, "fusion_lon": 0.0, "bike_id": "cf55c65d3fdb89f23e9ce1f8ea1268cf", "name": "cf55c65d3fdb89f23e9ce1f8ea1268cf", "rental_uris": {"ios": "https://dc.lft.to/lastmile_qr_scan", "android": "https://dc.lft.to/lastmile_qr_scan"}}, {"is_disabled": 0, "fusion_lat": 0.0, "lat": 38.9382405, "type": "electric_bike", "lon": -77.03288766666667, "is_reserved": 0, "fusion_lon": 0.0, "bike_id": "4d63209836c36ac4505a794a483ec335", "name": "4d63209836c36ac4505a794a483ec335", "rental_uris": {"ios": "https://dc.lft.to/lastmile_qr_scan", "android": "https://dc.lft.to/lastmile_qr_scan"}}, {"is_disabled": 0, "fusion_lat": 0.0, "lat": 38.90183233333333, "type": "electric_scooter", "lon": -77.02554616666667, "is_reserved": 0, "fusion_lon": 0.0, "bike_id": "b06e23e30686cd923b9910a555c10640", "name": "b06e23e30686cd923b9910a555c10640", "rental_uris": {"ios": "https://dc.lft.to/lastmile_qr_scan", "android": "https://dc.lft.to/lastmile_qr_scan"}}, {"is_disabled": 0, "fusion_lat": 0.0, "lat": 38.90009366666666, "type": "electric_scooter", "lon": -77.00603616666666, "is_reserved": 0, "fusion_lon": 0.0, "bike_id": "c0ffece06b6e9171daaec9b35c1d1d24", "name": "c0ffece06b6e9171daaec9b35c1d1d24", "rental_uris": {"ios": "https://dc.lft.to/lastmile_qr_scan", "android": "https://dc.lft.to/lastmile_qr_scan"}}, {"is_disabled": 0, "fusion_lat": 0.0, "lat": 38.88317133333334, "type": "electric_scooter", "lon": -77.00942683333334, "is_reserved": 0, "fusion_lon": 0.0, "bike_id": "ae328bdb293bd26ecbc8c5b5f296743c", "name": "ae328bdb293bd26ecbc8c5b5f296743c", "rental_uris": {"ios": "https://dc.lft.to/lastmile_qr_scan", "android": "https://dc.lft.to/lastmile_qr_scan"}}, {"is_disabled": 0, "fusion_lat": 0.0, "lat": 38.90982833333333, "type": "electric_scooter", "lon": -77.04873083333334, "is_reserved": 0, "fusion_lon": 0.0, "bike_id": "071026515819f5baaad31c4ac5713b92", "name": "071026515819f5baaad31c4ac5713b92", "rental_uris": {"ios": "https://dc.lft.to/lastmile_qr_scan", "android": "https://dc.lft.to/lastmile_qr_scan"}}, {"is_disabled": 0, "fusion_lat": 0.0, "lat": 38.899942833333334, "type": "electric_scooter", "lon": -77.0402495, "is_reserved": 0, "fusion_lon": 0.0, "bike_id": "c27a622cf29f7c1a84ad73d23e073f9c", "name": "c27a622cf29f7c1a84ad73d23e073f9c", "rental_uris": {"ios": "https://dc.lft.to/lastmile_qr_scan", "android": "https://dc.lft.to/lastmile_qr_scan"}}, {"is_disabled": 0, "fusion_lat": 0.0, "lat": 38.855065833333335, "type": "electric_bike", "lon": -76.98412233333333, "is_reserved": 0, "fusion_lon": 0.0, "bike_id": "d590f64c5ff95874dbad837eeab9c19a", "name": "d590f64c5ff95874dbad837eeab9c19a", "rental_uris": {"ios": "https://dc.lft.to/lastmile_qr_scan", "android": "https://dc.lft.to/lastmile_qr_scan"}}, {"is_disabled": 0, "fusion_lat": 0.0, "lat": 38.9229945, "type": "electric_scooter", "lon": -77.041449, "is_reserved": 0, "fusion_lon": 0.0, "bike_id": "93fdfb04ea107766030da11c535db477", "name": "93fdfb04ea107766030da11c535db477", "rental_uris": {"ios": "https://dc.lft.to/lastmile_qr_scan", "android": "https://dc.lft.to/lastmile_qr_scan"}}, {"is_disabled": 0, "fusion_lat": 0.0, "lat": 38.90554816666667, "type": "electric_scooter", "lon": -77.0465415, "is_reserved": 0, "fusion_lon": 0.0, "bike_id": "e4d529fd32d873a330b8b6cd62d65a9a", "name": "e4d529fd32d873a330b8b6cd62d65a9a", "rental_uris": {"ios": "https://dc.lft.to/lastmile_qr_scan", "android": "https://dc.lft.to/lastmile_qr_scan"}}, {"is_disabled": 0, "fusion_lat": 0.0, "lat": 38.897580166666664, "type": "electric_scooter", "lon": -76.94184533333333, "is_reserved": 0, "fusion_lon": 0.0, "bike_id": "8042747bae6517fa0e4bc6d12696e72d", "name": "8042747bae6517fa0e4bc6d12696e72d", "rental_uris": {"ios": "https://dc.lft.to/lastmile_qr_scan", "android": "https://dc.lft.to/lastmile_qr_scan"}}, {"is_disabled": 0, "fusion_lat": 0.0, "lat": 38.900125333333335, "type": "electric_scooter", "lon": -77.03364566666667, "is_reserved": 0, "fusion_lon": 0.0, "bike_id": "f862c4058cbd67b6a62ffe459e805047", "name": "f862c4058cbd67b6a62ffe459e805047", "rental_uris": {"ios": "https://dc.lft.to/lastmile_qr_scan", "android": "https://dc.lft.to/lastmile_qr_scan"}}, {"is_disabled": 0, "fusion_lat": 0.0, "lat": 38.925836333333336, "type": "electric_scooter", "lon": -77.050565, "is_reserved": 0, "fusion_lon": 0.0, "bike_id": "94777f97d632dddb25188a680653b7fc", "name": "94777f97d632dddb25188a680653b7fc", "rental_uris": {"ios": "https://dc.lft.to/lastmile_qr_scan", "android": "https://dc.lft.to/lastmile_qr_scan"}}, {"is_disabled": 0, "fusion_lat": 0.0, "lat": 38.90041033333333, "type": "electric_scooter", "lon": -76.92477466666666, "is_reserved": 0, "fusion_lon": 0.0, "bike_id": "82cdee3960b9a675c6f7be328e22661f", "name": "82cdee3960b9a675c6f7be328e22661f", "rental_uris": {"ios": "https://dc.lft.to/lastmile_qr_scan", "android": "https://dc.lft.to/lastmile_qr_scan"}}, {"is_disabled": 0, "fusion_lat": 0.0, "lat": 38.884322833333336, "type": "electric_scooter", "lon": -76.9576095, "is_reserved": 0, "fusion_lon": 0.0, "bike_id": "cd1ab4e0c1fb762d9029ce23d707aae4", "name": "cd1ab4e0c1fb762d9029ce23d707aae4", "rental_uris": {"ios": "https://dc.lft.to/lastmile_qr_scan", "android": "https://dc.lft.to/lastmile_qr_scan"}}, {"is_disabled": 0, "fusion_lat": 0.0, "lat": 38.87915483333333, "type": "electric_scooter", "lon": -77.02152416666667, "is_reserved": 0, "fusion_lon": 0.0, "bike_id": "e30a46021b5a98504645214ad7f51337", "name": "e30a46021b5a98504645214ad7f51337", "rental_uris": {"ios": "https://dc.lft.to/lastmile_qr_scan", "android": "https://dc.lft.to/lastmile_qr_scan"}}, {"is_disabled": 0, "fusion_lat": 0.0, "lat": 38.85795016666667, "type": "electric_bike", "lon": -77.099573, "is_reserved": 0, "fusion_lon": 0.0, "bike_id": "122ebc1362353aedc79e80f083bebab1", "name": "122ebc1362353aedc79e80f083bebab1", "rental_uris": {"ios": "https://dc.lft.to/lastmile_qr_scan", "android": "https://dc.lft.to/lastmile_qr_scan"}}, {"is_disabled": 0, "fusion_lat": 0.0, "lat": 38.909494333333335, "type": "electric_scooter", "lon": -77.02404616666666, "is_reserved": 0, "fusion_lon": 0.0, "bike_id": "e7001d3dcbdc3709aa8bdcbd3fd43abc", "name": "e7001d3dcbdc3709aa8bdcbd3fd43abc", "rental_uris": {"ios": "https://dc.lft.to/lastmile_qr_scan", "android": "https://dc.lft.to/lastmile_qr_scan"}}, {"is_disabled": 0, "fusion_lat": 0.0, "lat": 38.911601, "type": "electric_scooter", "lon": -77.02004983333333, "is_reserved": 0, "fusion_lon": 0.0, "bike_id": "4742565bb4bfb3a5715f8c7926fb8046", "name": "4742565bb4bfb3a5715f8c7926fb8046", "rental_uris": {"ios": "https://dc.lft.to/lastmile_qr_scan", "android": "https://dc.lft.to/lastmile_qr_scan"}}, {"is_disabled": 0, "fusion_lat": 0.0, "lat": 38.931218666666666, "type": "electric_scooter", "lon": -77.0208935, "is_reserved": 0, "fusion_lon": 0.0, "bike_id": "857bf792fa50f67c1fa7f6a93481be0d", "name": "857bf792fa50f67c1fa7f6a93481be0d", "rental_uris": {"ios": "https://dc.lft.to/lastmile_qr_scan", "android": "https://dc.lft.to/lastmile_qr_scan"}}, {"is_disabled": 0, "fusion_lat": 0.0, "lat": 38.89750766666667, "type": "electric_scooter", "lon": -77.0216805, "is_reserved": 0, "fusion_lon": 0.0, "bike_id": "5908a38c7de3c2885634f7300b26ff09", "name": "5908a38c7de3c2885634f7300b26ff09", "rental_uris": {"ios": "https://dc.lft.to/lastmile_qr_scan", "android": "https://dc.lft.to/lastmile_qr_scan"}}, {"is_disabled": 0, "fusion_lat": 0.0, "lat": 38.916645833333334, "type": "electric_scooter", "lon": -77.02707516666666, "is_reserved": 0, "fusion_lon": 0.0, "bike_id": "5b8ab5408115eb70352c537adf54bf0e", "name": "5b8ab5408115eb70352c537adf54bf0e", "rental_uris": {"ios": "https://dc.lft.to/lastmile_qr_scan", "android": "https://dc.lft.to/lastmile_qr_scan"}}, {"is_disabled": 0, "fusion_lat": 0.0, "lat": 38.909738, "type": "electric_scooter", "lon": -77.03865266666666, "is_reserved": 0, "fusion_lon": 0.0, "bike_id": "f8d775d3a3255863dfbc8c9514ca1343", "name": "f8d775d3a3255863dfbc8c9514ca1343", "rental_uris": {"ios": "https://dc.lft.to/lastmile_qr_scan", "android": "https://dc.lft.to/lastmile_qr_scan"}}, {"is_disabled": 0, "fusion_lat": 0.0, "lat": 38.92367316666667, "type": "electric_scooter", "lon": -77.0502765, "is_reserved": 0, "fusion_lon": 0.0, "bike_id": "c43d8ca1cf5de2e3674e3289eddc312d", "name": "c43d8ca1cf5de2e3674e3289eddc312d", "rental_uris": {"ios": "https://dc.lft.to/lastmile_qr_scan", "android": "https://dc.lft.to/lastmile_qr_scan"}}, {"is_disabled": 0, "fusion_lat": 0.0, "lat": 38.94017783333334, "type": "electric_scooter", "lon": -77.07174283333333, "is_reserved": 0, "fusion_lon": 0.0, "bike_id": "9895f568aaffb48791868c18fd65c104", "name": "9895f568aaffb48791868c18fd65c104", "rental_uris": {"ios": "https://dc.lft.to/lastmile_qr_scan", "android": "https://dc.lft.to/lastmile_qr_scan"}}, {"is_disabled": 0, "fusion_lat": 0.0, "lat": 38.90491733333333, "type": "electric_scooter", "lon": -77.060168, "is_reserved": 0, "fusion_lon": 0.0, "bike_id": "019b1375f181ea69d94ed6433a52fbef", "name": "019b1375f181ea69d94ed6433a52fbef", "rental_uris": {"ios": "https://dc.lft.to/lastmile_qr_scan", "android": "https://dc.lft.to/lastmile_qr_scan"}}, {"is_disabled": 0, "fusion_lat": 0.0, "lat": 38.89013083333333, "type": "electric_scooter", "lon": -76.937502, "is_reserved": 0, "fusion_lon": 0.0, "bike_id": "7974438b3f9531203c22e21ddab72046", "name": "7974438b3f9531203c22e21ddab72046", "rental_uris": {"ios": "https://dc.lft.to/lastmile_qr_scan", "android": "https://dc.lft.to/lastmile_qr_scan"}}, {"is_disabled": 0, "fusion_lat": 0.0, "lat": 38.908367, "type": "electric_scooter", "lon": -77.02695133333333, "is_reserved": 0, "fusion_lon": 0.0, "bike_id": "9ebf960426d9e83345c0b297d6a29e44", "name": "9ebf960426d9e83345c0b297d6a29e44", "rental_uris": {"ios": "https://dc.lft.to/lastmile_qr_scan", "android": "https://dc.lft.to/lastmile_qr_scan"}}, {"is_disabled": 0, "fusion_lat": 0.0, "lat": 38.91784966666667, "type": "electric_scooter", "lon": -77.02310633333333, "is_reserved": 0, "fusion_lon": 0.0, "bike_id": "cbdc6e6f4c5557fcfcdd5a49b38b16f5", "name": "cbdc6e6f4c5557fcfcdd5a49b38b16f5", "rental_uris": {"ios": "https://dc.lft.to/lastmile_qr_scan", "android": "https://dc.lft.to/lastmile_qr_scan"}}, {"is_disabled": 0, "fusion_lat": 0.0, "lat": 38.874960333333334, "type": "electric_scooter", "lon": -76.99800083333334, "is_reserved": 0, "fusion_lon": 0.0, "bike_id": "6d562dd77b043bb327d923f2dbd59bb3", "name": "6d562dd77b043bb327d923f2dbd59bb3", "rental_uris": {"ios": "https://dc.lft.to/lastmile_qr_scan", "android": "https://dc.lft.to/lastmile_qr_scan"}}, {"is_disabled": 0, "fusion_lat": 0.0, "lat": 38.92415183333333, "type": "electric_scooter", "lon": -77.02243516666667, "is_reserved": 0, "fusion_lon": 0.0, "bike_id": "699bea56bb74b17c09b42e77c74a9883", "name": "699bea56bb74b17c09b42e77c74a9883", "rental_uris": {"ios": "https://dc.lft.to/lastmile_qr_scan", "android": "https://dc.lft.to/lastmile_qr_scan"}}, {"is_disabled": 0, "fusion_lat": 0.0, "lat": 38.8990005, "type": "electric_scooter", "lon": -76.93359966666667, "is_reserved": 0, "fusion_lon": 0.0, "bike_id": "e57e19c9dbb902ed1c403feab5801a9d", "name": "e57e19c9dbb902ed1c403feab5801a9d", "rental_uris": {"ios": "https://dc.lft.to/lastmile_qr_scan", "android": "https://dc.lft.to/lastmile_qr_scan"}}, {"is_disabled": 0, "fusion_lat": 0.0, "lat": 38.891949333333336, "type": "electric_scooter", "lon": -77.02380133333334, "is_reserved": 0, "fusion_lon": 0.0, "bike_id": "90bb9d1e33ad1be3821707fd8fe89ec6", "name": "90bb9d1e33ad1be3821707fd8fe89ec6", "rental_uris": {"ios": "https://dc.lft.to/lastmile_qr_scan", "android": "https://dc.lft.to/lastmile_qr_scan"}}, {"is_disabled": 0, "fusion_lat": 0.0, "lat": 38.85487583333333, "type": "electric_bike", "lon": -77.116069, "is_reserved": 0, "fusion_lon": 0.0, "bike_id": "f3398cf45b3d58097dd82d63fa284c30", "name": "f3398cf45b3d58097dd82d63fa284c30", "rental_uris": {"ios": "https://dc.lft.to/lastmile_qr_scan", "android": "https://dc.lft.to/lastmile_qr_scan"}}, {"is_disabled": 0, "fusion_lat": 0.0, "lat": 38.904089, "type": "electric_scooter", "lon": -77.02081233333334, "is_reserved": 0, "fusion_lon": 0.0, "bike_id": "4bbb0b749b8378906cf557432f42955f", "name": "4bbb0b749b8378906cf557432f42955f", "rental_uris": {"ios": "https://dc.lft.to/lastmile_qr_scan", "android": "https://dc.lft.to/lastmile_qr_scan"}}, {"is_disabled": 0, "fusion_lat": 0.0, "lat": 38.858098166666664, "type": "electric_scooter", "lon": -76.989941, "is_reserved": 0, "fusion_lon": 0.0, "bike_id": "4498c7e657e30f1e4bfafe8c3a0a5f7e", "name": "4498c7e657e30f1e4bfafe8c3a0a5f7e", "rental_uris": {"ios": "https://dc.lft.to/lastmile_qr_scan", "android": "https://dc.lft.to/lastmile_qr_scan"}}, {"is_disabled": 0, "fusion_lat": 0.0, "lat": 38.885182666666665, "type": "electric_scooter", "lon": -77.03350583333334, "is_reserved": 0, "fusion_lon": 0.0, "bike_id": "7ebe32214d96abcbaec8b88d6dfe79e3", "name": "7ebe32214d96abcbaec8b88d6dfe79e3", "rental_uris": {"ios": "https://dc.lft.to/lastmile_qr_scan", "android": "https://dc.lft.to/lastmile_qr_scan"}}, {"is_disabled": 0, "fusion_lat": 0.0, "lat": 38.901922666666664, "type": "electric_scooter", "lon": -77.02374566666667, "is_reserved": 0, "fusion_lon": 0.0, "bike_id": "1edf9918189522602dc298517e2b2c6e", "name": "1edf9918189522602dc298517e2b2c6e", "rental_uris": {"ios": "https://dc.lft.to/lastmile_qr_scan", "android": "https://dc.lft.to/lastmile_qr_scan"}}, {"is_disabled": 0, "fusion_lat": 0.0, "lat": 38.9141595, "type": "electric_scooter", "lon": -77.01962983333334, "is_reserved": 0, "fusion_lon": 0.0, "bike_id": "c60ec887429c70f3638246ce7205aa7e", "name": "c60ec887429c70f3638246ce7205aa7e", "rental_uris": {"ios": "https://dc.lft.to/lastmile_qr_scan", "android": "https://dc.lft.to/lastmile_qr_scan"}}, {"is_disabled": 0, "fusion_lat": 0.0, "lat": 38.91909666666667, "type": "electric_scooter", "lon": -77.04626533333334, "is_reserved": 0, "fusion_lon": 0.0, "bike_id": "96a137ba45dc28cf595cd42f966cef56", "name": "96a137ba45dc28cf595cd42f966cef56", "rental_uris": {"ios": "https://dc.lft.to/lastmile_qr_scan", "android": "https://dc.lft.to/lastmile_qr_scan"}}, {"is_disabled": 0, "fusion_lat": 0.0, "lat": 38.857922, "type": "electric_bike", "lon": -77.09964233333334, "is_reserved": 0, "fusion_lon": 0.0, "bike_id": "e922be45f817d19adde986836dddc91c", "name": "e922be45f817d19adde986836dddc91c", "rental_uris": {"ios": "https://dc.lft.to/lastmile_qr_scan", "android": "https://dc.lft.to/lastmile_qr_scan"}}, {"is_disabled": 0, "fusion_lat": 0.0, "lat": 38.935829, "type": "electric_scooter", "lon": -77.03513166666667, "is_reserved": 0, "fusion_lon": 0.0, "bike_id": "40e32631a2d437a1f0a66b98e8c0d7d2", "name": "40e32631a2d437a1f0a66b98e8c0d7d2", "rental_uris": {"ios": "https://dc.lft.to/lastmile_qr_scan", "android": "https://dc.lft.to/lastmile_qr_scan"}}, {"is_disabled": 0, "fusion_lat": 0.0, "lat": 38.876613166666665, "type": "electric_scooter", "lon": -77.00426066666667, "is_reserved": 0, "fusion_lon": 0.0, "bike_id": "36db61cc0a1d2bab7697e5a7655d85e8", "name": "36db61cc0a1d2bab7697e5a7655d85e8", "rental_uris": {"ios": "https://dc.lft.to/lastmile_qr_scan", "android": "https://dc.lft.to/lastmile_qr_scan"}}, {"is_disabled": 0, "fusion_lat": 0.0, "lat": 38.917107666666666, "type": "electric_scooter", "lon": -77.00890333333334, "is_reserved": 0, "fusion_lon": 0.0, "bike_id": "2928aefc0cdbc865b2f96f440ec632fe", "name": "2928aefc0cdbc865b2f96f440ec632fe", "rental_uris": {"ios": "https://dc.lft.to/lastmile_qr_scan", "android": "https://dc.lft.to/lastmile_qr_scan"}}, {"is_disabled": 0, "fusion_lat": 0.0, "lat": 38.939076666666665, "type": "electric_scooter", "lon": -77.06039433333333, "is_reserved": 0, "fusion_lon": 0.0, "bike_id": "9c207e91ad8265d1a83254e77b239b9c", "name": "9c207e91ad8265d1a83254e77b239b9c", "rental_uris": {"ios": "https://dc.lft.to/lastmile_qr_scan", "android": "https://dc.lft.to/lastmile_qr_scan"}}, {"is_disabled": 0, "fusion_lat": 0.0, "lat": 38.86375833333334, "type": "electric_scooter", "lon": -76.990614, "is_reserved": 0, "fusion_lon": 0.0, "bike_id": "b6fd20c238c17c3933639c45f830dcf3", "name": "b6fd20c238c17c3933639c45f830dcf3", "rental_uris": {"ios": "https://dc.lft.to/lastmile_qr_scan", "android": "https://dc.lft.to/lastmile_qr_scan"}}, {"is_disabled": 0, "fusion_lat": 0.0, "lat": 38.9526615, "type": "electric_bike", "lon": -77.0698865, "is_reserved": 0, "fusion_lon": 0.0, "bike_id": "4f460e7888c04b8f35da919d7b80226d", "name": "4f460e7888c04b8f35da919d7b80226d", "rental_uris": {"ios": "https://dc.lft.to/lastmile_qr_scan", "android": "https://dc.lft.to/lastmile_qr_scan"}}, {"is_disabled": 0, "fusion_lat": 0.0, "lat": 38.9121075, "type": "electric_scooter", "lon": -77.03839883333333, "is_reserved": 0, "fusion_lon": 0.0, "bike_id": "123a02c30c0da056434b6b016b027b07", "name": "123a02c30c0da056434b6b016b027b07", "rental_uris": {"ios": "https://dc.lft.to/lastmile_qr_scan", "android": "https://dc.lft.to/lastmile_qr_scan"}}, {"is_disabled": 0, "fusion_lat": 0.0, "lat": 38.905747166666664, "type": "electric_scooter", "lon": -77.0060145, "is_reserved": 0, "fusion_lon": 0.0, "bike_id": "6dc31b975e2100d8821d247bcad0864b", "name": "6dc31b975e2100d8821d247bcad0864b", "rental_uris": {"ios": "https://dc.lft.to/lastmile_qr_scan", "android": "https://dc.lft.to/lastmile_qr_scan"}}, {"is_disabled": 0, "fusion_lat": 0.0, "lat": 38.865150166666666, "type": "electric_scooter", "lon": -76.990412, "is_reserved": 0, "fusion_lon": 0.0, "bike_id": "acb94cc43a304329bb6a19eaa3dc3686", "name": "acb94cc43a304329bb6a19eaa3dc3686", "rental_uris": {"ios": "https://dc.lft.to/lastmile_qr_scan", "android": "https://dc.lft.to/lastmile_qr_scan"}}, {"is_disabled": 0, "fusion_lat": 0.0, "lat": 38.939776333333334, "type": "electric_scooter", "lon": -77.03145233333333, "is_reserved": 0, "fusion_lon": 0.0, "bike_id": "78fc43824a0f8c771ba79414c1b6a8fd", "name": "78fc43824a0f8c771ba79414c1b6a8fd", "rental_uris": {"ios": "https://dc.lft.to/lastmile_qr_scan", "android": "https://dc.lft.to/lastmile_qr_scan"}}, {"is_disabled": 0, "fusion_lat": 0.0, "lat": 38.884472833333334, "type": "electric_scooter", "lon": -76.95095283333333, "is_reserved": 0, "fusion_lon": 0.0, "bike_id": "1582c356321698fa517792a5a189a0bd", "name": "1582c356321698fa517792a5a189a0bd", "rental_uris": {"ios": "https://dc.lft.to/lastmile_qr_scan", "android": "https://dc.lft.to/lastmile_qr_scan"}}, {"is_disabled": 0, "fusion_lat": 0.0, "lat": 38.89683016666667, "type": "electric_scooter", "lon": -76.99618033333333, "is_reserved": 0, "fusion_lon": 0.0, "bike_id": "cf9f0c12394340bb6cb18daf3a8da807", "name": "cf9f0c12394340bb6cb18daf3a8da807", "rental_uris": {"ios": "https://dc.lft.to/lastmile_qr_scan", "android": "https://dc.lft.to/lastmile_qr_scan"}}, {"is_disabled": 0, "fusion_lat": 0.0, "lat": 38.880453833333334, "type": "electric_scooter", "lon": -76.98626983333334, "is_reserved": 0, "fusion_lon": 0.0, "bike_id": "1bb0c0e5a553dae66f864938f7fd79aa", "name": "1bb0c0e5a553dae66f864938f7fd79aa", "rental_uris": {"ios": "https://dc.lft.to/lastmile_qr_scan", "android": "https://dc.lft.to/lastmile_qr_scan"}}, {"is_disabled": 0, "fusion_lat": 0.0, "lat": 38.892205, "type": "electric_scooter", "lon": -77.04196466666667, "is_reserved": 0, "fusion_lon": 0.0, "bike_id": "abfe07315455687ea6031e79c335b777", "name": "abfe07315455687ea6031e79c335b777", "rental_uris": {"ios": "https://dc.lft.to/lastmile_qr_scan", "android": "https://dc.lft.to/lastmile_qr_scan"}}, {"is_disabled": 0, "fusion_lat": 0.0, "lat": 38.928773, "type": "electric_scooter", "lon": -77.01378116666666, "is_reserved": 0, "fusion_lon": 0.0, "bike_id": "bdf80dcc28cacaf1b459b5061410733e", "name": "bdf80dcc28cacaf1b459b5061410733e", "rental_uris": {"ios": "https://dc.lft.to/lastmile_qr_scan", "android": "https://dc.lft.to/lastmile_qr_scan"}}, {"is_disabled": 0, "fusion_lat": 0.0, "lat": 38.915564833333335, "type": "electric_scooter", "lon": -77.030383, "is_reserved": 0, "fusion_lon": 0.0, "bike_id": "c7fbe5de5360dd2cf14dcc57957731e8", "name": "c7fbe5de5360dd2cf14dcc57957731e8", "rental_uris": {"ios": "https://dc.lft.to/lastmile_qr_scan", "android": "https://dc.lft.to/lastmile_qr_scan"}}, {"is_disabled": 0, "fusion_lat": 0.0, "lat": 38.899149666666666, "type": "electric_scooter", "lon": -76.9338415, "is_reserved": 0, "fusion_lon": 0.0, "bike_id": "c2fea339c4409a0172f6bb619f5d29d5", "name": "c2fea339c4409a0172f6bb619f5d29d5", "rental_uris": {"ios": "https://dc.lft.to/lastmile_qr_scan", "android": "https://dc.lft.to/lastmile_qr_scan"}}, {"is_disabled": 0, "fusion_lat": 0.0, "lat": 38.90719566666667, "type": "electric_scooter", "lon": -77.02964633333333, "is_reserved": 0, "fusion_lon": 0.0, "bike_id": "db93f2c2507cc991618af55e675d7cea", "name": "db93f2c2507cc991618af55e675d7cea", "rental_uris": {"ios": "https://dc.lft.to/lastmile_qr_scan", "android": "https://dc.lft.to/lastmile_qr_scan"}}, {"is_disabled": 0, "fusion_lat": 0.0, "lat": 38.89502916666667, "type": "electric_scooter", "lon": -77.02289383333333, "is_reserved": 0, "fusion_lon": 0.0, "bike_id": "be7288e478ab7f949a51aacab2714018", "name": "be7288e478ab7f949a51aacab2714018", "rental_uris": {"ios": "https://dc.lft.to/lastmile_qr_scan", "android": "https://dc.lft.to/lastmile_qr_scan"}}, {"is_disabled": 0, "fusion_lat": 0.0, "lat": 38.853184166666665, "type": "electric_bike", "lon": -76.98007683333333, "is_reserved": 0, "fusion_lon": 0.0, "bike_id": "dfa4116c2e7b9091e35f44f6a5335b31", "name": "dfa4116c2e7b9091e35f44f6a5335b31", "rental_uris": {"ios": "https://dc.lft.to/lastmile_qr_scan", "android": "https://dc.lft.to/lastmile_qr_scan"}}, {"is_disabled": 0, "fusion_lat": 0.0, "lat": 38.91763483333333, "type": "electric_scooter", "lon": -77.03672233333333, "is_reserved": 0, "fusion_lon": 0.0, "bike_id": "1cc3fa466945e53f0bd87a29ad7d4013", "name": "1cc3fa466945e53f0bd87a29ad7d4013", "rental_uris": {"ios": "https://dc.lft.to/lastmile_qr_scan", "android": "https://dc.lft.to/lastmile_qr_scan"}}, {"is_disabled": 0, "fusion_lat": 0.0, "lat": 38.870828333333336, "type": "electric_bike", "lon": -77.012117, "is_reserved": 0, "fusion_lon": 0.0, "bike_id": "8a76796c1f46258eec0818eb0903ebfe", "name": "8a76796c1f46258eec0818eb0903ebfe", "rental_uris": {"ios": "https://dc.lft.to/lastmile_qr_scan", "android": "https://dc.lft.to/lastmile_qr_scan"}}, {"is_disabled": 0, "fusion_lat": 0.0, "lat": 38.92234833333333, "type": "electric_scooter", "lon": -77.03092133333334, "is_reserved": 0, "fusion_lon": 0.0, "bike_id": "01e11ec61b0d60bd83465af897678c22", "name": "01e11ec61b0d60bd83465af897678c22", "rental_uris": {"ios": "https://dc.lft.to/lastmile_qr_scan", "android": "https://dc.lft.to/lastmile_qr_scan"}}, {"is_disabled": 0, "fusion_lat": 0.0, "lat": 38.877767166666665, "type": "electric_bike", "lon": -77.00722833333333, "is_reserved": 0, "fusion_lon": 0.0, "bike_id": "b616cbbd58a5d64828f93037066cba6f", "name": "b616cbbd58a5d64828f93037066cba6f", "rental_uris": {"ios": "https://dc.lft.to/lastmile_qr_scan", "android": "https://dc.lft.to/lastmile_qr_scan"}}, {"is_disabled": 0, "fusion_lat": 0.0, "lat": 38.9168235, "type": "electric_scooter", "lon": -77.02951466666667, "is_reserved": 0, "fusion_lon": 0.0, "bike_id": "466ff316caabb6db885109dd36c96507", "name": "466ff316caabb6db885109dd36c96507", "rental_uris": {"ios": "https://dc.lft.to/lastmile_qr_scan", "android": "https://dc.lft.to/lastmile_qr_scan"}}, {"is_disabled": 0, "fusion_lat": 0.0, "lat": 38.89845233333333, "type": "electric_scooter", "lon": -76.94477966666666, "is_reserved": 0, "fusion_lon": 0.0, "bike_id": "dd0912f905ad4c8389cc1985c5651128", "name": "dd0912f905ad4c8389cc1985c5651128", "rental_uris": {"ios": "https://dc.lft.to/lastmile_qr_scan", "android": "https://dc.lft.to/lastmile_qr_scan"}}, {"is_disabled": 0, "fusion_lat": 0.0, "lat": 38.95014366666667, "type": "electric_bike", "lon": -77.01556583333333, "is_reserved": 0, "fusion_lon": 0.0, "bike_id": "f5a276c1d605416f1dc395a5935e230f", "name": "f5a276c1d605416f1dc395a5935e230f", "rental_uris": {"ios": "https://dc.lft.to/lastmile_qr_scan", "android": "https://dc.lft.to/lastmile_qr_scan"}}, {"is_disabled": 0, "fusion_lat": 0.0, "lat": 38.902541166666666, "type": "electric_scooter", "lon": -77.04303, "is_reserved": 0, "fusion_lon": 0.0, "bike_id": "8ada04cf48fde143512b4fdda64cf987", "name": "8ada04cf48fde143512b4fdda64cf987", "rental_uris": {"ios": "https://dc.lft.to/lastmile_qr_scan", "android": "https://dc.lft.to/lastmile_qr_scan"}},