{"data": {"bikes": [{"rental_uris": {"ios": "https://dc.lft.to/lastmile_qr_scan", "android": "https://dc.lft.to/lastmile_qr_scan"}, "lon": -77.04565366666667, "type": "electric_scooter", "fusion_lat": 0.0, "lat": 38.904109, "name": "532be1878b54ac4866fada6c979dc518", "fusion_lon": 0.0, "bike_id": "532be1878b54ac4866fada6c979dc518", "is_disabled": 0, "is_reserved": 0}, {"rental_uris": {"ios": "https://dc.lft.to/lastmile_qr_scan", "android": "https://dc.lft.to/lastmile_qr_scan"}, "lon": -77.027668, "type": "electric_scooter", "fusion_lat": 0.0, "lat": 38.91711433333333, "name": "17834352f4263b78da790e5d444ad8ee", "fusion_lon": 0.0, "bike_id": "17834352f4263b78da790e5d444ad8ee", "is_disabled": 0, "is_reserved": 0}, {"rental_uris": {"ios": "https://dc.lft.to/lastmile_qr_scan", "android": "https://dc.lft.to/lastmile_qr_scan"}, "lon": -77.04802466666666, "type": "electric_scooter", "fusion_lat": 0.0, "lat": 38.897504, "name": "0f40bcadd816eec907629dc7f714841d", "fusion_lon": 0.0, "bike_id": "0f40bcadd816eec907629dc7f714841d", "is_disabled": 0, "is_reserved": 0}, {"rental_uris": {"ios": "https://dc.lft.to/lastmile_qr_scan", "android": "https://dc.lft.to/lastmile_qr_scan"}, "lon": -77.0120905, "type": "electric_scooter", "fusion_lat": 0.0, "lat": 38.92031866666667, "name": "d6bfafbb0ce0829ddf104346678fe9b6", "fusion_lon": 0.0, "bike_id": "d6bfafbb0ce0829ddf104346678fe9b6", "is_disabled": 0, "is_reserved": 0}, {"rental_uris": {"ios": "https://dc.lft.to/lastmile_qr_scan", "android": "https://dc.lft.to/lastmile_qr_scan"}, "lon": -77.02394733333334, "type": "electric_scooter", "fusion_lat": 0.0, "lat": 38.919621, "name": "eb3aff60d6c7b370dea6845521b4d9fe", "fusion_lon": 0.0, "bike_id": "eb3aff60d6c7b370dea6845521b4d9fe", "is_disabled": 0, "is_reserved": 0}, {"rental_uris": {"ios": "https://dc.lft.to/lastmile_qr_scan", "android": "https://dc.lft.to/lastmile_qr_scan"}, "lon": -76.99153416666667, "type": "electric_scooter", "fusion_lat": 0.0, "lat": 38.89341183333333, "name": "dfd6d02b214f5bbec59592290d8fe802", "fusion_lon": 0.0, "bike_id": "dfd6d02b214f5bbec59592290d8fe802", "is_disabled": 0, "is_reserved": 0}, {"rental_uris": {"ios": "https://dc.lft.to/lastmile_qr_scan", "android": "https://dc.lft.to/lastmile_qr_scan"}, "lon": -77.0551935, "type": "electric_scooter", "fusion_lat": 0.0, "lat": 38.9106345, "name": "9ba4bf65af6d9c3c8801df16dfb8e6cf", "fusion_lon": 0.0, "bike_id": "9ba4bf65af6d9c3c8801df16dfb8e6cf", "is_disabled": 0, "is_reserved": 0}, {"rental_uris": {"ios": "https://dc.lft.to/lastmile_qr_scan", "android": "https://dc.lft.to/lastmile_qr_scan"}, "lon": -77.02973683333333, "type": "electric_scooter", "fusion_lat": 0.0, "lat": 38.916300666666665, "name": "52a6202ac2e0701d01402a7ccdba2417", "fusion_lon": 0.0, "bike_id": "52a6202ac2e0701d01402a7ccdba2417", "is_disabled": 0, "is_reserved": 0}, {"rental_uris": {"ios": "https://dc.lft.to/lastmile_qr_scan", "android": "https://dc.lft.to/lastmile_qr_scan"}, "lon": -77.0389905, "type": "electric_scooter", "fusion_lat": 0.0, "lat": 38.91842283333333, "name": "395cfe263c9c48b8c610dfbfb00d92b1", "fusion_lon": 0.0, "bike_id": "395cfe263c9c48b8c610dfbfb00d92b1", "is_disabled": 0, "is_reserved": 0}, {"rental_uris": {"ios": "https://dc.lft.to/lastmile_qr_scan", "android": "https://dc.lft.to/lastmile_qr_scan"}, "lon": -76.984435, "type": "electric_scooter", "fusion_lat": 0.0, "lat": 38.914742833333335, "name": "4fce3018019357d5a895fd220d5ff1ab", "fusion_lon": 0.0, "bike_id": "4fce3018019357d5a895fd220d5ff1ab", "is_disabled": 0, "is_reserved": 0}, {"rental_uris": {"ios": "https://dc.lft.to/lastmile_qr_scan", "android": "https://dc.lft.to/lastmile_qr_scan"}, "lon": -76.9980635, "type": "electric_scooter", "fusion_lat": 0.0, "lat": 38.90012133333333, "name": "d8b22cdf82990029cf794823eb779a3a", "fusion_lon": 0.0, "bike_id": "d8b22cdf82990029cf794823eb779a3a", "is_disabled": 0, "is_reserved": 0}, {"rental_uris": {"ios": "https://dc.lft.to/lastmile_qr_scan", "android": "https://dc.lft.to/lastmile_qr_scan"}, "lon": -76.99361783333333, "type": "electric_scooter", "fusion_lat": 0.0, "lat": 38.9004015, "name": "53f5369551d488e2de39ec5de450a752", "fusion_lon": 0.0, "bike_id": "53f5369551d488e2de39ec5de450a752", "is_disabled": 0, "is_reserved": 0}, {"rental_uris": {"ios": "https://dc.lft.to/lastmile_qr_scan", "android": "https://dc.lft.to/lastmile_qr_scan"}, "lon": -77.05758733333333, "type": "electric_scooter", "fusion_lat": 0.0, "lat": 38.924688, "name": "a949f06814b9164d74b66c04a5bdc907", "fusion_lon": 0.0, "bike_id": "a949f06814b9164d74b66c04a5bdc907", "is_disabled": 0, "is_reserved": 0}, {"rental_uris": {"ios": "https://dc.lft.to/lastmile_qr_scan", "android": "https://dc.lft.to/lastmile_qr_scan"}, "lon": -77.02714166666667, "type": "electric_scooter", "fusion_lat": 0.0, "lat": 38.91823616666667, "name": "3128ea68f4dc03d4ed5edb4865350f8b", "fusion_lon": 0.0, "bike_id": "3128ea68f4dc03d4ed5edb4865350f8b", "is_disabled": 0, "is_reserved": 0}, {"rental_uris": {"ios": "https://dc.lft.to/lastmile_qr_scan", "android": "https://dc.lft.to/lastmile_qr_scan"}, "lon": -77.044565, "type": "electric_scooter", "fusion_lat": 0.0, "lat": 38.90580416666667, "name": "3ae244c21dd04228bd92a7a5bc66efa1", "fusion_lon": 0.0, "bike_id": "3ae244c21dd04228bd92a7a5bc66efa1", "is_disabled": 0, "is_reserved": 0}, {"rental_uris": {"ios": "https://dc.lft.to/lastmile_qr_scan", "android": "https://dc.lft.to/lastmile_qr_scan"}, "lon": -77.03450366666667, "type": "electric_scooter", "fusion_lat": 0.0, "lat": 38.90735433333333, "name": "983416285748af711a4b3706438f7af6", "fusion_lon": 0.0, "bike_id": "983416285748af711a4b3706438f7af6", "is_disabled": 0, "is_reserved": 0}, {"rental_uris": {"ios": "https://dc.lft.to/lastmile_qr_scan", "android": "https://dc.lft.to/lastmile_qr_scan"}, "lon": -77.02452183333334, "type": "electric_scooter", "fusion_lat": 0.0, "lat": 38.9024175, "name": "36313210816e4e71c794a76bc99b0b2a", "fusion_lon": 0.0, "bike_id": "36313210816e4e71c794a76bc99b0b2a", "is_disabled": 0, "is_reserved": 0}, {"rental_uris": {"ios": "https://dc.lft.to/lastmile_qr_scan", "android": "https://dc.lft.to/lastmile_qr_scan"}, "lon": -77.01123233333334, "type": "electric_scooter", "fusion_lat": 0.0, "lat": 38.91182116666667, "name": "426eeb67574aa4c09a77f537b1ccec8c", "fusion_lon": 0.0, "bike_id": "426eeb67574aa4c09a77f537b1ccec8c", "is_disabled": 0, "is_reserved": 0}, {"rental_uris": {"ios": "https://dc.lft.to/lastmile_qr_scan", "android": "https://dc.lft.to/lastmile_qr_scan"}, "lon": -77.04876266666666, "type": "electric_scooter", "fusion_lat": 0.0, "lat": 38.909507166666664, "name": "6032ce7a3da1c78b30ce4b1c938f3396", "fusion_lon": 0.0, "bike_id": "6032ce7a3da1c78b30ce4b1c938f3396", "is_disabled": 0, "is_reserved": 0}, {"rental_uris": {"ios": "https://dc.lft.to/lastmile_qr_scan", "android": "https://dc.lft.to/lastmile_qr_scan"}, "lon": -77.02693316666667, "type": "electric_scooter", "fusion_lat": 0.0, "lat": 38.91862033333334, "name": "7c40e485558b03d968a27b47b48547ba", "fusion_lon": 0.0, "bike_id": "7c40e485558b03d968a27b47b48547ba", "is_disabled": 0, "is_reserved": 0}, {"rental_uris": {"ios": "https://dc.lft.to/lastmile_qr_scan", "android": "https://dc.lft.to/lastmile_qr_scan"}, "lon": -76.89542516666667, "type": "electric_bike", "fusion_lat": 0.0, "lat": 38.94554983333333, "name": "2f2d584b185f157537a7537973d82309", "fusion_lon": 0.0, "bike_id": "2f2d584b185f157537a7537973d82309", "is_disabled": 0, "is_reserved": 0}, {"rental_uris": {"ios": "https://dc.lft.to/lastmile_qr_scan", "android": "https://dc.lft.to/lastmile_qr_scan"}, "lon": -77.02959266666667, "type": "electric_scooter", "fusion_lat": 0.0, "lat": 38.925290833333335, "name": "deda099c6d4ec405032574689408c1fb", "fusion_lon": 0.0, "bike_id": "deda099c6d4ec405032574689408c1fb", "is_disabled": 0, "is_reserved": 0}, {"rental_uris": {"ios": "https://dc.lft.to/lastmile_qr_scan", "android": "https://dc.lft.to/lastmile_qr_scan"}, "lon": -77.02842533333333, "type": "electric_scooter", "fusion_lat": 0.0, "lat": 38.9256975, "name": "7dfbd31c0f10aa2aa209ea3120bcf76c", "fusion_lon": 0.0, "bike_id": "7dfbd31c0f10aa2aa209ea3120bcf76c", "is_disabled": 0, "is_reserved": 0}, {"rental_uris": {"ios": "https://dc.lft.to/lastmile_qr_scan", "android": "https://dc.lft.to/lastmile_qr_scan"}, "lon": -77.0484595, "type": "electric_scooter", "fusion_lat": 0.0, "lat": 38.900817333333336, "name": "40c745de415b4360f9ce3dd4a47d29e4", "fusion_lon": 0.0, "bike_id": "40c745de415b4360f9ce3dd4a47d29e4", "is_disabled": 0, "is_reserved": 0}, {"rental_uris": {"ios": "https://dc.lft.to/lastmile_qr_scan", "android": "https://dc.lft.to/lastmile_qr_scan"}, "lon": -77.05596416666667, "type": "electric_scooter", "fusion_lat": 0.0, "lat": 38.90512783333333, "name": "c70bfe1cba0600565661090dc0697a52", "fusion_lon": 0.0, "bike_id": "c70bfe1cba0600565661090dc0697a52", "is_disabled": 0, "is_reserved": 0}, {"rental_uris": {"ios": "https://dc.lft.to/lastmile_qr_scan", "android": "https://dc.lft.to/lastmile_qr_scan"}, "lon": -77.028527, "type": "electric_scooter", "fusion_lat": 0.0, "lat": 38.95088666666667, "name": "1254c4b34893f348568f6f2dd7f4a897", "fusion_lon": 0.0, "bike_id": "1254c4b34893f348568f6f2dd7f4a897", "is_disabled": 0, "is_reserved": 0}, {"rental_uris": {"ios": "https://dc.lft.to/lastmile_qr_scan", "android": "https://dc.lft.to/lastmile_qr_scan"}, "lon": -77.00432483333333, "type": "electric_scooter", "fusion_lat": 0.0, "lat": 38.904039, "name": "b7bef40dd01145f808da2b3a7a2c322e", "fusion_lon": 0.0, "bike_id": "b7bef40dd01145f808da2b3a7a2c322e", "is_disabled": 0, "is_reserved": 0}, {"rental_uris": {"ios": "https://dc.lft.to/lastmile_qr_scan", "android": "https://dc.lft.to/lastmile_qr_scan"}, "lon": -76.96506333333333, "type": "electric_scooter", "fusion_lat": 0.0, "lat": 38.876462833333335, "name": "0e94c4e8528e790e5a00dbe42f43e6b6", "fusion_lon": 0.0, "bike_id": "0e94c4e8528e790e5a00dbe42f43e6b6", "is_disabled": 0, "is_reserved": 0}, {"rental_uris": {"ios": "https://dc.lft.to/lastmile_qr_scan", "android": "https://dc.lft.to/lastmile_qr_scan"}, "lon": -76.9383135, "type": "electric_scooter", "fusion_lat": 0.0, "lat": 38.89754666666666, "name": "23b4b361201be789c0781f4160bb5f5a", "fusion_lon": 0.0, "bike_id": "23b4b361201be789c0781f4160bb5f5a", "is_disabled": 0, "is_reserved": 0}, {"rental_uris": {"ios": "https://dc.lft.to/lastmile_qr_scan", "android": "https://dc.lft.to/lastmile_qr_scan"}, "lon": -77.03509633333333, "type": "electric_scooter", "fusion_lat": 0.0, "lat": 38.9214965, "name": "e6838b58c3077062cca07dc4cada58dd", "fusion_lon": 0.0, "bike_id": "e6838b58c3077062cca07dc4cada58dd", "is_disabled": 0, "is_reserved": 0}, {"rental_uris": {"ios": "https://dc.lft.to/lastmile_qr_scan", "android": "https://dc.lft.to/lastmile_qr_scan"}, "lon": -77.04355066666666, "type": "electric_scooter", "fusion_lat": 0.0, "lat": 38.92674016666667, "name": "c90aafca7410440add64b9bbd3fa1f8c", "fusion_lon": 0.0, "bike_id": "c90aafca7410440add64b9bbd3fa1f8c", "is_disabled": 0, "is_reserved": 0}, {"rental_uris": {"ios": "https://dc.lft.to/lastmile_qr_scan", "android": "https://dc.lft.to/lastmile_qr_scan"}, "lon": -77.030295, "type": "electric_scooter", "fusion_lat": 0.0, "lat": 38.897594, "name": "d5f8bcc96e59de1aa8be5d0041cef4db", "fusion_lon": 0.0, "bike_id": "d5f8bcc96e59de1aa8be5d0041cef4db", "is_disabled": 0, "is_reserved": 0}, {"rental_uris": {"ios": "https://dc.lft.to/lastmile_qr_scan", "android": "https://dc.lft.to/lastmile_qr_scan"}, "lon": -77.02757083333333, "type": "electric_scooter", "fusion_lat": 0.0, "lat": 38.92312916666667, "name": "89b4f38c8e2708f872d5ea451f607a6e", "fusion_lon": 0.0, "bike_id": "89b4f38c8e2708f872d5ea451f607a6e", "is_disabled": 0, "is_reserved": 0}, {"rental_uris": {"ios": "https://dc.lft.to/lastmile_qr_scan", "android": "https://dc.lft.to/lastmile_qr_scan"}, "lon": -77.047817, "type": "electric_scooter", "fusion_lat": 0.0, "lat": 38.908488, "name": "79d674b8f2eb7722f60d1766a7fe0246", "fusion_lon": 0.0, "bike_id": "79d674b8f2eb7722f60d1766a7fe0246", "is_disabled": 0, "is_reserved": 0}, {"rental_uris": {"ios": "https://dc.lft.to/lastmile_qr_scan", "android": "https://dc.lft.to/lastmile_qr_scan"}, "lon": -76.986832, "type": "electric_scooter", "fusion_lat": 0.0, "lat": 38.882167333333335, "name": "3e581c7675e1f1ed7fe6ee0e98d5509c", "fusion_lon": 0.0, "bike_id": "3e581c7675e1f1ed7fe6ee0e98d5509c", "is_disabled": 0, "is_reserved": 0}, {"rental_uris": {"ios": "https://dc.lft.to/lastmile_qr_scan", "android": "https://dc.lft.to/lastmile_qr_scan"}, "lon": -77.008828, "type": "electric_scooter", "fusion_lat": 0.0, "lat": 38.916784166666666, "name": "03a35ba6a4e73f9ca3dd2e2796b8d598", "fusion_lon": 0.0, "bike_id": "03a35ba6a4e73f9ca3dd2e2796b8d598", "is_disabled": 0, "is_reserved": 0}, {"rental_uris": {"ios": "https://dc.lft.to/lastmile_qr_scan", "android": "https://dc.lft.to/lastmile_qr_scan"}, "lon": -77.00195683333334, "type": "electric_bike", "fusion_lat": 0.0, "lat": 38.8830515, "name": "68c2c467ec5294c7c36f960f41c112e8", "fusion_lon": 0.0, "bike_id": "68c2c467ec5294c7c36f960f41c112e8", "is_disabled": 0, "is_reserved": 0}, {"rental_uris": {"ios": "https://dc.lft.to/lastmile_qr_scan", "android": "https://dc.lft.to/lastmile_qr_scan"}, "lon": -77.03126283333333, "type": "electric_scooter", "fusion_lat": 0.0, "lat": 38.91338066666667, "name": "4df37384347d38bf1eae381be274ec81", "fusion_lon": 0.0, "bike_id": "4df37384347d38bf1eae381be274ec81", "is_disabled": 0, "is_reserved": 0}, {"rental_uris": {"ios": "https://dc.lft.to/lastmile_qr_scan", "android": "https://dc.lft.to/lastmile_qr_scan"}, "lon": -76.976233, "type": "electric_scooter", "fusion_lat": 0.0, "lat": 38.90567983333333, "name": "1f1d35f53a774939764867d96ec73f34", "fusion_lon": 0.0, "bike_id": "1f1d35f53a774939764867d96ec73f34", "is_disabled": 0, "is_reserved": 0}, {"rental_uris": {"ios": "https://dc.lft.to/lastmile_qr_scan", "android": "https://dc.lft.to/lastmile_qr_scan"}, "lon": -77.05208633333334, "type": "electric_scooter", "fusion_lat": 0.0, "lat": 38.924383666666664, "name": "a2ee33dbfa840ec6608c4816c44f0f64", "fusion_lon": 0.0, "bike_id": "a2ee33dbfa840ec6608c4816c44f0f64", "is_disabled": 0, "is_reserved": 0}, {"rental_uris": {"ios": "https://dc.lft.to/lastmile_qr_scan", "android": "https://dc.lft.to/lastmile_qr_scan"}, "lon": -77.02948333333333, "type": "electric_scooter", "fusion_lat": 0.0, "lat": 38.9167215, "name": "57a5696baa8f3ffb5b744853c1dfe282", "fusion_lon": 0.0, "bike_id": "57a5696baa8f3ffb5b744853c1dfe282", "is_disabled": 0, "is_reserved": 0}, {"rental_uris": {"ios": "https://dc.lft.to/lastmile_qr_scan", "android": "https://dc.lft.to/lastmile_qr_scan"}, "lon": -77.05883566666667, "type": "electric_scooter", "fusion_lat": 0.0, "lat": 38.93636433333333, "name": "f9402b3aeacce164cc9c9b31f232a43a", "fusion_lon": 0.0, "bike_id": "f9402b3aeacce164cc9c9b31f232a43a", "is_disabled": 0, "is_reserved": 0}, {"rental_uris": {"ios": "https://dc.lft.to/lastmile_qr_scan", "android": "https://dc.lft.to/lastmile_qr_scan"}, "lon": -76.99485816666666, "type": "electric_bike", "fusion_lat": 0.0, "lat": 38.89990316666667, "name": "345f3f05a7ecfe636b35ba2a40b3a268", "fusion_lon": 0.0, "bike_id": "345f3f05a7ecfe636b35ba2a40b3a268", "is_disabled": 0, "is_reserved": 0}, {"rental_uris": {"ios": "https://dc.lft.to/lastmile_qr_scan", "android": "https://dc.lft.to/lastmile_qr_scan"}, "lon": -77.00218666666666, "type": "electric_scooter", "fusion_lat": 0.0, "lat": 38.911875, "name": "9b39b2517c665b3947c1887de7b93038", "fusion_lon": 0.0, "bike_id": "9b39b2517c665b3947c1887de7b93038", "is_disabled": 0, "is_reserved": 0}, {"rental_uris": {"ios": "https://dc.lft.to/lastmile_qr_scan", "android": "https://dc.lft.to/lastmile_qr_scan"}, "lon": -76.98311366666667, "type": "electric_scooter", "fusion_lat": 0.0, "lat": 38.86888883333334, "name": "8444905a7d9acb9d85c803e6c77b7d77", "fusion_lon": 0.0, "bike_id": "8444905a7d9acb9d85c803e6c77b7d77", "is_disabled": 0, "is_reserved": 0}, {"rental_uris": {"ios": "https://dc.lft.to/lastmile_qr_scan", "android": "https://dc.lft.to/lastmile_qr_scan"}, "lon": -77.03866883333333, "type": "electric_scooter", "fusion_lat": 0.0, "lat": 38.91559866666667, "name": "a7ba37d18b31b82d861eeae1181681d5", "fusion_lon": 0.0, "bike_id": "a7ba37d18b31b82d861eeae1181681d5", "is_disabled": 0, "is_reserved": 0}, {"rental_uris": {"ios": "https://dc.lft.to/lastmile_qr_scan", "android": "https://dc.lft.to/lastmile_qr_scan"}, "lon": -77.02894033333334, "type": "electric_scooter", "fusion_lat": 0.0, "lat": 38.925733, "name": "71c6cafa271c1c0dabb21490bb6ed558", "fusion_lon": 0.0, "bike_id": "71c6cafa271c1c0dabb21490bb6ed558", "is_disabled": 0, "is_reserved": 0}, {"rental_uris": {"ios": "https://dc.lft.to/lastmile_qr_scan", "android": "https://dc.lft.to/lastmile_qr_scan"}, "lon": -77.019268, "type": "electric_scooter", "fusion_lat": 0.0, "lat": 38.956864, "name": "72e46b65e948bee83654c926a4a79276", "fusion_lon": 0.0, "bike_id": "72e46b65e948bee83654c926a4a79276", "is_disabled": 0, "is_reserved": 0}, {"rental_uris": {"ios": "https://dc.lft.to/lastmile_qr_scan", "android": "https://dc.lft.to/lastmile_qr_scan"}, "lon": -77.027938, "type": "electric_scooter", "fusion_lat": 0.0, "lat": 38.930868833333335, "name": "2aad892a5153e9a8fc344c36e1302407", "fusion_lon": 0.0, "bike_id": "2aad892a5153e9a8fc344c36e1302407", "is_disabled": 0, "is_reserved": 0}, {"rental_uris": {"ios": "https://dc.lft.to/lastmile_qr_scan", "android": "https://dc.lft.to/lastmile_qr_scan"}, "lon": -77.03056366666667, "type": "electric_scooter", "fusion_lat": 0.0, "lat": 38.8948115, "name": "bb603019200248c36078986d5bfc9007", "fusion_lon": 0.0, "bike_id": "bb603019200248c36078986d5bfc9007", "is_disabled": 0, "is_reserved": 0}, {"rental_uris": {"ios": "https://dc.lft.to/lastmile_qr_scan", "android": "https://dc.lft.to/lastmile_qr_scan"}, "lon": -76.98997633333333, "type": "electric_scooter", "fusion_lat": 0.0, "lat": 38.865020666666666, "name": "754e7393ca68d022f51b1a4a4a2435c8", "fusion_lon": 0.0, "bike_id": "754e7393ca68d022f51b1a4a4a2435c8", "is_disabled": 0, "is_reserved": 0}, {"rental_uris": {"ios": "https://dc.lft.to/lastmile_qr_scan", "android": "https://dc.lft.to/lastmile_qr_scan"}, "lon": -77.02366633333334, "type": "electric_scooter", "fusion_lat": 0.0, "lat": 38.90302466666667, "name": "35baedbfe83b7b08b8dd769ad7c6d288", "fusion_lon": 0.0, "bike_id": "35baedbfe83b7b08b8dd769ad7c6d288", "is_disabled": 0, "is_reserved": 0}, {"rental_uris": {"ios": "https://dc.lft.to/lastmile_qr_scan", "android": "https://dc.lft.to/lastmile_qr_scan"}, "lon": -77.011121, "type": "electric_scooter", "fusion_lat": 0.0, "lat": 38.90784566666667, "name": "035b2a49e9c7121a42e4a3b5a6a79c4e", "fusion_lon": 0.0, "bike_id": "035b2a49e9c7121a42e4a3b5a6a79c4e", "is_disabled": 0, "is_reserved": 0}, {"rental_uris": {"ios": "https://dc.lft.to/lastmile_qr_scan", "android": "https://dc.lft.to/lastmile_qr_scan"}, "lon": -77.00630533333333, "type": "electric_scooter", "fusion_lat": 0.0, "lat": 38.82928316666667, "name": "67769f9e403f5004b96ae2dd6f1a7fb5", "fusion_lon": 0.0, "bike_id": "67769f9e403f5004b96ae2dd6f1a7fb5", "is_disabled": 0, "is_reserved": 0}, {"rental_uris": {"ios": "https://dc.lft.to/lastmile_qr_scan", "android": "https://dc.lft.to/lastmile_qr_scan"}, "lon": -77.03797083333333, "type": "electric_scooter", "fusion_lat": 0.0, "lat": 38.935991666666666, "name": "a096869b895be7cd57fc0e59cee9e474", "fusion_lon": 0.0, "bike_id": "a096869b895be7cd57fc0e59cee9e474", "is_disabled": 0, "is_reserved": 0}, {"rental_uris": {"ios": "https://dc.lft.to/lastmile_qr_scan", "android": "https://dc.lft.to/lastmile_qr_scan"}, "lon": -77.04878566666666, "type": "electric_scooter", "fusion_lat": 0.0, "lat": 38.903108333333336, "name": "f6abc158941f4a1717e2640317873e08", "fusion_lon": 0.0, "bike_id": "f6abc158941f4a1717e2640317873e08", "is_disabled": 0, "is_reserved": 0}, {"rental_uris": {"ios": "https://dc.lft.to/lastmile_qr_scan", "android": "https://dc.lft.to/lastmile_qr_scan"}, "lon": -76.971844, "type": "electric_scooter", "fusion_lat": 0.0, "lat": 38.9176285, "name": "b93076ccbf3d67dac5c6168490f75ccc", "fusion_lon": 0.0, "bike_id": "b93076ccbf3d67dac5c6168490f75ccc", "is_disabled": 0, "is_reserved": 0}, {"rental_uris": {"ios": "https://dc.lft.to/lastmile_qr_scan", "android": "https://dc.lft.to/lastmile_qr_scan"}, "lon": -77.03264083333333, "type": "electric_scooter", "fusion_lat": 0.0, "lat": 38.93227, "name": "a6aacd59157bcb5fcc0cdc37db9ffe50", "fusion_lon": 0.0, "bike_id": "a6aacd59157bcb5fcc0cdc37db9ffe50", "is_disabled": 0, "is_reserved": 0}, {"rental_uris": {"ios": "https://dc.lft.to/lastmile_qr_scan", "android": "https://dc.lft.to/lastmile_qr_scan"}, "lon": -76.989561, "type": "electric_scooter", "fusion_lat": 0.0, "lat": 38.900345333333334, "name": "5185cd2510bcfd556f02724a7dcf9cda", "fusion_lon": 0.0, "bike_id": "5185cd2510bcfd556f02724a7dcf9cda", "is_disabled": 0, "is_reserved": 0}, {"rental_uris": {"ios": "https://dc.lft.to/lastmile_qr_scan", "android": "https://dc.lft.to/lastmile_qr_scan"}, "lon": -77.12902616666666, "type": "electric_bike", "fusion_lat": 0.0, "lat": 38.8637695, "name": "b2947a268edc5ac9088f5ae205396c59", "fusion_lon": 0.0, "bike_id": "b2947a268edc5ac9088f5ae205396c59", "is_disabled": 0, "is_reserved": 0}, {"rental_uris": {"ios": "https://dc.lft.to/lastmile_qr_scan", "android": "https://dc.lft.to/lastmile_qr_scan"}, "lon": -77.037871, "type": "electric_scooter", "fusion_lat": 0.0, "lat": 38.905557333333334, "name": "87902720f71a54a36d8da6c17c712e22", "fusion_lon": 0.0, "bike_id": "87902720f71a54a36d8da6c17c712e22", "is_disabled": 0, "is_reserved": 0}, {"rental_uris": {"ios": "https://dc.lft.to/lastmile_qr_scan", "android": "https://dc.lft.to/lastmile_qr_scan"}, "lon": -77.05288433333334, "type": "electric_scooter", "fusion_lat": 0.0, "lat": 38.9279825, "name": "96e57f72e2e8410b225d132d8e6c6957", "fusion_lon": 0.0, "bike_id": "96e57f72e2e8410b225d132d8e6c6957", "is_disabled": 0, "is_reserved": 0}, {"rental_uris": {"ios": "https://dc.lft.to/lastmile_qr_scan", "android": "https://dc.lft.to/lastmile_qr_scan"}, "lon": -77.03660466666666, "type": "electric_bike", "fusion_lat": 0.0, "lat": 38.936316, "name": "86a0eab6df471e5b53a2fd0d47f4bcb7", "fusion_lon": 0.0, "bike_id": "86a0eab6df471e5b53a2fd0d47f4bcb7", "is_disabled": 0, "is_reserved": 0}, {"rental_uris": {"ios": "https://dc.lft.to/lastmile_qr_scan", "android": "https://dc.lft.to/lastmile_qr_scan"}, "lon": -77.03222616666666, "type": "electric_scooter", "fusion_lat": 0.0, "lat": 38.9266645, "name": "41cc09a888d5e50a17a61f3e50679dd2", "fusion_lon": 0.0, "bike_id": "41cc09a888d5e50a17a61f3e50679dd2", "is_disabled": 0, "is_reserved": 0}, {"rental_uris": {"ios": "https://dc.lft.to/lastmile_qr_scan", "android": "https://dc.lft.to/lastmile_qr_scan"}, "lon": -76.957528, "type": "electric_scooter", "fusion_lat": 0.0, "lat": 38.88430666666667, "name": "0ade3db919a8f254c5904de0aa681699", "fusion_lon": 0.0, "bike_id": "0ade3db919a8f254c5904de0aa681699", "is_disabled": 0, "is_reserved": 0}, {"rental_uris": {"ios": "https://dc.lft.to/lastmile_qr_scan", "android": "https://dc.lft.to/lastmile_qr_scan"}, "lon": -77.0308115, "type": "electric_scooter", "fusion_lat": 0.0, "lat": 38.880351833333336, "name": "076502b6fe2d0fce7cd23406186b57ac", "fusion_lon": 0.0, "bike_id": "076502b6fe2d0fce7cd23406186b57ac", "is_disabled": 0, "is_reserved": 0}, {"rental_uris": {"ios": "https://dc.lft.to/lastmile_qr_scan", "android": "https://dc.lft.to/lastmile_qr_scan"}, "lon": -76.96505716666667, "type": "electric_scooter", "fusion_lat": 0.0, "lat": 38.87647716666667, "name": "30ac774cfdda060b3e830c1352651a65", "fusion_lon": 0.0, "bike_id": "30ac774cfdda060b3e830c1352651a65", "is_disabled": 0, "is_reserved": 0}, {"rental_uris": {"ios": "https://dc.lft.to/lastmile_qr_scan", "android": "https://dc.lft.to/lastmile_qr_scan"}, "lon": -77.03175683333333, "type": "electric_scooter", "fusion_lat": 0.0, "lat": 38.89947866666667, "name": "3c5e83f7c2cce98034e7e829667f562e", "fusion_lon": 0.0, "bike_id": "3c5e83f7c2cce98034e7e829667f562e", "is_disabled": 0, "is_reserved": 0}, {"rental_uris": {"ios": "https://dc.lft.to/lastmile_qr_scan", "android": "https://dc.lft.to/lastmile_qr_scan"}, "lon": -77.02487483333333, "type": "electric_scooter", "fusion_lat": 0.0, "lat": 38.941862666666665, "name": "5042990198a9db2ceae05210cef9e5ee", "fusion_lon": 0.0, "bike_id": "5042990198a9db2ceae05210cef9e5ee", "is_disabled": 0, "is_reserved": 0}, {"rental_uris": {"ios": "https://dc.lft.to/lastmile_qr_scan", "android": "https://dc.lft.to/lastmile_qr_scan"}, "lon": -77.01722766666667, "type": "electric_scooter", "fusion_lat": 0.0, "lat": 38.91176183333334, "name": "b8eb7c260b46f0b5f88b71d5430b18bf", "fusion_lon": 0.0, "bike_id": "b8eb7c260b46f0b5f88b71d5430b18bf", "is_disabled": 0, "is_reserved": 0}, {"rental_uris": {"ios": "https://dc.lft.to/lastmile_qr_scan", "android": "https://dc.lft.to/lastmile_qr_scan"}, "lon": -77.15266133333333, "type": "electric_bike", "fusion_lat": 0.0, "lat": 39.1056595, "name": "03f24e51311d27885b0312cf2b56d401", "fusion_lon": 0.0, "bike_id": "03f24e51311d27885b0312cf2b56d401", "is_disabled": 0, "is_reserved": 0}, {"rental_uris": {"ios": "https://dc.lft.to/lastmile_qr_scan", "android": "https://dc.lft.to/lastmile_qr_scan"}, "lon": -77.0222515, "type": "electric_scooter", "fusion_lat": 0.0, "lat": 38.893565333333335, "name": "a278964a68a1c7998ed4063cb467a8c9", "fusion_lon": 0.0, "bike_id": "a278964a68a1c7998ed4063cb467a8c9", "is_disabled": 0, "is_reserved": 0}, {"rental_uris": {"ios": "https://dc.lft.to/lastmile_qr_scan", "android": "https://dc.lft.to/lastmile_qr_scan"}, "lon": -77.03902283333333, "type": "electric_scooter", "fusion_lat": 0.0, "lat": 38.9219055, "name": "af3671032fc300636417a26ed569227f", "fusion_lon": 0.0, "bike_id": "af3671032fc300636417a26ed569227f", "is_disabled": 0, "is_reserved": 0}, {"rental_uris": {"ios": "https://dc.lft.to/lastmile_qr_scan", "android": "https://dc.lft.to/lastmile_qr_scan"}, "lon": -76.93177583333333, "type": "electric_scooter", "fusion_lat": 0.0, "lat": 38.8988385, "name": "7ac8f9604f72bdb0da458a79ef7a8bbc", "fusion_lon": 0.0, "bike_id": "7ac8f9604f72bdb0da458a79ef7a8bbc", "is_disabled": 0, "is_reserved": 0}, {"rental_uris": {"ios": "https://dc.lft.to/lastmile_qr_scan", "android": "https://dc.lft.to/lastmile_qr_scan"}, "lon": -77.01082233333334, "type": "electric_scooter", "fusion_lat": 0.0, "lat": 38.894988166666664, "name": "b8b51e6201b1b23d642065aaf79196a9", "fusion_lon": 0.0, "bike_id": "b8b51e6201b1b23d642065aaf79196a9", "is_disabled": 0, "is_reserved": 0}, {"rental_uris": {"ios": "https://dc.lft.to/lastmile_qr_scan", "android": "https://dc.lft.to/lastmile_qr_scan"}, "lon": -76.9379475, "type": "electric_scooter", "fusion_lat": 0.0, "lat": 38.8908285, "name": "227626be852a98d9587b348dd2146e5d", "fusion_lon": 0.0, "bike_id": "227626be852a98d9587b348dd2146e5d", "is_disabled": 0, "is_reserved": 0}, {"rental_uris": {"ios": "https://dc.lft.to/lastmile_qr_scan", "android": "https://dc.lft.to/lastmile_qr_scan"}, "lon": -77.04180716666667, "type": "electric_scooter", "fusion_lat": 0.0, "lat": 38.9205135, "name": "88a396a3783b1d6dc34fab86b01b6a7c", "fusion_lon": 0.0, "bike_id": "88a396a3783b1d6dc34fab86b01b6a7c", "is_disabled": 0, "is_reserved": 0}, {"rental_uris": {"ios": "https://dc.lft.to/lastmile_qr_scan", "android": "https://dc.lft.to/lastmile_qr_scan"}, "lon": -77.0807045, "type": "electric_scooter", "fusion_lat": 0.0, "lat": 38.959165166666665, "name": "fa6a561202b13a19729252e61165b36b", "fusion_lon": 0.0, "bike_id": "fa6a561202b13a19729252e61165b36b", "is_disabled": 0, "is_reserved": 0}, {"rental_uris": {"ios": "https://dc.lft.to/lastmile_qr_scan", "android": "https://dc.lft.to/lastmile_qr_scan"}, "lon": -77.01786433333334, "type": "electric_scooter", "fusion_lat": 0.0, "lat": 38.9082075, "name": "4908546e1ef5d708e06a003e035c7d80", "fusion_lon": 0.0, "bike_id": "4908546e1ef5d708e06a003e035c7d80", "is_disabled": 0, "is_reserved": 0}, {"rental_uris": {"ios": "https://dc.lft.to/lastmile_qr_scan", "android": "https://dc.lft.to/lastmile_qr_scan"}, "lon": -77.01126033333334, "type": "electric_scooter", "fusion_lat": 0.0, "lat": 38.8954545, "name": "a688b2feda96bb93299474c6630e0026", "fusion_lon": 0.0, "bike_id": "a688b2feda96bb93299474c6630e0026", "is_disabled": 0, "is_reserved": 0}, {"rental_uris": {"ios": "https://dc.lft.to/lastmile_qr_scan", "android": "https://dc.lft.to/lastmile_qr_scan"}, "lon": -76.97668016666667, "type": "electric_bike", "fusion_lat": 0.0, "lat": 38.96622766666667, "name": "073abd5d718c0db3a669e44edc29f481", "fusion_lon": 0.0, "bike_id": "073abd5d718c0db3a669e44edc29f481", "is_disabled": 0, "is_reserved": 0}, {"rental_uris": {"ios": "https://dc.lft.to/lastmile_qr_scan", "android": "https://dc.lft.to/lastmile_qr_scan"}, "lon": -76.94651966666666, "type": "electric_scooter", "fusion_lat": 0.0, "lat": 38.89825166666667, "name": "800ea0f48e1cda3d115188ae583b95ad", "fusion_lon": 0.0, "bike_id": "800ea0f48e1cda3d115188ae583b95ad", "is_disabled": 0, "is_reserved": 0}, {"rental_uris": {"ios": "https://dc.lft.to/lastmile_qr_scan", "android": "https://dc.lft.to/lastmile_qr_scan"}, "lon": -77.03348516666667, "type": "electric_scooter", "fusion_lat": 0.0, "lat": 38.90644533333333, "name": "df837ac0725fc52d0c613e238cb6d2dc", "fusion_lon": 0.0, "bike_id": "df837ac0725fc52d0c613e238cb6d2dc", "is_disabled": 0, "is_reserved": 0}, {"rental_uris": {"ios": "https://dc.lft.to/lastmile_qr_scan", "android": "https://dc.lft.to/lastmile_qr_scan"}, "lon": -77.02971583333333, "type": "electric_scooter", "fusion_lat": 0.0, "lat": 38.90031316666666, "name": "61010ff938acb8fa6fb52f9440e30b92", "fusion_lon": 0.0, "bike_id": "61010ff938acb8fa6fb52f9440e30b92", "is_disabled": 0, "is_reserved": 0}, {"rental_uris": {"ios": "https://dc.lft.to/lastmile_qr_scan", "android": "https://dc.lft.to/lastmile_qr_scan"}, "lon": -77.02701133333333, "type": "electric_scooter", "fusion_lat": 0.0, "lat": 38.899115333333334, "name": "888c67ad6598d07c3d810ba4762d7d94", "fusion_lon": 0.0, "bike_id": "888c67ad6598d07c3d810ba4762d7d94", "is_disabled": 0, "is_reserved": 0}, {"rental_uris": {"ios": "https://dc.lft.to/lastmile_qr_scan", "android": "https://dc.lft.to/lastmile_qr_scan"}, "lon": -77.034079, "type": "electric_scooter", "fusion_lat": 0.0, "lat": 38.923209166666666, "name": "84c479376172500998e73c2946762607", "fusion_lon": 0.0, "bike_id": "84c479376172500998e73c2946762607", "is_disabled": 0, "is_reserved": 0}, {"rental_uris": {"ios": "https://dc.lft.to/lastmile_qr_scan", "android": "https://dc.lft.to/lastmile_qr_scan"}, "lon": -77.04445266666667, "type": "electric_scooter", "fusion_lat": 0.0, "lat": 38.91881216666667, "name": "5de7be9e5a18c4ce4991d63b7c83c852", "fusion_lon": 0.0, "bike_id": "5de7be9e5a18c4ce4991d63b7c83c852", "is_disabled": 0, "is_reserved": 0}, {"rental_uris": {"ios": "https://dc.lft.to/lastmile_qr_scan", "android": "https://dc.lft.to/lastmile_qr_scan"}, "lon": -76.99948566666667, "type": "electric_scooter", "fusion_lat": 0.0, "lat": 38.90698366666667, "name": "ae22e6efdb751e5f02723083790b0ef5", "fusion_lon": 0.0, "bike_id": "ae22e6efdb751e5f02723083790b0ef5", "is_disabled": 0, "is_reserved": 0}, {"rental_uris": {"ios": "https://dc.lft.to/lastmile_qr_scan", "android": "https://dc.lft.to/lastmile_qr_scan"}, "lon": -77.005122, "type": "electric_scooter", "fusion_lat": 0.0, "lat": 38.917117, "name": "c9f62ef58455daf92dcaf6a382aca599", "fusion_lon": 0.0, "bike_id": "c9f62ef58455daf92dcaf6a382aca599", "is_disabled": 0, "is_reserved": 0}, {"rental_uris": {"ios": "https://dc.lft.to/lastmile_qr_scan", "android": "https://dc.lft.to/lastmile_qr_scan"}, "lon": -77.05150566666667, "type": "electric_scooter", "fusion_lat": 0.0, "lat": 38.901263, "name": "58d26d59d9a863bcbf03da864fad6ff1", "fusion_lon": 0.0, "bike_id": "58d26d59d9a863bcbf03da864fad6ff1", "is_disabled": 0, "is_reserved": 0}, {"rental_uris": {"ios": "https://dc.lft.to/lastmile_qr_scan", "android": "https://dc.lft.to/lastmile_qr_scan"}, "lon": -76.99976166666667, "type": "electric_scooter", "fusion_lat": 0.0, "lat": 38.83831816666667, "name": "0432b19bbfb00bb45ef9c792fa05227f", "fusion_lon": 0.0, "bike_id": "0432b19bbfb00bb45ef9c792fa05227f", "is_disabled": 0, "is_reserved": 0}, {"rental_uris": {"ios": "https://dc.lft.to/lastmile_qr_scan", "android": "https://dc.lft.to/lastmile_qr_scan"}, "lon": -77.04009583333334, "type": "electric_scooter", "fusion_lat": 0.0, "lat": 38.90120116666667, "name": "15915170d070d1e9b1f68e550170f3f6", "fusion_lon": 0.0, "bike_id": "15915170d070d1e9b1f68e550170f3f6", "is_disabled": 0, "is_reserved": 0}, {"rental_uris": {"ios": "https://dc.lft.to/lastmile_qr_scan", "android": "https://dc.lft.to/lastmile_qr_scan"}, "lon": -77.0261785, "type": "electric_scooter", "fusion_lat": 0.0, "lat": 38.93403, "name": "a92250d29f72cdccb16d2f8555eea047", "fusion_lon": 0.0, "bike_id": "a92250d29f72cdccb16d2f8555eea047", "is_disabled": 0, "is_reserved": 0}, {"rental_uris": {"ios": "https://dc.lft.to/lastmile_qr_scan", "android": "https://dc.lft.to/lastmile_qr_scan"}, "lon": -77.06984266666667, "type": "electric_scooter", "fusion_lat": 0.0, "lat": 38.9548495, "name": "45308d875aad8369b0cdd1cce7f4b871", "fusion_lon": 0.0, "bike_id": "45308d875aad8369b0cdd1cce7f4b871", "is_disabled": 0, "is_reserved": 0}, {"rental_uris": {"ios": "https://dc.lft.to/lastmile_qr_scan", "android": "https://dc.lft.to/lastmile_qr_scan"}, "lon": -76.99497483333333, "type": "electric_bike", "fusion_lat": 0.0, "lat": 39.00004833333333, "name": "1234665d702a2f90ef875caf19d87c71", "fusion_lon": 0.0, "bike_id": "1234665d702a2f90ef875caf19d87c71", "is_disabled": 0, "is_reserved": 0}, {"rental_uris": {"ios": "https://dc.lft.to/lastmile_qr_scan", "android": "https://dc.lft.to/lastmile_qr_scan"}, "lon": -77.06329033333333, "type": "electric_scooter", "fusion_lat": 0.0, "lat": 38.9076945, "name": "6fd72bbed72bfd2431ef419f4ba7478d", "fusion_lon": 0.0, "bike_id": "6fd72bbed72bfd2431ef419f4ba7478d", "is_disabled": 0, "is_reserved": 0}, {"rental_uris": {"ios": "https://dc.lft.to/lastmile_qr_scan", "android": "https://dc.lft.to/lastmile_qr_scan"}, "lon": -76.99790783333333, "type": "electric_scooter", "fusion_lat": 0.0, "lat": 38.92183283333333, "name": "ef131a83b58cd81bb9d63cee26d3dd4f", "fusion_lon": 0.0, "bike_id": "ef131a83b58cd81bb9d63cee26d3dd4f", "is_disabled": 0, "is_reserved": 0}, {"rental_uris": {"ios": "https://dc.lft.to/lastmile_qr_scan", "android": "https://dc.lft.to/lastmile_qr_scan"}, "lon": -77.04819883333333, "type": "electric_scooter", "fusion_lat": 0.0, "lat": 38.920322, "name": "56f7481839b799a14650b5f195eea061", "fusion_lon": 0.0, "bike_id": "56f7481839b799a14650b5f195eea061", "is_disabled": 0, "is_reserved": 0}, {"rental_uris": {"ios": "https://dc.lft.to/lastmile_qr_scan", "android": "https://dc.lft.to/lastmile_qr_scan"}, "lon": -76.99072716666667, "type": "electric_scooter", "fusion_lat": 0.0, "lat": 38.893586666666664, "name": "58651933f78efc0fd87eb0d9b6c0c11c", "fusion_lon": 0.0, "bike_id": "58651933f78efc0fd87eb0d9b6c0c11c", "is_disabled": 0, "is_reserved": 0}, {"rental_uris": {"ios": "https://dc.lft.to/lastmile_qr_scan", "android": "https://dc.lft.to/lastmile_qr_scan"}, "lon": -77.05001016666667, "type": "electric_scooter", "fusion_lat": 0.0, "lat": 38.900533333333335, "name": "0a4bf022e46d1dfc3e05e02ff8084fe2", "fusion_lon": 0.0, "bike_id": "0a4bf022e46d1dfc3e05e02ff8084fe2", "is_disabled": 0, "is_reserved": 0}, {"rental_uris": {"ios": "https://dc.lft.to/lastmile_qr_scan", "android": "https://dc.lft.to/lastmile_qr_scan"}, "lon": -77.04201033333334, "type": "electric_scooter", "fusion_lat": 0.0, "lat": 38.92112016666667, "name": "ed18d1e79db84cb14f1c5a34a80ab7af", "fusion_lon": 0.0, "bike_id": "ed18d1e79db84cb14f1c5a34a80ab7af", "is_disabled": 0, "is_reserved": 0}, {"rental_uris": {"ios": "https://dc.lft.to/lastmile_qr_scan", "android": "https://dc.lft.to/lastmile_qr_scan"}, "lon": -76.98157766666667, "type": "electric_scooter", "fusion_lat": 0.0, "lat": 38.932973833333335, "name": "616e78adfa66e3def6d44fd33dd3fe36", "fusion_lon": 0.0, "bike_id": "616e78adfa66e3def6d44fd33dd3fe36", "is_disabled": 0, "is_reserved": 0}, {"rental_uris": {"ios": "https://dc.lft.to/lastmile_qr_scan", "android": "https://dc.lft.to/lastmile_qr_scan"}, "lon": -76.99505216666667, "type": "electric_scooter", "fusion_lat": 0.0, "lat": 38.92701983333333, "name": "79e7452b156c75760b252d93e69d5db2", "fusion_lon": 0.0, "bike_id": "79e7452b156c75760b252d93e69d5db2", "is_disabled": 0, "is_reserved": 0}, {"rental_uris": {"ios": "https://dc.lft.to/lastmile_qr_scan", "android": "https://dc.lft.to/lastmile_qr_scan"}, "lon": -77.02590816666667, "type": "electric_scooter", "fusion_lat": 0.0, "lat": 38.91991066666667, "name": "fbf403c6e245364b907cac971d9be0a7", "fusion_lon": 0.0, "bike_id": "fbf403c6e245364b907cac971d9be0a7", "is_disabled": 0, "is_reserved": 0}, {"rental_uris": {"ios": "https://dc.lft.to/lastmile_qr_scan", "android": "https://dc.lft.to/lastmile_qr_scan"}, "lon": -76.99061516666667, "type": "electric_scooter", "fusion_lat": 0.0, "lat": 38.86355566666667, "name": "dd5f451018d8b7c294af4bf3943e7e20", "fusion_lon": 0.0, "bike_id": "dd5f451018d8b7c294af4bf3943e7e20", "is_disabled": 0, "is_reserved": 0}, {"rental_uris": {"ios": "https://dc.lft.to/lastmile_qr_scan", "android": "https://dc.lft.to/lastmile_qr_scan"}, "lon": -77.00676533333333, "type": "electric_scooter", "fusion_lat": 0.0, "lat": 38.916959, "name": "f1ece83e10f769c97ba3435d903d9b58", "fusion_lon": 0.0, "bike_id": "f1ece83e10f769c97ba3435d903d9b58", "is_disabled": 0, "is_reserved": 0}, {"rental_uris": {"ios": "https://dc.lft.to/lastmile_qr_scan", "android": "https://dc.lft.to/lastmile_qr_scan"}, "lon": -76.90434866666666, "type": "electric_bike", "fusion_lat": 0.0, "lat": 38.89770166666667, "name": "d6bcb2747883563a2a66656e35485596", "fusion_lon": 0.0, "bike_id": "d6bcb2747883563a2a66656e35485596", "is_disabled": 0, "is_reserved": 0}, {"rental_uris": {"ios": "https://dc.lft.to/lastmile_qr_scan", "android": "https://dc.lft.to/lastmile_qr_scan"}, "lon": -77.04243816666667, "type": "electric_scooter", "fusion_lat": 0.0, "lat": 38.924306, "name": "1b8b5ccb81d303260cf8fd36ff4d15f0", "fusion_lon": 0.0, "bike_id": "1b8b5ccb81d303260cf8fd36ff4d15f0", "is_disabled": 0, "is_reserved": 0}, {"rental_uris": {"ios": "https://dc.lft.to/lastmile_qr_scan", "android": "https://dc.lft.to/lastmile_qr_scan"}, "lon": -77.03658883333334, "type": "electric_scooter", "fusion_lat": 0.0, "lat": 38.92121, "name": "1d83930e5462f49263c9fa9588b71b00", "fusion_lon": 0.0, "bike_id": "1d83930e5462f49263c9fa9588b71b00", "is_disabled": 0, "is_reserved": 0}, {"rental_uris": {"ios": "https://dc.lft.to/lastmile_qr_scan", "android": "https://dc.lft.to/lastmile_qr_scan"}, "lon": -77.0196985, "type": "electric_scooter", "fusion_lat": 0.0, "lat": 38.934200833333335, "name": "dfcdfcdcea6c02fecbdbcf4ee3026e9a", "fusion_lon": 0.0, "bike_id": "dfcdfcdcea6c02fecbdbcf4ee3026e9a", "is_disabled": 0, "is_reserved": 0}, {"rental_uris": {"ios": "https://dc.lft.to/lastmile_qr_scan", "android": "https://dc.lft.to/lastmile_qr_scan"}, "lon": -77.00552166666667, "type": "electric_scooter", "fusion_lat": 0.0, "lat": 38.903320666666666, "name": "fd5e56fea3fb0e54eb812807665f2549", "fusion_lon": 0.0, "bike_id": "fd5e56fea3fb0e54eb812807665f2549", "is_disabled": 0, "is_reserved": 0}, {"rental_uris": {"ios": "https://dc.lft.to/lastmile_qr_scan", "android": "https://dc.lft.to/lastmile_qr_scan"}, "lon": -77.02693616666667, "type": "electric_scooter", "fusion_lat": 0.0, "lat": 38.92597516666667, "name": "9c43dcbcb5a9332ca81aa09a5f370228", "fusion_lon": 0.0, "bike_id": "9c43dcbcb5a9332ca81aa09a5f370228", "is_disabled": 0, "is_reserved": 0}, {"rental_uris": {"ios": "https://dc.lft.to/lastmile_qr_scan", "android": "https://dc.lft.to/lastmile_qr_scan"}, "lon": -77.02837816666667, "type": "electric_scooter", "fusion_lat": 0.0, "lat": 38.931893333333335, "name": "5e92b8978468fdd7e4796a5754a12968", "fusion_lon": 0.0, "bike_id": "5e92b8978468fdd7e4796a5754a12968", "is_disabled": 0, "is_reserved": 0}, {"rental_uris": {"ios": "https://dc.lft.to/lastmile_qr_scan", "android": "https://dc.lft.to/lastmile_qr_scan"}, "lon": -77.02475733333333, "type": "electric_scooter", "fusion_lat": 0.0, "lat": 38.93102666666667, "name": "69d13af9eca2f047505dd4eb6d66d38b", "fusion_lon": 0.0, "bike_id": "69d13af9eca2f047505dd4eb6d66d38b", "is_disabled": 0, "is_reserved": 0}, {"rental_uris": {"ios": "https://dc.lft.to/lastmile_qr_scan", "android": "https://dc.lft.to/lastmile_qr_scan"}, "lon": -77.01118933333333, "type": "electric_scooter", "fusion_lat": 0.0, "lat": 38.89517166666667, "name": "9e2cd8448aec1e2fd0a2609df52fed94", "fusion_lon": 0.0, "bike_id": "9e2cd8448aec1e2fd0a2609df52fed94", "is_disabled": 0, "is_reserved": 0}, {"rental_uris": {"ios": "https://dc.lft.to/lastmile_qr_scan", "android": "https://dc.lft.to/lastmile_qr_scan"}, "lon": -77.08195666666667, "type": "electric_scooter", "fusion_lat": 0.0, "lat": 38.949302833333334, "name": "6c1ffc347666caa5e4c4dffc964b3087", "fusion_lon": 0.0, "bike_id": "6c1ffc347666caa5e4c4dffc964b3087", "is_disabled": 0, "is_reserved": 0}, {"rental_uris": {"ios": "https://dc.lft.to/lastmile_qr_scan", "android": "https://dc.lft.to/lastmile_qr_scan"}, "lon": -76.90819666666667, "type": "electric_bike", "fusion_lat": 0.0, "lat": 38.99456216666667, "name": "532379e5165a8708ca0098933da06a9c", "fusion_lon": 0.0, "bike_id": "532379e5165a8708ca0098933da06a9c", "is_disabled": 0, "is_reserved": 0}, {"rental_uris": {"ios": "https://dc.lft.to/lastmile_qr_scan", "android": "https://dc.lft.to/lastmile_qr_scan"}, "lon": -76.9893115, "type": "electric_bike", "fusion_lat": 0.0, "lat": 38.9286465, "name": "42a43e48375fe20bdccb09cae99218a2", "fusion_lon": 0.0, "bike_id": "42a43e48375fe20bdccb09cae99218a2", "is_disabled": 0, "is_reserved": 0}, {"rental_uris": {"ios": "https://dc.lft.to/lastmile_qr_scan", "android": "https://dc.lft.to/lastmile_qr_scan"}, "lon": -76.96056783333333, "type": "electric_bike", "fusion_lat": 0.0, "lat": 38.88408716666667, "name": "8c4a3ff549564e2c611e8364a9913dd1", "fusion_lon": 0.0, "bike_id": "8c4a3ff549564e2c611e8364a9913dd1", "is_disabled": 0, "is_reserved": 0}, {"rental_uris": {"ios": "https://dc.lft.to/lastmile_qr_scan", "android": "https://dc.lft.to/lastmile_qr_scan"}, "lon": -77.04821066666666, "type": "electric_scooter", "fusion_lat": 0.0, "lat": 38.91334883333333, "name": "d020e1c6d3ba3aa514546df1d9c5a73b", "fusion_lon": 0.0, "bike_id": "d020e1c6d3ba3aa514546df1d9c5a73b", "is_disabled": 0, "is_reserved": 0}, {"rental_uris": {"ios": "https://dc.lft.to/lastmile_qr_scan", "android": "https://dc.lft.to/lastmile_qr_scan"}, "lon": -77.03479316666666, "type": "electric_scooter", "fusion_lat": 0.0, "lat": 38.930524166666665, "name": "6b70bf7373d166358679c968562ff203", "fusion_lon": 0.0, "bike_id": "6b70bf7373d166358679c968562ff203", "is_disabled": 0, "is_reserved": 0}, {"rental_uris": {"ios": "https://dc.lft.to/lastmile_qr_scan", "android": "https://dc.lft.to/lastmile_qr_scan"}, "lon": -77.02162816666667, "type": "electric_scooter", "fusion_lat": 0.0, "lat": 38.89738933333334, "name": "e392852c309d648a48b12cd49c84e97e", "fusion_lon": 0.0, "bike_id": "e392852c309d648a48b12cd49c84e97e", "is_disabled": 0, "is_reserved": 0}, {"rental_uris": {"ios": "https://dc.lft.to/lastmile_qr_scan", "android": "https://dc.lft.to/lastmile_qr_scan"}, "lon": -77.0454465, "type": "electric_scooter", "fusion_lat": 0.0, "lat": 38.90369316666666, "name": "6a886ce5295621785fc7611a6845e9ee", "fusion_lon": 0.0, "bike_id": "6a886ce5295621785fc7611a6845e9ee", "is_disabled": 0, "is_reserved": 0}, {"rental_uris": {"ios": "https://dc.lft.to/lastmile_qr_scan", "android": "https://dc.lft.to/lastmile_qr_scan"}, "lon": -77.03821166666667, "type": "electric_scooter", "fusion_lat": 0.0, "lat": 38.89874733333333, "name": "734b9c00b5115328e5b0a900051f0004", "fusion_lon": 0.0, "bike_id": "734b9c00b5115328e5b0a900051f0004", "is_disabled": 0, "is_reserved": 0}, {"rental_uris": {"ios": "https://dc.lft.to/lastmile_qr_scan", "android": "https://dc.lft.to/lastmile_qr_scan"}, "lon": -76.97881866666667, "type": "electric_scooter", "fusion_lat": 0.0, "lat": 38.88769533333333, "name": "594f6f2eee44a61d085c7758da1120c5", "fusion_lon": 0.0, "bike_id": "594f6f2eee44a61d085c7758da1120c5", "is_disabled": 0, "is_reserved": 0}, {"rental_uris": {"ios": "https://dc.lft.to/lastmile_qr_scan", "android": "https://dc.lft.to/lastmile_qr_scan"}, "lon": -76.950941, "type": "electric_scooter", "fusion_lat": 0.0, "lat": 38.88452566666667, "name": "6319cf9acd4b50fe037e3fa6e1bf195e", "fusion_lon": 0.0, "bike_id": "6319cf9acd4b50fe037e3fa6e1bf195e", "is_disabled": 0, "is_reserved": 0}, {"rental_uris": {"ios": "https://dc.lft.to/lastmile_qr_scan", "android": "https://dc.lft.to/lastmile_qr_scan"}, "lon": -76.98975166666666, "type": "electric_scooter", "fusion_lat": 0.0, "lat": 38.859224166666664, "name": "fa48e50db6288e763357b91524ef962c", "fusion_lon": 0.0, "bike_id": "fa48e50db6288e763357b91524ef962c", "is_disabled": 0, "is_reserved": 0}, {"rental_uris": {"ios": "https://dc.lft.to/lastmile_qr_scan", "android": "https://dc.lft.to/lastmile_qr_scan"}, "lon": -77.038069, "type": "electric_scooter", "fusion_lat": 0.0, "lat": 38.93396833333333, "name": "e34d14261f1a6214eacda39e3e092d01", "fusion_lon": 0.0, "bike_id": "e34d14261f1a6214eacda39e3e092d01", "is_disabled": 0, "is_reserved": 0}, {"rental_uris": {"ios": "https://dc.lft.to/lastmile_qr_scan", "android": "https://dc.lft.to/lastmile_qr_scan"}, "lon": -77.004789, "type": "electric_scooter", "fusion_lat": 0.0, "lat": 38.9441085, "name": "a9c5c51dfcee3e59222ea5cdb6898803", "fusion_lon": 0.0, "bike_id": "a9c5c51dfcee3e59222ea5cdb6898803", "is_disabled": 0, "is_reserved": 0}, {"rental_uris": {"ios": "https://dc.lft.to/lastmile_qr_scan", "android": "https://dc.lft.to/lastmile_qr_scan"}, "lon": -77.02169683333334, "type": "electric_scooter", "fusion_lat": 0.0, "lat": 38.9429295, "name": "c95b17bafb28e407ba2425479e18caa9", "fusion_lon": 0.0, "bike_id": "c95b17bafb28e407ba2425479e18caa9", "is_disabled": 0, "is_reserved": 0}, {"rental_uris": {"ios": "https://dc.lft.to/lastmile_qr_scan", "android": "https://dc.lft.to/lastmile_qr_scan"}, "lon": -76.95001166666667, "type": "electric_scooter", "fusion_lat": 0.0, "lat": 38.89373766666667, "name": "a8acdd8b9328e4cd6b99f2e96207d01c", "fusion_lon": 0.0, "bike_id": "a8acdd8b9328e4cd6b99f2e96207d01c", "is_disabled": 0, "is_reserved": 0}, {"rental_uris": {"ios": "https://dc.lft.to/lastmile_qr_scan", "android": "https://dc.lft.to/lastmile_qr_scan"}, "lon": -77.02532733333334, "type": "electric_scooter", "fusion_lat": 0.0, "lat": 38.94304116666667, "name": "1b8ce62b16cb595724c12d82c72eef84", "fusion_lon": 0.0, "bike_id": "1b8ce62b16cb595724c12d82c72eef84", "is_disabled": 0, "is_reserved": 0}, {"rental_uris": {"ios": "https://dc.lft.to/lastmile_qr_scan", "android": "https://dc.lft.to/lastmile_qr_scan"}, "lon": -77.036472, "type": "electric_scooter", "fusion_lat": 0.0, "lat": 38.902815333333336, "name": "b942d7a7e4e844e809cf88d885ee2d86", "fusion_lon": 0.0, "bike_id": "b942d7a7e4e844e809cf88d885ee2d86", "is_disabled": 0, "is_reserved": 0}, {"rental_uris": {"ios": "https://dc.lft.to/lastmile_qr_scan", "android": "https://dc.lft.to/lastmile_qr_scan"}, "lon": -77.01221233333334, "type": "electric_scooter", "fusion_lat": 0.0, "lat": 38.91278633333334, "name": "26f6431d9e6b356b29926cebf9914ee5", "fusion_lon": 0.0, "bike_id": "26f6431d9e6b356b29926cebf9914ee5", "is_disabled": 0, "is_reserved": 0}, {"rental_uris": {"ios": "https://dc.lft.to/lastmile_qr_scan", "android": "https://dc.lft.to/lastmile_qr_scan"}, "lon": -77.02444083333333, "type": "electric_scooter", "fusion_lat": 0.0, "lat": 38.9206565, "name": "b8a1db424e2256d96af41f3576485426", "fusion_lon": 0.0, "bike_id": "b8a1db424e2256d96af41f3576485426", "is_disabled": 0, "is_reserved": 0}, {"rental_uris": {"ios": "https://dc.lft.to/lastmile_qr_scan", "android": "https://dc.lft.to/lastmile_qr_scan"}, "lon": -77.02714433333334, "type": "electric_scooter", "fusion_lat": 0.0, "lat": 38.9068725, "name": "e81a17719cb33e50c2862f1912d5568f", "fusion_lon": 0.0, "bike_id": "e81a17719cb33e50c2862f1912d5568f", "is_disabled": 0, "is_reserved": 0}, {"rental_uris": {"ios": "https://dc.lft.to/lastmile_qr_scan", "android": "https://dc.lft.to/lastmile_qr_scan"}, "lon": -76.99753816666667, "type": "electric_bike", "fusion_lat": 0.0, "lat": 38.9227915, "name": "a48d8f17dae5489cdd5008de8b678dc5", "fusion_lon": 0.0, "bike_id": "a48d8f17dae5489cdd5008de8b678dc5", "is_disabled": 0, "is_reserved": 0}, {"rental_uris": {"ios": "https://dc.lft.to/lastmile_qr_scan", "android": "https://dc.lft.to/lastmile_qr_scan"}, "lon": -77.02682616666667, "type": "electric_scooter", "fusion_lat": 0.0, "lat": 38.9072035, "name": "ade59ce857ff66f6f774fb90d4a4cd97", "fusion_lon": 0.0, "bike_id": "ade59ce857ff66f6f774fb90d4a4cd97", "is_disabled": 0, "is_reserved": 0}, {"rental_uris": {"ios": "https://dc.lft.to/lastmile_qr_scan", "android": "https://dc.lft.to/lastmile_qr_scan"}, "lon": -77.02611966666667, "type": "electric_scooter", "fusion_lat": 0.0, "lat": 38.91691433333333, "name": "d5ee1ced2730c8ce0ba7f9cdc8790040", "fusion_lon": 0.0, "bike_id": "d5ee1ced2730c8ce0ba7f9cdc8790040", "is_disabled": 0, "is_reserved": 0}, {"rental_uris": {"ios": "https://dc.lft.to/lastmile_qr_scan", "android": "https://dc.lft.to/lastmile_qr_scan"}, "lon": -76.98886116666667, "type": "electric_scooter", "fusion_lat": 0.0, "lat": 38.866620166666664, "name": "1bb584bef6cc38152a05fecde34c7dd7", "fusion_lon": 0.0, "bike_id": "1bb584bef6cc38152a05fecde34c7dd7", "is_disabled": 0, "is_reserved": 0}, {"rental_uris": {"ios": "https://dc.lft.to/lastmile_qr_scan", "android": "https://dc.lft.to/lastmile_qr_scan"}, "lon": -77.1131635, "type": "electric_bike", "fusion_lat": 0.0, "lat": 38.85566433333334, "name": "8fcc3d0af49c3f98c9053943b5b19df1", "fusion_lon": 0.0, "bike_id": "8fcc3d0af49c3f98c9053943b5b19df1", "is_disabled": 0, "is_reserved": 0}, {"rental_uris": {"ios": "https://dc.lft.to/lastmile_qr_scan", "android": "https://dc.lft.to/lastmile_qr_scan"}, "lon": -77.03009216666666, "type": "electric_scooter", "fusion_lat": 0.0, "lat": 38.91266916666667, "name": "fcb081652562a2cd3985daba7abb3d99", "fusion_lon": 0.0, "bike_id": "fcb081652562a2cd3985daba7abb3d99", "is_disabled": 0, "is_reserved": 0}, {"rental_uris": {"ios": "https://dc.lft.to/lastmile_qr_scan", "android": "https://dc.lft.to/lastmile_qr_scan"}, "lon": -77.03834716666667, "type": "electric_scooter", "fusion_lat": 0.0, "lat": 38.90279683333333, "name": "58e92068d12416fc3c982783b4a9a787", "fusion_lon": 0.0, "bike_id": "58e92068d12416fc3c982783b4a9a787", "is_disabled": 0, "is_reserved": 0}, {"rental_uris": {"ios": "https://dc.lft.to/lastmile_qr_scan", "android": "https://dc.lft.to/lastmile_qr_scan"}, "lon": -77.0708885, "type": "electric_bike", "fusion_lat": 0.0, "lat": 38.95559083333333, "name": "38a3aa53a25f03a80944b47950c4e767", "fusion_lon": 0.0, "bike_id": "38a3aa53a25f03a80944b47950c4e767", "is_disabled": 0, "is_reserved": 0}, {"rental_uris": {"ios": "https://dc.lft.to/lastmile_qr_scan", "android": "https://dc.lft.to/lastmile_qr_scan"}, "lon": -76.93176766666667, "type": "electric_scooter", "fusion_lat": 0.0, "lat": 38.8988805, "name": "d0e363d8b7b5b76f315ab045b9b141fd", "fusion_lon": 0.0, "bike_id": "d0e363d8b7b5b76f315ab045b9b141fd", "is_disabled": 0, "is_reserved": 0}, {"rental_uris": {"ios": "https://dc.lft.to/lastmile_qr_scan", "android": "https://dc.lft.to/lastmile_qr_scan"}, "lon": -77.06885383333334, "type": "electric_scooter", "fusion_lat": 0.0, "lat": 38.907735333333335, "name": "b98804c8d5ef702a2aba7ac3c4a62f10", "fusion_lon": 0.0, "bike_id": "b98804c8d5ef702a2aba7ac3c4a62f10", "is_disabled": 0, "is_reserved": 0}, {"rental_uris": {"ios": "https://dc.lft.to/lastmile_qr_scan", "android": "https://dc.lft.to/lastmile_qr_scan"}, "lon": -77.02975766666667, "type": "electric_scooter", "fusion_lat": 0.0, "lat": 38.93879283333333, "name": "4d301b10a1edf827d833096359a5f01c", "fusion_lon": 0.0, "bike_id": "4d301b10a1edf827d833096359a5f01c", "is_disabled": 0, "is_reserved": 0}, {"rental_uris": {"ios": "https://dc.lft.to/lastmile_qr_scan", "android": "https://dc.lft.to/lastmile_qr_scan"}, "lon": -77.03081833333333, "type": "electric_scooter", "fusion_lat": 0.0, "lat": 38.89719233333334, "name": "d133b456f686214e84dbad189def6134", "fusion_lon": 0.0, "bike_id": "d133b456f686214e84dbad189def6134", "is_disabled": 0, "is_reserved": 0}, {"rental_uris": {"ios": "https://dc.lft.to/lastmile_qr_scan", "android": "https://dc.lft.to/lastmile_qr_scan"}, "lon": -77.0118915, "type": "electric_scooter", "fusion_lat": 0.0, "lat": 38.91111733333334, "name": "fac66938dc87899f588969ec9c47215f", "fusion_lon": 0.0, "bike_id": "fac66938dc87899f588969ec9c47215f", "is_disabled": 0, "is_reserved": 0}, {"rental_uris": {"ios": "https://dc.lft.to/lastmile_qr_scan", "android": "https://dc.lft.to/lastmile_qr_scan"}, "lon": -77.02645283333334, "type": "electric_scooter", "fusion_lat": 0.0, "lat": 38.89578733333333, "name": "e801dc3523b9dfab9c5fb5ef33d76801", "fusion_lon": 0.0, "bike_id": "e801dc3523b9dfab9c5fb5ef33d76801", "is_disabled": 0, "is_reserved": 0}, {"rental_uris": {"ios": "https://dc.lft.to/lastmile_qr_scan", "android": "https://dc.lft.to/lastmile_qr_scan"}, "lon": -77.04069, "type": "electric_scooter", "fusion_lat": 0.0, "lat": 38.923894833333335, "name": "d72b3fbb41d3c08b427a79a7ecd5525d", "fusion_lon": 0.0, "bike_id": "d72b3fbb41d3c08b427a79a7ecd5525d", "is_disabled": 0, "is_reserved": 0}, {"rental_uris": {"ios": "https://dc.lft.to/lastmile_qr_scan", "android": "https://dc.lft.to/lastmile_qr_scan"}, "lon": -76.99891266666667, "type": "electric_scooter", "fusion_lat": 0.0, "lat": 38.907498, "name": "3a1b942883c1d33518727da7a9b189a2", "fusion_lon": 0.0, "bike_id": "3a1b942883c1d33518727da7a9b189a2", "is_disabled": 0, "is_reserved": 0}, {"rental_uris": {"ios": "https://dc.lft.to/lastmile_qr_scan", "android": "https://dc.lft.to/lastmile_qr_scan"}, "lon": -77.01495116666666, "type": "electric_scooter", "fusion_lat": 0.0, "lat": 38.901424166666665, "name": "74fa5269d0140bbd79a27804f0afc934", "fusion_lon": 0.0, "bike_id": "74fa5269d0140bbd79a27804f0afc934", "is_disabled": 0, "is_reserved": 0}, {"rental_uris": {"ios": "https://dc.lft.to/lastmile_qr_scan", "android": "https://dc.lft.to/lastmile_qr_scan"}, "lon": -77.02665166666667, "type": "electric_scooter", "fusion_lat": 0.0, "lat": 38.896211, "name": "29c9fc18fe52b96fb9d8d8880e86aa79", "fusion_lon": 0.0, "bike_id": "29c9fc18fe52b96fb9d8d8880e86aa79", "is_disabled": 0, "is_reserved": 0}, {"rental_uris": {"ios": "https://dc.lft.to/lastmile_qr_scan", "android": "https://dc.lft.to/lastmile_qr_scan"}, "lon": -76.97207183333333, "type": "electric_scooter", "fusion_lat": 0.0, "lat": 38.85495983333333, "name": "f7b6a0c0800d3d3d123531796f0312f9", "fusion_lon": 0.0, "bike_id": "f7b6a0c0800d3d3d123531796f0312f9", "is_disabled": 0, "is_reserved": 0}, {"rental_uris": {"ios": "https://dc.lft.to/lastmile_qr_scan", "android": "https://dc.lft.to/lastmile_qr_scan"}, "lon": -76.94625933333333, "type": "electric_bike", "fusion_lat": 0.0, "lat": 38.94626916666667, "name": "2fac5db303a46ab1dff0e70e14417711", "fusion_lon": 0.0, "bike_id": "2fac5db303a46ab1dff0e70e14417711", "is_disabled": 0, "is_reserved": 0}, {"rental_uris": {"ios": "https://dc.lft.to/lastmile_qr_scan", "android": "https://dc.lft.to/lastmile_qr_scan"}, "lon": -77.043314, "type": "electric_scooter", "fusion_lat": 0.0, "lat": 38.89586216666667, "name": "d30bd0424e153d2c10c142bf00e216f2", "fusion_lon": 0.0, "bike_id": "d30bd0424e153d2c10c142bf00e216f2", "is_disabled": 0, "is_reserved": 0}, {"rental_uris": {"ios": "https://dc.lft.to/lastmile_qr_scan", "android": "https://dc.lft.to/lastmile_qr_scan"}, "lon": -77.03465633333333, "type": "electric_scooter", "fusion_lat": 0.0, "lat": 38.917101, "name": "682f9a4d1e45ee327b29699cd3f4d4e8", "fusion_lon": 0.0, "bike_id": "682f9a4d1e45ee327b29699cd3f4d4e8", "is_disabled": 0, "is_reserved": 0}, {"rental_uris": {"ios": "https://dc.lft.to/lastmile_qr_scan", "android": "https://dc.lft.to/lastmile_qr_scan"}, "lon": -77.039459, "type": "electric_scooter", "fusion_lat": 0.0, "lat": 38.899073333333334, "name": "9bbb92dbac85b78cd4a57cfb5f8536e6", "fusion_lon": 0.0, "bike_id": "9bbb92dbac85b78cd4a57cfb5f8536e6", "is_disabled": 0, "is_reserved": 0}, {"rental_uris": {"ios": "https://dc.lft.to/lastmile_qr_scan", "android": "https://dc.lft.to/lastmile_qr_scan"}, "lon": -77.02400566666667, "type": "electric_scooter", "fusion_lat": 0.0, "lat": 38.91726116666667, "name": "4f404e4ba824c23017c59f1aa0352ae5", "fusion_lon": 0.0, "bike_id": "4f404e4ba824c23017c59f1aa0352ae5", "is_disabled": 0, "is_reserved": 0}, {"rental_uris": {"ios": "https://dc.lft.to/lastmile_qr_scan", "android": "https://dc.lft.to/lastmile_qr_scan"}, "lon": -77.031762, "type": "electric_scooter", "fusion_lat": 0.0, "lat": 38.90764683333333, "name": "2d4eea24a38100c1d4b3ab5b72433154", "fusion_lon": 0.0, "bike_id": "2d4eea24a38100c1d4b3ab5b72433154", "is_disabled": 0, "is_reserved": 0}, {"rental_uris": {"ios": "https://dc.lft.to/lastmile_qr_scan", "android": "https://dc.lft.to/lastmile_qr_scan"}, "lon": -77.028358, "type": "electric_scooter", "fusion_lat": 0.0, "lat": 38.8876175, "name": "22fa130527fe8b1d67f03490cc86c5b9", "fusion_lon": 0.0, "bike_id": "22fa130527fe8b1d67f03490cc86c5b9", "is_disabled": 0, "is_reserved": 0}, {"rental_uris": {"ios": "https://dc.lft.to/lastmile_qr_scan", "android": "https://dc.lft.to/lastmile_qr_scan"}, "lon": -77.03841666666666, "type": "electric_scooter", "fusion_lat": 0.0, "lat": 38.9264685, "name": "5cb4f247d497c566817234c0cc4dd878", "fusion_lon": 0.0, "bike_id": "5cb4f247d497c566817234c0cc4dd878", "is_disabled": 0, "is_reserved": 0}, {"rental_uris": {"ios": "https://dc.lft.to/lastmile_qr_scan", "android": "https://dc.lft.to/lastmile_qr_scan"}, "lon": -77.04706966666667, "type": "electric_scooter", "fusion_lat": 0.0, "lat": 38.903968, "name": "b62ededd93f07df7c09900662c76e70e", "fusion_lon": 0.0, "bike_id": "b62ededd93f07df7c09900662c76e70e", "is_disabled": 0, "is_reserved": 0}, {"rental_uris": {"ios": "https://dc.lft.to/lastmile_qr_scan", "android": "https://dc.lft.to/lastmile_qr_scan"}, "lon": -77.04484366666667, "type": "electric_scooter", "fusion_lat": 0.0, "lat": 38.918704166666664, "name": "fc08928afeb1cf9382f0209d01b08370", "fusion_lon": 0.0, "bike_id": "fc08928afeb1cf9382f0209d01b08370", "is_disabled": 0, "is_reserved": 0}, {"rental_uris": {"ios": "https://dc.lft.to/lastmile_qr_scan", "android": "https://dc.lft.to/lastmile_qr_scan"}, "lon": -76.97722883333333, "type": "electric_scooter", "fusion_lat": 0.0, "lat": 38.87243933333333, "name": "02a90f7e87cbc91b1921a69d681724da", "fusion_lon": 0.0, "bike_id": "02a90f7e87cbc91b1921a69d681724da", "is_disabled": 0, "is_reserved": 0}, {"rental_uris": {"ios": "https://dc.lft.to/lastmile_qr_scan", "android": "https://dc.lft.to/lastmile_qr_scan"}, "lon": -77.03667766666666, "type": "electric_scooter", "fusion_lat": 0.0, "lat": 38.92992116666667, "name": "d1927c9f7de0eb36cdb745aad76b008b", "fusion_lon": 0.0, "bike_id": "d1927c9f7de0eb36cdb745aad76b008b", "is_disabled": 0, "is_reserved": 0}, {"rental_uris": {"ios": "https://dc.lft.to/lastmile_qr_scan", "android": "https://dc.lft.to/lastmile_qr_scan"}, "lon": -77.02457733333334, "type": "electric_scooter", "fusion_lat": 0.0, "lat": 38.97941516666667, "name": "969e1ebed449cf2af31a3a901f4bf592", "fusion_lon": 0.0, "bike_id": "969e1ebed449cf2af31a3a901f4bf592", "is_disabled": 0, "is_reserved": 0}, {"rental_uris": {"ios": "https://dc.lft.to/lastmile_qr_scan", "android": "https://dc.lft.to/lastmile_qr_scan"}, "lon": -77.04801433333333, "type": "electric_scooter", "fusion_lat": 0.0, "lat": 38.907348999999996, "name": "0d66ce6603860830297cb56da5914275", "fusion_lon": 0.0, "bike_id": "0d66ce6603860830297cb56da5914275", "is_disabled": 0, "is_reserved": 0}, {"rental_uris": {"ios": "https://dc.lft.to/lastmile_qr_scan", "android": "https://dc.lft.to/lastmile_qr_scan"}, "lon": -77.0241975, "type": "electric_scooter", "fusion_lat": 0.0, "lat": 38.91825583333333, "name": "17ae8554dc033f74c8caed30d19bb107", "fusion_lon": 0.0, "bike_id": "17ae8554dc033f74c8caed30d19bb107", "is_disabled": 0, "is_reserved": 0}, {"rental_uris": {"ios": "https://dc.lft.to/lastmile_qr_scan", "android": "https://dc.lft.to/lastmile_qr_scan"}, "lon": -77.04123383333334, "type": "electric_scooter", "fusion_lat": 0.0, "lat": 38.9235095, "name": "c1f90d6443531facf661df1ae369c500", "fusion_lon": 0.0, "bike_id": "c1f90d6443531facf661df1ae369c500", "is_disabled": 0, "is_reserved": 0}, {"rental_uris": {"ios": "https://dc.lft.to/lastmile_qr_scan", "android": "https://dc.lft.to/lastmile_qr_scan"}, "lon": -77.02337133333333, "type": "electric_scooter", "fusion_lat": 0.0, "lat": 38.930539, "name": "1fce45a97579c8505e6ac64591b70a3f", "fusion_lon": 0.0, "bike_id": "1fce45a97579c8505e6ac64591b70a3f", "is_disabled": 0, "is_reserved": 0}, {"rental_uris": {"ios": "https://dc.lft.to/lastmile_qr_scan", "android": "https://dc.lft.to/lastmile_qr_scan"}, "lon": -77.050344, "type": "electric_scooter", "fusion_lat": 0.0, "lat": 38.89661383333333, "name": "bd3d7353b78b17588cb7f9ad307a4a99", "fusion_lon": 0.0, "bike_id": "bd3d7353b78b17588cb7f9ad307a4a99", "is_disabled": 0, "is_reserved": 0}, {"rental_uris": {"ios": "https://dc.lft.to/lastmile_qr_scan", "android": "https://dc.lft.to/lastmile_qr_scan"}, "lon": -77.046142, "type": "electric_scooter", "fusion_lat": 0.0, "lat": 38.9022825, "name": "24cb6c7bea89330b9447616324afe562", "fusion_lon": 0.0, "bike_id": "24cb6c7bea89330b9447616324afe562", "is_disabled": 0, "is_reserved": 0}, {"rental_uris": {"ios": "https://dc.lft.to/lastmile_qr_scan", "android": "https://dc.lft.to/lastmile_qr_scan"}, "lon": -76.97331199999999, "type": "electric_bike", "fusion_lat": 0.0, "lat": 38.850611, "name": "8d355ffbc0c0e704e991b4a658ef7607", "fusion_lon": 0.0, "bike_id": "8d355ffbc0c0e704e991b4a658ef7607", "is_disabled": 0, "is_reserved": 0}, {"rental_uris": {"ios": "https://dc.lft.to/lastmile_qr_scan", "android": "https://dc.lft.to/lastmile_qr_scan"}, "lon": -77.0525895, "type": "electric_scooter", "fusion_lat": 0.0, "lat": 38.910143, "name": "9bdab0a8c4d30ed49b18f6f06eb51b8c", "fusion_lon": 0.0, "bike_id": "9bdab0a8c4d30ed49b18f6f06eb51b8c", "is_disabled": 0, "is_reserved": 0}, {"rental_uris": {"ios": "https://dc.lft.to/lastmile_qr_scan", "android": "https://dc.lft.to/lastmile_qr_scan"}, "lon": -77.037995, "type": "electric_scooter", "fusion_lat": 0.0, "lat": 38.9218505, "name": "668286242e82d4b23bad22211b9524ba", "fusion_lon": 0.0, "bike_id": "668286242e82d4b23bad22211b9524ba", "is_disabled": 0, "is_reserved": 0}, {"rental_uris": {"ios": "https://dc.lft.to/lastmile_qr_scan", "android": "https://dc.lft.to/lastmile_qr_scan"}, "lon": -77.039388, "type": "electric_scooter", "fusion_lat": 0.0, "lat": 38.90239833333333, "name": "f2a1f7cf027ff68c99c392da2581b787", "fusion_lon": 0.0, "bike_id": "f2a1f7cf027ff68c99c392da2581b787", "is_disabled": 0, "is_reserved": 0}, {"rental_uris": {"ios": "https://dc.lft.to/lastmile_qr_scan", "android": "https://dc.lft.to/lastmile_qr_scan"}, "lon": -77.02138416666666, "type": "electric_scooter", "fusion_lat": 0.0, "lat": 38.9330125, "name": "1c19a22e6c76ddbb7757c720a47fd7ea", "fusion_lon": 0.0, "bike_id": "1c19a22e6c76ddbb7757c720a47fd7ea", "is_disabled": 0, "is_reserved": 0}, {"rental_uris": {"ios": "https://dc.lft.to/lastmile_qr_scan", "android": "https://dc.lft.to/lastmile_qr_scan"}, "lon": -77.12501166666667, "type": "electric_bike", "fusion_lat": 0.0, "lat": 39.0242225, "name": "3ed3618afd5742b84f5760ae9de1d785", "fusion_lon": 0.0, "bike_id": "3ed3618afd5742b84f5760ae9de1d785", "is_disabled": 0, "is_reserved": 0}, {"rental_uris": {"ios": "https://dc.lft.to/lastmile_qr_scan", "android": "https://dc.lft.to/lastmile_qr_scan"}, "lon": -77.02480183333333, "type": "electric_scooter", "fusion_lat": 0.0, "lat": 38.930939333333335, "name": "0072c09360b5661cc6ba1b80c065ec2d", "fusion_lon": 0.0, "bike_id": "0072c09360b5661cc6ba1b80c065ec2d", "is_disabled": 0, "is_reserved": 0}, {"rental_uris": {"ios": "https://dc.lft.to/lastmile_qr_scan", "android": "https://dc.lft.to/lastmile_qr_scan"}, "lon": -77.04519466666666, "type": "electric_scooter", "fusion_lat": 0.0, "lat": 38.91287633333334, "name": "3a3d73a768636fd1206f237362aceea0", "fusion_lon": 0.0, "bike_id": "3a3d73a768636fd1206f237362aceea0", "is_disabled": 0, "is_reserved": 0}, {"rental_uris": {"ios": "https://dc.lft.to/lastmile_qr_scan", "android": "https://dc.lft.to/lastmile_qr_scan"}, "lon": -77.03200716666667, "type": "electric_scooter", "fusion_lat": 0.0, "lat": 38.922876, "name": "11468886553ffd0d19543f96a3d59836", "fusion_lon": 0.0, "bike_id": "11468886553ffd0d19543f96a3d59836", "is_disabled": 0, "is_reserved": 0}, {"rental_uris": {"ios": "https://dc.lft.to/lastmile_qr_scan", "android": "https://dc.lft.to/lastmile_qr_scan"}, "lon": -77.03710483333333, "type": "electric_scooter", "fusion_lat": 0.0, "lat": 38.92625483333333, "name": "99af7cf362dd5be0bce857879e91c9d5", "fusion_lon": 0.0, "bike_id": "99af7cf362dd5be0bce857879e91c9d5", "is_disabled": 0, "is_reserved": 0}, {"rental_uris": {"ios": "https://dc.lft.to/lastmile_qr_scan", "android": "https://dc.lft.to/lastmile_qr_scan"}, "lon": -77.00590033333333, "type": "electric_scooter", "fusion_lat": 0.0, "lat": 38.91559433333333, "name": "e50bc1b99681d5eda2151a9953300ed5", "fusion_lon": 0.0, "bike_id": "e50bc1b99681d5eda2151a9953300ed5", "is_disabled": 0, "is_reserved": 0}, {"rental_uris": {"ios": "https://dc.lft.to/lastmile_qr_scan", "android": "https://dc.lft.to/lastmile_qr_scan"}, "lon": -77.02403666666666, "type": "electric_scooter", "fusion_lat": 0.0, "lat": 38.931094, "name": "0cf8f0d716d7267875c9b663c1bbe565", "fusion_lon": 0.0, "bike_id": "0cf8f0d716d7267875c9b663c1bbe565", "is_disabled": 0, "is_reserved": 0}, {"rental_uris": {"ios": "https://dc.lft.to/lastmile_qr_scan", "android": "https://dc.lft.to/lastmile_qr_scan"}, "lon": -77.0154415, "type": "electric_scooter", "fusion_lat": 0.0, "lat": 38.89202366666667, "name": "b097050b76f07f351abeaefc010067e0", "fusion_lon": 0.0, "bike_id": "b097050b76f07f351abeaefc010067e0", "is_disabled": 0, "is_reserved": 0}, {"rental_uris": {"ios": "https://dc.lft.to/lastmile_qr_scan", "android": "https://dc.lft.to/lastmile_qr_scan"}, "lon": -77.046529, "type": "electric_scooter", "fusion_lat": 0.0, "lat": 38.90538316666667, "name": "eb63b9bba01cd70649c08a9dc7b9668d", "fusion_lon": 0.0, "bike_id": "eb63b9bba01cd70649c08a9dc7b9668d", "is_disabled": 0, "is_reserved": 0}, {"rental_uris": {"ios": "https://dc.lft.to/lastmile_qr_scan", "android": "https://dc.lft.to/lastmile_qr_scan"}, "lon": -77.0790105, "type": "electric_bike", "fusion_lat": 0.0, "lat": 38.839362333333334, "name": "e03a378e5fda42a31c023c6540197553", "fusion_lon": 0.0, "bike_id": "e03a378e5fda42a31c023c6540197553", "is_disabled": 0, "is_reserved": 0}, {"rental_uris": {"ios": "https://dc.lft.to/lastmile_qr_scan", "android": "https://dc.lft.to/lastmile_qr_scan"}, "lon": -77.00672533333334, "type": "electric_scooter", "fusion_lat": 0.0, "lat": 38.87652383333333, "name": "3a2a75dc9e3bda6a833cd65a4fd943f1", "fusion_lon": 0.0, "bike_id": "3a2a75dc9e3bda6a833cd65a4fd943f1", "is_disabled": 0, "is_reserved": 0}, {"rental_uris": {"ios": "https://dc.lft.to/lastmile_qr_scan", "android": "https://dc.lft.to/lastmile_qr_scan"}, "lon": -76.93621433333334, "type": "electric_bike", "fusion_lat": 0.0, "lat": 38.97078366666667, "name": "544034bc877dd7e148a66bd4b61dfd0b", "fusion_lon": 0.0, "bike_id": "544034bc877dd7e148a66bd4b61dfd0b", "is_disabled": 0, "is_reserved": 0}, {"rental_uris": {"ios": "https://dc.lft.to/lastmile_qr_scan", "android": "https://dc.lft.to/lastmile_qr_scan"}, "lon": -77.02466866666667, "type": "electric_scooter", "fusion_lat": 0.0, "lat": 38.93863666666667, "name": "6d352d990bb39ad582765c029f91ae43", "fusion_lon": 0.0, "bike_id": "6d352d990bb39ad582765c029f91ae43", "is_disabled": 0, "is_reserved": 0}, {"rental_uris": {"ios": "https://dc.lft.to/lastmile_qr_scan", "android": "https://dc.lft.to/lastmile_qr_scan"}, "lon": -77.00196166666667, "type": "electric_scooter", "fusion_lat": 0.0, "lat": 38.9118555, "name": "34bdbfe3af84228a29ecf73e393b57c1", "fusion_lon": 0.0, "bike_id": "34bdbfe3af84228a29ecf73e393b57c1", "is_disabled": 0, "is_reserved": 0}, {"rental_uris": {"ios": "https://dc.lft.to/lastmile_qr_scan", "android": "https://dc.lft.to/lastmile_qr_scan"}, "lon": -76.98091283333333, "type": "electric_bike", "fusion_lat": 0.0, "lat": 38.90291416666667, "name": "3c2e9bf8e3d4aab42cfd071c817f8faf", "fusion_lon": 0.0, "bike_id": "3c2e9bf8e3d4aab42cfd071c817f8faf", "is_disabled": 0, "is_reserved": 0}, {"rental_uris": {"ios": "https://dc.lft.to/lastmile_qr_scan", "android": "https://dc.lft.to/lastmile_qr_scan"}, "lon": -77.02360416666667, "type": "electric_scooter", "fusion_lat": 0.0, "lat": 38.934154166666666, "name": "d2fe5e50b9ce33f395fd14cfc90b9904", "fusion_lon": 0.0, "bike_id": "d2fe5e50b9ce33f395fd14cfc90b9904", "is_disabled": 0, "is_reserved": 0}, {"rental_uris": {"ios": "https://dc.lft.to/lastmile_qr_scan", "android": "https://dc.lft.to/lastmile_qr_scan"}, "lon": -76.99874216666667, "type": "electric_scooter", "fusion_lat": 0.0, "lat": 38.90031616666667, "name": "ea5fdbe3278239991d159d8ffd430ca5", "fusion_lon": 0.0, "bike_id": "ea5fdbe3278239991d159d8ffd430ca5", "is_disabled": 0, "is_reserved": 0}, {"rental_uris": {"ios": "https://dc.lft.to/lastmile_qr_scan", "android": "https://dc.lft.to/lastmile_qr_scan"}, "lon": -77.00340016666667, "type": "electric_scooter", "fusion_lat": 0.0, "lat": 38.91339, "name": "91eb37ce926980980a4703e2c25f6ed3", "fusion_lon": 0.0, "bike_id": "91eb37ce926980980a4703e2c25f6ed3", "is_disabled": 0, "is_reserved": 0}, {"rental_uris": {"ios": "https://dc.lft.to/lastmile_qr_scan", "android": "https://dc.lft.to/lastmile_qr_scan"}, "lon": -76.9900025, "type": "electric_scooter", "fusion_lat": 0.0, "lat": 38.865021666666664, "name": "5ab63c40043c969ccf47ca538d389365", "fusion_lon": 0.0, "bike_id": "5ab63c40043c969ccf47ca538d389365", "is_disabled": 0, "is_reserved": 0}, {"rental_uris": {"ios": "https://dc.lft.to/lastmile_qr_scan", "android": "https://dc.lft.to/lastmile_qr_scan"}, "lon": -77.02487533333333, "type": "electric_scooter", "fusion_lat": 0.0, "lat": 38.94185783333333, "name": "15f1bf8bd50e4c1478cb41508155c833", "fusion_lon": 0.0, "bike_id": "15f1bf8bd50e4c1478cb41508155c833", "is_disabled": 0, "is_reserved": 0}, {"rental_uris": {"ios": "https://dc.lft.to/lastmile_qr_scan", "android": "https://dc.lft.to/lastmile_qr_scan"}, "lon": -77.00596366666667, "type": "electric_scooter", "fusion_lat": 0.0, "lat": 38.90579816666666, "name": "348725266253badc3e29347928bec6e7", "fusion_lon": 0.0, "bike_id": "348725266253badc3e29347928bec6e7", "is_disabled": 0, "is_reserved": 0}, {"rental_uris": {"ios": "https://dc.lft.to/lastmile_qr_scan", "android": "https://dc.lft.to/lastmile_qr_scan"}, "lon": -77.03244783333334, "type": "electric_scooter", "fusion_lat": 0.0, "lat": 38.912777, "name": "e438ecc7f4ef68ef4e1e3d2c84997403", "fusion_lon": 0.0, "bike_id": "e438ecc7f4ef68ef4e1e3d2c84997403", "is_disabled": 0, "is_reserved": 0}, {"rental_uris": {"ios": "https://dc.lft.to/lastmile_qr_scan", "android": "https://dc.lft.to/lastmile_qr_scan"}, "lon": -77.048805, "type": "electric_scooter", "fusion_lat": 0.0, "lat": 38.905740333333334, "name": "ec863f0eca9b94f29f90a9722171d49a", "fusion_lon": 0.0, "bike_id": "ec863f0eca9b94f29f90a9722171d49a", "is_disabled": 0, "is_reserved": 0}, {"rental_uris": {"ios": "https://dc.lft.to/lastmile_qr_scan", "android": "https://dc.lft.to/lastmile_qr_scan"}, "lon": -77.038661, "type": "electric_scooter", "fusion_lat": 0.0, "lat": 38.915636, "name": "957da4b2123dd511c35ae828e960e71e", "fusion_lon": 0.0, "bike_id": "957da4b2123dd511c35ae828e960e71e", "is_disabled": 0, "is_reserved": 0}, {"rental_uris": {"ios": "https://dc.lft.to/lastmile_qr_scan", "android": "https://dc.lft.to/lastmile_qr_scan"}, "lon": -77.04232433333334, "type": "electric_scooter", "fusion_lat": 0.0, "lat": 38.92155483333333, "name": "ccbd8c9a6475c6a368903736199aa025", "fusion_lon": 0.0, "bike_id": "ccbd8c9a6475c6a368903736199aa025", "is_disabled": 0, "is_reserved": 0}, {"rental_uris": {"ios": "https://dc.lft.to/lastmile_qr_scan", "android": "https://dc.lft.to/lastmile_qr_scan"}, "lon": -77.03672766666666, "type": "electric_scooter", "fusion_lat": 0.0, "lat": 38.91710483333333, "name": "2e9460dff501bdb095d3f59479159220", "fusion_lon": 0.0, "bike_id": "2e9460dff501bdb095d3f59479159220", "is_disabled": 0, "is_reserved": 0}, {"rental_uris": {"ios": "https://dc.lft.to/lastmile_qr_scan", "android": "https://dc.lft.to/lastmile_qr_scan"}, "lon": -77.06115416666667, "type": "electric_scooter", "fusion_lat": 0.0, "lat": 38.9129315, "name": "dd061f3b5b5c4c2a92447da51b420bed", "fusion_lon": 0.0, "bike_id": "dd061f3b5b5c4c2a92447da51b420bed", "is_disabled": 0, "is_reserved": 0}, {"rental_uris": {"ios": "https://dc.lft.to/lastmile_qr_scan", "android": "https://dc.lft.to/lastmile_qr_scan"}, "lon": -77.0032345, "type": "electric_scooter", "fusion_lat": 0.0, "lat": 38.89507166666667, "name": "70c805a18bb5390863b743d5158dce81", "fusion_lon": 0.0, "bike_id": "70c805a18bb5390863b743d5158dce81", "is_disabled": 0, "is_reserved": 0}, {"rental_uris": {"ios": "https://dc.lft.to/lastmile_qr_scan", "android": "https://dc.lft.to/lastmile_qr_scan"}, "lon": -77.03855166666666, "type": "electric_scooter", "fusion_lat": 0.0, "lat": 38.94197466666667, "name": "e51a38413e97cef51e10d3b10e10e4d0", "fusion_lon": 0.0, "bike_id": "e51a38413e97cef51e10d3b10e10e4d0", "is_disabled": 0, "is_reserved": 0}, {"rental_uris": {"ios": "https://dc.lft.to/lastmile_qr_scan", "android": "https://dc.lft.to/lastmile_qr_scan"}, "lon": -77.034426, "type": "electric_scooter", "fusion_lat": 0.0, "lat": 38.91823816666667, "name": "3c50c33c9342f5d2df085787a3782c85", "fusion_lon": 0.0, "bike_id": "3c50c33c9342f5d2df085787a3782c85", "is_disabled": 0, "is_reserved": 0}, {"rental_uris": {"ios": "https://dc.lft.to/lastmile_qr_scan", "android": "https://dc.lft.to/lastmile_qr_scan"}, "lon": -77.04443183333333, "type": "electric_scooter", "fusion_lat": 0.0, "lat": 38.9101515, "name": "d088f8b9cd5b83488ca7e02a74cbfcf1", "fusion_lon": 0.0, "bike_id": "d088f8b9cd5b83488ca7e02a74cbfcf1", "is_disabled": 0, "is_reserved": 0}, {"rental_uris": {"ios": "https://dc.lft.to/lastmile_qr_scan", "android": "https://dc.lft.to/lastmile_qr_scan"}, "lon": -76.93177116666666, "type": "electric_scooter", "fusion_lat": 0.0, "lat": 38.89884833333333, "name": "9d8bd94e5396bc034ec29cc8e17f4adf", "fusion_lon": 0.0, "bike_id": "9d8bd94e5396bc034ec29cc8e17f4adf", "is_disabled": 0, "is_reserved": 0}, {"rental_uris": {"ios": "https://dc.lft.to/lastmile_qr_scan", "android": "https://dc.lft.to/lastmile_qr_scan"}, "lon": -76.9949645, "type": "electric_scooter", "fusion_lat": 0.0, "lat": 38.86243983333333, "name": "a8c73ed96fb4c6ca331aa1c8357ebbd5", "fusion_lon": 0.0, "bike_id": "a8c73ed96fb4c6ca331aa1c8357ebbd5", "is_disabled": 0, "is_reserved": 0}, {"rental_uris": {"ios": "https://dc.lft.to/lastmile_qr_scan", "android": "https://dc.lft.to/lastmile_qr_scan"}, "lon": -77.0366675, "type": "electric_scooter", "fusion_lat": 0.0, "lat": 38.9182115, "name": "1d0e4c228cd1b07a1751dd5dbae4f4c5", "fusion_lon": 0.0, "bike_id": "1d0e4c228cd1b07a1751dd5dbae4f4c5", "is_disabled": 0, "is_reserved": 0}, {"rental_uris": {"ios": "https://dc.lft.to/lastmile_qr_scan", "android": "https://dc.lft.to/lastmile_qr_scan"}, "lon": -77.02976666666666, "type": "electric_scooter", "fusion_lat": 0.0, "lat": 38.946015333333335, "name": "4799bd40e99d497b46d649736796d001", "fusion_lon": 0.0, "bike_id": "4799bd40e99d497b46d649736796d001", "is_disabled": 0, "is_reserved": 0}, {"rental_uris": {"ios": "https://dc.lft.to/lastmile_qr_scan", "android": "https://dc.lft.to/lastmile_qr_scan"}, "lon": -77.00056783333333, "type": "electric_scooter", "fusion_lat": 0.0, "lat": 38.90588366666667, "name": "6a199376a3db6690da82d18e61b8ee07", "fusion_lon": 0.0, "bike_id": "6a199376a3db6690da82d18e61b8ee07", "is_disabled": 0, "is_reserved": 0}, {"rental_uris": {"ios": "https://dc.lft.to/lastmile_qr_scan", "android": "https://dc.lft.to/lastmile_qr_scan"}, "lon": -77.12036033333334, "type": "electric_bike", "fusion_lat": 0.0, "lat": 38.85512683333333, "name": "473a6c3fbd7772d66db710737e48f54b", "fusion_lon": 0.0, "bike_id": "473a6c3fbd7772d66db710737e48f54b", "is_disabled": 0, "is_reserved": 0}, {"rental_uris": {"ios": "https://dc.lft.to/lastmile_qr_scan", "android": "https://dc.lft.to/lastmile_qr_scan"}, "lon": -77.0295375, "type": "electric_scooter", "fusion_lat": 0.0, "lat": 38.916585833333336, "name": "507f16a944bddb2c63fa8530db0e894a", "fusion_lon": 0.0, "bike_id": "507f16a944bddb2c63fa8530db0e894a", "is_disabled": 0, "is_reserved": 0}, {"rental_uris": {"ios": "https://dc.lft.to/lastmile_qr_scan", "android": "https://dc.lft.to/lastmile_qr_scan"}, "lon": -77.05386633333333, "type": "electric_scooter", "fusion_lat": 0.0, "lat": 38.9026555, "name": "be804ab8a62bd12101f60e63fbbdd2ea", "fusion_lon": 0.0, "bike_id": "be804ab8a62bd12101f60e63fbbdd2ea", "is_disabled": 0, "is_reserved": 0}, {"rental_uris": {"ios": "https://dc.lft.to/lastmile_qr_scan", "android": "https://dc.lft.to/lastmile_qr_scan"}, "lon": -76.99276566666667, "type": "electric_scooter", "fusion_lat": 0.0, "lat": 38.921343, "name": "9bfea2dd51af5649589ec9dd353ec874", "fusion_lon": 0.0, "bike_id": "9bfea2dd51af5649589ec9dd353ec874", "is_disabled": 0, "is_reserved": 0}, {"rental_uris": {"ios": "https://dc.lft.to/lastmile_qr_scan", "android": "https://dc.lft.to/lastmile_qr_scan"}, "lon": -77.02683533333334, "type": "electric_scooter", "fusion_lat": 0.0, "lat": 38.907201, "name": "12ec8193ee83d11f4afdd6f1e078ab01", "fusion_lon": 0.0, "bike_id": "12ec8193ee83d11f4afdd6f1e078ab01", "is_disabled": 0, "is_reserved": 0}, {"rental_uris": {"ios": "https://dc.lft.to/lastmile_qr_scan", "android": "https://dc.lft.to/lastmile_qr_scan"}, "lon": -76.9887925, "type": "electric_scooter", "fusion_lat": 0.0, "lat": 38.832437, "name": "fb4407d1681a64ac414b7a3d18ea5f63", "fusion_lon": 0.0, "bike_id": "fb4407d1681a64ac414b7a3d18ea5f63", "is_disabled": 0, "is_reserved": 0}, {"rental_uris": {"ios": "https://dc.lft.to/lastmile_qr_scan", "android": "https://dc.lft.to/lastmile_qr_scan"}, "lon": -77.01768716666666, "type": "electric_scooter", "fusion_lat": 0.0, "lat": 38.905712, "name": "5dc9d97205200c241e5c4cd4bbd6c5c9", "fusion_lon": 0.0, "bike_id": "5dc9d97205200c241e5c4cd4bbd6c5c9", "is_disabled": 0, "is_reserved": 0}, {"rental_uris": {"ios": "https://dc.lft.to/lastmile_qr_scan", "android": "https://dc.lft.to/lastmile_qr_scan"}, "lon": -77.064075, "type": "electric_bike", "fusion_lat": 0.0, "lat": 38.84349916666667, "name": "5b577ef4c89ede90894459f2b4664de8", "fusion_lon": 0.0, "bike_id": "5b577ef4c89ede90894459f2b4664de8", "is_disabled": 0, "is_reserved": 0}, {"rental_uris": {"ios": "https://dc.lft.to/lastmile_qr_scan", "android": "https://dc.lft.to/lastmile_qr_scan"}, "lon": -77.1991085, "type": "electric_bike", "fusion_lat": 0.0, "lat": 38.87530616666667, "name": "a1d3f651fd884013dd8eb25c2800d707", "fusion_lon": 0.0, "bike_id": "a1d3f651fd884013dd8eb25c2800d707", "is_disabled": 0, "is_reserved": 0}, {"rental_uris": {"ios": "https://dc.lft.to/lastmile_qr_scan", "android": "https://dc.lft.to/lastmile_qr_scan"}, "lon": -77.04608316666666, "type": "electric_scooter", "fusion_lat": 0.0, "lat": 38.9191295, "name": "e357f0bf4c0f1344ce72962741cb8fad", "fusion_lon": 0.0, "bike_id": "e357f0bf4c0f1344ce72962741cb8fad", "is_disabled": 0, "is_reserved": 0}, {"rental_uris": {"ios": "https://dc.lft.to/lastmile_qr_scan", "android": "https://dc.lft.to/lastmile_qr_scan"}, "lon": -77.036545, "type": "electric_bike", "fusion_lat": 0.0, "lat": 38.9359905, "name": "2022bd253e7fab508898b83ed054e34d", "fusion_lon": 0.0, "bike_id": "2022bd253e7fab508898b83ed054e34d", "is_disabled": 0, "is_reserved": 0}, {"rental_uris": {"ios": "https://dc.lft.to/lastmile_qr_scan", "android": "https://dc.lft.to/lastmile_qr_scan"}, "lon": -77.005478, "type": "electric_scooter", "fusion_lat": 0.0, "lat": 38.878901, "name": "3ab8cad94e1612fc4e82fbe5ee1a3b28", "fusion_lon": 0.0, "bike_id": "3ab8cad94e1612fc4e82fbe5ee1a3b28", "is_disabled": 0, "is_reserved": 0}, {"rental_uris": {"ios": "https://dc.lft.to/lastmile_qr_scan", "android": "https://dc.lft.to/lastmile_qr_scan"}, "lon": -77.03163533333333, "type": "electric_scooter", "fusion_lat": 0.0, "lat": 38.90430666666666, "name": "8df6789b3b845bc6e8b65c559b27d72c", "fusion_lon": 0.0, "bike_id": "8df6789b3b845bc6e8b65c559b27d72c", "is_disabled": 0, "is_reserved": 0}, {"rental_uris": {"ios": "https://dc.lft.to/lastmile_qr_scan", "android": "https://dc.lft.to/lastmile_qr_scan"}, "lon": -77.1499605, "type": "electric_bike", "fusion_lat": 0.0, "lat": 39.09464633333333, "name": "ee307826f8af0cd92435c6a1b5816a63", "fusion_lon": 0.0, "bike_id": "ee307826f8af0cd92435c6a1b5816a63", "is_disabled": 0, "is_reserved": 0}, {"rental_uris": {"ios": "https://dc.lft.to/lastmile_qr_scan", "android": "https://dc.lft.to/lastmile_qr_scan"}, "lon": -76.93355166666667, "type": "electric_scooter", "fusion_lat": 0.0, "lat": 38.8992135, "name": "40dd7f42d67b6faf4c1f5ba870dc7658", "fusion_lon": 0.0, "bike_id": "40dd7f42d67b6faf4c1f5ba870dc7658", "is_disabled": 0, "is_reserved": 0}, {"rental_uris": {"ios": "https://dc.lft.to/lastmile_qr_scan", "android": "https://dc.lft.to/lastmile_qr_scan"}, "lon": -77.03412283333333, "type": "electric_scooter", "fusion_lat": 0.0, "lat": 38.921861166666666, "name": "9a7e2650d29568ba82cc24ae515b0fdf", "fusion_lon": 0.0, "bike_id": "9a7e2650d29568ba82cc24ae515b0fdf", "is_disabled": 0, "is_reserved": 0}, {"rental_uris": {"ios": "https://dc.lft.to/lastmile_qr_scan", "android": "https://dc.lft.to/lastmile_qr_scan"}, "lon": -77.02710916666666, "type": "electric_scooter", "fusion_lat": 0.0, "lat": 38.918180666666665, "name": "902a308a5bf4c7e887dd8bb10a19c18f", "fusion_lon": 0.0, "bike_id": "902a308a5bf4c7e887dd8bb10a19c18f", "is_disabled": 0, "is_reserved": 0}, {"rental_uris": {"ios": "https://dc.lft.to/lastmile_qr_scan", "android": "https://dc.lft.to/lastmile_qr_scan"}, "lon": -77.11797683333333, "type": "electric_bike", "fusion_lat": 0.0, "lat": 38.89836916666667, "name": "4ddd7e7c3ef0d47e0b59520c62389edf", "fusion_lon": 0.0, "bike_id": "4ddd7e7c3ef0d47e0b59520c62389edf", "is_disabled": 0, "is_reserved": 0}, {"rental_uris": {"ios": "https://dc.lft.to/lastmile_qr_scan", "android": "https://dc.lft.to/lastmile_qr_scan"}, "lon": -77.02903633333334, "type": "electric_scooter", "fusion_lat": 0.0, "lat": 38.892258166666664, "name": "890d59aeea8f7bc90106c506ac99c29f", "fusion_lon": 0.0, "bike_id": "890d59aeea8f7bc90106c506ac99c29f", "is_disabled": 0, "is_reserved": 0}, {"rental_uris": {"ios": "https://dc.lft.to/lastmile_qr_scan", "android": "https://dc.lft.to/lastmile_qr_scan"}, "lon": -77.01223383333334, "type": "electric_scooter", "fusion_lat": 0.0, "lat": 38.9159945, "name": "bde5a02438dc58b8d7aed731a175458e", "fusion_lon": 0.0, "bike_id": "bde5a02438dc58b8d7aed731a175458e", "is_disabled": 0, "is_reserved": 0}, {"rental_uris": {"ios": "https://dc.lft.to/lastmile_qr_scan", "android": "https://dc.lft.to/lastmile_qr_scan"}, "lon": -77.03187516666667, "type": "electric_scooter", "fusion_lat": 0.0, "lat": 38.900121166666665, "name": "f7ae97eb0e518d743d8ba68586e76798", "fusion_lon": 0.0, "bike_id": "f7ae97eb0e518d743d8ba68586e76798", "is_disabled": 0, "is_reserved": 0}, {"rental_uris": {"ios": "https://dc.lft.to/lastmile_qr_scan", "android": "https://dc.lft.to/lastmile_qr_scan"}, "lon": -77.05980116666667, "type": "electric_scooter", "fusion_lat": 0.0, "lat": 38.935484833333334, "name": "e1ede9ec40ce0517e15988859d4ecd7f", "fusion_lon": 0.0, "bike_id": "e1ede9ec40ce0517e15988859d4ecd7f", "is_disabled": 0, "is_reserved": 0}, {"rental_uris": {"ios": "https://dc.lft.to/lastmile_qr_scan", "android": "https://dc.lft.to/lastmile_qr_scan"}, "lon": -77.03851733333333, "type": "electric_scooter", "fusion_lat": 0.0, "lat": 38.926529333333335, "name": "5d9a06b7e6500f3b789f515365375df1", "fusion_lon": 0.0, "bike_id": "5d9a06b7e6500f3b789f515365375df1", "is_disabled": 0, "is_reserved": 0}, {"rental_uris": {"ios": "https://dc.lft.to/lastmile_qr_scan", "android": "https://dc.lft.to/lastmile_qr_scan"}, "lon": -77.0120565, "type": "electric_scooter", "fusion_lat": 0.0, "lat": 38.91497783333333, "name": "3da3f34810618e7d8eaa54f7db3b5505", "fusion_lon": 0.0, "bike_id": "3da3f34810618e7d8eaa54f7db3b5505", "is_disabled": 0, "is_reserved": 0}, {"rental_uris": {"ios": "https://dc.lft.to/lastmile_qr_scan", "android": "https://dc.lft.to/lastmile_qr_scan"}, "lon": -77.0151145, "type": "electric_scooter", "fusion_lat": 0.0, "lat": 38.88740933333333, "name": "04c2481fde4e85e2e6a796716ca3ad38", "fusion_lon": 0.0, "bike_id": "04c2481fde4e85e2e6a796716ca3ad38", "is_disabled": 0, "is_reserved": 0}, {"rental_uris": {"ios": "https://dc.lft.to/lastmile_qr_scan", "android": "https://dc.lft.to/lastmile_qr_scan"}, "lon": -77.052103, "type": "electric_scooter", "fusion_lat": 0.0, "lat": 38.898036166666664, "name": "3fe1475e9b5d061a02cfa1f18056246d", "fusion_lon": 0.0, "bike_id": "3fe1475e9b5d061a02cfa1f18056246d", "is_disabled": 0, "is_reserved": 0}, {"rental_uris": {"ios": "https://dc.lft.to/lastmile_qr_scan", "android": "https://dc.lft.to/lastmile_qr_scan"}, "lon": -77.046247, "type": "electric_scooter", "fusion_lat": 0.0, "lat": 38.91902966666667, "name": "c15e42ba9dc69db38c5c6c2de4f9f8dd", "fusion_lon": 0.0, "bike_id": "c15e42ba9dc69db38c5c6c2de4f9f8dd", "is_disabled": 0, "is_reserved": 0}, {"rental_uris": {"ios": "https://dc.lft.to/lastmile_qr_scan", "android": "https://dc.lft.to/lastmile_qr_scan"}, "lon": -77.02963266666667, "type": "electric_scooter", "fusion_lat": 0.0, "lat": 38.9256745, "name": "e8270aeb753414c2948a55b8b95564b2", "fusion_lon": 0.0, "bike_id": "e8270aeb753414c2948a55b8b95564b2", "is_disabled": 0, "is_reserved": 0}, {"rental_uris": {"ios": "https://dc.lft.to/lastmile_qr_scan", "android": "https://dc.lft.to/lastmile_qr_scan"}, "lon": -77.0094315, "type": "electric_scooter", "fusion_lat": 0.0, "lat": 38.87193283333333, "name": "b64500b4202c69f59d49fa5d3fd1b9cb", "fusion_lon": 0.0, "bike_id": "b64500b4202c69f59d49fa5d3fd1b9cb", "is_disabled": 0, "is_reserved": 0}, {"rental_uris": {"ios": "https://dc.lft.to/lastmile_qr_scan", "android": "https://dc.lft.to/lastmile_qr_scan"}, "lon": -76.97457616666667, "type": "electric_scooter", "fusion_lat": 0.0, "lat": 38.865419, "name": "e0a36e73c3d4f24696f9c19605329383", "fusion_lon": 0.0, "bike_id": "e0a36e73c3d4f24696f9c19605329383", "is_disabled": 0, "is_reserved": 0}, {"rental_uris": {"ios": "https://dc.lft.to/lastmile_qr_scan", "android": "https://dc.lft.to/lastmile_qr_scan"}, "lon": -76.98365316666667, "type": "electric_scooter", "fusion_lat": 0.0, "lat": 38.915493166666664, "name": "bb120af57ccf017a3cdc9877dc8dea9e", "fusion_lon": 0.0, "bike_id": "bb120af57ccf017a3cdc9877dc8dea9e", "is_disabled": 0, "is_reserved": 0}, {"rental_uris": {"ios": "https://dc.lft.to/lastmile_qr_scan", "android": "https://dc.lft.to/lastmile_qr_scan"}, "lon": -76.95468533333333, "type": "electric_bike", "fusion_lat": 0.0, "lat": 38.88641, "name": "d5f48eced6b51987e56c06d60e4f3b4b", "fusion_lon": 0.0, "bike_id": "d5f48eced6b51987e56c06d60e4f3b4b", "is_disabled": 0, "is_reserved": 0}, {"rental_uris": {"ios": "https://dc.lft.to/lastmile_qr_scan", "android": "https://dc.lft.to/lastmile_qr_scan"}, "lon": -76.98786266666667, "type": "electric_bike", "fusion_lat": 0.0, "lat": 38.90414, "name": "8b85567a148d27b5bffde97820150460", "fusion_lon": 0.0, "bike_id": "8b85567a148d27b5bffde97820150460", "is_disabled": 0, "is_reserved": 0}, {"rental_uris": {"ios": "https://dc.lft.to/lastmile_qr_scan", "android": "https://dc.lft.to/lastmile_qr_scan"}, "lon": -77.02225033333333, "type": "electric_scooter", "fusion_lat": 0.0, "lat": 38.9127175, "name": "8015380836271f0a362803a71f3e1ec0", "fusion_lon": 0.0, "bike_id": "8015380836271f0a362803a71f3e1ec0", "is_disabled": 0, "is_reserved": 0}, {"rental_uris": {"ios": "https://dc.lft.to/lastmile_qr_scan", "android": "https://dc.lft.to/lastmile_qr_scan"}, "lon": -76.990657, "type": "electric_scooter", "fusion_lat": 0.0, "lat": 38.863587833333334, "name": "420e4b1bbb28868e402917594e51ebbf", "fusion_lon": 0.0, "bike_id": "420e4b1bbb28868e402917594e51ebbf", "is_disabled": 0, "is_reserved": 0}, {"rental_uris": {"ios": "https://dc.lft.to/lastmile_qr_scan", "android": "https://dc.lft.to/lastmile_qr_scan"}, "lon": -77.039106, "type": "electric_scooter", "fusion_lat": 0.0, "lat": 38.891993166666666, "name": "c72b8a560c76c385da7e87179f9a318a", "fusion_lon": 0.0, "bike_id": "c72b8a560c76c385da7e87179f9a318a", "is_disabled": 0, "is_reserved": 0}, {"rental_uris": {"ios": "https://dc.lft.to/lastmile_qr_scan", "android": "https://dc.lft.to/lastmile_qr_scan"}, "lon": -77.03147033333333, "type": "electric_scooter", "fusion_lat": 0.0, "lat": 38.9156215, "name": "e9b87e8e833b3c1aff3ec8ede6c18d0d", "fusion_lon": 0.0, "bike_id": "e9b87e8e833b3c1aff3ec8ede6c18d0d", "is_disabled": 0, "is_reserved": 0}, {"rental_uris": {"ios": "https://dc.lft.to/lastmile_qr_scan", "android": "https://dc.lft.to/lastmile_qr_scan"}, "lon": -77.01392916666667, "type": "electric_scooter", "fusion_lat": 0.0, "lat": 38.97016766666667, "name": "ebd48af5344fe32be1b0d07681e43499", "fusion_lon": 0.0, "bike_id": "ebd48af5344fe32be1b0d07681e43499", "is_disabled": 0, "is_reserved": 0}, {"rental_uris": {"ios": "https://dc.lft.to/lastmile_qr_scan", "android": "https://dc.lft.to/lastmile_qr_scan"}, "lon": -77.015279, "type": "electric_scooter", "fusion_lat": 0.0, "lat": 38.901853833333334, "name": "0c34702f761bd19124a1269f8c6d7349", "fusion_lon": 0.0, "bike_id": "0c34702f761bd19124a1269f8c6d7349", "is_disabled": 0, "is_reserved": 0}, {"rental_uris": {"ios": "https://dc.lft.to/lastmile_qr_scan", "android": "https://dc.lft.to/lastmile_qr_scan"}, "lon": -77.02709166666666, "type": "electric_scooter", "fusion_lat": 0.0, "lat": 38.918124666666664, "name": "d1bc88ec09b84ff49e3380cf9e2ea995", "fusion_lon": 0.0, "bike_id": "d1bc88ec09b84ff49e3380cf9e2ea995", "is_disabled": 0, "is_reserved": 0}, {"rental_uris": {"ios": "https://dc.lft.to/lastmile_qr_scan", "android": "https://dc.lft.to/lastmile_qr_scan"}, "lon": -76.99791216666667, "type": "electric_scooter", "fusion_lat": 0.0, "lat": 38.92180283333333, "name": "251789845d0aff7a6043a685a1b317e0", "fusion_lon": 0.0, "bike_id": "251789845d0aff7a6043a685a1b317e0", "is_disabled": 0, "is_reserved": 0}, {"rental_uris": {"ios": "https://dc.lft.to/lastmile_qr_scan", "android": "https://dc.lft.to/lastmile_qr_scan"}, "lon": -76.98740233333334, "type": "electric_bike", "fusion_lat": 0.0, "lat": 38.8579325, "name": "9c295c036fc0cfc1a10dbe9ac545145f", "fusion_lon": 0.0, "bike_id": "9c295c036fc0cfc1a10dbe9ac545145f", "is_disabled": 0, "is_reserved": 0}, {"rental_uris": {"ios": "https://dc.lft.to/lastmile_qr_scan", "android": "https://dc.lft.to/lastmile_qr_scan"}, "lon": -76.99599366666666, "type": "electric_scooter", "fusion_lat": 0.0, "lat": 38.845443333333336, "name": "2072cfc79e00404e9fba2416a288aafa", "fusion_lon": 0.0, "bike_id": "2072cfc79e00404e9fba2416a288aafa", "is_disabled": 0, "is_reserved": 0}, {"rental_uris": {"ios": "https://dc.lft.to/lastmile_qr_scan", "android": "https://dc.lft.to/lastmile_qr_scan"}, "lon": -77.0366475, "type": "electric_scooter", "fusion_lat": 0.0, "lat": 38.918136, "name": "80c0a4f30163328c427b1bdffe89fb46", "fusion_lon": 0.0, "bike_id": "80c0a4f30163328c427b1bdffe89fb46", "is_disabled": 0, "is_reserved": 0}, {"rental_uris": {"ios": "https://dc.lft.to/lastmile_qr_scan", "android": "https://dc.lft.to/lastmile_qr_scan"}, "lon": -77.0297015, "type": "electric_scooter", "fusion_lat": 0.0, "lat": 38.9051315, "name": "d50eed254429c5575c4a6fbc4efb4754", "fusion_lon": 0.0, "bike_id": "d50eed254429c5575c4a6fbc4efb4754", "is_disabled": 0, "is_reserved": 0}, {"rental_uris": {"ios": "https://dc.lft.to/lastmile_qr_scan", "android": "https://dc.lft.to/lastmile_qr_scan"}, "lon": -76.98499466666667, "type": "electric_scooter", "fusion_lat": 0.0, "lat": 38.86048266666667, "name": "96dd758a0129b4e84abbf55292c5d2a2", "fusion_lon": 0.0, "bike_id": "96dd758a0129b4e84abbf55292c5d2a2", "is_disabled": 0, "is_reserved": 0}, {"rental_uris": {"ios": "https://dc.lft.to/lastmile_qr_scan", "android": "https://dc.lft.to/lastmile_qr_scan"}, "lon": -77.039084, "type": "electric_scooter", "fusion_lat": 0.0, "lat": 38.90457166666667, "name": "03a8b2aaa63d2322ce72510b4fdb32ca", "fusion_lon": 0.0, "bike_id": "03a8b2aaa63d2322ce72510b4fdb32ca", "is_disabled": 0, "is_reserved": 0}, {"rental_uris": {"ios": "https://dc.lft.to/lastmile_qr_scan", "android": "https://dc.lft.to/lastmile_qr_scan"}, "lon": -77.047055, "type": "electric_scooter", "fusion_lat": 0.0, "lat": 38.921686666666666, "name": "c0d268d6a8856d654e3780a1ca7b8fcb", "fusion_lon": 0.0, "bike_id": "c0d268d6a8856d654e3780a1ca7b8fcb", "is_disabled": 0, "is_reserved": 0}, {"rental_uris": {"ios": "https://dc.lft.to/lastmile_qr_scan", "android": "https://dc.lft.to/lastmile_qr_scan"}, "lon": -77.10097466666667, "type": "electric_bike", "fusion_lat": 0.0, "lat": 38.959559, "name": "6fe3fea3d70ce689780e13ff9d06e588", "fusion_lon": 0.0, "bike_id": "6fe3fea3d70ce689780e13ff9d06e588", "is_disabled": 0, "is_reserved": 0}, {"rental_uris": {"ios": "https://dc.lft.to/lastmile_qr_scan", "android": "https://dc.lft.to/lastmile_qr_scan"}, "lon": -77.04233833333333, "type": "electric_scooter", "fusion_lat": 0.0, "lat": 38.9060465, "name": "445d73d08d13372fbb1d99fe75c0a198", "fusion_lon": 0.0, "bike_id": "445d73d08d13372fbb1d99fe75c0a198", "is_disabled": 0, "is_reserved": 0}, {"rental_uris": {"ios": "https://dc.lft.to/lastmile_qr_scan", "android": "https://dc.lft.to/lastmile_qr_scan"}, "lon": -77.03942533333333, "type": "electric_scooter", "fusion_lat": 0.0, "lat": 38.8991045, "name": "1a615b0bf529dbc68d2134446c7d685a", "fusion_lon": 0.0, "bike_id": "1a615b0bf529dbc68d2134446c7d685a", "is_disabled": 0, "is_reserved": 0}, {"rental_uris": {"ios": "https://dc.lft.to/lastmile_qr_scan", "android": "https://dc.lft.to/lastmile_qr_scan"}, "lon": -76.97882966666667, "type": "electric_scooter", "fusion_lat": 0.0, "lat": 38.90421516666667, "name": "f76a29d7e6f15000e6c085c802329623", "fusion_lon": 0.0, "bike_id": "f76a29d7e6f15000e6c085c802329623", "is_disabled": 0, "is_reserved": 0}, {"rental_uris": {"ios": "https://dc.lft.to/lastmile_qr_scan", "android": "https://dc.lft.to/lastmile_qr_scan"}, "lon": -77.04815183333334, "type": "electric_scooter", "fusion_lat": 0.0, "lat": 38.89621433333333, "name": "ec1b9aedd9187dbf5dea23b1cc1c7110", "fusion_lon": 0.0, "bike_id": "ec1b9aedd9187dbf5dea23b1cc1c7110", "is_disabled": 0, "is_reserved": 0}, {"rental_uris": {"ios": "https://dc.lft.to/lastmile_qr_scan", "android": "https://dc.lft.to/lastmile_qr_scan"}, "lon": -77.022242, "type": "electric_scooter", "fusion_lat": 0.0, "lat": 38.938700833333336, "name": "34796215d0158c58fdbeb49994a6ea63", "fusion_lon": 0.0, "bike_id": "34796215d0158c58fdbeb49994a6ea63", "is_disabled": 0, "is_reserved": 0}, {"rental_uris": {"ios": "https://dc.lft.to/lastmile_qr_scan", "android": "https://dc.lft.to/lastmile_qr_scan"}, "lon": -77.02232866666667, "type": "electric_scooter", "fusion_lat": 0.0, "lat": 38.91427983333333, "name": "ab424ac254c2fd2900ad0eb98618106f", "fusion_lon": 0.0, "bike_id": "ab424ac254c2fd2900ad0eb98618106f", "is_disabled": 0, "is_reserved": 0}, {"rental_uris": {"ios": "https://dc.lft.to/lastmile_qr_scan", "android": "https://dc.lft.to/lastmile_qr_scan"}, "lon": -77.021583, "type": "electric_scooter", "fusion_lat": 0.0, "lat": 38.926157333333336, "name": "b8e47c54696a312add8c8325568c5178", "fusion_lon": 0.0, "bike_id": "b8e47c54696a312add8c8325568c5178", "is_disabled": 0, "is_reserved": 0}, {"rental_uris": {"ios": "https://dc.lft.to/lastmile_qr_scan", "android": "https://dc.lft.to/lastmile_qr_scan"}, "lon": -77.03200283333334, "type": "electric_scooter", "fusion_lat": 0.0, "lat": 38.916963, "name": "65675283f7c3ce32ea85a89185b592e4", "fusion_lon": 0.0, "bike_id": "65675283f7c3ce32ea85a89185b592e4", "is_disabled": 0, "is_reserved": 0}, {"rental_uris": {"ios": "https://dc.lft.to/lastmile_qr_scan", "android": "https://dc.lft.to/lastmile_qr_scan"}, "lon": -77.00215116666666, "type": "electric_scooter", "fusion_lat": 0.0, "lat": 38.91107783333333, "name": "8b56a1d388cd2bc498905ea2f16dcaf5", "fusion_lon": 0.0, "bike_id": "8b56a1d388cd2bc498905ea2f16dcaf5", "is_disabled": 0, "is_reserved": 0}, {"rental_uris": {"ios": "https://dc.lft.to/lastmile_qr_scan", "android": "https://dc.lft.to/lastmile_qr_scan"}, "lon": -77.03015883333333, "type": "electric_scooter", "fusion_lat": 0.0, "lat": 38.92049733333333, "name": "c651dfb85e8e855600a5bd019ffafac2", "fusion_lon": 0.0, "bike_id": "c651dfb85e8e855600a5bd019ffafac2", "is_disabled": 0, "is_reserved": 0}, {"rental_uris": {"ios": "https://dc.lft.to/lastmile_qr_scan", "android": "https://dc.lft.to/lastmile_qr_scan"}, "lon": -77.0378075, "type": "electric_scooter", "fusion_lat": 0.0, "lat": 38.93024466666667, "name": "43bb45f82b24e94b1497dc8b08669d90", "fusion_lon": 0.0, "bike_id": "43bb45f82b24e94b1497dc8b08669d90", "is_disabled": 0, "is_reserved": 0}, {"rental_uris": {"ios": "https://dc.lft.to/lastmile_qr_scan", "android": "https://dc.lft.to/lastmile_qr_scan"}, "lon": -77.0344635, "type": "electric_scooter", "fusion_lat": 0.0, "lat": 38.90729433333333, "name": "796a6406eeaf5d1c2782d3c4ebe4149b", "fusion_lon": 0.0, "bike_id": "796a6406eeaf5d1c2782d3c4ebe4149b", "is_disabled": 0, "is_reserved": 0}, {"rental_uris": {"ios": "https://dc.lft.to/lastmile_qr_scan", "android": "https://dc.lft.to/lastmile_qr_scan"}, "lon": -77.04258483333334, "type": "electric_scooter", "fusion_lat": 0.0, "lat": 38.915860333333335, "name": "7fb8eabb0937abc4e866e32a0f55879d", "fusion_lon": 0.0, "bike_id": "7fb8eabb0937abc4e866e32a0f55879d", "is_disabled": 0, "is_reserved": 0}, {"rental_uris": {"ios": "https://dc.lft.to/lastmile_qr_scan", "android": "https://dc.lft.to/lastmile_qr_scan"}, "lon": -77.0588515, "type": "electric_scooter", "fusion_lat": 0.0, "lat": 38.93637433333333, "name": "6e35cc542426f276fde00273a164012d", "fusion_lon": 0.0, "bike_id": "6e35cc542426f276fde00273a164012d", "is_disabled": 0, "is_reserved": 0}, {"rental_uris": {"ios": "https://dc.lft.to/lastmile_qr_scan", "android": "https://dc.lft.to/lastmile_qr_scan"}, "lon": -76.98715866666667, "type": "electric_scooter", "fusion_lat": 0.0, "lat": 38.86702833333333, "name": "697e4a9010692756cf5624b0060ff77c", "fusion_lon": 0.0, "bike_id": "697e4a9010692756cf5624b0060ff77c", "is_disabled": 0, "is_reserved": 0}, {"rental_uris": {"ios": "https://dc.lft.to/lastmile_qr_scan", "android": "https://dc.lft.to/lastmile_qr_scan"}, "lon": -77.02295066666667, "type": "electric_scooter", "fusion_lat": 0.0, "lat": 38.927615, "name": "881586232780fe6a2531c73ee799e3ff", "fusion_lon": 0.0, "bike_id": "881586232780fe6a2531c73ee799e3ff", "is_disabled": 0, "is_reserved": 0}, {"rental_uris": {"ios": "https://dc.lft.to/lastmile_qr_scan", "android": "https://dc.lft.to/lastmile_qr_scan"}, "lon": -77.0379655, "type": "electric_scooter", "fusion_lat": 0.0, "lat": 38.90552366666667, "name": "4f2d8305c9fbe5bec5c31a074a5d62b5", "fusion_lon": 0.0, "bike_id": "4f2d8305c9fbe5bec5c31a074a5d62b5", "is_disabled": 0, "is_reserved": 0}, {"rental_uris": {"ios": "https://dc.lft.to/lastmile_qr_scan", "android": "https://dc.lft.to/lastmile_qr_scan"}, "lon": -77.0255925, "type": "electric_scooter", "fusion_lat": 0.0, "lat": 38.9020105, "name": "a7b1cc1640dd07f5c460e618d38cf5ca", "fusion_lon": 0.0, "bike_id": "a7b1cc1640dd07f5c460e618d38cf5ca", "is_disabled": 0, "is_reserved": 0}, {"rental_uris": {"ios": "https://dc.lft.to/lastmile_qr_scan", "android": "https://dc.lft.to/lastmile_qr_scan"},