{"data": {"bikes": [{"is_disabled": 0, "rental_uris": {"android": "https://dc.lft.to/lastmile_qr_scan", "ios": "https://dc.lft.to/lastmile_qr_scan"}, "is_reserved": 0, "name": "a47369904c23d2c855425b1354b07ec8", "lon": -77.04378666666666, "type": "electric_scooter", "bike_id": "a47369904c23d2c855425b1354b07ec8", "fusion_lon": 0.0, "lat": 38.921267666666665, "fusion_lat": 0.0}, {"is_disabled": 0, "rental_uris": {"android": "https://dc.lft.to/lastmile_qr_scan", "ios": "https://dc.lft.to/lastmile_qr_scan"}, "is_reserved": 0, "name": "60c414d10e4d32171c2e73cbbfd2b3b6", "lon": -77.036173, "type": "electric_scooter", "bike_id": "60c414d10e4d32171c2e73cbbfd2b3b6", "fusion_lon": 0.0, "lat": 38.926588, "fusion_lat": 0.0}, {"is_disabled": 0, "rental_uris": {"android": "https://dc.lft.to/lastmile_qr_scan", "ios": "https://dc.lft.to/lastmile_qr_scan"}, "is_reserved": 0, "name": "ad1abb6290d76b6f468f15fce3fcef70", "lon": -77.04391783333334, "type": "electric_scooter", "bike_id": "ad1abb6290d76b6f468f15fce3fcef70", "fusion_lon": 0.0, "lat": 38.90015, "fusion_lat": 0.0}, {"is_disabled": 0, "rental_uris": {"android": "https://dc.lft.to/lastmile_qr_scan", "ios": "https://dc.lft.to/lastmile_qr_scan"}, "is_reserved": 0, "name": "26e46541c507744cdfc5b64c90568b06", "lon": -77.04626016666667, "type": "electric_scooter", "bike_id": "26e46541c507744cdfc5b64c90568b06", "fusion_lon": 0.0, "lat": 38.90689866666666, "fusion_lat": 0.0}, {"is_disabled": 0, "rental_uris": {"android": "https://dc.lft.to/lastmile_qr_scan", "ios": "https://dc.lft.to/lastmile_qr_scan"}, "is_reserved": 0, "name": "7a62a981cc8a605ecddb5d81bcba63f3", "lon": -77.02720333333333, "type": "electric_scooter", "bike_id": "7a62a981cc8a605ecddb5d81bcba63f3", "fusion_lon": 0.0, "lat": 38.940895, "fusion_lat": 0.0}, {"is_disabled": 0, "rental_uris": {"android": "https://dc.lft.to/lastmile_qr_scan", "ios": "https://dc.lft.to/lastmile_qr_scan"}, "is_reserved": 0, "name": "e48df93f2402b35473e791bb2c50af28", "lon": -77.04149983333333, "type": "electric_scooter", "bike_id": "e48df93f2402b35473e791bb2c50af28", "fusion_lon": 0.0, "lat": 38.90125533333333, "fusion_lat": 0.0}, {"is_disabled": 0, "rental_uris": {"android": "https://dc.lft.to/lastmile_qr_scan", "ios": "https://dc.lft.to/lastmile_qr_scan"}, "is_reserved": 0, "name": "7120d952f98f42be3a96dd962fc9c7c7", "lon": -77.0440525, "type": "electric_scooter", "bike_id": "7120d952f98f42be3a96dd962fc9c7c7", "fusion_lon": 0.0, "lat": 38.91084766666667, "fusion_lat": 0.0}, {"is_disabled": 0, "rental_uris": {"android": "https://dc.lft.to/lastmile_qr_scan", "ios": "https://dc.lft.to/lastmile_qr_scan"}, "is_reserved": 0, "name": "d46925f61cccf01178993aa2234fbac5", "lon": -77.02146933333333, "type": "electric_scooter", "bike_id": "d46925f61cccf01178993aa2234fbac5", "fusion_lon": 0.0, "lat": 38.923424833333335, "fusion_lat": 0.0}, {"is_disabled": 0, "rental_uris": {"android": "https://dc.lft.to/lastmile_qr_scan", "ios": "https://dc.lft.to/lastmile_qr_scan"}, "is_reserved": 0, "name": "da11fa4559a529d915562ea5b3e35c46", "lon": -77.026801, "type": "electric_scooter", "bike_id": "da11fa4559a529d915562ea5b3e35c46", "fusion_lon": 0.0, "lat": 38.90960533333333, "fusion_lat": 0.0}, {"is_disabled": 0, "rental_uris": {"android": "https://dc.lft.to/lastmile_qr_scan", "ios": "https://dc.lft.to/lastmile_qr_scan"}, "is_reserved": 0, "name": "9f26a8c286562d0c798143f43f352aff", "lon": -77.00919166666667, "type": "electric_scooter", "bike_id": "9f26a8c286562d0c798143f43f352aff", "fusion_lon": 0.0, "lat": 38.959564666666665, "fusion_lat": 0.0}, {"is_disabled": 0, "rental_uris": {"android": "https://dc.lft.to/lastmile_qr_scan", "ios": "https://dc.lft.to/lastmile_qr_scan"}, "is_reserved": 0, "name": "e5df475395e83d928fa5b9aa4b7f501d", "lon": -77.07426416666667, "type": "electric_scooter", "bike_id": "e5df475395e83d928fa5b9aa4b7f501d", "fusion_lon": 0.0, "lat": 38.91091216666667, "fusion_lat": 0.0}, {"is_disabled": 0, "rental_uris": {"android": "https://dc.lft.to/lastmile_qr_scan", "ios": "https://dc.lft.to/lastmile_qr_scan"}, "is_reserved": 0, "name": "bc7bea4d8c98ac4a8903ed6a5d73d827", "lon": -77.02387966666667, "type": "electric_scooter", "bike_id": "bc7bea4d8c98ac4a8903ed6a5d73d827", "fusion_lon": 0.0, "lat": 38.896159833333336, "fusion_lat": 0.0}, {"is_disabled": 0, "rental_uris": {"android": "https://dc.lft.to/lastmile_qr_scan", "ios": "https://dc.lft.to/lastmile_qr_scan"}, "is_reserved": 0, "name": "12ea1ac97873a9693722a1d90ea06921", "lon": -77.03862733333334, "type": "electric_scooter", "bike_id": "12ea1ac97873a9693722a1d90ea06921", "fusion_lon": 0.0, "lat": 38.931212, "fusion_lat": 0.0}, {"is_disabled": 0, "rental_uris": {"android": "https://dc.lft.to/lastmile_qr_scan", "ios": "https://dc.lft.to/lastmile_qr_scan"}, "is_reserved": 0, "name": "692f135535e8be109974f1248c85e70f", "lon": -77.12897866666667, "type": "electric_bike", "bike_id": "692f135535e8be109974f1248c85e70f", "fusion_lon": 0.0, "lat": 38.86379483333333, "fusion_lat": 0.0}, {"is_disabled": 0, "rental_uris": {"android": "https://dc.lft.to/lastmile_qr_scan", "ios": "https://dc.lft.to/lastmile_qr_scan"}, "is_reserved": 0, "name": "1c1b8d94aff663e0e7e63297775641d4", "lon": -77.02104566666667, "type": "electric_bike", "bike_id": "1c1b8d94aff663e0e7e63297775641d4", "fusion_lon": 0.0, "lat": 39.023027666666664, "fusion_lat": 0.0}, {"is_disabled": 0, "rental_uris": {"android": "https://dc.lft.to/lastmile_qr_scan", "ios": "https://dc.lft.to/lastmile_qr_scan"}, "is_reserved": 0, "name": "eefb9d5afc0580dc5f9b46a4a5053879", "lon": -77.00766533333334, "type": "electric_scooter", "bike_id": "eefb9d5afc0580dc5f9b46a4a5053879", "fusion_lon": 0.0, "lat": 38.90070466666667, "fusion_lat": 0.0}, {"is_disabled": 0, "rental_uris": {"android": "https://dc.lft.to/lastmile_qr_scan", "ios": "https://dc.lft.to/lastmile_qr_scan"}, "is_reserved": 0, "name": "4bd1256f5841cb4359363d989ec576d9", "lon": -77.00384, "type": "electric_scooter", "bike_id": "4bd1256f5841cb4359363d989ec576d9", "fusion_lon": 0.0, "lat": 38.87641166666667, "fusion_lat": 0.0}, {"is_disabled": 0, "rental_uris": {"android": "https://dc.lft.to/lastmile_qr_scan", "ios": "https://dc.lft.to/lastmile_qr_scan"}, "is_reserved": 0, "name": "b971b2a6dcc1f57d397e82000cc41467", "lon": -76.9904175, "type": "electric_scooter", "bike_id": "b971b2a6dcc1f57d397e82000cc41467", "fusion_lon": 0.0, "lat": 38.898594333333335, "fusion_lat": 0.0}, {"is_disabled": 0, "rental_uris": {"android": "https://dc.lft.to/lastmile_qr_scan", "ios": "https://dc.lft.to/lastmile_qr_scan"}, "is_reserved": 0, "name": "29dcf63b38aed4a511f140c43309bca0", "lon": -77.0246435, "type": "electric_scooter", "bike_id": "29dcf63b38aed4a511f140c43309bca0", "fusion_lon": 0.0, "lat": 38.93767416666667, "fusion_lat": 0.0}, {"is_disabled": 0, "rental_uris": {"android": "https://dc.lft.to/lastmile_qr_scan", "ios": "https://dc.lft.to/lastmile_qr_scan"}, "is_reserved": 0, "name": "ed26c37aff2b8333268c314c8b83fe9f", "lon": -77.02795133333333, "type": "electric_scooter", "bike_id": "ed26c37aff2b8333268c314c8b83fe9f", "fusion_lon": 0.0, "lat": 38.903962666666665, "fusion_lat": 0.0}, {"is_disabled": 0, "rental_uris": {"android": "https://dc.lft.to/lastmile_qr_scan", "ios": "https://dc.lft.to/lastmile_qr_scan"}, "is_reserved": 0, "name": "a77aafbcefd739760928359b4e1cb042", "lon": -77.04608283333333, "type": "electric_scooter", "bike_id": "a77aafbcefd739760928359b4e1cb042", "fusion_lon": 0.0, "lat": 38.89967933333333, "fusion_lat": 0.0}, {"is_disabled": 0, "rental_uris": {"android": "https://dc.lft.to/lastmile_qr_scan", "ios": "https://dc.lft.to/lastmile_qr_scan"}, "is_reserved": 0, "name": "0e39e9aed79a5775f225c39da170c552", "lon": -76.99538516666667, "type": "electric_scooter", "bike_id": "0e39e9aed79a5775f225c39da170c552", "fusion_lon": 0.0, "lat": 38.86252983333333, "fusion_lat": 0.0}, {"is_disabled": 0, "rental_uris": {"android": "https://dc.lft.to/lastmile_qr_scan", "ios": "https://dc.lft.to/lastmile_qr_scan"}, "is_reserved": 0, "name": "5907d422345a755c2587d3faeaddfd69", "lon": -76.94121666666666, "type": "electric_scooter", "bike_id": "5907d422345a755c2587d3faeaddfd69", "fusion_lon": 0.0, "lat": 38.908033333333336, "fusion_lat": 0.0}, {"is_disabled": 0, "rental_uris": {"android": "https://dc.lft.to/lastmile_qr_scan", "ios": "https://dc.lft.to/lastmile_qr_scan"}, "is_reserved": 0, "name": "d36e8970d7cdd21d0a651f27c07ceb90", "lon": -77.04177233333333, "type": "electric_scooter", "bike_id": "d36e8970d7cdd21d0a651f27c07ceb90", "fusion_lon": 0.0, "lat": 38.9080335, "fusion_lat": 0.0}, {"is_disabled": 0, "rental_uris": {"android": "https://dc.lft.to/lastmile_qr_scan", "ios": "https://dc.lft.to/lastmile_qr_scan"}, "is_reserved": 0, "name": "447cf57a16a3208d3389f08dd58756f5", "lon": -77.0270705, "type": "electric_scooter", "bike_id": "447cf57a16a3208d3389f08dd58756f5", "fusion_lon": 0.0, "lat": 38.919682, "fusion_lat": 0.0}, {"is_disabled": 0, "rental_uris": {"android": "https://dc.lft.to/lastmile_qr_scan", "ios": "https://dc.lft.to/lastmile_qr_scan"}, "is_reserved": 0, "name": "52a8926fad0897d16bd26c22ab85e593", "lon": -77.02407816666667, "type": "electric_scooter", "bike_id": "52a8926fad0897d16bd26c22ab85e593", "fusion_lon": 0.0, "lat": 38.937072666666666, "fusion_lat": 0.0}, {"is_disabled": 0, "rental_uris": {"android": "https://dc.lft.to/lastmile_qr_scan", "ios": "https://dc.lft.to/lastmile_qr_scan"}, "is_reserved": 0, "name": "2041020210e1c4692e05a0d0d904c06f", "lon": -77.0510735, "type": "electric_scooter", "bike_id": "2041020210e1c4692e05a0d0d904c06f", "fusion_lon": 0.0, "lat": 38.923628, "fusion_lat": 0.0}, {"is_disabled": 0, "rental_uris": {"android": "https://dc.lft.to/lastmile_qr_scan", "ios": "https://dc.lft.to/lastmile_qr_scan"}, "is_reserved": 0, "name": "722c6ace06dc102267e70d3f0b25ff10", "lon": -77.16230966666667, "type": "electric_bike", "bike_id": "722c6ace06dc102267e70d3f0b25ff10", "fusion_lon": 0.0, "lat": 38.8865975, "fusion_lat": 0.0}, {"is_disabled": 0, "rental_uris": {"android": "https://dc.lft.to/lastmile_qr_scan", "ios": "https://dc.lft.to/lastmile_qr_scan"}, "is_reserved": 0, "name": "d76a0ac63130d69d389ea10ab1f334b9", "lon": -77.014117, "type": "electric_scooter", "bike_id": "d76a0ac63130d69d389ea10ab1f334b9", "fusion_lon": 0.0, "lat": 38.928165666666665, "fusion_lat": 0.0}, {"is_disabled": 0, "rental_uris": {"android": "https://dc.lft.to/lastmile_qr_scan", "ios": "https://dc.lft.to/lastmile_qr_scan"}, "is_reserved": 0, "name": "633e7000c137a474e71220b45b8564eb", "lon": -77.01239166666667, "type": "electric_scooter", "bike_id": "633e7000c137a474e71220b45b8564eb", "fusion_lon": 0.0, "lat": 38.87478016666667, "fusion_lat": 0.0}, {"is_disabled": 0, "rental_uris": {"android": "https://dc.lft.to/lastmile_qr_scan", "ios": "https://dc.lft.to/lastmile_qr_scan"}, "is_reserved": 0, "name": "8c769c3c8a6d745bdf89e71ff1668f9e", "lon": -77.0294165, "type": "electric_scooter", "bike_id": "8c769c3c8a6d745bdf89e71ff1668f9e", "fusion_lon": 0.0, "lat": 38.904643, "fusion_lat": 0.0}, {"is_disabled": 0, "rental_uris": {"android": "https://dc.lft.to/lastmile_qr_scan", "ios": "https://dc.lft.to/lastmile_qr_scan"}, "is_reserved": 0, "name": "7d9f0b116e6e07e26152454bd1031f02", "lon": -76.96976433333333, "type": "electric_scooter", "bike_id": "7d9f0b116e6e07e26152454bd1031f02", "fusion_lon": 0.0, "lat": 38.87297366666667, "fusion_lat": 0.0}, {"is_disabled": 0, "rental_uris": {"android": "https://dc.lft.to/lastmile_qr_scan", "ios": "https://dc.lft.to/lastmile_qr_scan"}, "is_reserved": 0, "name": "2519b1b8bbee1a58936b411f6cd65a77", "lon": -77.02498483333333, "type": "electric_scooter", "bike_id": "2519b1b8bbee1a58936b411f6cd65a77", "fusion_lon": 0.0, "lat": 38.91812, "fusion_lat": 0.0}, {"is_disabled": 0, "rental_uris": {"android": "https://dc.lft.to/lastmile_qr_scan", "ios": "https://dc.lft.to/lastmile_qr_scan"}, "is_reserved": 0, "name": "21ae56ca67c2610a0994d5d8217c3ed2", "lon": -77.04661166666666, "type": "electric_scooter", "bike_id": "21ae56ca67c2610a0994d5d8217c3ed2", "fusion_lon": 0.0, "lat": 38.911816333333334, "fusion_lat": 0.0}, {"is_disabled": 0, "rental_uris": {"android": "https://dc.lft.to/lastmile_qr_scan", "ios": "https://dc.lft.to/lastmile_qr_scan"}, "is_reserved": 0, "name": "2adf5ea0aa063e50b0109a85c4ae4c1e", "lon": -77.03183983333334, "type": "electric_scooter", "bike_id": "2adf5ea0aa063e50b0109a85c4ae4c1e", "fusion_lon": 0.0, "lat": 38.913405833333336, "fusion_lat": 0.0}, {"is_disabled": 0, "rental_uris": {"android": "https://dc.lft.to/lastmile_qr_scan", "ios": "https://dc.lft.to/lastmile_qr_scan"}, "is_reserved": 0, "name": "c398d28f0f3c1820649d778f30648f73", "lon": -77.048615, "type": "electric_scooter", "bike_id": "c398d28f0f3c1820649d778f30648f73", "fusion_lon": 0.0, "lat": 38.90956533333333, "fusion_lat": 0.0}, {"is_disabled": 0, "rental_uris": {"android": "https://dc.lft.to/lastmile_qr_scan", "ios": "https://dc.lft.to/lastmile_qr_scan"}, "is_reserved": 0, "name": "aa5d74e3b8e3665db0a6234850f43a2f", "lon": -77.00498616666667, "type": "electric_scooter", "bike_id": "aa5d74e3b8e3665db0a6234850f43a2f", "fusion_lon": 0.0, "lat": 38.896953, "fusion_lat": 0.0}, {"is_disabled": 0, "rental_uris": {"android": "https://dc.lft.to/lastmile_qr_scan", "ios": "https://dc.lft.to/lastmile_qr_scan"}, "is_reserved": 0, "name": "4df03865e564d401e4096f15a884d66d", "lon": -76.99168283333333, "type": "electric_scooter", "bike_id": "4df03865e564d401e4096f15a884d66d", "fusion_lon": 0.0, "lat": 38.881501166666666, "fusion_lat": 0.0}, {"is_disabled": 0, "rental_uris": {"android": "https://dc.lft.to/lastmile_qr_scan", "ios": "https://dc.lft.to/lastmile_qr_scan"}, "is_reserved": 0, "name": "d21f450d619991d06884445ec06c8051", "lon": -77.04639916666666, "type": "electric_scooter", "bike_id": "d21f450d619991d06884445ec06c8051", "fusion_lon": 0.0, "lat": 38.905556, "fusion_lat": 0.0}, {"is_disabled": 0, "rental_uris": {"android": "https://dc.lft.to/lastmile_qr_scan", "ios": "https://dc.lft.to/lastmile_qr_scan"}, "is_reserved": 0, "name": "d04db37f3f437ee10c69e2d2ad8a3b06", "lon": -77.010872, "type": "electric_scooter", "bike_id": "d04db37f3f437ee10c69e2d2ad8a3b06", "fusion_lon": 0.0, "lat": 38.89790083333333, "fusion_lat": 0.0}, {"is_disabled": 0, "rental_uris": {"android": "https://dc.lft.to/lastmile_qr_scan", "ios": "https://dc.lft.to/lastmile_qr_scan"}, "is_reserved": 0, "name": "ae7e9259511c41e024730877948180e9", "lon": -77.03442966666667, "type": "electric_scooter", "bike_id": "ae7e9259511c41e024730877948180e9", "fusion_lon": 0.0, "lat": 38.910065333333336, "fusion_lat": 0.0}, {"is_disabled": 0, "rental_uris": {"android": "https://dc.lft.to/lastmile_qr_scan", "ios": "https://dc.lft.to/lastmile_qr_scan"}, "is_reserved": 0, "name": "af85af786d2a37367c2a1c8ff14f4960", "lon": -77.04476666666666, "type": "electric_scooter", "bike_id": "af85af786d2a37367c2a1c8ff14f4960", "fusion_lon": 0.0, "lat": 38.908525, "fusion_lat": 0.0}, {"is_disabled": 0, "rental_uris": {"android": "https://dc.lft.to/lastmile_qr_scan", "ios": "https://dc.lft.to/lastmile_qr_scan"}, "is_reserved": 0, "name": "24fb776b1317f38e01ac4d29b6927312", "lon": -77.09164516666667, "type": "electric_bike", "bike_id": "24fb776b1317f38e01ac4d29b6927312", "fusion_lon": 0.0, "lat": 38.9676295, "fusion_lat": 0.0}, {"is_disabled": 0, "rental_uris": {"android": "https://dc.lft.to/lastmile_qr_scan", "ios": "https://dc.lft.to/lastmile_qr_scan"}, "is_reserved": 0, "name": "47f914d6fcca1129d478cbe325abb8b4", "lon": -77.045898, "type": "electric_scooter", "bike_id": "47f914d6fcca1129d478cbe325abb8b4", "fusion_lon": 0.0, "lat": 38.90270483333333, "fusion_lat": 0.0}, {"is_disabled": 0, "rental_uris": {"android": "https://dc.lft.to/lastmile_qr_scan", "ios": "https://dc.lft.to/lastmile_qr_scan"}, "is_reserved": 0, "name": "47caf47de5a4471d81b4c9224fac0b8e", "lon": -77.017605, "type": "electric_scooter", "bike_id": "47caf47de5a4471d81b4c9224fac0b8e", "fusion_lon": 0.0, "lat": 38.87689566666667, "fusion_lat": 0.0}, {"is_disabled": 0, "rental_uris": {"android": "https://dc.lft.to/lastmile_qr_scan", "ios": "https://dc.lft.to/lastmile_qr_scan"}, "is_reserved": 0, "name": "c70b87d1a47ce079ddae5313c52b0537", "lon": -77.04657416666667, "type": "electric_scooter", "bike_id": "c70b87d1a47ce079ddae5313c52b0537", "fusion_lon": 0.0, "lat": 38.892965833333335, "fusion_lat": 0.0}, {"is_disabled": 0, "rental_uris": {"android": "https://dc.lft.to/lastmile_qr_scan", "ios": "https://dc.lft.to/lastmile_qr_scan"}, "is_reserved": 0, "name": "28ac29fcd370e55bc1925ed4d4200be8", "lon": -76.997076, "type": "electric_scooter", "bike_id": "28ac29fcd370e55bc1925ed4d4200be8", "fusion_lon": 0.0, "lat": 38.83869966666666, "fusion_lat": 0.0}, {"is_disabled": 0, "rental_uris": {"android": "https://dc.lft.to/lastmile_qr_scan", "ios": "https://dc.lft.to/lastmile_qr_scan"}, "is_reserved": 0, "name": "2c94a3cf30e196106444b43851b4bea7", "lon": -76.94627033333333, "type": "electric_bike", "bike_id": "2c94a3cf30e196106444b43851b4bea7", "fusion_lon": 0.0, "lat": 38.832402333333334, "fusion_lat": 0.0}, {"is_disabled": 0, "rental_uris": {"android": "https://dc.lft.to/lastmile_qr_scan", "ios": "https://dc.lft.to/lastmile_qr_scan"}, "is_reserved": 0, "name": "157dbee6244d146a130f64cdb02f8de5", "lon": -76.98682766666667, "type": "electric_scooter", "bike_id": "157dbee6244d146a130f64cdb02f8de5", "fusion_lon": 0.0, "lat": 38.858155833333335, "fusion_lat": 0.0}, {"is_disabled": 0, "rental_uris": {"android": "https://dc.lft.to/lastmile_qr_scan", "ios": "https://dc.lft.to/lastmile_qr_scan"}, "is_reserved": 0, "name": "20040f5763ab280a4e19a46ee6a0b2e5", "lon": -77.02373533333333, "type": "electric_scooter", "bike_id": "20040f5763ab280a4e19a46ee6a0b2e5", "fusion_lon": 0.0, "lat": 38.89620166666667, "fusion_lat": 0.0}, {"is_disabled": 0, "rental_uris": {"android": "https://dc.lft.to/lastmile_qr_scan", "ios": "https://dc.lft.to/lastmile_qr_scan"}, "is_reserved": 0, "name": "0dd7038f0d1344adff7645667f098d68", "lon": -77.04501933333333, "type": "electric_scooter", "bike_id": "0dd7038f0d1344adff7645667f098d68", "fusion_lon": 0.0, "lat": 38.9038555, "fusion_lat": 0.0}, {"is_disabled": 0, "rental_uris": {"android": "https://dc.lft.to/lastmile_qr_scan", "ios": "https://dc.lft.to/lastmile_qr_scan"}, "is_reserved": 0, "name": "3662af051e8d13eeac099de3ac5f7c4a", "lon": -77.04172616666666, "type": "electric_scooter", "bike_id": "3662af051e8d13eeac099de3ac5f7c4a", "fusion_lon": 0.0, "lat": 38.9155255, "fusion_lat": 0.0}, {"is_disabled": 0, "rental_uris": {"android": "https://dc.lft.to/lastmile_qr_scan", "ios": "https://dc.lft.to/lastmile_qr_scan"}, "is_reserved": 0, "name": "dbd60172a87c912a1a1dbb4824919bd6", "lon": -77.03630583333333, "type": "electric_scooter", "bike_id": "dbd60172a87c912a1a1dbb4824919bd6", "fusion_lon": 0.0, "lat": 38.956086, "fusion_lat": 0.0}, {"is_disabled": 0, "rental_uris": {"android": "https://dc.lft.to/lastmile_qr_scan", "ios": "https://dc.lft.to/lastmile_qr_scan"}, "is_reserved": 0, "name": "c2ca59de5b94d0c917fd8454d44128d3", "lon": -76.99514783333333, "type": "electric_scooter", "bike_id": "c2ca59de5b94d0c917fd8454d44128d3", "fusion_lon": 0.0, "lat": 38.89483516666667, "fusion_lat": 0.0}, {"is_disabled": 0, "rental_uris": {"android": "https://dc.lft.to/lastmile_qr_scan", "ios": "https://dc.lft.to/lastmile_qr_scan"}, "is_reserved": 0, "name": "77eebd3cd8fe8d66d7b40ae29d219bd9", "lon": -77.03285, "type": "electric_scooter", "bike_id": "77eebd3cd8fe8d66d7b40ae29d219bd9", "fusion_lon": 0.0, "lat": 38.923483833333336, "fusion_lat": 0.0}, {"is_disabled": 0, "rental_uris": {"android": "https://dc.lft.to/lastmile_qr_scan", "ios": "https://dc.lft.to/lastmile_qr_scan"}, "is_reserved": 0, "name": "708faf87218d12cf5b01f66d0244d7bc", "lon": -77.04047383333334, "type": "electric_scooter", "bike_id": "708faf87218d12cf5b01f66d0244d7bc", "fusion_lon": 0.0, "lat": 38.90471083333333, "fusion_lat": 0.0}, {"is_disabled": 0, "rental_uris": {"android": "https://dc.lft.to/lastmile_qr_scan", "ios": "https://dc.lft.to/lastmile_qr_scan"}, "is_reserved": 0, "name": "15153e97aa0bffd653e4dce7259b8db9", "lon": -77.0261945, "type": "electric_scooter", "bike_id": "15153e97aa0bffd653e4dce7259b8db9", "fusion_lon": 0.0, "lat": 38.944239, "fusion_lat": 0.0}, {"is_disabled": 0, "rental_uris": {"android": "https://dc.lft.to/lastmile_qr_scan", "ios": "https://dc.lft.to/lastmile_qr_scan"}, "is_reserved": 0, "name": "465da1dfc61a2ffc3bc076f81a72f754", "lon": -77.041216, "type": "electric_scooter", "bike_id": "465da1dfc61a2ffc3bc076f81a72f754", "fusion_lon": 0.0, "lat": 38.899543, "fusion_lat": 0.0}, {"is_disabled": 0, "rental_uris": {"android": "https://dc.lft.to/lastmile_qr_scan", "ios": "https://dc.lft.to/lastmile_qr_scan"}, "is_reserved": 0, "name": "471a2925413ed63fa4805f100ce25a03", "lon": -77.02223783333334, "type": "electric_scooter", "bike_id": "471a2925413ed63fa4805f100ce25a03", "fusion_lon": 0.0, "lat": 38.935571333333336, "fusion_lat": 0.0}, {"is_disabled": 0, "rental_uris": {"android": "https://dc.lft.to/lastmile_qr_scan", "ios": "https://dc.lft.to/lastmile_qr_scan"}, "is_reserved": 0, "name": "2e00cee26c17fd4e946a933ff91e2afb", "lon": -76.90760466666667, "type": "electric_bike", "bike_id": "2e00cee26c17fd4e946a933ff91e2afb", "fusion_lon": 0.0, "lat": 38.92442833333333, "fusion_lat": 0.0}, {"is_disabled": 0, "rental_uris": {"android": "https://dc.lft.to/lastmile_qr_scan", "ios": "https://dc.lft.to/lastmile_qr_scan"}, "is_reserved": 0, "name": "a5c1669dbfc5ec5e21b8224e51190d2f", "lon": -77.04684516666667, "type": "electric_scooter", "bike_id": "a5c1669dbfc5ec5e21b8224e51190d2f", "fusion_lon": 0.0, "lat": 38.91579383333333, "fusion_lat": 0.0}, {"is_disabled": 0, "rental_uris": {"android": "https://dc.lft.to/lastmile_qr_scan", "ios": "https://dc.lft.to/lastmile_qr_scan"}, "is_reserved": 0, "name": "e8d15d14370b30b9ed04aca2933b3714", "lon": -77.02392933333333, "type": "electric_scooter", "bike_id": "e8d15d14370b30b9ed04aca2933b3714", "fusion_lon": 0.0, "lat": 38.8947985, "fusion_lat": 0.0}, {"is_disabled": 0, "rental_uris": {"android": "https://dc.lft.to/lastmile_qr_scan", "ios": "https://dc.lft.to/lastmile_qr_scan"}, "is_reserved": 0, "name": "94d34de9f803261cc817d72b5d02c362", "lon": -77.024817, "type": "electric_scooter", "bike_id": "94d34de9f803261cc817d72b5d02c362", "fusion_lon": 0.0, "lat": 38.93882466666667, "fusion_lat": 0.0}, {"is_disabled": 0, "rental_uris": {"android": "https://dc.lft.to/lastmile_qr_scan", "ios": "https://dc.lft.to/lastmile_qr_scan"}, "is_reserved": 0, "name": "50b63717586fdce87cc4f95848e416f2", "lon": -77.03163883333333, "type": "electric_scooter", "bike_id": "50b63717586fdce87cc4f95848e416f2", "fusion_lon": 0.0, "lat": 38.920169, "fusion_lat": 0.0}, {"is_disabled": 0, "rental_uris": {"android": "https://dc.lft.to/lastmile_qr_scan", "ios": "https://dc.lft.to/lastmile_qr_scan"}, "is_reserved": 0, "name": "b2e26df79e5cf90643f7d1c12a181492", "lon": -77.0511125, "type": "electric_scooter", "bike_id": "b2e26df79e5cf90643f7d1c12a181492", "fusion_lon": 0.0, "lat": 38.9236125, "fusion_lat": 0.0}, {"is_disabled": 0, "rental_uris": {"android": "https://dc.lft.to/lastmile_qr_scan", "ios": "https://dc.lft.to/lastmile_qr_scan"}, "is_reserved": 0, "name": "8d8895aaa5e84613c2fbd6f11fb4c021", "lon": -77.03256833333333, "type": "electric_scooter", "bike_id": "8d8895aaa5e84613c2fbd6f11fb4c021", "fusion_lon": 0.0, "lat": 38.914925833333335, "fusion_lat": 0.0}, {"is_disabled": 0, "rental_uris": {"android": "https://dc.lft.to/lastmile_qr_scan", "ios": "https://dc.lft.to/lastmile_qr_scan"}, "is_reserved": 0, "name": "74378f7443e50f4826c8ede13f55a412", "lon": -77.02275883333333, "type": "electric_scooter", "bike_id": "74378f7443e50f4826c8ede13f55a412", "fusion_lon": 0.0, "lat": 38.91264283333334, "fusion_lat": 0.0}, {"is_disabled": 0, "rental_uris": {"android": "https://dc.lft.to/lastmile_qr_scan", "ios": "https://dc.lft.to/lastmile_qr_scan"}, "is_reserved": 0, "name": "bb0500a91ef2f7165a387ba571bc75f8", "lon": -77.04867716666666, "type": "electric_scooter", "bike_id": "bb0500a91ef2f7165a387ba571bc75f8", "fusion_lon": 0.0, "lat": 38.89225366666667, "fusion_lat": 0.0}, {"is_disabled": 0, "rental_uris": {"android": "https://dc.lft.to/lastmile_qr_scan", "ios": "https://dc.lft.to/lastmile_qr_scan"}, "is_reserved": 0, "name": "a4f696dfb69be033a645c671229758d2", "lon": -76.9900495, "type": "electric_scooter", "bike_id": "a4f696dfb69be033a645c671229758d2", "fusion_lon": 0.0, "lat": 38.865070333333335, "fusion_lat": 0.0}, {"is_disabled": 0, "rental_uris": {"android": "https://dc.lft.to/lastmile_qr_scan", "ios": "https://dc.lft.to/lastmile_qr_scan"}, "is_reserved": 0, "name": "3d4e6e67a385aac5cca9b1fe88556965", "lon": -76.996345, "type": "electric_scooter", "bike_id": "3d4e6e67a385aac5cca9b1fe88556965", "fusion_lon": 0.0, "lat": 38.900428, "fusion_lat": 0.0}, {"is_disabled": 0, "rental_uris": {"android": "https://dc.lft.to/lastmile_qr_scan", "ios": "https://dc.lft.to/lastmile_qr_scan"}, "is_reserved": 0, "name": "8a94da75adfbfc4db1875292c04114ad", "lon": -77.17799, "type": "electric_bike", "bike_id": "8a94da75adfbfc4db1875292c04114ad", "fusion_lon": 0.0, "lat": 39.08848416666667, "fusion_lat": 0.0}, {"is_disabled": 0, "rental_uris": {"android": "https://dc.lft.to/lastmile_qr_scan", "ios": "https://dc.lft.to/lastmile_qr_scan"}, "is_reserved": 0, "name": "09352015b1799c66fa1f3b39a011cbb9", "lon": -76.9888515, "type": "electric_scooter", "bike_id": "09352015b1799c66fa1f3b39a011cbb9", "fusion_lon": 0.0, "lat": 38.866760166666666, "fusion_lat": 0.0}, {"is_disabled": 0, "rental_uris": {"android": "https://dc.lft.to/lastmile_qr_scan", "ios": "https://dc.lft.to/lastmile_qr_scan"}, "is_reserved": 0, "name": "c3e7b0c9ad2dc92bf6b0db5ea5c68f29", "lon": -77.03272816666667, "type": "electric_scooter", "bike_id": "c3e7b0c9ad2dc92bf6b0db5ea5c68f29", "fusion_lon": 0.0, "lat": 38.91340266666667, "fusion_lat": 0.0}, {"is_disabled": 0, "rental_uris": {"android": "https://dc.lft.to/lastmile_qr_scan", "ios": "https://dc.lft.to/lastmile_qr_scan"}, "is_reserved": 0, "name": "74544c4c6092f07db760290993a88c37", "lon": -77.04211466666666, "type": "electric_scooter", "bike_id": "74544c4c6092f07db760290993a88c37", "fusion_lon": 0.0, "lat": 38.90914583333333, "fusion_lat": 0.0}, {"is_disabled": 0, "rental_uris": {"android": "https://dc.lft.to/lastmile_qr_scan", "ios": "https://dc.lft.to/lastmile_qr_scan"}, "is_reserved": 0, "name": "7a45cfb14f6dec4d2e7b47b08bfb3b0d", "lon": -77.05026433333333, "type": "electric_scooter", "bike_id": "7a45cfb14f6dec4d2e7b47b08bfb3b0d", "fusion_lon": 0.0, "lat": 38.8978655, "fusion_lat": 0.0}, {"is_disabled": 0, "rental_uris": {"android": "https://dc.lft.to/lastmile_qr_scan", "ios": "https://dc.lft.to/lastmile_qr_scan"}, "is_reserved": 0, "name": "765c9111b34ef3475bd0c50bbc14001c", "lon": -77.04627983333333, "type": "electric_scooter", "bike_id": "765c9111b34ef3475bd0c50bbc14001c", "fusion_lon": 0.0, "lat": 38.9154955, "fusion_lat": 0.0}, {"is_disabled": 0, "rental_uris": {"android": "https://dc.lft.to/lastmile_qr_scan", "ios": "https://dc.lft.to/lastmile_qr_scan"}, "is_reserved": 0, "name": "0325d5ac005153dc5f980f5952754d97", "lon": -77.04166066666667, "type": "electric_scooter", "bike_id": "0325d5ac005153dc5f980f5952754d97", "fusion_lon": 0.0, "lat": 38.901522666666665, "fusion_lat": 0.0}, {"is_disabled": 0, "rental_uris": {"android": "https://dc.lft.to/lastmile_qr_scan", "ios": "https://dc.lft.to/lastmile_qr_scan"}, "is_reserved": 0, "name": "24a7628636de352eb53e3ecdde682ca2", "lon": -77.03323033333334, "type": "electric_scooter", "bike_id": "24a7628636de352eb53e3ecdde682ca2", "fusion_lon": 0.0, "lat": 38.901131666666664, "fusion_lat": 0.0}, {"is_disabled": 0, "rental_uris": {"android": "https://dc.lft.to/lastmile_qr_scan", "ios": "https://dc.lft.to/lastmile_qr_scan"}, "is_reserved": 0, "name": "dc7c4f24767260c27b6046ebf80b9e65", "lon": -77.032964, "type": "electric_scooter", "bike_id": "dc7c4f24767260c27b6046ebf80b9e65", "fusion_lon": 0.0, "lat": 38.92059783333333, "fusion_lat": 0.0}, {"is_disabled": 0, "rental_uris": {"android": "https://dc.lft.to/lastmile_qr_scan", "ios": "https://dc.lft.to/lastmile_qr_scan"}, "is_reserved": 0, "name": "adf066a14f9df9523abfc389ecb27f31", "lon": -76.99521783333333, "type": "electric_scooter", "bike_id": "adf066a14f9df9523abfc389ecb27f31", "fusion_lon": 0.0, "lat": 38.883858333333336, "fusion_lat": 0.0}, {"is_disabled": 0, "rental_uris": {"android": "https://dc.lft.to/lastmile_qr_scan", "ios": "https://dc.lft.to/lastmile_qr_scan"}, "is_reserved": 0, "name": "679a53a6bde48eb473b0091a51ad877e", "lon": -77.0358395, "type": "electric_scooter", "bike_id": "679a53a6bde48eb473b0091a51ad877e", "fusion_lon": 0.0, "lat": 38.907611, "fusion_lat": 0.0}, {"is_disabled": 0, "rental_uris": {"android": "https://dc.lft.to/lastmile_qr_scan", "ios": "https://dc.lft.to/lastmile_qr_scan"}, "is_reserved": 0, "name": "f2c3ff56509b877b327b02a53b6aeb7d", "lon": -77.0270625, "type": "electric_bike", "bike_id": "f2c3ff56509b877b327b02a53b6aeb7d", "fusion_lon": 0.0, "lat": 38.905446166666664, "fusion_lat": 0.0}, {"is_disabled": 0, "rental_uris": {"android": "https://dc.lft.to/lastmile_qr_scan", "ios": "https://dc.lft.to/lastmile_qr_scan"}, "is_reserved": 0, "name": "6ea98d3d8c9333cd47bf3a481285ce26", "lon": -77.00331216666666, "type": "electric_scooter", "bike_id": "6ea98d3d8c9333cd47bf3a481285ce26", "fusion_lon": 0.0, "lat": 38.893630333333334, "fusion_lat": 0.0}, {"is_disabled": 0, "rental_uris": {"android": "https://dc.lft.to/lastmile_qr_scan", "ios": "https://dc.lft.to/lastmile_qr_scan"}, "is_reserved": 0, "name": "b58849730b0b3cbd6c5aac0bd1f624b0", "lon": -77.02265733333333, "type": "electric_scooter", "bike_id": "b58849730b0b3cbd6c5aac0bd1f624b0", "fusion_lon": 0.0, "lat": 38.92743133333333, "fusion_lat": 0.0}, {"is_disabled": 0, "rental_uris": {"android": "https://dc.lft.to/lastmile_qr_scan", "ios": "https://dc.lft.to/lastmile_qr_scan"}, "is_reserved": 0, "name": "89bd43ed5f7269c87b214b3dd054abe6", "lon": -77.00229983333334, "type": "electric_bike", "bike_id": "89bd43ed5f7269c87b214b3dd054abe6", "fusion_lon": 0.0, "lat": 38.95752866666667, "fusion_lat": 0.0}, {"is_disabled": 0, "rental_uris": {"android": "https://dc.lft.to/lastmile_qr_scan", "ios": "https://dc.lft.to/lastmile_qr_scan"}, "is_reserved": 0, "name": "e226511ed17ab84a249ac33d998085bd", "lon": -77.0415635, "type": "electric_scooter", "bike_id": "e226511ed17ab84a249ac33d998085bd", "fusion_lon": 0.0, "lat": 38.910273833333335, "fusion_lat": 0.0}, {"is_disabled": 0, "rental_uris": {"android": "https://dc.lft.to/lastmile_qr_scan", "ios": "https://dc.lft.to/lastmile_qr_scan"}, "is_reserved": 0, "name": "19c6d1820abc1f742eb43e201e84cc9c", "lon": -77.0439165, "type": "electric_scooter", "bike_id": "19c6d1820abc1f742eb43e201e84cc9c", "fusion_lon": 0.0, "lat": 38.92283066666667, "fusion_lat": 0.0}, {"is_disabled": 0, "rental_uris": {"android": "https://dc.lft.to/lastmile_qr_scan", "ios": "https://dc.lft.to/lastmile_qr_scan"}, "is_reserved": 0, "name": "2f2c187b62f1aff55dc0e6fc5c81ca52", "lon": -77.043326, "type": "electric_scooter", "bike_id": "2f2c187b62f1aff55dc0e6fc5c81ca52", "fusion_lon": 0.0, "lat": 38.917005333333336, "fusion_lat": 0.0}, {"is_disabled": 0, "rental_uris": {"android": "https://dc.lft.to/lastmile_qr_scan", "ios": "https://dc.lft.to/lastmile_qr_scan"}, "is_reserved": 0, "name": "5f39abfa3c2ad7eab7bbc6d1c7a699ad", "lon": -77.048917, "type": "electric_scooter", "bike_id": "5f39abfa3c2ad7eab7bbc6d1c7a699ad", "fusion_lon": 0.0, "lat": 38.892529833333334, "fusion_lat": 0.0}, {"is_disabled": 0, "rental_uris": {"android": "https://dc.lft.to/lastmile_qr_scan", "ios": "https://dc.lft.to/lastmile_qr_scan"}, "is_reserved": 0, "name": "daa64391af56a6c8bd4b8a05cab8e07c", "lon": -76.98439133333333, "type": "electric_bike", "bike_id": "daa64391af56a6c8bd4b8a05cab8e07c", "fusion_lon": 0.0, "lat": 38.85514283333333, "fusion_lat": 0.0}, {"is_disabled": 0, "rental_uris": {"android": "https://dc.lft.to/lastmile_qr_scan", "ios": "https://dc.lft.to/lastmile_qr_scan"}, "is_reserved": 0, "name": "d743da8bd047a740dec600306b09542a", "lon": -76.98715416666667, "type": "electric_scooter", "bike_id": "d743da8bd047a740dec600306b09542a", "fusion_lon": 0.0, "lat": 38.867032, "fusion_lat": 0.0}, {"is_disabled": 0, "rental_uris": {"android": "https://dc.lft.to/lastmile_qr_scan", "ios": "https://dc.lft.to/lastmile_qr_scan"}, "is_reserved": 0, "name": "c7de1521038dbadd82a57dc85964c466", "lon": -77.06177233333334, "type": "electric_scooter", "bike_id": "c7de1521038dbadd82a57dc85964c466", "fusion_lon": 0.0, "lat": 38.906945666666665, "fusion_lat": 0.0}, {"is_disabled": 0, "rental_uris": {"android": "https://dc.lft.to/lastmile_qr_scan", "ios": "https://dc.lft.to/lastmile_qr_scan"}, "is_reserved": 0, "name": "7c284cdbb12bd2f18289844b88dd55ce", "lon": -77.03855683333333, "type": "electric_scooter", "bike_id": "7c284cdbb12bd2f18289844b88dd55ce", "fusion_lon": 0.0, "lat": 38.90276633333333, "fusion_lat": 0.0}, {"is_disabled": 0, "rental_uris": {"android": "https://dc.lft.to/lastmile_qr_scan", "ios": "https://dc.lft.to/lastmile_qr_scan"}, "is_reserved": 0, "name": "4f056b0fc1bf122e0f96f504822f1ab1", "lon": -77.02413366666667, "type": "electric_scooter", "bike_id": "4f056b0fc1bf122e0f96f504822f1ab1", "fusion_lon": 0.0, "lat": 38.909658, "fusion_lat": 0.0}, {"is_disabled": 0, "rental_uris": {"android": "https://dc.lft.to/lastmile_qr_scan", "ios": "https://dc.lft.to/lastmile_qr_scan"}, "is_reserved": 0, "name": "bf06778c39e9ee3acf839819b45bc55a", "lon": -77.04682733333334, "type": "electric_scooter", "bike_id": "bf06778c39e9ee3acf839819b45bc55a", "fusion_lon": 0.0, "lat": 38.89510583333333, "fusion_lat": 0.0}, {"is_disabled": 0, "rental_uris": {"android": "https://dc.lft.to/lastmile_qr_scan", "ios": "https://dc.lft.to/lastmile_qr_scan"}, "is_reserved": 0, "name": "23ad5b461173fe687abce621fd5fe7d5", "lon": -77.040909, "type": "electric_scooter", "bike_id": "23ad5b461173fe687abce621fd5fe7d5", "fusion_lon": 0.0, "lat": 38.9079765, "fusion_lat": 0.0}, {"is_disabled": 0, "rental_uris": {"android": "https://dc.lft.to/lastmile_qr_scan", "ios": "https://dc.lft.to/lastmile_qr_scan"}, "is_reserved": 0, "name": "4e9cdbf807c0ff5afc65b5212d038d50", "lon": -76.96529933333333, "type": "electric_scooter", "bike_id": "4e9cdbf807c0ff5afc65b5212d038d50", "fusion_lon": 0.0, "lat": 38.87633983333333, "fusion_lat": 0.0}, {"is_disabled": 0, "rental_uris": {"android": "https://dc.lft.to/lastmile_qr_scan", "ios": "https://dc.lft.to/lastmile_qr_scan"}, "is_reserved": 0, "name": "1d65eb8b50df7e3b0355687701e5ff1e", "lon": -77.01895616666667, "type": "electric_scooter", "bike_id": "1d65eb8b50df7e3b0355687701e5ff1e", "fusion_lon": 0.0, "lat": 38.90646266666667, "fusion_lat": 0.0}, {"is_disabled": 0, "rental_uris": {"android": "https://dc.lft.to/lastmile_qr_scan", "ios": "https://dc.lft.to/lastmile_qr_scan"}, "is_reserved": 0, "name": "445f49e482446ea1b780e5890e597750", "lon": -77.03232083333333, "type": "electric_scooter", "bike_id": "445f49e482446ea1b780e5890e597750", "fusion_lon": 0.0, "lat": 38.93141116666666, "fusion_lat": 0.0}, {"is_disabled": 0, "rental_uris": {"android": "https://dc.lft.to/lastmile_qr_scan", "ios": "https://dc.lft.to/lastmile_qr_scan"}, "is_reserved": 0, "name": "56401715672366c5452c3142c604b941", "lon": -77.03790683333334, "type": "electric_scooter", "bike_id": "56401715672366c5452c3142c604b941", "fusion_lon": 0.0, "lat": 38.909583166666664, "fusion_lat": 0.0}, {"is_disabled": 0, "rental_uris": {"android": "https://dc.lft.to/lastmile_qr_scan", "ios": "https://dc.lft.to/lastmile_qr_scan"}, "is_reserved": 0, "name": "f2a0f39e08317b8cc42acaae04bdb15a", "lon": -77.0195245, "type": "electric_scooter", "bike_id": "f2a0f39e08317b8cc42acaae04bdb15a", "fusion_lon": 0.0, "lat": 38.92851916666667, "fusion_lat": 0.0}, {"is_disabled": 0, "rental_uris": {"android": "https://dc.lft.to/lastmile_qr_scan", "ios": "https://dc.lft.to/lastmile_qr_scan"}, "is_reserved": 0, "name": "ecfc6c71b774508e067275b1846cdd6a", "lon": -76.96560683333334, "type": "electric_bike", "bike_id": "ecfc6c71b774508e067275b1846cdd6a", "fusion_lon": 0.0, "lat": 38.95093083333333, "fusion_lat": 0.0}, {"is_disabled": 0, "rental_uris": {"android": "https://dc.lft.to/lastmile_qr_scan", "ios": "https://dc.lft.to/lastmile_qr_scan"}, "is_reserved": 0, "name": "7de722ebf57cb2059216b09d67f8df59", "lon": -77.050609, "type": "electric_scooter", "bike_id": "7de722ebf57cb2059216b09d67f8df59", "fusion_lon": 0.0, "lat": 38.91641933333333, "fusion_lat": 0.0}, {"is_disabled": 0, "rental_uris": {"android": "https://dc.lft.to/lastmile_qr_scan", "ios": "https://dc.lft.to/lastmile_qr_scan"}, "is_reserved": 0, "name": "02b77132bd641321ce3401dff669af37", "lon": -76.98566833333334, "type": "electric_scooter", "bike_id": "02b77132bd641321ce3401dff669af37", "fusion_lon": 0.0, "lat": 38.910392333333334, "fusion_lat": 0.0}, {"is_disabled": 0, "rental_uris": {"android": "https://dc.lft.to/lastmile_qr_scan", "ios": "https://dc.lft.to/lastmile_qr_scan"}, "is_reserved": 0, "name": "a5e359fbf5d5b36b0ff450d3d3f8abc0", "lon": -77.03198183333333, "type": "electric_scooter", "bike_id": "a5e359fbf5d5b36b0ff450d3d3f8abc0", "fusion_lon": 0.0, "lat": 38.90835633333333, "fusion_lat": 0.0}, {"is_disabled": 0, "rental_uris": {"android": "https://dc.lft.to/lastmile_qr_scan", "ios": "https://dc.lft.to/lastmile_qr_scan"}, "is_reserved": 0, "name": "3d53c906ec0105b5bca8499ff6ab74de", "lon": -77.03448516666667, "type": "electric_scooter", "bike_id": "3d53c906ec0105b5bca8499ff6ab74de", "fusion_lon": 0.0, "lat": 38.9044095, "fusion_lat": 0.0}, {"is_disabled": 0, "rental_uris": {"android": "https://dc.lft.to/lastmile_qr_scan", "ios": "https://dc.lft.to/lastmile_qr_scan"}, "is_reserved": 0, "name": "9cf9973254356e0d38b404e4cf9b40c9", "lon": -77.0350425, "type": "electric_scooter", "bike_id": "9cf9973254356e0d38b404e4cf9b40c9", "fusion_lon": 0.0, "lat": 38.92344683333334, "fusion_lat": 0.0}, {"is_disabled": 0, "rental_uris": {"android": "https://dc.lft.to/lastmile_qr_scan", "ios": "https://dc.lft.to/lastmile_qr_scan"}, "is_reserved": 0, "name": "cc7dd502453cdb6cd8be7e3dab85ba0a", "lon": -76.94882216666667, "type": "electric_scooter", "bike_id": "cc7dd502453cdb6cd8be7e3dab85ba0a", "fusion_lon": 0.0, "lat": 38.895856333333334, "fusion_lat": 0.0}, {"is_disabled": 0, "rental_uris": {"android": "https://dc.lft.to/lastmile_qr_scan", "ios": "https://dc.lft.to/lastmile_qr_scan"}, "is_reserved": 0, "name": "34ff7c0d4e8ab93adc0900b7cdbcd958", "lon": -76.9952105, "type": "electric_scooter", "bike_id": "34ff7c0d4e8ab93adc0900b7cdbcd958", "fusion_lon": 0.0, "lat": 38.89485616666666, "fusion_lat": 0.0}, {"is_disabled": 0, "rental_uris": {"android": "https://dc.lft.to/lastmile_qr_scan", "ios": "https://dc.lft.to/lastmile_qr_scan"}, "is_reserved": 0, "name": "580746aee10ef35650e9dceaa09ac92d", "lon": -77.03856966666666, "type": "electric_scooter", "bike_id": "580746aee10ef35650e9dceaa09ac92d", "fusion_lon": 0.0, "lat": 38.918411, "fusion_lat": 0.0}, {"is_disabled": 0, "rental_uris": {"android": "https://dc.lft.to/lastmile_qr_scan", "ios": "https://dc.lft.to/lastmile_qr_scan"}, "is_reserved": 0, "name": "f781772766020e314030a8b02492e4c0", "lon": -77.052134, "type": "electric_scooter", "bike_id": "f781772766020e314030a8b02492e4c0", "fusion_lon": 0.0, "lat": 38.924390833333334, "fusion_lat": 0.0}, {"is_disabled": 0, "rental_uris": {"android": "https://dc.lft.to/lastmile_qr_scan", "ios": "https://dc.lft.to/lastmile_qr_scan"}, "is_reserved": 0, "name": "681b5396adfababbfc5a40f510081056", "lon": -77.00046616666667, "type": "electric_scooter", "bike_id": "681b5396adfababbfc5a40f510081056", "fusion_lon": 0.0, "lat": 38.91900416666667, "fusion_lat": 0.0}, {"is_disabled": 0, "rental_uris": {"android": "https://dc.lft.to/lastmile_qr_scan", "ios": "https://dc.lft.to/lastmile_qr_scan"}, "is_reserved": 0, "name": "e7a4a0e6cda5f15c7b5beb06245b8885", "lon": -77.0320335, "type": "electric_scooter", "bike_id": "e7a4a0e6cda5f15c7b5beb06245b8885", "fusion_lon": 0.0, "lat": 38.916426, "fusion_lat": 0.0}, {"is_disabled": 0, "rental_uris": {"android": "https://dc.lft.to/lastmile_qr_scan", "ios": "https://dc.lft.to/lastmile_qr_scan"}, "is_reserved": 0, "name": "67cae54b0483bb8400a1be2962daffb9", "lon": -77.0335035, "type": "electric_scooter", "bike_id": "67cae54b0483bb8400a1be2962daffb9", "fusion_lon": 0.0, "lat": 38.89233383333333, "fusion_lat": 0.0}, {"is_disabled": 0, "rental_uris": {"android": "https://dc.lft.to/lastmile_qr_scan", "ios": "https://dc.lft.to/lastmile_qr_scan"}, "is_reserved": 0, "name": "b494e22df5201e101a07069949c1ea24", "lon": -77.04598866666667, "type": "electric_scooter", "bike_id": "b494e22df5201e101a07069949c1ea24", "fusion_lon": 0.0, "lat": 38.902908, "fusion_lat": 0.0}, {"is_disabled": 0, "rental_uris": {"android": "https://dc.lft.to/lastmile_qr_scan", "ios": "https://dc.lft.to/lastmile_qr_scan"}, "is_reserved": 0, "name": "a31b9c7adff9515ec51e51bd7a83abf8", "lon": -77.04517833333334, "type": "electric_scooter", "bike_id": "a31b9c7adff9515ec51e51bd7a83abf8", "fusion_lon": 0.0, "lat": 38.90788716666667, "fusion_lat": 0.0}, {"is_disabled": 0, "rental_uris": {"android": "https://dc.lft.to/lastmile_qr_scan", "ios": "https://dc.lft.to/lastmile_qr_scan"}, "is_reserved": 0, "name": "372ee9aaa09dd813cebef55f40d8e4af", "lon": -77.34410933333334, "type": "electric_bike", "bike_id": "372ee9aaa09dd813cebef55f40d8e4af", "fusion_lon": 0.0, "lat": 38.94589833333333, "fusion_lat": 0.0}, {"is_disabled": 0, "rental_uris": {"android": "https://dc.lft.to/lastmile_qr_scan", "ios": "https://dc.lft.to/lastmile_qr_scan"}, "is_reserved": 0, "name": "96f9bca0871817f8679facff4dabe451", "lon": -77.00605766666666, "type": "electric_scooter", "bike_id": "96f9bca0871817f8679facff4dabe451", "fusion_lon": 0.0, "lat": 38.91118483333333, "fusion_lat": 0.0}, {"is_disabled": 0, "rental_uris": {"android": "https://dc.lft.to/lastmile_qr_scan", "ios": "https://dc.lft.to/lastmile_qr_scan"}, "is_reserved": 0, "name": "d2ef7cad915278eb87278a57a284d4e1", "lon": -77.03358683333333, "type": "electric_scooter", "bike_id": "d2ef7cad915278eb87278a57a284d4e1", "fusion_lon": 0.0, "lat": 38.89840366666667, "fusion_lat": 0.0}, {"is_disabled": 0, "rental_uris": {"android": "https://dc.lft.to/lastmile_qr_scan", "ios": "https://dc.lft.to/lastmile_qr_scan"}, "is_reserved": 0, "name": "c59615ae4ba3ffa14ff53979e1868517", "lon": -77.04906883333334, "type": "electric_scooter", "bike_id": "c59615ae4ba3ffa14ff53979e1868517", "fusion_lon": 0.0, "lat": 38.9160615, "fusion_lat": 0.0}, {"is_disabled": 0, "rental_uris": {"android": "https://dc.lft.to/lastmile_qr_scan", "ios": "https://dc.lft.to/lastmile_qr_scan"}, "is_reserved": 0, "name": "e9cd15b760f83d792ac751d33e470b72", "lon": -76.94893483333334, "type": "electric_scooter", "bike_id": "e9cd15b760f83d792ac751d33e470b72", "fusion_lon": 0.0, "lat": 38.89531266666667, "fusion_lat": 0.0}, {"is_disabled": 0, "rental_uris": {"android": "https://dc.lft.to/lastmile_qr_scan", "ios": "https://dc.lft.to/lastmile_qr_scan"}, "is_reserved": 0, "name": "d433c90597aea669b65446125e62350d", "lon": -77.14330083333333, "type": "electric_bike", "bike_id": "d433c90597aea669b65446125e62350d", "fusion_lon": 0.0, "lat": 39.054621, "fusion_lat": 0.0}, {"is_disabled": 0, "rental_uris": {"android": "https://dc.lft.to/lastmile_qr_scan", "ios": "https://dc.lft.to/lastmile_qr_scan"}, "is_reserved": 0, "name": "65e23fab6f15c7a2e0ce08525cd43ce5", "lon": -77.0295495, "type": "electric_scooter", "bike_id": "65e23fab6f15c7a2e0ce08525cd43ce5", "fusion_lon": 0.0, "lat": 38.898894, "fusion_lat": 0.0}, {"is_disabled": 0, "rental_uris": {"android": "https://dc.lft.to/lastmile_qr_scan", "ios": "https://dc.lft.to/lastmile_qr_scan"}, "is_reserved": 0, "name": "d812199330056ca9ac0132edb584efdf", "lon": -77.0122275, "type": "electric_scooter", "bike_id": "d812199330056ca9ac0132edb584efdf", "fusion_lon": 0.0, "lat": 38.9150015, "fusion_lat": 0.0}, {"is_disabled": 0, "rental_uris": {"android": "https://dc.lft.to/lastmile_qr_scan", "ios": "https://dc.lft.to/lastmile_qr_scan"}, "is_reserved": 0, "name": "a236a325f5bc9b24f5e9aa274477e00a", "lon": -77.0619025, "type": "electric_scooter", "bike_id": "a236a325f5bc9b24f5e9aa274477e00a", "fusion_lon": 0.0, "lat": 38.930166, "fusion_lat": 0.0}, {"is_disabled": 0, "rental_uris": {"android": "https://dc.lft.to/lastmile_qr_scan", "ios": "https://dc.lft.to/lastmile_qr_scan"}, "is_reserved": 0, "name": "fb073100ca87fe4cb3285ed7a2894fcd", "lon": -77.011784, "type": "electric_scooter", "bike_id": "fb073100ca87fe4cb3285ed7a2894fcd", "fusion_lon": 0.0, "lat": 38.868182, "fusion_lat": 0.0}, {"is_disabled": 0, "rental_uris": {"android": "https://dc.lft.to/lastmile_qr_scan", "ios": "https://dc.lft.to/lastmile_qr_scan"}, "is_reserved": 0, "name": "8731ce49a22cfff5291b14d5302c2140", "lon": -77.03467266666667, "type": "electric_scooter", "bike_id": "8731ce49a22cfff5291b14d5302c2140", "fusion_lon": 0.0, "lat": 38.91672366666667, "fusion_lat": 0.0}, {"is_disabled": 0, "rental_uris": {"android": "https://dc.lft.to/lastmile_qr_scan", "ios": "https://dc.lft.to/lastmile_qr_scan"}, "is_reserved": 0, "name": "a3ceafaeefa004920feb2df35841b5e7", "lon": -76.99498483333333, "type": "electric_scooter", "bike_id": "a3ceafaeefa004920feb2df35841b5e7", "fusion_lon": 0.0, "lat": 38.8624735, "fusion_lat": 0.0}, {"is_disabled": 0, "rental_uris": {"android": "https://dc.lft.to/lastmile_qr_scan", "ios": "https://dc.lft.to/lastmile_qr_scan"}, "is_reserved": 0, "name": "9d2998b9582dfc128a01fa5a1ca54d57", "lon": -76.98885466666667, "type": "electric_scooter", "bike_id": "9d2998b9582dfc128a01fa5a1ca54d57", "fusion_lon": 0.0, "lat": 38.8667205, "fusion_lat": 0.0}, {"is_disabled": 0, "rental_uris": {"android": "https://dc.lft.to/lastmile_qr_scan", "ios": "https://dc.lft.to/lastmile_qr_scan"}, "is_reserved": 0, "name": "db2f9f1f9e6e28bacf40b96607f193a8", "lon": -77.00070166666667, "type": "electric_scooter", "bike_id": "db2f9f1f9e6e28bacf40b96607f193a8", "fusion_lon": 0.0, "lat": 38.87662266666667, "fusion_lat": 0.0}, {"is_disabled": 0, "rental_uris": {"android": "https://dc.lft.to/lastmile_qr_scan", "ios": "https://dc.lft.to/lastmile_qr_scan"}, "is_reserved": 0, "name": "14e44317ccfa10e6721ac5102de0f0ab", "lon": -76.945285, "type": "electric_bike", "bike_id": "14e44317ccfa10e6721ac5102de0f0ab", "fusion_lon": 0.0, "lat": 38.867560833333336, "fusion_lat": 0.0}, {"is_disabled": 0, "rental_uris": {"android": "https://dc.lft.to/lastmile_qr_scan", "ios": "https://dc.lft.to/lastmile_qr_scan"}, "is_reserved": 0, "name": "883739677a41197ec86ba963534940a8", "lon": -76.98075733333333, "type": "electric_scooter", "bike_id": "883739677a41197ec86ba963534940a8", "fusion_lon": 0.0, "lat": 38.936524166666665, "fusion_lat": 0.0}, {"is_disabled": 0, "rental_uris": {"android": "https://dc.lft.to/lastmile_qr_scan", "ios": "https://dc.lft.to/lastmile_qr_scan"}, "is_reserved": 0, "name": "6ea2934b4a6efa9e2e17d035936fb6cb", "lon": -77.0305165, "type": "electric_scooter", "bike_id": "6ea2934b4a6efa9e2e17d035936fb6cb", "fusion_lon": 0.0, "lat": 38.89977016666667, "fusion_lat": 0.0}, {"is_disabled": 0, "rental_uris": {"android": "https://dc.lft.to/lastmile_qr_scan", "ios": "https://dc.lft.to/lastmile_qr_scan"}, "is_reserved": 0, "name": "fd8668b0d8dcff3bea125cc8839346ab", "lon": -77.02007333333333, "type": "electric_scooter", "bike_id": "fd8668b0d8dcff3bea125cc8839346ab", "fusion_lon": 0.0, "lat": 38.898732333333335, "fusion_lat": 0.0}, {"is_disabled": 0, "rental_uris": {"android": "https://dc.lft.to/lastmile_qr_scan", "ios": "https://dc.lft.to/lastmile_qr_scan"}, "is_reserved": 0, "name": "5796d1880759b255fbfccbdd535f9c1d", "lon": -77.0344995, "type": "electric_scooter", "bike_id": "5796d1880759b255fbfccbdd535f9c1d", "fusion_lon": 0.0, "lat": 38.91009833333333, "fusion_lat": 0.0}, {"is_disabled": 0, "rental_uris": {"android": "https://dc.lft.to/lastmile_qr_scan", "ios": "https://dc.lft.to/lastmile_qr_scan"}, "is_reserved": 0, "name": "d1f38ab74b7abd1b0fc8d9505b12bec4", "lon": -77.03052683333334, "type": "electric_bike", "bike_id": "d1f38ab74b7abd1b0fc8d9505b12bec4", "fusion_lon": 0.0, "lat": 38.994117333333335, "fusion_lat": 0.0}, {"is_disabled": 0, "rental_uris": {"android": "https://dc.lft.to/lastmile_qr_scan", "ios": "https://dc.lft.to/lastmile_qr_scan"}, "is_reserved": 0, "name": "cf9e4bf3384a4ff90d89b585e561a624", "lon": -77.0365985, "type": "electric_scooter", "bike_id": "cf9e4bf3384a4ff90d89b585e561a624", "fusion_lon": 0.0, "lat": 38.915915166666665, "fusion_lat": 0.0}, {"is_disabled": 0, "rental_uris": {"android": "https://dc.lft.to/lastmile_qr_scan", "ios": "https://dc.lft.to/lastmile_qr_scan"}, "is_reserved": 0, "name": "0ccc6a45aa0ee737e21af95c36fda5d3", "lon": -77.01454733333334, "type": "electric_scooter", "bike_id": "0ccc6a45aa0ee737e21af95c36fda5d3", "fusion_lon": 0.0, "lat": 38.929937333333335, "fusion_lat": 0.0}, {"is_disabled": 0, "rental_uris": {"android": "https://dc.lft.to/lastmile_qr_scan", "ios": "https://dc.lft.to/lastmile_qr_scan"}, "is_reserved": 0, "name": "c4faa215c656c4f44262e5b9055bfcb6", "lon": -77.00891266666666, "type": "electric_scooter", "bike_id": "c4faa215c656c4f44262e5b9055bfcb6", "fusion_lon": 0.0, "lat": 38.88500616666666, "fusion_lat": 0.0}, {"is_disabled": 0, "rental_uris": {"android": "https://dc.lft.to/lastmile_qr_scan", "ios": "https://dc.lft.to/lastmile_qr_scan"}, "is_reserved": 0, "name": "7c50be042c72fe85e3184b8ed35e3474", "lon": -77.04518316666666, "type": "electric_scooter", "bike_id": "7c50be042c72fe85e3184b8ed35e3474", "fusion_lon": 0.0, "lat": 38.90360783333333, "fusion_lat": 0.0}, {"is_disabled": 0, "rental_uris": {"android": "https://dc.lft.to/lastmile_qr_scan", "ios": "https://dc.lft.to/lastmile_qr_scan"}, "is_reserved": 0, "name": "3304412e9a5728e3bde393dfcfd972a6", "lon": -77.01744833333333, "type": "electric_scooter", "bike_id": "3304412e9a5728e3bde393dfcfd972a6", "fusion_lon": 0.0, "lat": 38.91441233333333, "fusion_lat": 0.0}, {"is_disabled": 0, "rental_uris": {"android": "https://dc.lft.to/lastmile_qr_scan", "ios": "https://dc.lft.to/lastmile_qr_scan"}, "is_reserved": 0, "name": "7b957d50c35f3a285f474d0da675a28f", "lon": -76.99058, "type": "electric_scooter", "bike_id": "7b957d50c35f3a285f474d0da675a28f", "fusion_lon": 0.0, "lat": 38.8635625, "fusion_lat": 0.0}, {"is_disabled": 0, "rental_uris": {"android": "https://dc.lft.to/lastmile_qr_scan", "ios": "https://dc.lft.to/lastmile_qr_scan"}, "is_reserved": 0, "name": "765abb6c9e64c8e20968b6ea8ca4cf5c", "lon": -77.0283715, "type": "electric_scooter", "bike_id": "765abb6c9e64c8e20968b6ea8ca4cf5c", "fusion_lon": 0.0, "lat": 38.895241166666665, "fusion_lat": 0.0}, {"is_disabled": 0, "rental_uris": {"android": "https://dc.lft.to/lastmile_qr_scan", "ios": "https://dc.lft.to/lastmile_qr_scan"}, "is_reserved": 0, "name": "d21372094e45d8d153ebc7b35609811f", "lon": -77.04285233333333, "type": "electric_scooter", "bike_id": "d21372094e45d8d153ebc7b35609811f", "fusion_lon": 0.0, "lat": 38.91112583333334, "fusion_lat": 0.0}, {"is_disabled": 0, "rental_uris": {"android": "https://dc.lft.to/lastmile_qr_scan", "ios": "https://dc.lft.to/lastmile_qr_scan"}, "is_reserved": 0, "name": "632aecd7c8abf40a3d407c93b00df988", "lon": -77.0305775, "type": "electric_scooter", "bike_id": "632aecd7c8abf40a3d407c93b00df988", "fusion_lon": 0.0, "lat": 38.909759333333334, "fusion_lat": 0.0}, {"is_disabled": 0, "rental_uris": {"android": "https://dc.lft.to/lastmile_qr_scan", "ios": "https://dc.lft.to/lastmile_qr_scan"}, "is_reserved": 0, "name": "05d47c4a87723bb030fdaa3a574aad97", "lon": -77.050972, "type": "electric_scooter", "bike_id": "05d47c4a87723bb030fdaa3a574aad97", "fusion_lon": 0.0, "lat": 38.923421166666664, "fusion_lat": 0.0}, {"is_disabled": 0, "rental_uris": {"android": "https://dc.lft.to/lastmile_qr_scan", "ios": "https://dc.lft.to/lastmile_qr_scan"}, "is_reserved": 0, "name": "788da67b790ceb6353494440dda6dc27", "lon": -76.98093, "type": "electric_scooter", "bike_id": "788da67b790ceb6353494440dda6dc27", "fusion_lon": 0.0, "lat": 38.857225, "fusion_lat": 0.0}, {"is_disabled": 0, "rental_uris": {"android": "https://dc.lft.to/lastmile_qr_scan", "ios": "https://dc.lft.to/lastmile_qr_scan"}, "is_reserved": 0, "name": "07026efcd5fa47b3d240d13c56ab3271", "lon": -77.18299366666666, "type": "electric_bike", "bike_id": "07026efcd5fa47b3d240d13c56ab3271", "fusion_lon": 0.0, "lat": 38.88348216666667, "fusion_lat": 0.0}, {"is_disabled": 0, "rental_uris": {"android": "https://dc.lft.to/lastmile_qr_scan", "ios": "https://dc.lft.to/lastmile_qr_scan"}, "is_reserved": 0, "name": "0c515e8b97035600bbba220377dfacdc", "lon": -77.04541733333333, "type": "electric_scooter", "bike_id": "0c515e8b97035600bbba220377dfacdc", "fusion_lon": 0.0, "lat": 38.90138233333333, "fusion_lat": 0.0}, {"is_disabled": 0, "rental_uris": {"android": "https://dc.lft.to/lastmile_qr_scan", "ios": "https://dc.lft.to/lastmile_qr_scan"}, "is_reserved": 0, "name": "1a978ce9557e24f316d89cee384e6c4b", "lon": -76.969214, "type": "electric_scooter", "bike_id": "1a978ce9557e24f316d89cee384e6c4b", "fusion_lon": 0.0, "lat": 38.855312, "fusion_lat": 0.0}, {"is_disabled": 0, "rental_uris": {"android": "https://dc.lft.to/lastmile_qr_scan", "ios": "https://dc.lft.to/lastmile_qr_scan"}, "is_reserved": 0, "name": "3f450f4741afea369c6def03fbe42d8b", "lon": -77.015838, "type": "electric_bike", "bike_id": "3f450f4741afea369c6def03fbe42d8b", "fusion_lon": 0.0, "lat": 39.04640233333333, "fusion_lat": 0.0}, {"is_disabled": 0, "rental_uris": {"android": "https://dc.lft.to/lastmile_qr_scan", "ios": "https://dc.lft.to/lastmile_qr_scan"}, "is_reserved": 0, "name": "e0919fdd3572b70646ced870431217bd", "lon": -76.93116283333333, "type": "electric_scooter", "bike_id": "e0919fdd3572b70646ced870431217bd", "fusion_lon": 0.0, "lat": 38.88019666666667, "fusion_lat": 0.0}, {"is_disabled": 0, "rental_uris": {"android": "https://dc.lft.to/lastmile_qr_scan", "ios": "https://dc.lft.to/lastmile_qr_scan"}, "is_reserved": 0, "name": "3a9bdd67d4cdbe8d82be3fa3723a7169", "lon": -77.03288133333334, "type": "electric_scooter", "bike_id": "3a9bdd67d4cdbe8d82be3fa3723a7169", "fusion_lon": 0.0, "lat": 38.92882633333333, "fusion_lat": 0.0}, {"is_disabled": 0, "rental_uris": {"android": "https://dc.lft.to/lastmile_qr_scan", "ios": "https://dc.lft.to/lastmile_qr_scan"}, "is_reserved": 0, "name": "8c81673a21fd081fa969d9713f5707c8", "lon": -77.02470583333333, "type": "electric_scooter", "bike_id": "8c81673a21fd081fa969d9713f5707c8", "fusion_lon": 0.0, "lat": 38.93924483333333, "fusion_lat": 0.0}, {"is_disabled": 0, "rental_uris": {"android": "https://dc.lft.to/lastmile_qr_scan", "ios": "https://dc.lft.to/lastmile_qr_scan"}, "is_reserved": 0, "name": "80298eb25ae6d3f7e495f0ade2599865", "lon": -76.98519416666667, "type": "electric_scooter", "bike_id": "80298eb25ae6d3f7e495f0ade2599865", "fusion_lon": 0.0, "lat": 38.860039666666665, "fusion_lat": 0.0}, {"is_disabled": 0, "rental_uris": {"android": "https://dc.lft.to/lastmile_qr_scan", "ios": "https://dc.lft.to/lastmile_qr_scan"}, "is_reserved": 0, "name": "5e752bca02fb2a3a6c24f1ab6bcebab9", "lon": -77.05926566666666, "type": "electric_scooter", "bike_id": "5e752bca02fb2a3a6c24f1ab6bcebab9", "fusion_lon": 0.0, "lat": 38.93672216666667, "fusion_lat": 0.0}, {"is_disabled": 0, "rental_uris": {"android": "https://dc.lft.to/lastmile_qr_scan", "ios": "https://dc.lft.to/lastmile_qr_scan"}, "is_reserved": 0, "name": "d2044dbd75878ed59985367c28b2fa3c", "lon": -77.0326335, "type": "electric_scooter", "bike_id": "d2044dbd75878ed59985367c28b2fa3c", "fusion_lon": 0.0, "lat": 38.936938833333336, "fusion_lat": 0.0}, {"is_disabled": 0, "rental_uris": {"android": "https://dc.lft.to/lastmile_qr_scan", "ios": "https://dc.lft.to/lastmile_qr_scan"}, "is_reserved": 0, "name": "95513d203d0f6553e238662ffd9473c8", "lon": -76.94953, "type": "electric_bike", "bike_id": "95513d203d0f6553e238662ffd9473c8", "fusion_lon": 0.0, "lat": 38.93507983333333, "fusion_lat": 0.0}, {"is_disabled": 0, "rental_uris": {"android": "https://dc.lft.to/lastmile_qr_scan", "ios": "https://dc.lft.to/lastmile_qr_scan"}, "is_reserved": 0, "name": "33e7261215afbdb89a6868567d328cf0", "lon": -77.03183016666667, "type": "electric_scooter", "bike_id": "33e7261215afbdb89a6868567d328cf0", "fusion_lon": 0.0, "lat": 38.919193, "fusion_lat": 0.0}, {"is_disabled": 0, "rental_uris": {"android": "https://dc.lft.to/lastmile_qr_scan", "ios": "https://dc.lft.to/lastmile_qr_scan"}, "is_reserved": 0, "name": "6259f96da129d494fe294c8bb2728762", "lon": -77.01113733333334, "type": "electric_scooter", "bike_id": "6259f96da129d494fe294c8bb2728762", "fusion_lon": 0.0, "lat": 38.90359816666667, "fusion_lat": 0.0}, {"is_disabled": 0, "rental_uris": {"android": "https://dc.lft.to/lastmile_qr_scan", "ios": "https://dc.lft.to/lastmile_qr_scan"}, "is_reserved": 0, "name": "16b7f8e3ecf895d9fde5922b4f3afa6f", "lon": -76.9995935, "type": "electric_scooter", "bike_id": "16b7f8e3ecf895d9fde5922b4f3afa6f", "fusion_lon": 0.0, "lat": 38.84286183333333, "fusion_lat": 0.0}, {"is_disabled": 0, "rental_uris": {"android": "https://dc.lft.to/lastmile_qr_scan", "ios": "https://dc.lft.to/lastmile_qr_scan"}, "is_reserved": 0, "name": "c0b324367a27263c9c54701b993e8535", "lon": -77.0161575, "type": "electric_scooter", "bike_id": "c0b324367a27263c9c54701b993e8535", "fusion_lon": 0.0, "lat": 38.87254083333333, "fusion_lat": 0.0}, {"is_disabled": 0, "rental_uris": {"android": "https://dc.lft.to/lastmile_qr_scan", "ios": "https://dc.lft.to/lastmile_qr_scan"}, "is_reserved": 0, "name": "d1bb2100077332bcee67318b295ea03f", "lon": -77.03154083333334, "type": "electric_scooter", "bike_id": "d1bb2100077332bcee67318b295ea03f", "fusion_lon": 0.0, "lat": 38.91623166666667, "fusion_lat": 0.0}, {"is_disabled": 0, "rental_uris": {"android": "https://dc.lft.to/lastmile_qr_scan", "ios": "https://dc.lft.to/lastmile_qr_scan"}, "is_reserved": 0, "name": "d68e4276da72ae8c6ef1a19ed22deec4", "lon": -76.9896765, "type": "electric_scooter", "bike_id": "d68e4276da72ae8c6ef1a19ed22deec4", "fusion_lon": 0.0, "lat": 38.90248016666666, "fusion_lat": 0.0}, {"is_disabled": 0, "rental_uris": {"android": "https://dc.lft.to/lastmile_qr_scan", "ios": "https://dc.lft.to/lastmile_qr_scan"}, "is_reserved": 0, "name": "b297ae11a3a8705e0b1ae8e8ccf6aa6d", "lon": -77.0500565, "type": "electric_scooter", "bike_id": "b297ae11a3a8705e0b1ae8e8ccf6aa6d", "fusion_lon": 0.0, "lat": 38.8923175, "fusion_lat": 0.0}, {"is_disabled": 0, "rental_uris": {"android": "https://dc.lft.to/lastmile_qr_scan", "ios": "https://dc.lft.to/lastmile_qr_scan"}, "is_reserved": 0, "name": "6fd67747010f38d00edbd6d25d937ea3", "lon": -77.03671266666667, "type": "electric_scooter", "bike_id": "6fd67747010f38d00edbd6d25d937ea3", "fusion_lon": 0.0, "lat": 38.90284616666667, "fusion_lat": 0.0}, {"is_disabled": 0, "rental_uris": {"android": "https://dc.lft.to/lastmile_qr_scan", "ios": "https://dc.lft.to/lastmile_qr_scan"}, "is_reserved": 0, "name": "99ca3ffcc216775ed282bdc0573e5009", "lon": -77.03859383333334, "type": "electric_scooter", "bike_id": "99ca3ffcc216775ed282bdc0573e5009", "fusion_lon": 0.0, "lat": 38.907880666666664, "fusion_lat": 0.0}, {"is_disabled": 0, "rental_uris": {"android": "https://dc.lft.to/lastmile_qr_scan", "ios": "https://dc.lft.to/lastmile_qr_scan"}, "is_reserved": 0, "name": "cbe27e1f4e3da2ac9b5e96cc23e6f2fb", "lon": -77.0414535, "type": "electric_scooter", "bike_id": "cbe27e1f4e3da2ac9b5e96cc23e6f2fb", "fusion_lon": 0.0, "lat": 38.91266616666667, "fusion_lat": 0.0}, {"is_disabled": 0, "rental_uris": {"android": "https://dc.lft.to/lastmile_qr_scan", "ios": "https://dc.lft.to/lastmile_qr_scan"}, "is_reserved": 0, "name": "be2fe0c9dfd1c3fbe1b2d4f02aeaa55f", "lon": -76.933607, "type": "electric_scooter", "bike_id": "be2fe0c9dfd1c3fbe1b2d4f02aeaa55f", "fusion_lon": 0.0, "lat": 38.899058833333335, "fusion_lat": 0.0}, {"is_disabled": 0, "rental_uris": {"android": "https://dc.lft.to/lastmile_qr_scan", "ios": "https://dc.lft.to/lastmile_qr_scan"}, "is_reserved": 0, "name": "ff2b0ce73b3979e853e421c42bcc1882", "lon": -77.0278885, "type": "electric_scooter", "bike_id": "ff2b0ce73b3979e853e421c42bcc1882", "fusion_lon": 0.0, "lat": 38.9613175, "fusion_lat": 0.0}, {"is_disabled": 0, "rental_uris": {"android": "https://dc.lft.to/lastmile_qr_scan", "ios": "https://dc.lft.to/lastmile_qr_scan"}, "is_reserved": 0, "name": "1b41b245b87a1673983fc33c294f8968", "lon": -77.04674983333334, "type": "electric_scooter", "bike_id": "1b41b245b87a1673983fc33c294f8968", "fusion_lon": 0.0, "lat": 38.89223583333333, "fusion_lat": 0.0}, {"is_disabled": 0, "rental_uris": {"android": "https://dc.lft.to/lastmile_qr_scan", "ios": "https://dc.lft.to/lastmile_qr_scan"}, "is_reserved": 0, "name": "8377549610202e4f93247df0c4841fc0", "lon": -76.98164633333333, "type": "electric_bike", "bike_id": "8377549610202e4f93247df0c4841fc0", "fusion_lon": 0.0, "lat": 38.95964266666667, "fusion_lat": 0.0}, {"is_disabled": 0, "rental_uris": {"android": "https://dc.lft.to/lastmile_qr_scan", "ios": "https://dc.lft.to/lastmile_qr_scan"}, "is_reserved": 0, "name": "7b349136bbbc98b4f28b8f054cffc3c2", "lon": -76.9906195, "type": "electric_scooter", "bike_id": "7b349136bbbc98b4f28b8f054cffc3c2", "fusion_lon": 0.0, "lat": 38.90028433333333, "fusion_lat": 0.0}, {"is_disabled": 0, "rental_uris": {"android": "https://dc.lft.to/lastmile_qr_scan", "ios": "https://dc.lft.to/lastmile_qr_scan"}, "is_reserved": 0, "name": "fb0974d50139680c664196f922ee401f", "lon": -77.0405455, "type": "electric_scooter", "bike_id": "fb0974d50139680c664196f922ee401f", "fusion_lon": 0.0, "lat": 38.9104125, "fusion_lat": 0.0}, {"is_disabled": 0, "rental_uris": {"android": "https://dc.lft.to/lastmile_qr_scan", "ios": "https://dc.lft.to/lastmile_qr_scan"}, "is_reserved": 0, "name": "4e09e5b1207195494f6e92cde836a7d6", "lon": -77.05705216666667, "type": "electric_scooter", "bike_id": "4e09e5b1207195494f6e92cde836a7d6", "fusion_lon": 0.0, "lat": 38.926195666666665, "fusion_lat": 0.0}, {"is_disabled": 0, "rental_uris": {"android": "https://dc.lft.to/lastmile_qr_scan", "ios": "https://dc.lft.to/lastmile_qr_scan"}, "is_reserved": 0, "name": "feca16a0ed9e604c190fe1a2aea48a24", "lon": -76.99191666666667, "type": "electric_scooter", "bike_id": "feca16a0ed9e604c190fe1a2aea48a24", "fusion_lon": 0.0, "lat": 38.9258815, "fusion_lat": 0.0}, {"is_disabled": 0, "rental_uris": {"android": "https://dc.lft.to/lastmile_qr_scan", "ios": "https://dc.lft.to/lastmile_qr_scan"}, "is_reserved": 0, "name": "1825f2841e47a6911636b6b8e8ebcb5c", "lon": -77.02809516666666, "type": "electric_scooter", "bike_id": "1825f2841e47a6911636b6b8e8ebcb5c", "fusion_lon": 0.0, "lat": 38.930855, "fusion_lat": 0.0}, {"is_disabled": 0, "rental_uris": {"android": "https://dc.lft.to/lastmile_qr_scan", "ios": "https://dc.lft.to/lastmile_qr_scan"}, "is_reserved": 0, "name": "bebccd56824b6303eb7c50c6ea3caed0", "lon": -76.95675266666667, "type": "electric_scooter", "bike_id": "bebccd56824b6303eb7c50c6ea3caed0", "fusion_lon": 0.0, "lat": 38.887678666666666, "fusion_lat": 0.0}, {"is_disabled": 0, "rental_uris": {"android": "https://dc.lft.to/lastmile_qr_scan", "ios": "https://dc.lft.to/lastmile_qr_scan"}, "is_reserved": 0, "name": "2c13d73dbef794f462eb10a42423cfb3", "lon": -77.02192783333334, "type": "electric_scooter", "bike_id": "2c13d73dbef794f462eb10a42423cfb3", "fusion_lon": 0.0, "lat": 38.915146, "fusion_lat": 0.0}, {"is_disabled": 0, "rental_uris": {"android": "https://dc.lft.to/lastmile_qr_scan", "ios": "https://dc.lft.to/lastmile_qr_scan"}, "is_reserved": 0, "name": "05e995c4538700b0a28a35e5abae2596", "lon": -77.04841433333333, "type": "electric_scooter", "bike_id": "05e995c4538700b0a28a35e5abae2596", "fusion_lon": 0.0, "lat": 38.888409833333334, "fusion_lat": 0.0}, {"is_disabled": 0, "rental_uris": {"android": "https://dc.lft.to/lastmile_qr_scan", "ios": "https://dc.lft.to/lastmile_qr_scan"}, "is_reserved": 0, "name": "ffef713a1fa1b062bcfbaffb78c8bac0", "lon": -76.98327366666666, "type": "electric_scooter", "bike_id": "ffef713a1fa1b062bcfbaffb78c8bac0", "fusion_lon": 0.0, "lat": 38.86172933333334, "fusion_lat": 0.0}, {"is_disabled": 0, "rental_uris": {"android": "https://dc.lft.to/lastmile_qr_scan", "ios": "https://dc.lft.to/lastmile_qr_scan"}, "is_reserved": 0, "name": "4a95349a240305bc190f2625ee068d0f", "lon": -77.03215883333333, "type": "electric_scooter", "bike_id": "4a95349a240305bc190f2625ee068d0f", "fusion_lon": 0.0, "lat": 38.918420166666664, "fusion_lat": 0.0}, {"is_disabled": 0, "rental_uris": {"android": "https://dc.lft.to/lastmile_qr_scan", "ios": "https://dc.lft.to/lastmile_qr_scan"}, "is_reserved": 0, "name": "d575dc32c1905b72b9ddd4a371e45247", "lon": -77.152676, "type": "electric_bike", "bike_id": "d575dc32c1905b72b9ddd4a371e45247", "fusion_lon": 0.0, "lat": 39.1056775, "fusion_lat": 0.0}, {"is_disabled": 0, "rental_uris": {"android": "https://dc.lft.to/lastmile_qr_scan", "ios": "https://dc.lft.to/lastmile_qr_scan"}, "is_reserved": 0, "name": "cd55b53e4e0c44d0193de0b8965e58dc", "lon": -77.03456866666667, "type": "electric_scooter", "bike_id": "cd55b53e4e0c44d0193de0b8965e58dc", "fusion_lon": 0.0, "lat": 38.964350333333336, "fusion_lat": 0.0}, {"is_disabled": 0, "rental_uris": {"android": "https://dc.lft.to/lastmile_qr_scan", "ios": "https://dc.lft.to/lastmile_qr_scan"}, "is_reserved": 0, "name": "e2f899296c6dc5a2313d2fd868a66faa", "lon": -77.04717883333333, "type": "electric_scooter", "bike_id": "e2f899296c6dc5a2313d2fd868a66faa", "fusion_lon": 0.0, "lat": 38.89951166666667, "fusion_lat": 0.0}, {"is_disabled": 0, "rental_uris": {"android": "https://dc.lft.to/lastmile_qr_scan", "ios": "https://dc.lft.to/lastmile_qr_scan"}, "is_reserved": 0, "name": "aa5b57c8961667e1eb77425734f7465f", "lon": -77.03161283333333, "type": "electric_scooter", "bike_id": "aa5b57c8961667e1eb77425734f7465f", "fusion_lon": 0.0, "lat": 38.9036525, "fusion_lat": 0.0}, {"is_disabled": 0, "rental_uris": {"android": "https://dc.lft.to/lastmile_qr_scan", "ios": "https://dc.lft.to/lastmile_qr_scan"}, "is_reserved": 0, "name": "b908af9d2c1a1398520cf994a2ed92ea", "lon": -77.04500133333333, "type": "electric_scooter", "bike_id": "b908af9d2c1a1398520cf994a2ed92ea", "fusion_lon": 0.0, "lat": 38.896167166666665, "fusion_lat": 0.0}, {"is_disabled": 0, "rental_uris": {"android": "https://dc.lft.to/lastmile_qr_scan", "ios": "https://dc.lft.to/lastmile_qr_scan"}, "is_reserved": 0, "name": "8892deef20d7896fe42d4e57a21e7baf", "lon": -77.05725066666666, "type": "electric_scooter", "bike_id": "8892deef20d7896fe42d4e57a21e7baf", "fusion_lon": 0.0, "lat": 38.93373583333333, "fusion_lat": 0.0}, {"is_disabled": 0, "rental_uris": {"android": "https://dc.lft.to/lastmile_qr_scan", "ios": "https://dc.lft.to/lastmile_qr_scan"}, "is_reserved": 0, "name": "12e70c2c204deee8ef0d0a7ab4523955", "lon": -76.96840416666667, "type": "electric_bike", "bike_id": "12e70c2c204deee8ef0d0a7ab4523955", "fusion_lon": 0.0, "lat": 38.92445383333333, "fusion_lat": 0.0}, {"is_disabled": 0, "rental_uris": {"android": "https://dc.lft.to/lastmile_qr_scan", "ios": "https://dc.lft.to/lastmile_qr_scan"}, "is_reserved": 0, "name": "47f8d3d306a5ba702f4606e426f0c7ce", "lon": -77.00707933333334, "type": "electric_scooter", "bike_id": "47f8d3d306a5ba702f4606e426f0c7ce", "fusion_lon": 0.0, "lat": 38.90029216666667, "fusion_lat": 0.0}, {"is_disabled": 0, "rental_uris": {"android": "https://dc.lft.to/lastmile_qr_scan", "ios": "https://dc.lft.to/lastmile_qr_scan"}, "is_reserved": 0, "name": "aa140685ce6192622927b17e8b8857b4", "lon": -77.032425, "type": "electric_scooter", "bike_id": "aa140685ce6192622927b17e8b8857b4", "fusion_lon": 0.0, "lat": 38.900174666666665, "fusion_lat": 0.0}, {"is_disabled": 0, "rental_uris": {"android": "https://dc.lft.to/lastmile_qr_scan", "ios": "https://dc.lft.to/lastmile_qr_scan"}, "is_reserved": 0, "name": "8c0b206e7f4b7ff713b73e59f1345b54", "lon": -76.94895433333333, "type": "electric_scooter", "bike_id": "8c0b206e7f4b7ff713b73e59f1345b54", "fusion_lon": 0.0, "lat": 38.895280666666665, "fusion_lat": 0.0}, {"is_disabled": 0, "rental_uris": {"android": "https://dc.lft.to/lastmile_qr_scan", "ios": "https://dc.lft.to/lastmile_qr_scan"}, "is_reserved": 0, "name": "cd695f5a922c120ea4fb801f6ebb71d3", "lon": -77.04387733333333, "type": "electric_scooter", "bike_id": "cd695f5a922c120ea4fb801f6ebb71d3", "fusion_lon": 0.0, "lat": 38.9058115, "fusion_lat": 0.0}, {"is_disabled": 0, "rental_uris": {"android": "https://dc.lft.to/lastmile_qr_scan", "ios": "https://dc.lft.to/lastmile_qr_scan"}, "is_reserved": 0, "name": "159605284885b60de8627fb07d8449e1", "lon": -76.9738105, "type": "electric_scooter", "bike_id": "159605284885b60de8627fb07d8449e1", "fusion_lon": 0.0, "lat": 38.88374966666667, "fusion_lat": 0.0}, {"is_disabled": 0, "rental_uris": {"android": "https://dc.lft.to/lastmile_qr_scan", "ios": "https://dc.lft.to/lastmile_qr_scan"}, "is_reserved": 0, "name": "d2cf5abbb450cedd4d10baa32cf9dc97", "lon": -77.043534, "type": "electric_scooter", "bike_id": "d2cf5abbb450cedd4d10baa32cf9dc97", "fusion_lon": 0.0, "lat": 38.90697516666667, "fusion_lat": 0.0}, {"is_disabled": 0, "rental_uris": {"android": "https://dc.lft.to/lastmile_qr_scan", "ios": "https://dc.lft.to/lastmile_qr_scan"}, "is_reserved": 0, "name": "669f7bfa14d15f1d82af113d76a16534", "lon": -76.99954216666667, "type": "electric_scooter", "bike_id": "669f7bfa14d15f1d82af113d76a16534", "fusion_lon": 0.0, "lat": 38.842894666666666, "fusion_lat": 0.0}, {"is_disabled": 0, "rental_uris": {"android": "https://dc.lft.to/lastmile_qr_scan", "ios": "https://dc.lft.to/lastmile_qr_scan"}, "is_reserved": 0, "name": "63e2c94701e83c8d9522074e9743ed35", "lon": -77.01759683333333, "type": "electric_scooter", "bike_id": "63e2c94701e83c8d9522074e9743ed35", "fusion_lon": 0.0, "lat": 38.921175, "fusion_lat": 0.0}, {"is_disabled": 0, "rental_uris": {"android": "https://dc.lft.to/lastmile_qr_scan", "ios": "https://dc.lft.to/lastmile_qr_scan"}, "is_reserved": 0, "name": "1b161529048a686514e9f3c0eb4e0044", "lon": -76.94783316666667, "type": "electric_scooter", "bike_id": "1b161529048a686514e9f3c0eb4e0044", "fusion_lon": 0.0, "lat": 38.88462483333333, "fusion_lat": 0.0}, {"is_disabled": 0, "rental_uris": {"android": "https://dc.lft.to/lastmile_qr_scan", "ios": "https://dc.lft.to/lastmile_qr_scan"}, "is_reserved": 0, "name": "40afc05e08e70f07d2353466168f45d7", "lon": -77.0594085, "type": "electric_scooter", "bike_id": "40afc05e08e70f07d2353466168f45d7", "fusion_lon": 0.0, "lat": 38.9368075, "fusion_lat": 0.0}, {"is_disabled": 0, "rental_uris": {"android": "https://dc.lft.to/lastmile_qr_scan", "ios": "https://dc.lft.to/lastmile_qr_scan"}, "is_reserved": 0, "name": "16a00040fd5db81aab5d2018d7451c77", "lon": -77.03200833333334, "type": "electric_scooter", "bike_id": "16a00040fd5db81aab5d2018d7451c77", "fusion_lon": 0.0, "lat": 38.9180365, "fusion_lat": 0.0}, {"is_disabled": 0, "rental_uris": {"android": "https://dc.lft.to/lastmile_qr_scan", "ios": "https://dc.lft.to/lastmile_qr_scan"}, "is_reserved": 0, "name": "fb8c9c6a4e8559ec25591ce26689e08c", "lon": -77.01163916666667, "type": "electric_scooter", "bike_id": "fb8c9c6a4e8559ec25591ce26689e08c", "fusion_lon": 0.0, "lat": 38.897411166666664, "fusion_lat": 0.0}, {"is_disabled": 0, "rental_uris": {"android": "https://dc.lft.to/lastmile_qr_scan", "ios": "https://dc.lft.to/lastmile_qr_scan"}, "is_reserved": 0, "name": "49f19758d8b800ef3d7e6645b794f183", "lon": -77.04755233333333, "type": "electric_scooter", "bike_id": "49f19758d8b800ef3d7e6645b794f183", "fusion_lon": 0.0, "lat": 38.907235166666666, "fusion_lat": 0.0}, {"is_disabled": 0, "rental_uris": {"android": "https://dc.lft.to/lastmile_qr_scan", "ios": "https://dc.lft.to/lastmile_qr_scan"}, "is_reserved": 0, "name": "48247942ee19524ce826a7faf7dcc890", "lon": -77.03256383333333, "type": "electric_scooter", "bike_id": "48247942ee19524ce826a7faf7dcc890", "fusion_lon": 0.0, "lat": 38.928889, "fusion_lat": 0.0}, {"is_disabled": 0, "rental_uris": {"android": "https://dc.lft.to/lastmile_qr_scan", "ios": "https://dc.lft.to/lastmile_qr_scan"}, "is_reserved": 0, "name": "04f0ded1dcf3a441d948c787098ba6ec", "lon": -76.987268, "type": "electric_scooter", "bike_id": "04f0ded1dcf3a441d948c787098ba6ec", "fusion_lon": 0.0, "lat": 38.86714116666667, "fusion_lat": 0.0}, {"is_disabled": 0, "rental_uris": {"android": "https://dc.lft.to/lastmile_qr_scan", "ios": "https://dc.lft.to/lastmile_qr_scan"}, "is_reserved": 0, "name": "91dc2318c6df657eac94df085ce037e8", "lon": -77.03466283333333, "type": "electric_scooter", "bike_id": "91dc2318c6df657eac94df085ce037e8", "fusion_lon": 0.0, "lat": 38.902581, "fusion_lat": 0.0}, {"is_disabled": 0, "rental_uris": {"android": "https://dc.lft.to/lastmile_qr_scan", "ios": "https://dc.lft.to/lastmile_qr_scan"}, "is_reserved": 0, "name": "210864e8f1cf2fd098b6e812ae8bd93c", "lon": -77.02350816666667, "type": "electric_scooter", "bike_id": "210864e8f1cf2fd098b6e812ae8bd93c", "fusion_lon": 0.0, "lat": 38.92269783333333, "fusion_lat": 0.0}, {"is_disabled": 0, "rental_uris": {"android": "https://dc.lft.to/lastmile_qr_scan", "ios": "https://dc.lft.to/lastmile_qr_scan"}, "is_reserved": 0, "name": "380408c09f01687a7924d27f7026647f", "lon": -77.01991966666667, "type": "electric_scooter", "bike_id": "380408c09f01687a7924d27f7026647f", "fusion_lon": 0.0, "lat": 38.877894, "fusion_lat": 0.0}, {"is_disabled": 0, "rental_uris": {"android": "https://dc.lft.to/lastmile_qr_scan", "ios": "https://dc.lft.to/lastmile_qr_scan"}, "is_reserved": 0, "name": "0b5375a909b303af65b7a6394b6b1d51", "lon": -77.03846833333333, "type": "electric_scooter", "bike_id": "0b5375a909b303af65b7a6394b6b1d51", "fusion_lon": 0.0, "lat": 38.9265135, "fusion_lat": 0.0}, {"is_disabled": 0, "rental_uris": {"android": "https://dc.lft.to/lastmile_qr_scan", "ios": "https://dc.lft.to/lastmile_qr_scan"}, "is_reserved": 0, "name": "49998ed20048a5e79b639748c32b02cc", "lon": -77.03206516666667, "type": "electric_scooter", "bike_id": "49998ed20048a5e79b639748c32b02cc", "fusion_lon": 0.0, "lat": 38.90752783333333, "fusion_lat": 0.0}, {"is_disabled": 0, "rental_uris": {"android": "https://dc.lft.to/lastmile_qr_scan", "ios": "https://dc.lft.to/lastmile_qr_scan"}, "is_reserved": 0, "name": "171fa92c9ad4701db3279cd6044d213b", "lon": -77.02397783333333, "type": "electric_scooter", "bike_id": "171fa92c9ad4701db3279cd6044d213b", "fusion_lon": 0.0, "lat": 38.931074333333335, "fusion_lat": 0.0}, {"is_disabled": 0, "rental_uris": {"android": "https://dc.lft.to/lastmile_qr_scan", "ios": "https://dc.lft.to/lastmile_qr_scan"}, "is_reserved": 0, "name": "1751803c0f5fd29db5f316816e095b54", "lon": -76.952073, "type": "electric_bike", "bike_id": "1751803c0f5fd29db5f316816e095b54", "fusion_lon": 0.0, "lat": 38.936725, "fusion_lat": 0.0}, {"is_disabled": 0, "rental_uris": {"android": "https://dc.lft.to/lastmile_qr_scan", "ios": "https://dc.lft.to/lastmile_qr_scan"}, "is_reserved": 0, "name": "06b67f5a63a1496cd99195e9bba9a7ae", "lon": -77.02403133333334, "type": "electric_scooter", "bike_id": "06b67f5a63a1496cd99195e9bba9a7ae", "fusion_lon": 0.0, "lat": 38.91671683333333, "fusion_lat": 0.0}, {"is_disabled": 0, "rental_uris": {"android": "https://dc.lft.to/lastmile_qr_scan", "ios": "https://dc.lft.to/lastmile_qr_scan"}, "is_reserved": 0, "name": "13da4e31f67c6ba1445cbba4120728e6", "lon": -77.0434055, "type": "electric_scooter", "bike_id": "13da4e31f67c6ba1445cbba4120728e6", "fusion_lon": 0.0, "lat": 38.89834583333333, "fusion_lat": 0.0}, {"is_disabled": 0, "rental_uris": {"android": "https://dc.lft.to/lastmile_qr_scan", "ios": "https://dc.lft.to/lastmile_qr_scan"}, "is_reserved": 0, "name": "90b11a6045bd789efa3a82e4bec7f296", "lon": -77.0033845, "type": "electric_scooter", "bike_id": "90b11a6045bd789efa3a82e4bec7f296", "fusion_lon": 0.0, "lat": 38.893566, "fusion_lat": 0.0}, {"is_disabled": 0, "rental_uris": {"android": "https://dc.lft.to/lastmile_qr_scan", "ios": "https://dc.lft.to/lastmile_qr_scan"}, "is_reserved": 0, "name": "b49ced3e9472b38049d6d9c30175a8de", "lon": -77.01014783333333, "type": "electric_scooter", "bike_id": "b49ced3e9472b38049d6d9c30175a8de", "fusion_lon": 0.0, "lat": 38.90628516666666, "fusion_lat": 0.0}, {"is_disabled": 0, "rental_uris": {"android": "https://dc.lft.to/lastmile_qr_scan", "ios": "https://dc.lft.to/lastmile_qr_scan"}, "is_reserved": 0, "name": "933d4d0241c0e6388a82eb0b97ecbccd", "lon": -77.03321966666667, "type": "electric_scooter", "bike_id": "933d4d0241c0e6388a82eb0b97ecbccd", "fusion_lon": 0.0, "lat": 38.89843533333333, "fusion_lat": 0.0}, {"is_disabled": 0, "rental_uris": {"android": "https://dc.lft.to/lastmile_qr_scan", "ios": "https://dc.lft.to/lastmile_qr_scan"}, "is_reserved": 0, "name": "d91aadd858f0c0652e21cf88e08acbd9", "lon": -77.031861, "type": "electric_scooter", "bike_id": "d91aadd858f0c0652e21cf88e08acbd9", "fusion_lon": 0.0, "lat": 38.9191225, "fusion_lat": 0.0}, {"is_disabled": 0, "rental_uris": {"android": "https://dc.lft.to/lastmile_qr_scan", "ios": "https://dc.lft.to/lastmile_qr_scan"}, "is_reserved": 0, "name": "41ffe484b47b5d185ee14deb2c5df599", "lon": -77.02282916666667, "type": "electric_scooter", "bike_id": "41ffe484b47b5d185ee14deb2c5df599", "fusion_lon": 0.0, "lat": 38.901488666666665, "fusion_lat": 0.0}, {"is_disabled": 0, "rental_uris": {"android": "https://dc.lft.to/lastmile_qr_scan", "ios": "https://dc.lft.to/lastmile_qr_scan"}, "is_reserved": 0, "name": "2a3d9e7f6b21cac0ca919a8a09ad72a3", "lon": -77.04026083333333, "type": "electric_bike", "bike_id": "2a3d9e7f6b21cac0ca919a8a09ad72a3", "fusion_lon": 0.0, "lat": 38.90847083333333, "fusion_lat": 0.0}, {"is_disabled": 0, "rental_uris": {"android": "https://dc.lft.to/lastmile_qr_scan", "ios": "https://dc.lft.to/lastmile_qr_scan"}, "is_reserved": 0, "name": "7692383ed937a65d7317df28647dc2c7", "lon": -77.025427, "type": "electric_scooter", "bike_id": "7692383ed937a65d7317df28647dc2c7", "fusion_lon": 0.0, "lat": 38.90725483333333, "fusion_lat": 0.0}, {"is_disabled": 0, "rental_uris": {"android": "https://dc.lft.to/lastmile_qr_scan", "ios": "https://dc.lft.to/lastmile_qr_scan"}, "is_reserved": 0, "name": "915b7d75acb333942c72e9354a8aa9d7", "lon": -77.04028466666666, "type": "electric_scooter", "bike_id": "915b7d75acb333942c72e9354a8aa9d7", "fusion_lon": 0.0, "lat": 38.91787516666667, "fusion_lat": 0.0}, {"is_disabled": 0, "rental_uris": {"android": "https://dc.lft.to/lastmile_qr_scan", "ios": "https://dc.lft.to/lastmile_qr_scan"}, "is_reserved": 0, "name": "6c739ce1542c73807795308788ad2329", "lon": -77.063664, "type": "electric_scooter", "bike_id": "6c739ce1542c73807795308788ad2329", "fusion_lon": 0.0, "lat": 38.94419083333333, "fusion_lat": 0.0}, {"is_disabled": 0, "rental_uris": {"android": "https://dc.lft.to/lastmile_qr_scan", "ios": "https://dc.lft.to/lastmile_qr_scan"}, "is_reserved": 0, "name": "8d75d7afb61474abe913164c0d5ac694", "lon": -77.0320295, "type": "electric_scooter", "bike_id": "8d75d7afb61474abe913164c0d5ac694", "fusion_lon": 0.0, "lat": 38.919194, "fusion_lat": 0.0}, {"is_disabled": 0, "rental_uris": {"android": "https://dc.lft.to/lastmile_qr_scan", "ios": "https://dc.lft.to/lastmile_qr_scan"}, "is_reserved": 0, "name": "00c149e4f6523ff7c0754540d524060c", "lon": -77.00217316666667, "type": "electric_scooter", "bike_id": "00c149e4f6523ff7c0754540d524060c", "fusion_lon": 0.0, "lat": 38.89499983333333, "fusion_lat": 0.0}, {"is_disabled": 0, "rental_uris": {"android": "https://dc.lft.to/lastmile_qr_scan", "ios": "https://dc.lft.to/lastmile_qr_scan"}, "is_reserved": 0, "name": "6005e588906ae33cf1e39b419fc5929d", "lon": -77.107173, "type": "electric_bike", "bike_id": "6005e588906ae33cf1e39b419fc5929d", "fusion_lon": 0.0, "lat": 38.855521, "fusion_lat": 0.0}, {"is_disabled": 0, "rental_uris": {"android": "https://dc.lft.to/lastmile_qr_scan", "ios": "https://dc.lft.to/lastmile_qr_scan"}, "is_reserved": 0, "name": "6e14f40c05a81f8e271aba93a25547bf", "lon": -76.99957416666666, "type": "electric_scooter", "bike_id": "6e14f40c05a81f8e271aba93a25547bf", "fusion_lon": 0.0, "lat": 38.9033985, "fusion_lat": 0.0}, {"is_disabled": 0, "rental_uris": {"android": "https://dc.lft.to/lastmile_qr_scan", "ios": "https://dc.lft.to/lastmile_qr_scan"}, "is_reserved": 0, "name": "cd1e2c6e572dabd63eec00318922663a", "lon": -77.051107, "type": "electric_bike", "bike_id": "cd1e2c6e572dabd63eec00318922663a", "fusion_lon": 0.0, "lat": 38.945616666666666, "fusion_lat": 0.0}, {"is_disabled": 0, "rental_uris": {"android": "https://dc.lft.to/lastmile_qr_scan", "ios": "https://dc.lft.to/lastmile_qr_scan"}, "is_reserved": 0, "name": "0a0046f242421a2bef7800c8d3dfa0de", "lon": -77.043468, "type": "electric_scooter", "bike_id": "0a0046f242421a2bef7800c8d3dfa0de", "fusion_lon": 0.0, "lat": 38.90132, "fusion_lat": 0.0}, {"is_disabled": 0, "rental_uris": {"android": "https://dc.lft.to/lastmile_qr_scan", "ios": "https://dc.lft.to/lastmile_qr_scan"}, "is_reserved": 0, "name": "d94eca3a6c61afe580ed44e3ed9ec9f6", "lon": -77.03875616666667, "type": "electric_scooter", "bike_id": "d94eca3a6c61afe580ed44e3ed9ec9f6", "fusion_lon": 0.0, "lat": 38.9342925, "fusion_lat": 0.0}, {"is_disabled": 0, "rental_uris": {"android": "https://dc.lft.to/lastmile_qr_scan", "ios": "https://dc.lft.to/lastmile_qr_scan"}, "is_reserved": 0, "name": "475898d134a0626ebda859c2009cbd44", "lon": -76.949424, "type": "electric_scooter", "bike_id": "475898d134a0626ebda859c2009cbd44", "fusion_lon": 0.0, "lat": 38.88322733333333, "fusion_lat": 0.0}, {"is_disabled": 0, "rental_uris": {"android": "https://dc.lft.to/lastmile_qr_scan", "ios": "https://dc.lft.to/lastmile_qr_scan"}, "is_reserved": 0, "name": "b25d37ea6ddf2158248d580de0e186d5", "lon": -76.98303883333334, "type": "electric_scooter", "bike_id": "b25d37ea6ddf2158248d580de0e186d5", "fusion_lon": 0.0, "lat": 38.90379266666667, "fusion_lat": 0.0}, {"is_disabled": 0, "rental_uris": {"android": "https://dc.lft.to/lastmile_qr_scan", "ios": "https://dc.lft.to/lastmile_qr_scan"}, "is_reserved": 0, "name": "f59fcc7f741b3100c58ea5aea8ea518f", "lon": -77.0403865, "type": "electric_scooter", "bike_id": "f59fcc7f741b3100c58ea5aea8ea518f", "fusion_lon": 0.0, "lat": 38.904704, "fusion_lat": 0.0}, {"is_disabled": 0, "rental_uris": {"android": "https://dc.lft.to/lastmile_qr_scan", "ios": "https://dc.lft.to/lastmile_qr_scan"}, "is_reserved": 0, "name": "d88b34eaac897434fb402b5b75d04a96", "lon": -77.09447866666666, "type": "electric_scooter", "bike_id": "d88b34eaac897434fb402b5b75d04a96", "fusion_lon": 0.0, "lat": 38.917927166666665, "fusion_lat": 0.0}, {"is_disabled": 0, "rental_uris": {"android": "https://dc.lft.to/lastmile_qr_scan", "ios": "https://dc.lft.to/lastmile_qr_scan"}, "is_reserved": 0, "name": "aa78df46cb59cbd2778ae16528fbe754", "lon": -77.00279133333333, "type": "electric_bike", "bike_id": "aa78df46cb59cbd2778ae16528fbe754", "fusion_lon": 0.0, "lat": 38.91177883333334, "fusion_lat": 0.0}, {"is_disabled": 0, "rental_uris": {"android": "https://dc.lft.to/lastmile_qr_scan", "ios": "https://dc.lft.to/lastmile_qr_scan"}, "is_reserved": 0, "name": "dde426f106c709ac8b521f93b4bcc05f", "lon": -77.0319755, "type": "electric_scooter", "bike_id": "dde426f106c709ac8b521f93b4bcc05f", "fusion_lon": 0.0, "lat": 38.90746433333333, "fusion_lat": 0.0}, {"is_disabled": 0, "rental_uris": {"android": "https://dc.lft.to/lastmile_qr_scan", "ios": "https://dc.lft.to/lastmile_qr_scan"}, "is_reserved": 0, "name": "5f3f84363643e10518b875babcb3778f", "lon": -77.02421783333334, "type": "electric_scooter", "bike_id": "5f3f84363643e10518b875babcb3778f", "fusion_lon": 0.0, "lat": 38.89363183333333, "fusion_lat": 0.0}, {"is_disabled": 0, "rental_uris": {"android": "https://dc.lft.to/lastmile_qr_scan", "ios": "https://dc.lft.to/lastmile_qr_scan"}, "is_reserved": 0, "name": "6feb7ca86af35be3a677f8054c2994ab", "lon": -77.0030695, "type": "electric_scooter", "bike_id": "6feb7ca86af35be3a677f8054c2994ab", "fusion_lon": 0.0, "lat": 38.892328666666664, "fusion_lat": 0.0}, {"is_disabled": 0, "rental_uris": {"android": "https://dc.lft.to/lastmile_qr_scan", "ios": "https://dc.lft.to/lastmile_qr_scan"}, "is_reserved": 0, "name": "8756191b92c616696672faa6230c553b", "lon": -77.02830316666666, "type": "electric_scooter", "bike_id": "8756191b92c616696672faa6230c553b", "fusion_lon": 0.0, "lat": 38.9298155, "fusion_lat": 0.0}, {"is_disabled": 0, "rental_uris": {"android": "https://dc.lft.to/lastmile_qr_scan", "ios": "https://dc.lft.to/lastmile_qr_scan"}, "is_reserved": 0, "name": "8e8ee1f590ec6ecad10133e6dafc9434", "lon": -77.04157833333333, "type": "electric_scooter", "bike_id": "8e8ee1f590ec6ecad10133e6dafc9434", "fusion_lon": 0.0, "lat": 38.923343833333334, "fusion_lat": 0.0}, {"is_disabled": 0, "rental_uris": {"android": "https://dc.lft.to/lastmile_qr_scan", "ios": "https://dc.lft.to/lastmile_qr_scan"}, "is_reserved": 0, "name": "543aad07f621e7ccd847a5b5d2b4084e", "lon": -77.015467, "type": "electric_scooter", "bike_id": "543aad07f621e7ccd847a5b5d2b4084e", "fusion_lon": 0.0, "lat": 38.895457666666665, "fusion_lat": 0.0}, {"is_disabled": 0, "rental_uris": {"android": "https://dc.lft.to/lastmile_qr_scan", "ios": "https://dc.lft.to/lastmile_qr_scan"}, "is_reserved": 0, "name": "ae6251871ccebd2ef2684ce868ce707c", "lon": -77.0079845, "type": "electric_scooter", "bike_id": "ae6251871ccebd2ef2684ce868ce707c", "fusion_lon": 0.0, "lat": 38.89719233333334, "fusion_lat": 0.0}, {"is_disabled": 0, "rental_uris": {"android": "https://dc.lft.to/lastmile_qr_scan", "ios": "https://dc.lft.to/lastmile_qr_scan"}, "is_reserved": 0, "name": "0fa4f522a6f66b3f79adf8d645b96504", "lon": -77.03310583333334, "type": "electric_scooter", "bike_id": "0fa4f522a6f66b3f79adf8d645b96504", "fusion_lon": 0.0, "lat": 38.95616866666667, "fusion_lat": 0.0}, {"is_disabled": 0, "rental_uris": {"android": "https://dc.lft.to/lastmile_qr_scan", "ios": "https://dc.lft.to/lastmile_qr_scan"}, "is_reserved": 0, "name": "1b681f0b584be6c3ccf4223095c643af", "lon": -77.09835266666667, "type": "electric_bike", "bike_id": "1b681f0b584be6c3ccf4223095c643af", "fusion_lon": 0.0, "lat": 38.857919333333335, "fusion_lat": 0.0}, {"is_disabled": 0, "rental_uris": {"android": "https://dc.lft.to/lastmile_qr_scan", "ios": "https://dc.lft.to/lastmile_qr_scan"}, "is_reserved": 0, "name": "d2be5b6be4b2cf5cc69291231946e9ae", "lon": -77.02226866666666, "type": "electric_scooter", "bike_id": "d2be5b6be4b2cf5cc69291231946e9ae", "fusion_lon": 0.0, "lat": 38.892226666666666, "fusion_lat": 0.0}, {"is_disabled": 0, "rental_uris": {"android": "https://dc.lft.to/lastmile_qr_scan", "ios": "https://dc.lft.to/lastmile_qr_scan"}, "is_reserved": 0, "name": "d8c6f4031a0720e20ff50b65197ad009", "lon": -77.00744183333333, "type": "electric_scooter", "bike_id": "d8c6f4031a0720e20ff50b65197ad009", "fusion_lon": 0.0, "lat": 38.898556666666664, "fusion_lat": 0.0}, {"is_disabled": 0, "rental_uris": {"android": "https://dc.lft.to/lastmile_qr_scan", "ios": "https://dc.lft.to/lastmile_qr_scan"}, "is_reserved": 0, "name": "5fb7a60af69bdec210b93553b537a0b0", "lon": -76.93185466666667, "type": "electric_scooter", "bike_id": "5fb7a60af69bdec210b93553b537a0b0", "fusion_lon": 0.0, "lat": 38.8988065, "fusion_lat": 0.0}, {"is_disabled": 0, "rental_uris": {"android": "https://dc.lft.to/lastmile_qr_scan", "ios": "https://dc.lft.to/lastmile_qr_scan"}, "is_reserved": 0, "name": "9df0b28655ea49ffe02180d22caf8c2a", "lon": -77.05477866666666, "type": "electric_scooter", "bike_id": "9df0b28655ea49ffe02180d22caf8c2a", "fusion_lon": 0.0, "lat": 38.904411333333336, "fusion_lat": 0.0}, {"is_disabled": 0, "rental_uris": {"android": "https://dc.lft.to/lastmile_qr_scan", "ios": "https://dc.lft.to/lastmile_qr_scan"}, "is_reserved": 0, "name": "96693b71428a12bc339ada927f864eda", "lon": -77.03183666666666, "type": "electric_scooter", "bike_id": "96693b71428a12bc339ada927f864eda", "fusion_lon": 0.0, "lat": 38.91918183333333, "fusion_lat": 0.0}, {"is_disabled": 0, "rental_uris": {"android": "https://dc.lft.to/lastmile_qr_scan", "ios": "https://dc.lft.to/lastmile_qr_scan"}, "is_reserved": 0, "name": "e2da9477d869aa93db1a3645e4301ecd", "lon": -77.0462945, "type": "electric_scooter", "bike_id": "e2da9477d869aa93db1a3645e4301ecd", "fusion_lon": 0.0, "lat": 38.90100283333334, "fusion_lat": 0.0}, {"is_disabled": 0, "rental_uris": {"android": "https://dc.lft.to/lastmile_qr_scan", "ios": "https://dc.lft.to/lastmile_qr_scan"}, "is_reserved": 0, "name": "f8d6aacdccc6019a5aad01fb5f2ad762", "lon": -77.0217385, "type": "electric_scooter", "bike_id": "f8d6aacdccc6019a5aad01fb5f2ad762", "fusion_lon": 0.0, "lat": 38.942985, "fusion_lat": 0.0}, {"is_disabled": 0, "rental_uris": {"android": "https://dc.lft.to/lastmile_qr_scan", "ios": "https://dc.lft.to/lastmile_qr_scan"}, "is_reserved": 0, "name": "af8a84f098e5bc125bc376ee931921cd", "lon": -76.99081333333334, "type": "electric_scooter", "bike_id": "af8a84f098e5bc125bc376ee931921cd", "fusion_lon": 0.0, "lat": 38.904247, "fusion_lat": 0.0}, {"is_disabled": 0, "rental_uris": {"android": "https://dc.lft.to/lastmile_qr_scan", "ios": "https://dc.lft.to/lastmile_qr_scan"}, "is_reserved": 0, "name": "c0b4d34aa6024011d381eff86d922b91", "lon": -76.93349133333334, "type": "electric_scooter", "bike_id": "c0b4d34aa6024011d381eff86d922b91", "fusion_lon": 0.0, "lat": 38.9019665, "fusion_lat": 0.0}, {"is_disabled": 0, "rental_uris": {"android": "https://dc.lft.to/lastmile_qr_scan", "ios": "https://dc.lft.to/lastmile_qr_scan"}, "is_reserved": 0, "name": "13d935f0b4316fab94371346f555caeb", "lon": -76.93526816666666, "type": "electric_scooter", "bike_id": "13d935f0b4316fab94371346f555caeb", "fusion_lon": 0.0, "lat": 38.8790005, "fusion_lat": 0.0}, {"is_disabled": 0, "rental_uris": {"android": "https://dc.lft.to/lastmile_qr_scan", "ios": "https://dc.lft.to/lastmile_qr_scan"}, "is_reserved": 0, "name": "71609b5bf9440159e7adeaa545073a67", "lon": -77.03364133333334, "type": "electric_scooter", "bike_id": "71609b5bf9440159e7adeaa545073a67", "fusion_lon": 0.0, "lat": 38.9120065, "fusion_lat": 0.0}, {"is_disabled": 0, "rental_uris": {"android": "https://dc.lft.to/lastmile_qr_scan", "ios": "https://dc.lft.to/lastmile_qr_scan"}, "is_reserved": 0, "name": "653b7f5d30f0b307169f26e228ee7cb3", "lon": -77.03798333333333, "type": "electric_bike", "bike_id": "653b7f5d30f0b307169f26e228ee7cb3", "fusion_lon": 0.0, "lat": 38.996804, "fusion_lat": 0.0}, {"is_disabled": 0, "rental_uris": {"android": "https://dc.lft.to/lastmile_qr_scan", "ios": "https://dc.lft.to/lastmile_qr_scan"}, "is_reserved": 0, "name": "d22d04d651e58a7c825da3668770037e", "lon": -77.02496716666667, "type": "electric_bike", "bike_id": "d22d04d651e58a7c825da3668770037e", "fusion_lon": 0.0, "lat": 38.9740825, "fusion_lat": 0.0}, {"is_disabled": 0, "rental_uris": {"android": "https://dc.lft.to/lastmile_qr_scan", "ios": "https://dc.lft.to/lastmile_qr_scan"}, "is_reserved": 0, "name": "182a90e4f2bdf92acd3e9bd9660c003b", "lon": -77.11237, "type": "electric_bike", "bike_id": "182a90e4f2bdf92acd3e9bd9660c003b", "fusion_lon": 0.0, "lat": 38.81235683333333, "fusion_lat": 0.0}, {"is_disabled": 0, "rental_uris": {"android": "https://dc.lft.to/lastmile_qr_scan", "ios": "https://dc.lft.to/lastmile_qr_scan"}, "is_reserved": 0, "name": "4929f11139aba6522755d6ed61e8e194", "lon": -76.98375033333333, "type": "electric_scooter", "bike_id": "4929f11139aba6522755d6ed61e8e194", "fusion_lon": 0.0, "lat": 38.90651233333333, "fusion_lat": 0.0}, {"is_disabled": 0, "rental_uris": {"android": "https://dc.lft.to/lastmile_qr_scan", "ios": "https://dc.lft.to/lastmile_qr_scan"}, "is_reserved": 0, "name": "4494899c90d505b0fe027875ba4c9d72", "lon": -77.040284, "type": "electric_scooter", "bike_id": "4494899c90d505b0fe027875ba4c9d72", "fusion_lon": 0.0, "lat": 38.917896, "fusion_lat": 0.0}, {"is_disabled": 0, "rental_uris": {"android": "https://dc.lft.to/lastmile_qr_scan", "ios": "https://dc.lft.to/lastmile_qr_scan"}, "is_reserved": 0, "name": "cf9b32114d7409af5c3689934280f4f4", "lon": -76.95192483333334, "type": "electric_bike", "bike_id": "cf9b32114d7409af5c3689934280f4f4", "fusion_lon": 0.0, "lat": 38.90692333333333, "fusion_lat": 0.0}, {"is_disabled": 0, "rental_uris": {"android": "https://dc.lft.to/lastmile_qr_scan", "ios": "https://dc.lft.to/lastmile_qr_scan"}, "is_reserved": 0, "name": "e5b3b8541a04bfb9fbe12f0fa90be898", "lon": -76.95019066666667, "type": "electric_scooter", "bike_id": "e5b3b8541a04bfb9fbe12f0fa90be898", "fusion_lon": 0.0, "lat": 38.88396383333333, "fusion_lat": 0.0}, {"is_disabled": 0, "rental_uris": {"android": "https://dc.lft.to/lastmile_qr_scan", "ios": "https://dc.lft.to/lastmile_qr_scan"}, "is_reserved": 0, "name": "9d073caffcaf2eae4ff9a1e74eeffb04", "lon": -77.02466716666666, "type": "electric_scooter", "bike_id": "9d073caffcaf2eae4ff9a1e74eeffb04", "fusion_lon": 0.0, "lat": 38.93719016666667, "fusion_lat": 0.0}, {"is_disabled": 0, "rental_uris": {"android": "https://dc.lft.to/lastmile_qr_scan", "ios": "https://dc.lft.to/lastmile_qr_scan"}, "is_reserved": 0, "name": "cae63727d0802b58d04653856a64abef", "lon": -77.10180733333333, "type": "electric_bike", "bike_id": "cae63727d0802b58d04653856a64abef", "fusion_lon": 0.0, "lat": 38.91812516666667, "fusion_lat": 0.0}, {"is_disabled": 0, "rental_uris": {"android": "https://dc.lft.to/lastmile_qr_scan", "ios": "https://dc.lft.to/lastmile_qr_scan"}, "is_reserved": 0, "name": "bbbb0ad40f450b9e8d80958d052c0e65", "lon": -77.06348183333333, "type": "electric_scooter", "bike_id": "bbbb0ad40f450b9e8d80958d052c0e65", "fusion_lon": 0.0, "lat": 38.94448383333334, "fusion_lat": 0.0}, {"is_disabled": 0, "rental_uris": {"android": "https://dc.lft.to/lastmile_qr_scan", "ios": "https://dc.lft.to/lastmile_qr_scan"}, "is_reserved": 0, "name": "360b8c4224d242cf1cb608a9f8467ec6", "lon": -77.00571483333333, "type": "electric_scooter", "bike_id": "360b8c4224d242cf1cb608a9f8467ec6", "fusion_lon": 0.0, "lat": 38.885027666666666, "fusion_lat": 0.0}, {"is_disabled": 0, "rental_uris": {"android": "https://dc.lft.to/lastmile_qr_scan", "ios": "https://dc.lft.to/lastmile_qr_scan"}, "is_reserved": 0, "name": "e6be19b3212e3ba2ac9f34e23d619004", "lon": -77.0215855, "type": "electric_scooter", "bike_id": "e6be19b3212e3ba2ac9f34e23d619004", "fusion_lon": 0.0, "lat": 38.926094666666664, "fusion_lat": 0.0}, {"is_disabled": 0, "rental_uris": {"android": "https://dc.lft.to/lastmile_qr_scan", "ios": "https://dc.lft.to/lastmile_qr_scan"}, "is_reserved": 0, "name": "09cfb9844b96807b6d2bd8b45843d16c", "lon": -77.0140785, "type": "electric_scooter", "bike_id": "09cfb9844b96807b6d2bd8b45843d16c", "fusion_lon": 0.0, "lat": 38.87664633333333, "fusion_lat": 0.0}, {"is_disabled": 0, "rental_uris": {"android": "https://dc.lft.to/lastmile_qr_scan", "ios": "https://dc.lft.to/lastmile_qr_scan"}, "is_reserved": 0, "name": "de8cc44d85e9917da603f774d436cf32", "lon": -77.007502, "type": "electric_bike", "bike_id": "de8cc44d85e9917da603f774d436cf32", "fusion_lon": 0.0, "lat": 38.90061866666667, "fusion_lat": 0.0}, {"is_disabled": 0, "rental_uris": {"android": "https://dc.lft.to/lastmile_qr_scan", "ios": "https://dc.lft.to/lastmile_qr_scan"}, "is_reserved": 0, "name": "b30aa48f4fdd4b05ab0899efc7d210f2", "lon": -76.99881283333333, "type": "electric_scooter", "bike_id": "b30aa48f4fdd4b05ab0899efc7d210f2", "fusion_lon": 0.0, "lat": 38.88976483333333, "fusion_lat": 0.0}, {"is_disabled": 0, "rental_uris": {"android": "https://dc.lft.to/lastmile_qr_scan", "ios": "https://dc.lft.to/lastmile_qr_scan"}, "is_reserved": 0, "name": "69cb934356be99ffaf990eb717c57359", "lon": -77.01212716666667, "type": "electric_scooter", "bike_id": "69cb934356be99ffaf990eb717c57359", "fusion_lon": 0.0, "lat": 38.91823466666666, "fusion_lat": 0.0}, {"is_disabled": 0, "rental_uris": {"android": "https://dc.lft.to/lastmile_qr_scan", "ios": "https://dc.lft.to/lastmile_qr_scan"}, "is_reserved": 0, "name": "d41705e06bff2e1738a6879ef37547d7", "lon": -76.92231033333333, "type": "electric_scooter", "bike_id": "d41705e06bff2e1738a6879ef37547d7", "fusion_lon": 0.0, "lat": 38.899974666666665, "fusion_lat": 0.0}, {"is_disabled": 0, "rental_uris": {"android": "https://dc.lft.to/lastmile_qr_scan", "ios": "https://dc.lft.to/lastmile_qr_scan"}, "is_reserved": 0, "name": "55dee4d0ca358a0b52471fe408da46d0", "lon": -77.02165066666667, "type": "electric_scooter", "bike_id": "55dee4d0ca358a0b52471fe408da46d0", "fusion_lon": 0.0, "lat": 38.899281, "fusion_lat": 0.0}, {"is_disabled": 0, "rental_uris": {"android": "https://dc.lft.to/lastmile_qr_scan", "ios": "https://dc.lft.to/lastmile_qr_scan"}, "is_reserved": 0, "name": "c0fd1f3871bfd1ff2e199d55969ab7ef", "lon": -77.04644066666667, "type": "electric_scooter", "bike_id": "c0fd1f3871bfd1ff2e199d55969ab7ef", "fusion_lon": 0.0, "lat": 38.893503833333334, "fusion_lat": 0.0}, {"is_disabled": 0, "rental_uris": {"android": "https://dc.lft.to/lastmile_qr_scan", "ios": "https://dc.lft.to/lastmile_qr_scan"}, "is_reserved": 0, "name": "c2eea9d6811841c1e7395c25de2ce5a7", "lon": -77.0039195, "type": "electric_scooter", "bike_id": "c2eea9d6811841c1e7395c25de2ce5a7", "fusion_lon": 0.0, "lat": 38.910684833333335, "fusion_lat": 0.0}, {"is_disabled": 0, "rental_uris": {"android": "https://dc.lft.to/lastmile_qr_scan", "ios": "https://dc.lft.to/lastmile_qr_scan"}, "is_reserved": 0, "name": "48dbb25951ca45223a9a42659a35a7fd", "lon": -76.94288383333334, "type": "electric_scooter", "bike_id": "48dbb25951ca45223a9a42659a35a7fd", "fusion_lon": 0.0, "lat": 38.883072166666665, "fusion_lat": 0.0}, {"is_disabled": 0, "rental_uris": {"android": "https://dc.lft.to/lastmile_qr_scan", "ios": "https://dc.lft.to/lastmile_qr_scan"}, "is_reserved": 0, "name": "36816dfa93c58e0ae76f8b598ebf17f0", "lon": -77.07365666666666, "type": "electric_bike", "bike_id": "36816dfa93c58e0ae76f8b598ebf17f0", "fusion_lon": 0.0, "lat": 38.9618005, "fusion_lat": 0.0}, {"is_disabled": 0, "rental_uris": {"android": "https://dc.lft.to/lastmile_qr_scan", "ios": "https://dc.lft.to/lastmile_qr_scan"}, "is_reserved": 0, "name": "f9f3b6d137f34d6e20152e24c1782596", "lon": -77.022222, "type": "electric_scooter", "bike_id": "f9f3b6d137f34d6e20152e24c1782596", "fusion_lon": 0.0, "lat": 38.89522066666667, "fusion_lat": 0.0}, {"is_disabled": 0, "rental_uris": {"android": "https://dc.lft.to/lastmile_qr_scan", "ios": "https://dc.lft.to/lastmile_qr_scan"}, "is_reserved": 0, "name": "45b4d1e475a33925e55fc323098bc20f", "lon": -76.92819533333333, "type": "electric_scooter", "bike_id": "45b4d1e475a33925e55fc323098bc20f", "fusion_lon": 0.0, "lat": 38.880732333333334, "fusion_lat": 0.0}, {"is_disabled": 0, "rental_uris": {"android": "https://dc.lft.to/lastmile_qr_scan", "ios": "https://dc.lft.to/lastmile_qr_scan"}, "is_reserved": 0, "name": "a2a89b3a4efbc6b42148a4edaeadb074", "lon": -77.05170366666667, "type": "electric_scooter", "bike_id": "a2a89b3a4efbc6b42148a4edaeadb074", "fusion_lon": 0.0, "lat": 38.903254833333335, "fusion_lat": 0.0}, {"is_disabled": 0, "rental_uris": {"android": "https://dc.lft.to/lastmile_qr_scan", "ios": "https://dc.lft.to/lastmile_qr_scan"}, "is_reserved": 0, "name": "20e38335de0471d146886c8e0ad2fe09", "lon": -77.00809866666667, "type": "electric_bike", "bike_id": "20e38335de0471d146886c8e0ad2fe09", "fusion_lon": 0.0, "lat": 38.9534915, "fusion_lat": 0.0}, {"is_disabled": 0, "rental_uris": {"android": "https://dc.lft.to/lastmile_qr_scan", "ios": "https://dc.lft.to/lastmile_qr_scan"}, "is_reserved": 0, "name": "3cfd5054150b84287204014a947078e7", "lon": -77.01012216666666, "type": "electric_scooter", "bike_id": "3cfd5054150b84287204014a947078e7", "fusion_lon": 0.0, "lat": 38.86719883333333, "fusion_lat": 0.0}, {"is_disabled": 0, "rental_uris": {"android": "https://dc.lft.to/lastmile_qr_scan", "ios": "https://dc.lft.to/lastmile_qr_scan"}, "is_reserved": 0, "name": "113e9331298e575d1eaee1e5714498d1", "lon": -76.94155483333333, "type": "electric_scooter", "bike_id": "113e9331298e575d1eaee1e5714498d1", "fusion_lon": 0.0, "lat": 38.88364333333333, "fusion_lat": 0.0},