{"data": {"bikes": [{"lon": -77.009241, "bike_id": "558197db4bd86af80714e47eef991351", "lat": 38.91102583333333, "fusion_lon": 0.0, "fusion_lat": 0.0, "type": "electric_scooter", "name": "558197db4bd86af80714e47eef991351", "is_disabled": 0, "rental_uris": {"ios": "https://dc.lft.to/lastmile_qr_scan", "android": "https://dc.lft.to/lastmile_qr_scan"}, "is_reserved": 0}, {"lon": -76.989642, "bike_id": "66569e38492b1f26f24c8e22dfec23e6", "lat": 38.901332333333336, "fusion_lon": 0.0, "fusion_lat": 0.0, "type": "electric_scooter", "name": "66569e38492b1f26f24c8e22dfec23e6", "is_disabled": 0, "rental_uris": {"ios": "https://dc.lft.to/lastmile_qr_scan", "android": "https://dc.lft.to/lastmile_qr_scan"}, "is_reserved": 0}, {"lon": -77.01376733333333, "bike_id": "3f7cb8df85a1aa35c4c93823ce4567f0", "lat": 38.906264166666666, "fusion_lon": 0.0, "fusion_lat": 0.0, "type": "electric_scooter", "name": "3f7cb8df85a1aa35c4c93823ce4567f0", "is_disabled": 0, "rental_uris": {"ios": "https://dc.lft.to/lastmile_qr_scan", "android": "https://dc.lft.to/lastmile_qr_scan"}, "is_reserved": 0}, {"lon": -77.01348416666667, "bike_id": "e5edb25496c85a7a51a6a20eb27005a9", "lat": 38.87601083333333, "fusion_lon": 0.0, "fusion_lat": 0.0, "type": "electric_scooter", "name": "e5edb25496c85a7a51a6a20eb27005a9", "is_disabled": 0, "rental_uris": {"ios": "https://dc.lft.to/lastmile_qr_scan", "android": "https://dc.lft.to/lastmile_qr_scan"}, "is_reserved": 0}, {"lon": -77.0355565, "bike_id": "325a8a73050b32c9ab7c16ac0890c4d3", "lat": 38.90483833333333, "fusion_lon": 0.0, "fusion_lat": 0.0, "type": "electric_scooter", "name": "325a8a73050b32c9ab7c16ac0890c4d3", "is_disabled": 0, "rental_uris": {"ios": "https://dc.lft.to/lastmile_qr_scan", "android": "https://dc.lft.to/lastmile_qr_scan"}, "is_reserved": 0}, {"lon": -76.98173433333334, "bike_id": "193bcaee842dbcb29c4d55455a7fbe22", "lat": 38.91678666666667, "fusion_lon": 0.0, "fusion_lat": 0.0, "type": "electric_scooter", "name": "193bcaee842dbcb29c4d55455a7fbe22", "is_disabled": 0, "rental_uris": {"ios": "https://dc.lft.to/lastmile_qr_scan", "android": "https://dc.lft.to/lastmile_qr_scan"}, "is_reserved": 0}, {"lon": -77.01640716666667, "bike_id": "4ba25589a5925bd77a44ef7447577d66", "lat": 38.903774, "fusion_lon": 0.0, "fusion_lat": 0.0, "type": "electric_scooter", "name": "4ba25589a5925bd77a44ef7447577d66", "is_disabled": 0, "rental_uris": {"ios": "https://dc.lft.to/lastmile_qr_scan", "android": "https://dc.lft.to/lastmile_qr_scan"}, "is_reserved": 0}, {"lon": -77.02872683333334, "bike_id": "e6beb33af4fd7813d586ec92b63f21dc", "lat": 38.9472865, "fusion_lon": 0.0, "fusion_lat": 0.0, "type": "electric_bike", "name": "e6beb33af4fd7813d586ec92b63f21dc", "is_disabled": 0, "rental_uris": {"ios": "https://dc.lft.to/lastmile_qr_scan", "android": "https://dc.lft.to/lastmile_qr_scan"}, "is_reserved": 0}, {"lon": -76.993764, "bike_id": "f30d820778027129c7505656086cffe7", "lat": 38.92398766666667, "fusion_lon": 0.0, "fusion_lat": 0.0, "type": "electric_scooter", "name": "f30d820778027129c7505656086cffe7", "is_disabled": 0, "rental_uris": {"ios": "https://dc.lft.to/lastmile_qr_scan", "android": "https://dc.lft.to/lastmile_qr_scan"}, "is_reserved": 0}, {"lon": -77.06341116666667, "bike_id": "62182e1c57d9f4ad70ae540a6eaeefc5", "lat": 38.906848, "fusion_lon": 0.0, "fusion_lat": 0.0, "type": "electric_scooter", "name": "62182e1c57d9f4ad70ae540a6eaeefc5", "is_disabled": 0, "rental_uris": {"ios": "https://dc.lft.to/lastmile_qr_scan", "android": "https://dc.lft.to/lastmile_qr_scan"}, "is_reserved": 0}, {"lon": -77.04939133333333, "bike_id": "187dca0d508efa9e04f688e4f01ac69d", "lat": 38.897357666666664, "fusion_lon": 0.0, "fusion_lat": 0.0, "type": "electric_scooter", "name": "187dca0d508efa9e04f688e4f01ac69d", "is_disabled": 0, "rental_uris": {"ios": "https://dc.lft.to/lastmile_qr_scan", "android": "https://dc.lft.to/lastmile_qr_scan"}, "is_reserved": 0}, {"lon": -77.05537583333333, "bike_id": "f82e60dc0a4f8180e35532019ea6a5d0", "lat": 38.9343055, "fusion_lon": 0.0, "fusion_lat": 0.0, "type": "electric_scooter", "name": "f82e60dc0a4f8180e35532019ea6a5d0", "is_disabled": 0, "rental_uris": {"ios": "https://dc.lft.to/lastmile_qr_scan", "android": "https://dc.lft.to/lastmile_qr_scan"}, "is_reserved": 0}, {"lon": -77.0341825, "bike_id": "29bcfa3aaba782ad35696000011f7ef8", "lat": 38.922402166666664, "fusion_lon": 0.0, "fusion_lat": 0.0, "type": "electric_scooter", "name": "29bcfa3aaba782ad35696000011f7ef8", "is_disabled": 0, "rental_uris": {"ios": "https://dc.lft.to/lastmile_qr_scan", "android": "https://dc.lft.to/lastmile_qr_scan"}, "is_reserved": 0}, {"lon": -77.03662083333333, "bike_id": "fc816eff6a05f033059de89cfe3f83c3", "lat": 38.917291166666665, "fusion_lon": 0.0, "fusion_lat": 0.0, "type": "electric_scooter", "name": "fc816eff6a05f033059de89cfe3f83c3", "is_disabled": 0, "rental_uris": {"ios": "https://dc.lft.to/lastmile_qr_scan", "android": "https://dc.lft.to/lastmile_qr_scan"}, "is_reserved": 0}, {"lon": -76.98838733333334, "bike_id": "fff73cd5c59fd8e6aecee713536128d0", "lat": 38.90077083333333, "fusion_lon": 0.0, "fusion_lat": 0.0, "type": "electric_scooter", "name": "fff73cd5c59fd8e6aecee713536128d0", "is_disabled": 0, "rental_uris": {"ios": "https://dc.lft.to/lastmile_qr_scan", "android": "https://dc.lft.to/lastmile_qr_scan"}, "is_reserved": 0}, {"lon": -77.04151583333334, "bike_id": "85e44b6700aca5429c82956b87dac308", "lat": 38.9195545, "fusion_lon": 0.0, "fusion_lat": 0.0, "type": "electric_scooter", "name": "85e44b6700aca5429c82956b87dac308", "is_disabled": 0, "rental_uris": {"ios": "https://dc.lft.to/lastmile_qr_scan", "android": "https://dc.lft.to/lastmile_qr_scan"}, "is_reserved": 0}, {"lon": -77.02689866666667, "bike_id": "d0e3824b4a88c8da0e67e95bc8ba0cfc", "lat": 38.8971555, "fusion_lon": 0.0, "fusion_lat": 0.0, "type": "electric_scooter", "name": "d0e3824b4a88c8da0e67e95bc8ba0cfc", "is_disabled": 0, "rental_uris": {"ios": "https://dc.lft.to/lastmile_qr_scan", "android": "https://dc.lft.to/lastmile_qr_scan"}, "is_reserved": 0}, {"lon": -77.03267383333333, "bike_id": "98900039b51d347d64981c69f95c59e0", "lat": 38.934104, "fusion_lon": 0.0, "fusion_lat": 0.0, "type": "electric_scooter", "name": "98900039b51d347d64981c69f95c59e0", "is_disabled": 0, "rental_uris": {"ios": "https://dc.lft.to/lastmile_qr_scan", "android": "https://dc.lft.to/lastmile_qr_scan"}, "is_reserved": 0}, {"lon": -77.03896433333334, "bike_id": "14d79d6387dee8aee63e67291ac93860", "lat": 38.923584166666664, "fusion_lon": 0.0, "fusion_lat": 0.0, "type": "electric_scooter", "name": "14d79d6387dee8aee63e67291ac93860", "is_disabled": 0, "rental_uris": {"ios": "https://dc.lft.to/lastmile_qr_scan", "android": "https://dc.lft.to/lastmile_qr_scan"}, "is_reserved": 0}, {"lon": -77.03968283333333, "bike_id": "543aca708feb885de5823229791ab670", "lat": 38.91191766666667, "fusion_lon": 0.0, "fusion_lat": 0.0, "type": "electric_scooter", "name": "543aca708feb885de5823229791ab670", "is_disabled": 0, "rental_uris": {"ios": "https://dc.lft.to/lastmile_qr_scan", "android": "https://dc.lft.to/lastmile_qr_scan"}, "is_reserved": 0}, {"lon": -77.01327133333334, "bike_id": "18064df8b82bc3cee5ef2b666044ed71", "lat": 38.87941083333333, "fusion_lon": 0.0, "fusion_lat": 0.0, "type": "electric_scooter", "name": "18064df8b82bc3cee5ef2b666044ed71", "is_disabled": 0, "rental_uris": {"ios": "https://dc.lft.to/lastmile_qr_scan", "android": "https://dc.lft.to/lastmile_qr_scan"}, "is_reserved": 0}, {"lon": -77.03495116666667, "bike_id": "32a9470c02e6fb1f9d98f803a70011c0", "lat": 38.9376, "fusion_lon": 0.0, "fusion_lat": 0.0, "type": "electric_scooter", "name": "32a9470c02e6fb1f9d98f803a70011c0", "is_disabled": 0, "rental_uris": {"ios": "https://dc.lft.to/lastmile_qr_scan", "android": "https://dc.lft.to/lastmile_qr_scan"}, "is_reserved": 0}, {"lon": -77.08455033333334, "bike_id": "893503731b4647f164cc3b7d8042c8b6", "lat": 38.848205666666665, "fusion_lon": 0.0, "fusion_lat": 0.0, "type": "electric_bike", "name": "893503731b4647f164cc3b7d8042c8b6", "is_disabled": 0, "rental_uris": {"ios": "https://dc.lft.to/lastmile_qr_scan", "android": "https://dc.lft.to/lastmile_qr_scan"}, "is_reserved": 0}, {"lon": -76.98760016666667, "bike_id": "1a2153e263be7a82470292bce58236b7", "lat": 38.85769833333333, "fusion_lon": 0.0, "fusion_lat": 0.0, "type": "electric_bike", "name": "1a2153e263be7a82470292bce58236b7", "is_disabled": 0, "rental_uris": {"ios": "https://dc.lft.to/lastmile_qr_scan", "android": "https://dc.lft.to/lastmile_qr_scan"}, "is_reserved": 0}, {"lon": -76.9893015, "bike_id": "11c6705fd92d23c670201e6f85725b6d", "lat": 38.918355, "fusion_lon": 0.0, "fusion_lat": 0.0, "type": "electric_scooter", "name": "11c6705fd92d23c670201e6f85725b6d", "is_disabled": 0, "rental_uris": {"ios": "https://dc.lft.to/lastmile_qr_scan", "android": "https://dc.lft.to/lastmile_qr_scan"}, "is_reserved": 0}, {"lon": -77.0377725, "bike_id": "769ac805daaf058bafa4d29bb06faea9", "lat": 38.92963916666667, "fusion_lon": 0.0, "fusion_lat": 0.0, "type": "electric_scooter", "name": "769ac805daaf058bafa4d29bb06faea9", "is_disabled": 0, "rental_uris": {"ios": "https://dc.lft.to/lastmile_qr_scan", "android": "https://dc.lft.to/lastmile_qr_scan"}, "is_reserved": 0}, {"lon": -77.025691, "bike_id": "01df0211aa3c730b389a6fd53e68568b", "lat": 38.913450166666664, "fusion_lon": 0.0, "fusion_lat": 0.0, "type": "electric_scooter", "name": "01df0211aa3c730b389a6fd53e68568b", "is_disabled": 0, "rental_uris": {"ios": "https://dc.lft.to/lastmile_qr_scan", "android": "https://dc.lft.to/lastmile_qr_scan"}, "is_reserved": 0}, {"lon": -77.0369395, "bike_id": "2db2a344b4b68071f82ea7b8c18b61ee", "lat": 38.93525016666667, "fusion_lon": 0.0, "fusion_lat": 0.0, "type": "electric_scooter", "name": "2db2a344b4b68071f82ea7b8c18b61ee", "is_disabled": 0, "rental_uris": {"ios": "https://dc.lft.to/lastmile_qr_scan", "android": "https://dc.lft.to/lastmile_qr_scan"}, "is_reserved": 0}, {"lon": -77.0400105, "bike_id": "cdc9718f35933dea24ec3614c8ba87e7", "lat": 38.904161, "fusion_lon": 0.0, "fusion_lat": 0.0, "type": "electric_scooter", "name": "cdc9718f35933dea24ec3614c8ba87e7", "is_disabled": 0, "rental_uris": {"ios": "https://dc.lft.to/lastmile_qr_scan", "android": "https://dc.lft.to/lastmile_qr_scan"}, "is_reserved": 0}, {"lon": -77.05584566666667, "bike_id": "a4a987f8f94c8bb0d614db7ad571af06", "lat": 38.893139166666664, "fusion_lon": 0.0, "fusion_lat": 0.0, "type": "electric_scooter", "name": "a4a987f8f94c8bb0d614db7ad571af06", "is_disabled": 0, "rental_uris": {"ios": "https://dc.lft.to/lastmile_qr_scan", "android": "https://dc.lft.to/lastmile_qr_scan"}, "is_reserved": 0}, {"lon": -77.039252, "bike_id": "66666b37c4f69cbfb48c2fccba4a0aee", "lat": 38.9211665, "fusion_lon": 0.0, "fusion_lat": 0.0, "type": "electric_scooter", "name": "66666b37c4f69cbfb48c2fccba4a0aee", "is_disabled": 0, "rental_uris": {"ios": "https://dc.lft.to/lastmile_qr_scan", "android": "https://dc.lft.to/lastmile_qr_scan"}, "is_reserved": 0}, {"lon": -76.983981, "bike_id": "b2ff43d95eecc8293565b460f5f8c9e8", "lat": 38.906326, "fusion_lon": 0.0, "fusion_lat": 0.0, "type": "electric_scooter", "name": "b2ff43d95eecc8293565b460f5f8c9e8", "is_disabled": 0, "rental_uris": {"ios": "https://dc.lft.to/lastmile_qr_scan", "android": "https://dc.lft.to/lastmile_qr_scan"}, "is_reserved": 0}, {"lon": -77.02980366666667, "bike_id": "68727f2a39400ce2cffabe26a01d6f15", "lat": 38.9127555, "fusion_lon": 0.0, "fusion_lat": 0.0, "type": "electric_scooter", "name": "68727f2a39400ce2cffabe26a01d6f15", "is_disabled": 0, "rental_uris": {"ios": "https://dc.lft.to/lastmile_qr_scan", "android": "https://dc.lft.to/lastmile_qr_scan"}, "is_reserved": 0}, {"lon": -77.05230516666667, "bike_id": "07e82ed73d055b34ac344aac7e2d8f62", "lat": 38.92361266666666, "fusion_lon": 0.0, "fusion_lat": 0.0, "type": "electric_scooter", "name": "07e82ed73d055b34ac344aac7e2d8f62", "is_disabled": 0, "rental_uris": {"ios": "https://dc.lft.to/lastmile_qr_scan", "android": "https://dc.lft.to/lastmile_qr_scan"}, "is_reserved": 0}, {"lon": -76.948932, "bike_id": "9766d31d9f602de92a3bf7c6ef9c1fcd", "lat": 38.8953435, "fusion_lon": 0.0, "fusion_lat": 0.0, "type": "electric_scooter", "name": "9766d31d9f602de92a3bf7c6ef9c1fcd", "is_disabled": 0, "rental_uris": {"ios": "https://dc.lft.to/lastmile_qr_scan", "android": "https://dc.lft.to/lastmile_qr_scan"}, "is_reserved": 0}, {"lon": -77.007262, "bike_id": "725481134eba95e144d1e34f36a5dcd2", "lat": 38.9506885, "fusion_lon": 0.0, "fusion_lat": 0.0, "type": "electric_bike", "name": "725481134eba95e144d1e34f36a5dcd2", "is_disabled": 0, "rental_uris": {"ios": "https://dc.lft.to/lastmile_qr_scan", "android": "https://dc.lft.to/lastmile_qr_scan"}, "is_reserved": 0}, {"lon": -77.00704566666667, "bike_id": "d6c879fbd7dfc51dfeae7190492195c6", "lat": 38.87873183333333, "fusion_lon": 0.0, "fusion_lat": 0.0, "type": "electric_scooter", "name": "d6c879fbd7dfc51dfeae7190492195c6", "is_disabled": 0, "rental_uris": {"ios": "https://dc.lft.to/lastmile_qr_scan", "android": "https://dc.lft.to/lastmile_qr_scan"}, "is_reserved": 0}, {"lon": -77.01841283333333, "bike_id": "1422d6c89d598b7383b32bea3c14f062", "lat": 38.9014865, "fusion_lon": 0.0, "fusion_lat": 0.0, "type": "electric_scooter", "name": "1422d6c89d598b7383b32bea3c14f062", "is_disabled": 0, "rental_uris": {"ios": "https://dc.lft.to/lastmile_qr_scan", "android": "https://dc.lft.to/lastmile_qr_scan"}, "is_reserved": 0}, {"lon": -77.08816783333333, "bike_id": "087bf4f66b517fa56f3236c8c6112337", "lat": 38.909784, "fusion_lon": 0.0, "fusion_lat": 0.0, "type": "electric_scooter", "name": "087bf4f66b517fa56f3236c8c6112337", "is_disabled": 0, "rental_uris": {"ios": "https://dc.lft.to/lastmile_qr_scan", "android": "https://dc.lft.to/lastmile_qr_scan"}, "is_reserved": 0}, {"lon": -76.94155033333334, "bike_id": "30884ab169af401c1cde6095ab1648f8", "lat": 38.87910683333333, "fusion_lon": 0.0, "fusion_lat": 0.0, "type": "electric_scooter", "name": "30884ab169af401c1cde6095ab1648f8", "is_disabled": 0, "rental_uris": {"ios": "https://dc.lft.to/lastmile_qr_scan", "android": "https://dc.lft.to/lastmile_qr_scan"}, "is_reserved": 0}, {"lon": -77.021756, "bike_id": "2b7c67a7c2e8e962adf329fc73fdcc37", "lat": 38.91687183333333, "fusion_lon": 0.0, "fusion_lat": 0.0, "type": "electric_scooter", "name": "2b7c67a7c2e8e962adf329fc73fdcc37", "is_disabled": 0, "rental_uris": {"ios": "https://dc.lft.to/lastmile_qr_scan", "android": "https://dc.lft.to/lastmile_qr_scan"}, "is_reserved": 0}, {"lon": -77.005426, "bike_id": "d991de7d12701e9bd9f9898c032d5653", "lat": 38.87461783333333, "fusion_lon": 0.0, "fusion_lat": 0.0, "type": "electric_scooter", "name": "d991de7d12701e9bd9f9898c032d5653", "is_disabled": 0, "rental_uris": {"ios": "https://dc.lft.to/lastmile_qr_scan", "android": "https://dc.lft.to/lastmile_qr_scan"}, "is_reserved": 0}, {"lon": -76.98329433333333, "bike_id": "93c560473a2965e180f855797b278cdc", "lat": 38.9009415, "fusion_lon": 0.0, "fusion_lat": 0.0, "type": "electric_scooter", "name": "93c560473a2965e180f855797b278cdc", "is_disabled": 0, "rental_uris": {"ios": "https://dc.lft.to/lastmile_qr_scan", "android": "https://dc.lft.to/lastmile_qr_scan"}, "is_reserved": 0}, {"lon": -77.02778466666666, "bike_id": "98ce79ba0bf12fa390b6628176a882f9", "lat": 38.91711683333333, "fusion_lon": 0.0, "fusion_lat": 0.0, "type": "electric_scooter", "name": "98ce79ba0bf12fa390b6628176a882f9", "is_disabled": 0, "rental_uris": {"ios": "https://dc.lft.to/lastmile_qr_scan", "android": "https://dc.lft.to/lastmile_qr_scan"}, "is_reserved": 0}, {"lon": -76.99268166666667, "bike_id": "eca6f3363690e5d0b58a53da8b6d4928", "lat": 38.897677, "fusion_lon": 0.0, "fusion_lat": 0.0, "type": "electric_scooter", "name": "eca6f3363690e5d0b58a53da8b6d4928", "is_disabled": 0, "rental_uris": {"ios": "https://dc.lft.to/lastmile_qr_scan", "android": "https://dc.lft.to/lastmile_qr_scan"}, "is_reserved": 0}, {"lon": -77.02161733333334, "bike_id": "81c3bf5a0d7ebb707ff91f5fc64226d3", "lat": 38.9308655, "fusion_lon": 0.0, "fusion_lat": 0.0, "type": "electric_scooter", "name": "81c3bf5a0d7ebb707ff91f5fc64226d3", "is_disabled": 0, "rental_uris": {"ios": "https://dc.lft.to/lastmile_qr_scan", "android": "https://dc.lft.to/lastmile_qr_scan"}, "is_reserved": 0}, {"lon": -77.05728233333333, "bike_id": "a5b67361edb54b96ab436f22bf96acf7", "lat": 38.93370733333333, "fusion_lon": 0.0, "fusion_lat": 0.0, "type": "electric_scooter", "name": "a5b67361edb54b96ab436f22bf96acf7", "is_disabled": 0, "rental_uris": {"ios": "https://dc.lft.to/lastmile_qr_scan", "android": "https://dc.lft.to/lastmile_qr_scan"}, "is_reserved": 0}, {"lon": -77.04597966666667, "bike_id": "2f5f2f768be90468548455c9c2ba857c", "lat": 38.853116666666665, "fusion_lon": 0.0, "fusion_lat": 0.0, "type": "electric_bike", "name": "2f5f2f768be90468548455c9c2ba857c", "is_disabled": 0, "rental_uris": {"ios": "https://dc.lft.to/lastmile_qr_scan", "android": "https://dc.lft.to/lastmile_qr_scan"}, "is_reserved": 0}, {"lon": -77.02307816666666, "bike_id": "00534f6f31c15d75c93d9f4149611450", "lat": 38.942022333333334, "fusion_lon": 0.0, "fusion_lat": 0.0, "type": "electric_scooter", "name": "00534f6f31c15d75c93d9f4149611450", "is_disabled": 0, "rental_uris": {"ios": "https://dc.lft.to/lastmile_qr_scan", "android": "https://dc.lft.to/lastmile_qr_scan"}, "is_reserved": 0}, {"lon": -77.07231883333333, "bike_id": "5bc2d1d00eb3f7f94450d706ab4e29d0", "lat": 38.898967666666664, "fusion_lon": 0.0, "fusion_lat": 0.0, "type": "electric_scooter", "name": "5bc2d1d00eb3f7f94450d706ab4e29d0", "is_disabled": 0, "rental_uris": {"ios": "https://dc.lft.to/lastmile_qr_scan", "android": "https://dc.lft.to/lastmile_qr_scan"}, "is_reserved": 0}, {"lon": -77.0491815, "bike_id": "064fe3c9c36107fc3e6e9d9f35f28ce7", "lat": 38.90864083333334, "fusion_lon": 0.0, "fusion_lat": 0.0, "type": "electric_scooter", "name": "064fe3c9c36107fc3e6e9d9f35f28ce7", "is_disabled": 0, "rental_uris": {"ios": "https://dc.lft.to/lastmile_qr_scan", "android": "https://dc.lft.to/lastmile_qr_scan"}, "is_reserved": 0}, {"lon": -76.97246416666667, "bike_id": "c74e7625437627559d848946b450e4cb", "lat": 38.903501, "fusion_lon": 0.0, "fusion_lat": 0.0, "type": "electric_scooter", "name": "c74e7625437627559d848946b450e4cb", "is_disabled": 0, "rental_uris": {"ios": "https://dc.lft.to/lastmile_qr_scan", "android": "https://dc.lft.to/lastmile_qr_scan"}, "is_reserved": 0}, {"lon": -77.01320233333334, "bike_id": "2b41591e3647c58ae4c5ef699c4d3ce0", "lat": 38.8695595, "fusion_lon": 0.0, "fusion_lat": 0.0, "type": "electric_scooter", "name": "2b41591e3647c58ae4c5ef699c4d3ce0", "is_disabled": 0, "rental_uris": {"ios": "https://dc.lft.to/lastmile_qr_scan", "android": "https://dc.lft.to/lastmile_qr_scan"}, "is_reserved": 0}, {"lon": -77.00048566666666, "bike_id": "3c300f5bfe61780d4a7d33f87f6109ac", "lat": 38.924002, "fusion_lon": 0.0, "fusion_lat": 0.0, "type": "electric_scooter", "name": "3c300f5bfe61780d4a7d33f87f6109ac", "is_disabled": 0, "rental_uris": {"ios": "https://dc.lft.to/lastmile_qr_scan", "android": "https://dc.lft.to/lastmile_qr_scan"}, "is_reserved": 0}, {"lon": -76.98838816666667, "bike_id": "cf7d473939d1ed9f7b61e88800253468", "lat": 38.842816, "fusion_lon": 0.0, "fusion_lat": 0.0, "type": "electric_bike", "name": "cf7d473939d1ed9f7b61e88800253468", "is_disabled": 0, "rental_uris": {"ios": "https://dc.lft.to/lastmile_qr_scan", "android": "https://dc.lft.to/lastmile_qr_scan"}, "is_reserved": 0}, {"lon": -77.00566716666667, "bike_id": "4ef9ef00378c86d3ac1520c4bf08b5bd", "lat": 38.905655833333334, "fusion_lon": 0.0, "fusion_lat": 0.0, "type": "electric_scooter", "name": "4ef9ef00378c86d3ac1520c4bf08b5bd", "is_disabled": 0, "rental_uris": {"ios": "https://dc.lft.to/lastmile_qr_scan", "android": "https://dc.lft.to/lastmile_qr_scan"}, "is_reserved": 0}, {"lon": -77.04011666666666, "bike_id": "db2bf8cd2da7e60f11ba97452e661b9e", "lat": 38.910113833333334, "fusion_lon": 0.0, "fusion_lat": 0.0, "type": "electric_scooter", "name": "db2bf8cd2da7e60f11ba97452e661b9e", "is_disabled": 0, "rental_uris": {"ios": "https://dc.lft.to/lastmile_qr_scan", "android": "https://dc.lft.to/lastmile_qr_scan"}, "is_reserved": 0}, {"lon": -77.04119816666666, "bike_id": "5e1aef64b604e5982626e10eb649066f", "lat": 38.90586533333333, "fusion_lon": 0.0, "fusion_lat": 0.0, "type": "electric_scooter", "name": "5e1aef64b604e5982626e10eb649066f", "is_disabled": 0, "rental_uris": {"ios": "https://dc.lft.to/lastmile_qr_scan", "android": "https://dc.lft.to/lastmile_qr_scan"}, "is_reserved": 0}, {"lon": -77.02972216666667, "bike_id": "48554a73880e67f4c9476165823f9266", "lat": 38.928106, "fusion_lon": 0.0, "fusion_lat": 0.0, "type": "electric_scooter", "name": "48554a73880e67f4c9476165823f9266", "is_disabled": 0, "rental_uris": {"ios": "https://dc.lft.to/lastmile_qr_scan", "android": "https://dc.lft.to/lastmile_qr_scan"}, "is_reserved": 0}, {"lon": -76.998383, "bike_id": "571fb2ec008869b7d51a03214cfd93fc", "lat": 38.90008366666667, "fusion_lon": 0.0, "fusion_lat": 0.0, "type": "electric_scooter", "name": "571fb2ec008869b7d51a03214cfd93fc", "is_disabled": 0, "rental_uris": {"ios": "https://dc.lft.to/lastmile_qr_scan", "android": "https://dc.lft.to/lastmile_qr_scan"}, "is_reserved": 0}, {"lon": -77.00100333333333, "bike_id": "6755dd032dabbe8e2def17453094f9f2", "lat": 38.91706883333333, "fusion_lon": 0.0, "fusion_lat": 0.0, "type": "electric_scooter", "name": "6755dd032dabbe8e2def17453094f9f2", "is_disabled": 0, "rental_uris": {"ios": "https://dc.lft.to/lastmile_qr_scan", "android": "https://dc.lft.to/lastmile_qr_scan"}, "is_reserved": 0}, {"lon": -77.0326045, "bike_id": "5cd5d68d81d5be8c7742e2fa684a8420", "lat": 38.93267916666667, "fusion_lon": 0.0, "fusion_lat": 0.0, "type": "electric_scooter", "name": "5cd5d68d81d5be8c7742e2fa684a8420", "is_disabled": 0, "rental_uris": {"ios": "https://dc.lft.to/lastmile_qr_scan", "android": "https://dc.lft.to/lastmile_qr_scan"}, "is_reserved": 0}, {"lon": -77.03607433333333, "bike_id": "de80b3bc4bc748a2b353b804a38dc18f", "lat": 38.927007833333334, "fusion_lon": 0.0, "fusion_lat": 0.0, "type": "electric_scooter", "name": "de80b3bc4bc748a2b353b804a38dc18f", "is_disabled": 0, "rental_uris": {"ios": "https://dc.lft.to/lastmile_qr_scan", "android": "https://dc.lft.to/lastmile_qr_scan"}, "is_reserved": 0}, {"lon": -77.02705166666667, "bike_id": "acd336f28162401c2eda716c71490153", "lat": 38.9067205, "fusion_lon": 0.0, "fusion_lat": 0.0, "type": "electric_scooter", "name": "acd336f28162401c2eda716c71490153", "is_disabled": 0, "rental_uris": {"ios": "https://dc.lft.to/lastmile_qr_scan", "android": "https://dc.lft.to/lastmile_qr_scan"}, "is_reserved": 0}, {"lon": -77.03711233333334, "bike_id": "b65ef67607e4b5abedd82065b6704b4c", "lat": 38.914894833333335, "fusion_lon": 0.0, "fusion_lat": 0.0, "type": "electric_scooter", "name": "b65ef67607e4b5abedd82065b6704b4c", "is_disabled": 0, "rental_uris": {"ios": "https://dc.lft.to/lastmile_qr_scan", "android": "https://dc.lft.to/lastmile_qr_scan"}, "is_reserved": 0}, {"lon": -76.94176366666667, "bike_id": "09d5a4ac6faae4ea88a963a388230ae6", "lat": 38.892744, "fusion_lon": 0.0, "fusion_lat": 0.0, "type": "electric_scooter", "name": "09d5a4ac6faae4ea88a963a388230ae6", "is_disabled": 0, "rental_uris": {"ios": "https://dc.lft.to/lastmile_qr_scan", "android": "https://dc.lft.to/lastmile_qr_scan"}, "is_reserved": 0}, {"lon": -77.00427283333333, "bike_id": "37f5acdb545b6e7cb9dd54148421f5c4", "lat": 38.87696, "fusion_lon": 0.0, "fusion_lat": 0.0, "type": "electric_scooter", "name": "37f5acdb545b6e7cb9dd54148421f5c4", "is_disabled": 0, "rental_uris": {"ios": "https://dc.lft.to/lastmile_qr_scan", "android": "https://dc.lft.to/lastmile_qr_scan"}, "is_reserved": 0}, {"lon": -77.11608533333333, "bike_id": "8f35b2992ef205448a2bae7a364bfc70", "lat": 38.85488333333333, "fusion_lon": 0.0, "fusion_lat": 0.0, "type": "electric_bike", "name": "8f35b2992ef205448a2bae7a364bfc70", "is_disabled": 0, "rental_uris": {"ios": "https://dc.lft.to/lastmile_qr_scan", "android": "https://dc.lft.to/lastmile_qr_scan"}, "is_reserved": 0}, {"lon": -77.00259966666667, "bike_id": "799edd4967b9da5233b033bbdc690dae", "lat": 38.918221, "fusion_lon": 0.0, "fusion_lat": 0.0, "type": "electric_scooter", "name": "799edd4967b9da5233b033bbdc690dae", "is_disabled": 0, "rental_uris": {"ios": "https://dc.lft.to/lastmile_qr_scan", "android": "https://dc.lft.to/lastmile_qr_scan"}, "is_reserved": 0}, {"lon": -76.99624933333334, "bike_id": "18859ef5928648d9e38e830c064f699f", "lat": 38.909431, "fusion_lon": 0.0, "fusion_lat": 0.0, "type": "electric_scooter", "name": "18859ef5928648d9e38e830c064f699f", "is_disabled": 0, "rental_uris": {"ios": "https://dc.lft.to/lastmile_qr_scan", "android": "https://dc.lft.to/lastmile_qr_scan"}, "is_reserved": 0}, {"lon": -77.046076, "bike_id": "0ff788d4e6b652478d13a36485ffdf1a", "lat": 38.88387016666667, "fusion_lon": 0.0, "fusion_lat": 0.0, "type": "electric_scooter", "name": "0ff788d4e6b652478d13a36485ffdf1a", "is_disabled": 0, "rental_uris": {"ios": "https://dc.lft.to/lastmile_qr_scan", "android": "https://dc.lft.to/lastmile_qr_scan"}, "is_reserved": 0}, {"lon": -76.92995433333333, "bike_id": "cfcce525527871a6d470125d0d763e34", "lat": 38.9019145, "fusion_lon": 0.0, "fusion_lat": 0.0, "type": "electric_scooter", "name": "cfcce525527871a6d470125d0d763e34", "is_disabled": 0, "rental_uris": {"ios": "https://dc.lft.to/lastmile_qr_scan", "android": "https://dc.lft.to/lastmile_qr_scan"}, "is_reserved": 0}, {"lon": -77.0383545, "bike_id": "e23d4ed207f0f2523023c5f387970921", "lat": 38.912403, "fusion_lon": 0.0, "fusion_lat": 0.0, "type": "electric_scooter", "name": "e23d4ed207f0f2523023c5f387970921", "is_disabled": 0, "rental_uris": {"ios": "https://dc.lft.to/lastmile_qr_scan", "android": "https://dc.lft.to/lastmile_qr_scan"}, "is_reserved": 0}, {"lon": -77.034857, "bike_id": "b1b27f2646800a1e6f4e11d132ac4eba", "lat": 38.9208375, "fusion_lon": 0.0, "fusion_lat": 0.0, "type": "electric_scooter", "name": "b1b27f2646800a1e6f4e11d132ac4eba", "is_disabled": 0, "rental_uris": {"ios": "https://dc.lft.to/lastmile_qr_scan", "android": "https://dc.lft.to/lastmile_qr_scan"}, "is_reserved": 0}, {"lon": -77.03888616666667, "bike_id": "142171ea3419ffd3624a8b10c1f4bf06", "lat": 38.9200865, "fusion_lon": 0.0, "fusion_lat": 0.0, "type": "electric_scooter", "name": "142171ea3419ffd3624a8b10c1f4bf06", "is_disabled": 0, "rental_uris": {"ios": "https://dc.lft.to/lastmile_qr_scan", "android": "https://dc.lft.to/lastmile_qr_scan"}, "is_reserved": 0}, {"lon": -77.04159283333334, "bike_id": "04fbafff258e265d396e59e11e2d3542", "lat": 38.919869, "fusion_lon": 0.0, "fusion_lat": 0.0, "type": "electric_scooter", "name": "04fbafff258e265d396e59e11e2d3542", "is_disabled": 0, "rental_uris": {"ios": "https://dc.lft.to/lastmile_qr_scan", "android": "https://dc.lft.to/lastmile_qr_scan"}, "is_reserved": 0}, {"lon": -77.01383883333334, "bike_id": "e9c239422f1d3b6a1ce9b9c1841eba2b", "lat": 38.928733333333334, "fusion_lon": 0.0, "fusion_lat": 0.0, "type": "electric_scooter", "name": "e9c239422f1d3b6a1ce9b9c1841eba2b", "is_disabled": 0, "rental_uris": {"ios": "https://dc.lft.to/lastmile_qr_scan", "android": "https://dc.lft.to/lastmile_qr_scan"}, "is_reserved": 0}, {"lon": -77.02111816666667, "bike_id": "2a881011c14bd5a0b02e5e8c3cf8faac", "lat": 38.953068, "fusion_lon": 0.0, "fusion_lat": 0.0, "type": "electric_bike", "name": "2a881011c14bd5a0b02e5e8c3cf8faac", "is_disabled": 0, "rental_uris": {"ios": "https://dc.lft.to/lastmile_qr_scan", "android": "https://dc.lft.to/lastmile_qr_scan"}, "is_reserved": 0}, {"lon": -77.0672975, "bike_id": "bbd22883bc8ce3a3bc53a0cc9c395743", "lat": 38.909729666666664, "fusion_lon": 0.0, "fusion_lat": 0.0, "type": "electric_scooter", "name": "bbd22883bc8ce3a3bc53a0cc9c395743", "is_disabled": 0, "rental_uris": {"ios": "https://dc.lft.to/lastmile_qr_scan", "android": "https://dc.lft.to/lastmile_qr_scan"}, "is_reserved": 0}, {"lon": -77.1090345, "bike_id": "ad77cc5b12ed05ef6996b9c919f3b87c", "lat": 39.052095333333334, "fusion_lon": 0.0, "fusion_lat": 0.0, "type": "electric_bike", "name": "ad77cc5b12ed05ef6996b9c919f3b87c", "is_disabled": 0, "rental_uris": {"ios": "https://dc.lft.to/lastmile_qr_scan", "android": "https://dc.lft.to/lastmile_qr_scan"}, "is_reserved": 0}, {"lon": -77.042101, "bike_id": "a8c8a8de9563a2f9192758e443721810", "lat": 38.9211375, "fusion_lon": 0.0, "fusion_lat": 0.0, "type": "electric_scooter", "name": "a8c8a8de9563a2f9192758e443721810", "is_disabled": 0, "rental_uris": {"ios": "https://dc.lft.to/lastmile_qr_scan", "android": "https://dc.lft.to/lastmile_qr_scan"}, "is_reserved": 0}, {"lon": -77.0208465, "bike_id": "536620c361fe3c44eb87a4fe07a272a1", "lat": 38.93017583333334, "fusion_lon": 0.0, "fusion_lat": 0.0, "type": "electric_scooter", "name": "536620c361fe3c44eb87a4fe07a272a1", "is_disabled": 0, "rental_uris": {"ios": "https://dc.lft.to/lastmile_qr_scan", "android": "https://dc.lft.to/lastmile_qr_scan"}, "is_reserved": 0}, {"lon": -77.06506516666667, "bike_id": "817a7c71f6c186156a9e2319c0971850", "lat": 38.90594733333333, "fusion_lon": 0.0, "fusion_lat": 0.0, "type": "electric_scooter", "name": "817a7c71f6c186156a9e2319c0971850", "is_disabled": 0, "rental_uris": {"ios": "https://dc.lft.to/lastmile_qr_scan", "android": "https://dc.lft.to/lastmile_qr_scan"}, "is_reserved": 0}, {"lon": -77.027181, "bike_id": "e0016d5df98e6eac6f151003b43a80db", "lat": 38.91073866666667, "fusion_lon": 0.0, "fusion_lat": 0.0, "type": "electric_scooter", "name": "e0016d5df98e6eac6f151003b43a80db", "is_disabled": 0, "rental_uris": {"ios": "https://dc.lft.to/lastmile_qr_scan", "android": "https://dc.lft.to/lastmile_qr_scan"}, "is_reserved": 0}, {"lon": -77.02089266666667, "bike_id": "cee6e91790e9024631d65bff9cc41025", "lat": 38.957519166666664, "fusion_lon": 0.0, "fusion_lat": 0.0, "type": "electric_scooter", "name": "cee6e91790e9024631d65bff9cc41025", "is_disabled": 0, "rental_uris": {"ios": "https://dc.lft.to/lastmile_qr_scan", "android": "https://dc.lft.to/lastmile_qr_scan"}, "is_reserved": 0}, {"lon": -77.0242975, "bike_id": "6aa81ef851ccd4e55341a1b8005388f3", "lat": 38.899771333333334, "fusion_lon": 0.0, "fusion_lat": 0.0, "type": "electric_scooter", "name": "6aa81ef851ccd4e55341a1b8005388f3", "is_disabled": 0, "rental_uris": {"ios": "https://dc.lft.to/lastmile_qr_scan", "android": "https://dc.lft.to/lastmile_qr_scan"}, "is_reserved": 0}, {"lon": -77.02274733333333, "bike_id": "4949b04e307691f0501afe0e45360f9c", "lat": 38.87892633333333, "fusion_lon": 0.0, "fusion_lat": 0.0, "type": "electric_scooter", "name": "4949b04e307691f0501afe0e45360f9c", "is_disabled": 0, "rental_uris": {"ios": "https://dc.lft.to/lastmile_qr_scan", "android": "https://dc.lft.to/lastmile_qr_scan"}, "is_reserved": 0}, {"lon": -77.026299, "bike_id": "c51939eae1205a4c9ba846a8ee051d2c", "lat": 38.89744616666667, "fusion_lon": 0.0, "fusion_lat": 0.0, "type": "electric_scooter", "name": "c51939eae1205a4c9ba846a8ee051d2c", "is_disabled": 0, "rental_uris": {"ios": "https://dc.lft.to/lastmile_qr_scan", "android": "https://dc.lft.to/lastmile_qr_scan"}, "is_reserved": 0}, {"lon": -76.99003433333333, "bike_id": "b3a4f9221d46a5664c6a73879caf8e82", "lat": 38.8650525, "fusion_lon": 0.0, "fusion_lat": 0.0, "type": "electric_scooter", "name": "b3a4f9221d46a5664c6a73879caf8e82", "is_disabled": 0, "rental_uris": {"ios": "https://dc.lft.to/lastmile_qr_scan", "android": "https://dc.lft.to/lastmile_qr_scan"}, "is_reserved": 0}, {"lon": -77.0557415, "bike_id": "05e50c1b02992cf63174bfb6b95d613f", "lat": 38.916003333333336, "fusion_lon": 0.0, "fusion_lat": 0.0, "type": "electric_scooter", "name": "05e50c1b02992cf63174bfb6b95d613f", "is_disabled": 0, "rental_uris": {"ios": "https://dc.lft.to/lastmile_qr_scan", "android": "https://dc.lft.to/lastmile_qr_scan"}, "is_reserved": 0}, {"lon": -77.04399233333334, "bike_id": "ae3fa32431ad4979060f1151cc8dcc37", "lat": 38.90890266666667, "fusion_lon": 0.0, "fusion_lat": 0.0, "type": "electric_scooter", "name": "ae3fa32431ad4979060f1151cc8dcc37", "is_disabled": 0, "rental_uris": {"ios": "https://dc.lft.to/lastmile_qr_scan", "android": "https://dc.lft.to/lastmile_qr_scan"}, "is_reserved": 0}, {"lon": -77.033389, "bike_id": "79fe59fbad5233367b38ac841661f080", "lat": 38.93641233333334, "fusion_lon": 0.0, "fusion_lat": 0.0, "type": "electric_scooter", "name": "79fe59fbad5233367b38ac841661f080", "is_disabled": 0, "rental_uris": {"ios": "https://dc.lft.to/lastmile_qr_scan", "android": "https://dc.lft.to/lastmile_qr_scan"}, "is_reserved": 0}, {"lon": -77.02326833333333, "bike_id": "d2d2a69d33860ff38324f9cb9df12193", "lat": 38.92227333333334, "fusion_lon": 0.0, "fusion_lat": 0.0, "type": "electric_scooter", "name": "d2d2a69d33860ff38324f9cb9df12193", "is_disabled": 0, "rental_uris": {"ios": "https://dc.lft.to/lastmile_qr_scan", "android": "https://dc.lft.to/lastmile_qr_scan"}, "is_reserved": 0}, {"lon": -76.98726383333333, "bike_id": "01d42c602b8d77be050e12b91bf25d39", "lat": 38.867104166666664, "fusion_lon": 0.0, "fusion_lat": 0.0, "type": "electric_scooter", "name": "01d42c602b8d77be050e12b91bf25d39", "is_disabled": 0, "rental_uris": {"ios": "https://dc.lft.to/lastmile_qr_scan", "android": "https://dc.lft.to/lastmile_qr_scan"}, "is_reserved": 0}, {"lon": -76.99333966666667, "bike_id": "9c64538fe470c6a38ce8f421a5749c6b", "lat": 38.871437666666665, "fusion_lon": 0.0, "fusion_lat": 0.0, "type": "electric_scooter", "name": "9c64538fe470c6a38ce8f421a5749c6b", "is_disabled": 0, "rental_uris": {"ios": "https://dc.lft.to/lastmile_qr_scan", "android": "https://dc.lft.to/lastmile_qr_scan"}, "is_reserved": 0}, {"lon": -76.98707616666667, "bike_id": "ec839ea089aae266ca30d6b1cede1b6f", "lat": 38.86543316666667, "fusion_lon": 0.0, "fusion_lat": 0.0, "type": "electric_scooter", "name": "ec839ea089aae266ca30d6b1cede1b6f", "is_disabled": 0, "rental_uris": {"ios": "https://dc.lft.to/lastmile_qr_scan", "android": "https://dc.lft.to/lastmile_qr_scan"}, "is_reserved": 0}, {"lon": -76.94885, "bike_id": "7babcc35cc67ceca5e2efe3dddab033c", "lat": 38.895117666666664, "fusion_lon": 0.0, "fusion_lat": 0.0, "type": "electric_scooter", "name": "7babcc35cc67ceca5e2efe3dddab033c", "is_disabled": 0, "rental_uris": {"ios": "https://dc.lft.to/lastmile_qr_scan", "android": "https://dc.lft.to/lastmile_qr_scan"}, "is_reserved": 0}, {"lon": -77.02446416666666, "bike_id": "1678db2d219408fb8399b32236132140", "lat": 38.903264666666665, "fusion_lon": 0.0, "fusion_lat": 0.0, "type": "electric_scooter", "name": "1678db2d219408fb8399b32236132140", "is_disabled": 0, "rental_uris": {"ios": "https://dc.lft.to/lastmile_qr_scan", "android": "https://dc.lft.to/lastmile_qr_scan"}, "is_reserved": 0}, {"lon": -76.99482083333334, "bike_id": "67e9265b654a4004b6a649849f126462", "lat": 38.8621865, "fusion_lon": 0.0, "fusion_lat": 0.0, "type": "electric_scooter", "name": "67e9265b654a4004b6a649849f126462", "is_disabled": 0, "rental_uris": {"ios": "https://dc.lft.to/lastmile_qr_scan", "android": "https://dc.lft.to/lastmile_qr_scan"}, "is_reserved": 0}, {"lon": -77.05134483333333, "bike_id": "d4c63c2df782fe39230b6f8d1dd56541", "lat": 38.898597333333335, "fusion_lon": 0.0, "fusion_lat": 0.0, "type": "electric_scooter", "name": "d4c63c2df782fe39230b6f8d1dd56541", "is_disabled": 0, "rental_uris": {"ios": "https://dc.lft.to/lastmile_qr_scan", "android": "https://dc.lft.to/lastmile_qr_scan"}, "is_reserved": 0}, {"lon": -77.07662233333333, "bike_id": "e713a9876902e271e7c1c104dbee3eb8", "lat": 38.862665166666666, "fusion_lon": 0.0, "fusion_lat": 0.0, "type": "electric_bike", "name": "e713a9876902e271e7c1c104dbee3eb8", "is_disabled": 0, "rental_uris": {"ios": "https://dc.lft.to/lastmile_qr_scan", "android": "https://dc.lft.to/lastmile_qr_scan"}, "is_reserved": 0}, {"lon": -76.99854933333333, "bike_id": "69521055646f67c7eceda0e9d658b639", "lat": 38.9010275, "fusion_lon": 0.0, "fusion_lat": 0.0, "type": "electric_scooter", "name": "69521055646f67c7eceda0e9d658b639", "is_disabled": 0, "rental_uris": {"ios": "https://dc.lft.to/lastmile_qr_scan", "android": "https://dc.lft.to/lastmile_qr_scan"}, "is_reserved": 0}, {"lon": -77.0365905, "bike_id": "0f795170af2e0de7df3956502e51c5f0", "lat": 38.92994766666666, "fusion_lon": 0.0, "fusion_lat": 0.0, "type": "electric_scooter", "name": "0f795170af2e0de7df3956502e51c5f0", "is_disabled": 0, "rental_uris": {"ios": "https://dc.lft.to/lastmile_qr_scan", "android": "https://dc.lft.to/lastmile_qr_scan"}, "is_reserved": 0}, {"lon": -77.040117, "bike_id": "df915f6597f64c98bbcfb81d6777d4b4", "lat": 38.904470333333336, "fusion_lon": 0.0, "fusion_lat": 0.0, "type": "electric_scooter", "name": "df915f6597f64c98bbcfb81d6777d4b4", "is_disabled": 0, "rental_uris": {"ios": "https://dc.lft.to/lastmile_qr_scan", "android": "https://dc.lft.to/lastmile_qr_scan"}, "is_reserved": 0}, {"lon": -77.02437466666667, "bike_id": "eeadea12ba86c9b47c5512b2e6b8700f", "lat": 38.92264266666667, "fusion_lon": 0.0, "fusion_lat": 0.0, "type": "electric_scooter", "name": "eeadea12ba86c9b47c5512b2e6b8700f", "is_disabled": 0, "rental_uris": {"ios": "https://dc.lft.to/lastmile_qr_scan", "android": "https://dc.lft.to/lastmile_qr_scan"}, "is_reserved": 0}, {"lon": -76.99006066666666, "bike_id": "861c1e9d57512f650fdbad3ed02191d7", "lat": 38.946011166666665, "fusion_lon": 0.0, "fusion_lat": 0.0, "type": "electric_scooter", "name": "861c1e9d57512f650fdbad3ed02191d7", "is_disabled": 0, "rental_uris": {"ios": "https://dc.lft.to/lastmile_qr_scan", "android": "https://dc.lft.to/lastmile_qr_scan"}, "is_reserved": 0}, {"lon": -76.99488716666667, "bike_id": "e9ec014d1b47f037f712276792fb1d74", "lat": 38.879526166666665, "fusion_lon": 0.0, "fusion_lat": 0.0, "type": "electric_scooter", "name": "e9ec014d1b47f037f712276792fb1d74", "is_disabled": 0, "rental_uris": {"ios": "https://dc.lft.to/lastmile_qr_scan", "android": "https://dc.lft.to/lastmile_qr_scan"}, "is_reserved": 0}, {"lon": -77.03870266666667, "bike_id": "cbf78611a8286352219ce2c0d67ddb25", "lat": 38.92022, "fusion_lon": 0.0, "fusion_lat": 0.0, "type": "electric_scooter", "name": "cbf78611a8286352219ce2c0d67ddb25", "is_disabled": 0, "rental_uris": {"ios": "https://dc.lft.to/lastmile_qr_scan", "android": "https://dc.lft.to/lastmile_qr_scan"}, "is_reserved": 0}, {"lon": -77.04978983333334, "bike_id": "5b31d837dc91a0061afaa5a03a320df5", "lat": 39.06297166666667, "fusion_lon": 0.0, "fusion_lat": 0.0, "type": "electric_bike", "name": "5b31d837dc91a0061afaa5a03a320df5", "is_disabled": 0, "rental_uris": {"ios": "https://dc.lft.to/lastmile_qr_scan", "android": "https://dc.lft.to/lastmile_qr_scan"}, "is_reserved": 0}, {"lon": -76.99370716666667, "bike_id": "069e4266c1fae75f3e8050a5e35b1596", "lat": 38.940331, "fusion_lon": 0.0, "fusion_lat": 0.0, "type": "electric_scooter", "name": "069e4266c1fae75f3e8050a5e35b1596", "is_disabled": 0, "rental_uris": {"ios": "https://dc.lft.to/lastmile_qr_scan", "android": "https://dc.lft.to/lastmile_qr_scan"}, "is_reserved": 0}, {"lon": -77.0558385, "bike_id": "eef54f30381d46e0f8e0ca2d4aca4f82", "lat": 38.893129, "fusion_lon": 0.0, "fusion_lat": 0.0, "type": "electric_scooter", "name": "eef54f30381d46e0f8e0ca2d4aca4f82", "is_disabled": 0, "rental_uris": {"ios": "https://dc.lft.to/lastmile_qr_scan", "android": "https://dc.lft.to/lastmile_qr_scan"}, "is_reserved": 0}, {"lon": -77.03224983333334, "bike_id": "dcb3e9cc2e48c1a00784c96049d40129", "lat": 38.928953, "fusion_lon": 0.0, "fusion_lat": 0.0, "type": "electric_scooter", "name": "dcb3e9cc2e48c1a00784c96049d40129", "is_disabled": 0, "rental_uris": {"ios": "https://dc.lft.to/lastmile_qr_scan", "android": "https://dc.lft.to/lastmile_qr_scan"}, "is_reserved": 0}, {"lon": -77.04611583333333, "bike_id": "222b26aca00d33715a88198e5761f6f2", "lat": 38.915779666666666, "fusion_lon": 0.0, "fusion_lat": 0.0, "type": "electric_scooter", "name": "222b26aca00d33715a88198e5761f6f2", "is_disabled": 0, "rental_uris": {"ios": "https://dc.lft.to/lastmile_qr_scan", "android": "https://dc.lft.to/lastmile_qr_scan"}, "is_reserved": 0}, {"lon": -77.04458583333333, "bike_id": "3aee52abcc206c29ad710f9f36ae5606", "lat": 38.9072945, "fusion_lon": 0.0, "fusion_lat": 0.0, "type": "electric_scooter", "name": "3aee52abcc206c29ad710f9f36ae5606", "is_disabled": 0, "rental_uris": {"ios": "https://dc.lft.to/lastmile_qr_scan", "android": "https://dc.lft.to/lastmile_qr_scan"}, "is_reserved": 0}, {"lon": -77.06390283333333, "bike_id": "67dac6391bd177b15ac020a7de1118c8", "lat": 38.9092225, "fusion_lon": 0.0, "fusion_lat": 0.0, "type": "electric_scooter", "name": "67dac6391bd177b15ac020a7de1118c8", "is_disabled": 0, "rental_uris": {"ios": "https://dc.lft.to/lastmile_qr_scan", "android": "https://dc.lft.to/lastmile_qr_scan"}, "is_reserved": 0}, {"lon": -77.04235633333333, "bike_id": "0e11b842859018c00d1d2ea09d9956e5", "lat": 38.911231666666666, "fusion_lon": 0.0, "fusion_lat": 0.0, "type": "electric_scooter", "name": "0e11b842859018c00d1d2ea09d9956e5", "is_disabled": 0, "rental_uris": {"ios": "https://dc.lft.to/lastmile_qr_scan", "android": "https://dc.lft.to/lastmile_qr_scan"}, "is_reserved": 0}, {"lon": -77.00339, "bike_id": "4388f01a911041f9abd31b599e337ab6", "lat": 38.891934, "fusion_lon": 0.0, "fusion_lat": 0.0, "type": "electric_scooter", "name": "4388f01a911041f9abd31b599e337ab6", "is_disabled": 0, "rental_uris": {"ios": "https://dc.lft.to/lastmile_qr_scan", "android": "https://dc.lft.to/lastmile_qr_scan"}, "is_reserved": 0}, {"lon": -76.999018, "bike_id": "e84ce11dbde74c2ebcc0ea3a70f14598", "lat": 38.9246585, "fusion_lon": 0.0, "fusion_lat": 0.0, "type": "electric_scooter", "name": "e84ce11dbde74c2ebcc0ea3a70f14598", "is_disabled": 0, "rental_uris": {"ios": "https://dc.lft.to/lastmile_qr_scan", "android": "https://dc.lft.to/lastmile_qr_scan"}, "is_reserved": 0}, {"lon": -77.038436, "bike_id": "e94e50d6c05dea297df1445e09f028ba", "lat": 38.90273333333333, "fusion_lon": 0.0, "fusion_lat": 0.0, "type": "electric_scooter", "name": "e94e50d6c05dea297df1445e09f028ba", "is_disabled": 0, "rental_uris": {"ios": "https://dc.lft.to/lastmile_qr_scan", "android": "https://dc.lft.to/lastmile_qr_scan"}, "is_reserved": 0}, {"lon": -76.99644966666666, "bike_id": "d5fee2f12f52d384ab6ad6b121787376", "lat": 38.90034416666667, "fusion_lon": 0.0, "fusion_lat": 0.0, "type": "electric_scooter", "name": "d5fee2f12f52d384ab6ad6b121787376", "is_disabled": 0, "rental_uris": {"ios": "https://dc.lft.to/lastmile_qr_scan", "android": "https://dc.lft.to/lastmile_qr_scan"}, "is_reserved": 0}, {"lon": -77.03039216666667, "bike_id": "f4c47f36deb94168c80ba1b006d942ad", "lat": 38.8840405, "fusion_lon": 0.0, "fusion_lat": 0.0, "type": "electric_scooter", "name": "f4c47f36deb94168c80ba1b006d942ad", "is_disabled": 0, "rental_uris": {"ios": "https://dc.lft.to/lastmile_qr_scan", "android": "https://dc.lft.to/lastmile_qr_scan"}, "is_reserved": 0}, {"lon": -77.04480683333334, "bike_id": "5db76c6087671874325430d19d35f599", "lat": 38.92423, "fusion_lon": 0.0, "fusion_lat": 0.0, "type": "electric_scooter", "name": "5db76c6087671874325430d19d35f599", "is_disabled": 0, "rental_uris": {"ios": "https://dc.lft.to/lastmile_qr_scan", "android": "https://dc.lft.to/lastmile_qr_scan"}, "is_reserved": 0}, {"lon": -77.03833783333333, "bike_id": "a927af00502f5c98052c1c7fd8cb65ed", "lat": 38.92174, "fusion_lon": 0.0, "fusion_lat": 0.0, "type": "electric_scooter", "name": "a927af00502f5c98052c1c7fd8cb65ed", "is_disabled": 0, "rental_uris": {"ios": "https://dc.lft.to/lastmile_qr_scan", "android": "https://dc.lft.to/lastmile_qr_scan"}, "is_reserved": 0}, {"lon": -77.02746, "bike_id": "6a2a557bde107f8d99c1b5c1a0b5938c", "lat": 38.9418525, "fusion_lon": 0.0, "fusion_lat": 0.0, "type": "electric_scooter", "name": "6a2a557bde107f8d99c1b5c1a0b5938c", "is_disabled": 0, "rental_uris": {"ios": "https://dc.lft.to/lastmile_qr_scan", "android": "https://dc.lft.to/lastmile_qr_scan"}, "is_reserved": 0}, {"lon": -77.03266733333334, "bike_id": "a95992fa48378392b19dc0a442f7d0cc", "lat": 38.93004533333333, "fusion_lon": 0.0, "fusion_lat": 0.0, "type": "electric_scooter", "name": "a95992fa48378392b19dc0a442f7d0cc", "is_disabled": 0, "rental_uris": {"ios": "https://dc.lft.to/lastmile_qr_scan", "android": "https://dc.lft.to/lastmile_qr_scan"}, "is_reserved": 0}, {"lon": -76.99694216666667, "bike_id": "b5bf55531ba1c72ab793094cefaf2206", "lat": 38.90838983333333, "fusion_lon": 0.0, "fusion_lat": 0.0, "type": "electric_scooter", "name": "b5bf55531ba1c72ab793094cefaf2206", "is_disabled": 0, "rental_uris": {"ios": "https://dc.lft.to/lastmile_qr_scan", "android": "https://dc.lft.to/lastmile_qr_scan"}, "is_reserved": 0}, {"lon": -77.03470233333333, "bike_id": "6734d322612dff84bc2513d9d3e75351", "lat": 38.9215505, "fusion_lon": 0.0, "fusion_lat": 0.0, "type": "electric_scooter", "name": "6734d322612dff84bc2513d9d3e75351", "is_disabled": 0, "rental_uris": {"ios": "https://dc.lft.to/lastmile_qr_scan", "android": "https://dc.lft.to/lastmile_qr_scan"}, "is_reserved": 0}, {"lon": -77.047437, "bike_id": "38ff0b0b8cf7bf0bb8ef8020842b4b7e", "lat": 38.9178365, "fusion_lon": 0.0, "fusion_lat": 0.0, "type": "electric_scooter", "name": "38ff0b0b8cf7bf0bb8ef8020842b4b7e", "is_disabled": 0, "rental_uris": {"ios": "https://dc.lft.to/lastmile_qr_scan", "android": "https://dc.lft.to/lastmile_qr_scan"}, "is_reserved": 0}, {"lon": -76.95740033333334, "bike_id": "39c491067959195edd25669fb7247946", "lat": 38.88434483333333, "fusion_lon": 0.0, "fusion_lat": 0.0, "type": "electric_scooter", "name": "39c491067959195edd25669fb7247946", "is_disabled": 0, "rental_uris": {"ios": "https://dc.lft.to/lastmile_qr_scan", "android": "https://dc.lft.to/lastmile_qr_scan"}, "is_reserved": 0}, {"lon": -77.01348116666666, "bike_id": "178b0cbff5437a18a0df2b54f2cc079b", "lat": 38.87813966666667, "fusion_lon": 0.0, "fusion_lat": 0.0, "type": "electric_scooter", "name": "178b0cbff5437a18a0df2b54f2cc079b", "is_disabled": 0, "rental_uris": {"ios": "https://dc.lft.to/lastmile_qr_scan", "android": "https://dc.lft.to/lastmile_qr_scan"}, "is_reserved": 0}, {"lon": -77.04568483333334, "bike_id": "0a83908ea7a558c7a4ff3e49df6c154a", "lat": 38.91484716666667, "fusion_lon": 0.0, "fusion_lat": 0.0, "type": "electric_scooter", "name": "0a83908ea7a558c7a4ff3e49df6c154a", "is_disabled": 0, "rental_uris": {"ios": "https://dc.lft.to/lastmile_qr_scan", "android": "https://dc.lft.to/lastmile_qr_scan"}, "is_reserved": 0}, {"lon": -77.02358233333334, "bike_id": "5e0a2e93da68f4fd33a051135d9388fd", "lat": 38.92227483333333, "fusion_lon": 0.0, "fusion_lat": 0.0, "type": "electric_scooter", "name": "5e0a2e93da68f4fd33a051135d9388fd", "is_disabled": 0, "rental_uris": {"ios": "https://dc.lft.to/lastmile_qr_scan", "android": "https://dc.lft.to/lastmile_qr_scan"}, "is_reserved": 0}, {"lon": -77.1170855, "bike_id": "9cb708de04d3a3f65e5cc9e373d95479", "lat": 38.86747166666667, "fusion_lon": 0.0, "fusion_lat": 0.0, "type": "electric_bike", "name": "9cb708de04d3a3f65e5cc9e373d95479", "is_disabled": 0, "rental_uris": {"ios": "https://dc.lft.to/lastmile_qr_scan", "android": "https://dc.lft.to/lastmile_qr_scan"}, "is_reserved": 0}, {"lon": -77.003357, "bike_id": "f0cd532ee2f18f3956a44fc21b3de6ea", "lat": 38.891917166666666, "fusion_lon": 0.0, "fusion_lat": 0.0, "type": "electric_scooter", "name": "f0cd532ee2f18f3956a44fc21b3de6ea", "is_disabled": 0, "rental_uris": {"ios": "https://dc.lft.to/lastmile_qr_scan", "android": "https://dc.lft.to/lastmile_qr_scan"}, "is_reserved": 0}, {"lon": -77.02445683333333, "bike_id": "0bfc9d8ebfd3eb2184673560c37b6756", "lat": 38.907235, "fusion_lon": 0.0, "fusion_lat": 0.0, "type": "electric_scooter", "name": "0bfc9d8ebfd3eb2184673560c37b6756", "is_disabled": 0, "rental_uris": {"ios": "https://dc.lft.to/lastmile_qr_scan", "android": "https://dc.lft.to/lastmile_qr_scan"}, "is_reserved": 0}, {"lon": -77.02320383333333, "bike_id": "b3d74d730f7ea46088f138dcef13e052", "lat": 38.8949195, "fusion_lon": 0.0, "fusion_lat": 0.0, "type": "electric_scooter", "name": "b3d74d730f7ea46088f138dcef13e052", "is_disabled": 0, "rental_uris": {"ios": "https://dc.lft.to/lastmile_qr_scan", "android": "https://dc.lft.to/lastmile_qr_scan"}, "is_reserved": 0}, {"lon": -77.00051066666667, "bike_id": "fe60b1b21c84e74cb6c869e0a77537dc", "lat": 38.9172645, "fusion_lon": 0.0, "fusion_lat": 0.0, "type": "electric_scooter", "name": "fe60b1b21c84e74cb6c869e0a77537dc", "is_disabled": 0, "rental_uris": {"ios": "https://dc.lft.to/lastmile_qr_scan", "android": "https://dc.lft.to/lastmile_qr_scan"}, "is_reserved": 0}, {"lon": -77.03214716666666, "bike_id": "2bba26fa7cde2e014021448de7596e30", "lat": 38.90731666666667, "fusion_lon": 0.0, "fusion_lat": 0.0, "type": "electric_scooter", "name": "2bba26fa7cde2e014021448de7596e30", "is_disabled": 0, "rental_uris": {"ios": "https://dc.lft.to/lastmile_qr_scan", "android": "https://dc.lft.to/lastmile_qr_scan"}, "is_reserved": 0}, {"lon": -77.01198383333333, "bike_id": "175878babaabfa107642bd683b41a276", "lat": 38.82407383333333, "fusion_lon": 0.0, "fusion_lat": 0.0, "type": "electric_bike", "name": "175878babaabfa107642bd683b41a276", "is_disabled": 0, "rental_uris": {"ios": "https://dc.lft.to/lastmile_qr_scan", "android": "https://dc.lft.to/lastmile_qr_scan"}, "is_reserved": 0}, {"lon": -76.9852745, "bike_id": "850cfbccb4753d15683bbe31db4f1e49", "lat": 38.90467016666667, "fusion_lon": 0.0, "fusion_lat": 0.0, "type": "electric_scooter", "name": "850cfbccb4753d15683bbe31db4f1e49", "is_disabled": 0, "rental_uris": {"ios": "https://dc.lft.to/lastmile_qr_scan", "android": "https://dc.lft.to/lastmile_qr_scan"}, "is_reserved": 0}, {"lon": -77.03453633333334, "bike_id": "42781ef56eeeb30fef23d84e7a7f73e0", "lat": 38.927458, "fusion_lon": 0.0, "fusion_lat": 0.0, "type": "electric_scooter", "name": "42781ef56eeeb30fef23d84e7a7f73e0", "is_disabled": 0, "rental_uris": {"ios": "https://dc.lft.to/lastmile_qr_scan", "android": "https://dc.lft.to/lastmile_qr_scan"}, "is_reserved": 0}, {"lon": -77.0363815, "bike_id": "0bfbeb741c3476cfbfd8c34aec0c9d3e", "lat": 38.9235585, "fusion_lon": 0.0, "fusion_lat": 0.0, "type": "electric_scooter", "name": "0bfbeb741c3476cfbfd8c34aec0c9d3e", "is_disabled": 0, "rental_uris": {"ios": "https://dc.lft.to/lastmile_qr_scan", "android": "https://dc.lft.to/lastmile_qr_scan"}, "is_reserved": 0}, {"lon": -77.02306383333334, "bike_id": "7783c13f50bf8f376f6a6e0c2c7b5098", "lat": 38.8990175, "fusion_lon": 0.0, "fusion_lat": 0.0, "type": "electric_scooter", "name": "7783c13f50bf8f376f6a6e0c2c7b5098", "is_disabled": 0, "rental_uris": {"ios": "https://dc.lft.to/lastmile_qr_scan", "android": "https://dc.lft.to/lastmile_qr_scan"}, "is_reserved": 0}, {"lon": -77.0743305, "bike_id": "5b57541364d38d71fd0abf111a9c61cb", "lat": 38.99946466666667, "fusion_lon": 0.0, "fusion_lat": 0.0, "type": "electric_bike", "name": "5b57541364d38d71fd0abf111a9c61cb", "is_disabled": 0, "rental_uris": {"ios": "https://dc.lft.to/lastmile_qr_scan", "android": "https://dc.lft.to/lastmile_qr_scan"}, "is_reserved": 0}, {"lon": -77.013706, "bike_id": "f86f1ba019db388bd4784c8d07374c1c", "lat": 38.88675466666667, "fusion_lon": 0.0, "fusion_lat": 0.0, "type": "electric_scooter", "name": "f86f1ba019db388bd4784c8d07374c1c", "is_disabled": 0, "rental_uris": {"ios": "https://dc.lft.to/lastmile_qr_scan", "android": "https://dc.lft.to/lastmile_qr_scan"}, "is_reserved": 0}, {"lon": -76.98723583333333, "bike_id": "5b5d152703ff9bc87525d5bb7d6eed3c", "lat": 38.86638083333333, "fusion_lon": 0.0, "fusion_lat": 0.0, "type": "electric_scooter", "name": "5b5d152703ff9bc87525d5bb7d6eed3c", "is_disabled": 0, "rental_uris": {"ios": "https://dc.lft.to/lastmile_qr_scan", "android": "https://dc.lft.to/lastmile_qr_scan"}, "is_reserved": 0}, {"lon": -77.0097485, "bike_id": "d95f13510db1c248ed63dc493dc91a5c", "lat": 38.8948185, "fusion_lon": 0.0, "fusion_lat": 0.0, "type": "electric_scooter", "name": "d95f13510db1c248ed63dc493dc91a5c", "is_disabled": 0, "rental_uris": {"ios": "https://dc.lft.to/lastmile_qr_scan", "android": "https://dc.lft.to/lastmile_qr_scan"}, "is_reserved": 0}, {"lon": -77.02184433333333, "bike_id": "4d75163c5531d3894720c1238fd9e169", "lat": 38.9069975, "fusion_lon": 0.0, "fusion_lat": 0.0, "type": "electric_bike", "name": "4d75163c5531d3894720c1238fd9e169", "is_disabled": 0, "rental_uris": {"ios": "https://dc.lft.to/lastmile_qr_scan", "android": "https://dc.lft.to/lastmile_qr_scan"}, "is_reserved": 0}, {"lon": -77.03320166666667, "bike_id": "f5243ff4b466b19f1eecf57c3db4c986", "lat": 38.919793166666665, "fusion_lon": 0.0, "fusion_lat": 0.0, "type": "electric_scooter", "name": "f5243ff4b466b19f1eecf57c3db4c986", "is_disabled": 0, "rental_uris": {"ios": "https://dc.lft.to/lastmile_qr_scan", "android": "https://dc.lft.to/lastmile_qr_scan"}, "is_reserved": 0}, {"lon": -76.983484, "bike_id": "3293f8f465df6fb3f7182291fe63bf19", "lat": 38.90454866666666, "fusion_lon": 0.0, "fusion_lat": 0.0, "type": "electric_scooter", "name": "3293f8f465df6fb3f7182291fe63bf19", "is_disabled": 0, "rental_uris": {"ios": "https://dc.lft.to/lastmile_qr_scan", "android": "https://dc.lft.to/lastmile_qr_scan"}, "is_reserved": 0}, {"lon": -76.94920383333333, "bike_id": "505d1c2f7349b19a1c0a0f130908e4e9", "lat": 38.893587333333336, "fusion_lon": 0.0, "fusion_lat": 0.0, "type": "electric_scooter", "name": "505d1c2f7349b19a1c0a0f130908e4e9", "is_disabled": 0, "rental_uris": {"ios": "https://dc.lft.to/lastmile_qr_scan", "android": "https://dc.lft.to/lastmile_qr_scan"}, "is_reserved": 0}, {"lon": -77.05863066666667, "bike_id": "7d8418a44dc179d7544c949bed64e843", "lat": 38.93605566666667, "fusion_lon": 0.0, "fusion_lat": 0.0, "type": "electric_scooter", "name": "7d8418a44dc179d7544c949bed64e843", "is_disabled": 0, "rental_uris": {"ios": "https://dc.lft.to/lastmile_qr_scan", "android": "https://dc.lft.to/lastmile_qr_scan"}, "is_reserved": 0}, {"lon": -77.02029166666667, "bike_id": "67d0e7e06b3b57373c1fc205a4c106ef", "lat": 38.92449333333333, "fusion_lon": 0.0, "fusion_lat": 0.0, "type": "electric_scooter", "name": "67d0e7e06b3b57373c1fc205a4c106ef", "is_disabled": 0, "rental_uris": {"ios": "https://dc.lft.to/lastmile_qr_scan", "android": "https://dc.lft.to/lastmile_qr_scan"}, "is_reserved": 0}, {"lon": -77.02198933333334, "bike_id": "743a55c4ccce468f8838e25969a25575", "lat": 38.900305333333336, "fusion_lon": 0.0, "fusion_lat": 0.0, "type": "electric_scooter", "name": "743a55c4ccce468f8838e25969a25575", "is_disabled": 0, "rental_uris": {"ios": "https://dc.lft.to/lastmile_qr_scan", "android": "https://dc.lft.to/lastmile_qr_scan"}, "is_reserved": 0}, {"lon": -77.07332733333334, "bike_id": "c20a5b6a5aa0d1f590c38de7ea39825d", "lat": 38.924087666666665, "fusion_lon": 0.0, "fusion_lat": 0.0, "type": "electric_scooter", "name": "c20a5b6a5aa0d1f590c38de7ea39825d", "is_disabled": 0, "rental_uris": {"ios": "https://dc.lft.to/lastmile_qr_scan", "android": "https://dc.lft.to/lastmile_qr_scan"}, "is_reserved": 0}, {"lon": -77.0001215, "bike_id": "b9042e5d0af664fbeeb73f9425cdb25b", "lat": 38.919827, "fusion_lon": 0.0, "fusion_lat": 0.0, "type": "electric_scooter", "name": "b9042e5d0af664fbeeb73f9425cdb25b", "is_disabled": 0, "rental_uris": {"ios": "https://dc.lft.to/lastmile_qr_scan", "android": "https://dc.lft.to/lastmile_qr_scan"}, "is_reserved": 0}, {"lon": -77.03251666666667, "bike_id": "d634a7be6be5c4a68bbddedfb06c67d4", "lat": 38.935631, "fusion_lon": 0.0, "fusion_lat": 0.0, "type": "electric_scooter", "name": "d634a7be6be5c4a68bbddedfb06c67d4", "is_disabled": 0, "rental_uris": {"ios": "https://dc.lft.to/lastmile_qr_scan", "android": "https://dc.lft.to/lastmile_qr_scan"}, "is_reserved": 0}, {"lon": -77.01455016666667, "bike_id": "445cf0d52308f24cad0ffcc655b3bd74", "lat": 38.917752666666665, "fusion_lon": 0.0, "fusion_lat": 0.0, "type": "electric_scooter", "name": "445cf0d52308f24cad0ffcc655b3bd74", "is_disabled": 0, "rental_uris": {"ios": "https://dc.lft.to/lastmile_qr_scan", "android": "https://dc.lft.to/lastmile_qr_scan"}, "is_reserved": 0}, {"lon": -76.991836, "bike_id": "a7932fd65714171ff3818764f8572861", "lat": 38.90510533333333, "fusion_lon": 0.0, "fusion_lat": 0.0, "type": "electric_scooter", "name": "a7932fd65714171ff3818764f8572861", "is_disabled": 0, "rental_uris": {"ios": "https://dc.lft.to/lastmile_qr_scan", "android": "https://dc.lft.to/lastmile_qr_scan"}, "is_reserved": 0}, {"lon": -77.02616683333333, "bike_id": "fa35be1ad8a83be7e7987a16b301f8fa", "lat": 38.91420983333333, "fusion_lon": 0.0, "fusion_lat": 0.0, "type": "electric_scooter", "name": "fa35be1ad8a83be7e7987a16b301f8fa", "is_disabled": 0, "rental_uris": {"ios": "https://dc.lft.to/lastmile_qr_scan", "android": "https://dc.lft.to/lastmile_qr_scan"}, "is_reserved": 0}, {"lon": -77.10839933333334, "bike_id": "0608ab61d0f89576b370e0b7e2e4e40d", "lat": 38.812062833333336, "fusion_lon": 0.0, "fusion_lat": 0.0, "type": "electric_bike", "name": "0608ab61d0f89576b370e0b7e2e4e40d", "is_disabled": 0, "rental_uris": {"ios": "https://dc.lft.to/lastmile_qr_scan", "android": "https://dc.lft.to/lastmile_qr_scan"}, "is_reserved": 0}, {"lon": -77.02839133333333, "bike_id": "d3415e90e9fa8a9f90250cdf3e5adae6", "lat": 38.931765166666665, "fusion_lon": 0.0, "fusion_lat": 0.0, "type": "electric_scooter", "name": "d3415e90e9fa8a9f90250cdf3e5adae6", "is_disabled": 0, "rental_uris": {"ios": "https://dc.lft.to/lastmile_qr_scan", "android": "https://dc.lft.to/lastmile_qr_scan"}, "is_reserved": 0}, {"lon": -77.02085283333334, "bike_id": "a60478dffc48a323e960dfbdf2a0353a", "lat": 38.89982416666667, "fusion_lon": 0.0, "fusion_lat": 0.0, "type": "electric_scooter", "name": "a60478dffc48a323e960dfbdf2a0353a", "is_disabled": 0, "rental_uris": {"ios": "https://dc.lft.to/lastmile_qr_scan", "android": "https://dc.lft.to/lastmile_qr_scan"}, "is_reserved": 0}, {"lon": -77.03244133333334, "bike_id": "d58ed2b084c0bf8fb5d5ba39ce24e968", "lat": 38.90107, "fusion_lon": 0.0, "fusion_lat": 0.0, "type": "electric_scooter", "name": "d58ed2b084c0bf8fb5d5ba39ce24e968", "is_disabled": 0, "rental_uris": {"ios": "https://dc.lft.to/lastmile_qr_scan", "android": "https://dc.lft.to/lastmile_qr_scan"}, "is_reserved": 0}, {"lon": -77.040117, "bike_id": "5fee14f09d9c2b079e0d9837e1375884", "lat": 38.91013183333333, "fusion_lon": 0.0, "fusion_lat": 0.0, "type": "electric_scooter", "name": "5fee14f09d9c2b079e0d9837e1375884", "is_disabled": 0, "rental_uris": {"ios": "https://dc.lft.to/lastmile_qr_scan", "android": "https://dc.lft.to/lastmile_qr_scan"}, "is_reserved": 0}, {"lon": -76.89540816666667, "bike_id": "1155eb61fe591a686f46bf284c8619aa", "lat": 38.945584833333335, "fusion_lon": 0.0, "fusion_lat": 0.0, "type": "electric_bike", "name": "1155eb61fe591a686f46bf284c8619aa", "is_disabled": 0, "rental_uris": {"ios": "https://dc.lft.to/lastmile_qr_scan", "android": "https://dc.lft.to/lastmile_qr_scan"}, "is_reserved": 0}, {"lon": -77.02434566666666, "bike_id": "dbdcca4fc130d8accfc6902824a5de68", "lat": 38.91848616666667, "fusion_lon": 0.0, "fusion_lat": 0.0, "type": "electric_scooter", "name": "dbdcca4fc130d8accfc6902824a5de68", "is_disabled": 0, "rental_uris": {"ios": "https://dc.lft.to/lastmile_qr_scan", "android": "https://dc.lft.to/lastmile_qr_scan"}, "is_reserved": 0}, {"lon": -77.02474516666666, "bike_id": "72932145c261edd8894bc076a92622b3", "lat": 38.90651366666667, "fusion_lon": 0.0, "fusion_lat": 0.0, "type": "electric_scooter", "name": "72932145c261edd8894bc076a92622b3", "is_disabled": 0, "rental_uris": {"ios": "https://dc.lft.to/lastmile_qr_scan", "android": "https://dc.lft.to/lastmile_qr_scan"}, "is_reserved": 0}, {"lon": -76.97815216666666, "bike_id": "dab9e724bec932d8e5717a47f7c80a9d", "lat": 38.90672966666666, "fusion_lon": 0.0, "fusion_lat": 0.0, "type": "electric_scooter", "name": "dab9e724bec932d8e5717a47f7c80a9d", "is_disabled": 0, "rental_uris": {"ios": "https://dc.lft.to/lastmile_qr_scan", "android": "https://dc.lft.to/lastmile_qr_scan"}, "is_reserved": 0}, {"lon": -77.07115166666667, "bike_id": "04ae171390c357e9917075f2cebc96bd", "lat": 38.919709, "fusion_lon": 0.0, "fusion_lat": 0.0, "type": "electric_scooter", "name": "04ae171390c357e9917075f2cebc96bd", "is_disabled": 0, "rental_uris": {"ios": "https://dc.lft.to/lastmile_qr_scan", "android": "https://dc.lft.to/lastmile_qr_scan"}, "is_reserved": 0}, {"lon": -77.03178616666666, "bike_id": "ea063a45ea57397f0c7b5ddc397f24c0", "lat": 38.916442833333335, "fusion_lon": 0.0, "fusion_lat": 0.0, "type": "electric_scooter", "name": "ea063a45ea57397f0c7b5ddc397f24c0", "is_disabled": 0, "rental_uris": {"ios": "https://dc.lft.to/lastmile_qr_scan", "android": "https://dc.lft.to/lastmile_qr_scan"}, "is_reserved": 0}, {"lon": -77.02047, "bike_id": "b23a48d2ae6cb47a7d253120c68e3625", "lat": 38.91555116666667, "fusion_lon": 0.0, "fusion_lat": 0.0, "type": "electric_scooter", "name": "b23a48d2ae6cb47a7d253120c68e3625", "is_disabled": 0, "rental_uris": {"ios": "https://dc.lft.to/lastmile_qr_scan", "android": "https://dc.lft.to/lastmile_qr_scan"}, "is_reserved": 0}, {"lon": -77.0158025, "bike_id": "51ad25685e006f0108880fd86500ccb8", "lat": 38.9657295, "fusion_lon": 0.0, "fusion_lat": 0.0, "type": "electric_scooter", "name": "51ad25685e006f0108880fd86500ccb8", "is_disabled": 0, "rental_uris": {"ios": "https://dc.lft.to/lastmile_qr_scan", "android": "https://dc.lft.to/lastmile_qr_scan"}, "is_reserved": 0}, {"lon": -77.03287, "bike_id": "87456d1ff4c811e96a5c4e4458ff5d92", "lat": 38.930315666666665, "fusion_lon": 0.0, "fusion_lat": 0.0, "type": "electric_scooter", "name": "87456d1ff4c811e96a5c4e4458ff5d92", "is_disabled": 0, "rental_uris": {"ios": "https://dc.lft.to/lastmile_qr_scan", "android": "https://dc.lft.to/lastmile_qr_scan"}, "is_reserved": 0}, {"lon": -77.04631433333333, "bike_id": "4c9f56725f1979e805c3f016cddb79eb", "lat": 38.91920666666667, "fusion_lon": 0.0, "fusion_lat": 0.0, "type": "electric_scooter", "name": "4c9f56725f1979e805c3f016cddb79eb", "is_disabled": 0, "rental_uris": {"ios": "https://dc.lft.to/lastmile_qr_scan", "android": "https://dc.lft.to/lastmile_qr_scan"}, "is_reserved": 0}, {"lon": -77.01221816666667, "bike_id": "4dc06d83fc38dea2e19bd529922f5e19", "lat": 38.892943833333334, "fusion_lon": 0.0, "fusion_lat": 0.0, "type": "electric_scooter", "name": "4dc06d83fc38dea2e19bd529922f5e19", "is_disabled": 0, "rental_uris": {"ios": "https://dc.lft.to/lastmile_qr_scan", "android": "https://dc.lft.to/lastmile_qr_scan"}, "is_reserved": 0}, {"lon": -77.02296916666667, "bike_id": "160571d6c63644e5b6655282ead0d81a", "lat": 38.91840033333333, "fusion_lon": 0.0, "fusion_lat": 0.0, "type": "electric_scooter", "name": "160571d6c63644e5b6655282ead0d81a", "is_disabled": 0, "rental_uris": {"ios": "https://dc.lft.to/lastmile_qr_scan", "android": "https://dc.lft.to/lastmile_qr_scan"}, "is_reserved": 0}, {"lon": -77.04230333333334, "bike_id": "ccfb546e5373763b3a230f111ddf61ab", "lat": 38.911217666666666, "fusion_lon": 0.0, "fusion_lat": 0.0, "type": "electric_scooter", "name": "ccfb546e5373763b3a230f111ddf61ab", "is_disabled": 0, "rental_uris": {"ios": "https://dc.lft.to/lastmile_qr_scan", "android": "https://dc.lft.to/lastmile_qr_scan"}, "is_reserved": 0}, {"lon": -77.021884, "bike_id": "7c8ed397923c1f95a8cb1e3cd6b3e29e", "lat": 38.9150635, "fusion_lon": 0.0, "fusion_lat": 0.0, "type": "electric_scooter", "name": "7c8ed397923c1f95a8cb1e3cd6b3e29e", "is_disabled": 0, "rental_uris": {"ios": "https://dc.lft.to/lastmile_qr_scan", "android": "https://dc.lft.to/lastmile_qr_scan"}, "is_reserved": 0}, {"lon": -77.11916266666667, "bike_id": "f7fac0f9bafe677ed334a5be36ae9921", "lat": 38.87640733333333, "fusion_lon": 0.0, "fusion_lat": 0.0, "type": "electric_bike", "name": "f7fac0f9bafe677ed334a5be36ae9921", "is_disabled": 0, "rental_uris": {"ios": "https://dc.lft.to/lastmile_qr_scan", "android": "https://dc.lft.to/lastmile_qr_scan"}, "is_reserved": 0}, {"lon": -77.03266316666667, "bike_id": "2cf464350cfede3ab6610e537de0de0b", "lat": 38.9366815, "fusion_lon": 0.0, "fusion_lat": 0.0, "type": "electric_scooter", "name": "2cf464350cfede3ab6610e537de0de0b", "is_disabled": 0, "rental_uris": {"ios": "https://dc.lft.to/lastmile_qr_scan", "android": "https://dc.lft.to/lastmile_qr_scan"}, "is_reserved": 0}, {"lon": -77.02131666666666, "bike_id": "1ab7f381ce18a96781c1537480e9c402", "lat": 38.91601416666666, "fusion_lon": 0.0, "fusion_lat": 0.0, "type": "electric_scooter", "name": "1ab7f381ce18a96781c1537480e9c402", "is_disabled": 0, "rental_uris": {"ios": "https://dc.lft.to/lastmile_qr_scan", "android": "https://dc.lft.to/lastmile_qr_scan"}, "is_reserved": 0}, {"lon": -77.02028633333333, "bike_id": "dbee6c5036b350aa8e07e638c8e11aae", "lat": 38.91655316666667, "fusion_lon": 0.0, "fusion_lat": 0.0, "type": "electric_scooter", "name": "dbee6c5036b350aa8e07e638c8e11aae", "is_disabled": 0, "rental_uris": {"ios": "https://dc.lft.to/lastmile_qr_scan", "android": "https://dc.lft.to/lastmile_qr_scan"}, "is_reserved": 0}, {"lon": -77.0105325, "bike_id": "0fa564820dd691b2f2df2636f9a9b10e", "lat": 38.963508, "fusion_lon": 0.0, "fusion_lat": 0.0, "type": "electric_scooter", "name": "0fa564820dd691b2f2df2636f9a9b10e", "is_disabled": 0, "rental_uris": {"ios": "https://dc.lft.to/lastmile_qr_scan", "android": "https://dc.lft.to/lastmile_qr_scan"}, "is_reserved": 0}, {"lon": -77.001288, "bike_id": "b1f6dfabfceae567116841f29d18c631", "lat": 38.88533, "fusion_lon": 0.0, "fusion_lat": 0.0, "type": "electric_scooter", "name": "b1f6dfabfceae567116841f29d18c631", "is_disabled": 0, "rental_uris": {"ios": "https://dc.lft.to/lastmile_qr_scan", "android": "https://dc.lft.to/lastmile_qr_scan"}, "is_reserved": 0}, {"lon": -77.02534416666667, "bike_id": "6e67e7014566f8f646a2d6de9bcaf847", "lat": 38.9431375, "fusion_lon": 0.0, "fusion_lat": 0.0, "type": "electric_scooter", "name": "6e67e7014566f8f646a2d6de9bcaf847", "is_disabled": 0, "rental_uris": {"ios": "https://dc.lft.to/lastmile_qr_scan", "android": "https://dc.lft.to/lastmile_qr_scan"}, "is_reserved": 0}, {"lon": -77.0657505, "bike_id": "25123fc162c79e8e8d250446a354d172", "lat": 38.91140433333333, "fusion_lon": 0.0, "fusion_lat": 0.0, "type": "electric_bike", "name": "25123fc162c79e8e8d250446a354d172", "is_disabled": 0, "rental_uris": {"ios": "https://dc.lft.to/lastmile_qr_scan", "android": "https://dc.lft.to/lastmile_qr_scan"}, "is_reserved": 0}, {"lon": -77.07794116666666, "bike_id": "3fb44314ed35ff4de39de875252e5f08", "lat": 38.9960755, "fusion_lon": 0.0, "fusion_lat": 0.0, "type": "electric_bike", "name": "3fb44314ed35ff4de39de875252e5f08", "is_disabled": 0, "rental_uris": {"ios": "https://dc.lft.to/lastmile_qr_scan", "android": "https://dc.lft.to/lastmile_qr_scan"}, "is_reserved": 0}, {"lon": -76.9699685, "bike_id": "78bc18fc6ba12ef92f5bc6303846cd56", "lat": 38.8737805, "fusion_lon": 0.0, "fusion_lat": 0.0, "type": "electric_scooter", "name": "78bc18fc6ba12ef92f5bc6303846cd56", "is_disabled": 0, "rental_uris": {"ios": "https://dc.lft.to/lastmile_qr_scan", "android": "https://dc.lft.to/lastmile_qr_scan"}, "is_reserved": 0}, {"lon": -77.06136966666666, "bike_id": "5a5b003d385b3585231c0e68ce2c5fe8", "lat": 38.943642833333335, "fusion_lon": 0.0, "fusion_lat": 0.0, "type": "electric_scooter", "name": "5a5b003d385b3585231c0e68ce2c5fe8", "is_disabled": 0, "rental_uris": {"ios": "https://dc.lft.to/lastmile_qr_scan", "android": "https://dc.lft.to/lastmile_qr_scan"}, "is_reserved": 0}, {"lon": -77.0246325, "bike_id": "988d3ab7778735807342eb308d941e68", "lat": 38.884453, "fusion_lon": 0.0, "fusion_lat": 0.0, "type": "electric_scooter", "name": "988d3ab7778735807342eb308d941e68", "is_disabled": 0, "rental_uris": {"ios": "https://dc.lft.to/lastmile_qr_scan", "android": "https://dc.lft.to/lastmile_qr_scan"}, "is_reserved": 0}, {"lon": -77.034793, "bike_id": "a82b83c03d047f965445ce1df9f7515b", "lat": 38.927468166666664, "fusion_lon": 0.0, "fusion_lat": 0.0, "type": "electric_scooter", "name": "a82b83c03d047f965445ce1df9f7515b", "is_disabled": 0, "rental_uris": {"ios": "https://dc.lft.to/lastmile_qr_scan", "android": "https://dc.lft.to/lastmile_qr_scan"}, "is_reserved": 0}, {"lon": -77.03202916666666, "bike_id": "c8ddfa064095388a251042613d8a9cad", "lat": 38.9119935, "fusion_lon": 0.0, "fusion_lat": 0.0, "type": "electric_scooter", "name": "c8ddfa064095388a251042613d8a9cad", "is_disabled": 0, "rental_uris": {"ios": "https://dc.lft.to/lastmile_qr_scan", "android": "https://dc.lft.to/lastmile_qr_scan"}, "is_reserved": 0}, {"lon": -77.02532833333333, "bike_id": "1a122a96ffea01314c3bb77bd5b6ccb9", "lat": 38.9044435, "fusion_lon": 0.0, "fusion_lat": 0.0, "type": "electric_scooter", "name": "1a122a96ffea01314c3bb77bd5b6ccb9", "is_disabled": 0, "rental_uris": {"ios": "https://dc.lft.to/lastmile_qr_scan", "android": "https://dc.lft.to/lastmile_qr_scan"}, "is_reserved": 0}, {"lon": -77.03657066666666, "bike_id": "38603fc454e3090cb31b0483c1bf4a25", "lat": 38.9262, "fusion_lon": 0.0, "fusion_lat": 0.0, "type": "electric_scooter", "name": "38603fc454e3090cb31b0483c1bf4a25", "is_disabled": 0, "rental_uris": {"ios": "https://dc.lft.to/lastmile_qr_scan", "android": "https://dc.lft.to/lastmile_qr_scan"}, "is_reserved": 0}, {"lon": -77.050108, "bike_id": "55b7f38893b4f8c22704c14a6288ef03", "lat": 38.90076966666667, "fusion_lon": 0.0, "fusion_lat": 0.0, "type": "electric_scooter", "name": "55b7f38893b4f8c22704c14a6288ef03", "is_disabled": 0, "rental_uris": {"ios": "https://dc.lft.to/lastmile_qr_scan", "android": "https://dc.lft.to/lastmile_qr_scan"}, "is_reserved": 0}, {"lon": -76.97188583333333, "bike_id": "092b6207cbc8ccf38238850097def37d", "lat": 38.87397683333333, "fusion_lon": 0.0, "fusion_lat": 0.0, "type": "electric_scooter", "name": "092b6207cbc8ccf38238850097def37d", "is_disabled": 0, "rental_uris": {"ios": "https://dc.lft.to/lastmile_qr_scan", "android": "https://dc.lft.to/lastmile_qr_scan"}, "is_reserved": 0}, {"lon": -77.02210183333334, "bike_id": "e593027899d3c75c68ce112565699035", "lat": 38.92609433333333, "fusion_lon": 0.0, "fusion_lat": 0.0, "type": "electric_scooter", "name": "e593027899d3c75c68ce112565699035", "is_disabled": 0, "rental_uris": {"ios": "https://dc.lft.to/lastmile_qr_scan", "android": "https://dc.lft.to/lastmile_qr_scan"}, "is_reserved": 0}, {"lon": -77.04157366666666, "bike_id": "ae6f98021d5a0820e53a69be7974af6e", "lat": 38.914886, "fusion_lon": 0.0, "fusion_lat": 0.0, "type": "electric_scooter", "name": "ae6f98021d5a0820e53a69be7974af6e", "is_disabled": 0, "rental_uris": {"ios": "https://dc.lft.to/lastmile_qr_scan", "android": "https://dc.lft.to/lastmile_qr_scan"}, "is_reserved": 0}, {"lon": -77.04393516666667, "bike_id": "ae63af977ca02e4e8c524392d108da1b", "lat": 39.0471705, "fusion_lon": 0.0, "fusion_lat": 0.0, "type": "electric_bike", "name": "ae63af977ca02e4e8c524392d108da1b", "is_disabled": 0, "rental_uris": {"ios": "https://dc.lft.to/lastmile_qr_scan", "android": "https://dc.lft.to/lastmile_qr_scan"}, "is_reserved": 0}, {"lon": -77.0483325, "bike_id": "b33f8889eb97628aa4d2812c9579b124", "lat": 38.8974205, "fusion_lon": 0.0, "fusion_lat": 0.0, "type": "electric_scooter", "name": "b33f8889eb97628aa4d2812c9579b124", "is_disabled": 0, "rental_uris": {"ios": "https://dc.lft.to/lastmile_qr_scan", "android": "https://dc.lft.to/lastmile_qr_scan"}, "is_reserved": 0}, {"lon": -77.0375795, "bike_id": "c817f05a8bdc6f61260288589878c83f", "lat": 38.92882816666667, "fusion_lon": 0.0, "fusion_lat": 0.0, "type": "electric_scooter", "name": "c817f05a8bdc6f61260288589878c83f", "is_disabled": 0, "rental_uris": {"ios": "https://dc.lft.to/lastmile_qr_scan", "android": "https://dc.lft.to/lastmile_qr_scan"}, "is_reserved": 0}, {"lon": -77.0477065, "bike_id": "fc74b846bcc4f35d93fc6a04ec43b746", "lat": 38.905474, "fusion_lon": 0.0, "fusion_lat": 0.0, "type": "electric_scooter", "name": "fc74b846bcc4f35d93fc6a04ec43b746", "is_disabled": 0, "rental_uris": {"ios": "https://dc.lft.to/lastmile_qr_scan", "android": "https://dc.lft.to/lastmile_qr_scan"}, "is_reserved": 0}, {"lon": -77.021106, "bike_id": "e583c8f06cbb9c21bb3736d77aa7cc28", "lat": 38.90603616666667, "fusion_lon": 0.0, "fusion_lat": 0.0, "type": "electric_scooter", "name": "e583c8f06cbb9c21bb3736d77aa7cc28", "is_disabled": 0, "rental_uris": {"ios": "https://dc.lft.to/lastmile_qr_scan", "android": "https://dc.lft.to/lastmile_qr_scan"}, "is_reserved": 0}, {"lon": -76.98922333333333, "bike_id": "6428bbe3f42436d45cfc9764bd8297af", "lat": 38.858123, "fusion_lon": 0.0, "fusion_lat": 0.0, "type": "electric_scooter", "name": "6428bbe3f42436d45cfc9764bd8297af", "is_disabled": 0, "rental_uris": {"ios": "https://dc.lft.to/lastmile_qr_scan", "android": "https://dc.lft.to/lastmile_qr_scan"}, "is_reserved": 0}, {"lon": -77.022362, "bike_id": "82ba1a2a8826d1eba3d0087f700b5610", "lat": 38.962118333333336, "fusion_lon": 0.0, "fusion_lat": 0.0, "type": "electric_bike", "name": "82ba1a2a8826d1eba3d0087f700b5610", "is_disabled": 0, "rental_uris": {"ios": "https://dc.lft.to/lastmile_qr_scan", "android": "https://dc.lft.to/lastmile_qr_scan"}, "is_reserved": 0}, {"lon": -77.03261766666667, "bike_id": "0d7bb18e4305065afbc99d3a114293ce", "lat": 38.937695166666664, "fusion_lon": 0.0, "fusion_lat": 0.0, "type": "electric_scooter", "name": "0d7bb18e4305065afbc99d3a114293ce", "is_disabled": 0, "rental_uris": {"ios": "https://dc.lft.to/lastmile_qr_scan", "android": "https://dc.lft.to/lastmile_qr_scan"}, "is_reserved": 0}, {"lon": -77.03169033333333, "bike_id": "945a3d158312a272b2f5e29d779f19de", "lat": 38.917794666666666, "fusion_lon": 0.0, "fusion_lat": 0.0, "type": "electric_scooter", "name": "945a3d158312a272b2f5e29d779f19de", "is_disabled": 0, "rental_uris": {"ios": "https://dc.lft.to/lastmile_qr_scan", "android": "https://dc.lft.to/lastmile_qr_scan"}, "is_reserved": 0}, {"lon": -76.986524, "bike_id": "6a40629bf2161efffd5a584da6c0f94b", "lat": 38.898418166666666, "fusion_lon": 0.0, "fusion_lat": 0.0, "type": "electric_scooter", "name": "6a40629bf2161efffd5a584da6c0f94b", "is_disabled": 0, "rental_uris": {"ios": "https://dc.lft.to/lastmile_qr_scan", "android": "https://dc.lft.to/lastmile_qr_scan"}, "is_reserved": 0}, {"lon": -77.0259485, "bike_id": "3af2a893334cc4ae6311de5d1e0d5ee7", "lat": 38.905011333333334, "fusion_lon": 0.0, "fusion_lat": 0.0, "type": "electric_scooter", "name": "3af2a893334cc4ae6311de5d1e0d5ee7", "is_disabled": 0, "rental_uris": {"ios": "https://dc.lft.to/lastmile_qr_scan", "android": "https://dc.lft.to/lastmile_qr_scan"}, "is_reserved": 0}, {"lon": -77.02892466666667, "bike_id": "373db290739da2338cdb9cd8bc049829", "lat": 38.928220833333334, "fusion_lon": 0.0, "fusion_lat": 0.0, "type": "electric_scooter", "name": "373db290739da2338cdb9cd8bc049829", "is_disabled": 0, "rental_uris": {"ios": "https://dc.lft.to/lastmile_qr_scan", "android": "https://dc.lft.to/lastmile_qr_scan"}, "is_reserved": 0}, {"lon": -77.009673, "bike_id": "23a7a9802c0bd7aba8c4ba0e07560d22", "lat": 38.95245633333333, "fusion_lon": 0.0, "fusion_lat": 0.0, "type": "electric_bike", "name": "23a7a9802c0bd7aba8c4ba0e07560d22", "is_disabled": 0, "rental_uris": {"ios": "https://dc.lft.to/lastmile_qr_scan", "android": "https://dc.lft.to/lastmile_qr_scan"}, "is_reserved": 0}, {"lon": -77.01886766666667, "bike_id": "abcf29e7a47e7006850b0d726501b6d3", "lat": 38.917249, "fusion_lon": 0.0, "fusion_lat": 0.0, "type": "electric_scooter", "name": "abcf29e7a47e7006850b0d726501b6d3", "is_disabled": 0, "rental_uris": {"ios": "https://dc.lft.to/lastmile_qr_scan", "android": "https://dc.lft.to/lastmile_qr_scan"}, "is_reserved": 0}, {"lon": -77.04539116666666, "bike_id": "4b96c57b99fd2cacf612f3689bf22460", "lat": 38.913219166666664, "fusion_lon": 0.0, "fusion_lat": 0.0, "type": "electric_scooter", "name": "4b96c57b99fd2cacf612f3689bf22460", "is_disabled": 0, "rental_uris": {"ios": "https://dc.lft.to/lastmile_qr_scan", "android": "https://dc.lft.to/lastmile_qr_scan"}, "is_reserved": 0}, {"lon": -76.9373825, "bike_id": "cfc1a7c2485f05293504dc4554b33641", "lat": 38.89017483333333, "fusion_lon": 0.0, "fusion_lat": 0.0, "type": "electric_scooter", "name": "cfc1a7c2485f05293504dc4554b33641", "is_disabled": 0, "rental_uris": {"ios": "https://dc.lft.to/lastmile_qr_scan", "android": "https://dc.lft.to/lastmile_qr_scan"}, "is_reserved": 0}, {"lon": -77.04714833333334, "bike_id": "5f3a2f39c5efd6fc12d4cc5bd77687a2", "lat": 38.903047666666666, "fusion_lon": 0.0, "fusion_lat": 0.0, "type": "electric_scooter", "name": "5f3a2f39c5efd6fc12d4cc5bd77687a2", "is_disabled": 0, "rental_uris": {"ios": "https://dc.lft.to/lastmile_qr_scan", "android": "https://dc.lft.to/lastmile_qr_scan"}, "is_reserved": 0}, {"lon": -77.02401733333333, "bike_id": "2de210d835ee5ae5f5563ef405160048", "lat": 38.934871666666666, "fusion_lon": 0.0, "fusion_lat": 0.0, "type": "electric_bike", "name": "2de210d835ee5ae5f5563ef405160048", "is_disabled": 0, "rental_uris": {"ios": "https://dc.lft.to/lastmile_qr_scan", "android": "https://dc.lft.to/lastmile_qr_scan"}, "is_reserved": 0}, {"lon": -77.02869283333334, "bike_id": "befe29a3d32fdb39f3d9fe9521166d28", "lat": 38.91698133333333, "fusion_lon": 0.0, "fusion_lat": 0.0, "type": "electric_scooter", "name": "befe29a3d32fdb39f3d9fe9521166d28", "is_disabled": 0, "rental_uris": {"ios": "https://dc.lft.to/lastmile_qr_scan", "android": "https://dc.lft.to/lastmile_qr_scan"}, "is_reserved": 0}, {"lon": -77.02069083333333, "bike_id": "b23411f5f5374fe593a6a06b3fa234a9", "lat": 38.927033, "fusion_lon": 0.0, "fusion_lat": 0.0, "type": "electric_scooter", "name": "b23411f5f5374fe593a6a06b3fa234a9", "is_disabled": 0, "rental_uris": {"ios": "https://dc.lft.to/lastmile_qr_scan", "android": "https://dc.lft.to/lastmile_qr_scan"}, "is_reserved": 0}, {"lon": -77.019643, "bike_id": "0470c3a44177d64157c4cb3fd08e1580", "lat": 38.9358405, "fusion_lon": 0.0, "fusion_lat": 0.0, "type": "electric_scooter", "name": "0470c3a44177d64157c4cb3fd08e1580", "is_disabled": 0, "rental_uris": {"ios": "https://dc.lft.to/lastmile_qr_scan", "android": "https://dc.lft.to/lastmile_qr_scan"}, "is_reserved": 0}, {"lon": -77.04277416666666, "bike_id": "797ccf06db56703b3266698db06ba06d", "lat": 38.9156815, "fusion_lon": 0.0, "fusion_lat": 0.0, "type": "electric_scooter", "name": "797ccf06db56703b3266698db06ba06d", "is_disabled": 0, "rental_uris": {"ios": "https://dc.lft.to/lastmile_qr_scan", "android": "https://dc.lft.to/lastmile_qr_scan"}, "is_reserved": 0}, {"lon": -76.98554883333334, "bike_id": "56c9a19c5ae6b5b81990a0a3a14d973b", "lat": 38.8962155, "fusion_lon": 0.0, "fusion_lat": 0.0, "type": "electric_scooter", "name": "56c9a19c5ae6b5b81990a0a3a14d973b", "is_disabled": 0, "rental_uris": {"ios": "https://dc.lft.to/lastmile_qr_scan", "android": "https://dc.lft.to/lastmile_qr_scan"}, "is_reserved": 0}, {"lon": -77.020038, "bike_id": "7542d9a0cc817564a737139f5eb41bb8", "lat": 38.9241705, "fusion_lon": 0.0, "fusion_lat": 0.0, "type": "electric_scooter", "name": "7542d9a0cc817564a737139f5eb41bb8", "is_disabled": 0, "rental_uris": {"ios": "https://dc.lft.to/lastmile_qr_scan", "android": "https://dc.lft.to/lastmile_qr_scan"}, "is_reserved": 0}, {"lon": -76.95746366666667, "bike_id": "835cc7b21c8210e7b67c89036eeb75ca", "lat": 38.884279666666664, "fusion_lon": 0.0, "fusion_lat": 0.0, "type": "electric_scooter", "name": "835cc7b21c8210e7b67c89036eeb75ca", "is_disabled": 0, "rental_uris": {"ios": "https://dc.lft.to/lastmile_qr_scan", "android": "https://dc.lft.to/lastmile_qr_scan"}, "is_reserved": 0}, {"lon": -77.03031683333333, "bike_id": "3701b686eaa7db8b3880941527fd290c", "lat": 38.87844333333334, "fusion_lon": 0.0, "fusion_lat": 0.0, "type": "electric_scooter", "name": "3701b686eaa7db8b3880941527fd290c", "is_disabled": 0, "rental_uris": {"ios": "https://dc.lft.to/lastmile_qr_scan", "android": "https://dc.lft.to/lastmile_qr_scan"}, "is_reserved": 0}, {"lon": -76.98998116666667, "bike_id": "f2066454b584d80f40c235f97bce03cc", "lat": 38.8651065, "fusion_lon": 0.0, "fusion_lat": 0.0, "type": "electric_scooter", "name": "f2066454b584d80f40c235f97bce03cc", "is_disabled": 0, "rental_uris": {"ios": "https://dc.lft.to/lastmile_qr_scan", "android": "https://dc.lft.to/lastmile_qr_scan"}, "is_reserved": 0}, {"lon": -76.98933083333333, "bike_id": "639fa65a3e280f59f00177c25f88938c", "lat": 38.901877, "fusion_lon": 0.0, "fusion_lat": 0.0, "type": "electric_scooter", "name": "639fa65a3e280f59f00177c25f88938c", "is_disabled": 0, "rental_uris": {"ios": "https://dc.lft.to/lastmile_qr_scan", "android": "https://dc.lft.to/lastmile_qr_scan"}, "is_reserved": 0}, {"lon": -77.001981, "bike_id": "fcf8f85377dd0f4b68d5d97f64c32927", "lat": 38.891133833333335, "fusion_lon": 0.0, "fusion_lat": 0.0, "type": "electric_scooter", "name": "fcf8f85377dd0f4b68d5d97f64c32927", "is_disabled": 0, "rental_uris": {"ios": "https://dc.lft.to/lastmile_qr_scan", "android": "https://dc.lft.to/lastmile_qr_scan"}, "is_reserved": 0}, {"lon": -77.0312775, "bike_id": "69a9deb86c78f234de5a62abf441a140", "lat": 38.945103, "fusion_lon": 0.0, "fusion_lat": 0.0, "type": "electric_scooter", "name": "69a9deb86c78f234de5a62abf441a140", "is_disabled": 0, "rental_uris": {"ios": "https://dc.lft.to/lastmile_qr_scan", "android": "https://dc.lft.to/lastmile_qr_scan"}, "is_reserved": 0}, {"lon": -77.03173333333334, "bike_id": "138734ca4de65d8ab4ef7290dbbd8f0a", "lat": 38.93605683333333, "fusion_lon": 0.0, "fusion_lat": 0.0, "type": "electric_scooter", "name": "138734ca4de65d8ab4ef7290dbbd8f0a", "is_disabled": 0, "rental_uris": {"ios": "https://dc.lft.to/lastmile_qr_scan", "android": "https://dc.lft.to/lastmile_qr_scan"}, "is_reserved": 0}, {"lon": -77.03204716666667, "bike_id": "43150c2295ceece29d52f673f84bc635", "lat": 38.91018416666667, "fusion_lon": 0.0, "fusion_lat": 0.0, "type": "electric_scooter", "name": "43150c2295ceece29d52f673f84bc635", "is_disabled": 0, "rental_uris": {"ios": "https://dc.lft.to/lastmile_qr_scan", "android": "https://dc.lft.to/lastmile_qr_scan"}, "is_reserved": 0}, {"lon": -76.987744, "bike_id": "adf79ae172ec8b16fd04ec3b38c6fc8c", "lat": 38.86610233333333, "fusion_lon": 0.0, "fusion_lat": 0.0, "type": "electric_bike", "name": "adf79ae172ec8b16fd04ec3b38c6fc8c", "is_disabled": 0, "rental_uris": {"ios": "https://dc.lft.to/lastmile_qr_scan", "android": "https://dc.lft.to/lastmile_qr_scan"}, "is_reserved": 0}, {"lon": -77.18563083333333, "bike_id": "d46fd75f8ecc70cda949e1b0d0a4cdb1", "lat": 39.09975683333333, "fusion_lon": 0.0, "fusion_lat": 0.0, "type": "electric_bike", "name": "d46fd75f8ecc70cda949e1b0d0a4cdb1", "is_disabled": 0, "rental_uris": {"ios": "https://dc.lft.to/lastmile_qr_scan", "android": "https://dc.lft.to/lastmile_qr_scan"}, "is_reserved": 0}, {"lon": -77.05664033333333, "bike_id": "435666d1bd615e9657293396e0c4155f", "lat": 38.895528, "fusion_lon": 0.0, "fusion_lat": 0.0, "type": "electric_scooter", "name": "435666d1bd615e9657293396e0c4155f", "is_disabled": 0, "rental_uris": {"ios": "https://dc.lft.to/lastmile_qr_scan", "android": "https://dc.lft.to/lastmile_qr_scan"}, "is_reserved": 0}, {"lon": -76.962607, "bike_id": "3d63315fedff3e7b42bf4be0bb659ec3", "lat": 38.882505333333334, "fusion_lon": 0.0, "fusion_lat": 0.0, "type": "electric_bike", "name": "3d63315fedff3e7b42bf4be0bb659ec3", "is_disabled": 0, "rental_uris": {"ios": "https://dc.lft.to/lastmile_qr_scan", "android": "https://dc.lft.to/lastmile_qr_scan"}, "is_reserved": 0}, {"lon": -77.00476766666667, "bike_id": "5ba7f8891fd3bed091f23b7134814b25", "lat": 38.89585533333333, "fusion_lon": 0.0, "fusion_lat": 0.0, "type": "electric_scooter", "name": "5ba7f8891fd3bed091f23b7134814b25", "is_disabled": 0, "rental_uris": {"ios": "https://dc.lft.to/lastmile_qr_scan", "android": "https://dc.lft.to/lastmile_qr_scan"}, "is_reserved": 0}, {"lon": -77.00655233333333, "bike_id": "60d85d5ce1c0d83d3f2000e7139c6657", "lat": 38.94463233333333, "fusion_lon": 0.0, "fusion_lat": 0.0, "type": "electric_scooter", "name": "60d85d5ce1c0d83d3f2000e7139c6657", "is_disabled": 0, "rental_uris": {"ios": "https://dc.lft.to/lastmile_qr_scan", "android": "https://dc.lft.to/lastmile_qr_scan"}, "is_reserved": 0}, {"lon": -77.0121545, "bike_id": "0c06d851c66b5dd01de8092f05314434", "lat": 38.872032833333336, "fusion_lon": 0.0, "fusion_lat": 0.0, "type": "electric_bike", "name": "0c06d851c66b5dd01de8092f05314434", "is_disabled": 0, "rental_uris": {"ios": "https://dc.lft.to/lastmile_qr_scan", "android": "https://dc.lft.to/lastmile_qr_scan"}, "is_reserved": 0}, {"lon": -77.0144335, "bike_id": "9c47be528e2f4784e1bb94aaa113487d", "lat": 38.9207065, "fusion_lon": 0.0, "fusion_lat": 0.0, "type": "electric_scooter", "name": "9c47be528e2f4784e1bb94aaa113487d", "is_disabled": 0, "rental_uris": {"ios": "https://dc.lft.to/lastmile_qr_scan", "android": "https://dc.lft.to/lastmile_qr_scan"}, "is_reserved": 0}, {"lon": -77.0326145, "bike_id": "8b576adb5f1243ae1aa61e93002a9721", "lat": 38.937788833333336, "fusion_lon": 0.0, "fusion_lat": 0.0, "type": "electric_scooter", "name": "8b576adb5f1243ae1aa61e93002a9721", "is_disabled": 0, "rental_uris": {"ios": "https://dc.lft.to/lastmile_qr_scan", "android": "https://dc.lft.to/lastmile_qr_scan"}, "is_reserved": 0}, {"lon": -77.02758916666667, "bike_id": "e3ae02716fdb3f6cc35400e486632595", "lat": 38.95430016666667, "fusion_lon": 0.0, "fusion_lat": 0.0, "type": "electric_scooter", "name": "e3ae02716fdb3f6cc35400e486632595", "is_disabled": 0, "rental_uris": {"ios": "https://dc.lft.to/lastmile_qr_scan", "android": "https://dc.lft.to/lastmile_qr_scan"}, "is_reserved": 0}, {"lon": -77.04734316666666, "bike_id": "e76a7fb88e8c3a726c0c925a5bc43b4a", "lat": 38.90193883333333, "fusion_lon": 0.0, "fusion_lat": 0.0, "type": "electric_scooter", "name": "e76a7fb88e8c3a726c0c925a5bc43b4a", "is_disabled": 0, "rental_uris": {"ios": "https://dc.lft.to/lastmile_qr_scan", "android": "https://dc.lft.to/lastmile_qr_scan"}, "is_reserved": 0}, {"lon": -77.02579866666666, "bike_id": "e774222641793fe4eb68ac06d0f9ff3c", "lat": 38.901, "fusion_lon": 0.0, "fusion_lat": 0.0, "type": "electric_scooter", "name": "e774222641793fe4eb68ac06d0f9ff3c", "is_disabled": 0, "rental_uris": {"ios": "https://dc.lft.to/lastmile_qr_scan", "android": "https://dc.lft.to/lastmile_qr_scan"}, "is_reserved": 0}, {"lon": -76.9945245, "bike_id": "f846a721aab659a39cdae3670df0ddad", "lat": 38.86218683333333, "fusion_lon": 0.0, "fusion_lat": 0.0, "type": "electric_scooter", "name": "f846a721aab659a39cdae3670df0ddad", "is_disabled": 0, "rental_uris": {"ios": "https://dc.lft.to/lastmile_qr_scan", "android": "https://dc.lft.to/lastmile_qr_scan"}, "is_reserved": 0}, {"lon": -76.9846315, "bike_id": "0e95eb09daf511b8f7889b07ef89a6b5", "lat": 38.9040185, "fusion_lon": 0.0, "fusion_lat": 0.0, "type": "electric_scooter", "name": "0e95eb09daf511b8f7889b07ef89a6b5", "is_disabled": 0, "rental_uris": {"ios": "https://dc.lft.to/lastmile_qr_scan", "android": "https://dc.lft.to/lastmile_qr_scan"}, "is_reserved": 0}, {"lon": -77.01996483333333, "bike_id": "9dac91671a16001e9abf238b563181bf", "lat": 38.96631466666667, "fusion_lon": 0.0, "fusion_lat": 0.0, "type": "electric_scooter", "name": "9dac91671a16001e9abf238b563181bf", "is_disabled": 0, "rental_uris": {"ios": "https://dc.lft.to/lastmile_qr_scan", "android": "https://dc.lft.to/lastmile_qr_scan"}, "is_reserved": 0}, {"lon": -77.032623, "bike_id": "067e7bba5de2816b4e3a0c4650884ff9", "lat": 38.93724533333334, "fusion_lon": 0.0, "fusion_lat": 0.0, "type": "electric_scooter", "name": "067e7bba5de2816b4e3a0c4650884ff9", "is_disabled": 0, "rental_uris": {"ios": "https://dc.lft.to/lastmile_qr_scan", "android": "https://dc.lft.to/lastmile_qr_scan"}, "is_reserved": 0}, {"lon": -76.99001633333333, "bike_id": "89699fef12504fc38175da8a4aea5ca3", "lat": 38.865089833333336, "fusion_lon": 0.0, "fusion_lat": 0.0, "type": "electric_scooter", "name": "89699fef12504fc38175da8a4aea5ca3", "is_disabled": 0, "rental_uris": {"ios": "https://dc.lft.to/lastmile_qr_scan", "android": "https://dc.lft.to/lastmile_qr_scan"}, "is_reserved": 0}, {"lon": -77.003263, "bike_id": "b0d355f440053e23b5cbed4b98a607d5", "lat": 38.897335166666664, "fusion_lon": 0.0, "fusion_lat": 0.0, "type": "electric_scooter", "name": "b0d355f440053e23b5cbed4b98a607d5", "is_disabled": 0, "rental_uris": {"ios": "https://dc.lft.to/lastmile_qr_scan", "android": "https://dc.lft.to/lastmile_qr_scan"}, "is_reserved": 0}, {"lon": -77.02804083333334, "bike_id": "8b2f155b149e98c75a7ab9a950cd0647", "lat": 38.930834, "fusion_lon": 0.0, "fusion_lat": 0.0, "type": "electric_scooter", "name": "8b2f155b149e98c75a7ab9a950cd0647", "is_disabled": 0, "rental_uris": {"ios": "https://dc.lft.to/lastmile_qr_scan", "android": "https://dc.lft.to/lastmile_qr_scan"}, "is_reserved": 0}, {"lon": -77.06833066666667, "bike_id": "ba8d6b52928619bcfd0d4c50c07435c3", "lat": 38.8056965, "fusion_lon": 0.0, "fusion_lat": 0.0, "type": "electric_bike", "name": "ba8d6b52928619bcfd0d4c50c07435c3", "is_disabled": 0, "rental_uris": {"ios": "https://dc.lft.to/lastmile_qr_scan", "android": "https://dc.lft.to/lastmile_qr_scan"}, "is_reserved": 0}, {"lon": -77.00526283333333, "bike_id": "cab478f6e50b2192bc528b302f750cac", "lat": 38.87552216666667, "fusion_lon": 0.0, "fusion_lat": 0.0, "type": "electric_scooter", "name": "cab478f6e50b2192bc528b302f750cac", "is_disabled": 0, "rental_uris": {"ios": "https://dc.lft.to/lastmile_qr_scan", "android": "https://dc.lft.to/lastmile_qr_scan"}, "is_reserved": 0}, {"lon": -77.02762066666666, "bike_id": "4489087a2762be8ef4bfdcd71270ea7d", "lat": 38.954307666666665, "fusion_lon": 0.0, "fusion_lat": 0.0, "type": "electric_scooter", "name": "4489087a2762be8ef4bfdcd71270ea7d", "is_disabled": 0, "rental_uris": {"ios": "https://dc.lft.to/lastmile_qr_scan", "android": "https://dc.lft.to/lastmile_qr_scan"}, "is_reserved": 0}, {"lon": -77.052372, "bike_id": "5c1d6a1252540e0ab63dde8355ee976c", "lat": 38.9234055, "fusion_lon": 0.0, "fusion_lat": 0.0, "type": "electric_scooter", "name": "5c1d6a1252540e0ab63dde8355ee976c", "is_disabled": 0, "rental_uris": {"ios": "https://dc.lft.to/lastmile_qr_scan", "android": "https://dc.lft.to/lastmile_qr_scan"}, "is_reserved": 0}, {"lon": -76.980846, "bike_id": "81c7c14f0854f9c3daaeca6f6fb2877f", "lat": 38.907121333333336, "fusion_lon": 0.0, "fusion_lat": 0.0, "type": "electric_scooter", "name": "81c7c14f0854f9c3daaeca6f6fb2877f", "is_disabled": 0, "rental_uris": {"ios": "https://dc.lft.to/lastmile_qr_scan", "android": "https://dc.lft.to/lastmile_qr_scan"}, "is_reserved": 0}, {"lon": -77.03324466666666, "bike_id": "5974fb614bf35baaaddded80a8b14726", "lat": 38.915672, "fusion_lon": 0.0, "fusion_lat": 0.0, "type": "electric_scooter", "name": "5974fb614bf35baaaddded80a8b14726", "is_disabled": 0, "rental_uris": {"ios": "https://dc.lft.to/lastmile_qr_scan", "android": "https://dc.lft.to/lastmile_qr_scan"}, "is_reserved": 0}, {"lon": -77.01987816666667, "bike_id": "cbfe91998222c4a17ed67cb4d13bdbfd", "lat": 38.9014875, "fusion_lon": 0.0, "fusion_lat": 0.0, "type": "electric_scooter", "name": "cbfe91998222c4a17ed67cb4d13bdbfd", "is_disabled": 0, "rental_uris": {"ios": "https://dc.lft.to/lastmile_qr_scan", "android": "https://dc.lft.to/lastmile_qr_scan"}, "is_reserved": 0}, {"lon": -76.98736366666667, "bike_id": "047be3a32fc537bbf0410ec0064ff7c5", "lat": 38.8658125, "fusion_lon": 0.0, "fusion_lat": 0.0, "type": "electric_bike", "name": "047be3a32fc537bbf0410ec0064ff7c5", "is_disabled": 0, "rental_uris": {"ios": "https://dc.lft.to/lastmile_qr_scan", "android": "https://dc.lft.to/lastmile_qr_scan"}, "is_reserved": 0}, {"lon": -77.0218035, "bike_id": "1dd8b00ef54c440e94230da9c54e28de", "lat": 38.914825666666665, "fusion_lon": 0.0, "fusion_lat": 0.0, "type": "electric_scooter", "name": "1dd8b00ef54c440e94230da9c54e28de", "is_disabled": 0, "rental_uris": {"ios": "https://dc.lft.to/lastmile_qr_scan", "android": "https://dc.lft.to/lastmile_qr_scan"}, "is_reserved": 0}, {"lon": -76.94160283333333, "bike_id": "7c7865d578fe4a6c2a0df779e709110c", "lat": 38.908318666666666, "fusion_lon": 0.0, "fusion_lat": 0.0, "type": "electric_bike", "name": "7c7865d578fe4a6c2a0df779e709110c", "is_disabled": 0, "rental_uris": {"ios": "https://dc.lft.to/lastmile_qr_scan", "android": "https://dc.lft.to/lastmile_qr_scan"}, "is_reserved": 0}, {"lon": -77.04156866666666, "bike_id": "a8e64aaa35c0f930fffa2d58ceb1f8e7", "lat": 38.91986966666666, "fusion_lon": 0.0, "fusion_lat": 0.0, "type": "electric_scooter", "name": "a8e64aaa35c0f930fffa2d58ceb1f8e7", "is_disabled": 0, "rental_uris": {"ios": "https://dc.lft.to/lastmile_qr_scan", "android": "https://dc.lft.to/lastmile_qr_scan"}, "is_reserved": 0}, {"lon": -77.02424316666666, "bike_id": "8c2b63b09754938588af1399a43072e0", "lat": 38.92660683333333, "fusion_lon": 0.0, "fusion_lat": 0.0, "type": "electric_scooter", "name": "8c2b63b09754938588af1399a43072e0", "is_disabled": 0, "rental_uris": {"ios": "https://dc.lft.to/lastmile_qr_scan", "android": "https://dc.lft.to/lastmile_qr_scan"}, "is_reserved": 0}, {"lon": -77.06413433333333, "bike_id": "c4bfab8432cf37355e3ce8f5472d47f1", "lat": 38.9933315, "fusion_lon": 0.0, "fusion_lat": 0.0, "type": "electric_scooter", "name": "c4bfab8432cf37355e3ce8f5472d47f1", "is_disabled": 0, "rental_uris": {"ios": "https://dc.lft.to/lastmile_qr_scan", "android": "https://dc.lft.to/lastmile_qr_scan"}, "is_reserved": 0}, {"lon": -76.986868, "bike_id": "d6028784da5fc78eb1668b7db9e74f7a", "lat": 38.9129575, "fusion_lon": 0.0, "fusion_lat": 0.0, "type": "electric_bike", "name": "d6028784da5fc78eb1668b7db9e74f7a", "is_disabled": 0, "rental_uris": {"ios": "https://dc.lft.to/lastmile_qr_scan", "android": "https://dc.lft.to/lastmile_qr_scan"}, "is_reserved": 0}, {"lon": -76.96525883333334, "bike_id": "afd3a575379f30ce756dac35d55e3675", "lat": 38.876338, "fusion_lon": 0.0, "fusion_lat": 0.0, "type": "electric_scooter", "name": "afd3a575379f30ce756dac35d55e3675", "is_disabled": 0, "rental_uris": {"ios": "https://dc.lft.to/lastmile_qr_scan", "android": "https://dc.lft.to/lastmile_qr_scan"}, "is_reserved": 0}, {"lon": -77.035236, "bike_id": "9dddb23054a808fbdc1057453a24edf8", "lat": 38.927255, "fusion_lon": 0.0, "fusion_lat": 0.0, "type": "electric_scooter", "name": "9dddb23054a808fbdc1057453a24edf8", "is_disabled": 0, "rental_uris": {"ios": "https://dc.lft.to/lastmile_qr_scan", "android": "https://dc.lft.to/lastmile_qr_scan"}, "is_reserved": 0}, {"lon": -77.029728, "bike_id": "9cd133fdbb2d170a80b3d5482672ad90", "lat": 38.91465633333333, "fusion_lon": 0.0, "fusion_lat": 0.0, "type": "electric_scooter", "name": "9cd133fdbb2d170a80b3d5482672ad90", "is_disabled": 0, "rental_uris": {"ios": "https://dc.lft.to/lastmile_qr_scan", "android": "https://dc.lft.to/lastmile_qr_scan"}, "is_reserved": 0}, {"lon": -77.03633016666667, "bike_id": "6b260ebf2d62de8aebdc3e9f8dd14c2e", "lat": 38.94503183333333, "fusion_lon": 0.0, "fusion_lat": 0.0, "type": "electric_scooter", "name": "6b260ebf2d62de8aebdc3e9f8dd14c2e", "is_disabled": 0, "rental_uris": {"ios": "https://dc.lft.to/lastmile_qr_scan", "android": "https://dc.lft.to/lastmile_qr_scan"}, "is_reserved": 0}, {"lon": -77.03953566666667, "bike_id": "579077a4f95fee417ba7930eafc4d50e", "lat": 38.915676166666664, "fusion_lon": 0.0, "fusion_lat": 0.0, "type": "electric_scooter", "name": "579077a4f95fee417ba7930eafc4d50e", "is_disabled": 0, "rental_uris": {"ios": "https://dc.lft.to/lastmile_qr_scan", "android": "https://dc.lft.to/lastmile_qr_scan"}, "is_reserved": 0}, {"lon": -77.03794516666666, "bike_id": "5608d71b1a1e9c62332d1e596d638a37", "lat": 38.925675, "fusion_lon": 0.0, "fusion_lat": 0.0, "type": "electric_scooter", "name": "5608d71b1a1e9c62332d1e596d638a37", "is_disabled": 0, "rental_uris": {"ios": "https://dc.lft.to/lastmile_qr_scan", "android": "https://dc.lft.to/lastmile_qr_scan"}, "is_reserved": 0}, {"lon": -77.02973833333333, "bike_id": "62662644098e42880cfb4abfd0d19af4", "lat": 38.93936033333333, "fusion_lon": 0.0, "fusion_lat": 0.0, "type": "electric_scooter", "name": "62662644098e42880cfb4abfd0d19af4", "is_disabled": 0, "rental_uris": {"ios": "https://dc.lft.to/lastmile_qr_scan", "android": "https://dc.lft.to/lastmile_qr_scan"}, "is_reserved": 0}, {"lon": -76.97547933333334, "bike_id": "e229a9ce04af2aed880ee3e110dd85bd", "lat": 38.90330466666666, "fusion_lon": 0.0, "fusion_lat": 0.0, "type": "electric_scooter", "name": "e229a9ce04af2aed880ee3e110dd85bd", "is_disabled": 0, "rental_uris": {"ios": "https://dc.lft.to/lastmile_qr_scan", "android": "https://dc.lft.to/lastmile_qr_scan"}, "is_reserved": 0}, {"lon": -77.00046133333333, "bike_id": "525391dceec2c5f550b1e11aaaed20f7", "lat": 38.9190535, "fusion_lon": 0.0, "fusion_lat": 0.0, "type": "electric_scooter", "name": "525391dceec2c5f550b1e11aaaed20f7", "is_disabled": 0, "rental_uris": {"ios": "https://dc.lft.to/lastmile_qr_scan", "android": "https://dc.lft.to/lastmile_qr_scan"}, "is_reserved": 0}, {"lon": -77.03761, "bike_id": "5213b8a25566ecee7b9ad8f0f387d371", "lat": 38.928876833333334, "fusion_lon": 0.0, "fusion_lat": 0.0, "type": "electric_scooter", "name": "5213b8a25566ecee7b9ad8f0f387d371", "is_disabled": 0, "rental_uris": {"ios": "https://dc.lft.to/lastmile_qr_scan", "android": "https://dc.lft.to/lastmile_qr_scan"}, "is_reserved": 0}, {"lon": -76.98986883333333, "bike_id": "5518d5b5acdfa3d18a1f1a658b0cea1e", "lat": 38.9336085, "fusion_lon": 0.0, "fusion_lat": 0.0, "type": "electric_scooter", "name": "5518d5b5acdfa3d18a1f1a658b0cea1e", "is_disabled": 0, "rental_uris": {"ios": "https://dc.lft.to/lastmile_qr_scan", "android": "https://dc.lft.to/lastmile_qr_scan"}, "is_reserved": 0}, {"lon": -77.0326085, "bike_id": "7c6d88f741d68aa0669dec473421bfb2", "lat": 38.914087333333335, "fusion_lon": 0.0, "fusion_lat": 0.0, "type": "electric_scooter", "name": "7c6d88f741d68aa0669dec473421bfb2", "is_disabled": 0, "rental_uris": {"ios": "https://dc.lft.to/lastmile_qr_scan", "android": "https://dc.lft.to/lastmile_qr_scan"}, "is_reserved": 0}, {"lon": -77.02692616666667, "bike_id": "f39193afe1d89033c056b59201f84179", "lat": 38.9164035, "fusion_lon": 0.0, "fusion_lat": 0.0, "type": "electric_scooter", "name": "f39193afe1d89033c056b59201f84179", "is_disabled": 0, "rental_uris": {"ios": "https://dc.lft.to/lastmile_qr_scan", "android": "https://dc.lft.to/lastmile_qr_scan"}, "is_reserved": 0}, {"lon": -77.03847333333333, "bike_id": "6872c6f6e7f2f5b52409e5088eebe2cb", "lat": 38.91015866666667, "fusion_lon": 0.0, "fusion_lat": 0.0, "type": "electric_scooter", "name": "6872c6f6e7f2f5b52409e5088eebe2cb", "is_disabled": 0, "rental_uris": {"ios": "https://dc.lft.to/lastmile_qr_scan", "android": "https://dc.lft.to/lastmile_qr_scan"}, "is_reserved": 0}, {"lon": -77.03332016666667, "bike_id": "604ced82bfbbd3626c7024556d650266", "lat": 38.91565133333334, "fusion_lon": 0.0, "fusion_lat": 0.0, "type": "electric_scooter", "name": "604ced82bfbbd3626c7024556d650266", "is_disabled": 0, "rental_uris": {"ios": "https://dc.lft.to/lastmile_qr_scan", "android": "https://dc.lft.to/lastmile_qr_scan"}, "is_reserved": 0}, {"lon": -77.0315295, "bike_id": "d07840ef7e594277f657a4165425623d", "lat": 38.88307366666667, "fusion_lon": 0.0, "fusion_lat": 0.0, "type": "electric_scooter", "name": "d07840ef7e594277f657a4165425623d", "is_disabled": 0, "rental_uris": {"ios": "https://dc.lft.to/lastmile_qr_scan", "android": "https://dc.lft.to/lastmile_qr_scan"}, "is_reserved": 0}, {"lon": -76.98469533333333, "bike_id": "957f3657fefea135e4fc4819699bd43d", "lat": 38.90556, "fusion_lon": 0.0, "fusion_lat": 0.0, "type": "electric_scooter", "name": "957f3657fefea135e4fc4819699bd43d", "is_disabled": 0, "rental_uris": {"ios": "https://dc.lft.to/lastmile_qr_scan", "android": "https://dc.lft.to/lastmile_qr_scan"}, "is_reserved": 0}, {"lon": -76.99176016666667, "bike_id": "fe77f162b79233cb7745eccdaece3d1c", "lat": 38.88990366666667, "fusion_lon": 0.0, "fusion_lat": 0.0, "type": "electric_scooter", "name": "fe77f162b79233cb7745eccdaece3d1c", "is_disabled": 0, "rental_uris": {"ios": "https://dc.lft.to/lastmile_qr_scan", "android": "https://dc.lft.to/lastmile_qr_scan"}, "is_reserved": 0},