{"data": {"bikes": [{"fusion_lat": 0.0, "name": "a1666bd5c3254f2eb3b6fe06b9f38d28", "is_disabled": 0, "rental_uris": {"android": "https://dc.lft.to/lastmile_qr_scan", "ios": "https://dc.lft.to/lastmile_qr_scan"}, "fusion_lon": 0.0, "lat": 38.876563833333336, "bike_id": "a1666bd5c3254f2eb3b6fe06b9f38d28", "type": "electric_scooter", "is_reserved": 0, "lon": -77.00918266666666}, {"fusion_lat": 0.0, "name": "fb78cdc48f6af394c6ad7ecda216d4a9", "is_disabled": 0, "rental_uris": {"android": "https://dc.lft.to/lastmile_qr_scan", "ios": "https://dc.lft.to/lastmile_qr_scan"}, "fusion_lon": 0.0, "lat": 38.882326, "bike_id": "fb78cdc48f6af394c6ad7ecda216d4a9", "type": "electric_scooter", "is_reserved": 0, "lon": -77.026158}, {"fusion_lat": 0.0, "name": "83c6d7f6c39fa3a4602ebcb83517bf2f", "is_disabled": 0, "rental_uris": {"android": "https://dc.lft.to/lastmile_qr_scan", "ios": "https://dc.lft.to/lastmile_qr_scan"}, "fusion_lon": 0.0, "lat": 38.91921333333333, "bike_id": "83c6d7f6c39fa3a4602ebcb83517bf2f", "type": "electric_scooter", "is_reserved": 0, "lon": -77.0248895}, {"fusion_lat": 0.0, "name": "f3e4069e30ee8206e5928ed527c71554", "is_disabled": 0, "rental_uris": {"android": "https://dc.lft.to/lastmile_qr_scan", "ios": "https://dc.lft.to/lastmile_qr_scan"}, "fusion_lon": 0.0, "lat": 38.9248545, "bike_id": "f3e4069e30ee8206e5928ed527c71554", "type": "electric_scooter", "is_reserved": 0, "lon": -77.0254825}, {"fusion_lat": 0.0, "name": "a397fbed84c0cda28c405e16c95176e3", "is_disabled": 0, "rental_uris": {"android": "https://dc.lft.to/lastmile_qr_scan", "ios": "https://dc.lft.to/lastmile_qr_scan"}, "fusion_lon": 0.0, "lat": 38.879156, "bike_id": "a397fbed84c0cda28c405e16c95176e3", "type": "electric_scooter", "is_reserved": 0, "lon": -77.0089215}, {"fusion_lat": 0.0, "name": "ebd21b7fc63f9a7e01600f93d06fdc9f", "is_disabled": 0, "rental_uris": {"android": "https://dc.lft.to/lastmile_qr_scan", "ios": "https://dc.lft.to/lastmile_qr_scan"}, "fusion_lon": 0.0, "lat": 38.932643, "bike_id": "ebd21b7fc63f9a7e01600f93d06fdc9f", "type": "electric_scooter", "is_reserved": 0, "lon": -77.03267183333334}, {"fusion_lat": 0.0, "name": "e666ec3c85acda60b73187b17d6f5bb6", "is_disabled": 0, "rental_uris": {"android": "https://dc.lft.to/lastmile_qr_scan", "ios": "https://dc.lft.to/lastmile_qr_scan"}, "fusion_lon": 0.0, "lat": 38.903808, "bike_id": "e666ec3c85acda60b73187b17d6f5bb6", "type": "electric_scooter", "is_reserved": 0, "lon": -77.04827216666666}, {"fusion_lat": 0.0, "name": "cc9912c05c1e89ccf235bffd71a1b91d", "is_disabled": 0, "rental_uris": {"android": "https://dc.lft.to/lastmile_qr_scan", "ios": "https://dc.lft.to/lastmile_qr_scan"}, "fusion_lon": 0.0, "lat": 38.958859333333336, "bike_id": "cc9912c05c1e89ccf235bffd71a1b91d", "type": "electric_scooter", "is_reserved": 0, "lon": -77.01171883333333}, {"fusion_lat": 0.0, "name": "ecd6f0d01a4818e2c405be328ef80718", "is_disabled": 0, "rental_uris": {"android": "https://dc.lft.to/lastmile_qr_scan", "ios": "https://dc.lft.to/lastmile_qr_scan"}, "fusion_lon": 0.0, "lat": 38.89513216666667, "bike_id": "ecd6f0d01a4818e2c405be328ef80718", "type": "electric_scooter", "is_reserved": 0, "lon": -77.02183483333333}, {"fusion_lat": 0.0, "name": "ffa153151d3885cc3274354e38c93513", "is_disabled": 0, "rental_uris": {"android": "https://dc.lft.to/lastmile_qr_scan", "ios": "https://dc.lft.to/lastmile_qr_scan"}, "fusion_lon": 0.0, "lat": 38.90685366666666, "bike_id": "ffa153151d3885cc3274354e38c93513", "type": "electric_scooter", "is_reserved": 0, "lon": -77.04726633333334}, {"fusion_lat": 0.0, "name": "7b6fbdd34b7f2ff9bf7a1527e86abc60", "is_disabled": 0, "rental_uris": {"android": "https://dc.lft.to/lastmile_qr_scan", "ios": "https://dc.lft.to/lastmile_qr_scan"}, "fusion_lon": 0.0, "lat": 38.87899083333333, "bike_id": "7b6fbdd34b7f2ff9bf7a1527e86abc60", "type": "electric_scooter", "is_reserved": 0, "lon": -77.01364733333334}, {"fusion_lat": 0.0, "name": "4162578d8afc7245dd876d8e7db7ea1b", "is_disabled": 0, "rental_uris": {"android": "https://dc.lft.to/lastmile_qr_scan", "ios": "https://dc.lft.to/lastmile_qr_scan"}, "fusion_lon": 0.0, "lat": 38.90499883333333, "bike_id": "4162578d8afc7245dd876d8e7db7ea1b", "type": "electric_scooter", "is_reserved": 0, "lon": -77.01023816666667}, {"fusion_lat": 0.0, "name": "fbcd79ea1615d142b9881886478979e3", "is_disabled": 0, "rental_uris": {"android": "https://dc.lft.to/lastmile_qr_scan", "ios": "https://dc.lft.to/lastmile_qr_scan"}, "fusion_lon": 0.0, "lat": 38.9177265, "bike_id": "fbcd79ea1615d142b9881886478979e3", "type": "electric_scooter", "is_reserved": 0, "lon": -77.01495183333333}, {"fusion_lat": 0.0, "name": "bfbd652ca61424c14c4cff8193e3f78d", "is_disabled": 0, "rental_uris": {"android": "https://dc.lft.to/lastmile_qr_scan", "ios": "https://dc.lft.to/lastmile_qr_scan"}, "fusion_lon": 0.0, "lat": 38.94411, "bike_id": "bfbd652ca61424c14c4cff8193e3f78d", "type": "electric_scooter", "is_reserved": 0, "lon": -77.032028}, {"fusion_lat": 0.0, "name": "71e532fe929853c3ac09037218fc0b91", "is_disabled": 0, "rental_uris": {"android": "https://dc.lft.to/lastmile_qr_scan", "ios": "https://dc.lft.to/lastmile_qr_scan"}, "fusion_lon": 0.0, "lat": 38.9296325, "bike_id": "71e532fe929853c3ac09037218fc0b91", "type": "electric_scooter", "is_reserved": 0, "lon": -77.03101516666666}, {"fusion_lat": 0.0, "name": "f4582662cf76645e4f7aaa1c48b17d74", "is_disabled": 0, "rental_uris": {"android": "https://dc.lft.to/lastmile_qr_scan", "ios": "https://dc.lft.to/lastmile_qr_scan"}, "fusion_lon": 0.0, "lat": 38.89826266666667, "bike_id": "f4582662cf76645e4f7aaa1c48b17d74", "type": "electric_scooter", "is_reserved": 0, "lon": -76.94650483333334}, {"fusion_lat": 0.0, "name": "b84fb0c43064d43a5777f84728d0c42f", "is_disabled": 0, "rental_uris": {"android": "https://dc.lft.to/lastmile_qr_scan", "ios": "https://dc.lft.to/lastmile_qr_scan"}, "fusion_lon": 0.0, "lat": 38.88470483333333, "bike_id": "b84fb0c43064d43a5777f84728d0c42f", "type": "electric_scooter", "is_reserved": 0, "lon": -77.0152805}, {"fusion_lat": 0.0, "name": "96d3111b892e8069ec31a3fe99d06d1c", "is_disabled": 0, "rental_uris": {"android": "https://dc.lft.to/lastmile_qr_scan", "ios": "https://dc.lft.to/lastmile_qr_scan"}, "fusion_lon": 0.0, "lat": 38.93184633333333, "bike_id": "96d3111b892e8069ec31a3fe99d06d1c", "type": "electric_scooter", "is_reserved": 0, "lon": -77.07315233333334}, {"fusion_lat": 0.0, "name": "d0cfae7bc14b46051b34aa25fe1504cf", "is_disabled": 0, "rental_uris": {"android": "https://dc.lft.to/lastmile_qr_scan", "ios": "https://dc.lft.to/lastmile_qr_scan"}, "fusion_lon": 0.0, "lat": 38.884902, "bike_id": "d0cfae7bc14b46051b34aa25fe1504cf", "type": "electric_scooter", "is_reserved": 0, "lon": -77.01086916666667}, {"fusion_lat": 0.0, "name": "221187f526e0989d0b28e80516cd31e9", "is_disabled": 0, "rental_uris": {"android": "https://dc.lft.to/lastmile_qr_scan", "ios": "https://dc.lft.to/lastmile_qr_scan"}, "fusion_lon": 0.0, "lat": 38.919805833333335, "bike_id": "221187f526e0989d0b28e80516cd31e9", "type": "electric_scooter", "is_reserved": 0, "lon": -77.04173616666667}, {"fusion_lat": 0.0, "name": "9cd01863281656c38f3a8e2b386259ab", "is_disabled": 0, "rental_uris": {"android": "https://dc.lft.to/lastmile_qr_scan", "ios": "https://dc.lft.to/lastmile_qr_scan"}, "fusion_lon": 0.0, "lat": 38.88335816666667, "bike_id": "9cd01863281656c38f3a8e2b386259ab", "type": "electric_scooter", "is_reserved": 0, "lon": -77.016881}, {"fusion_lat": 0.0, "name": "20d3c2301ba82a3b9aed3b839afb8385", "is_disabled": 0, "rental_uris": {"android": "https://dc.lft.to/lastmile_qr_scan", "ios": "https://dc.lft.to/lastmile_qr_scan"}, "fusion_lon": 0.0, "lat": 38.900111333333335, "bike_id": "20d3c2301ba82a3b9aed3b839afb8385", "type": "electric_scooter", "is_reserved": 0, "lon": -77.0317885}, {"fusion_lat": 0.0, "name": "be5bc18db408ec9edb41ef2bde994b46", "is_disabled": 0, "rental_uris": {"android": "https://dc.lft.to/lastmile_qr_scan", "ios": "https://dc.lft.to/lastmile_qr_scan"}, "fusion_lon": 0.0, "lat": 38.93540016666667, "bike_id": "be5bc18db408ec9edb41ef2bde994b46", "type": "electric_scooter", "is_reserved": 0, "lon": -77.032597}, {"fusion_lat": 0.0, "name": "faa983ceda8ce362d990a70be82b53fc", "is_disabled": 0, "rental_uris": {"android": "https://dc.lft.to/lastmile_qr_scan", "ios": "https://dc.lft.to/lastmile_qr_scan"}, "fusion_lon": 0.0, "lat": 38.923784166666664, "bike_id": "faa983ceda8ce362d990a70be82b53fc", "type": "electric_scooter", "is_reserved": 0, "lon": -77.02142983333333}, {"fusion_lat": 0.0, "name": "ebb23715fbfbc73d0c77adfe0bcc6672", "is_disabled": 0, "rental_uris": {"android": "https://dc.lft.to/lastmile_qr_scan", "ios": "https://dc.lft.to/lastmile_qr_scan"}, "fusion_lon": 0.0, "lat": 39.00381016666667, "bike_id": "ebb23715fbfbc73d0c77adfe0bcc6672", "type": "electric_bike", "is_reserved": 0, "lon": -77.01292066666667}, {"fusion_lat": 0.0, "name": "fc31c95b3efe5d847597014aa3fd62e0", "is_disabled": 0, "rental_uris": {"android": "https://dc.lft.to/lastmile_qr_scan", "ios": "https://dc.lft.to/lastmile_qr_scan"}, "fusion_lon": 0.0, "lat": 38.907893333333334, "bike_id": "fc31c95b3efe5d847597014aa3fd62e0", "type": "electric_scooter", "is_reserved": 0, "lon": -77.034343}, {"fusion_lat": 0.0, "name": "837e1633b369feca7971171d86fcbd70", "is_disabled": 0, "rental_uris": {"android": "https://dc.lft.to/lastmile_qr_scan", "ios": "https://dc.lft.to/lastmile_qr_scan"}, "fusion_lon": 0.0, "lat": 38.9297385, "bike_id": "837e1633b369feca7971171d86fcbd70", "type": "electric_scooter", "is_reserved": 0, "lon": -77.02794066666667}, {"fusion_lat": 0.0, "name": "ccdfdc39811a61fb843a130e28d91fe8", "is_disabled": 0, "rental_uris": {"android": "https://dc.lft.to/lastmile_qr_scan", "ios": "https://dc.lft.to/lastmile_qr_scan"}, "fusion_lon": 0.0, "lat": 38.90598083333333, "bike_id": "ccdfdc39811a61fb843a130e28d91fe8", "type": "electric_scooter", "is_reserved": 0, "lon": -77.04120766666666}, {"fusion_lat": 0.0, "name": "088bf2243f80fa02cb8f56d682aaad2e", "is_disabled": 0, "rental_uris": {"android": "https://dc.lft.to/lastmile_qr_scan", "ios": "https://dc.lft.to/lastmile_qr_scan"}, "fusion_lon": 0.0, "lat": 38.909474, "bike_id": "088bf2243f80fa02cb8f56d682aaad2e", "type": "electric_scooter", "is_reserved": 0, "lon": -77.0317965}, {"fusion_lat": 0.0, "name": "2fac1f0f0ded6c4c0fb8a6b85f45abae", "is_disabled": 0, "rental_uris": {"android": "https://dc.lft.to/lastmile_qr_scan", "ios": "https://dc.lft.to/lastmile_qr_scan"}, "fusion_lon": 0.0, "lat": 38.84726666666667, "bike_id": "2fac1f0f0ded6c4c0fb8a6b85f45abae", "type": "electric_scooter", "is_reserved": 0, "lon": -76.98250683333333}, {"fusion_lat": 0.0, "name": "d5f2889540030d370f9b86040466b5aa", "is_disabled": 0, "rental_uris": {"android": "https://dc.lft.to/lastmile_qr_scan", "ios": "https://dc.lft.to/lastmile_qr_scan"}, "fusion_lon": 0.0, "lat": 38.90469216666666, "bike_id": "d5f2889540030d370f9b86040466b5aa", "type": "electric_scooter", "is_reserved": 0, "lon": -77.04355633333333}, {"fusion_lat": 0.0, "name": "dafa7cf0dc9c7fc7844651e1e6009b80", "is_disabled": 0, "rental_uris": {"android": "https://dc.lft.to/lastmile_qr_scan", "ios": "https://dc.lft.to/lastmile_qr_scan"}, "fusion_lon": 0.0, "lat": 38.9198545, "bike_id": "dafa7cf0dc9c7fc7844651e1e6009b80", "type": "electric_scooter", "is_reserved": 0, "lon": -77.04182333333334}, {"fusion_lat": 0.0, "name": "4e042f236198fe164685395bdbc7bbe9", "is_disabled": 0, "rental_uris": {"android": "https://dc.lft.to/lastmile_qr_scan", "ios": "https://dc.lft.to/lastmile_qr_scan"}, "fusion_lon": 0.0, "lat": 38.919622, "bike_id": "4e042f236198fe164685395bdbc7bbe9", "type": "electric_scooter", "is_reserved": 0, "lon": -77.07089333333333}, {"fusion_lat": 0.0, "name": "75c1283fe0a179df367ae6d249fc3822", "is_disabled": 0, "rental_uris": {"android": "https://dc.lft.to/lastmile_qr_scan", "ios": "https://dc.lft.to/lastmile_qr_scan"}, "fusion_lon": 0.0, "lat": 38.9162945, "bike_id": "75c1283fe0a179df367ae6d249fc3822", "type": "electric_scooter", "is_reserved": 0, "lon": -77.032274}, {"fusion_lat": 0.0, "name": "dab86fed3ed9f708ab445908c2a5d911", "is_disabled": 0, "rental_uris": {"android": "https://dc.lft.to/lastmile_qr_scan", "ios": "https://dc.lft.to/lastmile_qr_scan"}, "fusion_lon": 0.0, "lat": 38.892267, "bike_id": "dab86fed3ed9f708ab445908c2a5d911", "type": "electric_scooter", "is_reserved": 0, "lon": -77.02671916666667}, {"fusion_lat": 0.0, "name": "d0f1cf97a98c49b2d386f70b7dabf1af", "is_disabled": 0, "rental_uris": {"android": "https://dc.lft.to/lastmile_qr_scan", "ios": "https://dc.lft.to/lastmile_qr_scan"}, "fusion_lon": 0.0, "lat": 38.92880366666667, "bike_id": "d0f1cf97a98c49b2d386f70b7dabf1af", "type": "electric_scooter", "is_reserved": 0, "lon": -77.03742483333333}, {"fusion_lat": 0.0, "name": "8e27bf38178a5a514cc628f205c387b6", "is_disabled": 0, "rental_uris": {"android": "https://dc.lft.to/lastmile_qr_scan", "ios": "https://dc.lft.to/lastmile_qr_scan"}, "fusion_lon": 0.0, "lat": 38.90797466666667, "bike_id": "8e27bf38178a5a514cc628f205c387b6", "type": "electric_scooter", "is_reserved": 0, "lon": -77.03181183333334}, {"fusion_lat": 0.0, "name": "6dbd21f1de635451d1b47dfc8ab19a2d", "is_disabled": 0, "rental_uris": {"android": "https://dc.lft.to/lastmile_qr_scan", "ios": "https://dc.lft.to/lastmile_qr_scan"}, "fusion_lon": 0.0, "lat": 38.9027215, "bike_id": "6dbd21f1de635451d1b47dfc8ab19a2d", "type": "electric_scooter", "is_reserved": 0, "lon": -77.03848183333334}, {"fusion_lat": 0.0, "name": "5e980d7bc15f1036c9820fdc28581f3b", "is_disabled": 0, "rental_uris": {"android": "https://dc.lft.to/lastmile_qr_scan", "ios": "https://dc.lft.to/lastmile_qr_scan"}, "fusion_lon": 0.0, "lat": 38.800185666666664, "bike_id": "5e980d7bc15f1036c9820fdc28581f3b", "type": "electric_bike", "is_reserved": 0, "lon": -77.05483983333333}, {"fusion_lat": 0.0, "name": "e4922ebac7ffcb0e578be32af4053b1a", "is_disabled": 0, "rental_uris": {"android": "https://dc.lft.to/lastmile_qr_scan", "ios": "https://dc.lft.to/lastmile_qr_scan"}, "fusion_lon": 0.0, "lat": 38.87701633333333, "bike_id": "e4922ebac7ffcb0e578be32af4053b1a", "type": "electric_scooter", "is_reserved": 0, "lon": -77.01767833333334}, {"fusion_lat": 0.0, "name": "fde573f42a27356a25b770356f6f6f99", "is_disabled": 0, "rental_uris": {"android": "https://dc.lft.to/lastmile_qr_scan", "ios": "https://dc.lft.to/lastmile_qr_scan"}, "fusion_lon": 0.0, "lat": 38.90634983333333, "bike_id": "fde573f42a27356a25b770356f6f6f99", "type": "electric_scooter", "is_reserved": 0, "lon": -77.0344345}, {"fusion_lat": 0.0, "name": "9a93e8f57ba04b7437d50dddd1905621", "is_disabled": 0, "rental_uris": {"android": "https://dc.lft.to/lastmile_qr_scan", "ios": "https://dc.lft.to/lastmile_qr_scan"}, "fusion_lon": 0.0, "lat": 38.914145833333336, "bike_id": "9a93e8f57ba04b7437d50dddd1905621", "type": "electric_scooter", "is_reserved": 0, "lon": -77.009357}, {"fusion_lat": 0.0, "name": "064a7c02a1356836c0eb982c112226ae", "is_disabled": 0, "rental_uris": {"android": "https://dc.lft.to/lastmile_qr_scan", "ios": "https://dc.lft.to/lastmile_qr_scan"}, "fusion_lon": 0.0, "lat": 38.93529433333333, "bike_id": "064a7c02a1356836c0eb982c112226ae", "type": "electric_scooter", "is_reserved": 0, "lon": -77.023455}, {"fusion_lat": 0.0, "name": "fe4dcecbd64959564ec64bf7701453d3", "is_disabled": 0, "rental_uris": {"android": "https://dc.lft.to/lastmile_qr_scan", "ios": "https://dc.lft.to/lastmile_qr_scan"}, "fusion_lon": 0.0, "lat": 38.93303083333333, "bike_id": "fe4dcecbd64959564ec64bf7701453d3", "type": "electric_scooter", "is_reserved": 0, "lon": -77.03999633333333}, {"fusion_lat": 0.0, "name": "7056606c61858224c7d60f86f7a98a04", "is_disabled": 0, "rental_uris": {"android": "https://dc.lft.to/lastmile_qr_scan", "ios": "https://dc.lft.to/lastmile_qr_scan"}, "fusion_lon": 0.0, "lat": 38.92785333333333, "bike_id": "7056606c61858224c7d60f86f7a98a04", "type": "electric_scooter", "is_reserved": 0, "lon": -77.03147616666666}, {"fusion_lat": 0.0, "name": "fbc9653a03eb2735c7984b55f0f2eded", "is_disabled": 0, "rental_uris": {"android": "https://dc.lft.to/lastmile_qr_scan", "ios": "https://dc.lft.to/lastmile_qr_scan"}, "fusion_lon": 0.0, "lat": 38.889487, "bike_id": "fbc9653a03eb2735c7984b55f0f2eded", "type": "electric_scooter", "is_reserved": 0, "lon": -76.99164866666666}, {"fusion_lat": 0.0, "name": "57c48447ff612c8b6880ed664d978000", "is_disabled": 0, "rental_uris": {"android": "https://dc.lft.to/lastmile_qr_scan", "ios": "https://dc.lft.to/lastmile_qr_scan"}, "fusion_lon": 0.0, "lat": 38.9247825, "bike_id": "57c48447ff612c8b6880ed664d978000", "type": "electric_scooter", "is_reserved": 0, "lon": -77.02551216666667}, {"fusion_lat": 0.0, "name": "fdfc57389eb13a638ed1287e05f576bf", "is_disabled": 0, "rental_uris": {"android": "https://dc.lft.to/lastmile_qr_scan", "ios": "https://dc.lft.to/lastmile_qr_scan"}, "fusion_lon": 0.0, "lat": 38.8637135, "bike_id": "fdfc57389eb13a638ed1287e05f576bf", "type": "electric_bike", "is_reserved": 0, "lon": -76.97006016666667}, {"fusion_lat": 0.0, "name": "a44b2f4b1582f209d6a932f2fef30294", "is_disabled": 0, "rental_uris": {"android": "https://dc.lft.to/lastmile_qr_scan", "ios": "https://dc.lft.to/lastmile_qr_scan"}, "fusion_lon": 0.0, "lat": 38.92872716666667, "bike_id": "a44b2f4b1582f209d6a932f2fef30294", "type": "electric_scooter", "is_reserved": 0, "lon": -77.05452916666667}, {"fusion_lat": 0.0, "name": "81140f5eac9b4cbd619b811e51e5c121", "is_disabled": 0, "rental_uris": {"android": "https://dc.lft.to/lastmile_qr_scan", "ios": "https://dc.lft.to/lastmile_qr_scan"}, "fusion_lon": 0.0, "lat": 38.9284305, "bike_id": "81140f5eac9b4cbd619b811e51e5c121", "type": "electric_scooter", "is_reserved": 0, "lon": -77.032718}, {"fusion_lat": 0.0, "name": "4b307e9254ba00cfd4bb13ac32151c79", "is_disabled": 0, "rental_uris": {"android": "https://dc.lft.to/lastmile_qr_scan", "ios": "https://dc.lft.to/lastmile_qr_scan"}, "fusion_lon": 0.0, "lat": 38.9050195, "bike_id": "4b307e9254ba00cfd4bb13ac32151c79", "type": "electric_scooter", "is_reserved": 0, "lon": -77.06101033333333}, {"fusion_lat": 0.0, "name": "0921bdcde2fc9da52ac36114f77d2154", "is_disabled": 0, "rental_uris": {"android": "https://dc.lft.to/lastmile_qr_scan", "ios": "https://dc.lft.to/lastmile_qr_scan"}, "fusion_lon": 0.0, "lat": 38.917092833333335, "bike_id": "0921bdcde2fc9da52ac36114f77d2154", "type": "electric_scooter", "is_reserved": 0, "lon": -77.04124583333333}, {"fusion_lat": 0.0, "name": "6308932e8387b42e353b602100cee446", "is_disabled": 0, "rental_uris": {"android": "https://dc.lft.to/lastmile_qr_scan", "ios": "https://dc.lft.to/lastmile_qr_scan"}, "fusion_lon": 0.0, "lat": 38.941651666666665, "bike_id": "6308932e8387b42e353b602100cee446", "type": "electric_scooter", "is_reserved": 0, "lon": -77.0250345}, {"fusion_lat": 0.0, "name": "5f949cf1bf95fe7dac04f18f8596421b", "is_disabled": 0, "rental_uris": {"android": "https://dc.lft.to/lastmile_qr_scan", "ios": "https://dc.lft.to/lastmile_qr_scan"}, "fusion_lon": 0.0, "lat": 38.929073, "bike_id": "5f949cf1bf95fe7dac04f18f8596421b", "type": "electric_scooter", "is_reserved": 0, "lon": -77.064062}, {"fusion_lat": 0.0, "name": "a530371433c69a0d14919e536160a9cb", "is_disabled": 0, "rental_uris": {"android": "https://dc.lft.to/lastmile_qr_scan", "ios": "https://dc.lft.to/lastmile_qr_scan"}, "fusion_lon": 0.0, "lat": 38.9597195, "bike_id": "a530371433c69a0d14919e536160a9cb", "type": "electric_bike", "is_reserved": 0, "lon": -76.98150683333333}, {"fusion_lat": 0.0, "name": "2aece8f659b33ab76bcdec323c337273", "is_disabled": 0, "rental_uris": {"android": "https://dc.lft.to/lastmile_qr_scan", "ios": "https://dc.lft.to/lastmile_qr_scan"}, "fusion_lon": 0.0, "lat": 38.901335333333336, "bike_id": "2aece8f659b33ab76bcdec323c337273", "type": "electric_scooter", "is_reserved": 0, "lon": -77.0032485}, {"fusion_lat": 0.0, "name": "9a893c16bd1bc00b3a67d3cdc81bc425", "is_disabled": 0, "rental_uris": {"android": "https://dc.lft.to/lastmile_qr_scan", "ios": "https://dc.lft.to/lastmile_qr_scan"}, "fusion_lon": 0.0, "lat": 38.9285865, "bike_id": "9a893c16bd1bc00b3a67d3cdc81bc425", "type": "electric_scooter", "is_reserved": 0, "lon": -77.03100933333333}, {"fusion_lat": 0.0, "name": "fef3560a5f4d91aa399a7236731db45c", "is_disabled": 0, "rental_uris": {"android": "https://dc.lft.to/lastmile_qr_scan", "ios": "https://dc.lft.to/lastmile_qr_scan"}, "fusion_lon": 0.0, "lat": 38.926535666666666, "bike_id": "fef3560a5f4d91aa399a7236731db45c", "type": "electric_scooter", "is_reserved": 0, "lon": -77.02693383333333}, {"fusion_lat": 0.0, "name": "7dc4f540fb0a66946e1d6561e86751c8", "is_disabled": 0, "rental_uris": {"android": "https://dc.lft.to/lastmile_qr_scan", "ios": "https://dc.lft.to/lastmile_qr_scan"}, "fusion_lon": 0.0, "lat": 38.8990685, "bike_id": "7dc4f540fb0a66946e1d6561e86751c8", "type": "electric_scooter", "is_reserved": 0, "lon": -76.93353616666667}, {"fusion_lat": 0.0, "name": "aff242731fab82c1688f5339d07fe35c", "is_disabled": 0, "rental_uris": {"android": "https://dc.lft.to/lastmile_qr_scan", "ios": "https://dc.lft.to/lastmile_qr_scan"}, "fusion_lon": 0.0, "lat": 38.9204205, "bike_id": "aff242731fab82c1688f5339d07fe35c", "type": "electric_scooter", "is_reserved": 0, "lon": -77.04814283333333}, {"fusion_lat": 0.0, "name": "c3c6bb8112ba291c267dabd8d8504b52", "is_disabled": 0, "rental_uris": {"android": "https://dc.lft.to/lastmile_qr_scan", "ios": "https://dc.lft.to/lastmile_qr_scan"}, "fusion_lon": 0.0, "lat": 38.920838833333335, "bike_id": "c3c6bb8112ba291c267dabd8d8504b52", "type": "electric_scooter", "is_reserved": 0, "lon": -77.01821916666667}, {"fusion_lat": 0.0, "name": "f6341b4ba827a4fa1170224f5a29f3b5", "is_disabled": 0, "rental_uris": {"android": "https://dc.lft.to/lastmile_qr_scan", "ios": "https://dc.lft.to/lastmile_qr_scan"}, "fusion_lon": 0.0, "lat": 38.957609166666664, "bike_id": "f6341b4ba827a4fa1170224f5a29f3b5", "type": "electric_bike", "is_reserved": 0, "lon": -76.98089233333333}, {"fusion_lat": 0.0, "name": "bfafa76feb54f32d1e6c8962dbbf519c", "is_disabled": 0, "rental_uris": {"android": "https://dc.lft.to/lastmile_qr_scan", "ios": "https://dc.lft.to/lastmile_qr_scan"}, "fusion_lon": 0.0, "lat": 38.901342, "bike_id": "bfafa76feb54f32d1e6c8962dbbf519c", "type": "electric_scooter", "is_reserved": 0, "lon": -77.044761}, {"fusion_lat": 0.0, "name": "2cf3c5b20cd6797a0790f06c092f84b4", "is_disabled": 0, "rental_uris": {"android": "https://dc.lft.to/lastmile_qr_scan", "ios": "https://dc.lft.to/lastmile_qr_scan"}, "fusion_lon": 0.0, "lat": 38.89633033333333, "bike_id": "2cf3c5b20cd6797a0790f06c092f84b4", "type": "electric_scooter", "is_reserved": 0, "lon": -77.046594}, {"fusion_lat": 0.0, "name": "c1ee4584f74c53944611fcd3079ab6e1", "is_disabled": 0, "rental_uris": {"android": "https://dc.lft.to/lastmile_qr_scan", "ios": "https://dc.lft.to/lastmile_qr_scan"}, "fusion_lon": 0.0, "lat": 38.89892533333333, "bike_id": "c1ee4584f74c53944611fcd3079ab6e1", "type": "electric_scooter", "is_reserved": 0, "lon": -77.03271466666666}, {"fusion_lat": 0.0, "name": "fef57c3cce82871ce7b1e2c4119840d1", "is_disabled": 0, "rental_uris": {"android": "https://dc.lft.to/lastmile_qr_scan", "ios": "https://dc.lft.to/lastmile_qr_scan"}, "fusion_lon": 0.0, "lat": 38.885032833333334, "bike_id": "fef57c3cce82871ce7b1e2c4119840d1", "type": "electric_scooter", "is_reserved": 0, "lon": -77.0209355}, {"fusion_lat": 0.0, "name": "ab3c53c91ef1426c08ffaba3cd180e68", "is_disabled": 0, "rental_uris": {"android": "https://dc.lft.to/lastmile_qr_scan", "ios": "https://dc.lft.to/lastmile_qr_scan"}, "fusion_lon": 0.0, "lat": 38.92014433333333, "bike_id": "ab3c53c91ef1426c08ffaba3cd180e68", "type": "electric_scooter", "is_reserved": 0, "lon": -77.01780266666667}, {"fusion_lat": 0.0, "name": "42641142c79f57a2d53240229ff2ed6a", "is_disabled": 0, "rental_uris": {"android": "https://dc.lft.to/lastmile_qr_scan", "ios": "https://dc.lft.to/lastmile_qr_scan"}, "fusion_lon": 0.0, "lat": 38.90930566666667, "bike_id": "42641142c79f57a2d53240229ff2ed6a", "type": "electric_scooter", "is_reserved": 0, "lon": -77.02128016666667}, {"fusion_lat": 0.0, "name": "113d4ca60665fd580e072ed2e53d5b30", "is_disabled": 0, "rental_uris": {"android": "https://dc.lft.to/lastmile_qr_scan", "ios": "https://dc.lft.to/lastmile_qr_scan"}, "fusion_lon": 0.0, "lat": 38.889903833333335, "bike_id": "113d4ca60665fd580e072ed2e53d5b30", "type": "electric_scooter", "is_reserved": 0, "lon": -76.98739666666667}, {"fusion_lat": 0.0, "name": "9159926b6ddd13065ca7ae2b20e933cd", "is_disabled": 0, "rental_uris": {"android": "https://dc.lft.to/lastmile_qr_scan", "ios": "https://dc.lft.to/lastmile_qr_scan"}, "fusion_lon": 0.0, "lat": 38.895498333333336, "bike_id": "9159926b6ddd13065ca7ae2b20e933cd", "type": "electric_scooter", "is_reserved": 0, "lon": -77.028197}, {"fusion_lat": 0.0, "name": "23a0003cd8d5c8e444058fbc2eb0fa85", "is_disabled": 0, "rental_uris": {"android": "https://dc.lft.to/lastmile_qr_scan", "ios": "https://dc.lft.to/lastmile_qr_scan"}, "fusion_lon": 0.0, "lat": 38.8983075, "bike_id": "23a0003cd8d5c8e444058fbc2eb0fa85", "type": "electric_scooter", "is_reserved": 0, "lon": -77.03161316666667}, {"fusion_lat": 0.0, "name": "1cefc93f229bfd7fe37c5b156eabbc51", "is_disabled": 0, "rental_uris": {"android": "https://dc.lft.to/lastmile_qr_scan", "ios": "https://dc.lft.to/lastmile_qr_scan"}, "fusion_lon": 0.0, "lat": 38.9037815, "bike_id": "1cefc93f229bfd7fe37c5b156eabbc51", "type": "electric_scooter", "is_reserved": 0, "lon": -77.0173675}, {"fusion_lat": 0.0, "name": "c9497f7a6970d80890bb5c9b5c44ca0d", "is_disabled": 0, "rental_uris": {"android": "https://dc.lft.to/lastmile_qr_scan", "ios": "https://dc.lft.to/lastmile_qr_scan"}, "fusion_lon": 0.0, "lat": 38.9394295, "bike_id": "c9497f7a6970d80890bb5c9b5c44ca0d", "type": "electric_scooter", "is_reserved": 0, "lon": -77.03333516666666}, {"fusion_lat": 0.0, "name": "bf3a84f16f2f7ddb5435714bc8977988", "is_disabled": 0, "rental_uris": {"android": "https://dc.lft.to/lastmile_qr_scan", "ios": "https://dc.lft.to/lastmile_qr_scan"}, "fusion_lon": 0.0, "lat": 38.88313616666667, "bike_id": "bf3a84f16f2f7ddb5435714bc8977988", "type": "electric_scooter", "is_reserved": 0, "lon": -77.017531}, {"fusion_lat": 0.0, "name": "6469b4d24c89aa1ff0fc38df9320ea8b", "is_disabled": 0, "rental_uris": {"android": "https://dc.lft.to/lastmile_qr_scan", "ios": "https://dc.lft.to/lastmile_qr_scan"}, "fusion_lon": 0.0, "lat": 38.906716333333335, "bike_id": "6469b4d24c89aa1ff0fc38df9320ea8b", "type": "electric_scooter", "is_reserved": 0, "lon": -77.075051}, {"fusion_lat": 0.0, "name": "f3a241e80af2cc40c7d2aee89aad7c11", "is_disabled": 0, "rental_uris": {"android": "https://dc.lft.to/lastmile_qr_scan", "ios": "https://dc.lft.to/lastmile_qr_scan"}, "fusion_lon": 0.0, "lat": 38.87293416666667, "bike_id": "f3a241e80af2cc40c7d2aee89aad7c11", "type": "electric_scooter", "is_reserved": 0, "lon": -77.00983433333333}, {"fusion_lat": 0.0, "name": "a5b3f30ca403880472926ac8b950b74f", "is_disabled": 0, "rental_uris": {"android": "https://dc.lft.to/lastmile_qr_scan", "ios": "https://dc.lft.to/lastmile_qr_scan"}, "fusion_lon": 0.0, "lat": 38.949648333333336, "bike_id": "a5b3f30ca403880472926ac8b950b74f", "type": "electric_scooter", "is_reserved": 0, "lon": -77.07526766666666}, {"fusion_lat": 0.0, "name": "2f814e638bd4355fbac7d21cf035e9a4", "is_disabled": 0, "rental_uris": {"android": "https://dc.lft.to/lastmile_qr_scan", "ios": "https://dc.lft.to/lastmile_qr_scan"}, "fusion_lon": 0.0, "lat": 38.9589695, "bike_id": "2f814e638bd4355fbac7d21cf035e9a4", "type": "electric_scooter", "is_reserved": 0, "lon": -77.02764}, {"fusion_lat": 0.0, "name": "adb021f4f2517fbe961a3346d8460e10", "is_disabled": 0, "rental_uris": {"android": "https://dc.lft.to/lastmile_qr_scan", "ios": "https://dc.lft.to/lastmile_qr_scan"}, "fusion_lon": 0.0, "lat": 38.905292, "bike_id": "adb021f4f2517fbe961a3346d8460e10", "type": "electric_scooter", "is_reserved": 0, "lon": -77.03473983333333}, {"fusion_lat": 0.0, "name": "55797e42376f5cd9ec9f51dab456d95c", "is_disabled": 0, "rental_uris": {"android": "https://dc.lft.to/lastmile_qr_scan", "ios": "https://dc.lft.to/lastmile_qr_scan"}, "fusion_lon": 0.0, "lat": 38.942981, "bike_id": "55797e42376f5cd9ec9f51dab456d95c", "type": "electric_scooter", "is_reserved": 0, "lon": -77.06298366666667}, {"fusion_lat": 0.0, "name": "24cf2bc24506b25318aac06aef04912a", "is_disabled": 0, "rental_uris": {"android": "https://dc.lft.to/lastmile_qr_scan", "ios": "https://dc.lft.to/lastmile_qr_scan"}, "fusion_lon": 0.0, "lat": 38.883801, "bike_id": "24cf2bc24506b25318aac06aef04912a", "type": "electric_scooter", "is_reserved": 0, "lon": -76.93047933333334}, {"fusion_lat": 0.0, "name": "eef240a994570f6df04caaa446862646", "is_disabled": 0, "rental_uris": {"android": "https://dc.lft.to/lastmile_qr_scan", "ios": "https://dc.lft.to/lastmile_qr_scan"}, "fusion_lon": 0.0, "lat": 38.9037875, "bike_id": "eef240a994570f6df04caaa446862646", "type": "electric_scooter", "is_reserved": 0, "lon": -77.0670595}, {"fusion_lat": 0.0, "name": "3c9520e2b89db061c85a554e2650a8bc", "is_disabled": 0, "rental_uris": {"android": "https://dc.lft.to/lastmile_qr_scan", "ios": "https://dc.lft.to/lastmile_qr_scan"}, "fusion_lon": 0.0, "lat": 38.9224685, "bike_id": "3c9520e2b89db061c85a554e2650a8bc", "type": "electric_scooter", "is_reserved": 0, "lon": -77.080831}, {"fusion_lat": 0.0, "name": "2b8587170a537eb58a4e4663e7a5cb8d", "is_disabled": 0, "rental_uris": {"android": "https://dc.lft.to/lastmile_qr_scan", "ios": "https://dc.lft.to/lastmile_qr_scan"}, "fusion_lon": 0.0, "lat": 38.91557783333333, "bike_id": "2b8587170a537eb58a4e4663e7a5cb8d", "type": "electric_scooter", "is_reserved": 0, "lon": -77.04116466666666}, {"fusion_lat": 0.0, "name": "81cf0147275e8b22ee270ecb0d77f14a", "is_disabled": 0, "rental_uris": {"android": "https://dc.lft.to/lastmile_qr_scan", "ios": "https://dc.lft.to/lastmile_qr_scan"}, "fusion_lon": 0.0, "lat": 38.813331, "bike_id": "81cf0147275e8b22ee270ecb0d77f14a", "type": "electric_bike", "is_reserved": 0, "lon": -77.05090833333334}, {"fusion_lat": 0.0, "name": "1f227d4b7aba1da2c94dcf64d8db6d93", "is_disabled": 0, "rental_uris": {"android": "https://dc.lft.to/lastmile_qr_scan", "ios": "https://dc.lft.to/lastmile_qr_scan"}, "fusion_lon": 0.0, "lat": 38.89642333333333, "bike_id": "1f227d4b7aba1da2c94dcf64d8db6d93", "type": "electric_scooter", "is_reserved": 0, "lon": -77.05002383333333}, {"fusion_lat": 0.0, "name": "afc0e9e6a2d4130a968e4ad94378f8c6", "is_disabled": 0, "rental_uris": {"android": "https://dc.lft.to/lastmile_qr_scan", "ios": "https://dc.lft.to/lastmile_qr_scan"}, "fusion_lon": 0.0, "lat": 38.89677833333333, "bike_id": "afc0e9e6a2d4130a968e4ad94378f8c6", "type": "electric_scooter", "is_reserved": 0, "lon": -77.00520133333333}, {"fusion_lat": 0.0, "name": "df484321f3c7822d7ecb5e2d82f69000", "is_disabled": 0, "rental_uris": {"android": "https://dc.lft.to/lastmile_qr_scan", "ios": "https://dc.lft.to/lastmile_qr_scan"}, "fusion_lon": 0.0, "lat": 38.941599833333335, "bike_id": "df484321f3c7822d7ecb5e2d82f69000", "type": "electric_scooter", "is_reserved": 0, "lon": -77.02507633333333}, {"fusion_lat": 0.0, "name": "7820b594bd8e788f84ad38981f6e4c54", "is_disabled": 0, "rental_uris": {"android": "https://dc.lft.to/lastmile_qr_scan", "ios": "https://dc.lft.to/lastmile_qr_scan"}, "fusion_lon": 0.0, "lat": 38.888064166666666, "bike_id": "7820b594bd8e788f84ad38981f6e4c54", "type": "electric_scooter", "is_reserved": 0, "lon": -76.98354016666667}, {"fusion_lat": 0.0, "name": "45d879136eb01cb31dfb2de8f52dfd99", "is_disabled": 0, "rental_uris": {"android": "https://dc.lft.to/lastmile_qr_scan", "ios": "https://dc.lft.to/lastmile_qr_scan"}, "fusion_lon": 0.0, "lat": 38.9133935, "bike_id": "45d879136eb01cb31dfb2de8f52dfd99", "type": "electric_scooter", "is_reserved": 0, "lon": -77.043438}, {"fusion_lat": 0.0, "name": "a3e67f85a38b592f5e4e43136a61bf10", "is_disabled": 0, "rental_uris": {"android": "https://dc.lft.to/lastmile_qr_scan", "ios": "https://dc.lft.to/lastmile_qr_scan"}, "fusion_lon": 0.0, "lat": 38.86640666666667, "bike_id": "a3e67f85a38b592f5e4e43136a61bf10", "type": "electric_scooter", "is_reserved": 0, "lon": -76.98302883333334}, {"fusion_lat": 0.0, "name": "13abf9226911c3ceed04f8de16d257a7", "is_disabled": 0, "rental_uris": {"android": "https://dc.lft.to/lastmile_qr_scan", "ios": "https://dc.lft.to/lastmile_qr_scan"}, "fusion_lon": 0.0, "lat": 38.925543, "bike_id": "13abf9226911c3ceed04f8de16d257a7", "type": "electric_scooter", "is_reserved": 0, "lon": -76.982993}, {"fusion_lat": 0.0, "name": "266844e42eb39f7255ae76b28cdf1c0d", "is_disabled": 0, "rental_uris": {"android": "https://dc.lft.to/lastmile_qr_scan", "ios": "https://dc.lft.to/lastmile_qr_scan"}, "fusion_lon": 0.0, "lat": 38.9017245, "bike_id": "266844e42eb39f7255ae76b28cdf1c0d", "type": "electric_scooter", "is_reserved": 0, "lon": -77.01592616666667}, {"fusion_lat": 0.0, "name": "1afd0d41be392d737a289ebab2ff2387", "is_disabled": 0, "rental_uris": {"android": "https://dc.lft.to/lastmile_qr_scan", "ios": "https://dc.lft.to/lastmile_qr_scan"}, "fusion_lon": 0.0, "lat": 38.92677533333333, "bike_id": "1afd0d41be392d737a289ebab2ff2387", "type": "electric_scooter", "is_reserved": 0, "lon": -77.03138366666667}, {"fusion_lat": 0.0, "name": "0938a5492cd7a126074544423b795368", "is_disabled": 0, "rental_uris": {"android": "https://dc.lft.to/lastmile_qr_scan", "ios": "https://dc.lft.to/lastmile_qr_scan"}, "fusion_lon": 0.0, "lat": 38.893563666666665, "bike_id": "0938a5492cd7a126074544423b795368", "type": "electric_scooter", "is_reserved": 0, "lon": -77.0279995}, {"fusion_lat": 0.0, "name": "8157bf0236ffe8cee0792dd59eb17813", "is_disabled": 0, "rental_uris": {"android": "https://dc.lft.to/lastmile_qr_scan", "ios": "https://dc.lft.to/lastmile_qr_scan"}, "fusion_lon": 0.0, "lat": 38.91068666666666, "bike_id": "8157bf0236ffe8cee0792dd59eb17813", "type": "electric_scooter", "is_reserved": 0, "lon": -77.03656466666666}, {"fusion_lat": 0.0, "name": "f7f9dd17f82c222b55dd63ccfc56c594", "is_disabled": 0, "rental_uris": {"android": "https://dc.lft.to/lastmile_qr_scan", "ios": "https://dc.lft.to/lastmile_qr_scan"}, "fusion_lon": 0.0, "lat": 38.90717383333333, "bike_id": "f7f9dd17f82c222b55dd63ccfc56c594", "type": "electric_scooter", "is_reserved": 0, "lon": -77.02965133333333}, {"fusion_lat": 0.0, "name": "5170a2b0408c583af1af7a42c18e63a4", "is_disabled": 0, "rental_uris": {"android": "https://dc.lft.to/lastmile_qr_scan", "ios": "https://dc.lft.to/lastmile_qr_scan"}, "fusion_lon": 0.0, "lat": 38.91979716666667, "bike_id": "5170a2b0408c583af1af7a42c18e63a4", "type": "electric_scooter", "is_reserved": 0, "lon": -77.02398283333333}, {"fusion_lat": 0.0, "name": "026d49d7a4412ff462005840836aed52", "is_disabled": 0, "rental_uris": {"android": "https://dc.lft.to/lastmile_qr_scan", "ios": "https://dc.lft.to/lastmile_qr_scan"}, "fusion_lon": 0.0, "lat": 38.906880666666666, "bike_id": "026d49d7a4412ff462005840836aed52", "type": "electric_scooter", "is_reserved": 0, "lon": -77.07466266666667}, {"fusion_lat": 0.0, "name": "b6808e45a0f1bc83c315f5968a2cf6b6", "is_disabled": 0, "rental_uris": {"android": "https://dc.lft.to/lastmile_qr_scan", "ios": "https://dc.lft.to/lastmile_qr_scan"}, "fusion_lon": 0.0, "lat": 38.93113683333333, "bike_id": "b6808e45a0f1bc83c315f5968a2cf6b6", "type": "electric_scooter", "is_reserved": 0, "lon": -77.023938}, {"fusion_lat": 0.0, "name": "3ad4215a6326455307d395b20b58a1bb", "is_disabled": 0, "rental_uris": {"android": "https://dc.lft.to/lastmile_qr_scan", "ios": "https://dc.lft.to/lastmile_qr_scan"}, "fusion_lon": 0.0, "lat": 38.90565616666667, "bike_id": "3ad4215a6326455307d395b20b58a1bb", "type": "electric_scooter", "is_reserved": 0, "lon": -77.00566683333334}, {"fusion_lat": 0.0, "name": "90fd71b191e28f81ca6593ec137e297e", "is_disabled": 0, "rental_uris": {"android": "https://dc.lft.to/lastmile_qr_scan", "ios": "https://dc.lft.to/lastmile_qr_scan"}, "fusion_lon": 0.0, "lat": 38.915655, "bike_id": "90fd71b191e28f81ca6593ec137e297e", "type": "electric_scooter", "is_reserved": 0, "lon": -77.0209025}, {"fusion_lat": 0.0, "name": "33d1a51fdaf30a8e2c0b43684239a2c8", "is_disabled": 0, "rental_uris": {"android": "https://dc.lft.to/lastmile_qr_scan", "ios": "https://dc.lft.to/lastmile_qr_scan"}, "fusion_lon": 0.0, "lat": 38.911347, "bike_id": "33d1a51fdaf30a8e2c0b43684239a2c8", "type": "electric_bike", "is_reserved": 0, "lon": -77.0657905}, {"fusion_lat": 0.0, "name": "868e6e7cfa26c6bf811ac47a3752f21f", "is_disabled": 0, "rental_uris": {"android": "https://dc.lft.to/lastmile_qr_scan", "ios": "https://dc.lft.to/lastmile_qr_scan"}, "fusion_lon": 0.0, "lat": 38.89829733333333, "bike_id": "868e6e7cfa26c6bf811ac47a3752f21f", "type": "electric_scooter", "is_reserved": 0, "lon": -76.94653333333333}, {"fusion_lat": 0.0, "name": "790ffb12a399100388d8b667312d962b", "is_disabled": 0, "rental_uris": {"android": "https://dc.lft.to/lastmile_qr_scan", "ios": "https://dc.lft.to/lastmile_qr_scan"}, "fusion_lon": 0.0, "lat": 38.95083783333333, "bike_id": "790ffb12a399100388d8b667312d962b", "type": "electric_scooter", "is_reserved": 0, "lon": -77.02821166666666}, {"fusion_lat": 0.0, "name": "fcfac6c754da3f69aab6e80f49be6dec", "is_disabled": 0, "rental_uris": {"android": "https://dc.lft.to/lastmile_qr_scan", "ios": "https://dc.lft.to/lastmile_qr_scan"}, "fusion_lon": 0.0, "lat": 38.946493833333335, "bike_id": "fcfac6c754da3f69aab6e80f49be6dec", "type": "electric_scooter", "is_reserved": 0, "lon": -77.064859}, {"fusion_lat": 0.0, "name": "c7c3f0ca3460a97bba86dbe827c45e33", "is_disabled": 0, "rental_uris": {"android": "https://dc.lft.to/lastmile_qr_scan", "ios": "https://dc.lft.to/lastmile_qr_scan"}, "fusion_lon": 0.0, "lat": 38.898340166666664, "bike_id": "c7c3f0ca3460a97bba86dbe827c45e33", "type": "electric_scooter", "is_reserved": 0, "lon": -76.93177083333333}, {"fusion_lat": 0.0, "name": "487ff7221a55f8aeabe1fc0d9cfb1b94", "is_disabled": 0, "rental_uris": {"android": "https://dc.lft.to/lastmile_qr_scan", "ios": "https://dc.lft.to/lastmile_qr_scan"}, "fusion_lon": 0.0, "lat": 38.840543833333335, "bike_id": "487ff7221a55f8aeabe1fc0d9cfb1b94", "type": "electric_scooter", "is_reserved": 0, "lon": -76.97665616666667}, {"fusion_lat": 0.0, "name": "341f28d1bbe3900eaffeb45ddfa4a5ce", "is_disabled": 0, "rental_uris": {"android": "https://dc.lft.to/lastmile_qr_scan", "ios": "https://dc.lft.to/lastmile_qr_scan"}, "fusion_lon": 0.0, "lat": 38.904510333333334, "bike_id": "341f28d1bbe3900eaffeb45ddfa4a5ce", "type": "electric_bike", "is_reserved": 0, "lon": -76.97424116666667}, {"fusion_lat": 0.0, "name": "f8d6e73d4f464b8766724795a8074a94", "is_disabled": 0, "rental_uris": {"android": "https://dc.lft.to/lastmile_qr_scan", "ios": "https://dc.lft.to/lastmile_qr_scan"}, "fusion_lon": 0.0, "lat": 38.898421666666664, "bike_id": "f8d6e73d4f464b8766724795a8074a94", "type": "electric_scooter", "is_reserved": 0, "lon": -77.01336233333333}, {"fusion_lat": 0.0, "name": "776ee2426ea1939efd1f12ebb38be562", "is_disabled": 0, "rental_uris": {"android": "https://dc.lft.to/lastmile_qr_scan", "ios": "https://dc.lft.to/lastmile_qr_scan"}, "fusion_lon": 0.0, "lat": 38.92417366666667, "bike_id": "776ee2426ea1939efd1f12ebb38be562", "type": "electric_scooter", "is_reserved": 0, "lon": -76.99626}, {"fusion_lat": 0.0, "name": "e551b076c7c005da1dbd47a10830d7e6", "is_disabled": 0, "rental_uris": {"android": "https://dc.lft.to/lastmile_qr_scan", "ios": "https://dc.lft.to/lastmile_qr_scan"}, "fusion_lon": 0.0, "lat": 38.88766966666667, "bike_id": "e551b076c7c005da1dbd47a10830d7e6", "type": "electric_scooter", "is_reserved": 0, "lon": -77.03303983333333}, {"fusion_lat": 0.0, "name": "912876cd6b51c4ddba8dff17bf8619c9", "is_disabled": 0, "rental_uris": {"android": "https://dc.lft.to/lastmile_qr_scan", "ios": "https://dc.lft.to/lastmile_qr_scan"}, "fusion_lon": 0.0, "lat": 38.935810000000004, "bike_id": "912876cd6b51c4ddba8dff17bf8619c9", "type": "electric_scooter", "is_reserved": 0, "lon": -77.02848216666666}, {"fusion_lat": 0.0, "name": "67f1958aa289ee15dc8f8bbbfe3aa0e5", "is_disabled": 0, "rental_uris": {"android": "https://dc.lft.to/lastmile_qr_scan", "ios": "https://dc.lft.to/lastmile_qr_scan"}, "fusion_lon": 0.0, "lat": 38.8540785, "bike_id": "67f1958aa289ee15dc8f8bbbfe3aa0e5", "type": "electric_bike", "is_reserved": 0, "lon": -77.120816}, {"fusion_lat": 0.0, "name": "9a662ae192cfc9444b2036e0665e11f7", "is_disabled": 0, "rental_uris": {"android": "https://dc.lft.to/lastmile_qr_scan", "ios": "https://dc.lft.to/lastmile_qr_scan"}, "fusion_lon": 0.0, "lat": 38.925144333333336, "bike_id": "9a662ae192cfc9444b2036e0665e11f7", "type": "electric_scooter", "is_reserved": 0, "lon": -77.02287166666666}, {"fusion_lat": 0.0, "name": "381a9b7d17906b40234a26aced90cc70", "is_disabled": 0, "rental_uris": {"android": "https://dc.lft.to/lastmile_qr_scan", "ios": "https://dc.lft.to/lastmile_qr_scan"}, "fusion_lon": 0.0, "lat": 38.90766516666667, "bike_id": "381a9b7d17906b40234a26aced90cc70", "type": "electric_scooter", "is_reserved": 0, "lon": -77.05594883333333}, {"fusion_lat": 0.0, "name": "551536cf65397838f3adeb2457b1ed19", "is_disabled": 0, "rental_uris": {"android": "https://dc.lft.to/lastmile_qr_scan", "ios": "https://dc.lft.to/lastmile_qr_scan"}, "fusion_lon": 0.0, "lat": 38.952237333333336, "bike_id": "551536cf65397838f3adeb2457b1ed19", "type": "electric_scooter", "is_reserved": 0, "lon": -77.08219583333333}, {"fusion_lat": 0.0, "name": "5491cc99a7be249fab8b9ef466a628fb", "is_disabled": 0, "rental_uris": {"android": "https://dc.lft.to/lastmile_qr_scan", "ios": "https://dc.lft.to/lastmile_qr_scan"}, "fusion_lon": 0.0, "lat": 38.985493166666664, "bike_id": "5491cc99a7be249fab8b9ef466a628fb", "type": "electric_bike", "is_reserved": 0, "lon": -77.00402433333333}, {"fusion_lat": 0.0, "name": "3bffc228570f9f9b07bedb40d073ea6f", "is_disabled": 0, "rental_uris": {"android": "https://dc.lft.to/lastmile_qr_scan", "ios": "https://dc.lft.to/lastmile_qr_scan"}, "fusion_lon": 0.0, "lat": 38.9199195, "bike_id": "3bffc228570f9f9b07bedb40d073ea6f", "type": "electric_scooter", "is_reserved": 0, "lon": -77.071917}, {"fusion_lat": 0.0, "name": "f4fc57e33899b770478a540c57eeab7a", "is_disabled": 0, "rental_uris": {"android": "https://dc.lft.to/lastmile_qr_scan", "ios": "https://dc.lft.to/lastmile_qr_scan"}, "fusion_lon": 0.0, "lat": 38.912682, "bike_id": "f4fc57e33899b770478a540c57eeab7a", "type": "electric_scooter", "is_reserved": 0, "lon": -77.03868766666666}, {"fusion_lat": 0.0, "name": "52ec12564dc23f9c871790002f45def6", "is_disabled": 0, "rental_uris": {"android": "https://dc.lft.to/lastmile_qr_scan", "ios": "https://dc.lft.to/lastmile_qr_scan"}, "fusion_lon": 0.0, "lat": 38.908655333333336, "bike_id": "52ec12564dc23f9c871790002f45def6", "type": "electric_scooter", "is_reserved": 0, "lon": -77.04472216666667}, {"fusion_lat": 0.0, "name": "e5dc4f70da4b3a9bd9a7d42bc426ff36", "is_disabled": 0, "rental_uris": {"android": "https://dc.lft.to/lastmile_qr_scan", "ios": "https://dc.lft.to/lastmile_qr_scan"}, "fusion_lon": 0.0, "lat": 38.90028316666667, "bike_id": "e5dc4f70da4b3a9bd9a7d42bc426ff36", "type": "electric_scooter", "is_reserved": 0, "lon": -77.035097}, {"fusion_lat": 0.0, "name": "665324f56997a860ae45616641f40b53", "is_disabled": 0, "rental_uris": {"android": "https://dc.lft.to/lastmile_qr_scan", "ios": "https://dc.lft.to/lastmile_qr_scan"}, "fusion_lon": 0.0, "lat": 38.92102283333333, "bike_id": "665324f56997a860ae45616641f40b53", "type": "electric_scooter", "is_reserved": 0, "lon": -76.99463533333333}, {"fusion_lat": 0.0, "name": "2fe444ea2d9fa141377d8c3b53d116e5", "is_disabled": 0, "rental_uris": {"android": "https://dc.lft.to/lastmile_qr_scan", "ios": "https://dc.lft.to/lastmile_qr_scan"}, "fusion_lon": 0.0, "lat": 38.9429445, "bike_id": "2fe444ea2d9fa141377d8c3b53d116e5", "type": "electric_scooter", "is_reserved": 0, "lon": -77.0217}, {"fusion_lat": 0.0, "name": "03423e7cea817c7468a4f72fe0a48111", "is_disabled": 0, "rental_uris": {"android": "https://dc.lft.to/lastmile_qr_scan", "ios": "https://dc.lft.to/lastmile_qr_scan"}, "fusion_lon": 0.0, "lat": 38.883011, "bike_id": "03423e7cea817c7468a4f72fe0a48111", "type": "electric_scooter", "is_reserved": 0, "lon": -76.94855733333333}, {"fusion_lat": 0.0, "name": "e692bebb8e87c939315149ff7e29eb6f", "is_disabled": 0, "rental_uris": {"android": "https://dc.lft.to/lastmile_qr_scan", "ios": "https://dc.lft.to/lastmile_qr_scan"}, "fusion_lon": 0.0, "lat": 38.88422166666667, "bike_id": "e692bebb8e87c939315149ff7e29eb6f", "type": "electric_scooter", "is_reserved": 0, "lon": -76.957456}, {"fusion_lat": 0.0, "name": "2328a8239ec5b3bccb49efa413763092", "is_disabled": 0, "rental_uris": {"android": "https://dc.lft.to/lastmile_qr_scan", "ios": "https://dc.lft.to/lastmile_qr_scan"}, "fusion_lon": 0.0, "lat": 38.883078, "bike_id": "2328a8239ec5b3bccb49efa413763092", "type": "electric_scooter", "is_reserved": 0, "lon": -77.02490466666667}, {"fusion_lat": 0.0, "name": "c483c7ed4d57189b131304774f6b2482", "is_disabled": 0, "rental_uris": {"android": "https://dc.lft.to/lastmile_qr_scan", "ios": "https://dc.lft.to/lastmile_qr_scan"}, "fusion_lon": 0.0, "lat": 38.92478366666667, "bike_id": "c483c7ed4d57189b131304774f6b2482", "type": "electric_scooter", "is_reserved": 0, "lon": -77.0263075}, {"fusion_lat": 0.0, "name": "3e70d7467fcc2776632e5638d0234188", "is_disabled": 0, "rental_uris": {"android": "https://dc.lft.to/lastmile_qr_scan", "ios": "https://dc.lft.to/lastmile_qr_scan"}, "fusion_lon": 0.0, "lat": 38.914259666666666, "bike_id": "3e70d7467fcc2776632e5638d0234188", "type": "electric_scooter", "is_reserved": 0, "lon": -77.03467683333334}, {"fusion_lat": 0.0, "name": "b7f76c53fc546f296273665c5a3b8a5f", "is_disabled": 0, "rental_uris": {"android": "https://dc.lft.to/lastmile_qr_scan", "ios": "https://dc.lft.to/lastmile_qr_scan"}, "fusion_lon": 0.0, "lat": 38.813334, "bike_id": "b7f76c53fc546f296273665c5a3b8a5f", "type": "electric_bike", "is_reserved": 0, "lon": -77.05093683333334}, {"fusion_lat": 0.0, "name": "2600393a1940473e0021683d1b90f732", "is_disabled": 0, "rental_uris": {"android": "https://dc.lft.to/lastmile_qr_scan", "ios": "https://dc.lft.to/lastmile_qr_scan"}, "fusion_lon": 0.0, "lat": 38.9350965, "bike_id": "2600393a1940473e0021683d1b90f732", "type": "electric_scooter", "is_reserved": 0, "lon": -77.03261816666667}, {"fusion_lat": 0.0, "name": "6b3185937a0f87fa08778606c5e3f11c", "is_disabled": 0, "rental_uris": {"android": "https://dc.lft.to/lastmile_qr_scan", "ios": "https://dc.lft.to/lastmile_qr_scan"}, "fusion_lon": 0.0, "lat": 38.931973666666664, "bike_id": "6b3185937a0f87fa08778606c5e3f11c", "type": "electric_bike", "is_reserved": 0, "lon": -77.22927583333333}, {"fusion_lat": 0.0, "name": "85032e14039ba9e4d8435f953f9f4ecd", "is_disabled": 0, "rental_uris": {"android": "https://dc.lft.to/lastmile_qr_scan", "ios": "https://dc.lft.to/lastmile_qr_scan"}, "fusion_lon": 0.0, "lat": 38.920162166666664, "bike_id": "85032e14039ba9e4d8435f953f9f4ecd", "type": "electric_scooter", "is_reserved": 0, "lon": -77.03140966666666}, {"fusion_lat": 0.0, "name": "4be237494310527fbbe33af6a0dd9ad9", "is_disabled": 0, "rental_uris": {"android": "https://dc.lft.to/lastmile_qr_scan", "ios": "https://dc.lft.to/lastmile_qr_scan"}, "fusion_lon": 0.0, "lat": 38.883198166666666, "bike_id": "4be237494310527fbbe33af6a0dd9ad9", "type": "electric_scooter", "is_reserved": 0, "lon": -77.0175085}, {"fusion_lat": 0.0, "name": "accc2b715ab30022cabd1bf9c03686a7", "is_disabled": 0, "rental_uris": {"android": "https://dc.lft.to/lastmile_qr_scan", "ios": "https://dc.lft.to/lastmile_qr_scan"}, "fusion_lon": 0.0, "lat": 38.9345735, "bike_id": "accc2b715ab30022cabd1bf9c03686a7", "type": "electric_scooter", "is_reserved": 0, "lon": -77.07272766666667}, {"fusion_lat": 0.0, "name": "26c2f56ddec2c852292a61098663a198", "is_disabled": 0, "rental_uris": {"android": "https://dc.lft.to/lastmile_qr_scan", "ios": "https://dc.lft.to/lastmile_qr_scan"}, "fusion_lon": 0.0, "lat": 38.9004265, "bike_id": "26c2f56ddec2c852292a61098663a198", "type": "electric_scooter", "is_reserved": 0, "lon": -77.00212433333333}, {"fusion_lat": 0.0, "name": "725abead311b758f325fb11a805f4d1a", "is_disabled": 0, "rental_uris": {"android": "https://dc.lft.to/lastmile_qr_scan", "ios": "https://dc.lft.to/lastmile_qr_scan"}, "fusion_lon": 0.0, "lat": 38.88401133333333, "bike_id": "725abead311b758f325fb11a805f4d1a", "type": "electric_bike", "is_reserved": 0, "lon": -76.9605735}, {"fusion_lat": 0.0, "name": "9943eb1c34c703f18dc1b15454b55c9a", "is_disabled": 0, "rental_uris": {"android": "https://dc.lft.to/lastmile_qr_scan", "ios": "https://dc.lft.to/lastmile_qr_scan"}, "fusion_lon": 0.0, "lat": 38.9170165, "bike_id": "9943eb1c34c703f18dc1b15454b55c9a", "type": "electric_scooter", "is_reserved": 0, "lon": -77.03123116666667}, {"fusion_lat": 0.0, "name": "a6a1a73542588fa0512a7f2db8ea3195", "is_disabled": 0, "rental_uris": {"android": "https://dc.lft.to/lastmile_qr_scan", "ios": "https://dc.lft.to/lastmile_qr_scan"}, "fusion_lon": 0.0, "lat": 38.89718533333333, "bike_id": "a6a1a73542588fa0512a7f2db8ea3195", "type": "electric_scooter", "is_reserved": 0, "lon": -77.0084945}, {"fusion_lat": 0.0, "name": "3f9d77365658966500020063d3c8496e", "is_disabled": 0, "rental_uris": {"android": "https://dc.lft.to/lastmile_qr_scan", "ios": "https://dc.lft.to/lastmile_qr_scan"}, "fusion_lon": 0.0, "lat": 38.8811325, "bike_id": "3f9d77365658966500020063d3c8496e", "type": "electric_scooter", "is_reserved": 0, "lon": -76.9985575}, {"fusion_lat": 0.0, "name": "b3e0f6b8e1acb9a40b4fde152f0b69cc", "is_disabled": 0, "rental_uris": {"android": "https://dc.lft.to/lastmile_qr_scan", "ios": "https://dc.lft.to/lastmile_qr_scan"}, "fusion_lon": 0.0, "lat": 38.87944, "bike_id": "b3e0f6b8e1acb9a40b4fde152f0b69cc", "type": "electric_bike", "is_reserved": 0, "lon": -77.00759666666667}, {"fusion_lat": 0.0, "name": "155093c6c9971f3e4e4c22755e52563d", "is_disabled": 0, "rental_uris": {"android": "https://dc.lft.to/lastmile_qr_scan", "ios": "https://dc.lft.to/lastmile_qr_scan"}, "fusion_lon": 0.0, "lat": 38.86267383333333, "bike_id": "155093c6c9971f3e4e4c22755e52563d", "type": "electric_bike", "is_reserved": 0, "lon": -76.98355333333333}, {"fusion_lat": 0.0, "name": "b8379f5e3a1b27d22f90f5675499f8ec", "is_disabled": 0, "rental_uris": {"android": "https://dc.lft.to/lastmile_qr_scan", "ios": "https://dc.lft.to/lastmile_qr_scan"}, "fusion_lon": 0.0, "lat": 38.93673666666667, "bike_id": "b8379f5e3a1b27d22f90f5675499f8ec", "type": "electric_scooter", "is_reserved": 0, "lon": -77.03594983333333}, {"fusion_lat": 0.0, "name": "4f9523643f8cbe8529703fe7da72830c", "is_disabled": 0, "rental_uris": {"android": "https://dc.lft.to/lastmile_qr_scan", "ios": "https://dc.lft.to/lastmile_qr_scan"}, "fusion_lon": 0.0, "lat": 38.886174833333335, "bike_id": "4f9523643f8cbe8529703fe7da72830c", "type": "electric_scooter", "is_reserved": 0, "lon": -77.02012416666666}, {"fusion_lat": 0.0, "name": "57915bf3b4aa4d427d018edd4e549d4f", "is_disabled": 0, "rental_uris": {"android": "https://dc.lft.to/lastmile_qr_scan", "ios": "https://dc.lft.to/lastmile_qr_scan"}, "fusion_lon": 0.0, "lat": 38.88723383333333, "bike_id": "57915bf3b4aa4d427d018edd4e549d4f", "type": "electric_scooter", "is_reserved": 0, "lon": -77.01330083333333}, {"fusion_lat": 0.0, "name": "2abede24a30a6225fe2047d5f47b73d9", "is_disabled": 0, "rental_uris": {"android": "https://dc.lft.to/lastmile_qr_scan", "ios": "https://dc.lft.to/lastmile_qr_scan"}, "fusion_lon": 0.0, "lat": 38.921459666666664, "bike_id": "2abede24a30a6225fe2047d5f47b73d9", "type": "electric_scooter", "is_reserved": 0, "lon": -77.0321315}, {"fusion_lat": 0.0, "name": "158571a5246fa736721b10f33c55b015", "is_disabled": 0, "rental_uris": {"android": "https://dc.lft.to/lastmile_qr_scan", "ios": "https://dc.lft.to/lastmile_qr_scan"}, "fusion_lon": 0.0, "lat": 38.95372183333333, "bike_id": "158571a5246fa736721b10f33c55b015", "type": "electric_scooter", "is_reserved": 0, "lon": -77.02555333333333}, {"fusion_lat": 0.0, "name": "0c1b923d2d7764f161280685b5c07317", "is_disabled": 0, "rental_uris": {"android": "https://dc.lft.to/lastmile_qr_scan", "ios": "https://dc.lft.to/lastmile_qr_scan"}, "fusion_lon": 0.0, "lat": 38.922762, "bike_id": "0c1b923d2d7764f161280685b5c07317", "type": "electric_scooter", "is_reserved": 0, "lon": -76.99757566666666}, {"fusion_lat": 0.0, "name": "2a3dc522615a0edcca1ad9f5fdcad809", "is_disabled": 0, "rental_uris": {"android": "https://dc.lft.to/lastmile_qr_scan", "ios": "https://dc.lft.to/lastmile_qr_scan"}, "fusion_lon": 0.0, "lat": 38.946651833333334, "bike_id": "2a3dc522615a0edcca1ad9f5fdcad809", "type": "electric_bike", "is_reserved": 0, "lon": -77.00703616666667}, {"fusion_lat": 0.0, "name": "ba71d5943a10d4043a864dbe8fea7fae", "is_disabled": 0, "rental_uris": {"android": "https://dc.lft.to/lastmile_qr_scan", "ios": "https://dc.lft.to/lastmile_qr_scan"}, "fusion_lon": 0.0, "lat": 38.929730666666664, "bike_id": "ba71d5943a10d4043a864dbe8fea7fae", "type": "electric_scooter", "is_reserved": 0, "lon": -77.02799116666667}, {"fusion_lat": 0.0, "name": "95c7597e2dbd60baf95de030ee859ec5", "is_disabled": 0, "rental_uris": {"android": "https://dc.lft.to/lastmile_qr_scan", "ios": "https://dc.lft.to/lastmile_qr_scan"}, "fusion_lon": 0.0, "lat": 38.9224615, "bike_id": "95c7597e2dbd60baf95de030ee859ec5", "type": "electric_scooter", "is_reserved": 0, "lon": -77.02993583333334}, {"fusion_lat": 0.0, "name": "880c2a11440020e11db81fefd78d76f4", "is_disabled": 0, "rental_uris": {"android": "https://dc.lft.to/lastmile_qr_scan", "ios": "https://dc.lft.to/lastmile_qr_scan"}, "fusion_lon": 0.0, "lat": 38.98769566666667, "bike_id": "880c2a11440020e11db81fefd78d76f4", "type": "electric_bike", "is_reserved": 0, "lon": -77.14057233333334}, {"fusion_lat": 0.0, "name": "cd02f96a7ade8c4f1e6d57a2efa8b2b7", "is_disabled": 0, "rental_uris": {"android": "https://dc.lft.to/lastmile_qr_scan", "ios": "https://dc.lft.to/lastmile_qr_scan"}, "fusion_lon": 0.0, "lat": 38.89200533333333, "bike_id": "cd02f96a7ade8c4f1e6d57a2efa8b2b7", "type": "electric_scooter", "is_reserved": 0, "lon": -77.01655966666667}, {"fusion_lat": 0.0, "name": "40f2ad6d7cdd9b55dad137f6a7cfeab3", "is_disabled": 0, "rental_uris": {"android": "https://dc.lft.to/lastmile_qr_scan", "ios": "https://dc.lft.to/lastmile_qr_scan"}, "fusion_lon": 0.0, "lat": 38.91694533333333, "bike_id": "40f2ad6d7cdd9b55dad137f6a7cfeab3", "type": "electric_scooter", "is_reserved": 0, "lon": -77.03588483333333}, {"fusion_lat": 0.0, "name": "f66ba2b884a50abf021cb6bd4805f7d5", "is_disabled": 0, "rental_uris": {"android": "https://dc.lft.to/lastmile_qr_scan", "ios": "https://dc.lft.to/lastmile_qr_scan"}, "fusion_lon": 0.0, "lat": 38.897311333333334, "bike_id": "f66ba2b884a50abf021cb6bd4805f7d5", "type": "electric_scooter", "is_reserved": 0, "lon": -77.043996}, {"fusion_lat": 0.0, "name": "38febeeb424f7ef5803c255838676d7f", "is_disabled": 0, "rental_uris": {"android": "https://dc.lft.to/lastmile_qr_scan", "ios": "https://dc.lft.to/lastmile_qr_scan"}, "fusion_lon": 0.0, "lat": 38.91039083333333, "bike_id": "38febeeb424f7ef5803c255838676d7f", "type": "electric_scooter", "is_reserved": 0, "lon": -77.0642235}, {"fusion_lat": 0.0, "name": "7cc25ebbf4bbc82c63b8e13b37551ecc", "is_disabled": 0, "rental_uris": {"android": "https://dc.lft.to/lastmile_qr_scan", "ios": "https://dc.lft.to/lastmile_qr_scan"}, "fusion_lon": 0.0, "lat": 38.90314816666667, "bike_id": "7cc25ebbf4bbc82c63b8e13b37551ecc", "type": "electric_scooter", "is_reserved": 0, "lon": -77.02885116666667}, {"fusion_lat": 0.0, "name": "57440a30e750ad637f24c3f73042bc77", "is_disabled": 0, "rental_uris": {"android": "https://dc.lft.to/lastmile_qr_scan", "ios": "https://dc.lft.to/lastmile_qr_scan"}, "fusion_lon": 0.0, "lat": 38.956009333333334, "bike_id": "57440a30e750ad637f24c3f73042bc77", "type": "electric_bike", "is_reserved": 0, "lon": -77.010137}, {"fusion_lat": 0.0, "name": "494ec296a0000bf33130941692ceed43", "is_disabled": 0, "rental_uris": {"android": "https://dc.lft.to/lastmile_qr_scan", "ios": "https://dc.lft.to/lastmile_qr_scan"}, "fusion_lon": 0.0, "lat": 38.872430666666666, "bike_id": "494ec296a0000bf33130941692ceed43", "type": "electric_scooter", "is_reserved": 0, "lon": -76.9772945}, {"fusion_lat": 0.0, "name": "4c27299b4d8992247317e448d260bcc8", "is_disabled": 0, "rental_uris": {"android": "https://dc.lft.to/lastmile_qr_scan", "ios": "https://dc.lft.to/lastmile_qr_scan"}, "fusion_lon": 0.0, "lat": 38.90408583333333, "bike_id": "4c27299b4d8992247317e448d260bcc8", "type": "electric_scooter", "is_reserved": 0, "lon": -76.973276}, {"fusion_lat": 0.0, "name": "afd3887db347ea5596b446f2ba3815b6", "is_disabled": 0, "rental_uris": {"android": "https://dc.lft.to/lastmile_qr_scan", "ios": "https://dc.lft.to/lastmile_qr_scan"}, "fusion_lon": 0.0, "lat": 38.978804333333336, "bike_id": "afd3887db347ea5596b446f2ba3815b6", "type": "electric_bike", "is_reserved": 0, "lon": -77.06027283333333}, {"fusion_lat": 0.0, "name": "0c5d1fff1cf26d9e3014d5ceac64fff0", "is_disabled": 0, "rental_uris": {"android": "https://dc.lft.to/lastmile_qr_scan", "ios": "https://dc.lft.to/lastmile_qr_scan"}, "fusion_lon": 0.0, "lat": 38.911211333333334, "bike_id": "0c5d1fff1cf26d9e3014d5ceac64fff0", "type": "electric_scooter", "is_reserved": 0, "lon": -77.0421915}, {"fusion_lat": 0.0, "name": "50b370509f45984164b0b0624ade2c16", "is_disabled": 0, "rental_uris": {"android": "https://dc.lft.to/lastmile_qr_scan", "ios": "https://dc.lft.to/lastmile_qr_scan"}, "fusion_lon": 0.0, "lat": 38.92211416666667, "bike_id": "50b370509f45984164b0b0624ade2c16", "type": "electric_scooter", "is_reserved": 0, "lon": -77.04255683333334}, {"fusion_lat": 0.0, "name": "cb1b4dda95799ae5f9f724f81603bf9e", "is_disabled": 0, "rental_uris": {"android": "https://dc.lft.to/lastmile_qr_scan", "ios": "https://dc.lft.to/lastmile_qr_scan"}, "fusion_lon": 0.0, "lat": 38.91873966666667, "bike_id": "cb1b4dda95799ae5f9f724f81603bf9e", "type": "electric_scooter", "is_reserved": 0, "lon": -77.04470333333333}, {"fusion_lat": 0.0, "name": "f77811992ea04bdd23117ec6e4cfa725", "is_disabled": 0, "rental_uris": {"android": "https://dc.lft.to/lastmile_qr_scan", "ios": "https://dc.lft.to/lastmile_qr_scan"}, "fusion_lon": 0.0, "lat": 38.886164, "bike_id": "f77811992ea04bdd23117ec6e4cfa725", "type": "electric_scooter", "is_reserved": 0, "lon": -77.01971933333333}, {"fusion_lat": 0.0, "name": "33bc9267cbe1cfe9d9ac79c50df2199c", "is_disabled": 0, "rental_uris": {"android": "https://dc.lft.to/lastmile_qr_scan", "ios": "https://dc.lft.to/lastmile_qr_scan"}, "fusion_lon": 0.0, "lat": 38.887345333333336, "bike_id": "33bc9267cbe1cfe9d9ac79c50df2199c", "type": "electric_scooter", "is_reserved": 0, "lon": -77.01535766666667}, {"fusion_lat": 0.0, "name": "bcc08ce12ac0d05e6074bafe03a4d6b3", "is_disabled": 0, "rental_uris": {"android": "https://dc.lft.to/lastmile_qr_scan", "ios": "https://dc.lft.to/lastmile_qr_scan"}, "fusion_lon": 0.0, "lat": 38.874211, "bike_id": "bcc08ce12ac0d05e6074bafe03a4d6b3", "type": "electric_scooter", "is_reserved": 0, "lon": -77.01866783333334}, {"fusion_lat": 0.0, "name": "ea1e6a48a45f08ac37534b9d3dce00c4", "is_disabled": 0, "rental_uris": {"android": "https://dc.lft.to/lastmile_qr_scan", "ios": "https://dc.lft.to/lastmile_qr_scan"}, "fusion_lon": 0.0, "lat": 38.917609166666665, "bike_id": "ea1e6a48a45f08ac37534b9d3dce00c4", "type": "electric_scooter", "is_reserved": 0, "lon": -77.04764783333333}, {"fusion_lat": 0.0, "name": "d2e034f4c75825ba3541eafa65e93037", "is_disabled": 0, "rental_uris": {"android": "https://dc.lft.to/lastmile_qr_scan", "ios": "https://dc.lft.to/lastmile_qr_scan"}, "fusion_lon": 0.0, "lat": 38.89899483333333, "bike_id": "d2e034f4c75825ba3541eafa65e93037", "type": "electric_scooter", "is_reserved": 0, "lon": -77.003651}, {"fusion_lat": 0.0, "name": "1c5dcf3573480de2e3abf02078dcc905", "is_disabled": 0, "rental_uris": {"android": "https://dc.lft.to/lastmile_qr_scan", "ios": "https://dc.lft.to/lastmile_qr_scan"}, "fusion_lon": 0.0, "lat": 38.90133933333333, "bike_id": "1c5dcf3573480de2e3abf02078dcc905", "type": "electric_scooter", "is_reserved": 0, "lon": -76.9865555}, {"fusion_lat": 0.0, "name": "7172309cea72e9a4b78f8b1f6e7f0dd8", "is_disabled": 0, "rental_uris": {"android": "https://dc.lft.to/lastmile_qr_scan", "ios": "https://dc.lft.to/lastmile_qr_scan"}, "fusion_lon": 0.0, "lat": 38.8922315, "bike_id": "7172309cea72e9a4b78f8b1f6e7f0dd8", "type": "electric_scooter", "is_reserved": 0, "lon": -77.0398545}, {"fusion_lat": 0.0, "name": "d7a3d4f18f3963fb4ef65ffe8dba21b3", "is_disabled": 0, "rental_uris": {"android": "https://dc.lft.to/lastmile_qr_scan", "ios": "https://dc.lft.to/lastmile_qr_scan"}, "fusion_lon": 0.0, "lat": 38.896895666666666, "bike_id": "d7a3d4f18f3963fb4ef65ffe8dba21b3", "type": "electric_scooter", "is_reserved": 0, "lon": -77.03220066666667}, {"fusion_lat": 0.0, "name": "40a95aa4cd75e958a5d3ff4eced33ef5", "is_disabled": 0, "rental_uris": {"android": "https://dc.lft.to/lastmile_qr_scan", "ios": "https://dc.lft.to/lastmile_qr_scan"}, "fusion_lon": 0.0, "lat": 38.8323235, "bike_id": "40a95aa4cd75e958a5d3ff4eced33ef5", "type": "electric_bike", "is_reserved": 0, "lon": -76.9463175}, {"fusion_lat": 0.0, "name": "bb2c6931c4c7c5af4daa9c24fdb0ed20", "is_disabled": 0, "rental_uris": {"android": "https://dc.lft.to/lastmile_qr_scan", "ios": "https://dc.lft.to/lastmile_qr_scan"}, "fusion_lon": 0.0, "lat": 38.904554166666664, "bike_id": "bb2c6931c4c7c5af4daa9c24fdb0ed20", "type": "electric_scooter", "is_reserved": 0, "lon": -77.02887183333333}, {"fusion_lat": 0.0, "name": "41a0687556421dcf0e3dcec20f6a0833", "is_disabled": 0, "rental_uris": {"android": "https://dc.lft.to/lastmile_qr_scan", "ios": "https://dc.lft.to/lastmile_qr_scan"}, "fusion_lon": 0.0, "lat": 38.9314685, "bike_id": "41a0687556421dcf0e3dcec20f6a0833", "type": "electric_scooter", "is_reserved": 0, "lon": -77.02986783333333}, {"fusion_lat": 0.0, "name": "abae2110caed25efc421a3e69cc67b2c", "is_disabled": 0, "rental_uris": {"android": "https://dc.lft.to/lastmile_qr_scan", "ios": "https://dc.lft.to/lastmile_qr_scan"}, "fusion_lon": 0.0, "lat": 38.914824333333335, "bike_id": "abae2110caed25efc421a3e69cc67b2c", "type": "electric_scooter", "is_reserved": 0, "lon": -77.0373125}, {"fusion_lat": 0.0, "name": "c1a086eeeaa3ff4672f1a371efe6237d", "is_disabled": 0, "rental_uris": {"android": "https://dc.lft.to/lastmile_qr_scan", "ios": "https://dc.lft.to/lastmile_qr_scan"}, "fusion_lon": 0.0, "lat": 38.887417, "bike_id": "c1a086eeeaa3ff4672f1a371efe6237d", "type": "electric_scooter", "is_reserved": 0, "lon": -77.025686}, {"fusion_lat": 0.0, "name": "5e91bfff99e7672ece6a6158cc5a4519", "is_disabled": 0, "rental_uris": {"android": "https://dc.lft.to/lastmile_qr_scan", "ios": "https://dc.lft.to/lastmile_qr_scan"}, "fusion_lon": 0.0, "lat": 38.8393565, "bike_id": "5e91bfff99e7672ece6a6158cc5a4519", "type": "electric_bike", "is_reserved": 0, "lon": -77.0790255}, {"fusion_lat": 0.0, "name": "2d95d6aed4a111fac01d0261f3c9c67a", "is_disabled": 0, "rental_uris": {"android": "https://dc.lft.to/lastmile_qr_scan", "ios": "https://dc.lft.to/lastmile_qr_scan"}, "fusion_lon": 0.0, "lat": 38.93264333333333, "bike_id": "2d95d6aed4a111fac01d0261f3c9c67a", "type": "electric_scooter", "is_reserved": 0, "lon": -77.03263466666667}, {"fusion_lat": 0.0, "name": "0ba2d8b54588679620a7c838118096d6", "is_disabled": 0, "rental_uris": {"android": "https://dc.lft.to/lastmile_qr_scan", "ios": "https://dc.lft.to/lastmile_qr_scan"}, "fusion_lon": 0.0, "lat": 38.91145483333333, "bike_id": "0ba2d8b54588679620a7c838118096d6", "type": "electric_scooter", "is_reserved": 0, "lon": -77.01073816666667}, {"fusion_lat": 0.0, "name": "a3aebf4313c592e77e7126391ee591e0", "is_disabled": 0, "rental_uris": {"android": "https://dc.lft.to/lastmile_qr_scan", "ios": "https://dc.lft.to/lastmile_qr_scan"}, "fusion_lon": 0.0, "lat": 38.91814333333333, "bike_id": "a3aebf4313c592e77e7126391ee591e0", "type": "electric_scooter", "is_reserved": 0, "lon": -77.03338566666666}, {"fusion_lat": 0.0, "name": "0bb5c7b856c23499840095838d3a3b3e", "is_disabled": 0, "rental_uris": {"android": "https://dc.lft.to/lastmile_qr_scan", "ios": "https://dc.lft.to/lastmile_qr_scan"}, "fusion_lon": 0.0, "lat": 38.92610066666667, "bike_id": "0bb5c7b856c23499840095838d3a3b3e", "type": "electric_scooter", "is_reserved": 0, "lon": -77.02210716666667}, {"fusion_lat": 0.0, "name": "b0ed9aa5210a0e4d9f6031ed19af65a5", "is_disabled": 0, "rental_uris": {"android": "https://dc.lft.to/lastmile_qr_scan", "ios": "https://dc.lft.to/lastmile_qr_scan"}, "fusion_lon": 0.0, "lat": 38.899163, "bike_id": "b0ed9aa5210a0e4d9f6031ed19af65a5", "type": "electric_scooter", "is_reserved": 0, "lon": -77.04065116666666}, {"fusion_lat": 0.0, "name": "0c3782196bfa45224f4d44b3e22863bf", "is_disabled": 0, "rental_uris": {"android": "https://dc.lft.to/lastmile_qr_scan", "ios": "https://dc.lft.to/lastmile_qr_scan"}, "fusion_lon": 0.0, "lat": 38.866788666666665, "bike_id": "0c3782196bfa45224f4d44b3e22863bf", "type": "electric_scooter", "is_reserved": 0, "lon": -76.98565433333333}, {"fusion_lat": 0.0, "name": "8c96dd58671862ce6f1d5bcab236cbb8", "is_disabled": 0, "rental_uris": {"android": "https://dc.lft.to/lastmile_qr_scan", "ios": "https://dc.lft.to/lastmile_qr_scan"}, "fusion_lon": 0.0, "lat": 38.876337666666664, "bike_id": "8c96dd58671862ce6f1d5bcab236cbb8", "type": "electric_scooter", "is_reserved": 0, "lon": -77.0094925}, {"fusion_lat": 0.0, "name": "051b6ec3c21c27206da4974e51e9940b", "is_disabled": 0, "rental_uris": {"android": "https://dc.lft.to/lastmile_qr_scan", "ios": "https://dc.lft.to/lastmile_qr_scan"}, "fusion_lon": 0.0, "lat": 38.922949, "bike_id": "051b6ec3c21c27206da4974e51e9940b", "type": "electric_scooter", "is_reserved": 0, "lon": -77.04113816666667}, {"fusion_lat": 0.0, "name": "da492c47ebc2e5f8468938c318ebf716", "is_disabled": 0, "rental_uris": {"android": "https://dc.lft.to/lastmile_qr_scan", "ios": "https://dc.lft.to/lastmile_qr_scan"}, "fusion_lon": 0.0, "lat": 38.911811666666665, "bike_id": "da492c47ebc2e5f8468938c318ebf716", "type": "electric_scooter", "is_reserved": 0, "lon": -77.04246483333333}, {"fusion_lat": 0.0, "name": "3b88e270fce23bdb1d89c8097ca9d214", "is_disabled": 0, "rental_uris": {"android": "https://dc.lft.to/lastmile_qr_scan", "ios": "https://dc.lft.to/lastmile_qr_scan"}, "fusion_lon": 0.0, "lat": 38.96165466666667, "bike_id": "3b88e270fce23bdb1d89c8097ca9d214", "type": "electric_scooter", "is_reserved": 0, "lon": -77.07332766666667}, {"fusion_lat": 0.0, "name": "c631821109097659bdfcee483d44ed5c", "is_disabled": 0, "rental_uris": {"android": "https://dc.lft.to/lastmile_qr_scan", "ios": "https://dc.lft.to/lastmile_qr_scan"}, "fusion_lon": 0.0, "lat": 38.907163, "bike_id": "c631821109097659bdfcee483d44ed5c", "type": "electric_scooter", "is_reserved": 0, "lon": -77.032196}, {"fusion_lat": 0.0, "name": "7f31a746e025f7e751734b24be24dd33", "is_disabled": 0, "rental_uris": {"android": "https://dc.lft.to/lastmile_qr_scan", "ios": "https://dc.lft.to/lastmile_qr_scan"}, "fusion_lon": 0.0, "lat": 38.9041165, "bike_id": "7f31a746e025f7e751734b24be24dd33", "type": "electric_scooter", "is_reserved": 0, "lon": -77.00133866666667}, {"fusion_lat": 0.0, "name": "34948d07fd17a3e844899e89f1e16fe8", "is_disabled": 0, "rental_uris": {"android": "https://dc.lft.to/lastmile_qr_scan", "ios": "https://dc.lft.to/lastmile_qr_scan"}, "fusion_lon": 0.0, "lat": 38.91365183333333, "bike_id": "34948d07fd17a3e844899e89f1e16fe8", "type": "electric_scooter", "is_reserved": 0, "lon": -77.04553516666667}, {"fusion_lat": 0.0, "name": "fa07190e25b74be875a029b1724cf0d2", "is_disabled": 0, "rental_uris": {"android": "https://dc.lft.to/lastmile_qr_scan", "ios": "https://dc.lft.to/lastmile_qr_scan"}, "fusion_lon": 0.0, "lat": 38.9212555, "bike_id": "fa07190e25b74be875a029b1724cf0d2", "type": "electric_bike", "is_reserved": 0, "lon": -77.01079966666667}, {"fusion_lat": 0.0, "name": "43fe7b5d53c8e36cd1a01cf7afaef6ee", "is_disabled": 0, "rental_uris": {"android": "https://dc.lft.to/lastmile_qr_scan", "ios": "https://dc.lft.to/lastmile_qr_scan"}, "fusion_lon": 0.0, "lat": 38.887652, "bike_id": "43fe7b5d53c8e36cd1a01cf7afaef6ee", "type": "electric_scooter", "is_reserved": 0, "lon": -76.97748933333334}, {"fusion_lat": 0.0, "name": "a259b39f789d8f8c3b6e48a844c9c070", "is_disabled": 0, "rental_uris": {"android": "https://dc.lft.to/lastmile_qr_scan", "ios": "https://dc.lft.to/lastmile_qr_scan"}, "fusion_lon": 0.0, "lat": 38.8998585, "bike_id": "a259b39f789d8f8c3b6e48a844c9c070", "type": "electric_scooter", "is_reserved": 0, "lon": -77.00671566666666}, {"fusion_lat": 0.0, "name": "066b83e733bba92b014cc29e61c8531b", "is_disabled": 0, "rental_uris": {"android": "https://dc.lft.to/lastmile_qr_scan", "ios": "https://dc.lft.to/lastmile_qr_scan"}, "fusion_lon": 0.0, "lat": 38.82457516666667, "bike_id": "066b83e733bba92b014cc29e61c8531b", "type": "electric_bike", "is_reserved": 0, "lon": -77.00793966666667}, {"fusion_lat": 0.0, "name": "6fa394f6a153c4b19a1815c2a1822c65", "is_disabled": 0, "rental_uris": {"android": "https://dc.lft.to/lastmile_qr_scan", "ios": "https://dc.lft.to/lastmile_qr_scan"}, "fusion_lon": 0.0, "lat": 38.90950633333333, "bike_id": "6fa394f6a153c4b19a1815c2a1822c65", "type": "electric_scooter", "is_reserved": 0, "lon": -76.98538966666666}, {"fusion_lat": 0.0, "name": "8d1654ef8b14b376df238b5cefb8cf8b", "is_disabled": 0, "rental_uris": {"android": "https://dc.lft.to/lastmile_qr_scan", "ios": "https://dc.lft.to/lastmile_qr_scan"}, "fusion_lon": 0.0, "lat": 38.9169525, "bike_id": "8d1654ef8b14b376df238b5cefb8cf8b", "type": "electric_scooter", "is_reserved": 0, "lon": -77.042176}, {"fusion_lat": 0.0, "name": "c2357414be832a10de3521921724b225", "is_disabled": 0, "rental_uris": {"android": "https://dc.lft.to/lastmile_qr_scan", "ios": "https://dc.lft.to/lastmile_qr_scan"}, "fusion_lon": 0.0, "lat": 38.91274466666667, "bike_id": "c2357414be832a10de3521921724b225", "type": "electric_scooter", "is_reserved": 0, "lon": -77.04847833333334}, {"fusion_lat": 0.0, "name": "e4d7e48d29cc589d8025eea2fde1f921", "is_disabled": 0, "rental_uris": {"android": "https://dc.lft.to/lastmile_qr_scan", "ios": "https://dc.lft.to/lastmile_qr_scan"}, "fusion_lon": 0.0, "lat": 38.9180975, "bike_id": "e4d7e48d29cc589d8025eea2fde1f921", "type": "electric_scooter", "is_reserved": 0, "lon": -77.04628333333334}, {"fusion_lat": 0.0, "name": "a8a1be57a0cc7d855da875bdf189d55d", "is_disabled": 0, "rental_uris": {"android": "https://dc.lft.to/lastmile_qr_scan", "ios": "https://dc.lft.to/lastmile_qr_scan"}, "fusion_lon": 0.0, "lat": 38.85871916666667, "bike_id": "a8a1be57a0cc7d855da875bdf189d55d", "type": "electric_bike", "is_reserved": 0, "lon": -77.095549}, {"fusion_lat": 0.0, "name": "996d5712e6833617582397c77f8b7d79", "is_disabled": 0, "rental_uris": {"android": "https://dc.lft.to/lastmile_qr_scan", "ios": "https://dc.lft.to/lastmile_qr_scan"}, "fusion_lon": 0.0, "lat": 38.893613333333334, "bike_id": "996d5712e6833617582397c77f8b7d79", "type": "electric_scooter", "is_reserved": 0, "lon": -76.9259125}, {"fusion_lat": 0.0, "name": "6e5d4b0a2835e5dc2a23dbd43498bd93", "is_disabled": 0, "rental_uris": {"android": "https://dc.lft.to/lastmile_qr_scan", "ios": "https://dc.lft.to/lastmile_qr_scan"}, "fusion_lon": 0.0, "lat": 38.87672716666667, "bike_id": "6e5d4b0a2835e5dc2a23dbd43498bd93", "type": "electric_scooter", "is_reserved": 0, "lon": -77.007584}, {"fusion_lat": 0.0, "name": "c1c0be5dec93d16348bcb944e4b18c87", "is_disabled": 0, "rental_uris": {"android": "https://dc.lft.to/lastmile_qr_scan", "ios": "https://dc.lft.to/lastmile_qr_scan"}, "fusion_lon": 0.0, "lat": 38.90868666666667, "bike_id": "c1c0be5dec93d16348bcb944e4b18c87", "type": "electric_scooter", "is_reserved": 0, "lon": -77.0859565}, {"fusion_lat": 0.0, "name": "d3ab2fab865d864263342c1363399e51", "is_disabled": 0, "rental_uris": {"android": "https://dc.lft.to/lastmile_qr_scan", "ios": "https://dc.lft.to/lastmile_qr_scan"}, "fusion_lon": 0.0, "lat": 38.912954, "bike_id": "d3ab2fab865d864263342c1363399e51", "type": "electric_scooter", "is_reserved": 0, "lon": -76.984696}, {"fusion_lat": 0.0, "name": "c66df9e50ad02238c96cab605bdcf630", "is_disabled": 0, "rental_uris": {"android": "https://dc.lft.to/lastmile_qr_scan", "ios": "https://dc.lft.to/lastmile_qr_scan"}, "fusion_lon": 0.0, "lat": 38.92546383333333, "bike_id": "c66df9e50ad02238c96cab605bdcf630", "type": "electric_scooter", "is_reserved": 0, "lon": -77.0348325}, {"fusion_lat": 0.0, "name": "bb8b44d10c529cfa2b7dd9643eeb05ff", "is_disabled": 0, "rental_uris": {"android": "https://dc.lft.to/lastmile_qr_scan", "ios": "https://dc.lft.to/lastmile_qr_scan"}, "fusion_lon": 0.0, "lat": 38.89741166666667, "bike_id": "bb8b44d10c529cfa2b7dd9643eeb05ff", "type": "electric_scooter", "is_reserved": 0, "lon": -77.03362283333334}, {"fusion_lat": 0.0, "name": "3c9f3fc37d90b60b15c6ae0065c92b3a", "is_disabled": 0, "rental_uris": {"android": "https://dc.lft.to/lastmile_qr_scan", "ios": "https://dc.lft.to/lastmile_qr_scan"}, "fusion_lon": 0.0, "lat": 38.8961445, "bike_id": "3c9f3fc37d90b60b15c6ae0065c92b3a", "type": "electric_scooter", "is_reserved": 0, "lon": -76.94815316666667}, {"fusion_lat": 0.0, "name": "3a1d98fc279cc4cf183ef21eeb4ffef1", "is_disabled": 0, "rental_uris": {"android": "https://dc.lft.to/lastmile_qr_scan", "ios": "https://dc.lft.to/lastmile_qr_scan"}, "fusion_lon": 0.0, "lat": 38.886596, "bike_id": "3a1d98fc279cc4cf183ef21eeb4ffef1", "type": "electric_scooter", "is_reserved": 0, "lon": -77.0011185}, {"fusion_lat": 0.0, "name": "91dd60dc2e7f8042a8c7a3cdd7a3d593", "is_disabled": 0, "rental_uris": {"android": "https://dc.lft.to/lastmile_qr_scan", "ios": "https://dc.lft.to/lastmile_qr_scan"}, "fusion_lon": 0.0, "lat": 38.91459733333333, "bike_id": "91dd60dc2e7f8042a8c7a3cdd7a3d593", "type": "electric_scooter", "is_reserved": 0, "lon": -77.0020985}, {"fusion_lat": 0.0, "name": "36e73dae5c763a7355fcc188307c9a3e", "is_disabled": 0, "rental_uris": {"android": "https://dc.lft.to/lastmile_qr_scan", "ios": "https://dc.lft.to/lastmile_qr_scan"}, "fusion_lon": 0.0, "lat": 38.922725166666666, "bike_id": "36e73dae5c763a7355fcc188307c9a3e", "type": "electric_scooter", "is_reserved": 0, "lon": -76.99127816666666}, {"fusion_lat": 0.0, "name": "1f5154d1bc1a98422cdc94996de833b4", "is_disabled": 0, "rental_uris": {"android": "https://dc.lft.to/lastmile_qr_scan", "ios": "https://dc.lft.to/lastmile_qr_scan"}, "fusion_lon": 0.0, "lat": 38.90988216666667, "bike_id": "1f5154d1bc1a98422cdc94996de833b4", "type": "electric_scooter", "is_reserved": 0, "lon": -77.0337825}, {"fusion_lat": 0.0, "name": "e1415ca7e23cfb60037537643f23392f", "is_disabled": 0, "rental_uris": {"android": "https://dc.lft.to/lastmile_qr_scan", "ios": "https://dc.lft.to/lastmile_qr_scan"}, "fusion_lon": 0.0, "lat": 38.91553416666667, "bike_id": "e1415ca7e23cfb60037537643f23392f", "type": "electric_scooter", "is_reserved": 0, "lon": -77.04150583333333}, {"fusion_lat": 0.0, "name": "3917c88367e8b614bd63961e5dd63e69", "is_disabled": 0, "rental_uris": {"android": "https://dc.lft.to/lastmile_qr_scan", "ios": "https://dc.lft.to/lastmile_qr_scan"}, "fusion_lon": 0.0, "lat": 38.920205, "bike_id": "3917c88367e8b614bd63961e5dd63e69", "type": "electric_scooter", "is_reserved": 0, "lon": -77.03135366666666}, {"fusion_lat": 0.0, "name": "8959dfe1be85b714c26d009edb805306", "is_disabled": 0, "rental_uris": {"android": "https://dc.lft.to/lastmile_qr_scan", "ios": "https://dc.lft.to/lastmile_qr_scan"}, "fusion_lon": 0.0, "lat": 38.89707533333333, "bike_id": "8959dfe1be85b714c26d009edb805306", "type": "electric_scooter", "is_reserved": 0, "lon": -77.00418833333333}, {"fusion_lat": 0.0, "name": "bfc66bd18cfd723ddf030a0744994525", "is_disabled": 0, "rental_uris": {"android": "https://dc.lft.to/lastmile_qr_scan", "ios": "https://dc.lft.to/lastmile_qr_scan"}, "fusion_lon": 0.0, "lat": 38.89640383333333, "bike_id": "bfc66bd18cfd723ddf030a0744994525", "type": "electric_scooter", "is_reserved": 0, "lon": -77.03222566666666}, {"fusion_lat": 0.0, "name": "016be5cb30d05f6cd08534ca42c45eb4", "is_disabled": 0, "rental_uris": {"android": "https://dc.lft.to/lastmile_qr_scan", "ios": "https://dc.lft.to/lastmile_qr_scan"}, "fusion_lon": 0.0, "lat": 38.86425333333333, "bike_id": "016be5cb30d05f6cd08534ca42c45eb4", "type": "electric_scooter", "is_reserved": 0, "lon": -76.97453633333333}, {"fusion_lat": 0.0, "name": "15000f093918d30aae22d4523ff39a02", "is_disabled": 0, "rental_uris": {"android": "https://dc.lft.to/lastmile_qr_scan", "ios": "https://dc.lft.to/lastmile_qr_scan"}, "fusion_lon": 0.0, "lat": 38.89799266666667, "bike_id": "15000f093918d30aae22d4523ff39a02", "type": "electric_scooter", "is_reserved": 0, "lon": -76.93121166666667}, {"fusion_lat": 0.0, "name": "76d2ee5f1b89257f3fb331929c58e72a", "is_disabled": 0, "rental_uris": {"android": "https://dc.lft.to/lastmile_qr_scan", "ios": "https://dc.lft.to/lastmile_qr_scan"}, "fusion_lon": 0.0, "lat": 38.949911166666666, "bike_id": "76d2ee5f1b89257f3fb331929c58e72a", "type": "electric_scooter", "is_reserved": 0, "lon": -77.06698483333334}, {"fusion_lat": 0.0, "name": "6c11f937218b28f9b7e6e7c8bd1adcba", "is_disabled": 0, "rental_uris": {"android": "https://dc.lft.to/lastmile_qr_scan", "ios": "https://dc.lft.to/lastmile_qr_scan"}, "fusion_lon": 0.0, "lat": 38.86244116666667, "bike_id": "6c11f937218b28f9b7e6e7c8bd1adcba", "type": "electric_scooter", "is_reserved": 0, "lon": -76.9949605}, {"fusion_lat": 0.0, "name": "c160ac1dd4c20dabb84274b622a94c05", "is_disabled": 0, "rental_uris": {"android": "https://dc.lft.to/lastmile_qr_scan", "ios": "https://dc.lft.to/lastmile_qr_scan"}, "fusion_lon": 0.0, "lat": 38.85354383333333, "bike_id": "c160ac1dd4c20dabb84274b622a94c05", "type": "electric_bike", "is_reserved": 0, "lon": -77.13458083333333}, {"fusion_lat": 0.0, "name": "8acd9c485cef8967af4b2d90b7aec17d", "is_disabled": 0, "rental_uris": {"android": "https://dc.lft.to/lastmile_qr_scan", "ios": "https://dc.lft.to/lastmile_qr_scan"}, "fusion_lon": 0.0, "lat": 38.8785155, "bike_id": "8acd9c485cef8967af4b2d90b7aec17d", "type": "electric_scooter", "is_reserved": 0, "lon": -77.01309683333334}, {"fusion_lat": 0.0, "name": "1d3b80d1bf7dfdc239bdc16ca12eef0d", "is_disabled": 0, "rental_uris": {"android": "https://dc.lft.to/lastmile_qr_scan", "ios": "https://dc.lft.to/lastmile_qr_scan"}, "fusion_lon": 0.0, "lat": 38.8808285, "bike_id": "1d3b80d1bf7dfdc239bdc16ca12eef0d", "type": "electric_scooter", "is_reserved": 0, "lon": -76.98534466666666}, {"fusion_lat": 0.0, "name": "c014a2fbc71ca43fef68df26738dc19c", "is_disabled": 0, "rental_uris": {"android": "https://dc.lft.to/lastmile_qr_scan", "ios": "https://dc.lft.to/lastmile_qr_scan"}, "fusion_lon": 0.0, "lat": 38.884047333333335, "bike_id": "c014a2fbc71ca43fef68df26738dc19c", "type": "electric_scooter", "is_reserved": 0, "lon": -76.98583166666667}, {"fusion_lat": 0.0, "name": "f8f01b95f4ba135ffeb64d88edd905cc", "is_disabled": 0, "rental_uris": {"android": "https://dc.lft.to/lastmile_qr_scan", "ios": "https://dc.lft.to/lastmile_qr_scan"}, "fusion_lon": 0.0, "lat": 38.891413, "bike_id": "f8f01b95f4ba135ffeb64d88edd905cc", "type": "electric_scooter", "is_reserved": 0, "lon": -76.98371433333334}, {"fusion_lat": 0.0, "name": "038da58c6f9d996218e32d0bce2fc025", "is_disabled": 0, "rental_uris": {"android": "https://dc.lft.to/lastmile_qr_scan", "ios": "https://dc.lft.to/lastmile_qr_scan"}, "fusion_lon": 0.0, "lat": 38.89730616666667, "bike_id": "038da58c6f9d996218e32d0bce2fc025", "type": "electric_scooter", "is_reserved": 0, "lon": -77.03213383333333}, {"fusion_lat": 0.0, "name": "8ba621d5a9d60c2b301fda6bd12f65c8", "is_disabled": 0, "rental_uris": {"android": "https://dc.lft.to/lastmile_qr_scan", "ios": "https://dc.lft.to/lastmile_qr_scan"}, "fusion_lon": 0.0, "lat": 38.88233566666667, "bike_id": "8ba621d5a9d60c2b301fda6bd12f65c8", "type": "electric_scooter", "is_reserved": 0, "lon": -77.02615816666666}, {"fusion_lat": 0.0, "name": "955a3b4d0cb9f5ccec6a262284862d65", "is_disabled": 0, "rental_uris": {"android": "https://dc.lft.to/lastmile_qr_scan", "ios": "https://dc.lft.to/lastmile_qr_scan"}, "fusion_lon": 0.0, "lat": 38.98499, "bike_id": "955a3b4d0cb9f5ccec6a262284862d65", "type": "electric_bike", "is_reserved": 0, "lon": -76.98209133333333}, {"fusion_lat": 0.0, "name": "a8fa92877f3611862efc0ab24392aca0", "is_disabled": 0, "rental_uris": {"android": "https://dc.lft.to/lastmile_qr_scan", "ios": "https://dc.lft.to/lastmile_qr_scan"}, "fusion_lon": 0.0, "lat": 38.92077533333333, "bike_id": "a8fa92877f3611862efc0ab24392aca0", "type": "electric_bike", "is_reserved": 0, "lon": -76.98945783333333}, {"fusion_lat": 0.0, "name": "1656a11f244b1d07cb04b8b550f2c5f5", "is_disabled": 0, "rental_uris": {"android": "https://dc.lft.to/lastmile_qr_scan", "ios": "https://dc.lft.to/lastmile_qr_scan"}, "fusion_lon": 0.0, "lat": 38.88514133333334, "bike_id": "1656a11f244b1d07cb04b8b550f2c5f5", "type": "electric_scooter", "is_reserved": 0, "lon": -77.01515233333333}, {"fusion_lat": 0.0, "name": "a9d72db858a2169d94c4b07ef6e14747", "is_disabled": 0, "rental_uris": {"android": "https://dc.lft.to/lastmile_qr_scan", "ios": "https://dc.lft.to/lastmile_qr_scan"}, "fusion_lon": 0.0, "lat": 38.86066183333333, "bike_id": "a9d72db858a2169d94c4b07ef6e14747", "type": "electric_scooter", "is_reserved": 0, "lon": -76.98500033333333}, {"fusion_lat": 0.0, "name": "4b8414b8c9efb06231a6386e7a09e484", "is_disabled": 0, "rental_uris": {"android": "https://dc.lft.to/lastmile_qr_scan", "ios": "https://dc.lft.to/lastmile_qr_scan"}, "fusion_lon": 0.0, "lat": 38.914294, "bike_id": "4b8414b8c9efb06231a6386e7a09e484", "type": "electric_scooter", "is_reserved": 0, "lon": -77.06423533333333}, {"fusion_lat": 0.0, "name": "04c57068fe90673942dbc4f57cd83172", "is_disabled": 0, "rental_uris": {"android": "https://dc.lft.to/lastmile_qr_scan", "ios": "https://dc.lft.to/lastmile_qr_scan"}, "fusion_lon": 0.0, "lat": 38.90378916666667, "bike_id": "04c57068fe90673942dbc4f57cd83172", "type": "electric_scooter", "is_reserved": 0, "lon": -77.00193383333334}, {"fusion_lat": 0.0, "name": "0a668eec42bc6e3b2856bade9bfa873e", "is_disabled": 0, "rental_uris": {"android": "https://dc.lft.to/lastmile_qr_scan", "ios": "https://dc.lft.to/lastmile_qr_scan"}, "fusion_lon": 0.0, "lat": 38.896396833333334, "bike_id": "0a668eec42bc6e3b2856bade9bfa873e", "type": "electric_scooter", "is_reserved": 0, "lon": -76.99941616666666}, {"fusion_lat": 0.0, "name": "c2e93d6f8a92f10a830bb4c21464db8d", "is_disabled": 0, "rental_uris": {"android": "https://dc.lft.to/lastmile_qr_scan", "ios": "https://dc.lft.to/lastmile_qr_scan"}, "fusion_lon": 0.0, "lat": 38.8987565, "bike_id": "c2e93d6f8a92f10a830bb4c21464db8d", "type": "electric_scooter", "is_reserved": 0, "lon": -76.93183383333333}, {"fusion_lat": 0.0, "name": "f7274c5102ab7c1fe84e0a68b0616d33", "is_disabled": 0, "rental_uris": {"android": "https://dc.lft.to/lastmile_qr_scan", "ios": "https://dc.lft.to/lastmile_qr_scan"}, "fusion_lon": 0.0, "lat": 38.87458733333333, "bike_id": "f7274c5102ab7c1fe84e0a68b0616d33", "type": "electric_scooter", "is_reserved": 0, "lon": -77.0096855}, {"fusion_lat": 0.0, "name": "bfcc54900c326c22097e4bba84354787", "is_disabled": 0, "rental_uris": {"android": "https://dc.lft.to/lastmile_qr_scan", "ios": "https://dc.lft.to/lastmile_qr_scan"}, "fusion_lon": 0.0, "lat": 38.92657666666667, "bike_id": "bfcc54900c326c22097e4bba84354787", "type": "electric_scooter", "is_reserved": 0, "lon": -77.0372775}, {"fusion_lat": 0.0, "name": "e7bc2ba8b02de391f8f0adf0a5ca2b3b", "is_disabled": 0, "rental_uris": {"android": "https://dc.lft.to/lastmile_qr_scan", "ios": "https://dc.lft.to/lastmile_qr_scan"}, "fusion_lon": 0.0, "lat": 38.866220166666665, "bike_id": "e7bc2ba8b02de391f8f0adf0a5ca2b3b", "type": "electric_bike", "is_reserved": 0, "lon": -76.94573866666667}, {"fusion_lat": 0.0, "name": "7a712e584dc37530f40a85c389007878", "is_disabled": 0, "rental_uris": {"android": "https://dc.lft.to/lastmile_qr_scan", "ios": "https://dc.lft.to/lastmile_qr_scan"}, "fusion_lon": 0.0, "lat": 38.91919083333333, "bike_id": "7a712e584dc37530f40a85c389007878", "type": "electric_scooter", "is_reserved": 0, "lon": -77.0448785}, {"fusion_lat": 0.0, "name": "b9dce8e850b646389a70acc9c6b5f570", "is_disabled": 0, "rental_uris": {"android": "https://dc.lft.to/lastmile_qr_scan", "ios": "https://dc.lft.to/lastmile_qr_scan"}, "fusion_lon": 0.0, "lat": 38.9024035, "bike_id": "b9dce8e850b646389a70acc9c6b5f570", "type": "electric_scooter", "is_reserved": 0, "lon": -77.05342433333334}, {"fusion_lat": 0.0, "name": "0faa0d1b0866925d3313f169e60b4f78", "is_disabled": 0, "rental_uris": {"android": "https://dc.lft.to/lastmile_qr_scan", "ios": "https://dc.lft.to/lastmile_qr_scan"}, "fusion_lon": 0.0, "lat": 38.91699633333333, "bike_id": "0faa0d1b0866925d3313f169e60b4f78", "type": "electric_scooter", "is_reserved": 0, "lon": -77.03588266666667}, {"fusion_lat": 0.0, "name": "bfcfcf1ead6362b0266cb5b439e6f12c", "is_disabled": 0, "rental_uris": {"android": "https://dc.lft.to/lastmile_qr_scan", "ios": "https://dc.lft.to/lastmile_qr_scan"}, "fusion_lon": 0.0, "lat": 38.928544333333335, "bike_id": "bfcfcf1ead6362b0266cb5b439e6f12c", "type": "electric_scooter", "is_reserved": 0, "lon": -77.01408866666667}, {"fusion_lat": 0.0, "name": "1a6416df72b225294b589ae795bb620d", "is_disabled": 0, "rental_uris": {"android": "https://dc.lft.to/lastmile_qr_scan", "ios": "https://dc.lft.to/lastmile_qr_scan"}, "fusion_lon": 0.0, "lat": 38.916389, "bike_id": "1a6416df72b225294b589ae795bb620d", "type": "electric_scooter", "is_reserved": 0, "lon": -77.03988583333333}, {"fusion_lat": 0.0, "name": "2376dfab2421155b4889c93f8d4d832f", "is_disabled": 0, "rental_uris": {"android": "https://dc.lft.to/lastmile_qr_scan", "ios": "https://dc.lft.to/lastmile_qr_scan"}, "fusion_lon": 0.0, "lat": 38.92250266666667, "bike_id": "2376dfab2421155b4889c93f8d4d832f", "type": "electric_scooter", "is_reserved": 0, "lon": -77.04239516666667}, {"fusion_lat": 0.0, "name": "c1f9bf583cb7e0d7032a936311ea4a73", "is_disabled": 0, "rental_uris": {"android": "https://dc.lft.to/lastmile_qr_scan", "ios": "https://dc.lft.to/lastmile_qr_scan"}, "fusion_lon": 0.0, "lat": 38.9494765, "bike_id": "c1f9bf583cb7e0d7032a936311ea4a73", "type": "electric_bike", "is_reserved": 0, "lon": -77.06519916666667}, {"fusion_lat": 0.0, "name": "cc07eb923667ee7a3fbf83e0b983c00c", "is_disabled": 0, "rental_uris": {"android": "https://dc.lft.to/lastmile_qr_scan", "ios": "https://dc.lft.to/lastmile_qr_scan"}, "fusion_lon": 0.0, "lat": 38.864622, "bike_id": "cc07eb923667ee7a3fbf83e0b983c00c", "type": "electric_bike", "is_reserved": 0, "lon": -76.94531583333334}, {"fusion_lat": 0.0, "name": "dcc29d0fc47b0f47d9e107dc3cf6d0f9", "is_disabled": 0, "rental_uris": {"android": "https://dc.lft.to/lastmile_qr_scan", "ios": "https://dc.lft.to/lastmile_qr_scan"}, "fusion_lon": 0.0, "lat": 38.897882833333334, "bike_id": "dcc29d0fc47b0f47d9e107dc3cf6d0f9", "type": "electric_bike", "is_reserved": 0, "lon": -76.99038766666666}, {"fusion_lat": 0.0, "name": "9496b617ea7851e921e7b676e5f95e16", "is_disabled": 0, "rental_uris": {"android": "https://dc.lft.to/lastmile_qr_scan", "ios": "https://dc.lft.to/lastmile_qr_scan"}, "fusion_lon": 0.0, "lat": 38.9079785, "bike_id": "9496b617ea7851e921e7b676e5f95e16", "type": "electric_scooter", "is_reserved": 0, "lon": -77.00967916666667}, {"fusion_lat": 0.0, "name": "077b0920502d88fa67c071e11abe6555", "is_disabled": 0, "rental_uris": {"android": "https://dc.lft.to/lastmile_qr_scan", "ios": "https://dc.lft.to/lastmile_qr_scan"}, "fusion_lon": 0.0, "lat": 38.912222666666665, "bike_id": "077b0920502d88fa67c071e11abe6555", "type": "electric_scooter", "is_reserved": 0, "lon": -77.02717283333334}, {"fusion_lat": 0.0, "name": "96e294f031e4391e7cb1615b025f1058", "is_disabled": 0, "rental_uris": {"android": "https://dc.lft.to/lastmile_qr_scan", "ios": "https://dc.lft.to/lastmile_qr_scan"}, "fusion_lon": 0.0, "lat": 38.925025166666664, "bike_id": "96e294f031e4391e7cb1615b025f1058", "type": "electric_bike", "is_reserved": 0, "lon": -77.05762833333333}, {"fusion_lat": 0.0, "name": "3d974f8c2d3ce765d709e72d527c47a6", "is_disabled": 0, "rental_uris": {"android": "https://dc.lft.to/lastmile_qr_scan", "ios": "https://dc.lft.to/lastmile_qr_scan"}, "fusion_lon": 0.0, "lat": 38.920540333333335, "bike_id": "3d974f8c2d3ce765d709e72d527c47a6", "type": "electric_scooter", "is_reserved": 0, "lon": -76.9988355}, {"fusion_lat": 0.0, "name": "c3b726f3a924ddb3916b687e1c6d8fe9", "is_disabled": 0, "rental_uris": {"android": "https://dc.lft.to/lastmile_qr_scan", "ios": "https://dc.lft.to/lastmile_qr_scan"}, "fusion_lon": 0.0, "lat": 38.909746166666665, "bike_id": "c3b726f3a924ddb3916b687e1c6d8fe9", "type": "electric_scooter", "is_reserved": 0, "lon": -77.03714266666667}, {"fusion_lat": 0.0, "name": "5c62818dddd97aca86937ea7f70e307e", "is_disabled": 0, "rental_uris": {"android": "https://dc.lft.to/lastmile_qr_scan", "ios": "https://dc.lft.to/lastmile_qr_scan"}, "fusion_lon": 0.0, "lat": 38.88450983333333, "bike_id": "5c62818dddd97aca86937ea7f70e307e", "type": "electric_scooter", "is_reserved": 0, "lon": -76.99392166666667}, {"fusion_lat": 0.0, "name": "fdda374bc37bd75276f72c8535fd27ae", "is_disabled": 0, "rental_uris": {"android": "https://dc.lft.to/lastmile_qr_scan", "ios": "https://dc.lft.to/lastmile_qr_scan"}, "fusion_lon": 0.0, "lat": 38.8875435, "bike_id": "fdda374bc37bd75276f72c8535fd27ae", "type": "electric_scooter", "is_reserved": 0, "lon": -76.99837583333333}, {"fusion_lat": 0.0, "name": "740c72898fe681e613c761193eaff500", "is_disabled": 0, "rental_uris": {"android": "https://dc.lft.to/lastmile_qr_scan", "ios": "https://dc.lft.to/lastmile_qr_scan"}, "fusion_lon": 0.0, "lat": 38.806736, "bike_id": "740c72898fe681e613c761193eaff500", "type": "electric_bike", "is_reserved": 0, "lon": -77.06919216666667}, {"fusion_lat": 0.0, "name": "c29ba4518c5fb24f65b81200a1ed32ba", "is_disabled": 0, "rental_uris": {"android": "https://dc.lft.to/lastmile_qr_scan", "ios": "https://dc.lft.to/lastmile_qr_scan"}, "fusion_lon": 0.0, "lat": 38.885075, "bike_id": "c29ba4518c5fb24f65b81200a1ed32ba", "type": "electric_scooter", "is_reserved": 0, "lon": -77.00701216666667}, {"fusion_lat": 0.0, "name": "39f19bfeee50b570410240e4171c1dac", "is_disabled": 0, "rental_uris": {"android": "https://dc.lft.to/lastmile_qr_scan", "ios": "https://dc.lft.to/lastmile_qr_scan"}, "fusion_lon": 0.0, "lat": 38.92588416666667, "bike_id": "39f19bfeee50b570410240e4171c1dac", "type": "electric_scooter", "is_reserved": 0, "lon": -77.032501}, {"fusion_lat": 0.0, "name": "09bdff112d20a6c099542350dcc96d75", "is_disabled": 0, "rental_uris": {"android": "https://dc.lft.to/lastmile_qr_scan", "ios": "https://dc.lft.to/lastmile_qr_scan"}, "fusion_lon": 0.0, "lat": 38.923366, "bike_id": "09bdff112d20a6c099542350dcc96d75", "type": "electric_scooter", "is_reserved": 0, "lon": -77.0244515}, {"fusion_lat": 0.0, "name": "d759876124514361f2304119b489e27f", "is_disabled": 0, "rental_uris": {"android": "https://dc.lft.to/lastmile_qr_scan", "ios": "https://dc.lft.to/lastmile_qr_scan"}, "fusion_lon": 0.0, "lat": 38.86558733333333, "bike_id": "d759876124514361f2304119b489e27f", "type": "electric_scooter", "is_reserved": 0, "lon": -76.9835415}, {"fusion_lat": 0.0, "name": "87c782a9bdaa02b844a02ab98d2b3aa5", "is_disabled": 0, "rental_uris": {"android": "https://dc.lft.to/lastmile_qr_scan", "ios": "https://dc.lft.to/lastmile_qr_scan"}, "fusion_lon": 0.0, "lat": 38.897289666666666, "bike_id": "87c782a9bdaa02b844a02ab98d2b3aa5", "type": "electric_scooter", "is_reserved": 0, "lon": -76.94702483333333}, {"fusion_lat": 0.0, "name": "8b76ff05c54a32bc8e7615317963e19a", "is_disabled": 0, "rental_uris": {"android": "https://dc.lft.to/lastmile_qr_scan", "ios": "https://dc.lft.to/lastmile_qr_scan"}, "fusion_lon": 0.0, "lat": 38.884054, "bike_id": "8b76ff05c54a32bc8e7615317963e19a", "type": "electric_bike", "is_reserved": 0, "lon": -76.9606005}, {"fusion_lat": 0.0, "name": "a0012bc8b7e66f377cf3f20180684214", "is_disabled": 0, "rental_uris": {"android": "https://dc.lft.to/lastmile_qr_scan", "ios": "https://dc.lft.to/lastmile_qr_scan"}, "fusion_lon": 0.0, "lat": 38.907902666666665, "bike_id": "a0012bc8b7e66f377cf3f20180684214", "type": "electric_scooter", "is_reserved": 0, "lon": -77.01108583333334}, {"fusion_lat": 0.0, "name": "16d90bf34b0c0bbbab5eca638de49b6a", "is_disabled": 0, "rental_uris": {"android": "https://dc.lft.to/lastmile_qr_scan", "ios": "https://dc.lft.to/lastmile_qr_scan"}, "fusion_lon": 0.0, "lat": 38.89782683333333, "bike_id": "16d90bf34b0c0bbbab5eca638de49b6a", "type": "electric_scooter", "is_reserved": 0, "lon": -77.01065116666666}, {"fusion_lat": 0.0, "name": "4c82358de97445470d2c29ba971274fb", "is_disabled": 0, "rental_uris": {"android": "https://dc.lft.to/lastmile_qr_scan", "ios": "https://dc.lft.to/lastmile_qr_scan"}, "fusion_lon": 0.0, "lat": 38.895632166666665, "bike_id": "4c82358de97445470d2c29ba971274fb", "type": "electric_scooter", "is_reserved": 0, "lon": -77.02739816666667}, {"fusion_lat": 0.0, "name": "eebebfd61e2b21351ea727456434ee4d", "is_disabled": 0, "rental_uris": {"android": "https://dc.lft.to/lastmile_qr_scan", "ios": "https://dc.lft.to/lastmile_qr_scan"}, "fusion_lon": 0.0, "lat": 38.96954683333333, "bike_id": "eebebfd61e2b21351ea727456434ee4d", "type": "electric_bike", "is_reserved": 0, "lon": -77.03350933333333}, {"fusion_lat": 0.0, "name": "07271af77179a65d3561659a903d60d2", "is_disabled": 0, "rental_uris": {"android": "https://dc.lft.to/lastmile_qr_scan", "ios": "https://dc.lft.to/lastmile_qr_scan"}, "fusion_lon": 0.0, "lat": 38.896156166666664, "bike_id": "07271af77179a65d3561659a903d60d2", "type": "electric_scooter", "is_reserved": 0, "lon": -77.044744}, {"fusion_lat": 0.0, "name": "bbe17a1e0c19463039f2dfab4018342d", "is_disabled": 0, "rental_uris": {"android": "https://dc.lft.to/lastmile_qr_scan", "ios": "https://dc.lft.to/lastmile_qr_scan"}, "fusion_lon": 0.0, "lat": 38.90454916666667, "bike_id": "bbe17a1e0c19463039f2dfab4018342d", "type": "electric_scooter", "is_reserved": 0, "lon": -76.98254016666667}, {"fusion_lat": 0.0, "name": "ab499b8563b2fd5f8c81727d3b73dc13", "is_disabled": 0, "rental_uris": {"android": "https://dc.lft.to/lastmile_qr_scan", "ios": "https://dc.lft.to/lastmile_qr_scan"}, "fusion_lon": 0.0, "lat": 38.857790666666666, "bike_id": "ab499b8563b2fd5f8c81727d3b73dc13", "type": "electric_scooter", "is_reserved": 0, "lon": -76.97300933333334}, {"fusion_lat": 0.0, "name": "c08009945b5e02484ffd87c0bfaccd11", "is_disabled": 0, "rental_uris": {"android": "https://dc.lft.to/lastmile_qr_scan", "ios": "https://dc.lft.to/lastmile_qr_scan"}, "fusion_lon": 0.0, "lat": 38.903834, "bike_id": "c08009945b5e02484ffd87c0bfaccd11", "type": "electric_scooter", "is_reserved": 0, "lon": -77.06133566666666}, {"fusion_lat": 0.0, "name": "1f0a976bc3b9c133397bac4f57711b0b", "is_disabled": 0, "rental_uris": {"android": "https://dc.lft.to/lastmile_qr_scan", "ios": "https://dc.lft.to/lastmile_qr_scan"}, "fusion_lon": 0.0, "lat": 38.928725, "bike_id": "1f0a976bc3b9c133397bac4f57711b0b", "type": "electric_scooter", "is_reserved": 0, "lon": -77.03404733333333}, {"fusion_lat": 0.0, "name": "f437ceb7dcddd3761c656916d98a378b", "is_disabled": 0, "rental_uris": {"android": "https://dc.lft.to/lastmile_qr_scan", "ios": "https://dc.lft.to/lastmile_qr_scan"}, "fusion_lon": 0.0, "lat": 38.92060016666667, "bike_id": "f437ceb7dcddd3761c656916d98a378b", "type": "electric_scooter", "is_reserved": 0, "lon": -77.02534983333334}, {"fusion_lat": 0.0, "name": "bc8748f1ce1637504b7aa3efcbc2afaf", "is_disabled": 0, "rental_uris": {"android": "https://dc.lft.to/lastmile_qr_scan", "ios": "https://dc.lft.to/lastmile_qr_scan"}, "fusion_lon": 0.0, "lat": 38.90625816666667, "bike_id": "bc8748f1ce1637504b7aa3efcbc2afaf", "type": "electric_scooter", "is_reserved": 0, "lon": -77.04162116666667}, {"fusion_lat": 0.0, "name": "a74d9f9e679abc3142f4b83cefc01f34", "is_disabled": 0, "rental_uris": {"android": "https://dc.lft.to/lastmile_qr_scan", "ios": "https://dc.lft.to/lastmile_qr_scan"}, "fusion_lon": 0.0, "lat": 38.925305, "bike_id": "a74d9f9e679abc3142f4b83cefc01f34", "type": "electric_scooter", "is_reserved": 0, "lon": -77.05569533333333}, {"fusion_lat": 0.0, "name": "be12fdd773a1c271c063419afd8ff5d9", "is_disabled": 0, "rental_uris": {"android": "https://dc.lft.to/lastmile_qr_scan", "ios": "https://dc.lft.to/lastmile_qr_scan"}, "fusion_lon": 0.0, "lat": 38.92975083333333, "bike_id": "be12fdd773a1c271c063419afd8ff5d9", "type": "electric_scooter", "is_reserved": 0, "lon": -77.028202}, {"fusion_lat": 0.0, "name": "bfa8e58d298cfb460fa6a3b93f097764", "is_disabled": 0, "rental_uris": {"android": "https://dc.lft.to/lastmile_qr_scan", "ios": "https://dc.lft.to/lastmile_qr_scan"}, "fusion_lon": 0.0, "lat": 38.845073666666664, "bike_id": "bfa8e58d298cfb460fa6a3b93f097764", "type": "electric_bike", "is_reserved": 0, "lon": -76.993549}, {"fusion_lat": 0.0, "name": "4080f0ba0eba0632b4196188c71c17a0", "is_disabled": 0, "rental_uris": {"android": "https://dc.lft.to/lastmile_qr_scan", "ios": "https://dc.lft.to/lastmile_qr_scan"}, "fusion_lon": 0.0, "lat": 38.919185166666665, "bike_id": "4080f0ba0eba0632b4196188c71c17a0", "type": "electric_scooter", "is_reserved": 0, "lon": -77.035819}, {"fusion_lat": 0.0, "name": "6050d0cc043c4c8d97eb82571078648c", "is_disabled": 0, "rental_uris": {"android": "https://dc.lft.to/lastmile_qr_scan", "ios": "https://dc.lft.to/lastmile_qr_scan"}, "fusion_lon": 0.0, "lat": 38.935508666666664, "bike_id": "6050d0cc043c4c8d97eb82571078648c", "type": "electric_scooter", "is_reserved": 0, "lon": -77.03261466666666}, {"fusion_lat": 0.0, "name": "a745f80020f18e2ba4a966c1cc58ab55", "is_disabled": 0, "rental_uris": {"android": "https://dc.lft.to/lastmile_qr_scan", "ios": "https://dc.lft.to/lastmile_qr_scan"}, "fusion_lon": 0.0, "lat": 38.90063416666667, "bike_id": "a745f80020f18e2ba4a966c1cc58ab55", "type": "electric_scooter", "is_reserved": 0, "lon": -76.93384}, {"fusion_lat": 0.0, "name": "1d3ca2a12518fc2d2bf5b1e636a5ec32", "is_disabled": 0, "rental_uris": {"android": "https://dc.lft.to/lastmile_qr_scan", "ios": "https://dc.lft.to/lastmile_qr_scan"}, "fusion_lon": 0.0, "lat": 38.95795233333333, "bike_id": "1d3ca2a12518fc2d2bf5b1e636a5ec32", "type": "electric_bike", "is_reserved": 0, "lon": -76.99968116666666}, {"fusion_lat": 0.0, "name": "26d92d7bb0465b24c3874c9b054a3ca0", "is_disabled": 0, "rental_uris": {"android": "https://dc.lft.to/lastmile_qr_scan", "ios": "https://dc.lft.to/lastmile_qr_scan"}, "fusion_lon": 0.0, "lat": 38.91289116666667, "bike_id": "26d92d7bb0465b24c3874c9b054a3ca0", "type": "electric_scooter", "is_reserved": 0, "lon": -77.04740683333333}, {"fusion_lat": 0.0, "name": "5ea7ea6698dc89359fcdfd7ab410ae24", "is_disabled": 0, "rental_uris": {"android": "https://dc.lft.to/lastmile_qr_scan", "ios": "https://dc.lft.to/lastmile_qr_scan"}, "fusion_lon": 0.0, "lat": 38.89980583333333, "bike_id": "5ea7ea6698dc89359fcdfd7ab410ae24", "type": "electric_scooter", "is_reserved": 0, "lon": -77.006682}, {"fusion_lat": 0.0, "name": "14127c62451f09f248034eb3cc73b6d7", "is_disabled": 0, "rental_uris": {"android": "https://dc.lft.to/lastmile_qr_scan", "ios": "https://dc.lft.to/lastmile_qr_scan"}, "fusion_lon": 0.0, "lat": 38.918233666666666, "bike_id": "14127c62451f09f248034eb3cc73b6d7", "type": "electric_scooter", "is_reserved": 0, "lon": -77.0121345}, {"fusion_lat": 0.0, "name": "5c05ec71102b3ee93e69c982427572b4", "is_disabled": 0, "rental_uris": {"android": "https://dc.lft.to/lastmile_qr_scan", "ios": "https://dc.lft.to/lastmile_qr_scan"}, "fusion_lon": 0.0, "lat": 38.924049833333335, "bike_id": "5c05ec71102b3ee93e69c982427572b4", "type": "electric_scooter", "is_reserved": 0, "lon": -77.043028},