{"data": {"bikes": [{"bike_id": "d20bfab73601712371ed1ea679b26235", "type": "electric_scooter", "is_disabled": 0, "lat": 38.921429833333335, "rental_uris": {"ios": "https://dc.lft.to/lastmile_qr_scan", "android": "https://dc.lft.to/lastmile_qr_scan"}, "is_reserved": 0, "fusion_lon": 0.0, "fusion_lat": 0.0, "lon": -77.0440695, "name": "d20bfab73601712371ed1ea679b26235"}, {"bike_id": "7aec59d3697cab40a59ece8d53de33ae", "type": "electric_bike", "is_disabled": 0, "lat": 38.925643666666666, "rental_uris": {"ios": "https://dc.lft.to/lastmile_qr_scan", "android": "https://dc.lft.to/lastmile_qr_scan"}, "is_reserved": 0, "fusion_lon": 0.0, "fusion_lat": 0.0, "lon": -77.04370833333333, "name": "7aec59d3697cab40a59ece8d53de33ae"}, {"bike_id": "13cf1ffb50aa09fd5d779f5a256f9b19", "type": "electric_scooter", "is_disabled": 0, "lat": 38.862461833333334, "rental_uris": {"ios": "https://dc.lft.to/lastmile_qr_scan", "android": "https://dc.lft.to/lastmile_qr_scan"}, "is_reserved": 0, "fusion_lon": 0.0, "fusion_lat": 0.0, "lon": -76.99502133333333, "name": "13cf1ffb50aa09fd5d779f5a256f9b19"}, {"bike_id": "0fc7fc7024e75083643b26083d6939db", "type": "electric_scooter", "is_disabled": 0, "lat": 38.928844, "rental_uris": {"ios": "https://dc.lft.to/lastmile_qr_scan", "android": "https://dc.lft.to/lastmile_qr_scan"}, "is_reserved": 0, "fusion_lon": 0.0, "fusion_lat": 0.0, "lon": -77.03416116666666, "name": "0fc7fc7024e75083643b26083d6939db"}, {"bike_id": "eb3f5ac8147ae4b44d011ea769e1185f", "type": "electric_scooter", "is_disabled": 0, "lat": 38.906817833333335, "rental_uris": {"ios": "https://dc.lft.to/lastmile_qr_scan", "android": "https://dc.lft.to/lastmile_qr_scan"}, "is_reserved": 0, "fusion_lon": 0.0, "fusion_lat": 0.0, "lon": -76.97999166666666, "name": "eb3f5ac8147ae4b44d011ea769e1185f"}, {"bike_id": "8417f9c846170f3cac13db78129b93d0", "type": "electric_scooter", "is_disabled": 0, "lat": 38.88358016666667, "rental_uris": {"ios": "https://dc.lft.to/lastmile_qr_scan", "android": "https://dc.lft.to/lastmile_qr_scan"}, "is_reserved": 0, "fusion_lon": 0.0, "fusion_lat": 0.0, "lon": -77.0196275, "name": "8417f9c846170f3cac13db78129b93d0"}, {"bike_id": "19c681040f54b6b3abdb35aca9b2e61e", "type": "electric_scooter", "is_disabled": 0, "lat": 38.89850716666667, "rental_uris": {"ios": "https://dc.lft.to/lastmile_qr_scan", "android": "https://dc.lft.to/lastmile_qr_scan"}, "is_reserved": 0, "fusion_lon": 0.0, "fusion_lat": 0.0, "lon": -76.92908216666666, "name": "19c681040f54b6b3abdb35aca9b2e61e"}, {"bike_id": "e4d6c9fb41811d8103f82e1793a1e9e2", "type": "electric_scooter", "is_disabled": 0, "lat": 38.931139, "rental_uris": {"ios": "https://dc.lft.to/lastmile_qr_scan", "android": "https://dc.lft.to/lastmile_qr_scan"}, "is_reserved": 0, "fusion_lon": 0.0, "fusion_lat": 0.0, "lon": -77.0412985, "name": "e4d6c9fb41811d8103f82e1793a1e9e2"}, {"bike_id": "8d6fbf35b2905049912698431ed398d7", "type": "electric_scooter", "is_disabled": 0, "lat": 38.8937565, "rental_uris": {"ios": "https://dc.lft.to/lastmile_qr_scan", "android": "https://dc.lft.to/lastmile_qr_scan"}, "is_reserved": 0, "fusion_lon": 0.0, "fusion_lat": 0.0, "lon": -77.02266033333333, "name": "8d6fbf35b2905049912698431ed398d7"}, {"bike_id": "0f75e24b11d5bac77af77b0dde5388f1", "type": "electric_scooter", "is_disabled": 0, "lat": 38.94821133333333, "rental_uris": {"ios": "https://dc.lft.to/lastmile_qr_scan", "android": "https://dc.lft.to/lastmile_qr_scan"}, "is_reserved": 0, "fusion_lon": 0.0, "fusion_lat": 0.0, "lon": -77.024861, "name": "0f75e24b11d5bac77af77b0dde5388f1"}, {"bike_id": "d2edb7c1a8d948a209bb49d7b818f780", "type": "electric_scooter", "is_disabled": 0, "lat": 38.920568333333335, "rental_uris": {"ios": "https://dc.lft.to/lastmile_qr_scan", "android": "https://dc.lft.to/lastmile_qr_scan"}, "is_reserved": 0, "fusion_lon": 0.0, "fusion_lat": 0.0, "lon": -77.03344866666667, "name": "d2edb7c1a8d948a209bb49d7b818f780"}, {"bike_id": "af7bb38dc2da03d163476ebde0fc8282", "type": "electric_scooter", "is_disabled": 0, "lat": 38.91428466666667, "rental_uris": {"ios": "https://dc.lft.to/lastmile_qr_scan", "android": "https://dc.lft.to/lastmile_qr_scan"}, "is_reserved": 0, "fusion_lon": 0.0, "fusion_lat": 0.0, "lon": -77.0318305, "name": "af7bb38dc2da03d163476ebde0fc8282"}, {"bike_id": "5ff295ed58f31c3eb25a7f7f5b70c18a", "type": "electric_scooter", "is_disabled": 0, "lat": 38.90350766666667, "rental_uris": {"ios": "https://dc.lft.to/lastmile_qr_scan", "android": "https://dc.lft.to/lastmile_qr_scan"}, "is_reserved": 0, "fusion_lon": 0.0, "fusion_lat": 0.0, "lon": -77.06258083333333, "name": "5ff295ed58f31c3eb25a7f7f5b70c18a"}, {"bike_id": "6972b695595dad7ebf109ed8b8c5531b", "type": "electric_scooter", "is_disabled": 0, "lat": 38.930144, "rental_uris": {"ios": "https://dc.lft.to/lastmile_qr_scan", "android": "https://dc.lft.to/lastmile_qr_scan"}, "is_reserved": 0, "fusion_lon": 0.0, "fusion_lat": 0.0, "lon": -77.02093516666666, "name": "6972b695595dad7ebf109ed8b8c5531b"}, {"bike_id": "982348142df7a3bbc3211e6870f37ee5", "type": "electric_scooter", "is_disabled": 0, "lat": 38.912689, "rental_uris": {"ios": "https://dc.lft.to/lastmile_qr_scan", "android": "https://dc.lft.to/lastmile_qr_scan"}, "is_reserved": 0, "fusion_lon": 0.0, "fusion_lat": 0.0, "lon": -77.02212266666666, "name": "982348142df7a3bbc3211e6870f37ee5"}, {"bike_id": "c10674f650a15968af9e802471075e51", "type": "electric_scooter", "is_disabled": 0, "lat": 38.9289375, "rental_uris": {"ios": "https://dc.lft.to/lastmile_qr_scan", "android": "https://dc.lft.to/lastmile_qr_scan"}, "is_reserved": 0, "fusion_lon": 0.0, "fusion_lat": 0.0, "lon": -77.027478, "name": "c10674f650a15968af9e802471075e51"}, {"bike_id": "f1f0d1be2b531a8b5819cf8d3009201f", "type": "electric_scooter", "is_disabled": 0, "lat": 38.92248133333333, "rental_uris": {"ios": "https://dc.lft.to/lastmile_qr_scan", "android": "https://dc.lft.to/lastmile_qr_scan"}, "is_reserved": 0, "fusion_lon": 0.0, "fusion_lat": 0.0, "lon": -77.042717, "name": "f1f0d1be2b531a8b5819cf8d3009201f"}, {"bike_id": "254400e4bc90fd4a4a9cf7fdb415df51", "type": "electric_scooter", "is_disabled": 0, "lat": 38.907746833333334, "rental_uris": {"ios": "https://dc.lft.to/lastmile_qr_scan", "android": "https://dc.lft.to/lastmile_qr_scan"}, "is_reserved": 0, "fusion_lon": 0.0, "fusion_lat": 0.0, "lon": -77.04333583333333, "name": "254400e4bc90fd4a4a9cf7fdb415df51"}, {"bike_id": "1b2be7c3ab7557b229f70f747bfa81f0", "type": "electric_scooter", "is_disabled": 0, "lat": 38.91385833333333, "rental_uris": {"ios": "https://dc.lft.to/lastmile_qr_scan", "android": "https://dc.lft.to/lastmile_qr_scan"}, "is_reserved": 0, "fusion_lon": 0.0, "fusion_lat": 0.0, "lon": -77.01701633333333, "name": "1b2be7c3ab7557b229f70f747bfa81f0"}, {"bike_id": "6e61902bb2fc456ffa843bab4417e881", "type": "electric_scooter", "is_disabled": 0, "lat": 38.9346345, "rental_uris": {"ios": "https://dc.lft.to/lastmile_qr_scan", "android": "https://dc.lft.to/lastmile_qr_scan"}, "is_reserved": 0, "fusion_lon": 0.0, "fusion_lat": 0.0, "lon": -77.02768933333333, "name": "6e61902bb2fc456ffa843bab4417e881"}, {"bike_id": "8035061ea6b394a955d2544e31bc66e8", "type": "electric_scooter", "is_disabled": 0, "lat": 38.9275125, "rental_uris": {"ios": "https://dc.lft.to/lastmile_qr_scan", "android": "https://dc.lft.to/lastmile_qr_scan"}, "is_reserved": 0, "fusion_lon": 0.0, "fusion_lat": 0.0, "lon": -77.02535583333334, "name": "8035061ea6b394a955d2544e31bc66e8"}, {"bike_id": "809ba58df6f8133717181972bfe111e5", "type": "electric_scooter", "is_disabled": 0, "lat": 38.902159166666664, "rental_uris": {"ios": "https://dc.lft.to/lastmile_qr_scan", "android": "https://dc.lft.to/lastmile_qr_scan"}, "is_reserved": 0, "fusion_lon": 0.0, "fusion_lat": 0.0, "lon": -77.02374833333333, "name": "809ba58df6f8133717181972bfe111e5"}, {"bike_id": "d90e0a357f4687d46ae03a85d53ca01f", "type": "electric_scooter", "is_disabled": 0, "lat": 38.916968833333335, "rental_uris": {"ios": "https://dc.lft.to/lastmile_qr_scan", "android": "https://dc.lft.to/lastmile_qr_scan"}, "is_reserved": 0, "fusion_lon": 0.0, "fusion_lat": 0.0, "lon": -77.04110916666667, "name": "d90e0a357f4687d46ae03a85d53ca01f"}, {"bike_id": "bc98804fec42d346cd6c68d712127363", "type": "electric_scooter", "is_disabled": 0, "lat": 38.86686016666667, "rental_uris": {"ios": "https://dc.lft.to/lastmile_qr_scan", "android": "https://dc.lft.to/lastmile_qr_scan"}, "is_reserved": 0, "fusion_lon": 0.0, "fusion_lat": 0.0, "lon": -76.98573766666667, "name": "bc98804fec42d346cd6c68d712127363"}, {"bike_id": "6b52781f577b6f69af62cd21ada841bf", "type": "electric_scooter", "is_disabled": 0, "lat": 38.866456, "rental_uris": {"ios": "https://dc.lft.to/lastmile_qr_scan", "android": "https://dc.lft.to/lastmile_qr_scan"}, "is_reserved": 0, "fusion_lon": 0.0, "fusion_lat": 0.0, "lon": -76.98818033333333, "name": "6b52781f577b6f69af62cd21ada841bf"}, {"bike_id": "e81435701301408b5d694972cc9d097d", "type": "electric_bike", "is_disabled": 0, "lat": 38.98461983333333, "rental_uris": {"ios": "https://dc.lft.to/lastmile_qr_scan", "android": "https://dc.lft.to/lastmile_qr_scan"}, "is_reserved": 0, "fusion_lon": 0.0, "fusion_lat": 0.0, "lon": -76.9704955, "name": "e81435701301408b5d694972cc9d097d"}, {"bike_id": "b89b01a141f85ec4d06dde065ea9ec22", "type": "electric_scooter", "is_disabled": 0, "lat": 38.952534, "rental_uris": {"ios": "https://dc.lft.to/lastmile_qr_scan", "android": "https://dc.lft.to/lastmile_qr_scan"}, "is_reserved": 0, "fusion_lon": 0.0, "fusion_lat": 0.0, "lon": -77.01964166666667, "name": "b89b01a141f85ec4d06dde065ea9ec22"}, {"bike_id": "9b13bdb8042a40b34d49b10668fba0a0", "type": "electric_scooter", "is_disabled": 0, "lat": 38.908209666666664, "rental_uris": {"ios": "https://dc.lft.to/lastmile_qr_scan", "android": "https://dc.lft.to/lastmile_qr_scan"}, "is_reserved": 0, "fusion_lon": 0.0, "fusion_lat": 0.0, "lon": -77.04347883333334, "name": "9b13bdb8042a40b34d49b10668fba0a0"}, {"bike_id": "e3c415db0acbebec3c5e58b073ad274c", "type": "electric_scooter", "is_disabled": 0, "lat": 38.9230615, "rental_uris": {"ios": "https://dc.lft.to/lastmile_qr_scan", "android": "https://dc.lft.to/lastmile_qr_scan"}, "is_reserved": 0, "fusion_lon": 0.0, "fusion_lat": 0.0, "lon": -77.02965233333333, "name": "e3c415db0acbebec3c5e58b073ad274c"}, {"bike_id": "4514181bf7ba08b47d3c511d5fd0e962", "type": "electric_scooter", "is_disabled": 0, "lat": 38.92103083333333, "rental_uris": {"ios": "https://dc.lft.to/lastmile_qr_scan", "android": "https://dc.lft.to/lastmile_qr_scan"}, "is_reserved": 0, "fusion_lon": 0.0, "fusion_lat": 0.0, "lon": -77.0441375, "name": "4514181bf7ba08b47d3c511d5fd0e962"}, {"bike_id": "beca6c2b2f4e40cc659ea536affa484c", "type": "electric_scooter", "is_disabled": 0, "lat": 38.91121833333333, "rental_uris": {"ios": "https://dc.lft.to/lastmile_qr_scan", "android": "https://dc.lft.to/lastmile_qr_scan"}, "is_reserved": 0, "fusion_lon": 0.0, "fusion_lat": 0.0, "lon": -77.04995366666667, "name": "beca6c2b2f4e40cc659ea536affa484c"}, {"bike_id": "0b2cd0377fd16b138e9e42d7c25970fc", "type": "electric_bike", "is_disabled": 0, "lat": 38.85939066666667, "rental_uris": {"ios": "https://dc.lft.to/lastmile_qr_scan", "android": "https://dc.lft.to/lastmile_qr_scan"}, "is_reserved": 0, "fusion_lon": 0.0, "fusion_lat": 0.0, "lon": -77.11832633333333, "name": "0b2cd0377fd16b138e9e42d7c25970fc"}, {"bike_id": "6895547c885f1d3517680808a321100f", "type": "electric_scooter", "is_disabled": 0, "lat": 38.92366966666667, "rental_uris": {"ios": "https://dc.lft.to/lastmile_qr_scan", "android": "https://dc.lft.to/lastmile_qr_scan"}, "is_reserved": 0, "fusion_lon": 0.0, "fusion_lat": 0.0, "lon": -77.0503015, "name": "6895547c885f1d3517680808a321100f"}, {"bike_id": "a28fc6fd4c8fa9c1a26f1e68c7a80f2b", "type": "electric_bike", "is_disabled": 0, "lat": 38.82367516666667, "rental_uris": {"ios": "https://dc.lft.to/lastmile_qr_scan", "android": "https://dc.lft.to/lastmile_qr_scan"}, "is_reserved": 0, "fusion_lon": 0.0, "fusion_lat": 0.0, "lon": -77.00218566666666, "name": "a28fc6fd4c8fa9c1a26f1e68c7a80f2b"}, {"bike_id": "6acd5454609df59cba514991647e64e3", "type": "electric_scooter", "is_disabled": 0, "lat": 38.915765666666665, "rental_uris": {"ios": "https://dc.lft.to/lastmile_qr_scan", "android": "https://dc.lft.to/lastmile_qr_scan"}, "is_reserved": 0, "fusion_lon": 0.0, "fusion_lat": 0.0, "lon": -77.01956583333333, "name": "6acd5454609df59cba514991647e64e3"}, {"bike_id": "792ed9c58b260c0a599b340e8b4822bf", "type": "electric_scooter", "is_disabled": 0, "lat": 38.9236335, "rental_uris": {"ios": "https://dc.lft.to/lastmile_qr_scan", "android": "https://dc.lft.to/lastmile_qr_scan"}, "is_reserved": 0, "fusion_lon": 0.0, "fusion_lat": 0.0, "lon": -77.0504685, "name": "792ed9c58b260c0a599b340e8b4822bf"}, {"bike_id": "e1de645ebec741b9a8c71457829d08d5", "type": "electric_scooter", "is_disabled": 0, "lat": 38.90959466666666, "rental_uris": {"ios": "https://dc.lft.to/lastmile_qr_scan", "android": "https://dc.lft.to/lastmile_qr_scan"}, "is_reserved": 0, "fusion_lon": 0.0, "fusion_lat": 0.0, "lon": -77.02278833333334, "name": "e1de645ebec741b9a8c71457829d08d5"}, {"bike_id": "35fb21e3b4c4ca329fd78f0b8bf535a8", "type": "electric_scooter", "is_disabled": 0, "lat": 38.87692916666666, "rental_uris": {"ios": "https://dc.lft.to/lastmile_qr_scan", "android": "https://dc.lft.to/lastmile_qr_scan"}, "is_reserved": 0, "fusion_lon": 0.0, "fusion_lat": 0.0, "lon": -77.01754683333333, "name": "35fb21e3b4c4ca329fd78f0b8bf535a8"}, {"bike_id": "8b517fcd616d3ea75b7291d4cdbbb68a", "type": "electric_bike", "is_disabled": 0, "lat": 38.936068666666664, "rental_uris": {"ios": "https://dc.lft.to/lastmile_qr_scan", "android": "https://dc.lft.to/lastmile_qr_scan"}, "is_reserved": 0, "fusion_lon": 0.0, "fusion_lat": 0.0, "lon": -77.05856416666667, "name": "8b517fcd616d3ea75b7291d4cdbbb68a"}, {"bike_id": "0bf9d606c6af665d0248c306d09eaacd", "type": "electric_scooter", "is_disabled": 0, "lat": 38.91568183333333, "rental_uris": {"ios": "https://dc.lft.to/lastmile_qr_scan", "android": "https://dc.lft.to/lastmile_qr_scan"}, "is_reserved": 0, "fusion_lon": 0.0, "fusion_lat": 0.0, "lon": -77.024162, "name": "0bf9d606c6af665d0248c306d09eaacd"}, {"bike_id": "d32b930e51efc25c63279551df38449a", "type": "electric_scooter", "is_disabled": 0, "lat": 38.913232, "rental_uris": {"ios": "https://dc.lft.to/lastmile_qr_scan", "android": "https://dc.lft.to/lastmile_qr_scan"}, "is_reserved": 0, "fusion_lon": 0.0, "fusion_lat": 0.0, "lon": -77.03858933333333, "name": "d32b930e51efc25c63279551df38449a"}, {"bike_id": "a6bcdf59944b6881694836a3ffd0e05a", "type": "electric_scooter", "is_disabled": 0, "lat": 38.87528316666667, "rental_uris": {"ios": "https://dc.lft.to/lastmile_qr_scan", "android": "https://dc.lft.to/lastmile_qr_scan"}, "is_reserved": 0, "fusion_lon": 0.0, "fusion_lat": 0.0, "lon": -77.0005345, "name": "a6bcdf59944b6881694836a3ffd0e05a"}, {"bike_id": "bda6d799b67d861aa9632fdbedde0b9b", "type": "electric_scooter", "is_disabled": 0, "lat": 38.96560183333333, "rental_uris": {"ios": "https://dc.lft.to/lastmile_qr_scan", "android": "https://dc.lft.to/lastmile_qr_scan"}, "is_reserved": 0, "fusion_lon": 0.0, "fusion_lat": 0.0, "lon": -77.00205333333334, "name": "bda6d799b67d861aa9632fdbedde0b9b"}, {"bike_id": "f4e600d4f1f77f7687ced058f84c1d29", "type": "electric_scooter", "is_disabled": 0, "lat": 38.88747033333333, "rental_uris": {"ios": "https://dc.lft.to/lastmile_qr_scan", "android": "https://dc.lft.to/lastmile_qr_scan"}, "is_reserved": 0, "fusion_lon": 0.0, "fusion_lat": 0.0, "lon": -77.02566866666666, "name": "f4e600d4f1f77f7687ced058f84c1d29"}, {"bike_id": "547f85e186630cd9148059aedd8788ca", "type": "electric_scooter", "is_disabled": 0, "lat": 38.91996133333333, "rental_uris": {"ios": "https://dc.lft.to/lastmile_qr_scan", "android": "https://dc.lft.to/lastmile_qr_scan"}, "is_reserved": 0, "fusion_lon": 0.0, "fusion_lat": 0.0, "lon": -77.03966666666666, "name": "547f85e186630cd9148059aedd8788ca"}, {"bike_id": "560fdb0475eefa50ec72659c7d648844", "type": "electric_scooter", "is_disabled": 0, "lat": 38.924814, "rental_uris": {"ios": "https://dc.lft.to/lastmile_qr_scan", "android": "https://dc.lft.to/lastmile_qr_scan"}, "is_reserved": 0, "fusion_lon": 0.0, "fusion_lat": 0.0, "lon": -77.03792966666667, "name": "560fdb0475eefa50ec72659c7d648844"}, {"bike_id": "8d92cdd1d53d68eb70e0f1327586c665", "type": "electric_scooter", "is_disabled": 0, "lat": 38.932559166666664, "rental_uris": {"ios": "https://dc.lft.to/lastmile_qr_scan", "android": "https://dc.lft.to/lastmile_qr_scan"}, "is_reserved": 0, "fusion_lon": 0.0, "fusion_lat": 0.0, "lon": -77.03284816666667, "name": "8d92cdd1d53d68eb70e0f1327586c665"}, {"bike_id": "31878b394bf46402161743c624a6276e", "type": "electric_scooter", "is_disabled": 0, "lat": 38.914085666666665, "rental_uris": {"ios": "https://dc.lft.to/lastmile_qr_scan", "android": "https://dc.lft.to/lastmile_qr_scan"}, "is_reserved": 0, "fusion_lon": 0.0, "fusion_lat": 0.0, "lon": -77.03990883333333, "name": "31878b394bf46402161743c624a6276e"}, {"bike_id": "813c9259322eaaeb011f42ad2a38e75d", "type": "electric_scooter", "is_disabled": 0, "lat": 38.920475333333336, "rental_uris": {"ios": "https://dc.lft.to/lastmile_qr_scan", "android": "https://dc.lft.to/lastmile_qr_scan"}, "is_reserved": 0, "fusion_lon": 0.0, "fusion_lat": 0.0, "lon": -77.02372766666667, "name": "813c9259322eaaeb011f42ad2a38e75d"}, {"bike_id": "ddc3c179acf69dd6151f40b06a1bf06d", "type": "electric_scooter", "is_disabled": 0, "lat": 38.902484333333334, "rental_uris": {"ios": "https://dc.lft.to/lastmile_qr_scan", "android": "https://dc.lft.to/lastmile_qr_scan"}, "is_reserved": 0, "fusion_lon": 0.0, "fusion_lat": 0.0, "lon": -77.01831966666667, "name": "ddc3c179acf69dd6151f40b06a1bf06d"}, {"bike_id": "0bbc82bcb5a526a97d92a0fbf19b70cd", "type": "electric_scooter", "is_disabled": 0, "lat": 38.883010166666665, "rental_uris": {"ios": "https://dc.lft.to/lastmile_qr_scan", "android": "https://dc.lft.to/lastmile_qr_scan"}, "is_reserved": 0, "fusion_lon": 0.0, "fusion_lat": 0.0, "lon": -76.94201366666667, "name": "0bbc82bcb5a526a97d92a0fbf19b70cd"}, {"bike_id": "672bc840a729d3ec1661ed1badd4b33a", "type": "electric_scooter", "is_disabled": 0, "lat": 38.923309, "rental_uris": {"ios": "https://dc.lft.to/lastmile_qr_scan", "android": "https://dc.lft.to/lastmile_qr_scan"}, "is_reserved": 0, "fusion_lon": 0.0, "fusion_lat": 0.0, "lon": -77.02967833333334, "name": "672bc840a729d3ec1661ed1badd4b33a"}, {"bike_id": "c40ad9284e06f7a87a5a3f83c3341e5b", "type": "electric_scooter", "is_disabled": 0, "lat": 38.915989333333336, "rental_uris": {"ios": "https://dc.lft.to/lastmile_qr_scan", "android": "https://dc.lft.to/lastmile_qr_scan"}, "is_reserved": 0, "fusion_lon": 0.0, "fusion_lat": 0.0, "lon": -77.00195233333334, "name": "c40ad9284e06f7a87a5a3f83c3341e5b"}, {"bike_id": "3afd0a9812e95715d064a10d56a05827", "type": "electric_scooter", "is_disabled": 0, "lat": 38.92172716666666, "rental_uris": {"ios": "https://dc.lft.to/lastmile_qr_scan", "android": "https://dc.lft.to/lastmile_qr_scan"}, "is_reserved": 0, "fusion_lon": 0.0, "fusion_lat": 0.0, "lon": -77.03450116666667, "name": "3afd0a9812e95715d064a10d56a05827"}, {"bike_id": "19779f57ab591ac74c085dceeaaf74a5", "type": "electric_scooter", "is_disabled": 0, "lat": 38.91201566666667, "rental_uris": {"ios": "https://dc.lft.to/lastmile_qr_scan", "android": "https://dc.lft.to/lastmile_qr_scan"}, "is_reserved": 0, "fusion_lon": 0.0, "fusion_lat": 0.0, "lon": -77.011979, "name": "19779f57ab591ac74c085dceeaaf74a5"}, {"bike_id": "86837e6eb844e245311095c153280162", "type": "electric_scooter", "is_disabled": 0, "lat": 38.938841833333335, "rental_uris": {"ios": "https://dc.lft.to/lastmile_qr_scan", "android": "https://dc.lft.to/lastmile_qr_scan"}, "is_reserved": 0, "fusion_lon": 0.0, "fusion_lat": 0.0, "lon": -77.02462483333333, "name": "86837e6eb844e245311095c153280162"}, {"bike_id": "0c8b7de06834181022beefe7871bcbc9", "type": "electric_scooter", "is_disabled": 0, "lat": 38.91554633333333, "rental_uris": {"ios": "https://dc.lft.to/lastmile_qr_scan", "android": "https://dc.lft.to/lastmile_qr_scan"}, "is_reserved": 0, "fusion_lon": 0.0, "fusion_lat": 0.0, "lon": -77.03319, "name": "0c8b7de06834181022beefe7871bcbc9"}, {"bike_id": "6ccdf3f401095dcfb3a9be45e156d9ec", "type": "electric_scooter", "is_disabled": 0, "lat": 38.922189, "rental_uris": {"ios": "https://dc.lft.to/lastmile_qr_scan", "android": "https://dc.lft.to/lastmile_qr_scan"}, "is_reserved": 0, "fusion_lon": 0.0, "fusion_lat": 0.0, "lon": -77.04336316666667, "name": "6ccdf3f401095dcfb3a9be45e156d9ec"}, {"bike_id": "5149a75c67f0d93d88334df2fed94984", "type": "electric_scooter", "is_disabled": 0, "lat": 38.8764805, "rental_uris": {"ios": "https://dc.lft.to/lastmile_qr_scan", "android": "https://dc.lft.to/lastmile_qr_scan"}, "is_reserved": 0, "fusion_lon": 0.0, "fusion_lat": 0.0, "lon": -76.96503483333333, "name": "5149a75c67f0d93d88334df2fed94984"}, {"bike_id": "37892dc702af9569a69fbc2c768edf4e", "type": "electric_scooter", "is_disabled": 0, "lat": 38.900356333333335, "rental_uris": {"ios": "https://dc.lft.to/lastmile_qr_scan", "android": "https://dc.lft.to/lastmile_qr_scan"}, "is_reserved": 0, "fusion_lon": 0.0, "fusion_lat": 0.0, "lon": -76.98855016666667, "name": "37892dc702af9569a69fbc2c768edf4e"}, {"bike_id": "ec6292cff7fa7298c88b23fcb72155ea", "type": "electric_scooter", "is_disabled": 0, "lat": 38.8619235, "rental_uris": {"ios": "https://dc.lft.to/lastmile_qr_scan", "android": "https://dc.lft.to/lastmile_qr_scan"}, "is_reserved": 0, "fusion_lon": 0.0, "fusion_lat": 0.0, "lon": -76.959529, "name": "ec6292cff7fa7298c88b23fcb72155ea"}, {"bike_id": "6666d2043119ff86fe11c1b574daf62d", "type": "electric_scooter", "is_disabled": 0, "lat": 38.896061333333336, "rental_uris": {"ios": "https://dc.lft.to/lastmile_qr_scan", "android": "https://dc.lft.to/lastmile_qr_scan"}, "is_reserved": 0, "fusion_lon": 0.0, "fusion_lat": 0.0, "lon": -77.04430516666666, "name": "6666d2043119ff86fe11c1b574daf62d"}, {"bike_id": "72a8d5ad87916ce94d1c70fbbb3a51de", "type": "electric_scooter", "is_disabled": 0, "lat": 38.9135195, "rental_uris": {"ios": "https://dc.lft.to/lastmile_qr_scan", "android": "https://dc.lft.to/lastmile_qr_scan"}, "is_reserved": 0, "fusion_lon": 0.0, "fusion_lat": 0.0, "lon": -77.07126283333334, "name": "72a8d5ad87916ce94d1c70fbbb3a51de"}, {"bike_id": "f09670826c21f1ef7c65d4867bd89b58", "type": "electric_scooter", "is_disabled": 0, "lat": 38.9002835, "rental_uris": {"ios": "https://dc.lft.to/lastmile_qr_scan", "android": "https://dc.lft.to/lastmile_qr_scan"}, "is_reserved": 0, "fusion_lon": 0.0, "fusion_lat": 0.0, "lon": -77.01170266666666, "name": "f09670826c21f1ef7c65d4867bd89b58"}, {"bike_id": "35d8e353fa2fd481478ca44eaf12a36b", "type": "electric_bike", "is_disabled": 0, "lat": 38.99534033333333, "rental_uris": {"ios": "https://dc.lft.to/lastmile_qr_scan", "android": "https://dc.lft.to/lastmile_qr_scan"}, "is_reserved": 0, "fusion_lon": 0.0, "fusion_lat": 0.0, "lon": -77.06949016666667, "name": "35d8e353fa2fd481478ca44eaf12a36b"}, {"bike_id": "684fd491ad50c5b8771f80ffa4fded9e", "type": "electric_scooter", "is_disabled": 0, "lat": 38.86246083333333, "rental_uris": {"ios": "https://dc.lft.to/lastmile_qr_scan", "android": "https://dc.lft.to/lastmile_qr_scan"}, "is_reserved": 0, "fusion_lon": 0.0, "fusion_lat": 0.0, "lon": -76.99493533333333, "name": "684fd491ad50c5b8771f80ffa4fded9e"}, {"bike_id": "fd06befb09ca930b9cae24040cda30d2", "type": "electric_scooter", "is_disabled": 0, "lat": 38.90033833333333, "rental_uris": {"ios": "https://dc.lft.to/lastmile_qr_scan", "android": "https://dc.lft.to/lastmile_qr_scan"}, "is_reserved": 0, "fusion_lon": 0.0, "fusion_lat": 0.0, "lon": -77.00198116666667, "name": "fd06befb09ca930b9cae24040cda30d2"}, {"bike_id": "9c646f4b5f4367767bccbf7bedaf2d1c", "type": "electric_scooter", "is_disabled": 0, "lat": 38.968486, "rental_uris": {"ios": "https://dc.lft.to/lastmile_qr_scan", "android": "https://dc.lft.to/lastmile_qr_scan"}, "is_reserved": 0, "fusion_lon": 0.0, "fusion_lat": 0.0, "lon": -77.02722466666667, "name": "9c646f4b5f4367767bccbf7bedaf2d1c"}, {"bike_id": "f5bc3c7bd42e51df432e8b9d57c27969", "type": "electric_scooter", "is_disabled": 0, "lat": 38.92266583333333, "rental_uris": {"ios": "https://dc.lft.to/lastmile_qr_scan", "android": "https://dc.lft.to/lastmile_qr_scan"}, "is_reserved": 0, "fusion_lon": 0.0, "fusion_lat": 0.0, "lon": -77.03675066666666, "name": "f5bc3c7bd42e51df432e8b9d57c27969"}, {"bike_id": "b9efcab0d73481eab7543150f2ab74a9", "type": "electric_scooter", "is_disabled": 0, "lat": 38.8996275, "rental_uris": {"ios": "https://dc.lft.to/lastmile_qr_scan", "android": "https://dc.lft.to/lastmile_qr_scan"}, "is_reserved": 0, "fusion_lon": 0.0, "fusion_lat": 0.0, "lon": -77.01602633333333, "name": "b9efcab0d73481eab7543150f2ab74a9"}, {"bike_id": "300fcee4c84b531864027985330743d1", "type": "electric_scooter", "is_disabled": 0, "lat": 38.916937833333336, "rental_uris": {"ios": "https://dc.lft.to/lastmile_qr_scan", "android": "https://dc.lft.to/lastmile_qr_scan"}, "is_reserved": 0, "fusion_lon": 0.0, "fusion_lat": 0.0, "lon": -77.04082, "name": "300fcee4c84b531864027985330743d1"}, {"bike_id": "68c3b5202f578b500b3d86dba4f2ce3f", "type": "electric_bike", "is_disabled": 0, "lat": 38.948981, "rental_uris": {"ios": "https://dc.lft.to/lastmile_qr_scan", "android": "https://dc.lft.to/lastmile_qr_scan"}, "is_reserved": 0, "fusion_lon": 0.0, "fusion_lat": 0.0, "lon": -76.96381533333333, "name": "68c3b5202f578b500b3d86dba4f2ce3f"}, {"bike_id": "338cd37df124507b9afd875adb224508", "type": "electric_scooter", "is_disabled": 0, "lat": 38.937787666666665, "rental_uris": {"ios": "https://dc.lft.to/lastmile_qr_scan", "android": "https://dc.lft.to/lastmile_qr_scan"}, "is_reserved": 0, "fusion_lon": 0.0, "fusion_lat": 0.0, "lon": -76.99146433333334, "name": "338cd37df124507b9afd875adb224508"}, {"bike_id": "245f8203a992de11b712551c9b9fe2fe", "type": "electric_scooter", "is_disabled": 0, "lat": 38.908054, "rental_uris": {"ios": "https://dc.lft.to/lastmile_qr_scan", "android": "https://dc.lft.to/lastmile_qr_scan"}, "is_reserved": 0, "fusion_lon": 0.0, "fusion_lat": 0.0, "lon": -77.03195466666666, "name": "245f8203a992de11b712551c9b9fe2fe"}, {"bike_id": "34bef23879c2a6a6ba5c73cde4cd5b1e", "type": "electric_scooter", "is_disabled": 0, "lat": 38.92226, "rental_uris": {"ios": "https://dc.lft.to/lastmile_qr_scan", "android": "https://dc.lft.to/lastmile_qr_scan"}, "is_reserved": 0, "fusion_lon": 0.0, "fusion_lat": 0.0, "lon": -77.03883016666667, "name": "34bef23879c2a6a6ba5c73cde4cd5b1e"}, {"bike_id": "d1ad6d7c4eba63cd4b5b5ce6e166c2cd", "type": "electric_scooter", "is_disabled": 0, "lat": 38.86682533333333, "rental_uris": {"ios": "https://dc.lft.to/lastmile_qr_scan", "android": "https://dc.lft.to/lastmile_qr_scan"}, "is_reserved": 0, "fusion_lon": 0.0, "fusion_lat": 0.0, "lon": -76.98576083333333, "name": "d1ad6d7c4eba63cd4b5b5ce6e166c2cd"}, {"bike_id": "8e22a8eafac9307c66b325b3fb3941f5", "type": "electric_scooter", "is_disabled": 0, "lat": 38.92117416666667, "rental_uris": {"ios": "https://dc.lft.to/lastmile_qr_scan", "android": "https://dc.lft.to/lastmile_qr_scan"}, "is_reserved": 0, "fusion_lon": 0.0, "fusion_lat": 0.0, "lon": -77.01795216666666, "name": "8e22a8eafac9307c66b325b3fb3941f5"}, {"bike_id": "c30a4f4ee38c4a3562599be964747bf6", "type": "electric_scooter", "is_disabled": 0, "lat": 38.925095, "rental_uris": {"ios": "https://dc.lft.to/lastmile_qr_scan", "android": "https://dc.lft.to/lastmile_qr_scan"}, "is_reserved": 0, "fusion_lon": 0.0, "fusion_lat": 0.0, "lon": -77.023286, "name": "c30a4f4ee38c4a3562599be964747bf6"}, {"bike_id": "f4891b63e14bdd3f5340474f3efd4de5", "type": "electric_scooter", "is_disabled": 0, "lat": 38.93351216666667, "rental_uris": {"ios": "https://dc.lft.to/lastmile_qr_scan", "android": "https://dc.lft.to/lastmile_qr_scan"}, "is_reserved": 0, "fusion_lon": 0.0, "fusion_lat": 0.0, "lon": -77.0620845, "name": "f4891b63e14bdd3f5340474f3efd4de5"}, {"bike_id": "cc4229f3b1331fcab50cf3aa86c2cf01", "type": "electric_scooter", "is_disabled": 0, "lat": 38.866870166666665, "rental_uris": {"ios": "https://dc.lft.to/lastmile_qr_scan", "android": "https://dc.lft.to/lastmile_qr_scan"}, "is_reserved": 0, "fusion_lon": 0.0, "fusion_lat": 0.0, "lon": -76.98571266666667, "name": "cc4229f3b1331fcab50cf3aa86c2cf01"}, {"bike_id": "31f861963f29cb6d5d4779989d6af9e6", "type": "electric_scooter", "is_disabled": 0, "lat": 38.90029766666667, "rental_uris": {"ios": "https://dc.lft.to/lastmile_qr_scan", "android": "https://dc.lft.to/lastmile_qr_scan"}, "is_reserved": 0, "fusion_lon": 0.0, "fusion_lat": 0.0, "lon": -77.00027633333333, "name": "31f861963f29cb6d5d4779989d6af9e6"}, {"bike_id": "0f9b5542ce39a30e956788800123b736", "type": "electric_scooter", "is_disabled": 0, "lat": 38.922473833333335, "rental_uris": {"ios": "https://dc.lft.to/lastmile_qr_scan", "android": "https://dc.lft.to/lastmile_qr_scan"}, "is_reserved": 0, "fusion_lon": 0.0, "fusion_lat": 0.0, "lon": -77.03020733333334, "name": "0f9b5542ce39a30e956788800123b736"}, {"bike_id": "dac0ea57d7c1fdfea2b2f56ff875f591", "type": "electric_scooter", "is_disabled": 0, "lat": 38.93248116666667, "rental_uris": {"ios": "https://dc.lft.to/lastmile_qr_scan", "android": "https://dc.lft.to/lastmile_qr_scan"}, "is_reserved": 0, "fusion_lon": 0.0, "fusion_lat": 0.0, "lon": -77.0326545, "name": "dac0ea57d7c1fdfea2b2f56ff875f591"}, {"bike_id": "65143e483190cc5862db995871af804a", "type": "electric_scooter", "is_disabled": 0, "lat": 38.8972405, "rental_uris": {"ios": "https://dc.lft.to/lastmile_qr_scan", "android": "https://dc.lft.to/lastmile_qr_scan"}, "is_reserved": 0, "fusion_lon": 0.0, "fusion_lat": 0.0, "lon": -76.98357016666667, "name": "65143e483190cc5862db995871af804a"}, {"bike_id": "0c6fbf6f566f3aa30b6606577005c5be", "type": "electric_scooter", "is_disabled": 0, "lat": 38.91576583333333, "rental_uris": {"ios": "https://dc.lft.to/lastmile_qr_scan", "android": "https://dc.lft.to/lastmile_qr_scan"}, "is_reserved": 0, "fusion_lon": 0.0, "fusion_lat": 0.0, "lon": -77.01957416666667, "name": "0c6fbf6f566f3aa30b6606577005c5be"}, {"bike_id": "06e425b1528adb6933d90481be405c64", "type": "electric_scooter", "is_disabled": 0, "lat": 38.91526066666667, "rental_uris": {"ios": "https://dc.lft.to/lastmile_qr_scan", "android": "https://dc.lft.to/lastmile_qr_scan"}, "is_reserved": 0, "fusion_lon": 0.0, "fusion_lat": 0.0, "lon": -77.01834066666666, "name": "06e425b1528adb6933d90481be405c64"}, {"bike_id": "316be067b30c5303730975b968d3ff9b", "type": "electric_scooter", "is_disabled": 0, "lat": 38.914879166666665, "rental_uris": {"ios": "https://dc.lft.to/lastmile_qr_scan", "android": "https://dc.lft.to/lastmile_qr_scan"}, "is_reserved": 0, "fusion_lon": 0.0, "fusion_lat": 0.0, "lon": -77.0257605, "name": "316be067b30c5303730975b968d3ff9b"}, {"bike_id": "48fe19ab3869b7b06afa49269e5ba62c", "type": "electric_scooter", "is_disabled": 0, "lat": 38.89829833333334, "rental_uris": {"ios": "https://dc.lft.to/lastmile_qr_scan", "android": "https://dc.lft.to/lastmile_qr_scan"}, "is_reserved": 0, "fusion_lon": 0.0, "fusion_lat": 0.0, "lon": -77.01750116666666, "name": "48fe19ab3869b7b06afa49269e5ba62c"}, {"bike_id": "927e77736a68c63270ed810261c13f37", "type": "electric_scooter", "is_disabled": 0, "lat": 38.90018466666667, "rental_uris": {"ios": "https://dc.lft.to/lastmile_qr_scan", "android": "https://dc.lft.to/lastmile_qr_scan"}, "is_reserved": 0, "fusion_lon": 0.0, "fusion_lat": 0.0, "lon": -77.00209383333333, "name": "927e77736a68c63270ed810261c13f37"}, {"bike_id": "c81c6eff6de1ccd99062c404f6add7d1", "type": "electric_scooter", "is_disabled": 0, "lat": 38.928818, "rental_uris": {"ios": "https://dc.lft.to/lastmile_qr_scan", "android": "https://dc.lft.to/lastmile_qr_scan"}, "is_reserved": 0, "fusion_lon": 0.0, "fusion_lat": 0.0, "lon": -77.0266835, "name": "c81c6eff6de1ccd99062c404f6add7d1"}, {"bike_id": "13346e3e8b334125ff3a14976206722d", "type": "electric_bike", "is_disabled": 0, "lat": 38.9509745, "rental_uris": {"ios": "https://dc.lft.to/lastmile_qr_scan", "android": "https://dc.lft.to/lastmile_qr_scan"}, "is_reserved": 0, "fusion_lon": 0.0, "fusion_lat": 0.0, "lon": -77.0808745, "name": "13346e3e8b334125ff3a14976206722d"}, {"bike_id": "034d0aeed008d755f1cb430631c64037", "type": "electric_scooter", "is_disabled": 0, "lat": 38.91524166666667, "rental_uris": {"ios": "https://dc.lft.to/lastmile_qr_scan", "android": "https://dc.lft.to/lastmile_qr_scan"}, "is_reserved": 0, "fusion_lon": 0.0, "fusion_lat": 0.0, "lon": -77.02303466666666, "name": "034d0aeed008d755f1cb430631c64037"}, {"bike_id": "7970a2609f2da2582bed62e782ab0204", "type": "electric_scooter", "is_disabled": 0, "lat": 38.9391665, "rental_uris": {"ios": "https://dc.lft.to/lastmile_qr_scan", "android": "https://dc.lft.to/lastmile_qr_scan"}, "is_reserved": 0, "fusion_lon": 0.0, "fusion_lat": 0.0, "lon": -77.0604175, "name": "7970a2609f2da2582bed62e782ab0204"}, {"bike_id": "698aaee3dca92fe8111190ac04c4ee09", "type": "electric_scooter", "is_disabled": 0, "lat": 38.91269883333333, "rental_uris": {"ios": "https://dc.lft.to/lastmile_qr_scan", "android": "https://dc.lft.to/lastmile_qr_scan"}, "is_reserved": 0, "fusion_lon": 0.0, "fusion_lat": 0.0, "lon": -77.02949633333333, "name": "698aaee3dca92fe8111190ac04c4ee09"}, {"bike_id": "3c719dc73004a8e9e660035c306c299a", "type": "electric_scooter", "is_disabled": 0, "lat": 38.87560916666666, "rental_uris": {"ios": "https://dc.lft.to/lastmile_qr_scan", "android": "https://dc.lft.to/lastmile_qr_scan"}, "is_reserved": 0, "fusion_lon": 0.0, "fusion_lat": 0.0, "lon": -76.95868016666667, "name": "3c719dc73004a8e9e660035c306c299a"}, {"bike_id": "254f645f93d5c6343542851028b8adfb", "type": "electric_bike", "is_disabled": 0, "lat": 39.037016333333334, "rental_uris": {"ios": "https://dc.lft.to/lastmile_qr_scan", "android": "https://dc.lft.to/lastmile_qr_scan"}, "is_reserved": 0, "fusion_lon": 0.0, "fusion_lat": 0.0, "lon": -77.0285945, "name": "254f645f93d5c6343542851028b8adfb"}, {"bike_id": "768a9f7ea1d071e1f0e08edcdca55a1c", "type": "electric_scooter", "is_disabled": 0, "lat": 38.92249016666667, "rental_uris": {"ios": "https://dc.lft.to/lastmile_qr_scan", "android": "https://dc.lft.to/lastmile_qr_scan"}, "is_reserved": 0, "fusion_lon": 0.0, "fusion_lat": 0.0, "lon": -77.0427135, "name": "768a9f7ea1d071e1f0e08edcdca55a1c"}, {"bike_id": "fce958565105f4c1a0565a3a661b7f89", "type": "electric_scooter", "is_disabled": 0, "lat": 38.902285166666665, "rental_uris": {"ios": "https://dc.lft.to/lastmile_qr_scan", "android": "https://dc.lft.to/lastmile_qr_scan"}, "is_reserved": 0, "fusion_lon": 0.0, "fusion_lat": 0.0, "lon": -77.05895066666666, "name": "fce958565105f4c1a0565a3a661b7f89"}, {"bike_id": "fad2ca976e2c738d4ecd3608aa2a4a41", "type": "electric_scooter", "is_disabled": 0, "lat": 38.916873333333335, "rental_uris": {"ios": "https://dc.lft.to/lastmile_qr_scan", "android": "https://dc.lft.to/lastmile_qr_scan"}, "is_reserved": 0, "fusion_lon": 0.0, "fusion_lat": 0.0, "lon": -77.0230615, "name": "fad2ca976e2c738d4ecd3608aa2a4a41"}, {"bike_id": "dc9b0c3e8b7a58b36ee743b492084871", "type": "electric_scooter", "is_disabled": 0, "lat": 38.920313, "rental_uris": {"ios": "https://dc.lft.to/lastmile_qr_scan", "android": "https://dc.lft.to/lastmile_qr_scan"}, "is_reserved": 0, "fusion_lon": 0.0, "fusion_lat": 0.0, "lon": -77.031198, "name": "dc9b0c3e8b7a58b36ee743b492084871"}, {"bike_id": "d26a34b1a842a461abeb3fdd4ca33d67", "type": "electric_scooter", "is_disabled": 0, "lat": 38.9123405, "rental_uris": {"ios": "https://dc.lft.to/lastmile_qr_scan", "android": "https://dc.lft.to/lastmile_qr_scan"}, "is_reserved": 0, "fusion_lon": 0.0, "fusion_lat": 0.0, "lon": -77.04514233333333, "name": "d26a34b1a842a461abeb3fdd4ca33d67"}, {"bike_id": "8864864160e99fec886c6926586233e0", "type": "electric_scooter", "is_disabled": 0, "lat": 38.893340333333335, "rental_uris": {"ios": "https://dc.lft.to/lastmile_qr_scan", "android": "https://dc.lft.to/lastmile_qr_scan"}, "is_reserved": 0, "fusion_lon": 0.0, "fusion_lat": 0.0, "lon": -77.031676, "name": "8864864160e99fec886c6926586233e0"}, {"bike_id": "3df37aaae36a0b095479e2d9e3e6f0c3", "type": "electric_scooter", "is_disabled": 0, "lat": 38.920769, "rental_uris": {"ios": "https://dc.lft.to/lastmile_qr_scan", "android": "https://dc.lft.to/lastmile_qr_scan"}, "is_reserved": 0, "fusion_lon": 0.0, "fusion_lat": 0.0, "lon": -77.02391533333333, "name": "3df37aaae36a0b095479e2d9e3e6f0c3"}, {"bike_id": "f56c42f9e4e822035acaf7868bbeb8c8", "type": "electric_scooter", "is_disabled": 0, "lat": 38.92228083333333, "rental_uris": {"ios": "https://dc.lft.to/lastmile_qr_scan", "android": "https://dc.lft.to/lastmile_qr_scan"}, "is_reserved": 0, "fusion_lon": 0.0, "fusion_lat": 0.0, "lon": -77.04337216666667, "name": "f56c42f9e4e822035acaf7868bbeb8c8"}, {"bike_id": "e183f3bcf975f5254b99b623b2880b1e", "type": "electric_scooter", "is_disabled": 0, "lat": 38.90482316666667, "rental_uris": {"ios": "https://dc.lft.to/lastmile_qr_scan", "android": "https://dc.lft.to/lastmile_qr_scan"}, "is_reserved": 0, "fusion_lon": 0.0, "fusion_lat": 0.0, "lon": -76.9962635, "name": "e183f3bcf975f5254b99b623b2880b1e"}, {"bike_id": "fd468cdce6ec238c29903d0cf05c044e", "type": "electric_scooter", "is_disabled": 0, "lat": 38.947918666666666, "rental_uris": {"ios": "https://dc.lft.to/lastmile_qr_scan", "android": "https://dc.lft.to/lastmile_qr_scan"}, "is_reserved": 0, "fusion_lon": 0.0, "fusion_lat": 0.0, "lon": -77.02131616666667, "name": "fd468cdce6ec238c29903d0cf05c044e"}, {"bike_id": "2d581602572244c10db3e8404835b3ee", "type": "electric_bike", "is_disabled": 0, "lat": 38.84524666666667, "rental_uris": {"ios": "https://dc.lft.to/lastmile_qr_scan", "android": "https://dc.lft.to/lastmile_qr_scan"}, "is_reserved": 0, "fusion_lon": 0.0, "fusion_lat": 0.0, "lon": -76.97395216666666, "name": "2d581602572244c10db3e8404835b3ee"}, {"bike_id": "d26758d37427b77d16ed1184f3039b04", "type": "electric_scooter", "is_disabled": 0, "lat": 38.91784233333333, "rental_uris": {"ios": "https://dc.lft.to/lastmile_qr_scan", "android": "https://dc.lft.to/lastmile_qr_scan"}, "is_reserved": 0, "fusion_lon": 0.0, "fusion_lat": 0.0, "lon": -77.02310616666666, "name": "d26758d37427b77d16ed1184f3039b04"}, {"bike_id": "03343bce8fb21b673a5449476d6b5125", "type": "electric_scooter", "is_disabled": 0, "lat": 38.89221283333333, "rental_uris": {"ios": "https://dc.lft.to/lastmile_qr_scan", "android": "https://dc.lft.to/lastmile_qr_scan"}, "is_reserved": 0, "fusion_lon": 0.0, "fusion_lat": 0.0, "lon": -77.04007533333333, "name": "03343bce8fb21b673a5449476d6b5125"}, {"bike_id": "68bea073c50ef13ef0b23f866baeb8ea", "type": "electric_scooter", "is_disabled": 0, "lat": 38.92523683333334, "rental_uris": {"ios": "https://dc.lft.to/lastmile_qr_scan", "android": "https://dc.lft.to/lastmile_qr_scan"}, "is_reserved": 0, "fusion_lon": 0.0, "fusion_lat": 0.0, "lon": -77.07631116666667, "name": "68bea073c50ef13ef0b23f866baeb8ea"}, {"bike_id": "c1cd148c7a63cca38b35685a76602dc4", "type": "electric_scooter", "is_disabled": 0, "lat": 38.93821483333333, "rental_uris": {"ios": "https://dc.lft.to/lastmile_qr_scan", "android": "https://dc.lft.to/lastmile_qr_scan"}, "is_reserved": 0, "fusion_lon": 0.0, "fusion_lat": 0.0, "lon": -77.07164733333333, "name": "c1cd148c7a63cca38b35685a76602dc4"}, {"bike_id": "ea6e8d97dfc490757d16fde64942b865", "type": "electric_bike", "is_disabled": 0, "lat": 39.056334166666666, "rental_uris": {"ios": "https://dc.lft.to/lastmile_qr_scan", "android": "https://dc.lft.to/lastmile_qr_scan"}, "is_reserved": 0, "fusion_lon": 0.0, "fusion_lat": 0.0, "lon": -77.12524833333333, "name": "ea6e8d97dfc490757d16fde64942b865"}, {"bike_id": "f7b36aec531b19850706164a1b4eeb3d", "type": "electric_scooter", "is_disabled": 0, "lat": 38.91110833333333, "rental_uris": {"ios": "https://dc.lft.to/lastmile_qr_scan", "android": "https://dc.lft.to/lastmile_qr_scan"}, "is_reserved": 0, "fusion_lon": 0.0, "fusion_lat": 0.0, "lon": -77.03859833333334, "name": "f7b36aec531b19850706164a1b4eeb3d"}, {"bike_id": "2a9c4da8df6c81515a7c0849333f7cf0", "type": "electric_scooter", "is_disabled": 0, "lat": 38.94211383333333, "rental_uris": {"ios": "https://dc.lft.to/lastmile_qr_scan", "android": "https://dc.lft.to/lastmile_qr_scan"}, "is_reserved": 0, "fusion_lon": 0.0, "fusion_lat": 0.0, "lon": -77.0258665, "name": "2a9c4da8df6c81515a7c0849333f7cf0"}, {"bike_id": "aeb1f175f391a8a32235f95057a8180d", "type": "electric_scooter", "is_disabled": 0, "lat": 38.9075955, "rental_uris": {"ios": "https://dc.lft.to/lastmile_qr_scan", "android": "https://dc.lft.to/lastmile_qr_scan"}, "is_reserved": 0, "fusion_lon": 0.0, "fusion_lat": 0.0, "lon": -77.00881233333334, "name": "aeb1f175f391a8a32235f95057a8180d"}, {"bike_id": "b60359bc3fdadc95ddb8a11ce2046583", "type": "electric_scooter", "is_disabled": 0, "lat": 38.8882235, "rental_uris": {"ios": "https://dc.lft.to/lastmile_qr_scan", "android": "https://dc.lft.to/lastmile_qr_scan"}, "is_reserved": 0, "fusion_lon": 0.0, "fusion_lat": 0.0, "lon": -76.99158966666667, "name": "b60359bc3fdadc95ddb8a11ce2046583"}, {"bike_id": "19991f9441f9e8b77d8ccfb28d6ea994", "type": "electric_scooter", "is_disabled": 0, "lat": 38.92347266666667, "rental_uris": {"ios": "https://dc.lft.to/lastmile_qr_scan", "android": "https://dc.lft.to/lastmile_qr_scan"}, "is_reserved": 0, "fusion_lon": 0.0, "fusion_lat": 0.0, "lon": -77.0511755, "name": "19991f9441f9e8b77d8ccfb28d6ea994"}, {"bike_id": "170f186ab92abc67401cdba3fd346170", "type": "electric_scooter", "is_disabled": 0, "lat": 38.90583183333333, "rental_uris": {"ios": "https://dc.lft.to/lastmile_qr_scan", "android": "https://dc.lft.to/lastmile_qr_scan"}, "is_reserved": 0, "fusion_lon": 0.0, "fusion_lat": 0.0, "lon": -77.04577183333333, "name": "170f186ab92abc67401cdba3fd346170"}, {"bike_id": "69bcefaaa1e4f090118b764903fc2f0f", "type": "electric_scooter", "is_disabled": 0, "lat": 38.920547666666664, "rental_uris": {"ios": "https://dc.lft.to/lastmile_qr_scan", "android": "https://dc.lft.to/lastmile_qr_scan"}, "is_reserved": 0, "fusion_lon": 0.0, "fusion_lat": 0.0, "lon": -77.0236035, "name": "69bcefaaa1e4f090118b764903fc2f0f"}, {"bike_id": "d7ada3d6a26c02bdcc57f4698b392a1f", "type": "electric_scooter", "is_disabled": 0, "lat": 38.91784283333333, "rental_uris": {"ios": "https://dc.lft.to/lastmile_qr_scan", "android": "https://dc.lft.to/lastmile_qr_scan"}, "is_reserved": 0, "fusion_lon": 0.0, "fusion_lat": 0.0, "lon": -77.0319635, "name": "d7ada3d6a26c02bdcc57f4698b392a1f"}, {"bike_id": "13b2b28863c17dc5eff4b7609faee047", "type": "electric_scooter", "is_disabled": 0, "lat": 38.92340033333333, "rental_uris": {"ios": "https://dc.lft.to/lastmile_qr_scan", "android": "https://dc.lft.to/lastmile_qr_scan"}, "is_reserved": 0, "fusion_lon": 0.0, "fusion_lat": 0.0, "lon": -77.05297483333334, "name": "13b2b28863c17dc5eff4b7609faee047"}, {"bike_id": "8371b8dfd463055581139122ce229d04", "type": "electric_scooter", "is_disabled": 0, "lat": 38.911242666666666, "rental_uris": {"ios": "https://dc.lft.to/lastmile_qr_scan", "android": "https://dc.lft.to/lastmile_qr_scan"}, "is_reserved": 0, "fusion_lon": 0.0, "fusion_lat": 0.0, "lon": -77.03242016666667, "name": "8371b8dfd463055581139122ce229d04"}, {"bike_id": "4842083205dc30035bbdea68582a1ae3", "type": "electric_scooter", "is_disabled": 0, "lat": 38.90977083333333, "rental_uris": {"ios": "https://dc.lft.to/lastmile_qr_scan", "android": "https://dc.lft.to/lastmile_qr_scan"}, "is_reserved": 0, "fusion_lon": 0.0, "fusion_lat": 0.0, "lon": -77.02712566666666, "name": "4842083205dc30035bbdea68582a1ae3"}, {"bike_id": "d57c54451b7988bf2c1164766bcf986b", "type": "electric_scooter", "is_disabled": 0, "lat": 38.932748833333335, "rental_uris": {"ios": "https://dc.lft.to/lastmile_qr_scan", "android": "https://dc.lft.to/lastmile_qr_scan"}, "is_reserved": 0, "fusion_lon": 0.0, "fusion_lat": 0.0, "lon": -77.03500616666666, "name": "d57c54451b7988bf2c1164766bcf986b"}, {"bike_id": "c44afa1e06c0587d8860fa9f312eb4a1", "type": "electric_scooter", "is_disabled": 0, "lat": 38.865049166666665, "rental_uris": {"ios": "https://dc.lft.to/lastmile_qr_scan", "android": "https://dc.lft.to/lastmile_qr_scan"}, "is_reserved": 0, "fusion_lon": 0.0, "fusion_lat": 0.0, "lon": -76.99000716666667, "name": "c44afa1e06c0587d8860fa9f312eb4a1"}, {"bike_id": "1f3b12f0a67c10c4c61f5b0cad5cd418", "type": "electric_scooter", "is_disabled": 0, "lat": 38.91628983333333, "rental_uris": {"ios": "https://dc.lft.to/lastmile_qr_scan", "android": "https://dc.lft.to/lastmile_qr_scan"}, "is_reserved": 0, "fusion_lon": 0.0, "fusion_lat": 0.0, "lon": -77.0319325, "name": "1f3b12f0a67c10c4c61f5b0cad5cd418"}, {"bike_id": "1698509821385ffaa9a398160914632c", "type": "electric_scooter", "is_disabled": 0, "lat": 38.900898833333336, "rental_uris": {"ios": "https://dc.lft.to/lastmile_qr_scan", "android": "https://dc.lft.to/lastmile_qr_scan"}, "is_reserved": 0, "fusion_lon": 0.0, "fusion_lat": 0.0, "lon": -76.9833935, "name": "1698509821385ffaa9a398160914632c"}, {"bike_id": "a1c954a45c666d61f53f8f77b5423f36", "type": "electric_scooter", "is_disabled": 0, "lat": 38.92171233333333, "rental_uris": {"ios": "https://dc.lft.to/lastmile_qr_scan", "android": "https://dc.lft.to/lastmile_qr_scan"}, "is_reserved": 0, "fusion_lon": 0.0, "fusion_lat": 0.0, "lon": -77.03363283333333, "name": "a1c954a45c666d61f53f8f77b5423f36"}, {"bike_id": "2a0915c51bd2f92383a7e6e835388e3b", "type": "electric_scooter", "is_disabled": 0, "lat": 38.87956716666667, "rental_uris": {"ios": "https://dc.lft.to/lastmile_qr_scan", "android": "https://dc.lft.to/lastmile_qr_scan"}, "is_reserved": 0, "fusion_lon": 0.0, "fusion_lat": 0.0, "lon": -77.00847333333333, "name": "2a0915c51bd2f92383a7e6e835388e3b"}, {"bike_id": "0d038c62fd33b66955f80de293a2209e", "type": "electric_bike", "is_disabled": 0, "lat": 38.8091425, "rental_uris": {"ios": "https://dc.lft.to/lastmile_qr_scan", "android": "https://dc.lft.to/lastmile_qr_scan"}, "is_reserved": 0, "fusion_lon": 0.0, "fusion_lat": 0.0, "lon": -77.086546, "name": "0d038c62fd33b66955f80de293a2209e"}, {"bike_id": "95204224209651283e29b79526045140", "type": "electric_scooter", "is_disabled": 0, "lat": 38.917084, "rental_uris": {"ios": "https://dc.lft.to/lastmile_qr_scan", "android": "https://dc.lft.to/lastmile_qr_scan"}, "is_reserved": 0, "fusion_lon": 0.0, "fusion_lat": 0.0, "lon": -77.038635, "name": "95204224209651283e29b79526045140"}, {"bike_id": "52c2acc65a951269996181da7f5c94c3", "type": "electric_scooter", "is_disabled": 0, "lat": 38.875015, "rental_uris": {"ios": "https://dc.lft.to/lastmile_qr_scan", "android": "https://dc.lft.to/lastmile_qr_scan"}, "is_reserved": 0, "fusion_lon": 0.0, "fusion_lat": 0.0, "lon": -77.01221383333333, "name": "52c2acc65a951269996181da7f5c94c3"}, {"bike_id": "8b399504e81a5489688ce6269c299d45", "type": "electric_scooter", "is_disabled": 0, "lat": 38.9073035, "rental_uris": {"ios": "https://dc.lft.to/lastmile_qr_scan", "android": "https://dc.lft.to/lastmile_qr_scan"}, "is_reserved": 0, "fusion_lon": 0.0, "fusion_lat": 0.0, "lon": -77.031924, "name": "8b399504e81a5489688ce6269c299d45"}, {"bike_id": "454c38d7d5e0abe5a3c1c12d310681b9", "type": "electric_bike", "is_disabled": 0, "lat": 38.919616833333336, "rental_uris": {"ios": "https://dc.lft.to/lastmile_qr_scan", "android": "https://dc.lft.to/lastmile_qr_scan"}, "is_reserved": 0, "fusion_lon": 0.0, "fusion_lat": 0.0, "lon": -77.00318566666667, "name": "454c38d7d5e0abe5a3c1c12d310681b9"}, {"bike_id": "c921ef3db5c891bd6eff287d2903eb0d", "type": "electric_scooter", "is_disabled": 0, "lat": 38.900306, "rental_uris": {"ios": "https://dc.lft.to/lastmile_qr_scan", "android": "https://dc.lft.to/lastmile_qr_scan"}, "is_reserved": 0, "fusion_lon": 0.0, "fusion_lat": 0.0, "lon": -77.0258325, "name": "c921ef3db5c891bd6eff287d2903eb0d"}, {"bike_id": "c132ccdbcecd749e00b8bacd1c3351fc", "type": "electric_scooter", "is_disabled": 0, "lat": 38.89252116666667, "rental_uris": {"ios": "https://dc.lft.to/lastmile_qr_scan", "android": "https://dc.lft.to/lastmile_qr_scan"}, "is_reserved": 0, "fusion_lon": 0.0, "fusion_lat": 0.0, "lon": -77.048754, "name": "c132ccdbcecd749e00b8bacd1c3351fc"}, {"bike_id": "0f9abdd09acf8ce1f0bebbb87da5e744", "type": "electric_scooter", "is_disabled": 0, "lat": 38.89239933333333, "rental_uris": {"ios": "https://dc.lft.to/lastmile_qr_scan", "android": "https://dc.lft.to/lastmile_qr_scan"}, "is_reserved": 0, "fusion_lon": 0.0, "fusion_lat": 0.0, "lon": -76.95332433333333, "name": "0f9abdd09acf8ce1f0bebbb87da5e744"}, {"bike_id": "ec7cdd8dfefd3caf3855adb13bebc07f", "type": "electric_scooter", "is_disabled": 0, "lat": 38.91771766666667, "rental_uris": {"ios": "https://dc.lft.to/lastmile_qr_scan", "android": "https://dc.lft.to/lastmile_qr_scan"}, "is_reserved": 0, "fusion_lon": 0.0, "fusion_lat": 0.0, "lon": -77.02947333333333, "name": "ec7cdd8dfefd3caf3855adb13bebc07f"}, {"bike_id": "4a09faed57b90813bba84e4ca155c82c", "type": "electric_scooter", "is_disabled": 0, "lat": 38.926367, "rental_uris": {"ios": "https://dc.lft.to/lastmile_qr_scan", "android": "https://dc.lft.to/lastmile_qr_scan"}, "is_reserved": 0, "fusion_lon": 0.0, "fusion_lat": 0.0, "lon": -77.013813, "name": "4a09faed57b90813bba84e4ca155c82c"}, {"bike_id": "ffd31869e7e35e4f1396c3c1fe6b5431", "type": "electric_scooter", "is_disabled": 0, "lat": 38.9261885, "rental_uris": {"ios": "https://dc.lft.to/lastmile_qr_scan", "android": "https://dc.lft.to/lastmile_qr_scan"}, "is_reserved": 0, "fusion_lon": 0.0, "fusion_lat": 0.0, "lon": -77.05704166666666, "name": "ffd31869e7e35e4f1396c3c1fe6b5431"}, {"bike_id": "adcef9e2c5b63295b1f3730181ad4995", "type": "electric_bike", "is_disabled": 0, "lat": 38.83611616666666, "rental_uris": {"ios": "https://dc.lft.to/lastmile_qr_scan", "android": "https://dc.lft.to/lastmile_qr_scan"}, "is_reserved": 0, "fusion_lon": 0.0, "fusion_lat": 0.0, "lon": -77.00384316666667, "name": "adcef9e2c5b63295b1f3730181ad4995"}, {"bike_id": "1d54e8301d5f3c0e49cc436d6201ad46", "type": "electric_scooter", "is_disabled": 0, "lat": 38.914170666666664, "rental_uris": {"ios": "https://dc.lft.to/lastmile_qr_scan", "android": "https://dc.lft.to/lastmile_qr_scan"}, "is_reserved": 0, "fusion_lon": 0.0, "fusion_lat": 0.0, "lon": -77.01989866666666, "name": "1d54e8301d5f3c0e49cc436d6201ad46"}, {"bike_id": "f3fe8ca1d8843d4ee3b795efa114e36a", "type": "electric_scooter", "is_disabled": 0, "lat": 38.90672083333333, "rental_uris": {"ios": "https://dc.lft.to/lastmile_qr_scan", "android": "https://dc.lft.to/lastmile_qr_scan"}, "is_reserved": 0, "fusion_lon": 0.0, "fusion_lat": 0.0, "lon": -77.02713133333333, "name": "f3fe8ca1d8843d4ee3b795efa114e36a"}, {"bike_id": "7af6e7c9405e03072666902ca9510b80", "type": "electric_scooter", "is_disabled": 0, "lat": 38.91693166666667, "rental_uris": {"ios": "https://dc.lft.to/lastmile_qr_scan", "android": "https://dc.lft.to/lastmile_qr_scan"}, "is_reserved": 0, "fusion_lon": 0.0, "fusion_lat": 0.0, "lon": -77.041067, "name": "7af6e7c9405e03072666902ca9510b80"}, {"bike_id": "deaa3cbc78e303d379f92281390025c9", "type": "electric_scooter", "is_disabled": 0, "lat": 38.899395, "rental_uris": {"ios": "https://dc.lft.to/lastmile_qr_scan", "android": "https://dc.lft.to/lastmile_qr_scan"}, "is_reserved": 0, "fusion_lon": 0.0, "fusion_lat": 0.0, "lon": -77.01454066666666, "name": "deaa3cbc78e303d379f92281390025c9"}, {"bike_id": "8e5190d4021f94198cf828412064a9d0", "type": "electric_scooter", "is_disabled": 0, "lat": 38.902768, "rental_uris": {"ios": "https://dc.lft.to/lastmile_qr_scan", "android": "https://dc.lft.to/lastmile_qr_scan"}, "is_reserved": 0, "fusion_lon": 0.0, "fusion_lat": 0.0, "lon": -77.0179665, "name": "8e5190d4021f94198cf828412064a9d0"}, {"bike_id": "6eb2be285858b00bac13164fb7203f38", "type": "electric_scooter", "is_disabled": 0, "lat": 38.92241516666667, "rental_uris": {"ios": "https://dc.lft.to/lastmile_qr_scan", "android": "https://dc.lft.to/lastmile_qr_scan"}, "is_reserved": 0, "fusion_lon": 0.0, "fusion_lat": 0.0, "lon": -77.0298585, "name": "6eb2be285858b00bac13164fb7203f38"}, {"bike_id": "c5dbe6a8d1a264050b46f2b0073f4487", "type": "electric_scooter", "is_disabled": 0, "lat": 38.911074666666664, "rental_uris": {"ios": "https://dc.lft.to/lastmile_qr_scan", "android": "https://dc.lft.to/lastmile_qr_scan"}, "is_reserved": 0, "fusion_lon": 0.0, "fusion_lat": 0.0, "lon": -77.01390183333334, "name": "c5dbe6a8d1a264050b46f2b0073f4487"}, {"bike_id": "11b37df138e528acc2b8d5315cde45aa", "type": "electric_scooter", "is_disabled": 0, "lat": 38.844339, "rental_uris": {"ios": "https://dc.lft.to/lastmile_qr_scan", "android": "https://dc.lft.to/lastmile_qr_scan"}, "is_reserved": 0, "fusion_lon": 0.0, "fusion_lat": 0.0, "lon": -76.998711, "name": "11b37df138e528acc2b8d5315cde45aa"}, {"bike_id": "ccb08cdc27d68e0e44b1da58874af143", "type": "electric_bike", "is_disabled": 0, "lat": 38.9388495, "rental_uris": {"ios": "https://dc.lft.to/lastmile_qr_scan", "android": "https://dc.lft.to/lastmile_qr_scan"}, "is_reserved": 0, "fusion_lon": 0.0, "fusion_lat": 0.0, "lon": -77.06344383333334, "name": "ccb08cdc27d68e0e44b1da58874af143"}, {"bike_id": "cd067ca77a8b60bca2eb156921e7f729", "type": "electric_scooter", "is_disabled": 0, "lat": 38.9095535, "rental_uris": {"ios": "https://dc.lft.to/lastmile_qr_scan", "android": "https://dc.lft.to/lastmile_qr_scan"}, "is_reserved": 0, "fusion_lon": 0.0, "fusion_lat": 0.0, "lon": -77.04069616666666, "name": "cd067ca77a8b60bca2eb156921e7f729"}, {"bike_id": "4257fce7cb45d739278504028a6d914c", "type": "electric_scooter", "is_disabled": 0, "lat": 38.9147995, "rental_uris": {"ios": "https://dc.lft.to/lastmile_qr_scan", "android": "https://dc.lft.to/lastmile_qr_scan"}, "is_reserved": 0, "fusion_lon": 0.0, "fusion_lat": 0.0, "lon": -77.04575566666666, "name": "4257fce7cb45d739278504028a6d914c"}, {"bike_id": "4aeee7b1fa53a0db2f485ba8c6589be2", "type": "electric_scooter", "is_disabled": 0, "lat": 38.96504016666667, "rental_uris": {"ios": "https://dc.lft.to/lastmile_qr_scan", "android": "https://dc.lft.to/lastmile_qr_scan"}, "is_reserved": 0, "fusion_lon": 0.0, "fusion_lat": 0.0, "lon": -77.00200466666666, "name": "4aeee7b1fa53a0db2f485ba8c6589be2"}, {"bike_id": "c9a9de03eb8eeebdd5bf2ee4357e3f8a", "type": "electric_scooter", "is_disabled": 0, "lat": 38.929987833333335, "rental_uris": {"ios": "https://dc.lft.to/lastmile_qr_scan", "android": "https://dc.lft.to/lastmile_qr_scan"}, "is_reserved": 0, "fusion_lon": 0.0, "fusion_lat": 0.0, "lon": -77.07963883333333, "name": "c9a9de03eb8eeebdd5bf2ee4357e3f8a"}, {"bike_id": "9451affd3194b9b1147f529cf736dbc5", "type": "electric_scooter", "is_disabled": 0, "lat": 38.92881766666667, "rental_uris": {"ios": "https://dc.lft.to/lastmile_qr_scan", "android": "https://dc.lft.to/lastmile_qr_scan"}, "is_reserved": 0, "fusion_lon": 0.0, "fusion_lat": 0.0, "lon": -77.037703, "name": "9451affd3194b9b1147f529cf736dbc5"}, {"bike_id": "2d256e1491b17de44563b5a31689e0fa", "type": "electric_scooter", "is_disabled": 0, "lat": 38.9142365, "rental_uris": {"ios": "https://dc.lft.to/lastmile_qr_scan", "android": "https://dc.lft.to/lastmile_qr_scan"}, "is_reserved": 0, "fusion_lon": 0.0, "fusion_lat": 0.0, "lon": -77.0218145, "name": "2d256e1491b17de44563b5a31689e0fa"}, {"bike_id": "403f33137b37cb6501db05f5eb3f93a1", "type": "electric_scooter", "is_disabled": 0, "lat": 38.895081166666664, "rental_uris": {"ios": "https://dc.lft.to/lastmile_qr_scan", "android": "https://dc.lft.to/lastmile_qr_scan"}, "is_reserved": 0, "fusion_lon": 0.0, "fusion_lat": 0.0, "lon": -77.01606933333333, "name": "403f33137b37cb6501db05f5eb3f93a1"}, {"bike_id": "fb523e371c359ac2a5f13a17eabf4475", "type": "electric_scooter", "is_disabled": 0, "lat": 38.91716566666667, "rental_uris": {"ios": "https://dc.lft.to/lastmile_qr_scan", "android": "https://dc.lft.to/lastmile_qr_scan"}, "is_reserved": 0, "fusion_lon": 0.0, "fusion_lat": 0.0, "lon": -77.04681166666667, "name": "fb523e371c359ac2a5f13a17eabf4475"}, {"bike_id": "efd3bba712d8ae13959ca7c8f3e1d1e3", "type": "electric_scooter", "is_disabled": 0, "lat": 38.91814983333333, "rental_uris": {"ios": "https://dc.lft.to/lastmile_qr_scan", "android": "https://dc.lft.to/lastmile_qr_scan"}, "is_reserved": 0, "fusion_lon": 0.0, "fusion_lat": 0.0, "lon": -77.027058, "name": "efd3bba712d8ae13959ca7c8f3e1d1e3"}, {"bike_id": "1c0c39dfc20cc8e0b9958ad88464dc07", "type": "electric_scooter", "is_disabled": 0, "lat": 38.916885, "rental_uris": {"ios": "https://dc.lft.to/lastmile_qr_scan", "android": "https://dc.lft.to/lastmile_qr_scan"}, "is_reserved": 0, "fusion_lon": 0.0, "fusion_lat": 0.0, "lon": -77.0251275, "name": "1c0c39dfc20cc8e0b9958ad88464dc07"}, {"bike_id": "8ffd89019bc4c18e760e91e86abc8a35", "type": "electric_scooter", "is_disabled": 0, "lat": 38.876616166666665, "rental_uris": {"ios": "https://dc.lft.to/lastmile_qr_scan", "android": "https://dc.lft.to/lastmile_qr_scan"}, "is_reserved": 0, "fusion_lon": 0.0, "fusion_lat": 0.0, "lon": -77.00825666666667, "name": "8ffd89019bc4c18e760e91e86abc8a35"}, {"bike_id": "1df88faa5d453b92059e92bc6b2ba873", "type": "electric_scooter", "is_disabled": 0, "lat": 38.94022433333333, "rental_uris": {"ios": "https://dc.lft.to/lastmile_qr_scan", "android": "https://dc.lft.to/lastmile_qr_scan"}, "is_reserved": 0, "fusion_lon": 0.0, "fusion_lat": 0.0, "lon": -77.026331, "name": "1df88faa5d453b92059e92bc6b2ba873"}, {"bike_id": "f80b6da7a35e393b09b161066c542d99", "type": "electric_scooter", "is_disabled": 0, "lat": 38.87499666666667, "rental_uris": {"ios": "https://dc.lft.to/lastmile_qr_scan", "android": "https://dc.lft.to/lastmile_qr_scan"}, "is_reserved": 0, "fusion_lon": 0.0, "fusion_lat": 0.0, "lon": -77.01235283333334, "name": "f80b6da7a35e393b09b161066c542d99"}, {"bike_id": "f45f876336030136661432954ebebc81", "type": "electric_scooter", "is_disabled": 0, "lat": 38.90546533333333, "rental_uris": {"ios": "https://dc.lft.to/lastmile_qr_scan", "android": "https://dc.lft.to/lastmile_qr_scan"}, "is_reserved": 0, "fusion_lon": 0.0, "fusion_lat": 0.0, "lon": -77.0489265, "name": "f45f876336030136661432954ebebc81"}, {"bike_id": "3b5dd08a3db6a2d6284a4c967ed6b4a4", "type": "electric_scooter", "is_disabled": 0, "lat": 38.905246, "rental_uris": {"ios": "https://dc.lft.to/lastmile_qr_scan", "android": "https://dc.lft.to/lastmile_qr_scan"}, "is_reserved": 0, "fusion_lon": 0.0, "fusion_lat": 0.0, "lon": -77.04879983333333, "name": "3b5dd08a3db6a2d6284a4c967ed6b4a4"}, {"bike_id": "9184f75e42825d2eee2d6dc38401ef35", "type": "electric_scooter", "is_disabled": 0, "lat": 38.89980933333333, "rental_uris": {"ios": "https://dc.lft.to/lastmile_qr_scan", "android": "https://dc.lft.to/lastmile_qr_scan"}, "is_reserved": 0, "fusion_lon": 0.0, "fusion_lat": 0.0, "lon": -77.029312, "name": "9184f75e42825d2eee2d6dc38401ef35"}, {"bike_id": "2033548c563cc0a9d70ea8178cb71375", "type": "electric_scooter", "is_disabled": 0, "lat": 38.956142666666665, "rental_uris": {"ios": "https://dc.lft.to/lastmile_qr_scan", "android": "https://dc.lft.to/lastmile_qr_scan"}, "is_reserved": 0, "fusion_lon": 0.0, "fusion_lat": 0.0, "lon": -77.01015416666667, "name": "2033548c563cc0a9d70ea8178cb71375"}, {"bike_id": "f98fdcc6dc6b6f55201bc28b57c838ca", "type": "electric_scooter", "is_disabled": 0, "lat": 38.920454666666664, "rental_uris": {"ios": "https://dc.lft.to/lastmile_qr_scan", "android": "https://dc.lft.to/lastmile_qr_scan"}, "is_reserved": 0, "fusion_lon": 0.0, "fusion_lat": 0.0, "lon": -77.033935, "name": "f98fdcc6dc6b6f55201bc28b57c838ca"}, {"bike_id": "8d9db69478ac46f2aea17a98dda84aca", "type": "electric_scooter", "is_disabled": 0, "lat": 38.9173165, "rental_uris": {"ios": "https://dc.lft.to/lastmile_qr_scan", "android": "https://dc.lft.to/lastmile_qr_scan"}, "is_reserved": 0, "fusion_lon": 0.0, "fusion_lat": 0.0, "lon": -77.01921766666666, "name": "8d9db69478ac46f2aea17a98dda84aca"}, {"bike_id": "875d815b9839923cf84f8a1cefdd1d1a", "type": "electric_scooter", "is_disabled": 0, "lat": 38.9073875, "rental_uris": {"ios": "https://dc.lft.to/lastmile_qr_scan", "android": "https://dc.lft.to/lastmile_qr_scan"}, "is_reserved": 0, "fusion_lon": 0.0, "fusion_lat": 0.0, "lon": -77.021835, "name": "875d815b9839923cf84f8a1cefdd1d1a"}, {"bike_id": "88dd9da0cc43dad3c113b87342f17db5", "type": "electric_scooter", "is_disabled": 0, "lat": 38.8762845, "rental_uris": {"ios": "https://dc.lft.to/lastmile_qr_scan", "android": "https://dc.lft.to/lastmile_qr_scan"}, "is_reserved": 0, "fusion_lon": 0.0, "fusion_lat": 0.0, "lon": -76.9653685, "name": "88dd9da0cc43dad3c113b87342f17db5"}, {"bike_id": "ef8e5c3f49ebb0edcad885d3fec21a41", "type": "electric_scooter", "is_disabled": 0, "lat": 38.92052666666667, "rental_uris": {"ios": "https://dc.lft.to/lastmile_qr_scan", "android": "https://dc.lft.to/lastmile_qr_scan"}, "is_reserved": 0, "fusion_lon": 0.0, "fusion_lat": 0.0, "lon": -76.998747, "name": "ef8e5c3f49ebb0edcad885d3fec21a41"}, {"bike_id": "f7c7b12762f7c6d6d9ae4647d2379e90", "type": "electric_scooter", "is_disabled": 0, "lat": 38.906617833333335, "rental_uris": {"ios": "https://dc.lft.to/lastmile_qr_scan", "android": "https://dc.lft.to/lastmile_qr_scan"}, "is_reserved": 0, "fusion_lon": 0.0, "fusion_lat": 0.0, "lon": -77.04615816666667, "name": "f7c7b12762f7c6d6d9ae4647d2379e90"}, {"bike_id": "be6d171dcfb3e4d09ebbd892060eb6b1", "type": "electric_scooter", "is_disabled": 0, "lat": 38.906719, "rental_uris": {"ios": "https://dc.lft.to/lastmile_qr_scan", "android": "https://dc.lft.to/lastmile_qr_scan"}, "is_reserved": 0, "fusion_lon": 0.0, "fusion_lat": 0.0, "lon": -77.0105415, "name": "be6d171dcfb3e4d09ebbd892060eb6b1"}, {"bike_id": "11f2e1a94ac27f44266df5cd195395f4", "type": "electric_scooter", "is_disabled": 0, "lat": 38.91270516666667, "rental_uris": {"ios": "https://dc.lft.to/lastmile_qr_scan", "android": "https://dc.lft.to/lastmile_qr_scan"}, "is_reserved": 0, "fusion_lon": 0.0, "fusion_lat": 0.0, "lon": -77.02214883333333, "name": "11f2e1a94ac27f44266df5cd195395f4"}, {"bike_id": "c7048d21c35999db55cd338e3699fd66", "type": "electric_scooter", "is_disabled": 0, "lat": 38.91760516666667, "rental_uris": {"ios": "https://dc.lft.to/lastmile_qr_scan", "android": "https://dc.lft.to/lastmile_qr_scan"}, "is_reserved": 0, "fusion_lon": 0.0, "fusion_lat": 0.0, "lon": -77.024, "name": "c7048d21c35999db55cd338e3699fd66"}, {"bike_id": "8b430afdd913ab27b5dff1bde979ab72", "type": "electric_scooter", "is_disabled": 0, "lat": 38.9164355, "rental_uris": {"ios": "https://dc.lft.to/lastmile_qr_scan", "android": "https://dc.lft.to/lastmile_qr_scan"}, "is_reserved": 0, "fusion_lon": 0.0, "fusion_lat": 0.0, "lon": -77.04823933333333, "name": "8b430afdd913ab27b5dff1bde979ab72"}, {"bike_id": "8de29f89e14a77efbb41f79e55f635ce", "type": "electric_scooter", "is_disabled": 0, "lat": 38.910052666666665, "rental_uris": {"ios": "https://dc.lft.to/lastmile_qr_scan", "android": "https://dc.lft.to/lastmile_qr_scan"}, "is_reserved": 0, "fusion_lon": 0.0, "fusion_lat": 0.0, "lon": -77.02091133333333, "name": "8de29f89e14a77efbb41f79e55f635ce"}, {"bike_id": "d8136a75045068f32e6682de817d06b4", "type": "electric_scooter", "is_disabled": 0, "lat": 38.8625255, "rental_uris": {"ios": "https://dc.lft.to/lastmile_qr_scan", "android": "https://dc.lft.to/lastmile_qr_scan"}, "is_reserved": 0, "fusion_lon": 0.0, "fusion_lat": 0.0, "lon": -76.99556916666667, "name": "d8136a75045068f32e6682de817d06b4"}, {"bike_id": "71cf0b449f60f26db9df6064f1ae91af", "type": "electric_scooter", "is_disabled": 0, "lat": 38.917902166666664, "rental_uris": {"ios": "https://dc.lft.to/lastmile_qr_scan", "android": "https://dc.lft.to/lastmile_qr_scan"}, "is_reserved": 0, "fusion_lon": 0.0, "fusion_lat": 0.0, "lon": -77.0230105, "name": "71cf0b449f60f26db9df6064f1ae91af"}, {"bike_id": "383538894647366f06b9f2d4f269f2b9", "type": "electric_scooter", "is_disabled": 0, "lat": 38.921581333333336, "rental_uris": {"ios": "https://dc.lft.to/lastmile_qr_scan", "android": "https://dc.lft.to/lastmile_qr_scan"}, "is_reserved": 0, "fusion_lon": 0.0, "fusion_lat": 0.0, "lon": -77.03338433333333, "name": "383538894647366f06b9f2d4f269f2b9"}, {"bike_id": "4364718637df7fef50325bc534c4ad5c", "type": "electric_scooter", "is_disabled": 0, "lat": 38.90572133333333, "rental_uris": {"ios": "https://dc.lft.to/lastmile_qr_scan", "android": "https://dc.lft.to/lastmile_qr_scan"}, "is_reserved": 0, "fusion_lon": 0.0, "fusion_lat": 0.0, "lon": -76.97627366666667, "name": "4364718637df7fef50325bc534c4ad5c"}, {"bike_id": "951d7c553ad73f70a72599e966bbac5a", "type": "electric_scooter", "is_disabled": 0, "lat": 38.865063166666665, "rental_uris": {"ios": "https://dc.lft.to/lastmile_qr_scan", "android": "https://dc.lft.to/lastmile_qr_scan"}, "is_reserved": 0, "fusion_lon": 0.0, "fusion_lat": 0.0, "lon": -76.99003383333333, "name": "951d7c553ad73f70a72599e966bbac5a"}, {"bike_id": "57207e157c4ea8fd9d1b368cd7970810", "type": "electric_scooter", "is_disabled": 0, "lat": 38.90376783333333, "rental_uris": {"ios": "https://dc.lft.to/lastmile_qr_scan", "android": "https://dc.lft.to/lastmile_qr_scan"}, "is_reserved": 0, "fusion_lon": 0.0, "fusion_lat": 0.0, "lon": -77.031863, "name": "57207e157c4ea8fd9d1b368cd7970810"}, {"bike_id": "67ff58be6cdd1594a1e154796694bde1", "type": "electric_scooter", "is_disabled": 0, "lat": 38.86247783333334, "rental_uris": {"ios": "https://dc.lft.to/lastmile_qr_scan", "android": "https://dc.lft.to/lastmile_qr_scan"}, "is_reserved": 0, "fusion_lon": 0.0, "fusion_lat": 0.0, "lon": -76.99263566666667, "name": "67ff58be6cdd1594a1e154796694bde1"}, {"bike_id": "533d7d2577328b92eaeb4dd01f0b75cd", "type": "electric_scooter", "is_disabled": 0, "lat": 38.939057, "rental_uris": {"ios": "https://dc.lft.to/lastmile_qr_scan", "android": "https://dc.lft.to/lastmile_qr_scan"}, "is_reserved": 0, "fusion_lon": 0.0, "fusion_lat": 0.0, "lon": -77.06043966666667, "name": "533d7d2577328b92eaeb4dd01f0b75cd"}, {"bike_id": "6e9901274ca1dc67d5049660661115e6", "type": "electric_scooter", "is_disabled": 0, "lat": 38.90986516666667, "rental_uris": {"ios": "https://dc.lft.to/lastmile_qr_scan", "android": "https://dc.lft.to/lastmile_qr_scan"}, "is_reserved": 0, "fusion_lon": 0.0, "fusion_lat": 0.0, "lon": -77.02197866666667, "name": "6e9901274ca1dc67d5049660661115e6"}, {"bike_id": "884c2e03a0e82103a4a4ae9d18c68e89", "type": "electric_scooter", "is_disabled": 0, "lat": 38.90267633333333, "rental_uris": {"ios": "https://dc.lft.to/lastmile_qr_scan", "android": "https://dc.lft.to/lastmile_qr_scan"}, "is_reserved": 0, "fusion_lon": 0.0, "fusion_lat": 0.0, "lon": -77.02011533333334, "name": "884c2e03a0e82103a4a4ae9d18c68e89"}, {"bike_id": "effd40bfb587afe7220c062464a0babc", "type": "electric_scooter", "is_disabled": 0, "lat": 38.92329983333333, "rental_uris": {"ios": "https://dc.lft.to/lastmile_qr_scan", "android": "https://dc.lft.to/lastmile_qr_scan"}, "is_reserved": 0, "fusion_lon": 0.0, "fusion_lat": 0.0, "lon": -77.01955016666666, "name": "effd40bfb587afe7220c062464a0babc"}, {"bike_id": "3825766c82e42f4a47f373db4f827483", "type": "electric_scooter", "is_disabled": 0, "lat": 38.887046833333336, "rental_uris": {"ios": "https://dc.lft.to/lastmile_qr_scan", "android": "https://dc.lft.to/lastmile_qr_scan"}, "is_reserved": 0, "fusion_lon": 0.0, "fusion_lat": 0.0, "lon": -77.01366416666667, "name": "3825766c82e42f4a47f373db4f827483"}, {"bike_id": "a3939e9e1d6a257a854619cdbe92b9de", "type": "electric_scooter", "is_disabled": 0, "lat": 38.9232505, "rental_uris": {"ios": "https://dc.lft.to/lastmile_qr_scan", "android": "https://dc.lft.to/lastmile_qr_scan"}, "is_reserved": 0, "fusion_lon": 0.0, "fusion_lat": 0.0, "lon": -77.03670783333334, "name": "a3939e9e1d6a257a854619cdbe92b9de"}, {"bike_id": "880e431ad3760882af6aab2066d7e6ed", "type": "electric_scooter", "is_disabled": 0, "lat": 38.915608, "rental_uris": {"ios": "https://dc.lft.to/lastmile_qr_scan", "android": "https://dc.lft.to/lastmile_qr_scan"}, "is_reserved": 0, "fusion_lon": 0.0, "fusion_lat": 0.0, "lon": -77.03200266666667, "name": "880e431ad3760882af6aab2066d7e6ed"}, {"bike_id": "46e5f24c0948099c6bea689785eff1be", "type": "electric_bike", "is_disabled": 0, "lat": 38.908268666666665, "rental_uris": {"ios": "https://dc.lft.to/lastmile_qr_scan", "android": "https://dc.lft.to/lastmile_qr_scan"}, "is_reserved": 0, "fusion_lon": 0.0, "fusion_lat": 0.0, "lon": -76.941593, "name": "46e5f24c0948099c6bea689785eff1be"}, {"bike_id": "6f8a720db5ca57b6624aa2dfd1bb90c5", "type": "electric_scooter", "is_disabled": 0, "lat": 38.91607233333333, "rental_uris": {"ios": "https://dc.lft.to/lastmile_qr_scan", "android": "https://dc.lft.to/lastmile_qr_scan"}, "is_reserved": 0, "fusion_lon": 0.0, "fusion_lat": 0.0, "lon": -77.022928, "name": "6f8a720db5ca57b6624aa2dfd1bb90c5"}, {"bike_id": "a8bf966794e24b7fc492a459b64d4165", "type": "electric_scooter", "is_disabled": 0, "lat": 38.92650666666667, "rental_uris": {"ios": "https://dc.lft.to/lastmile_qr_scan", "android": "https://dc.lft.to/lastmile_qr_scan"}, "is_reserved": 0, "fusion_lon": 0.0, "fusion_lat": 0.0, "lon": -77.03546516666667, "name": "a8bf966794e24b7fc492a459b64d4165"}, {"bike_id": "47ac4513f5a1230b1686ea5d9e3ad0c3", "type": "electric_scooter", "is_disabled": 0, "lat": 38.90443583333333, "rental_uris": {"ios": "https://dc.lft.to/lastmile_qr_scan", "android": "https://dc.lft.to/lastmile_qr_scan"}, "is_reserved": 0, "fusion_lon": 0.0, "fusion_lat": 0.0, "lon": -77.05307616666667, "name": "47ac4513f5a1230b1686ea5d9e3ad0c3"}, {"bike_id": "4e4de6ce448866c1cf3c8e53736fe4c9", "type": "electric_scooter", "is_disabled": 0, "lat": 38.89134516666667, "rental_uris": {"ios": "https://dc.lft.to/lastmile_qr_scan", "android": "https://dc.lft.to/lastmile_qr_scan"}, "is_reserved": 0, "fusion_lon": 0.0, "fusion_lat": 0.0, "lon": -76.95180483333333, "name": "4e4de6ce448866c1cf3c8e53736fe4c9"}, {"bike_id": "11bd70b0ad098cf0f494a696fcf9ef5f", "type": "electric_scooter", "is_disabled": 0, "lat": 38.91107733333333, "rental_uris": {"ios": "https://dc.lft.to/lastmile_qr_scan", "android": "https://dc.lft.to/lastmile_qr_scan"}, "is_reserved": 0, "fusion_lon": 0.0, "fusion_lat": 0.0, "lon": -77.03860516666667, "name": "11bd70b0ad098cf0f494a696fcf9ef5f"}, {"bike_id": "f4b6b0a71b211998619607f7a70d9e0d", "type": "electric_scooter", "is_disabled": 0, "lat": 38.9265325, "rental_uris": {"ios": "https://dc.lft.to/lastmile_qr_scan", "android": "https://dc.lft.to/lastmile_qr_scan"}, "is_reserved": 0, "fusion_lon": 0.0, "fusion_lat": 0.0, "lon": -77.03438933333334, "name": "f4b6b0a71b211998619607f7a70d9e0d"}, {"bike_id": "93980e4fb3ae1e86e5a68540b5a4d4df", "type": "electric_scooter", "is_disabled": 0, "lat": 38.9276545, "rental_uris": {"ios": "https://dc.lft.to/lastmile_qr_scan", "android": "https://dc.lft.to/lastmile_qr_scan"}, "is_reserved": 0, "fusion_lon": 0.0, "fusion_lat": 0.0, "lon": -77.056431, "name": "93980e4fb3ae1e86e5a68540b5a4d4df"}, {"bike_id": "4ff0c9d8947dce9cbab478289f709f47", "type": "electric_scooter", "is_disabled": 0, "lat": 38.907473, "rental_uris": {"ios": "https://dc.lft.to/lastmile_qr_scan", "android": "https://dc.lft.to/lastmile_qr_scan"}, "is_reserved": 0, "fusion_lon": 0.0, "fusion_lat": 0.0, "lon": -77.0298275, "name": "4ff0c9d8947dce9cbab478289f709f47"}, {"bike_id": "6d70ae40d7e79d9a0b20b778f3c8d7c0", "type": "electric_scooter", "is_disabled": 0, "lat": 38.90771933333333, "rental_uris": {"ios": "https://dc.lft.to/lastmile_qr_scan", "android": "https://dc.lft.to/lastmile_qr_scan"}, "is_reserved": 0, "fusion_lon": 0.0, "fusion_lat": 0.0, "lon": -77.058009, "name": "6d70ae40d7e79d9a0b20b778f3c8d7c0"}, {"bike_id": "62cd6e46e189dbd915eaa75a3b38e00b", "type": "electric_scooter", "is_disabled": 0, "lat": 38.909227333333334, "rental_uris": {"ios": "https://dc.lft.to/lastmile_qr_scan", "android": "https://dc.lft.to/lastmile_qr_scan"}, "is_reserved": 0, "fusion_lon": 0.0, "fusion_lat": 0.0, "lon": -77.04560683333334, "name": "62cd6e46e189dbd915eaa75a3b38e00b"}, {"bike_id": "ab071ec33ebfd58a50681e31c454b0ca", "type": "electric_scooter", "is_disabled": 0, "lat": 38.9141655, "rental_uris": {"ios": "https://dc.lft.to/lastmile_qr_scan", "android": "https://dc.lft.to/lastmile_qr_scan"}, "is_reserved": 0, "fusion_lon": 0.0, "fusion_lat": 0.0, "lon": -77.02812633333333, "name": "ab071ec33ebfd58a50681e31c454b0ca"}, {"bike_id": "9bab054010af3cd8ca5731e0e6c0eba7", "type": "electric_scooter", "is_disabled": 0, "lat": 38.90716966666667, "rental_uris": {"ios": "https://dc.lft.to/lastmile_qr_scan", "android": "https://dc.lft.to/lastmile_qr_scan"}, "is_reserved": 0, "fusion_lon": 0.0, "fusion_lat": 0.0, "lon": -77.03536266666667, "name": "9bab054010af3cd8ca5731e0e6c0eba7"}, {"bike_id": "bfdbbc04861828f3c889a7ac15d4fbcd", "type": "electric_scooter", "is_disabled": 0, "lat": 38.915713833333335, "rental_uris": {"ios": "https://dc.lft.to/lastmile_qr_scan", "android": "https://dc.lft.to/lastmile_qr_scan"}, "is_reserved": 0, "fusion_lon": 0.0, "fusion_lat": 0.0, "lon": -77.01871766666666, "name": "bfdbbc04861828f3c889a7ac15d4fbcd"}, {"bike_id": "3e0efcdd6a0aa2a8e1116a6d550b9098", "type": "electric_scooter", "is_disabled": 0, "lat": 38.91582483333333, "rental_uris": {"ios": "https://dc.lft.to/lastmile_qr_scan", "android": "https://dc.lft.to/lastmile_qr_scan"}, "is_reserved": 0, "fusion_lon": 0.0, "fusion_lat": 0.0, "lon": -77.0123275, "name": "3e0efcdd6a0aa2a8e1116a6d550b9098"}, {"bike_id": "3c4ae2942111b7688d855d4638657b03", "type": "electric_scooter", "is_disabled": 0, "lat": 38.90380583333334, "rental_uris": {"ios": "https://dc.lft.to/lastmile_qr_scan", "android": "https://dc.lft.to/lastmile_qr_scan"}, "is_reserved": 0, "fusion_lon": 0.0, "fusion_lat": 0.0, "lon": -76.98209383333334, "name": "3c4ae2942111b7688d855d4638657b03"}, {"bike_id": "16c5cb575b7d215354cce40e18ac3d0e", "type": "electric_scooter", "is_disabled": 0, "lat": 38.91742, "rental_uris": {"ios": "https://dc.lft.to/lastmile_qr_scan", "android": "https://dc.lft.to/lastmile_qr_scan"}, "is_reserved": 0, "fusion_lon": 0.0, "fusion_lat": 0.0, "lon": -77.00693683333333, "name": "16c5cb575b7d215354cce40e18ac3d0e"}, {"bike_id": "823cd10906043248cfef9ff09b257fbb", "type": "electric_scooter", "is_disabled": 0, "lat": 38.91429383333333, "rental_uris": {"ios": "https://dc.lft.to/lastmile_qr_scan", "android": "https://dc.lft.to/lastmile_qr_scan"}, "is_reserved": 0, "fusion_lon": 0.0, "fusion_lat": 0.0, "lon": -77.03176516666667, "name": "823cd10906043248cfef9ff09b257fbb"}, {"bike_id": "da95f1e03fd46a22030c5f6f89766f40", "type": "electric_scooter", "is_disabled": 0, "lat": 38.930901, "rental_uris": {"ios": "https://dc.lft.to/lastmile_qr_scan", "android": "https://dc.lft.to/lastmile_qr_scan"}, "is_reserved": 0, "fusion_lon": 0.0, "fusion_lat": 0.0, "lon": -77.02158483333334, "name": "da95f1e03fd46a22030c5f6f89766f40"}, {"bike_id": "9281ccfe79419fbebc863f81ce670005", "type": "electric_scooter", "is_disabled": 0, "lat": 38.9066375, "rental_uris": {"ios": "https://dc.lft.to/lastmile_qr_scan", "android": "https://dc.lft.to/lastmile_qr_scan"}, "is_reserved": 0, "fusion_lon": 0.0, "fusion_lat": 0.0, "lon": -77.04296183333334, "name": "9281ccfe79419fbebc863f81ce670005"}, {"bike_id": "f31bdb4267bef1a837b5fe8e857b059e", "type": "electric_scooter", "is_disabled": 0, "lat": 38.922464, "rental_uris": {"ios": "https://dc.lft.to/lastmile_qr_scan", "android": "https://dc.lft.to/lastmile_qr_scan"}, "is_reserved": 0, "fusion_lon": 0.0, "fusion_lat": 0.0, "lon": -77.03999433333334, "name": "f31bdb4267bef1a837b5fe8e857b059e"}, {"bike_id": "c1c807dbb377761953ec3050624b2288", "type": "electric_scooter", "is_disabled": 0, "lat": 38.931104500000004, "rental_uris": {"ios": "https://dc.lft.to/lastmile_qr_scan", "android": "https://dc.lft.to/lastmile_qr_scan"}, "is_reserved": 0, "fusion_lon": 0.0, "fusion_lat": 0.0, "lon": -77.03838716666667, "name": "c1c807dbb377761953ec3050624b2288"}, {"bike_id": "efa45cc21db72f712d0a52d1df2a6acf", "type": "electric_scooter", "is_disabled": 0, "lat": 38.920678833333334, "rental_uris": {"ios": "https://dc.lft.to/lastmile_qr_scan", "android": "https://dc.lft.to/lastmile_qr_scan"}, "is_reserved": 0, "fusion_lon": 0.0, "fusion_lat": 0.0, "lon": -77.02207433333334, "name": "efa45cc21db72f712d0a52d1df2a6acf"}, {"bike_id": "975fc86e23092ae3d36636f88b7e1968", "type": "electric_scooter", "is_disabled": 0, "lat": 38.92236716666667, "rental_uris": {"ios": "https://dc.lft.to/lastmile_qr_scan", "android": "https://dc.lft.to/lastmile_qr_scan"}, "is_reserved": 0, "fusion_lon": 0.0, "fusion_lat": 0.0, "lon": -77.03900583333333, "name": "975fc86e23092ae3d36636f88b7e1968"}, {"bike_id": "a293380023538ba173a848ec45f0e74a", "type": "electric_scooter", "is_disabled": 0, "lat": 38.9054625, "rental_uris": {"ios": "https://dc.lft.to/lastmile_qr_scan", "android": "https://dc.lft.to/lastmile_qr_scan"}, "is_reserved": 0, "fusion_lon": 0.0, "fusion_lat": 0.0, "lon": -77.04476216666667, "name": "a293380023538ba173a848ec45f0e74a"}, {"bike_id": "72161ae8a078c321fa8d7d6f2764fa00", "type": "electric_scooter", "is_disabled": 0, "lat": 38.917072166666664, "rental_uris": {"ios": "https://dc.lft.to/lastmile_qr_scan", "android": "https://dc.lft.to/lastmile_qr_scan"}, "is_reserved": 0, "fusion_lon": 0.0, "fusion_lat": 0.0, "lon": -77.03190916666667, "name": "72161ae8a078c321fa8d7d6f2764fa00"}, {"bike_id": "4c5c90069c145cdb81665c445d815317", "type": "electric_scooter", "is_disabled": 0, "lat": 38.90528316666666, "rental_uris": {"ios": "https://dc.lft.to/lastmile_qr_scan", "android": "https://dc.lft.to/lastmile_qr_scan"}, "is_reserved": 0, "fusion_lon": 0.0, "fusion_lat": 0.0, "lon": -77.04668816666667, "name": "4c5c90069c145cdb81665c445d815317"}, {"bike_id": "5889828b2b260772a696199c4a566e1f", "type": "electric_scooter", "is_disabled": 0, "lat": 38.91977683333333, "rental_uris": {"ios": "https://dc.lft.to/lastmile_qr_scan", "android": "https://dc.lft.to/lastmile_qr_scan"}, "is_reserved": 0, "fusion_lon": 0.0, "fusion_lat": 0.0, "lon": -77.03322916666667, "name": "5889828b2b260772a696199c4a566e1f"}, {"bike_id": "b986effa186f5cd9c98b6d77a703a68d", "type": "electric_scooter", "is_disabled": 0, "lat": 38.8874465, "rental_uris": {"ios": "https://dc.lft.to/lastmile_qr_scan", "android": "https://dc.lft.to/lastmile_qr_scan"}, "is_reserved": 0, "fusion_lon": 0.0, "fusion_lat": 0.0, "lon": -77.0172525, "name": "b986effa186f5cd9c98b6d77a703a68d"}, {"bike_id": "5eae905d1a771fa033af1f5f36d438ba", "type": "electric_scooter", "is_disabled": 0, "lat": 38.90269966666666, "rental_uris": {"ios": "https://dc.lft.to/lastmile_qr_scan", "android": "https://dc.lft.to/lastmile_qr_scan"}, "is_reserved": 0, "fusion_lon": 0.0, "fusion_lat": 0.0, "lon": -77.017636, "name": "5eae905d1a771fa033af1f5f36d438ba"}, {"bike_id": "7eebce743f34863b92986f1f68b98daa", "type": "electric_scooter", "is_disabled": 0, "lat": 38.86525966666667, "rental_uris": {"ios": "https://dc.lft.to/lastmile_qr_scan", "android": "https://dc.lft.to/lastmile_qr_scan"}, "is_reserved": 0, "fusion_lon": 0.0, "fusion_lat": 0.0, "lon": -76.973186, "name": "7eebce743f34863b92986f1f68b98daa"}, {"bike_id": "a63f96f09d2a7093c903aa657bab398e", "type": "electric_scooter", "is_disabled": 0, "lat": 38.9098095, "rental_uris": {"ios": "https://dc.lft.to/lastmile_qr_scan", "android": "https://dc.lft.to/lastmile_qr_scan"}, "is_reserved": 0, "fusion_lon": 0.0, "fusion_lat": 0.0, "lon": -77.03855766666666, "name": "a63f96f09d2a7093c903aa657bab398e"}, {"bike_id": "502307018fc2635ab5cfa6fccc9ffdb5", "type": "electric_scooter", "is_disabled": 0, "lat": 38.925989, "rental_uris": {"ios": "https://dc.lft.to/lastmile_qr_scan", "android": "https://dc.lft.to/lastmile_qr_scan"}, "is_reserved": 0, "fusion_lon": 0.0, "fusion_lat": 0.0, "lon": -77.073118, "name": "502307018fc2635ab5cfa6fccc9ffdb5"}, {"bike_id": "83c644c2125578bdcc30ce291bfbe338", "type": "electric_scooter", "is_disabled": 0, "lat": 38.9002815, "rental_uris": {"ios": "https://dc.lft.to/lastmile_qr_scan", "android": "https://dc.lft.to/lastmile_qr_scan"}, "is_reserved": 0, "fusion_lon": 0.0, "fusion_lat": 0.0, "lon": -77.002193, "name": "83c644c2125578bdcc30ce291bfbe338"}, {"bike_id": "a767d6a6b872b22705c79df96ec10687", "type": "electric_scooter", "is_disabled": 0, "lat": 38.896202833333334, "rental_uris": {"ios": "https://dc.lft.to/lastmile_qr_scan", "android": "https://dc.lft.to/lastmile_qr_scan"}, "is_reserved": 0, "fusion_lon": 0.0, "fusion_lat": 0.0, "lon": -77.0238505, "name": "a767d6a6b872b22705c79df96ec10687"}, {"bike_id": "ff8cdc5302197779f80cbf0c7601f62f", "type": "electric_scooter", "is_disabled": 0, "lat": 38.9235175, "rental_uris": {"ios": "https://dc.lft.to/lastmile_qr_scan", "android": "https://dc.lft.to/lastmile_qr_scan"}, "is_reserved": 0, "fusion_lon": 0.0, "fusion_lat": 0.0, "lon": -77.0390655, "name": "ff8cdc5302197779f80cbf0c7601f62f"}, {"bike_id": "13eb04a2dbc8e1c35f474802f4c6abde", "type": "electric_scooter", "is_disabled": 0, "lat": 38.917100833333336, "rental_uris": {"ios": "https://dc.lft.to/lastmile_qr_scan", "android": "https://dc.lft.to/lastmile_qr_scan"}, "is_reserved": 0, "fusion_lon": 0.0, "fusion_lat": 0.0, "lon": -77.04153133333334, "name": "13eb04a2dbc8e1c35f474802f4c6abde"}, {"bike_id": "f6d5c7efaa910e785aa2930d3f687632", "type": "electric_scooter", "is_disabled": 0, "lat": 38.881359833333335, "rental_uris": {"ios": "https://dc.lft.to/lastmile_qr_scan", "android": "https://dc.lft.to/lastmile_qr_scan"}, "is_reserved": 0, "fusion_lon": 0.0, "fusion_lat": 0.0, "lon": -77.0166485, "name": "f6d5c7efaa910e785aa2930d3f687632"}, {"bike_id": "65ee7fa81b1f8f9089205ed8f6cc0467", "type": "electric_scooter", "is_disabled": 0, "lat": 38.92949183333333, "rental_uris": {"ios": "https://dc.lft.to/lastmile_qr_scan", "android": "https://dc.lft.to/lastmile_qr_scan"}, "is_reserved": 0, "fusion_lon": 0.0, "fusion_lat": 0.0, "lon": -77.0346425, "name": "65ee7fa81b1f8f9089205ed8f6cc0467"}, {"bike_id": "541eb5f22dc7e8bf236a01698e589dd1", "type": "electric_scooter", "is_disabled": 0, "lat": 38.88452, "rental_uris": {"ios": "https://dc.lft.to/lastmile_qr_scan", "android": "https://dc.lft.to/lastmile_qr_scan"}, "is_reserved": 0, "fusion_lon": 0.0, "fusion_lat": 0.0, "lon": -76.95095366666666, "name": "541eb5f22dc7e8bf236a01698e589dd1"}, {"bike_id": "6ca5cd6d0d2ea629b7792102c24915ec", "type": "electric_scooter", "is_disabled": 0, "lat": 38.928908666666665, "rental_uris": {"ios": "https://dc.lft.to/lastmile_qr_scan", "android": "https://dc.lft.to/lastmile_qr_scan"}, "is_reserved": 0, "fusion_lon": 0.0, "fusion_lat": 0.0, "lon": -77.03309566666667, "name": "6ca5cd6d0d2ea629b7792102c24915ec"}, {"bike_id": "0751bc6f57672cd1f62c90ce0f3e160d", "type": "electric_bike", "is_disabled": 0, "lat": 39.03419516666666, "rental_uris": {"ios": "https://dc.lft.to/lastmile_qr_scan", "android": "https://dc.lft.to/lastmile_qr_scan"}, "is_reserved": 0, "fusion_lon": 0.0, "fusion_lat": 0.0, "lon": -77.04160233333333, "name": "0751bc6f57672cd1f62c90ce0f3e160d"}, {"bike_id": "6a9490b7ca43df657dca06e4da035583", "type": "electric_scooter", "is_disabled": 0, "lat": 38.914062, "rental_uris": {"ios": "https://dc.lft.to/lastmile_qr_scan", "android": "https://dc.lft.to/lastmile_qr_scan"}, "is_reserved": 0, "fusion_lon": 0.0, "fusion_lat": 0.0, "lon": -77.03171333333333, "name": "6a9490b7ca43df657dca06e4da035583"}, {"bike_id": "40b3ca581bd7ecca3239b73e993731e7", "type": "electric_scooter", "is_disabled": 0, "lat": 38.89229483333333, "rental_uris": {"ios": "https://dc.lft.to/lastmile_qr_scan", "android": "https://dc.lft.to/lastmile_qr_scan"}, "is_reserved": 0, "fusion_lon": 0.0, "fusion_lat": 0.0, "lon": -77.04505983333334, "name": "40b3ca581bd7ecca3239b73e993731e7"}, {"bike_id": "f297d08d4887a9a7992b30222fc3350b", "type": "electric_scooter", "is_disabled": 0, "lat": 38.8972325, "rental_uris": {"ios": "https://dc.lft.to/lastmile_qr_scan", "android": "https://dc.lft.to/lastmile_qr_scan"}, "is_reserved": 0, "fusion_lon": 0.0, "fusion_lat": 0.0, "lon": -77.00209166666667, "name": "f297d08d4887a9a7992b30222fc3350b"}, {"bike_id": "86043124f5cca40e5490fac9dff3e568", "type": "electric_scooter", "is_disabled": 0, "lat": 38.9030605, "rental_uris": {"ios": "https://dc.lft.to/lastmile_qr_scan", "android": "https://dc.lft.to/lastmile_qr_scan"}, "is_reserved": 0, "fusion_lon": 0.0, "fusion_lat": 0.0, "lon": -77.05056216666667, "name": "86043124f5cca40e5490fac9dff3e568"}, {"bike_id": "6de6053dd578985e57de78c7d8aab30e", "type": "electric_scooter", "is_disabled": 0, "lat": 38.91548516666667, "rental_uris": {"ios": "https://dc.lft.to/lastmile_qr_scan", "android": "https://dc.lft.to/lastmile_qr_scan"}, "is_reserved": 0, "fusion_lon": 0.0, "fusion_lat": 0.0, "lon": -77.03845633333333, "name": "6de6053dd578985e57de78c7d8aab30e"}, {"bike_id": "9c67cda448b93db27d693e422f5e694e", "type": "electric_scooter", "is_disabled": 0, "lat": 38.90573883333333, "rental_uris": {"ios": "https://dc.lft.to/lastmile_qr_scan", "android": "https://dc.lft.to/lastmile_qr_scan"}, "is_reserved": 0, "fusion_lon": 0.0, "fusion_lat": 0.0, "lon": -76.97783883333334, "name": "9c67cda448b93db27d693e422f5e694e"}, {"bike_id": "42123b08ff9d3c274685a783a54db548", "type": "electric_scooter", "is_disabled": 0, "lat": 38.93559883333333, "rental_uris": {"ios": "https://dc.lft.to/lastmile_qr_scan", "android": "https://dc.lft.to/lastmile_qr_scan"}, "is_reserved": 0, "fusion_lon": 0.0, "fusion_lat": 0.0, "lon": -77.03262983333333, "name": "42123b08ff9d3c274685a783a54db548"}, {"bike_id": "d2f9368a7ddff1f8ce8c0f254eb349e1", "type": "electric_scooter", "is_disabled": 0, "lat": 38.877584666666664, "rental_uris": {"ios": "https://dc.lft.to/lastmile_qr_scan", "android": "https://dc.lft.to/lastmile_qr_scan"}, "is_reserved": 0, "fusion_lon": 0.0, "fusion_lat": 0.0, "lon": -76.98684716666666, "name": "d2f9368a7ddff1f8ce8c0f254eb349e1"}, {"bike_id": "33cefaab7a5bc953fabf9d00b07898e5", "type": "electric_scooter", "is_disabled": 0, "lat": 38.9200575, "rental_uris": {"ios": "https://dc.lft.to/lastmile_qr_scan", "android": "https://dc.lft.to/lastmile_qr_scan"}, "is_reserved": 0, "fusion_lon": 0.0, "fusion_lat": 0.0, "lon": -77.03187966666667, "name": "33cefaab7a5bc953fabf9d00b07898e5"}, {"bike_id": "e60be1d7bc947407f15b6dfdcd1551c4", "type": "electric_scooter", "is_disabled": 0, "lat": 38.90277483333333, "rental_uris": {"ios": "https://dc.lft.to/lastmile_qr_scan", "android": "https://dc.lft.to/lastmile_qr_scan"}, "is_reserved": 0, "fusion_lon": 0.0, "fusion_lat": 0.0, "lon": -76.97033633333334, "name": "e60be1d7bc947407f15b6dfdcd1551c4"}, {"bike_id": "76b21edc83ec5c3b0672b2f67b5beb17", "type": "electric_scooter", "is_disabled": 0, "lat": 38.910995, "rental_uris": {"ios": "https://dc.lft.to/lastmile_qr_scan", "android": "https://dc.lft.to/lastmile_qr_scan"}, "is_reserved": 0, "fusion_lon": 0.0, "fusion_lat": 0.0, "lon": -77.04197083333334, "name": "76b21edc83ec5c3b0672b2f67b5beb17"}, {"bike_id": "d5ed559366c54f304112be4f7b67ca69", "type": "electric_scooter", "is_disabled": 0, "lat": 38.895700833333336, "rental_uris": {"ios": "https://dc.lft.to/lastmile_qr_scan", "android": "https://dc.lft.to/lastmile_qr_scan"}, "is_reserved": 0, "fusion_lon": 0.0, "fusion_lat": 0.0, "lon": -76.930265, "name": "d5ed559366c54f304112be4f7b67ca69"}, {"bike_id": "cecc7c095bba3cb8f7dece55a730b627", "type": "electric_scooter", "is_disabled": 0, "lat": 38.90018933333333, "rental_uris": {"ios": "https://dc.lft.to/lastmile_qr_scan", "android": "https://dc.lft.to/lastmile_qr_scan"}, "is_reserved": 0, "fusion_lon": 0.0, "fusion_lat": 0.0, "lon": -77.03817633333334, "name": "cecc7c095bba3cb8f7dece55a730b627"}, {"bike_id": "89c91d7c0c4f36e8f948f1e029efdfd9", "type": "electric_scooter", "is_disabled": 0, "lat": 38.914216833333334, "rental_uris": {"ios": "https://dc.lft.to/lastmile_qr_scan", "android": "https://dc.lft.to/lastmile_qr_scan"}, "is_reserved": 0, "fusion_lon": 0.0, "fusion_lat": 0.0, "lon": -77.02407616666666, "name": "89c91d7c0c4f36e8f948f1e029efdfd9"}, {"bike_id": "7a27bab8866c4066108d714b9b0bdb1d", "type": "electric_scooter", "is_disabled": 0, "lat": 38.92184666666667, "rental_uris": {"ios": "https://dc.lft.to/lastmile_qr_scan", "android": "https://dc.lft.to/lastmile_qr_scan"}, "is_reserved": 0, "fusion_lon": 0.0, "fusion_lat": 0.0, "lon": -77.02670633333334, "name": "7a27bab8866c4066108d714b9b0bdb1d"}, {"bike_id": "441643fe9b06cf14a9a881b270644c0c", "type": "electric_scooter", "is_disabled": 0, "lat": 38.93993283333333, "rental_uris": {"ios": "https://dc.lft.to/lastmile_qr_scan", "android": "https://dc.lft.to/lastmile_qr_scan"}, "is_reserved": 0, "fusion_lon": 0.0, "fusion_lat": 0.0, "lon": -77.0169305, "name": "441643fe9b06cf14a9a881b270644c0c"}, {"bike_id": "776325db346cc5693f14665771b12888", "type": "electric_scooter", "is_disabled": 0, "lat": 38.92003833333333, "rental_uris": {"ios": "https://dc.lft.to/lastmile_qr_scan", "android": "https://dc.lft.to/lastmile_qr_scan"}, "is_reserved": 0, "fusion_lon": 0.0, "fusion_lat": 0.0, "lon": -77.0316415, "name": "776325db346cc5693f14665771b12888"}, {"bike_id": "82c8948e264ceec6e131ee3c38a4222d", "type": "electric_scooter", "is_disabled": 0, "lat": 38.90016683333333, "rental_uris": {"ios": "https://dc.lft.to/lastmile_qr_scan", "android": "https://dc.lft.to/lastmile_qr_scan"}, "is_reserved": 0, "fusion_lon": 0.0, "fusion_lat": 0.0, "lon": -77.00208716666667, "name": "82c8948e264ceec6e131ee3c38a4222d"}, {"bike_id": "b1cdda40d93f6dbf669da69f3141ee7d", "type": "electric_scooter", "is_disabled": 0, "lat": 38.91874, "rental_uris": {"ios": "https://dc.lft.to/lastmile_qr_scan", "android": "https://dc.lft.to/lastmile_qr_scan"}, "is_reserved": 0, "fusion_lon": 0.0, "fusion_lat": 0.0, "lon": -77.03522933333333, "name": "b1cdda40d93f6dbf669da69f3141ee7d"}, {"bike_id": "61e57e0099fd769781bfd8c12ef33abe", "type": "electric_scooter", "is_disabled": 0, "lat": 38.89822866666667, "rental_uris": {"ios": "https://dc.lft.to/lastmile_qr_scan", "android": "https://dc.lft.to/lastmile_qr_scan"}, "is_reserved": 0, "fusion_lon": 0.0, "fusion_lat": 0.0, "lon": -77.03040266666666, "name": "61e57e0099fd769781bfd8c12ef33abe"}, {"bike_id": "5a26221ead86e8c5a96a3a68063cc53b", "type": "electric_bike", "is_disabled": 0, "lat": 38.83245216666667, "rental_uris": {"ios": "https://dc.lft.to/lastmile_qr_scan", "android": "https://dc.lft.to/lastmile_qr_scan"}, "is_reserved": 0, "fusion_lon": 0.0, "fusion_lat": 0.0, "lon": -76.9462635, "name": "5a26221ead86e8c5a96a3a68063cc53b"}, {"bike_id": "50ae00ffcfc5608514bc5fe4085b560f", "type": "electric_scooter", "is_disabled": 0, "lat": 38.9147695, "rental_uris": {"ios": "https://dc.lft.to/lastmile_qr_scan", "android": "https://dc.lft.to/lastmile_qr_scan"}, "is_reserved": 0, "fusion_lon": 0.0, "fusion_lat": 0.0, "lon": -77.02197016666666, "name": "50ae00ffcfc5608514bc5fe4085b560f"}, {"bike_id": "b256282bba39fc040e81d37c74efd3d6", "type": "electric_bike", "is_disabled": 0, "lat": 39.03432383333333, "rental_uris": {"ios": "https://dc.lft.to/lastmile_qr_scan", "android": "https://dc.lft.to/lastmile_qr_scan"}, "is_reserved": 0, "fusion_lon": 0.0, "fusion_lat": 0.0, "lon": -77.04311083333333, "name": "b256282bba39fc040e81d37c74efd3d6"}, {"bike_id": "6325900130759255c8aa0c91a69801af", "type": "electric_scooter", "is_disabled": 0, "lat": 38.927072333333335, "rental_uris": {"ios": "https://dc.lft.to/lastmile_qr_scan", "android": "https://dc.lft.to/lastmile_qr_scan"}, "is_reserved": 0, "fusion_lon": 0.0, "fusion_lat": 0.0, "lon": -77.0209715, "name": "6325900130759255c8aa0c91a69801af"}, {"bike_id": "069d73b09dfb317c530553322afb1bb4", "type": "electric_scooter", "is_disabled": 0, "lat": 38.90564116666667, "rental_uris": {"ios": "https://dc.lft.to/lastmile_qr_scan", "android": "https://dc.lft.to/lastmile_qr_scan"}, "is_reserved": 0, "fusion_lon": 0.0, "fusion_lat": 0.0, "lon": -77.00587383333334, "name": "069d73b09dfb317c530553322afb1bb4"}, {"bike_id": "5f45a5114044fca52068f408eb2a3071", "type": "electric_bike", "is_disabled": 0, "lat": 38.88872466666667, "rental_uris": {"ios": "https://dc.lft.to/lastmile_qr_scan", "android": "https://dc.lft.to/lastmile_qr_scan"}, "is_reserved": 0, "fusion_lon": 0.0, "fusion_lat": 0.0, "lon": -76.97843433333334, "name": "5f45a5114044fca52068f408eb2a3071"}, {"bike_id": "522fe920c5dac8160b9ba33434bd3a39", "type": "electric_scooter", "is_disabled": 0, "lat": 38.880610833333336, "rental_uris": {"ios": "https://dc.lft.to/lastmile_qr_scan", "android": "https://dc.lft.to/lastmile_qr_scan"}, "is_reserved": 0, "fusion_lon": 0.0, "fusion_lat": 0.0, "lon": -77.02546333333333, "name": "522fe920c5dac8160b9ba33434bd3a39"}, {"bike_id": "bc1832d76f28df2f1adc0e4f451760b6", "type": "electric_bike", "is_disabled": 0, "lat": 38.8589425, "rental_uris": {"ios": "https://dc.lft.to/lastmile_qr_scan", "android": "https://dc.lft.to/lastmile_qr_scan"}, "is_reserved": 0, "fusion_lon": 0.0, "fusion_lat": 0.0, "lon": -77.11862233333333, "name": "bc1832d76f28df2f1adc0e4f451760b6"}, {"bike_id": "8a20a3ce09eeb5f06ae36f2615c95ab4", "type": "electric_scooter", "is_disabled": 0, "lat": 38.902541666666664, "rental_uris": {"ios": "https://dc.lft.to/lastmile_qr_scan", "android": "https://dc.lft.to/lastmile_qr_scan"}, "is_reserved": 0, "fusion_lon": 0.0, "fusion_lat": 0.0, "lon": -77.02654483333333, "name": "8a20a3ce09eeb5f06ae36f2615c95ab4"}, {"bike_id": "0b0535116b8910e9d0610b773a066556", "type": "electric_scooter", "is_disabled": 0, "lat": 38.89843716666667, "rental_uris": {"ios": "https://dc.lft.to/lastmile_qr_scan", "android": "https://dc.lft.to/lastmile_qr_scan"}, "is_reserved": 0, "fusion_lon": 0.0, "fusion_lat": 0.0, "lon": -77.021896, "name": "0b0535116b8910e9d0610b773a066556"}, {"bike_id": "52604c4159c43867f8a896490898ca59", "type": "electric_scooter", "is_disabled": 0, "lat": 38.90695516666667, "rental_uris": {"ios": "https://dc.lft.to/lastmile_qr_scan", "android": "https://dc.lft.to/lastmile_qr_scan"}, "is_reserved": 0, "fusion_lon": 0.0, "fusion_lat": 0.0, "lon": -77.01074466666667, "name": "52604c4159c43867f8a896490898ca59"}, {"bike_id": "918afcd9e55d463fa5671d75b66b7e47", "type": "electric_scooter", "is_disabled": 0, "lat": 38.89739016666667, "rental_uris": {"ios": "https://dc.lft.to/lastmile_qr_scan", "android": "https://dc.lft.to/lastmile_qr_scan"}, "is_reserved": 0, "fusion_lon": 0.0, "fusion_lat": 0.0, "lon": -76.9472095, "name": "918afcd9e55d463fa5671d75b66b7e47"}, {"bike_id": "7c89725c2ef477f827fa48c92e966f18", "type": "electric_scooter", "is_disabled": 0, "lat": 38.914047333333336, "rental_uris": {"ios": "https://dc.lft.to/lastmile_qr_scan", "android": "https://dc.lft.to/lastmile_qr_scan"}, "is_reserved": 0, "fusion_lon": 0.0, "fusion_lat": 0.0, "lon": -77.0325845, "name": "7c89725c2ef477f827fa48c92e966f18"}, {"bike_id": "97864f74ce98f3a8959397b69c880943", "type": "electric_scooter", "is_disabled": 0, "lat": 38.897727, "rental_uris": {"ios": "https://dc.lft.to/lastmile_qr_scan", "android": "https://dc.lft.to/lastmile_qr_scan"}, "is_reserved": 0, "fusion_lon": 0.0, "fusion_lat": 0.0, "lon": -77.03193816666666, "name": "97864f74ce98f3a8959397b69c880943"}, {"bike_id": "872321243b893b7ba50a54940e1813eb", "type": "electric_scooter", "is_disabled": 0, "lat": 38.907378, "rental_uris": {"ios": "https://dc.lft.to/lastmile_qr_scan", "android": "https://dc.lft.to/lastmile_qr_scan"}, "is_reserved": 0, "fusion_lon": 0.0, "fusion_lat": 0.0, "lon": -77.03207716666667, "name": "872321243b893b7ba50a54940e1813eb"}, {"bike_id": "35b7ca66c41309f454a4e96c7f614de4", "type": "electric_scooter", "is_disabled": 0, "lat": 38.902427, "rental_uris": {"ios": "https://dc.lft.to/lastmile_qr_scan", "android": "https://dc.lft.to/lastmile_qr_scan"}, "is_reserved": 0, "fusion_lon": 0.0, "fusion_lat": 0.0, "lon": -77.00210983333334, "name": "35b7ca66c41309f454a4e96c7f614de4"}, {"bike_id": "788ef1b75be485cca08fe854bcdd8dad", "type": "electric_scooter", "is_disabled": 0, "lat": 38.906612333333335, "rental_uris": {"ios": "https://dc.lft.to/lastmile_qr_scan", "android": "https://dc.lft.to/lastmile_qr_scan"}, "is_reserved": 0, "fusion_lon": 0.0, "fusion_lat": 0.0, "lon": -77.038523, "name": "788ef1b75be485cca08fe854bcdd8dad"}, {"bike_id": "23f86d6d559fa4e447c86aef7cec95ba", "type": "electric_scooter", "is_disabled": 0, "lat": 38.89977416666667, "rental_uris": {"ios": "https://dc.lft.to/lastmile_qr_scan", "android": "https://dc.lft.to/lastmile_qr_scan"}, "is_reserved": 0, "fusion_lon": 0.0, "fusion_lat": 0.0, "lon": -76.98309133333333, "name": "23f86d6d559fa4e447c86aef7cec95ba"}, {"bike_id": "86982ca3684bf7f4e2754080dd329518", "type": "electric_scooter", "is_disabled": 0, "lat": 38.90411266666667, "rental_uris": {"ios": "https://dc.lft.to/lastmile_qr_scan", "android": "https://dc.lft.to/lastmile_qr_scan"}, "is_reserved": 0, "fusion_lon": 0.0, "fusion_lat": 0.0, "lon": -76.97329966666666, "name": "86982ca3684bf7f4e2754080dd329518"}, {"bike_id": "bc2f6476a39df13e80a859ed34c76424", "type": "electric_scooter", "is_disabled": 0, "lat": 38.915933833333334, "rental_uris": {"ios": "https://dc.lft.to/lastmile_qr_scan", "android": "https://dc.lft.to/lastmile_qr_scan"}, "is_reserved": 0, "fusion_lon": 0.0, "fusion_lat": 0.0, "lon": -77.00198466666667, "name": "bc2f6476a39df13e80a859ed34c76424"}, {"bike_id": "a597e5b8516d43fec6b72a36b55e2d9d", "type": "electric_scooter", "is_disabled": 0, "lat": 38.9095205, "rental_uris": {"ios": "https://dc.lft.to/lastmile_qr_scan", "android": "https://dc.lft.to/lastmile_qr_scan"}, "is_reserved": 0, "fusion_lon": 0.0, "fusion_lat": 0.0, "lon": -77.048708, "name": "a597e5b8516d43fec6b72a36b55e2d9d"}, {"bike_id": "50414e31e614e59d31412455ce77fc5c", "type": "electric_scooter", "is_disabled": 0, "lat": 38.899928833333334, "rental_uris": {"ios": "https://dc.lft.to/lastmile_qr_scan", "android": "https://dc.lft.to/lastmile_qr_scan"}, "is_reserved": 0, "fusion_lon": 0.0, "fusion_lat": 0.0, "lon": -77.02206133333334, "name": "50414e31e614e59d31412455ce77fc5c"}, {"bike_id": "63069731b814f733c3d3c595283440d4", "type": "electric_scooter", "is_disabled": 0, "lat": 38.878934666666666, "rental_uris": {"ios": "https://dc.lft.to/lastmile_qr_scan", "android": "https://dc.lft.to/lastmile_qr_scan"}, "is_reserved": 0, "fusion_lon": 0.0, "fusion_lat": 0.0, "lon": -77.02205466666666, "name": "63069731b814f733c3d3c595283440d4"}, {"bike_id": "5e0d7d60dd775091f368aa735a83fbb8", "type": "electric_scooter", "is_disabled": 0, "lat": 38.92090816666666, "rental_uris": {"ios": "https://dc.lft.to/lastmile_qr_scan", "android": "https://dc.lft.to/lastmile_qr_scan"}, "is_reserved": 0, "fusion_lon": 0.0, "fusion_lat": 0.0, "lon": -77.02450816666666, "name": "5e0d7d60dd775091f368aa735a83fbb8"}, {"bike_id": "50610d4f569eb18d76306232373cb01f", "type": "electric_scooter", "is_disabled": 0, "lat": 38.9037585, "rental_uris": {"ios": "https://dc.lft.to/lastmile_qr_scan", "android": "https://dc.lft.to/lastmile_qr_scan"}, "is_reserved": 0, "fusion_lon": 0.0, "fusion_lat": 0.0, "lon": -77.03190483333333, "name": "50610d4f569eb18d76306232373cb01f"}, {"bike_id": "522c637bd36fcc1efb6884981bf89c10", "type": "electric_scooter", "is_disabled": 0, "lat": 38.931730333333334, "rental_uris": {"ios": "https://dc.lft.to/lastmile_qr_scan", "android": "https://dc.lft.to/lastmile_qr_scan"}, "is_reserved": 0, "fusion_lon": 0.0, "fusion_lat": 0.0, "lon": -77.03156316666667, "name": "522c637bd36fcc1efb6884981bf89c10"}, {"bike_id": "1c03cd10df702ab5cb870ecec88ba78f", "type": "electric_scooter", "is_disabled": 0, "lat": 38.86624833333333, "rental_uris": {"ios": "https://dc.lft.to/lastmile_qr_scan", "android": "https://dc.lft.to/lastmile_qr_scan"}, "is_reserved": 0, "fusion_lon": 0.0, "fusion_lat": 0.0, "lon": -76.98715066666666, "name": "1c03cd10df702ab5cb870ecec88ba78f"}, {"bike_id": "3957df5430bdffa62eec10f3b4c4ee80", "type": "electric_scooter", "is_disabled": 0, "lat": 38.9148545, "rental_uris": {"ios": "https://dc.lft.to/lastmile_qr_scan", "android": "https://dc.lft.to/lastmile_qr_scan"}, "is_reserved": 0, "fusion_lon": 0.0, "fusion_lat": 0.0, "lon": -77.03570283333333, "name": "3957df5430bdffa62eec10f3b4c4ee80"},