{"data": {"bikes": [{"name": "49ce1f9464dcea41b667ea9408f4d5e2", "lon": -77.01747466666667, "lat": 38.88731833333333, "type": "electric_scooter", "fusion_lon": 0.0, "is_reserved": 0, "bike_id": "49ce1f9464dcea41b667ea9408f4d5e2", "fusion_lat": 0.0, "is_disabled": 0, "rental_uris": {"ios": "https://dc.lft.to/lastmile_qr_scan", "android": "https://dc.lft.to/lastmile_qr_scan"}}, {"name": "79762f7297efab43671cdde605a5066a", "lon": -77.04452116666667, "lat": 38.905762, "type": "electric_scooter", "fusion_lon": 0.0, "is_reserved": 0, "bike_id": "79762f7297efab43671cdde605a5066a", "fusion_lat": 0.0, "is_disabled": 0, "rental_uris": {"ios": "https://dc.lft.to/lastmile_qr_scan", "android": "https://dc.lft.to/lastmile_qr_scan"}}, {"name": "47c7f90355b9660a113968ebf3556a6f", "lon": -77.02685933333333, "lat": 38.8960575, "type": "electric_scooter", "fusion_lon": 0.0, "is_reserved": 0, "bike_id": "47c7f90355b9660a113968ebf3556a6f", "fusion_lat": 0.0, "is_disabled": 0, "rental_uris": {"ios": "https://dc.lft.to/lastmile_qr_scan", "android": "https://dc.lft.to/lastmile_qr_scan"}}, {"name": "d753d4bc07e3697aaed68b41165908c4", "lon": -76.9853785, "lat": 38.866565, "type": "electric_scooter", "fusion_lon": 0.0, "is_reserved": 0, "bike_id": "d753d4bc07e3697aaed68b41165908c4", "fusion_lat": 0.0, "is_disabled": 0, "rental_uris": {"ios": "https://dc.lft.to/lastmile_qr_scan", "android": "https://dc.lft.to/lastmile_qr_scan"}}, {"name": "02ac820bb9df116e60efa4e24963a24b", "lon": -77.02953233333334, "lat": 38.90746866666667, "type": "electric_scooter", "fusion_lon": 0.0, "is_reserved": 0, "bike_id": "02ac820bb9df116e60efa4e24963a24b", "fusion_lat": 0.0, "is_disabled": 0, "rental_uris": {"ios": "https://dc.lft.to/lastmile_qr_scan", "android": "https://dc.lft.to/lastmile_qr_scan"}}, {"name": "957f497e62d9c2a14291b73576b9e6e6", "lon": -77.04871516666667, "lat": 38.90647716666667, "type": "electric_scooter", "fusion_lon": 0.0, "is_reserved": 0, "bike_id": "957f497e62d9c2a14291b73576b9e6e6", "fusion_lat": 0.0, "is_disabled": 0, "rental_uris": {"ios": "https://dc.lft.to/lastmile_qr_scan", "android": "https://dc.lft.to/lastmile_qr_scan"}}, {"name": "b96eb0d9b66e45d93b71df91309b2013", "lon": -77.021329, "lat": 38.89955366666667, "type": "electric_scooter", "fusion_lon": 0.0, "is_reserved": 0, "bike_id": "b96eb0d9b66e45d93b71df91309b2013", "fusion_lat": 0.0, "is_disabled": 0, "rental_uris": {"ios": "https://dc.lft.to/lastmile_qr_scan", "android": "https://dc.lft.to/lastmile_qr_scan"}}, {"name": "9a198c8f6e7ee5bb52989223843ffc45", "lon": -77.0271325, "lat": 38.90081466666667, "type": "electric_scooter", "fusion_lon": 0.0, "is_reserved": 0, "bike_id": "9a198c8f6e7ee5bb52989223843ffc45", "fusion_lat": 0.0, "is_disabled": 0, "rental_uris": {"ios": "https://dc.lft.to/lastmile_qr_scan", "android": "https://dc.lft.to/lastmile_qr_scan"}}, {"name": "421ae6bff2d6a97de8c99295b9d8d4a8", "lon": -77.04868416666666, "lat": 38.906568666666665, "type": "electric_scooter", "fusion_lon": 0.0, "is_reserved": 0, "bike_id": "421ae6bff2d6a97de8c99295b9d8d4a8", "fusion_lat": 0.0, "is_disabled": 0, "rental_uris": {"ios": "https://dc.lft.to/lastmile_qr_scan", "android": "https://dc.lft.to/lastmile_qr_scan"}}, {"name": "6302f68d8bc945a957a459356cacdae2", "lon": -77.0433115, "lat": 38.8922575, "type": "electric_scooter", "fusion_lon": 0.0, "is_reserved": 0, "bike_id": "6302f68d8bc945a957a459356cacdae2", "fusion_lat": 0.0, "is_disabled": 0, "rental_uris": {"ios": "https://dc.lft.to/lastmile_qr_scan", "android": "https://dc.lft.to/lastmile_qr_scan"}}, {"name": "71eb134386eafcfd52e924fc01c32387", "lon": -77.0427515, "lat": 38.90842583333333, "type": "electric_scooter", "fusion_lon": 0.0, "is_reserved": 0, "bike_id": "71eb134386eafcfd52e924fc01c32387", "fusion_lat": 0.0, "is_disabled": 0, "rental_uris": {"ios": "https://dc.lft.to/lastmile_qr_scan", "android": "https://dc.lft.to/lastmile_qr_scan"}}, {"name": "64fa2a8e077c67838d9358d7b8258f53", "lon": -77.03657533333333, "lat": 38.936332, "type": "electric_scooter", "fusion_lon": 0.0, "is_reserved": 0, "bike_id": "64fa2a8e077c67838d9358d7b8258f53", "fusion_lat": 0.0, "is_disabled": 0, "rental_uris": {"ios": "https://dc.lft.to/lastmile_qr_scan", "android": "https://dc.lft.to/lastmile_qr_scan"}}, {"name": "4707024d65908838ebcbcaaf7ee314b9", "lon": -77.03209316666667, "lat": 38.917851666666664, "type": "electric_scooter", "fusion_lon": 0.0, "is_reserved": 0, "bike_id": "4707024d65908838ebcbcaaf7ee314b9", "fusion_lat": 0.0, "is_disabled": 0, "rental_uris": {"ios": "https://dc.lft.to/lastmile_qr_scan", "android": "https://dc.lft.to/lastmile_qr_scan"}}, {"name": "a1825922d29ab1333cb75009b91aafd3", "lon": -77.0022455, "lat": 38.90029883333333, "type": "electric_scooter", "fusion_lon": 0.0, "is_reserved": 0, "bike_id": "a1825922d29ab1333cb75009b91aafd3", "fusion_lat": 0.0, "is_disabled": 0, "rental_uris": {"ios": "https://dc.lft.to/lastmile_qr_scan", "android": "https://dc.lft.to/lastmile_qr_scan"}}, {"name": "35887da9f712b2954b4d9d9533f8c0ff", "lon": -77.008944, "lat": 38.88177866666667, "type": "electric_scooter", "fusion_lon": 0.0, "is_reserved": 0, "bike_id": "35887da9f712b2954b4d9d9533f8c0ff", "fusion_lat": 0.0, "is_disabled": 0, "rental_uris": {"ios": "https://dc.lft.to/lastmile_qr_scan", "android": "https://dc.lft.to/lastmile_qr_scan"}}, {"name": "8cc439b2510ed008f40bc7bdee741ccf", "lon": -77.04952133333333, "lat": 38.90081516666667, "type": "electric_scooter", "fusion_lon": 0.0, "is_reserved": 0, "bike_id": "8cc439b2510ed008f40bc7bdee741ccf", "fusion_lat": 0.0, "is_disabled": 0, "rental_uris": {"ios": "https://dc.lft.to/lastmile_qr_scan", "android": "https://dc.lft.to/lastmile_qr_scan"}}, {"name": "f4e6ecce2c7c5e1397b8eafd5c4b2244", "lon": -77.02230166666666, "lat": 38.956884333333335, "type": "electric_bike", "fusion_lon": 0.0, "is_reserved": 0, "bike_id": "f4e6ecce2c7c5e1397b8eafd5c4b2244", "fusion_lat": 0.0, "is_disabled": 0, "rental_uris": {"ios": "https://dc.lft.to/lastmile_qr_scan", "android": "https://dc.lft.to/lastmile_qr_scan"}}, {"name": "fee3c5afeea6b44ffc698095507dbf3d", "lon": -77.04945366666666, "lat": 38.9097195, "type": "electric_scooter", "fusion_lon": 0.0, "is_reserved": 0, "bike_id": "fee3c5afeea6b44ffc698095507dbf3d", "fusion_lat": 0.0, "is_disabled": 0, "rental_uris": {"ios": "https://dc.lft.to/lastmile_qr_scan", "android": "https://dc.lft.to/lastmile_qr_scan"}}, {"name": "618c4c9f356edcbb13a7d2d4831b948d", "lon": -77.03271083333334, "lat": 38.916204666666665, "type": "electric_scooter", "fusion_lon": 0.0, "is_reserved": 0, "bike_id": "618c4c9f356edcbb13a7d2d4831b948d", "fusion_lat": 0.0, "is_disabled": 0, "rental_uris": {"ios": "https://dc.lft.to/lastmile_qr_scan", "android": "https://dc.lft.to/lastmile_qr_scan"}}, {"name": "5f2c51197e2234cd6c5518ccf3a41814", "lon": -77.02508283333333, "lat": 38.920572166666666, "type": "electric_scooter", "fusion_lon": 0.0, "is_reserved": 0, "bike_id": "5f2c51197e2234cd6c5518ccf3a41814", "fusion_lat": 0.0, "is_disabled": 0, "rental_uris": {"ios": "https://dc.lft.to/lastmile_qr_scan", "android": "https://dc.lft.to/lastmile_qr_scan"}}, {"name": "cf4a0f3c1bd8a4a024a8e12bec8c5802", "lon": -77.04624016666666, "lat": 38.91698266666667, "type": "electric_scooter", "fusion_lon": 0.0, "is_reserved": 0, "bike_id": "cf4a0f3c1bd8a4a024a8e12bec8c5802", "fusion_lat": 0.0, "is_disabled": 0, "rental_uris": {"ios": "https://dc.lft.to/lastmile_qr_scan", "android": "https://dc.lft.to/lastmile_qr_scan"}}, {"name": "c79d1ac9ef86da3d35a254fb6c8f222c", "lon": -77.0449865, "lat": 38.919377, "type": "electric_scooter", "fusion_lon": 0.0, "is_reserved": 0, "bike_id": "c79d1ac9ef86da3d35a254fb6c8f222c", "fusion_lat": 0.0, "is_disabled": 0, "rental_uris": {"ios": "https://dc.lft.to/lastmile_qr_scan", "android": "https://dc.lft.to/lastmile_qr_scan"}}, {"name": "167896a7314af2201e6811b769cbc898", "lon": -76.97587633333333, "lat": 38.840339166666666, "type": "electric_bike", "fusion_lon": 0.0, "is_reserved": 0, "bike_id": "167896a7314af2201e6811b769cbc898", "fusion_lat": 0.0, "is_disabled": 0, "rental_uris": {"ios": "https://dc.lft.to/lastmile_qr_scan", "android": "https://dc.lft.to/lastmile_qr_scan"}}, {"name": "9ceacf8d82b5335bed22b8532fa5e93f", "lon": -77.01114933333334, "lat": 38.903576666666666, "type": "electric_scooter", "fusion_lon": 0.0, "is_reserved": 0, "bike_id": "9ceacf8d82b5335bed22b8532fa5e93f", "fusion_lat": 0.0, "is_disabled": 0, "rental_uris": {"ios": "https://dc.lft.to/lastmile_qr_scan", "android": "https://dc.lft.to/lastmile_qr_scan"}}, {"name": "2ea7963cb4bea6566c93d32989505b78", "lon": -77.09255466666667, "lat": 38.941541666666666, "type": "electric_scooter", "fusion_lon": 0.0, "is_reserved": 0, "bike_id": "2ea7963cb4bea6566c93d32989505b78", "fusion_lat": 0.0, "is_disabled": 0, "rental_uris": {"ios": "https://dc.lft.to/lastmile_qr_scan", "android": "https://dc.lft.to/lastmile_qr_scan"}}, {"name": "3e31119f9dca34870c92fb1b8b8af2e1", "lon": -77.02692866666666, "lat": 38.902389, "type": "electric_scooter", "fusion_lon": 0.0, "is_reserved": 0, "bike_id": "3e31119f9dca34870c92fb1b8b8af2e1", "fusion_lat": 0.0, "is_disabled": 0, "rental_uris": {"ios": "https://dc.lft.to/lastmile_qr_scan", "android": "https://dc.lft.to/lastmile_qr_scan"}}, {"name": "858d8551de70970ac9091fc0a9d210e0", "lon": -77.0312325, "lat": 38.91562016666666, "type": "electric_scooter", "fusion_lon": 0.0, "is_reserved": 0, "bike_id": "858d8551de70970ac9091fc0a9d210e0", "fusion_lat": 0.0, "is_disabled": 0, "rental_uris": {"ios": "https://dc.lft.to/lastmile_qr_scan", "android": "https://dc.lft.to/lastmile_qr_scan"}}, {"name": "257bec77324c956259c1ccc9da73eea1", "lon": -77.03732433333333, "lat": 38.935723333333335, "type": "electric_scooter", "fusion_lon": 0.0, "is_reserved": 0, "bike_id": "257bec77324c956259c1ccc9da73eea1", "fusion_lat": 0.0, "is_disabled": 0, "rental_uris": {"ios": "https://dc.lft.to/lastmile_qr_scan", "android": "https://dc.lft.to/lastmile_qr_scan"}}, {"name": "7bc22822c90fbd2f41aa9bd67f5206ed", "lon": -77.00505166666666, "lat": 38.9169015, "type": "electric_scooter", "fusion_lon": 0.0, "is_reserved": 0, "bike_id": "7bc22822c90fbd2f41aa9bd67f5206ed", "fusion_lat": 0.0, "is_disabled": 0, "rental_uris": {"ios": "https://dc.lft.to/lastmile_qr_scan", "android": "https://dc.lft.to/lastmile_qr_scan"}}, {"name": "fbe5638c8b376eed69faaf611b5c6b7a", "lon": -77.04911583333333, "lat": 38.900840333333335, "type": "electric_scooter", "fusion_lon": 0.0, "is_reserved": 0, "bike_id": "fbe5638c8b376eed69faaf611b5c6b7a", "fusion_lat": 0.0, "is_disabled": 0, "rental_uris": {"ios": "https://dc.lft.to/lastmile_qr_scan", "android": "https://dc.lft.to/lastmile_qr_scan"}}, {"name": "32f7945e9b88cde88c09e8d122ba6fef", "lon": -77.0488985, "lat": 38.90590066666667, "type": "electric_scooter", "fusion_lon": 0.0, "is_reserved": 0, "bike_id": "32f7945e9b88cde88c09e8d122ba6fef", "fusion_lat": 0.0, "is_disabled": 0, "rental_uris": {"ios": "https://dc.lft.to/lastmile_qr_scan", "android": "https://dc.lft.to/lastmile_qr_scan"}}, {"name": "7fa1bd0b7302b79fa0cbdfd90362eb67", "lon": -76.99913916666667, "lat": 38.924619, "type": "electric_scooter", "fusion_lon": 0.0, "is_reserved": 0, "bike_id": "7fa1bd0b7302b79fa0cbdfd90362eb67", "fusion_lat": 0.0, "is_disabled": 0, "rental_uris": {"ios": "https://dc.lft.to/lastmile_qr_scan", "android": "https://dc.lft.to/lastmile_qr_scan"}}, {"name": "05a102c31821d6b0f05b9d5af1d65f38", "lon": -77.05508716666667, "lat": 38.936586166666665, "type": "electric_scooter", "fusion_lon": 0.0, "is_reserved": 0, "bike_id": "05a102c31821d6b0f05b9d5af1d65f38", "fusion_lat": 0.0, "is_disabled": 0, "rental_uris": {"ios": "https://dc.lft.to/lastmile_qr_scan", "android": "https://dc.lft.to/lastmile_qr_scan"}}, {"name": "016b3393caed7410965a8b45a7ae2875", "lon": -77.0431445, "lat": 38.881076166666666, "type": "electric_scooter", "fusion_lon": 0.0, "is_reserved": 0, "bike_id": "016b3393caed7410965a8b45a7ae2875", "fusion_lat": 0.0, "is_disabled": 0, "rental_uris": {"ios": "https://dc.lft.to/lastmile_qr_scan", "android": "https://dc.lft.to/lastmile_qr_scan"}}, {"name": "5dab87e68ab82c8e31bc9f9e1774a1ef", "lon": -76.97186183333334, "lat": 38.917864333333334, "type": "electric_bike", "fusion_lon": 0.0, "is_reserved": 0, "bike_id": "5dab87e68ab82c8e31bc9f9e1774a1ef", "fusion_lat": 0.0, "is_disabled": 0, "rental_uris": {"ios": "https://dc.lft.to/lastmile_qr_scan", "android": "https://dc.lft.to/lastmile_qr_scan"}}, {"name": "1603caab1a9fcfae5334df602450549b", "lon": -77.03115833333334, "lat": 38.8947405, "type": "electric_scooter", "fusion_lon": 0.0, "is_reserved": 0, "bike_id": "1603caab1a9fcfae5334df602450549b", "fusion_lat": 0.0, "is_disabled": 0, "rental_uris": {"ios": "https://dc.lft.to/lastmile_qr_scan", "android": "https://dc.lft.to/lastmile_qr_scan"}}, {"name": "8434c80ecc4c90baf0fe444248c525b2", "lon": -77.0449895, "lat": 38.903545333333334, "type": "electric_scooter", "fusion_lon": 0.0, "is_reserved": 0, "bike_id": "8434c80ecc4c90baf0fe444248c525b2", "fusion_lat": 0.0, "is_disabled": 0, "rental_uris": {"ios": "https://dc.lft.to/lastmile_qr_scan", "android": "https://dc.lft.to/lastmile_qr_scan"}}, {"name": "cfd79451e2827b29b7a2427316fd3426", "lon": -77.01138, "lat": 38.8852755, "type": "electric_scooter", "fusion_lon": 0.0, "is_reserved": 0, "bike_id": "cfd79451e2827b29b7a2427316fd3426", "fusion_lat": 0.0, "is_disabled": 0, "rental_uris": {"ios": "https://dc.lft.to/lastmile_qr_scan", "android": "https://dc.lft.to/lastmile_qr_scan"}}, {"name": "7caf9b5f2aebed2a181c33c5bb243b17", "lon": -77.11756983333333, "lat": 39.04909166666667, "type": "electric_bike", "fusion_lon": 0.0, "is_reserved": 0, "bike_id": "7caf9b5f2aebed2a181c33c5bb243b17", "fusion_lat": 0.0, "is_disabled": 0, "rental_uris": {"ios": "https://dc.lft.to/lastmile_qr_scan", "android": "https://dc.lft.to/lastmile_qr_scan"}}, {"name": "12d41db16513edaabbbb79c01b9f5730", "lon": -77.0261645, "lat": 38.91710416666667, "type": "electric_scooter", "fusion_lon": 0.0, "is_reserved": 0, "bike_id": "12d41db16513edaabbbb79c01b9f5730", "fusion_lat": 0.0, "is_disabled": 0, "rental_uris": {"ios": "https://dc.lft.to/lastmile_qr_scan", "android": "https://dc.lft.to/lastmile_qr_scan"}}, {"name": "a428765ad67b3c619b1ec28e714cb4bf", "lon": -76.99611616666667, "lat": 38.88491783333333, "type": "electric_scooter", "fusion_lon": 0.0, "is_reserved": 0, "bike_id": "a428765ad67b3c619b1ec28e714cb4bf", "fusion_lat": 0.0, "is_disabled": 0, "rental_uris": {"ios": "https://dc.lft.to/lastmile_qr_scan", "android": "https://dc.lft.to/lastmile_qr_scan"}}, {"name": "84aba87297a69b33e645b644d4845ca6", "lon": -77.04865633333333, "lat": 38.90645516666667, "type": "electric_scooter", "fusion_lon": 0.0, "is_reserved": 0, "bike_id": "84aba87297a69b33e645b644d4845ca6", "fusion_lat": 0.0, "is_disabled": 0, "rental_uris": {"ios": "https://dc.lft.to/lastmile_qr_scan", "android": "https://dc.lft.to/lastmile_qr_scan"}}, {"name": "2746618be7f6ad2614600a24a1b7cb55", "lon": -77.1315135, "lat": 38.861721833333334, "type": "electric_bike", "fusion_lon": 0.0, "is_reserved": 0, "bike_id": "2746618be7f6ad2614600a24a1b7cb55", "fusion_lat": 0.0, "is_disabled": 0, "rental_uris": {"ios": "https://dc.lft.to/lastmile_qr_scan", "android": "https://dc.lft.to/lastmile_qr_scan"}}, {"name": "71316aecdba8ae1a0f86980f5dd4f774", "lon": -77.0217175, "lat": 38.942957166666666, "type": "electric_scooter", "fusion_lon": 0.0, "is_reserved": 0, "bike_id": "71316aecdba8ae1a0f86980f5dd4f774", "fusion_lat": 0.0, "is_disabled": 0, "rental_uris": {"ios": "https://dc.lft.to/lastmile_qr_scan", "android": "https://dc.lft.to/lastmile_qr_scan"}}, {"name": "651cd47934d67ca7a66e9b9c34e44a73", "lon": -77.02778933333333, "lat": 38.93961783333334, "type": "electric_bike", "fusion_lon": 0.0, "is_reserved": 0, "bike_id": "651cd47934d67ca7a66e9b9c34e44a73", "fusion_lat": 0.0, "is_disabled": 0, "rental_uris": {"ios": "https://dc.lft.to/lastmile_qr_scan", "android": "https://dc.lft.to/lastmile_qr_scan"}}, {"name": "c02affc2c7d95bb17920b3d36f709695", "lon": -77.01930166666666, "lat": 38.923638, "type": "electric_scooter", "fusion_lon": 0.0, "is_reserved": 0, "bike_id": "c02affc2c7d95bb17920b3d36f709695", "fusion_lat": 0.0, "is_disabled": 0, "rental_uris": {"ios": "https://dc.lft.to/lastmile_qr_scan", "android": "https://dc.lft.to/lastmile_qr_scan"}}, {"name": "710033f095b3f7ce00fbcdd24838e1dd", "lon": -77.05160166666667, "lat": 38.90393483333333, "type": "electric_scooter", "fusion_lon": 0.0, "is_reserved": 0, "bike_id": "710033f095b3f7ce00fbcdd24838e1dd", "fusion_lat": 0.0, "is_disabled": 0, "rental_uris": {"ios": "https://dc.lft.to/lastmile_qr_scan", "android": "https://dc.lft.to/lastmile_qr_scan"}}, {"name": "0081de60886631bfadd67d642710cd5c", "lon": -77.0437295, "lat": 38.892215, "type": "electric_scooter", "fusion_lon": 0.0, "is_reserved": 0, "bike_id": "0081de60886631bfadd67d642710cd5c", "fusion_lat": 0.0, "is_disabled": 0, "rental_uris": {"ios": "https://dc.lft.to/lastmile_qr_scan", "android": "https://dc.lft.to/lastmile_qr_scan"}}, {"name": "3adac01b7cf14880b44586f036e5d88e", "lon": -77.048385, "lat": 38.9008245, "type": "electric_scooter", "fusion_lon": 0.0, "is_reserved": 0, "bike_id": "3adac01b7cf14880b44586f036e5d88e", "fusion_lat": 0.0, "is_disabled": 0, "rental_uris": {"ios": "https://dc.lft.to/lastmile_qr_scan", "android": "https://dc.lft.to/lastmile_qr_scan"}}, {"name": "70d5cf8b9e6e727019d132a4956eefd6", "lon": -77.04691833333334, "lat": 39.023938666666666, "type": "electric_bike", "fusion_lon": 0.0, "is_reserved": 0, "bike_id": "70d5cf8b9e6e727019d132a4956eefd6", "fusion_lat": 0.0, "is_disabled": 0, "rental_uris": {"ios": "https://dc.lft.to/lastmile_qr_scan", "android": "https://dc.lft.to/lastmile_qr_scan"}}, {"name": "b5aa026c09b6d4a8231c0aa352285c20", "lon": -77.03826466666666, "lat": 38.924685333333336, "type": "electric_scooter", "fusion_lon": 0.0, "is_reserved": 0, "bike_id": "b5aa026c09b6d4a8231c0aa352285c20", "fusion_lat": 0.0, "is_disabled": 0, "rental_uris": {"ios": "https://dc.lft.to/lastmile_qr_scan", "android": "https://dc.lft.to/lastmile_qr_scan"}}, {"name": "15599da6678e2f48d733a6336f20add7", "lon": -77.0349315, "lat": 38.924837333333336, "type": "electric_scooter", "fusion_lon": 0.0, "is_reserved": 0, "bike_id": "15599da6678e2f48d733a6336f20add7", "fusion_lat": 0.0, "is_disabled": 0, "rental_uris": {"ios": "https://dc.lft.to/lastmile_qr_scan", "android": "https://dc.lft.to/lastmile_qr_scan"}}, {"name": "a861c39c2379f23036f247faea5b50ae", "lon": -76.97433333333333, "lat": 38.8653185, "type": "electric_scooter", "fusion_lon": 0.0, "is_reserved": 0, "bike_id": "a861c39c2379f23036f247faea5b50ae", "fusion_lat": 0.0, "is_disabled": 0, "rental_uris": {"ios": "https://dc.lft.to/lastmile_qr_scan", "android": "https://dc.lft.to/lastmile_qr_scan"}}, {"name": "b3d1912869549a741a6d311fb084e61d", "lon": -77.03365083333334, "lat": 38.935885166666665, "type": "electric_scooter", "fusion_lon": 0.0, "is_reserved": 0, "bike_id": "b3d1912869549a741a6d311fb084e61d", "fusion_lat": 0.0, "is_disabled": 0, "rental_uris": {"ios": "https://dc.lft.to/lastmile_qr_scan", "android": "https://dc.lft.to/lastmile_qr_scan"}}, {"name": "1d0c8530d183f9679c31af38825f1e67", "lon": -77.03711183333333, "lat": 38.935587, "type": "electric_bike", "fusion_lon": 0.0, "is_reserved": 0, "bike_id": "1d0c8530d183f9679c31af38825f1e67", "fusion_lat": 0.0, "is_disabled": 0, "rental_uris": {"ios": "https://dc.lft.to/lastmile_qr_scan", "android": "https://dc.lft.to/lastmile_qr_scan"}}, {"name": "c0b90d22728f8ca3a24333b4a248c8b1", "lon": -77.1874355, "lat": 38.893533166666664, "type": "electric_bike", "fusion_lon": 0.0, "is_reserved": 0, "bike_id": "c0b90d22728f8ca3a24333b4a248c8b1", "fusion_lat": 0.0, "is_disabled": 0, "rental_uris": {"ios": "https://dc.lft.to/lastmile_qr_scan", "android": "https://dc.lft.to/lastmile_qr_scan"}}, {"name": "2d0da6b99fa86b42804cf6459b8b7c9a", "lon": -77.0296825, "lat": 38.923273, "type": "electric_scooter", "fusion_lon": 0.0, "is_reserved": 0, "bike_id": "2d0da6b99fa86b42804cf6459b8b7c9a", "fusion_lat": 0.0, "is_disabled": 0, "rental_uris": {"ios": "https://dc.lft.to/lastmile_qr_scan", "android": "https://dc.lft.to/lastmile_qr_scan"}}, {"name": "9f5410d644e9253c01e7f7afeebf9b61", "lon": -77.05019783333333, "lat": 38.906442, "type": "electric_scooter", "fusion_lon": 0.0, "is_reserved": 0, "bike_id": "9f5410d644e9253c01e7f7afeebf9b61", "fusion_lat": 0.0, "is_disabled": 0, "rental_uris": {"ios": "https://dc.lft.to/lastmile_qr_scan", "android": "https://dc.lft.to/lastmile_qr_scan"}}, {"name": "af36fd5e5f9ffd61b9145201481f4404", "lon": -77.032564, "lat": 38.91183783333334, "type": "electric_scooter", "fusion_lon": 0.0, "is_reserved": 0, "bike_id": "af36fd5e5f9ffd61b9145201481f4404", "fusion_lat": 0.0, "is_disabled": 0, "rental_uris": {"ios": "https://dc.lft.to/lastmile_qr_scan", "android": "https://dc.lft.to/lastmile_qr_scan"}}, {"name": "2e16fa85757d2da1f91580b15f8a818b", "lon": -77.00760383333333, "lat": 38.91027183333333, "type": "electric_scooter", "fusion_lon": 0.0, "is_reserved": 0, "bike_id": "2e16fa85757d2da1f91580b15f8a818b", "fusion_lat": 0.0, "is_disabled": 0, "rental_uris": {"ios": "https://dc.lft.to/lastmile_qr_scan", "android": "https://dc.lft.to/lastmile_qr_scan"}}, {"name": "02508fda2f33d4f466e7358deba857da", "lon": -77.0230075, "lat": 38.9191015, "type": "electric_scooter", "fusion_lon": 0.0, "is_reserved": 0, "bike_id": "02508fda2f33d4f466e7358deba857da", "fusion_lat": 0.0, "is_disabled": 0, "rental_uris": {"ios": "https://dc.lft.to/lastmile_qr_scan", "android": "https://dc.lft.to/lastmile_qr_scan"}}, {"name": "b93ef9b2655a70312dc6c18dcb178629", "lon": -77.0366475, "lat": 38.91724816666667, "type": "electric_scooter", "fusion_lon": 0.0, "is_reserved": 0, "bike_id": "b93ef9b2655a70312dc6c18dcb178629", "fusion_lat": 0.0, "is_disabled": 0, "rental_uris": {"ios": "https://dc.lft.to/lastmile_qr_scan", "android": "https://dc.lft.to/lastmile_qr_scan"}}, {"name": "5eab2004f05e3e774a49487756a9d54c", "lon": -77.06286033333333, "lat": 38.96496833333333, "type": "electric_scooter", "fusion_lon": 0.0, "is_reserved": 0, "bike_id": "5eab2004f05e3e774a49487756a9d54c", "fusion_lat": 0.0, "is_disabled": 0, "rental_uris": {"ios": "https://dc.lft.to/lastmile_qr_scan", "android": "https://dc.lft.to/lastmile_qr_scan"}}, {"name": "3aeff03d74fdcde2a365e373df555f85", "lon": -77.01619616666666, "lat": 38.89960266666667, "type": "electric_scooter", "fusion_lon": 0.0, "is_reserved": 0, "bike_id": "3aeff03d74fdcde2a365e373df555f85", "fusion_lat": 0.0, "is_disabled": 0, "rental_uris": {"ios": "https://dc.lft.to/lastmile_qr_scan", "android": "https://dc.lft.to/lastmile_qr_scan"}}, {"name": "6c8bf7c9dba3ae5405d2e074b36d7a25", "lon": -77.01212116666666, "lat": 38.8709115, "type": "electric_scooter", "fusion_lon": 0.0, "is_reserved": 0, "bike_id": "6c8bf7c9dba3ae5405d2e074b36d7a25", "fusion_lat": 0.0, "is_disabled": 0, "rental_uris": {"ios": "https://dc.lft.to/lastmile_qr_scan", "android": "https://dc.lft.to/lastmile_qr_scan"}}, {"name": "a16d39f8263c177409db8b95a0321f45", "lon": -77.03482566666666, "lat": 38.905683, "type": "electric_scooter", "fusion_lon": 0.0, "is_reserved": 0, "bike_id": "a16d39f8263c177409db8b95a0321f45", "fusion_lat": 0.0, "is_disabled": 0, "rental_uris": {"ios": "https://dc.lft.to/lastmile_qr_scan", "android": "https://dc.lft.to/lastmile_qr_scan"}}, {"name": "17afc50817f39e895084f368fe7e7c11", "lon": -77.036375, "lat": 38.923440166666666, "type": "electric_scooter", "fusion_lon": 0.0, "is_reserved": 0, "bike_id": "17afc50817f39e895084f368fe7e7c11", "fusion_lat": 0.0, "is_disabled": 0, "rental_uris": {"ios": "https://dc.lft.to/lastmile_qr_scan", "android": "https://dc.lft.to/lastmile_qr_scan"}}, {"name": "0256ab678ea7766f10b87c2ee1c5ffdd", "lon": -77.0295955, "lat": 38.905337333333335, "type": "electric_scooter", "fusion_lon": 0.0, "is_reserved": 0, "bike_id": "0256ab678ea7766f10b87c2ee1c5ffdd", "fusion_lat": 0.0, "is_disabled": 0, "rental_uris": {"ios": "https://dc.lft.to/lastmile_qr_scan", "android": "https://dc.lft.to/lastmile_qr_scan"}}, {"name": "2047f43ee992028c115d38d28d5e0847", "lon": -77.00805, "lat": 38.94923933333333, "type": "electric_bike", "fusion_lon": 0.0, "is_reserved": 0, "bike_id": "2047f43ee992028c115d38d28d5e0847", "fusion_lat": 0.0, "is_disabled": 0, "rental_uris": {"ios": "https://dc.lft.to/lastmile_qr_scan", "android": "https://dc.lft.to/lastmile_qr_scan"}}, {"name": "d06f9a1ce0281ee37fbe6e4fcc03d674", "lon": -77.03267666666666, "lat": 38.92006083333333, "type": "electric_scooter", "fusion_lon": 0.0, "is_reserved": 0, "bike_id": "d06f9a1ce0281ee37fbe6e4fcc03d674", "fusion_lat": 0.0, "is_disabled": 0, "rental_uris": {"ios": "https://dc.lft.to/lastmile_qr_scan", "android": "https://dc.lft.to/lastmile_qr_scan"}}, {"name": "43d9ceabff5e947002f3312617ec5268", "lon": -77.0386965, "lat": 38.921526, "type": "electric_scooter", "fusion_lon": 0.0, "is_reserved": 0, "bike_id": "43d9ceabff5e947002f3312617ec5268", "fusion_lat": 0.0, "is_disabled": 0, "rental_uris": {"ios": "https://dc.lft.to/lastmile_qr_scan", "android": "https://dc.lft.to/lastmile_qr_scan"}}, {"name": "5572e1aed533f0e40d903b1a0ef5ea32", "lon": -77.00226066666667, "lat": 38.90028183333333, "type": "electric_scooter", "fusion_lon": 0.0, "is_reserved": 0, "bike_id": "5572e1aed533f0e40d903b1a0ef5ea32", "fusion_lat": 0.0, "is_disabled": 0, "rental_uris": {"ios": "https://dc.lft.to/lastmile_qr_scan", "android": "https://dc.lft.to/lastmile_qr_scan"}}, {"name": "596684a8242fbd91b8f817ed1bcc788d", "lon": -77.02199166666666, "lat": 38.90839783333333, "type": "electric_scooter", "fusion_lon": 0.0, "is_reserved": 0, "bike_id": "596684a8242fbd91b8f817ed1bcc788d", "fusion_lat": 0.0, "is_disabled": 0, "rental_uris": {"ios": "https://dc.lft.to/lastmile_qr_scan", "android": "https://dc.lft.to/lastmile_qr_scan"}}, {"name": "8234c6c026453ec270c0aba405f26189", "lon": -77.0296445, "lat": 38.92775966666667, "type": "electric_bike", "fusion_lon": 0.0, "is_reserved": 0, "bike_id": "8234c6c026453ec270c0aba405f26189", "fusion_lat": 0.0, "is_disabled": 0, "rental_uris": {"ios": "https://dc.lft.to/lastmile_qr_scan", "android": "https://dc.lft.to/lastmile_qr_scan"}}, {"name": "1eee385b4f34b8aa4ac523523734a8eb", "lon": -77.06711983333334, "lat": 38.95066283333333, "type": "electric_scooter", "fusion_lon": 0.0, "is_reserved": 0, "bike_id": "1eee385b4f34b8aa4ac523523734a8eb", "fusion_lat": 0.0, "is_disabled": 0, "rental_uris": {"ios": "https://dc.lft.to/lastmile_qr_scan", "android": "https://dc.lft.to/lastmile_qr_scan"}}, {"name": "92c737f1ccef47f54f6e0e4bdbf9ce9b", "lon": -77.00203233333333, "lat": 38.9024435, "type": "electric_scooter", "fusion_lon": 0.0, "is_reserved": 0, "bike_id": "92c737f1ccef47f54f6e0e4bdbf9ce9b", "fusion_lat": 0.0, "is_disabled": 0, "rental_uris": {"ios": "https://dc.lft.to/lastmile_qr_scan", "android": "https://dc.lft.to/lastmile_qr_scan"}}, {"name": "e411a8fc03705b9d9012a17fc4e3bc1f", "lon": -77.0444375, "lat": 38.903659833333336, "type": "electric_scooter", "fusion_lon": 0.0, "is_reserved": 0, "bike_id": "e411a8fc03705b9d9012a17fc4e3bc1f", "fusion_lat": 0.0, "is_disabled": 0, "rental_uris": {"ios": "https://dc.lft.to/lastmile_qr_scan", "android": "https://dc.lft.to/lastmile_qr_scan"}}, {"name": "c69fbd5a703e2ffd12b9face9ce0d2df", "lon": -77.03502516666667, "lat": 38.917055500000004, "type": "electric_scooter", "fusion_lon": 0.0, "is_reserved": 0, "bike_id": "c69fbd5a703e2ffd12b9face9ce0d2df", "fusion_lat": 0.0, "is_disabled": 0, "rental_uris": {"ios": "https://dc.lft.to/lastmile_qr_scan", "android": "https://dc.lft.to/lastmile_qr_scan"}}, {"name": "267780741ecbb2f3bfb9698b3e31147d", "lon": -77.02413033333333, "lat": 38.920857833333336, "type": "electric_scooter", "fusion_lon": 0.0, "is_reserved": 0, "bike_id": "267780741ecbb2f3bfb9698b3e31147d", "fusion_lat": 0.0, "is_disabled": 0, "rental_uris": {"ios": "https://dc.lft.to/lastmile_qr_scan", "android": "https://dc.lft.to/lastmile_qr_scan"}}, {"name": "44b80cb67f37d7a8f17434fc81b7c9cb", "lon": -77.04477983333334, "lat": 38.918740666666665, "type": "electric_scooter", "fusion_lon": 0.0, "is_reserved": 0, "bike_id": "44b80cb67f37d7a8f17434fc81b7c9cb", "fusion_lat": 0.0, "is_disabled": 0, "rental_uris": {"ios": "https://dc.lft.to/lastmile_qr_scan", "android": "https://dc.lft.to/lastmile_qr_scan"}}, {"name": "b5ca8e610dce66f20f4f0388f1e4a95b", "lon": -77.06424366666667, "lat": 38.905185333333336, "type": "electric_scooter", "fusion_lon": 0.0, "is_reserved": 0, "bike_id": "b5ca8e610dce66f20f4f0388f1e4a95b", "fusion_lat": 0.0, "is_disabled": 0, "rental_uris": {"ios": "https://dc.lft.to/lastmile_qr_scan", "android": "https://dc.lft.to/lastmile_qr_scan"}}, {"name": "b208ccbaaacca3fc34a8f44231508726", "lon": -76.94187683333334, "lat": 38.89753, "type": "electric_scooter", "fusion_lon": 0.0, "is_reserved": 0, "bike_id": "b208ccbaaacca3fc34a8f44231508726", "fusion_lat": 0.0, "is_disabled": 0, "rental_uris": {"ios": "https://dc.lft.to/lastmile_qr_scan", "android": "https://dc.lft.to/lastmile_qr_scan"}}, {"name": "c6753e70b9ffb3c96092bd8b2ae241c7", "lon": -77.01763933333334, "lat": 38.87687866666667, "type": "electric_scooter", "fusion_lon": 0.0, "is_reserved": 0, "bike_id": "c6753e70b9ffb3c96092bd8b2ae241c7", "fusion_lat": 0.0, "is_disabled": 0, "rental_uris": {"ios": "https://dc.lft.to/lastmile_qr_scan", "android": "https://dc.lft.to/lastmile_qr_scan"}}, {"name": "1f190dcfc662c5c67519d4948db8b10e", "lon": -77.12031633333334, "lat": 38.8551975, "type": "electric_bike", "fusion_lon": 0.0, "is_reserved": 0, "bike_id": "1f190dcfc662c5c67519d4948db8b10e", "fusion_lat": 0.0, "is_disabled": 0, "rental_uris": {"ios": "https://dc.lft.to/lastmile_qr_scan", "android": "https://dc.lft.to/lastmile_qr_scan"}}, {"name": "6d28ff3e7aaaa9dca64a8158674e67d5", "lon": -77.00196833333334, "lat": 38.89351716666667, "type": "electric_scooter", "fusion_lon": 0.0, "is_reserved": 0, "bike_id": "6d28ff3e7aaaa9dca64a8158674e67d5", "fusion_lat": 0.0, "is_disabled": 0, "rental_uris": {"ios": "https://dc.lft.to/lastmile_qr_scan", "android": "https://dc.lft.to/lastmile_qr_scan"}}, {"name": "191b6dc731d6c25c97dd0a7a8fa2f838", "lon": -77.00502133333333, "lat": 38.8968515, "type": "electric_scooter", "fusion_lon": 0.0, "is_reserved": 0, "bike_id": "191b6dc731d6c25c97dd0a7a8fa2f838", "fusion_lat": 0.0, "is_disabled": 0, "rental_uris": {"ios": "https://dc.lft.to/lastmile_qr_scan", "android": "https://dc.lft.to/lastmile_qr_scan"}}, {"name": "7675286cc8bbff1fe12936b1a6ae1027", "lon": -77.04192833333333, "lat": 38.89357416666667, "type": "electric_scooter", "fusion_lon": 0.0, "is_reserved": 0, "bike_id": "7675286cc8bbff1fe12936b1a6ae1027", "fusion_lat": 0.0, "is_disabled": 0, "rental_uris": {"ios": "https://dc.lft.to/lastmile_qr_scan", "android": "https://dc.lft.to/lastmile_qr_scan"}}, {"name": "eaa496ea8c5e4449f25ef6495aed1e4b", "lon": -77.03853866666667, "lat": 38.910210666666664, "type": "electric_scooter", "fusion_lon": 0.0, "is_reserved": 0, "bike_id": "eaa496ea8c5e4449f25ef6495aed1e4b", "fusion_lat": 0.0, "is_disabled": 0, "rental_uris": {"ios": "https://dc.lft.to/lastmile_qr_scan", "android": "https://dc.lft.to/lastmile_qr_scan"}}, {"name": "d0149ced4348059b37e89d8e4c085a5d", "lon": -77.04518016666667, "lat": 38.89224183333333, "type": "electric_scooter", "fusion_lon": 0.0, "is_reserved": 0, "bike_id": "d0149ced4348059b37e89d8e4c085a5d", "fusion_lat": 0.0, "is_disabled": 0, "rental_uris": {"ios": "https://dc.lft.to/lastmile_qr_scan", "android": "https://dc.lft.to/lastmile_qr_scan"}}, {"name": "9de9af43885a7431b3e972404c77e708", "lon": -77.03907733333334, "lat": 38.917638833333335, "type": "electric_scooter", "fusion_lon": 0.0, "is_reserved": 0, "bike_id": "9de9af43885a7431b3e972404c77e708", "fusion_lat": 0.0, "is_disabled": 0, "rental_uris": {"ios": "https://dc.lft.to/lastmile_qr_scan", "android": "https://dc.lft.to/lastmile_qr_scan"}}, {"name": "a45019775a05221a01b3293758f3ba73", "lon": -77.064048, "lat": 38.8406195, "type": "electric_bike", "fusion_lon": 0.0, "is_reserved": 0, "bike_id": "a45019775a05221a01b3293758f3ba73", "fusion_lat": 0.0, "is_disabled": 0, "rental_uris": {"ios": "https://dc.lft.to/lastmile_qr_scan", "android": "https://dc.lft.to/lastmile_qr_scan"}}, {"name": "2bbabc464e8524d1cc0f61daf26bdf3e", "lon": -77.01758333333333, "lat": 38.90263733333333, "type": "electric_scooter", "fusion_lon": 0.0, "is_reserved": 0, "bike_id": "2bbabc464e8524d1cc0f61daf26bdf3e", "fusion_lat": 0.0, "is_disabled": 0, "rental_uris": {"ios": "https://dc.lft.to/lastmile_qr_scan", "android": "https://dc.lft.to/lastmile_qr_scan"}}, {"name": "e4044c3184eae4145e825f907614710d", "lon": -77.00186716666667, "lat": 38.900163166666665, "type": "electric_scooter", "fusion_lon": 0.0, "is_reserved": 0, "bike_id": "e4044c3184eae4145e825f907614710d", "fusion_lat": 0.0, "is_disabled": 0, "rental_uris": {"ios": "https://dc.lft.to/lastmile_qr_scan", "android": "https://dc.lft.to/lastmile_qr_scan"}}, {"name": "322e83e32bf506dd157330053f9387f2", "lon": -76.960529, "lat": 38.88401566666667, "type": "electric_bike", "fusion_lon": 0.0, "is_reserved": 0, "bike_id": "322e83e32bf506dd157330053f9387f2", "fusion_lat": 0.0, "is_disabled": 0, "rental_uris": {"ios": "https://dc.lft.to/lastmile_qr_scan", "android": "https://dc.lft.to/lastmile_qr_scan"}}, {"name": "3cf4d0f68cb89bcf28654eaaf5bb19eb", "lon": -76.988415, "lat": 38.90041983333333, "type": "electric_scooter", "fusion_lon": 0.0, "is_reserved": 0, "bike_id": "3cf4d0f68cb89bcf28654eaaf5bb19eb", "fusion_lat": 0.0, "is_disabled": 0, "rental_uris": {"ios": "https://dc.lft.to/lastmile_qr_scan", "android": "https://dc.lft.to/lastmile_qr_scan"}}, {"name": "3df1eaa2c0eb076b54226707ff505925", "lon": -77.03166316666666, "lat": 38.9126105, "type": "electric_scooter", "fusion_lon": 0.0, "is_reserved": 0, "bike_id": "3df1eaa2c0eb076b54226707ff505925", "fusion_lat": 0.0, "is_disabled": 0, "rental_uris": {"ios": "https://dc.lft.to/lastmile_qr_scan", "android": "https://dc.lft.to/lastmile_qr_scan"}}, {"name": "d00b8a8c7053d66d41bc007881bf2f26", "lon": -77.02302083333333, "lat": 38.895090333333336, "type": "electric_scooter", "fusion_lon": 0.0, "is_reserved": 0, "bike_id": "d00b8a8c7053d66d41bc007881bf2f26", "fusion_lat": 0.0, "is_disabled": 0, "rental_uris": {"ios": "https://dc.lft.to/lastmile_qr_scan", "android": "https://dc.lft.to/lastmile_qr_scan"}}, {"name": "431b150cfb83a17d729e8bcf8d640c3a", "lon": -76.956691, "lat": 38.89414583333333, "type": "electric_scooter", "fusion_lon": 0.0, "is_reserved": 0, "bike_id": "431b150cfb83a17d729e8bcf8d640c3a", "fusion_lat": 0.0, "is_disabled": 0, "rental_uris": {"ios": "https://dc.lft.to/lastmile_qr_scan", "android": "https://dc.lft.to/lastmile_qr_scan"}}, {"name": "e257d8093698973e78648a94ac06f4c6", "lon": -77.00602283333333, "lat": 38.905696666666664, "type": "electric_scooter", "fusion_lon": 0.0, "is_reserved": 0, "bike_id": "e257d8093698973e78648a94ac06f4c6", "fusion_lat": 0.0, "is_disabled": 0, "rental_uris": {"ios": "https://dc.lft.to/lastmile_qr_scan", "android": "https://dc.lft.to/lastmile_qr_scan"}}, {"name": "7d43a7ac19f708b4d5340916b590c1ed", "lon": -77.02797033333333, "lat": 38.9606525, "type": "electric_scooter", "fusion_lon": 0.0, "is_reserved": 0, "bike_id": "7d43a7ac19f708b4d5340916b590c1ed", "fusion_lat": 0.0, "is_disabled": 0, "rental_uris": {"ios": "https://dc.lft.to/lastmile_qr_scan", "android": "https://dc.lft.to/lastmile_qr_scan"}}, {"name": "93d3bd6626e4540c62c621238603fbc4", "lon": -77.044172, "lat": 38.93338216666667, "type": "electric_scooter", "fusion_lon": 0.0, "is_reserved": 0, "bike_id": "93d3bd6626e4540c62c621238603fbc4", "fusion_lat": 0.0, "is_disabled": 0, "rental_uris": {"ios": "https://dc.lft.to/lastmile_qr_scan", "android": "https://dc.lft.to/lastmile_qr_scan"}}, {"name": "3d44c7bc5e5055dfceb83abadd6d5d56", "lon": -76.96780866666667, "lat": 38.85925233333333, "type": "electric_scooter", "fusion_lon": 0.0, "is_reserved": 0, "bike_id": "3d44c7bc5e5055dfceb83abadd6d5d56", "fusion_lat": 0.0, "is_disabled": 0, "rental_uris": {"ios": "https://dc.lft.to/lastmile_qr_scan", "android": "https://dc.lft.to/lastmile_qr_scan"}}, {"name": "42b4f3eaa6f0a23d36c8d9226f4dce43", "lon": -77.07235583333333, "lat": 38.940072, "type": "electric_scooter", "fusion_lon": 0.0, "is_reserved": 0, "bike_id": "42b4f3eaa6f0a23d36c8d9226f4dce43", "fusion_lat": 0.0, "is_disabled": 0, "rental_uris": {"ios": "https://dc.lft.to/lastmile_qr_scan", "android": "https://dc.lft.to/lastmile_qr_scan"}}, {"name": "35cc55d9659e71bad9cf2ebc2dcef6bb", "lon": -76.99615533333333, "lat": 38.88557566666667, "type": "electric_scooter", "fusion_lon": 0.0, "is_reserved": 0, "bike_id": "35cc55d9659e71bad9cf2ebc2dcef6bb", "fusion_lat": 0.0, "is_disabled": 0, "rental_uris": {"ios": "https://dc.lft.to/lastmile_qr_scan", "android": "https://dc.lft.to/lastmile_qr_scan"}}, {"name": "3e62ce16b988999a98ffd38a0923be31", "lon": -76.98382333333333, "lat": 38.86124083333333, "type": "electric_scooter", "fusion_lon": 0.0, "is_reserved": 0, "bike_id": "3e62ce16b988999a98ffd38a0923be31", "fusion_lat": 0.0, "is_disabled": 0, "rental_uris": {"ios": "https://dc.lft.to/lastmile_qr_scan", "android": "https://dc.lft.to/lastmile_qr_scan"}}, {"name": "7a6d891ca8071148fef2c87ed2128366", "lon": -76.98119933333334, "lat": 38.9146795, "type": "electric_scooter", "fusion_lon": 0.0, "is_reserved": 0, "bike_id": "7a6d891ca8071148fef2c87ed2128366", "fusion_lat": 0.0, "is_disabled": 0, "rental_uris": {"ios": "https://dc.lft.to/lastmile_qr_scan", "android": "https://dc.lft.to/lastmile_qr_scan"}}, {"name": "030acc535d2fe7b06ec337df69186447", "lon": -77.029661, "lat": 38.92386616666667, "type": "electric_scooter", "fusion_lon": 0.0, "is_reserved": 0, "bike_id": "030acc535d2fe7b06ec337df69186447", "fusion_lat": 0.0, "is_disabled": 0, "rental_uris": {"ios": "https://dc.lft.to/lastmile_qr_scan", "android": "https://dc.lft.to/lastmile_qr_scan"}}, {"name": "78490b48de42e71a18c09022580297f4", "lon": -77.017983, "lat": 38.87673316666667, "type": "electric_scooter", "fusion_lon": 0.0, "is_reserved": 0, "bike_id": "78490b48de42e71a18c09022580297f4", "fusion_lat": 0.0, "is_disabled": 0, "rental_uris": {"ios": "https://dc.lft.to/lastmile_qr_scan", "android": "https://dc.lft.to/lastmile_qr_scan"}}, {"name": "c3ae2efe31b9fcbc63c2c8048e45efb4", "lon": -77.02302233333333, "lat": 38.91787983333333, "type": "electric_scooter", "fusion_lon": 0.0, "is_reserved": 0, "bike_id": "c3ae2efe31b9fcbc63c2c8048e45efb4", "fusion_lat": 0.0, "is_disabled": 0, "rental_uris": {"ios": "https://dc.lft.to/lastmile_qr_scan", "android": "https://dc.lft.to/lastmile_qr_scan"}}, {"name": "83d54ef43bccce42b11c20475755bbee", "lon": -77.01849883333334, "lat": 38.90395933333333, "type": "electric_scooter", "fusion_lon": 0.0, "is_reserved": 0, "bike_id": "83d54ef43bccce42b11c20475755bbee", "fusion_lat": 0.0, "is_disabled": 0, "rental_uris": {"ios": "https://dc.lft.to/lastmile_qr_scan", "android": "https://dc.lft.to/lastmile_qr_scan"}}, {"name": "064a9de9f8ec3305306a7890844d7bd7", "lon": -77.03262116666667, "lat": 38.937249333333334, "type": "electric_scooter", "fusion_lon": 0.0, "is_reserved": 0, "bike_id": "064a9de9f8ec3305306a7890844d7bd7", "fusion_lat": 0.0, "is_disabled": 0, "rental_uris": {"ios": "https://dc.lft.to/lastmile_qr_scan", "android": "https://dc.lft.to/lastmile_qr_scan"}}, {"name": "13353e3a7c8ccc264a2fa748e3dad71a", "lon": -77.01134283333333, "lat": 38.88030633333333, "type": "electric_scooter", "fusion_lon": 0.0, "is_reserved": 0, "bike_id": "13353e3a7c8ccc264a2fa748e3dad71a", "fusion_lat": 0.0, "is_disabled": 0, "rental_uris": {"ios": "https://dc.lft.to/lastmile_qr_scan", "android": "https://dc.lft.to/lastmile_qr_scan"}}, {"name": "ffd91669ea271617a0ada4f09363d7f4", "lon": -77.05056333333333, "lat": 38.90077016666667, "type": "electric_scooter", "fusion_lon": 0.0, "is_reserved": 0, "bike_id": "ffd91669ea271617a0ada4f09363d7f4", "fusion_lat": 0.0, "is_disabled": 0, "rental_uris": {"ios": "https://dc.lft.to/lastmile_qr_scan", "android": "https://dc.lft.to/lastmile_qr_scan"}}, {"name": "b4020b1ec19a5b97288ee06b09c4ac5d", "lon": -77.03989233333333, "lat": 38.91760566666667, "type": "electric_scooter", "fusion_lon": 0.0, "is_reserved": 0, "bike_id": "b4020b1ec19a5b97288ee06b09c4ac5d", "fusion_lat": 0.0, "is_disabled": 0, "rental_uris": {"ios": "https://dc.lft.to/lastmile_qr_scan", "android": "https://dc.lft.to/lastmile_qr_scan"}}, {"name": "b3d9a58d1e6027cee4dfdfb4e2626b27", "lon": -76.986709, "lat": 38.9025355, "type": "electric_scooter", "fusion_lon": 0.0, "is_reserved": 0, "bike_id": "b3d9a58d1e6027cee4dfdfb4e2626b27", "fusion_lat": 0.0, "is_disabled": 0, "rental_uris": {"ios": "https://dc.lft.to/lastmile_qr_scan", "android": "https://dc.lft.to/lastmile_qr_scan"}}, {"name": "d16c19d5be48c9dfb2a3805e52bd9819", "lon": -77.00062333333334, "lat": 38.876780833333335, "type": "electric_scooter", "fusion_lon": 0.0, "is_reserved": 0, "bike_id": "d16c19d5be48c9dfb2a3805e52bd9819", "fusion_lat": 0.0, "is_disabled": 0, "rental_uris": {"ios": "https://dc.lft.to/lastmile_qr_scan", "android": "https://dc.lft.to/lastmile_qr_scan"}}, {"name": "a1257cb29e916ec50482a31c8e4aebb4", "lon": -77.04146983333334, "lat": 38.923001, "type": "electric_bike", "fusion_lon": 0.0, "is_reserved": 0, "bike_id": "a1257cb29e916ec50482a31c8e4aebb4", "fusion_lat": 0.0, "is_disabled": 0, "rental_uris": {"ios": "https://dc.lft.to/lastmile_qr_scan", "android": "https://dc.lft.to/lastmile_qr_scan"}}, {"name": "710a687f24acc7647fe77b017d9c3543", "lon": -77.00802066666667, "lat": 38.897214, "type": "electric_scooter", "fusion_lon": 0.0, "is_reserved": 0, "bike_id": "710a687f24acc7647fe77b017d9c3543", "fusion_lat": 0.0, "is_disabled": 0, "rental_uris": {"ios": "https://dc.lft.to/lastmile_qr_scan", "android": "https://dc.lft.to/lastmile_qr_scan"}}, {"name": "e9ff9cf94debcf7a3fe9ed594f516ee2", "lon": -77.13473283333333, "lat": 38.8535145, "type": "electric_bike", "fusion_lon": 0.0, "is_reserved": 0, "bike_id": "e9ff9cf94debcf7a3fe9ed594f516ee2", "fusion_lat": 0.0, "is_disabled": 0, "rental_uris": {"ios": "https://dc.lft.to/lastmile_qr_scan", "android": "https://dc.lft.to/lastmile_qr_scan"}}, {"name": "10335e7fb6b96bc4bd58fe6686fe9f3c", "lon": -77.02720216666667, "lat": 38.906852666666666, "type": "electric_scooter", "fusion_lon": 0.0, "is_reserved": 0, "bike_id": "10335e7fb6b96bc4bd58fe6686fe9f3c", "fusion_lat": 0.0, "is_disabled": 0, "rental_uris": {"ios": "https://dc.lft.to/lastmile_qr_scan", "android": "https://dc.lft.to/lastmile_qr_scan"}}, {"name": "54f594710323a510040f553acfbcba43", "lon": -76.99292816666667, "lat": 38.934771, "type": "electric_scooter", "fusion_lon": 0.0, "is_reserved": 0, "bike_id": "54f594710323a510040f553acfbcba43", "fusion_lat": 0.0, "is_disabled": 0, "rental_uris": {"ios": "https://dc.lft.to/lastmile_qr_scan", "android": "https://dc.lft.to/lastmile_qr_scan"}}, {"name": "45c17ccdda5869f2473ec5818956ae5d", "lon": -77.0359045, "lat": 38.9163055, "type": "electric_scooter", "fusion_lon": 0.0, "is_reserved": 0, "bike_id": "45c17ccdda5869f2473ec5818956ae5d", "fusion_lat": 0.0, "is_disabled": 0, "rental_uris": {"ios": "https://dc.lft.to/lastmile_qr_scan", "android": "https://dc.lft.to/lastmile_qr_scan"}}, {"name": "e38111fe94c71c8abc073cd44dc79879", "lon": -77.03073266666667, "lat": 38.897541, "type": "electric_scooter", "fusion_lon": 0.0, "is_reserved": 0, "bike_id": "e38111fe94c71c8abc073cd44dc79879", "fusion_lat": 0.0, "is_disabled": 0, "rental_uris": {"ios": "https://dc.lft.to/lastmile_qr_scan", "android": "https://dc.lft.to/lastmile_qr_scan"}}, {"name": "6c5c3ad1e8aff42b5fcd6119c3397bc1", "lon": -77.01130333333333, "lat": 38.8953505, "type": "electric_scooter", "fusion_lon": 0.0, "is_reserved": 0, "bike_id": "6c5c3ad1e8aff42b5fcd6119c3397bc1", "fusion_lat": 0.0, "is_disabled": 0, "rental_uris": {"ios": "https://dc.lft.to/lastmile_qr_scan", "android": "https://dc.lft.to/lastmile_qr_scan"}}, {"name": "dd0058bdeceb50a2e91eb2c0134469d8", "lon": -77.03401983333333, "lat": 38.931333333333335, "type": "electric_scooter", "fusion_lon": 0.0, "is_reserved": 0, "bike_id": "dd0058bdeceb50a2e91eb2c0134469d8", "fusion_lat": 0.0, "is_disabled": 0, "rental_uris": {"ios": "https://dc.lft.to/lastmile_qr_scan", "android": "https://dc.lft.to/lastmile_qr_scan"}}, {"name": "a60f48181feb173573fc1001237c110f", "lon": -77.02735766666666, "lat": 38.927642, "type": "electric_scooter", "fusion_lon": 0.0, "is_reserved": 0, "bike_id": "a60f48181feb173573fc1001237c110f", "fusion_lat": 0.0, "is_disabled": 0, "rental_uris": {"ios": "https://dc.lft.to/lastmile_qr_scan", "android": "https://dc.lft.to/lastmile_qr_scan"}}, {"name": "63fb6df0894c0347e2601cd6ec6f0c09", "lon": -77.00569616666667, "lat": 38.885067, "type": "electric_scooter", "fusion_lon": 0.0, "is_reserved": 0, "bike_id": "63fb6df0894c0347e2601cd6ec6f0c09", "fusion_lat": 0.0, "is_disabled": 0, "rental_uris": {"ios": "https://dc.lft.to/lastmile_qr_scan", "android": "https://dc.lft.to/lastmile_qr_scan"}}, {"name": "0b1430b496b9c309e79316a70fb13b15", "lon": -77.038335, "lat": 38.91118866666667, "type": "electric_scooter", "fusion_lon": 0.0, "is_reserved": 0, "bike_id": "0b1430b496b9c309e79316a70fb13b15", "fusion_lat": 0.0, "is_disabled": 0, "rental_uris": {"ios": "https://dc.lft.to/lastmile_qr_scan", "android": "https://dc.lft.to/lastmile_qr_scan"}}, {"name": "60f84fbfc8bfad3f117d1ac79c51f853", "lon": -77.0370665, "lat": 38.92785216666667, "type": "electric_scooter", "fusion_lon": 0.0, "is_reserved": 0, "bike_id": "60f84fbfc8bfad3f117d1ac79c51f853", "fusion_lat": 0.0, "is_disabled": 0, "rental_uris": {"ios": "https://dc.lft.to/lastmile_qr_scan", "android": "https://dc.lft.to/lastmile_qr_scan"}}, {"name": "f73159983070910d9c7074c99431d84a", "lon": -77.05856566666667, "lat": 38.9361325, "type": "electric_scooter", "fusion_lon": 0.0, "is_reserved": 0, "bike_id": "f73159983070910d9c7074c99431d84a", "fusion_lat": 0.0, "is_disabled": 0, "rental_uris": {"ios": "https://dc.lft.to/lastmile_qr_scan", "android": "https://dc.lft.to/lastmile_qr_scan"}}, {"name": "2c76b8d744b2c5479c3108cfdb5473f1", "lon": -77.00580716666667, "lat": 38.875372666666664, "type": "electric_scooter", "fusion_lon": 0.0, "is_reserved": 0, "bike_id": "2c76b8d744b2c5479c3108cfdb5473f1", "fusion_lat": 0.0, "is_disabled": 0, "rental_uris": {"ios": "https://dc.lft.to/lastmile_qr_scan", "android": "https://dc.lft.to/lastmile_qr_scan"}}, {"name": "79c6c1a0f27cfc97f1f9b47bac605836", "lon": -76.98106, "lat": 38.877305, "type": "electric_bike", "fusion_lon": 0.0, "is_reserved": 0, "bike_id": "79c6c1a0f27cfc97f1f9b47bac605836", "fusion_lat": 0.0, "is_disabled": 0, "rental_uris": {"ios": "https://dc.lft.to/lastmile_qr_scan", "android": "https://dc.lft.to/lastmile_qr_scan"}}, {"name": "aed6da2c478433fcdc84fc9727b383ca", "lon": -76.99349466666666, "lat": 38.914830333333335, "type": "electric_scooter", "fusion_lon": 0.0, "is_reserved": 0, "bike_id": "aed6da2c478433fcdc84fc9727b383ca", "fusion_lat": 0.0, "is_disabled": 0, "rental_uris": {"ios": "https://dc.lft.to/lastmile_qr_scan", "android": "https://dc.lft.to/lastmile_qr_scan"}}, {"name": "d7d326e139b6cacb73b1a8db40feb442", "lon": -77.032714, "lat": 38.93883966666667, "type": "electric_scooter", "fusion_lon": 0.0, "is_reserved": 0, "bike_id": "d7d326e139b6cacb73b1a8db40feb442", "fusion_lat": 0.0, "is_disabled": 0, "rental_uris": {"ios": "https://dc.lft.to/lastmile_qr_scan", "android": "https://dc.lft.to/lastmile_qr_scan"}}, {"name": "5879257e2bb54467a2f064df75ba72f6", "lon": -77.0460505, "lat": 38.919253, "type": "electric_scooter", "fusion_lon": 0.0, "is_reserved": 0, "bike_id": "5879257e2bb54467a2f064df75ba72f6", "fusion_lat": 0.0, "is_disabled": 0, "rental_uris": {"ios": "https://dc.lft.to/lastmile_qr_scan", "android": "https://dc.lft.to/lastmile_qr_scan"}}, {"name": "6d7c3a9fbf952b05783d232411f600ae", "lon": -77.024368, "lat": 38.902808666666665, "type": "electric_scooter", "fusion_lon": 0.0, "is_reserved": 0, "bike_id": "6d7c3a9fbf952b05783d232411f600ae", "fusion_lat": 0.0, "is_disabled": 0, "rental_uris": {"ios": "https://dc.lft.to/lastmile_qr_scan", "android": "https://dc.lft.to/lastmile_qr_scan"}}, {"name": "5f364c5daf4800679b809fded1d679fd", "lon": -77.041238, "lat": 38.91635183333333, "type": "electric_scooter", "fusion_lon": 0.0, "is_reserved": 0, "bike_id": "5f364c5daf4800679b809fded1d679fd", "fusion_lat": 0.0, "is_disabled": 0, "rental_uris": {"ios": "https://dc.lft.to/lastmile_qr_scan", "android": "https://dc.lft.to/lastmile_qr_scan"}}, {"name": "ecb026ac81597b437f4adc9508bb1d7f", "lon": -77.02720616666667, "lat": 38.94953983333333, "type": "electric_scooter", "fusion_lon": 0.0, "is_reserved": 0, "bike_id": "ecb026ac81597b437f4adc9508bb1d7f", "fusion_lat": 0.0, "is_disabled": 0, "rental_uris": {"ios": "https://dc.lft.to/lastmile_qr_scan", "android": "https://dc.lft.to/lastmile_qr_scan"}}, {"name": "c35bf789460c3ec4065244b054ae9392", "lon": -77.07584733333333, "lat": 38.938668, "type": "electric_scooter", "fusion_lon": 0.0, "is_reserved": 0, "bike_id": "c35bf789460c3ec4065244b054ae9392", "fusion_lat": 0.0, "is_disabled": 0, "rental_uris": {"ios": "https://dc.lft.to/lastmile_qr_scan", "android": "https://dc.lft.to/lastmile_qr_scan"}}, {"name": "eacd13305b7e28dd413f34b100438a7a", "lon": -76.98891916666666, "lat": 38.90473983333333, "type": "electric_scooter", "fusion_lon": 0.0, "is_reserved": 0, "bike_id": "eacd13305b7e28dd413f34b100438a7a", "fusion_lat": 0.0, "is_disabled": 0, "rental_uris": {"ios": "https://dc.lft.to/lastmile_qr_scan", "android": "https://dc.lft.to/lastmile_qr_scan"}}, {"name": "237083f8e206540ea4cb17beef52359d", "lon": -77.02384866666667, "lat": 38.908464, "type": "electric_scooter", "fusion_lon": 0.0, "is_reserved": 0, "bike_id": "237083f8e206540ea4cb17beef52359d", "fusion_lat": 0.0, "is_disabled": 0, "rental_uris": {"ios": "https://dc.lft.to/lastmile_qr_scan", "android": "https://dc.lft.to/lastmile_qr_scan"}}, {"name": "e0a7421a4c269d15e1aa413498552b5e", "lon": -77.03116266666666, "lat": 38.9045045, "type": "electric_scooter", "fusion_lon": 0.0, "is_reserved": 0, "bike_id": "e0a7421a4c269d15e1aa413498552b5e", "fusion_lat": 0.0, "is_disabled": 0, "rental_uris": {"ios": "https://dc.lft.to/lastmile_qr_scan", "android": "https://dc.lft.to/lastmile_qr_scan"}}, {"name": "a105778636ac0436bdc3518012704316", "lon": -76.99877033333334, "lat": 38.9002825, "type": "electric_scooter", "fusion_lon": 0.0, "is_reserved": 0, "bike_id": "a105778636ac0436bdc3518012704316", "fusion_lat": 0.0, "is_disabled": 0, "rental_uris": {"ios": "https://dc.lft.to/lastmile_qr_scan", "android": "https://dc.lft.to/lastmile_qr_scan"}}, {"name": "4fc3eb8d4db40fbcb1f9990e5f79cf6d", "lon": -77.03197933333334, "lat": 38.907701833333334, "type": "electric_scooter", "fusion_lon": 0.0, "is_reserved": 0, "bike_id": "4fc3eb8d4db40fbcb1f9990e5f79cf6d", "fusion_lat": 0.0, "is_disabled": 0, "rental_uris": {"ios": "https://dc.lft.to/lastmile_qr_scan", "android": "https://dc.lft.to/lastmile_qr_scan"}}, {"name": "b6e5f46a85a5eaff0741270705383002", "lon": -76.9881795, "lat": 38.90066733333333, "type": "electric_scooter", "fusion_lon": 0.0, "is_reserved": 0, "bike_id": "b6e5f46a85a5eaff0741270705383002", "fusion_lat": 0.0, "is_disabled": 0, "rental_uris": {"ios": "https://dc.lft.to/lastmile_qr_scan", "android": "https://dc.lft.to/lastmile_qr_scan"}}, {"name": "029764b337ca67bd335ccf9ec58f1d3e", "lon": -76.98554966666667, "lat": 38.89946916666667, "type": "electric_scooter", "fusion_lon": 0.0, "is_reserved": 0, "bike_id": "029764b337ca67bd335ccf9ec58f1d3e", "fusion_lat": 0.0, "is_disabled": 0, "rental_uris": {"ios": "https://dc.lft.to/lastmile_qr_scan", "android": "https://dc.lft.to/lastmile_qr_scan"}}, {"name": "e9f3ae4db817c6724216ca589a256db0", "lon": -77.01596516666666, "lat": 38.949389833333335, "type": "electric_scooter", "fusion_lon": 0.0, "is_reserved": 0, "bike_id": "e9f3ae4db817c6724216ca589a256db0", "fusion_lat": 0.0, "is_disabled": 0, "rental_uris": {"ios": "https://dc.lft.to/lastmile_qr_scan", "android": "https://dc.lft.to/lastmile_qr_scan"}}, {"name": "c7c5c6c6d4e9159ae788889603f0e88b", "lon": -77.032101, "lat": 38.895879666666666, "type": "electric_scooter", "fusion_lon": 0.0, "is_reserved": 0, "bike_id": "c7c5c6c6d4e9159ae788889603f0e88b", "fusion_lat": 0.0, "is_disabled": 0, "rental_uris": {"ios": "https://dc.lft.to/lastmile_qr_scan", "android": "https://dc.lft.to/lastmile_qr_scan"}}, {"name": "d9800d77b8a73c4a8202124e095484e8", "lon": -77.03251616666667, "lat": 38.9059485, "type": "electric_scooter", "fusion_lon": 0.0, "is_reserved": 0, "bike_id": "d9800d77b8a73c4a8202124e095484e8", "fusion_lat": 0.0, "is_disabled": 0, "rental_uris": {"ios": "https://dc.lft.to/lastmile_qr_scan", "android": "https://dc.lft.to/lastmile_qr_scan"}}, {"name": "064dd3943cc28657f5ff836d9f087eaf", "lon": -77.0525645, "lat": 38.923784833333336, "type": "electric_scooter", "fusion_lon": 0.0, "is_reserved": 0, "bike_id": "064dd3943cc28657f5ff836d9f087eaf", "fusion_lat": 0.0, "is_disabled": 0, "rental_uris": {"ios": "https://dc.lft.to/lastmile_qr_scan", "android": "https://dc.lft.to/lastmile_qr_scan"}}, {"name": "dd023a02c1ad2dce9d3d12faab47c91b", "lon": -77.0184195, "lat": 38.91514016666667, "type": "electric_scooter", "fusion_lon": 0.0, "is_reserved": 0, "bike_id": "dd023a02c1ad2dce9d3d12faab47c91b", "fusion_lat": 0.0, "is_disabled": 0, "rental_uris": {"ios": "https://dc.lft.to/lastmile_qr_scan", "android": "https://dc.lft.to/lastmile_qr_scan"}}, {"name": "639899bf1266c68eb505335ec8458d14", "lon": -77.03101916666667, "lat": 38.919169833333335, "type": "electric_scooter", "fusion_lon": 0.0, "is_reserved": 0, "bike_id": "639899bf1266c68eb505335ec8458d14", "fusion_lat": 0.0, "is_disabled": 0, "rental_uris": {"ios": "https://dc.lft.to/lastmile_qr_scan", "android": "https://dc.lft.to/lastmile_qr_scan"}}, {"name": "590355c999f4d16cf8a1f0fff563b24d", "lon": -77.02299816666667, "lat": 38.910752333333335, "type": "electric_scooter", "fusion_lon": 0.0, "is_reserved": 0, "bike_id": "590355c999f4d16cf8a1f0fff563b24d", "fusion_lat": 0.0, "is_disabled": 0, "rental_uris": {"ios": "https://dc.lft.to/lastmile_qr_scan", "android": "https://dc.lft.to/lastmile_qr_scan"}}, {"name": "8120b65a291752801b1de4c7194e1eb3", "lon": -77.032841, "lat": 38.938808, "type": "electric_scooter", "fusion_lon": 0.0, "is_reserved": 0, "bike_id": "8120b65a291752801b1de4c7194e1eb3", "fusion_lat": 0.0, "is_disabled": 0, "rental_uris": {"ios": "https://dc.lft.to/lastmile_qr_scan", "android": "https://dc.lft.to/lastmile_qr_scan"}}, {"name": "cb1f5c17b2c181a52abbb9f5d21a0f1f", "lon": -77.038146, "lat": 38.92497483333333, "type": "electric_scooter", "fusion_lon": 0.0, "is_reserved": 0, "bike_id": "cb1f5c17b2c181a52abbb9f5d21a0f1f", "fusion_lat": 0.0, "is_disabled": 0, "rental_uris": {"ios": "https://dc.lft.to/lastmile_qr_scan", "android": "https://dc.lft.to/lastmile_qr_scan"}}, {"name": "bfc918a2954cd47da2e52c4ba6cff09e", "lon": -77.026908, "lat": 38.8971225, "type": "electric_scooter", "fusion_lon": 0.0, "is_reserved": 0, "bike_id": "bfc918a2954cd47da2e52c4ba6cff09e", "fusion_lat": 0.0, "is_disabled": 0, "rental_uris": {"ios": "https://dc.lft.to/lastmile_qr_scan", "android": "https://dc.lft.to/lastmile_qr_scan"}}, {"name": "7255511632e757b02735737f8bffdbf9", "lon": -77.00046083333334, "lat": 38.91898533333333, "type": "electric_scooter", "fusion_lon": 0.0, "is_reserved": 0, "bike_id": "7255511632e757b02735737f8bffdbf9", "fusion_lat": 0.0, "is_disabled": 0, "rental_uris": {"ios": "https://dc.lft.to/lastmile_qr_scan", "android": "https://dc.lft.to/lastmile_qr_scan"}}, {"name": "367d9d6a7d4ef430445deec9a97bb08a", "lon": -76.99613483333333, "lat": 38.9036465, "type": "electric_scooter", "fusion_lon": 0.0, "is_reserved": 0, "bike_id": "367d9d6a7d4ef430445deec9a97bb08a", "fusion_lat": 0.0, "is_disabled": 0, "rental_uris": {"ios": "https://dc.lft.to/lastmile_qr_scan", "android": "https://dc.lft.to/lastmile_qr_scan"}}, {"name": "f21489513f531e70990432fd9dc55967", "lon": -77.0183765, "lat": 38.9227135, "type": "electric_scooter", "fusion_lon": 0.0, "is_reserved": 0, "bike_id": "f21489513f531e70990432fd9dc55967", "fusion_lat": 0.0, "is_disabled": 0, "rental_uris": {"ios": "https://dc.lft.to/lastmile_qr_scan", "android": "https://dc.lft.to/lastmile_qr_scan"}}, {"name": "1ac09bb143e5f41cd8b40cbbe32198e4", "lon": -76.99787866666667, "lat": 38.90908533333333, "type": "electric_scooter", "fusion_lon": 0.0, "is_reserved": 0, "bike_id": "1ac09bb143e5f41cd8b40cbbe32198e4", "fusion_lat": 0.0, "is_disabled": 0, "rental_uris": {"ios": "https://dc.lft.to/lastmile_qr_scan", "android": "https://dc.lft.to/lastmile_qr_scan"}}, {"name": "e96822a9c8b28bf41e0176690548615c", "lon": -77.04799533333333, "lat": 38.8921875, "type": "electric_scooter", "fusion_lon": 0.0, "is_reserved": 0, "bike_id": "e96822a9c8b28bf41e0176690548615c", "fusion_lat": 0.0, "is_disabled": 0, "rental_uris": {"ios": "https://dc.lft.to/lastmile_qr_scan", "android": "https://dc.lft.to/lastmile_qr_scan"}}, {"name": "fd66a454244e555ee6dd09d07a829e69", "lon": -77.03671933333334, "lat": 38.92726066666667, "type": "electric_scooter", "fusion_lon": 0.0, "is_reserved": 0, "bike_id": "fd66a454244e555ee6dd09d07a829e69", "fusion_lat": 0.0, "is_disabled": 0, "rental_uris": {"ios": "https://dc.lft.to/lastmile_qr_scan", "android": "https://dc.lft.to/lastmile_qr_scan"}}, {"name": "f3de909e34aab49cf9f261b6e195ac67", "lon": -77.02722466666667, "lat": 38.94958033333333, "type": "electric_scooter", "fusion_lon": 0.0, "is_reserved": 0, "bike_id": "f3de909e34aab49cf9f261b6e195ac67", "fusion_lat": 0.0, "is_disabled": 0, "rental_uris": {"ios": "https://dc.lft.to/lastmile_qr_scan", "android": "https://dc.lft.to/lastmile_qr_scan"}}, {"name": "3f07a1ffa20496cd07579c79e86eae23", "lon": -77.03179833333333, "lat": 38.912038333333335, "type": "electric_scooter", "fusion_lon": 0.0, "is_reserved": 0, "bike_id": "3f07a1ffa20496cd07579c79e86eae23", "fusion_lat": 0.0, "is_disabled": 0, "rental_uris": {"ios": "https://dc.lft.to/lastmile_qr_scan", "android": "https://dc.lft.to/lastmile_qr_scan"}}, {"name": "a3cac8d9d8d3b142af09018eada8bc2f", "lon": -77.02299516666666, "lat": 38.9208385, "type": "electric_scooter", "fusion_lon": 0.0, "is_reserved": 0, "bike_id": "a3cac8d9d8d3b142af09018eada8bc2f", "fusion_lat": 0.0, "is_disabled": 0, "rental_uris": {"ios": "https://dc.lft.to/lastmile_qr_scan", "android": "https://dc.lft.to/lastmile_qr_scan"}}, {"name": "0bf46a3a4f0f8b31c8cd7919ee6a67c5", "lon": -76.936122, "lat": 38.8867155, "type": "electric_scooter", "fusion_lon": 0.0, "is_reserved": 0, "bike_id": "0bf46a3a4f0f8b31c8cd7919ee6a67c5", "fusion_lat": 0.0, "is_disabled": 0, "rental_uris": {"ios": "https://dc.lft.to/lastmile_qr_scan", "android": "https://dc.lft.to/lastmile_qr_scan"}}, {"name": "e5fb737c6866744d8d2df2063cd6da8e", "lon": -77.02429933333333, "lat": 38.938033, "type": "electric_scooter", "fusion_lon": 0.0, "is_reserved": 0, "bike_id": "e5fb737c6866744d8d2df2063cd6da8e", "fusion_lat": 0.0, "is_disabled": 0, "rental_uris": {"ios": "https://dc.lft.to/lastmile_qr_scan", "android": "https://dc.lft.to/lastmile_qr_scan"}}, {"name": "a5d5f5bc9ec2c7d2a1584908d3037b24", "lon": -77.034482, "lat": 38.91712033333334, "type": "electric_scooter", "fusion_lon": 0.0, "is_reserved": 0, "bike_id": "a5d5f5bc9ec2c7d2a1584908d3037b24", "fusion_lat": 0.0, "is_disabled": 0, "rental_uris": {"ios": "https://dc.lft.to/lastmile_qr_scan", "android": "https://dc.lft.to/lastmile_qr_scan"}}, {"name": "a542e3f726d5d42a80f7716af097c8b2", "lon": -77.04294366666667, "lat": 38.92659833333333, "type": "electric_scooter", "fusion_lon": 0.0, "is_reserved": 0, "bike_id": "a542e3f726d5d42a80f7716af097c8b2", "fusion_lat": 0.0, "is_disabled": 0, "rental_uris": {"ios": "https://dc.lft.to/lastmile_qr_scan", "android": "https://dc.lft.to/lastmile_qr_scan"}}, {"name": "c77ba8650e30ae9be959629f50d3899b", "lon": -76.97246433333333, "lat": 38.85461766666667, "type": "electric_bike", "fusion_lon": 0.0, "is_reserved": 0, "bike_id": "c77ba8650e30ae9be959629f50d3899b", "fusion_lat": 0.0, "is_disabled": 0, "rental_uris": {"ios": "https://dc.lft.to/lastmile_qr_scan", "android": "https://dc.lft.to/lastmile_qr_scan"}}, {"name": "0b48eb412a5673bd125e49f3904eb45c", "lon": -77.03781766666667, "lat": 38.92508683333333, "type": "electric_scooter", "fusion_lon": 0.0, "is_reserved": 0, "bike_id": "0b48eb412a5673bd125e49f3904eb45c", "fusion_lat": 0.0, "is_disabled": 0, "rental_uris": {"ios": "https://dc.lft.to/lastmile_qr_scan", "android": "https://dc.lft.to/lastmile_qr_scan"}}, {"name": "f7d732aeda84587360ab6a4d7caa9fb1", "lon": -77.0532285, "lat": 38.9279635, "type": "electric_scooter", "fusion_lon": 0.0, "is_reserved": 0, "bike_id": "f7d732aeda84587360ab6a4d7caa9fb1", "fusion_lat": 0.0, "is_disabled": 0, "rental_uris": {"ios": "https://dc.lft.to/lastmile_qr_scan", "android": "https://dc.lft.to/lastmile_qr_scan"}}, {"name": "becca173f41c6d9c879396e2e091dc60", "lon": -77.03429083333333, "lat": 38.96618333333333, "type": "electric_bike", "fusion_lon": 0.0, "is_reserved": 0, "bike_id": "becca173f41c6d9c879396e2e091dc60", "fusion_lat": 0.0, "is_disabled": 0, "rental_uris": {"ios": "https://dc.lft.to/lastmile_qr_scan", "android": "https://dc.lft.to/lastmile_qr_scan"}}, {"name": "3c89d3a1ec95d6b9c39c629257c2e4eb", "lon": -77.00778133333333, "lat": 38.926666166666664, "type": "electric_scooter", "fusion_lon": 0.0, "is_reserved": 0, "bike_id": "3c89d3a1ec95d6b9c39c629257c2e4eb", "fusion_lat": 0.0, "is_disabled": 0, "rental_uris": {"ios": "https://dc.lft.to/lastmile_qr_scan", "android": "https://dc.lft.to/lastmile_qr_scan"}}, {"name": "fe9ad1f9a679c14dcc696bfda3a10c45", "lon": -76.98522216666667, "lat": 38.86656516666667, "type": "electric_scooter", "fusion_lon": 0.0, "is_reserved": 0, "bike_id": "fe9ad1f9a679c14dcc696bfda3a10c45", "fusion_lat": 0.0, "is_disabled": 0, "rental_uris": {"ios": "https://dc.lft.to/lastmile_qr_scan", "android": "https://dc.lft.to/lastmile_qr_scan"}}, {"name": "2cb7a082adbc0bf6191fd4dd730f84c7", "lon": -77.01453783333334, "lat": 38.91773466666667, "type": "electric_scooter", "fusion_lon": 0.0, "is_reserved": 0, "bike_id": "2cb7a082adbc0bf6191fd4dd730f84c7", "fusion_lat": 0.0, "is_disabled": 0, "rental_uris": {"ios": "https://dc.lft.to/lastmile_qr_scan", "android": "https://dc.lft.to/lastmile_qr_scan"}}, {"name": "58a320df59233970a9218e889ca1ea91", "lon": -77.0274745, "lat": 38.924093666666664, "type": "electric_scooter", "fusion_lon": 0.0, "is_reserved": 0, "bike_id": "58a320df59233970a9218e889ca1ea91", "fusion_lat": 0.0, "is_disabled": 0, "rental_uris": {"ios": "https://dc.lft.to/lastmile_qr_scan", "android": "https://dc.lft.to/lastmile_qr_scan"}}, {"name": "45b46d71f956c920def2984951a12dd8", "lon": -77.05435783333333, "lat": 38.923566, "type": "electric_scooter", "fusion_lon": 0.0, "is_reserved": 0, "bike_id": "45b46d71f956c920def2984951a12dd8", "fusion_lat": 0.0, "is_disabled": 0, "rental_uris": {"ios": "https://dc.lft.to/lastmile_qr_scan", "android": "https://dc.lft.to/lastmile_qr_scan"}}, {"name": "af522e1cd570c174b27360fce86451d4", "lon": -77.04480916666667, "lat": 38.91242583333333, "type": "electric_scooter", "fusion_lon": 0.0, "is_reserved": 0, "bike_id": "af522e1cd570c174b27360fce86451d4", "fusion_lat": 0.0, "is_disabled": 0, "rental_uris": {"ios": "https://dc.lft.to/lastmile_qr_scan", "android": "https://dc.lft.to/lastmile_qr_scan"}}, {"name": "7bdf6ec304eda5f53e6796ab9280fc21", "lon": -77.02300283333334, "lat": 38.89506883333333, "type": "electric_scooter", "fusion_lon": 0.0, "is_reserved": 0, "bike_id": "7bdf6ec304eda5f53e6796ab9280fc21", "fusion_lat": 0.0, "is_disabled": 0, "rental_uris": {"ios": "https://dc.lft.to/lastmile_qr_scan", "android": "https://dc.lft.to/lastmile_qr_scan"}}, {"name": "dd8966185320487d1a7b603897df4e09", "lon": -77.02733883333333, "lat": 38.92772216666667, "type": "electric_scooter", "fusion_lon": 0.0, "is_reserved": 0, "bike_id": "dd8966185320487d1a7b603897df4e09", "fusion_lat": 0.0, "is_disabled": 0, "rental_uris": {"ios": "https://dc.lft.to/lastmile_qr_scan", "android": "https://dc.lft.to/lastmile_qr_scan"}}, {"name": "6575e95212082704aef17c48085ddc00", "lon": -77.02204566666667, "lat": 38.9059015, "type": "electric_scooter", "fusion_lon": 0.0, "is_reserved": 0, "bike_id": "6575e95212082704aef17c48085ddc00", "fusion_lat": 0.0, "is_disabled": 0, "rental_uris": {"ios": "https://dc.lft.to/lastmile_qr_scan", "android": "https://dc.lft.to/lastmile_qr_scan"}}, {"name": "e673612dc68efaac48da5d3c078b9bf1", "lon": -77.0418355, "lat": 38.9134835, "type": "electric_scooter", "fusion_lon": 0.0, "is_reserved": 0, "bike_id": "e673612dc68efaac48da5d3c078b9bf1", "fusion_lat": 0.0, "is_disabled": 0, "rental_uris": {"ios": "https://dc.lft.to/lastmile_qr_scan", "android": "https://dc.lft.to/lastmile_qr_scan"}}, {"name": "8c59cc463d035425fb07827bb61ab8bc", "lon": -77.03834466666666, "lat": 38.91119666666667, "type": "electric_scooter", "fusion_lon": 0.0, "is_reserved": 0, "bike_id": "8c59cc463d035425fb07827bb61ab8bc", "fusion_lat": 0.0, "is_disabled": 0, "rental_uris": {"ios": "https://dc.lft.to/lastmile_qr_scan", "android": "https://dc.lft.to/lastmile_qr_scan"}}, {"name": "c0621078f31b5f6ac893f5c12cbda430", "lon": -77.02981116666666, "lat": 38.9244165, "type": "electric_scooter", "fusion_lon": 0.0, "is_reserved": 0, "bike_id": "c0621078f31b5f6ac893f5c12cbda430", "fusion_lat": 0.0, "is_disabled": 0, "rental_uris": {"ios": "https://dc.lft.to/lastmile_qr_scan", "android": "https://dc.lft.to/lastmile_qr_scan"}}, {"name": "311b1b608987e017694dfee935d57add", "lon": -77.02089783333334, "lat": 38.930117, "type": "electric_scooter", "fusion_lon": 0.0, "is_reserved": 0, "bike_id": "311b1b608987e017694dfee935d57add", "fusion_lat": 0.0, "is_disabled": 0, "rental_uris": {"ios": "https://dc.lft.to/lastmile_qr_scan", "android": "https://dc.lft.to/lastmile_qr_scan"}}, {"name": "24efd02eda12f699f7aa6de707747367", "lon": -77.03188216666666, "lat": 38.9127835, "type": "electric_scooter", "fusion_lon": 0.0, "is_reserved": 0, "bike_id": "24efd02eda12f699f7aa6de707747367", "fusion_lat": 0.0, "is_disabled": 0, "rental_uris": {"ios": "https://dc.lft.to/lastmile_qr_scan", "android": "https://dc.lft.to/lastmile_qr_scan"}}, {"name": "4f858d11482264ef71d0f468a0adf6ed", "lon": -77.03641216666666, "lat": 38.91581766666667, "type": "electric_scooter", "fusion_lon": 0.0, "is_reserved": 0, "bike_id": "4f858d11482264ef71d0f468a0adf6ed", "fusion_lat": 0.0, "is_disabled": 0, "rental_uris": {"ios": "https://dc.lft.to/lastmile_qr_scan", "android": "https://dc.lft.to/lastmile_qr_scan"}}, {"name": "f80b069b86a1288517a13b568dbb9a66", "lon": -77.03535583333333, "lat": 38.92403433333333, "type": "electric_scooter", "fusion_lon": 0.0, "is_reserved": 0, "bike_id": "f80b069b86a1288517a13b568dbb9a66", "fusion_lat": 0.0, "is_disabled": 0, "rental_uris": {"ios": "https://dc.lft.to/lastmile_qr_scan", "android": "https://dc.lft.to/lastmile_qr_scan"}}, {"name": "d5a448f4fbb4b249c6562d7475391519", "lon": -77.03155283333334, "lat": 38.929621, "type": "electric_scooter", "fusion_lon": 0.0, "is_reserved": 0, "bike_id": "d5a448f4fbb4b249c6562d7475391519", "fusion_lat": 0.0, "is_disabled": 0, "rental_uris": {"ios": "https://dc.lft.to/lastmile_qr_scan", "android": "https://dc.lft.to/lastmile_qr_scan"}}, {"name": "659022f9648e5b4e752850a699da9178", "lon": -77.03491216666667, "lat": 38.9326685, "type": "electric_scooter", "fusion_lon": 0.0, "is_reserved": 0, "bike_id": "659022f9648e5b4e752850a699da9178", "fusion_lat": 0.0, "is_disabled": 0, "rental_uris": {"ios": "https://dc.lft.to/lastmile_qr_scan", "android": "https://dc.lft.to/lastmile_qr_scan"}}, {"name": "2df6e8f98ef8be76e2c30b6037fb1358", "lon": -77.04247283333333, "lat": 38.906438333333334, "type": "electric_scooter", "fusion_lon": 0.0, "is_reserved": 0, "bike_id": "2df6e8f98ef8be76e2c30b6037fb1358", "fusion_lat": 0.0, "is_disabled": 0, "rental_uris": {"ios": "https://dc.lft.to/lastmile_qr_scan", "android": "https://dc.lft.to/lastmile_qr_scan"}}, {"name": "9086e06c2722a488095e997a8e19476a", "lon": -77.03872266666667, "lat": 38.934248333333336, "type": "electric_scooter", "fusion_lon": 0.0, "is_reserved": 0, "bike_id": "9086e06c2722a488095e997a8e19476a", "fusion_lat": 0.0, "is_disabled": 0, "rental_uris": {"ios": "https://dc.lft.to/lastmile_qr_scan", "android": "https://dc.lft.to/lastmile_qr_scan"}}, {"name": "6e3c8621386d3ed13ceee62880bc8663", "lon": -77.01068716666667, "lat": 38.90733216666667, "type": "electric_scooter", "fusion_lon": 0.0, "is_reserved": 0, "bike_id": "6e3c8621386d3ed13ceee62880bc8663", "fusion_lat": 0.0, "is_disabled": 0, "rental_uris": {"ios": "https://dc.lft.to/lastmile_qr_scan", "android": "https://dc.lft.to/lastmile_qr_scan"}}, {"name": "9de3bb1a75a5a0a615da6900211a5bb9", "lon": -77.02461566666666, "lat": 38.938882166666666, "type": "electric_bike", "fusion_lon": 0.0, "is_reserved": 0, "bike_id": "9de3bb1a75a5a0a615da6900211a5bb9", "fusion_lat": 0.0, "is_disabled": 0, "rental_uris": {"ios": "https://dc.lft.to/lastmile_qr_scan", "android": "https://dc.lft.to/lastmile_qr_scan"}}, {"name": "a54d451dfe940cb8e126faf4e24279f1", "lon": -77.03945533333334, "lat": 38.917564166666665, "type": "electric_scooter", "fusion_lon": 0.0, "is_reserved": 0, "bike_id": "a54d451dfe940cb8e126faf4e24279f1", "fusion_lat": 0.0, "is_disabled": 0, "rental_uris": {"ios": "https://dc.lft.to/lastmile_qr_scan", "android": "https://dc.lft.to/lastmile_qr_scan"}}, {"name": "7a7fa1ce01c44dfb4a350f53beba8a47", "lon": -77.03554383333334, "lat": 38.917074666666664, "type": "electric_scooter", "fusion_lon": 0.0, "is_reserved": 0, "bike_id": "7a7fa1ce01c44dfb4a350f53beba8a47", "fusion_lat": 0.0, "is_disabled": 0, "rental_uris": {"ios": "https://dc.lft.to/lastmile_qr_scan", "android": "https://dc.lft.to/lastmile_qr_scan"}}, {"name": "c92b0e340cd01f26b5a721cdae2098c1", "lon": -77.04352583333333, "lat": 38.9104505, "type": "electric_scooter", "fusion_lon": 0.0, "is_reserved": 0, "bike_id": "c92b0e340cd01f26b5a721cdae2098c1", "fusion_lat": 0.0, "is_disabled": 0, "rental_uris": {"ios": "https://dc.lft.to/lastmile_qr_scan", "android": "https://dc.lft.to/lastmile_qr_scan"}}, {"name": "55c3664678647752ba8547e28cfd2772", "lon": -77.02953183333334, "lat": 38.92860066666667, "type": "electric_scooter", "fusion_lon": 0.0, "is_reserved": 0, "bike_id": "55c3664678647752ba8547e28cfd2772", "fusion_lat": 0.0, "is_disabled": 0, "rental_uris": {"ios": "https://dc.lft.to/lastmile_qr_scan", "android": "https://dc.lft.to/lastmile_qr_scan"}}, {"name": "64c4025fc84d35f8c6f6ed94333018ce", "lon": -77.03910116666667, "lat": 38.918335666666664, "type": "electric_scooter", "fusion_lon": 0.0, "is_reserved": 0, "bike_id": "64c4025fc84d35f8c6f6ed94333018ce", "fusion_lat": 0.0, "is_disabled": 0, "rental_uris": {"ios": "https://dc.lft.to/lastmile_qr_scan", "android": "https://dc.lft.to/lastmile_qr_scan"}}, {"name": "220de2fc32edd0ef9c8ec36fac3a538a", "lon": -77.06168283333334, "lat": 38.91304316666667, "type": "electric_scooter", "fusion_lon": 0.0, "is_reserved": 0, "bike_id": "220de2fc32edd0ef9c8ec36fac3a538a", "fusion_lat": 0.0, "is_disabled": 0, "rental_uris": {"ios": "https://dc.lft.to/lastmile_qr_scan", "android": "https://dc.lft.to/lastmile_qr_scan"}}, {"name": "d0dc00b8a84a23432ec58586711ad6c2", "lon": -77.03830683333334, "lat": 38.931374166666664, "type": "electric_scooter", "fusion_lon": 0.0, "is_reserved": 0, "bike_id": "d0dc00b8a84a23432ec58586711ad6c2", "fusion_lat": 0.0, "is_disabled": 0, "rental_uris": {"ios": "https://dc.lft.to/lastmile_qr_scan", "android": "https://dc.lft.to/lastmile_qr_scan"}}, {"name": "b7391086cd0a87290edb7c2f816a71f6", "lon": -77.03209666666666, "lat": 38.91786833333333, "type": "electric_scooter", "fusion_lon": 0.0, "is_reserved": 0, "bike_id": "b7391086cd0a87290edb7c2f816a71f6", "fusion_lat": 0.0, "is_disabled": 0, "rental_uris": {"ios": "https://dc.lft.to/lastmile_qr_scan", "android": "https://dc.lft.to/lastmile_qr_scan"}}, {"name": "386b4dc762f764674356981b8ab35167", "lon": -76.96529166666667, "lat": 38.87626616666667, "type": "electric_scooter", "fusion_lon": 0.0, "is_reserved": 0, "bike_id": "386b4dc762f764674356981b8ab35167", "fusion_lat": 0.0, "is_disabled": 0, "rental_uris": {"ios": "https://dc.lft.to/lastmile_qr_scan", "android": "https://dc.lft.to/lastmile_qr_scan"}}, {"name": "18cae1f4640191457a5cddf43e743f2f", "lon": -77.00592766666666, "lat": 38.90563516666667, "type": "electric_scooter", "fusion_lon": 0.0, "is_reserved": 0, "bike_id": "18cae1f4640191457a5cddf43e743f2f", "fusion_lat": 0.0, "is_disabled": 0, "rental_uris": {"ios": "https://dc.lft.to/lastmile_qr_scan", "android": "https://dc.lft.to/lastmile_qr_scan"}}, {"name": "aad9422545e1cd59de247538c543a5d1", "lon": -77.0021285, "lat": 38.900785, "type": "electric_scooter", "fusion_lon": 0.0, "is_reserved": 0, "bike_id": "aad9422545e1cd59de247538c543a5d1", "fusion_lat": 0.0, "is_disabled": 0, "rental_uris": {"ios": "https://dc.lft.to/lastmile_qr_scan", "android": "https://dc.lft.to/lastmile_qr_scan"}}, {"name": "47cc4b07d26857a645917ff677e524ba", "lon": -77.00429116666666, "lat": 38.912427, "type": "electric_scooter", "fusion_lon": 0.0, "is_reserved": 0, "bike_id": "47cc4b07d26857a645917ff677e524ba", "fusion_lat": 0.0, "is_disabled": 0, "rental_uris": {"ios": "https://dc.lft.to/lastmile_qr_scan", "android": "https://dc.lft.to/lastmile_qr_scan"}}, {"name": "1527619fc3db84dc382aa42a395d9735", "lon": -77.12077966666666, "lat": 38.854207, "type": "electric_bike", "fusion_lon": 0.0, "is_reserved": 0, "bike_id": "1527619fc3db84dc382aa42a395d9735", "fusion_lat": 0.0, "is_disabled": 0, "rental_uris": {"ios": "https://dc.lft.to/lastmile_qr_scan", "android": "https://dc.lft.to/lastmile_qr_scan"}}, {"name": "ce0b0d4c8aff8992165a135aba829c19", "lon": -76.99035383333333, "lat": 38.90292933333333, "type": "electric_scooter", "fusion_lon": 0.0, "is_reserved": 0, "bike_id": "ce0b0d4c8aff8992165a135aba829c19", "fusion_lat": 0.0, "is_disabled": 0, "rental_uris": {"ios": "https://dc.lft.to/lastmile_qr_scan", "android": "https://dc.lft.to/lastmile_qr_scan"}}, {"name": "5ab8e0e5a6d4d9871ece4e7c1f28089d", "lon": -77.02685416666667, "lat": 38.896121666666666, "type": "electric_scooter", "fusion_lon": 0.0, "is_reserved": 0, "bike_id": "5ab8e0e5a6d4d9871ece4e7c1f28089d", "fusion_lat": 0.0, "is_disabled": 0, "rental_uris": {"ios": "https://dc.lft.to/lastmile_qr_scan", "android": "https://dc.lft.to/lastmile_qr_scan"}}, {"name": "b82af8ca7ad206b25554232803c0b6fc", "lon": -77.025247, "lat": 38.91485633333333, "type": "electric_scooter", "fusion_lon": 0.0, "is_reserved": 0, "bike_id": "b82af8ca7ad206b25554232803c0b6fc", "fusion_lat": 0.0, "is_disabled": 0, "rental_uris": {"ios": "https://dc.lft.to/lastmile_qr_scan", "android": "https://dc.lft.to/lastmile_qr_scan"}}, {"name": "e226024879ee5173eda2d9f1c343c5ce", "lon": -77.02826866666666, "lat": 38.8862275, "type": "electric_scooter", "fusion_lon": 0.0, "is_reserved": 0, "bike_id": "e226024879ee5173eda2d9f1c343c5ce", "fusion_lat": 0.0, "is_disabled": 0, "rental_uris": {"ios": "https://dc.lft.to/lastmile_qr_scan", "android": "https://dc.lft.to/lastmile_qr_scan"}}, {"name": "55c8e65e87fa8058d7df6bab7deb509f", "lon": -76.9825335, "lat": 38.904559166666665, "type": "electric_scooter", "fusion_lon": 0.0, "is_reserved": 0, "bike_id": "55c8e65e87fa8058d7df6bab7deb509f", "fusion_lat": 0.0, "is_disabled": 0, "rental_uris": {"ios": "https://dc.lft.to/lastmile_qr_scan", "android": "https://dc.lft.to/lastmile_qr_scan"}}, {"name": "91d9abfa7482e9c5df3d906f2b62a70f", "lon": -77.07275783333333, "lat": 38.935177833333334, "type": "electric_scooter", "fusion_lon": 0.0, "is_reserved": 0, "bike_id": "91d9abfa7482e9c5df3d906f2b62a70f", "fusion_lat": 0.0, "is_disabled": 0, "rental_uris": {"ios": "https://dc.lft.to/lastmile_qr_scan", "android": "https://dc.lft.to/lastmile_qr_scan"}}, {"name": "5bc1068ad790315fe2bb99636b3176e4", "lon": -77.02320333333333, "lat": 38.92064033333333, "type": "electric_scooter", "fusion_lon": 0.0, "is_reserved": 0, "bike_id": "5bc1068ad790315fe2bb99636b3176e4", "fusion_lat": 0.0, "is_disabled": 0, "rental_uris": {"ios": "https://dc.lft.to/lastmile_qr_scan", "android": "https://dc.lft.to/lastmile_qr_scan"}}, {"name": "46a0315ab5700f82f6a8e6595694ab18", "lon": -77.00657866666667, "lat": 38.911639666666666, "type": "electric_scooter", "fusion_lon": 0.0, "is_reserved": 0, "bike_id": "46a0315ab5700f82f6a8e6595694ab18", "fusion_lat": 0.0, "is_disabled": 0, "rental_uris": {"ios": "https://dc.lft.to/lastmile_qr_scan", "android": "https://dc.lft.to/lastmile_qr_scan"}}, {"name": "7e802a74c76386100b36b40a3acee889", "lon": -77.06330133333333, "lat": 38.94422683333333, "type": "electric_scooter", "fusion_lon": 0.0, "is_reserved": 0, "bike_id": "7e802a74c76386100b36b40a3acee889", "fusion_lat": 0.0, "is_disabled": 0, "rental_uris": {"ios": "https://dc.lft.to/lastmile_qr_scan", "android": "https://dc.lft.to/lastmile_qr_scan"}}, {"name": "972cc6b3e927142e43d983a9adda5aff", "lon": -77.01817566666666, "lat": 38.92212116666666, "type": "electric_scooter", "fusion_lon": 0.0, "is_reserved": 0, "bike_id": "972cc6b3e927142e43d983a9adda5aff", "fusion_lat": 0.0, "is_disabled": 0, "rental_uris": {"ios": "https://dc.lft.to/lastmile_qr_scan", "android": "https://dc.lft.to/lastmile_qr_scan"}}, {"name": "558b48a497e82571557753bc28120327", "lon": -77.0144385, "lat": 38.919649666666665, "type": "electric_scooter", "fusion_lon": 0.0, "is_reserved": 0, "bike_id": "558b48a497e82571557753bc28120327", "fusion_lat": 0.0, "is_disabled": 0, "rental_uris": {"ios": "https://dc.lft.to/lastmile_qr_scan", "android": "https://dc.lft.to/lastmile_qr_scan"}}, {"name": "858103e47193025f2b7e67cb5869fa8a", "lon": -77.04143933333333, "lat": 38.93070216666667, "type": "electric_scooter", "fusion_lon": 0.0, "is_reserved": 0, "bike_id": "858103e47193025f2b7e67cb5869fa8a", "fusion_lat": 0.0, "is_disabled": 0, "rental_uris": {"ios": "https://dc.lft.to/lastmile_qr_scan", "android": "https://dc.lft.to/lastmile_qr_scan"}}, {"name": "54a6940719ff5c10c526697545b31f45", "lon": -77.02323816666667, "lat": 38.90736483333333, "type": "electric_scooter", "fusion_lon": 0.0, "is_reserved": 0, "bike_id": "54a6940719ff5c10c526697545b31f45", "fusion_lat": 0.0, "is_disabled": 0, "rental_uris": {"ios": "https://dc.lft.to/lastmile_qr_scan", "android": "https://dc.lft.to/lastmile_qr_scan"}}, {"name": "9e716aad9b6fd380ddb493288941f173", "lon": -77.04637433333333, "lat": 38.919333, "type": "electric_scooter", "fusion_lon": 0.0, "is_reserved": 0, "bike_id": "9e716aad9b6fd380ddb493288941f173", "fusion_lat": 0.0, "is_disabled": 0, "rental_uris": {"ios": "https://dc.lft.to/lastmile_qr_scan", "android": "https://dc.lft.to/lastmile_qr_scan"}}, {"name": "00fb0acffd35b8e76778189c0d1565ee", "lon": -77.02565216666666, "lat": 38.92478833333333, "type": "electric_scooter", "fusion_lon": 0.0, "is_reserved": 0, "bike_id": "00fb0acffd35b8e76778189c0d1565ee", "fusion_lat": 0.0, "is_disabled": 0, "rental_uris": {"ios": "https://dc.lft.to/lastmile_qr_scan", "android": "https://dc.lft.to/lastmile_qr_scan"}}, {"name": "5da605cdd3a2452d0e8609e4cce9ecf3", "lon": -76.98199733333334, "lat": 38.902019833333334, "type": "electric_scooter", "fusion_lon": 0.0, "is_reserved": 0, "bike_id": "5da605cdd3a2452d0e8609e4cce9ecf3", "fusion_lat": 0.0, "is_disabled": 0, "rental_uris": {"ios": "https://dc.lft.to/lastmile_qr_scan", "android": "https://dc.lft.to/lastmile_qr_scan"}}, {"name": "6271513cb1789c32dfc9bd212cf42df0", "lon": -77.0250765, "lat": 38.930915166666665, "type": "electric_scooter", "fusion_lon": 0.0, "is_reserved": 0, "bike_id": "6271513cb1789c32dfc9bd212cf42df0", "fusion_lat": 0.0, "is_disabled": 0, "rental_uris": {"ios": "https://dc.lft.to/lastmile_qr_scan", "android": "https://dc.lft.to/lastmile_qr_scan"}}, {"name": "9baa66967912be25408f35c699072c71", "lon": -76.99595866666667, "lat": 38.88627433333333, "type": "electric_scooter", "fusion_lon": 0.0, "is_reserved": 0, "bike_id": "9baa66967912be25408f35c699072c71", "fusion_lat": 0.0, "is_disabled": 0, "rental_uris": {"ios": "https://dc.lft.to/lastmile_qr_scan", "android": "https://dc.lft.to/lastmile_qr_scan"}}, {"name": "62d68b1f35e0fbc840b60a553997876d", "lon": -77.03215016666667, "lat": 38.8922145, "type": "electric_scooter", "fusion_lon": 0.0, "is_reserved": 0, "bike_id": "62d68b1f35e0fbc840b60a553997876d", "fusion_lat": 0.0, "is_disabled": 0, "rental_uris": {"ios": "https://dc.lft.to/lastmile_qr_scan", "android": "https://dc.lft.to/lastmile_qr_scan"}}, {"name": "c81babf025fbd4f56476460ba9fb32d3", "lon": -77.02551383333333, "lat": 38.924801, "type": "electric_scooter", "fusion_lon": 0.0, "is_reserved": 0, "bike_id": "c81babf025fbd4f56476460ba9fb32d3", "fusion_lat": 0.0, "is_disabled": 0, "rental_uris": {"ios": "https://dc.lft.to/lastmile_qr_scan", "android": "https://dc.lft.to/lastmile_qr_scan"}}, {"name": "5f8e74f4e6a914dd212680fe8307c66e", "lon": -76.98303183333333, "lat": 38.9052815, "type": "electric_scooter", "fusion_lon": 0.0, "is_reserved": 0, "bike_id": "5f8e74f4e6a914dd212680fe8307c66e", "fusion_lat": 0.0, "is_disabled": 0, "rental_uris": {"ios": "https://dc.lft.to/lastmile_qr_scan", "android": "https://dc.lft.to/lastmile_qr_scan"}}, {"name": "faf94bc8e31fdec5b21f3e930c0e5dc1", "lon": -77.02595433333333, "lat": 38.920302, "type": "electric_scooter", "fusion_lon": 0.0, "is_reserved": 0, "bike_id": "faf94bc8e31fdec5b21f3e930c0e5dc1", "fusion_lat": 0.0, "is_disabled": 0, "rental_uris": {"ios": "https://dc.lft.to/lastmile_qr_scan", "android": "https://dc.lft.to/lastmile_qr_scan"}}, {"name": "d04e38ee39730a6a2ef6279b2eef69f2", "lon": -77.03833833333333, "lat": 38.91120633333333, "type": "electric_scooter", "fusion_lon": 0.0, "is_reserved": 0, "bike_id": "d04e38ee39730a6a2ef6279b2eef69f2", "fusion_lat": 0.0, "is_disabled": 0, "rental_uris": {"ios": "https://dc.lft.to/lastmile_qr_scan", "android": "https://dc.lft.to/lastmile_qr_scan"}}, {"name": "ccca453e0c8fd44fa5b14da3f6ca1abe", "lon": -77.03671833333334, "lat": 38.93655783333333, "type": "electric_scooter", "fusion_lon": 0.0, "is_reserved": 0, "bike_id": "ccca453e0c8fd44fa5b14da3f6ca1abe", "fusion_lat": 0.0, "is_disabled": 0, "rental_uris": {"ios": "https://dc.lft.to/lastmile_qr_scan", "android": "https://dc.lft.to/lastmile_qr_scan"}}, {"name": "ab4aad0965f9971b979146298c09580f", "lon": -77.00382383333333, "lat": 38.836100333333334, "type": "electric_bike", "fusion_lon": 0.0, "is_reserved": 0, "bike_id": "ab4aad0965f9971b979146298c09580f", "fusion_lat": 0.0, "is_disabled": 0, "rental_uris": {"ios": "https://dc.lft.to/lastmile_qr_scan", "android": "https://dc.lft.to/lastmile_qr_scan"}}, {"name": "7b82aaa129e45c734492847575d12d0c", "lon": -77.02786883333333, "lat": 38.89722233333333, "type": "electric_scooter", "fusion_lon": 0.0, "is_reserved": 0, "bike_id": "7b82aaa129e45c734492847575d12d0c", "fusion_lat": 0.0, "is_disabled": 0, "rental_uris": {"ios": "https://dc.lft.to/lastmile_qr_scan", "android": "https://dc.lft.to/lastmile_qr_scan"}}, {"name": "acc4b4be6d5b64745921b0cb13865d17", "lon": -77.0140365, "lat": 38.88114783333333, "type": "electric_scooter", "fusion_lon": 0.0, "is_reserved": 0, "bike_id": "acc4b4be6d5b64745921b0cb13865d17", "fusion_lat": 0.0, "is_disabled": 0, "rental_uris": {"ios": "https://dc.lft.to/lastmile_qr_scan", "android": "https://dc.lft.to/lastmile_qr_scan"}}, {"name": "032432e8bb0bec6bc9b957b8ce203e23", "lon": -76.98604216666666, "lat": 38.8652525, "type": "electric_scooter", "fusion_lon": 0.0, "is_reserved": 0, "bike_id": "032432e8bb0bec6bc9b957b8ce203e23", "fusion_lat": 0.0, "is_disabled": 0, "rental_uris": {"ios": "https://dc.lft.to/lastmile_qr_scan", "android": "https://dc.lft.to/lastmile_qr_scan"}}, {"name": "a57f5a0a889e90bb71a3bca7c74581f5", "lon": -77.023928, "lat": 38.919891166666666, "type": "electric_scooter", "fusion_lon": 0.0, "is_reserved": 0, "bike_id": "a57f5a0a889e90bb71a3bca7c74581f5", "fusion_lat": 0.0, "is_disabled": 0, "rental_uris": {"ios": "https://dc.lft.to/lastmile_qr_scan", "android": "https://dc.lft.to/lastmile_qr_scan"}}, {"name": "c29b9f60e75d57330f1a6f524ff3acd2", "lon": -76.94639866666667, "lat": 38.898469666666664, "type": "electric_scooter", "fusion_lon": 0.0, "is_reserved": 0, "bike_id": "c29b9f60e75d57330f1a6f524ff3acd2", "fusion_lat": 0.0, "is_disabled": 0, "rental_uris": {"ios": "https://dc.lft.to/lastmile_qr_scan", "android": "https://dc.lft.to/lastmile_qr_scan"}}, {"name": "8164180a07050fabe1c613ba2283a630", "lon": -77.0112815, "lat": 38.91698066666667, "type": "electric_scooter", "fusion_lon": 0.0, "is_reserved": 0, "bike_id": "8164180a07050fabe1c613ba2283a630", "fusion_lat": 0.0, "is_disabled": 0, "rental_uris": {"ios": "https://dc.lft.to/lastmile_qr_scan", "android": "https://dc.lft.to/lastmile_qr_scan"}}, {"name": "391520292151035696b4e3146dc43185", "lon": -77.03812983333333, "lat": 38.906763, "type": "electric_scooter", "fusion_lon": 0.0, "is_reserved": 0, "bike_id": "391520292151035696b4e3146dc43185", "fusion_lat": 0.0, "is_disabled": 0, "rental_uris": {"ios": "https://dc.lft.to/lastmile_qr_scan", "android": "https://dc.lft.to/lastmile_qr_scan"}}, {"name": "4ff2b2dec3706639611af39d7d55f6db", "lon": -77.03308383333334, "lat": 38.95613916666667, "type": "electric_scooter", "fusion_lon": 0.0, "is_reserved": 0, "bike_id": "4ff2b2dec3706639611af39d7d55f6db", "fusion_lat": 0.0, "is_disabled": 0, "rental_uris": {"ios": "https://dc.lft.to/lastmile_qr_scan", "android": "https://dc.lft.to/lastmile_qr_scan"}}, {"name": "ebe1a35eb72d97598ac37db77366e56a", "lon": -77.12528933333333, "lat": 39.05635616666667, "type": "electric_bike", "fusion_lon": 0.0, "is_reserved": 0, "bike_id": "ebe1a35eb72d97598ac37db77366e56a", "fusion_lat": 0.0, "is_disabled": 0, "rental_uris": {"ios": "https://dc.lft.to/lastmile_qr_scan", "android": "https://dc.lft.to/lastmile_qr_scan"}}, {"name": "02601304cc2e1bf3d33eadc9ed038ba5", "lon": -77.0164025, "lat": 38.90375783333333, "type": "electric_scooter", "fusion_lon": 0.0, "is_reserved": 0, "bike_id": "02601304cc2e1bf3d33eadc9ed038ba5", "fusion_lat": 0.0, "is_disabled": 0, "rental_uris": {"ios": "https://dc.lft.to/lastmile_qr_scan", "android": "https://dc.lft.to/lastmile_qr_scan"}}, {"name": "37c9a6695535518969affd7fdb0e2089", "lon": -76.97633683333333, "lat": 38.90572816666667, "type": "electric_scooter", "fusion_lon": 0.0, "is_reserved": 0, "bike_id": "37c9a6695535518969affd7fdb0e2089", "fusion_lat": 0.0, "is_disabled": 0, "rental_uris": {"ios": "https://dc.lft.to/lastmile_qr_scan", "android": "https://dc.lft.to/lastmile_qr_scan"}}, {"name": "6f066c8acc46d3366147b7f8b07549d7", "lon": -77.04180933333333, "lat": 38.915557166666666, "type": "electric_scooter", "fusion_lon": 0.0, "is_reserved": 0, "bike_id": "6f066c8acc46d3366147b7f8b07549d7", "fusion_lat": 0.0, "is_disabled": 0, "rental_uris": {"ios": "https://dc.lft.to/lastmile_qr_scan", "android": "https://dc.lft.to/lastmile_qr_scan"}}, {"name": "cfbba7a77d1a7f8bc072aa79b0621b51", "lon": -77.0268285, "lat": 38.92787366666667, "type": "electric_scooter", "fusion_lon": 0.0, "is_reserved": 0, "bike_id": "cfbba7a77d1a7f8bc072aa79b0621b51", "fusion_lat": 0.0, "is_disabled": 0, "rental_uris": {"ios": "https://dc.lft.to/lastmile_qr_scan", "android": "https://dc.lft.to/lastmile_qr_scan"}}, {"name": "c9b83d357b14d94301096360c3349342", "lon": -77.03961616666666, "lat": 38.9306335, "type": "electric_scooter", "fusion_lon": 0.0, "is_reserved": 0, "bike_id": "c9b83d357b14d94301096360c3349342", "fusion_lat": 0.0, "is_disabled": 0, "rental_uris": {"ios": "https://dc.lft.to/lastmile_qr_scan", "android": "https://dc.lft.to/lastmile_qr_scan"}}, {"name": "433ecf4dc1bc6af5ab888c75f6125a28", "lon": -77.056998, "lat": 38.906008666666665, "type": "electric_scooter", "fusion_lon": 0.0, "is_reserved": 0, "bike_id": "433ecf4dc1bc6af5ab888c75f6125a28", "fusion_lat": 0.0, "is_disabled": 0, "rental_uris": {"ios": "https://dc.lft.to/lastmile_qr_scan", "android": "https://dc.lft.to/lastmile_qr_scan"}}, {"name": "afca2f0746b99194e90c85fb882d5179", "lon": -77.0075335, "lat": 38.89845483333333, "type": "electric_scooter", "fusion_lon": 0.0, "is_reserved": 0, "bike_id": "afca2f0746b99194e90c85fb882d5179", "fusion_lat": 0.0, "is_disabled": 0, "rental_uris": {"ios": "https://dc.lft.to/lastmile_qr_scan", "android": "https://dc.lft.to/lastmile_qr_scan"}}, {"name": "67076dde8824bb5fe6e13f8874364a48", "lon": -77.02426333333334, "lat": 38.92091333333333, "type": "electric_scooter", "fusion_lon": 0.0, "is_reserved": 0, "bike_id": "67076dde8824bb5fe6e13f8874364a48", "fusion_lat": 0.0, "is_disabled": 0, "rental_uris": {"ios": "https://dc.lft.to/lastmile_qr_scan", "android": "https://dc.lft.to/lastmile_qr_scan"}}, {"name": "b47c143e184075ff4b987a4e162a2620", "lon": -76.99610233333334, "lat": 38.9002565, "type": "electric_scooter", "fusion_lon": 0.0, "is_reserved": 0, "bike_id": "b47c143e184075ff4b987a4e162a2620", "fusion_lat": 0.0, "is_disabled": 0, "rental_uris": {"ios": "https://dc.lft.to/lastmile_qr_scan", "android": "https://dc.lft.to/lastmile_qr_scan"}}, {"name": "470ccc253d881584699f87f303acd06d", "lon": -77.038099, "lat": 38.91422433333334, "type": "electric_scooter", "fusion_lon": 0.0, "is_reserved": 0, "bike_id": "470ccc253d881584699f87f303acd06d", "fusion_lat": 0.0, "is_disabled": 0, "rental_uris": {"ios": "https://dc.lft.to/lastmile_qr_scan", "android": "https://dc.lft.to/lastmile_qr_scan"}}, {"name": "b3ad81faa143d754542934a804463170", "lon": -77.0397375, "lat": 38.90262, "type": "electric_scooter", "fusion_lon": 0.0, "is_reserved": 0, "bike_id": "b3ad81faa143d754542934a804463170", "fusion_lat": 0.0, "is_disabled": 0, "rental_uris": {"ios": "https://dc.lft.to/lastmile_qr_scan", "android": "https://dc.lft.to/lastmile_qr_scan"}}, {"name": "3b45d5e5d311e0327af0d264b33c16d4", "lon": -77.0276655, "lat": 38.954244, "type": "electric_scooter", "fusion_lon": 0.0, "is_reserved": 0, "bike_id": "3b45d5e5d311e0327af0d264b33c16d4", "fusion_lat": 0.0, "is_disabled": 0, "rental_uris": {"ios": "https://dc.lft.to/lastmile_qr_scan", "android": "https://dc.lft.to/lastmile_qr_scan"}}, {"name": "551ffeb0c1a19c3266583a954c71cb06", "lon": -76.9334785, "lat": 38.899066, "type": "electric_scooter", "fusion_lon": 0.0, "is_reserved": 0, "bike_id": "551ffeb0c1a19c3266583a954c71cb06", "fusion_lat": 0.0, "is_disabled": 0, "rental_uris": {"ios": "https://dc.lft.to/lastmile_qr_scan", "android": "https://dc.lft.to/lastmile_qr_scan"}}, {"name": "85d71d9407341865040461814f122ae2", "lon": -77.02176283333333, "lat": 38.91563033333333, "type": "electric_scooter", "fusion_lon": 0.0, "is_reserved": 0, "bike_id": "85d71d9407341865040461814f122ae2", "fusion_lat": 0.0, "is_disabled": 0, "rental_uris": {"ios": "https://dc.lft.to/lastmile_qr_scan", "android": "https://dc.lft.to/lastmile_qr_scan"}}, {"name": "98c9def240707c3cb4e6802ce1513a1b", "lon": -76.97915916666666, "lat": 38.863480333333335, "type": "electric_scooter", "fusion_lon": 0.0, "is_reserved": 0, "bike_id": "98c9def240707c3cb4e6802ce1513a1b", "fusion_lat": 0.0, "is_disabled": 0, "rental_uris": {"ios": "https://dc.lft.to/lastmile_qr_scan", "android": "https://dc.lft.to/lastmile_qr_scan"}}, {"name": "429467a558bc7baa38da3ddaa4a4dc14", "lon": -77.033384, "lat": 38.8982095, "type": "electric_scooter", "fusion_lon": 0.0, "is_reserved": 0, "bike_id": "429467a558bc7baa38da3ddaa4a4dc14", "fusion_lat": 0.0, "is_disabled": 0, "rental_uris": {"ios": "https://dc.lft.to/lastmile_qr_scan", "android": "https://dc.lft.to/lastmile_qr_scan"}}, {"name": "5f22d1d57230cd545007df10201b9768", "lon": -77.00482233333334, "lat": 38.8747905, "type": "electric_scooter", "fusion_lon": 0.0, "is_reserved": 0, "bike_id": "5f22d1d57230cd545007df10201b9768", "fusion_lat": 0.0, "is_disabled": 0, "rental_uris": {"ios": "https://dc.lft.to/lastmile_qr_scan", "android": "https://dc.lft.to/lastmile_qr_scan"}}, {"name": "9b5d4feb8b144988a1a8f4367a0b5e1f", "lon": -76.97733766666667, "lat": 38.895187666666665, "type": "electric_scooter", "fusion_lon": 0.0, "is_reserved": 0, "bike_id": "9b5d4feb8b144988a1a8f4367a0b5e1f", "fusion_lat": 0.0, "is_disabled": 0, "rental_uris": {"ios": "https://dc.lft.to/lastmile_qr_scan", "android": "https://dc.lft.to/lastmile_qr_scan"}}, {"name": "5451624e318af75df57daa2149f1c73d", "lon": -77.03232033333333, "lat": 38.896797, "type": "electric_scooter", "fusion_lon": 0.0, "is_reserved": 0, "bike_id": "5451624e318af75df57daa2149f1c73d", "fusion_lat": 0.0, "is_disabled": 0, "rental_uris": {"ios": "https://dc.lft.to/lastmile_qr_scan", "android": "https://dc.lft.to/lastmile_qr_scan"}}, {"name": "48c955dc355232d8e320e57b456822ec", "lon": -77.01771033333333, "lat": 38.88326983333333, "type": "electric_scooter", "fusion_lon": 0.0, "is_reserved": 0, "bike_id": "48c955dc355232d8e320e57b456822ec", "fusion_lat": 0.0, "is_disabled": 0, "rental_uris": {"ios": "https://dc.lft.to/lastmile_qr_scan", "android": "https://dc.lft.to/lastmile_qr_scan"}}, {"name": "fd6d4fa504052dcded108cc274243273", "lon": -77.04251783333333, "lat": 38.92064633333333, "type": "electric_scooter", "fusion_lon": 0.0, "is_reserved": 0, "bike_id": "fd6d4fa504052dcded108cc274243273", "fusion_lat": 0.0, "is_disabled": 0, "rental_uris": {"ios": "https://dc.lft.to/lastmile_qr_scan", "android": "https://dc.lft.to/lastmile_qr_scan"}}, {"name": "a648a0007d62064f69824ab8fcddc577", "lon": -77.01221283333334, "lat": 38.921426833333335, "type": "electric_scooter", "fusion_lon": 0.0, "is_reserved": 0, "bike_id": "a648a0007d62064f69824ab8fcddc577", "fusion_lat": 0.0, "is_disabled": 0, "rental_uris": {"ios": "https://dc.lft.to/lastmile_qr_scan", "android": "https://dc.lft.to/lastmile_qr_scan"}}, {"name": "c78e0f5e35bb04c4055246154a11c827", "lon": -77.02399733333333, "lat": 38.909609833333334, "type": "electric_scooter", "fusion_lon": 0.0, "is_reserved": 0, "bike_id": "c78e0f5e35bb04c4055246154a11c827", "fusion_lat": 0.0, "is_disabled": 0, "rental_uris": {"ios": "https://dc.lft.to/lastmile_qr_scan", "android": "https://dc.lft.to/lastmile_qr_scan"}}, {"name": "818afb2f962605b826f063d74ab1eca6", "lon": -77.04602516666667, "lat": 38.919327333333335, "type": "electric_scooter", "fusion_lon": 0.0, "is_reserved": 0, "bike_id": "818afb2f962605b826f063d74ab1eca6", "fusion_lat": 0.0, "is_disabled": 0, "rental_uris": {"ios": "https://dc.lft.to/lastmile_qr_scan", "android": "https://dc.lft.to/lastmile_qr_scan"}}, {"name": "65f00ddafc1112a0c9b0aa178e2a8cd5", "lon": -77.03641033333334, "lat": 38.9273985, "type": "electric_scooter", "fusion_lon": 0.0, "is_reserved": 0, "bike_id": "65f00ddafc1112a0c9b0aa178e2a8cd5", "fusion_lat": 0.0, "is_disabled": 0, "rental_uris": {"ios": "https://dc.lft.to/lastmile_qr_scan", "android": "https://dc.lft.to/lastmile_qr_scan"}}, {"name": "6df0a4bdaf4473b7a53872a4c8ed65fa", "lon": -77.03059183333333, "lat": 38.9237375, "type": "electric_scooter", "fusion_lon": 0.0, "is_reserved": 0, "bike_id": "6df0a4bdaf4473b7a53872a4c8ed65fa", "fusion_lat": 0.0, "is_disabled": 0, "rental_uris": {"ios": "https://dc.lft.to/lastmile_qr_scan", "android": "https://dc.lft.to/lastmile_qr_scan"}}, {"name": "a4c848f24b87be2110fd3f98afca8b7c", "lon": -77.0131995, "lat": 38.900423, "type": "electric_scooter", "fusion_lon": 0.0, "is_reserved": 0, "bike_id": "a4c848f24b87be2110fd3f98afca8b7c", "fusion_lat": 0.0, "is_disabled": 0, "rental_uris": {"ios": "https://dc.lft.to/lastmile_qr_scan", "android": "https://dc.lft.to/lastmile_qr_scan"}}, {"name": "93ff3807c63ebb1a3eec4b124efbd360", "lon": -77.03283633333334, "lat": 38.93257766666667, "type": "electric_scooter", "fusion_lon": 0.0, "is_reserved": 0, "bike_id": "93ff3807c63ebb1a3eec4b124efbd360", "fusion_lat": 0.0, "is_disabled": 0, "rental_uris": {"ios": "https://dc.lft.to/lastmile_qr_scan", "android": "https://dc.lft.to/lastmile_qr_scan"}}, {"name": "08cdc4a1a4ea73f801425c892f5bfd71", "lon": -77.02945083333333, "lat": 38.91558783333333, "type": "electric_scooter", "fusion_lon": 0.0, "is_reserved": 0, "bike_id": "08cdc4a1a4ea73f801425c892f5bfd71", "fusion_lat": 0.0, "is_disabled": 0, "rental_uris": {"ios": "https://dc.lft.to/lastmile_qr_scan", "android": "https://dc.lft.to/lastmile_qr_scan"}}, {"name": "59844251c86726667514a175bd2c56d4", "lon": -77.0827485, "lat": 38.93013366666667, "type": "electric_scooter", "fusion_lon": 0.0, "is_reserved": 0, "bike_id": "59844251c86726667514a175bd2c56d4", "fusion_lat": 0.0, "is_disabled": 0, "rental_uris": {"ios": "https://dc.lft.to/lastmile_qr_scan", "android": "https://dc.lft.to/lastmile_qr_scan"}}, {"name": "b38d4f8ed15eca10cc02258f1d79f18e", "lon": -77.04367116666667, "lat": 38.906284666666664, "type": "electric_scooter", "fusion_lon": 0.0, "is_reserved": 0, "bike_id": "b38d4f8ed15eca10cc02258f1d79f18e", "fusion_lat": 0.0, "is_disabled": 0, "rental_uris": {"ios": "https://dc.lft.to/lastmile_qr_scan", "android": "https://dc.lft.to/lastmile_qr_scan"}}, {"name": "08bed587dd2f07392a5e377d2c0d2f54", "lon": -77.04354083333334, "lat": 38.91044983333333, "type": "electric_scooter", "fusion_lon": 0.0, "is_reserved": 0, "bike_id": "08bed587dd2f07392a5e377d2c0d2f54", "fusion_lat": 0.0, "is_disabled": 0, "rental_uris": {"ios": "https://dc.lft.to/lastmile_qr_scan", "android": "https://dc.lft.to/lastmile_qr_scan"}}, {"name": "6ee1e79f3735ac258938d0330233cd5c", "lon": -77.017472, "lat": 38.88737716666667, "type": "electric_scooter", "fusion_lon": 0.0, "is_reserved": 0, "bike_id": "6ee1e79f3735ac258938d0330233cd5c", "fusion_lat": 0.0, "is_disabled": 0, "rental_uris": {"ios": "https://dc.lft.to/lastmile_qr_scan", "android": "https://dc.lft.to/lastmile_qr_scan"}}, {"name": "f80e904df59543f54465a8a5d8d7d8d2", "lon": -77.03095883333333, "lat": 38.931696333333335, "type": "electric_scooter", "fusion_lon": 0.0, "is_reserved": 0, "bike_id": "f80e904df59543f54465a8a5d8d7d8d2", "fusion_lat": 0.0, "is_disabled": 0, "rental_uris": {"ios": "https://dc.lft.to/lastmile_qr_scan", "android": "https://dc.lft.to/lastmile_qr_scan"}}, {"name": "2ae0adc897de31669cf189faa065b7d0", "lon": -77.039766, "lat": 38.902627833333334, "type": "electric_scooter", "fusion_lon": 0.0, "is_reserved": 0, "bike_id": "2ae0adc897de31669cf189faa065b7d0", "fusion_lat": 0.0, "is_disabled": 0, "rental_uris": {"ios": "https://dc.lft.to/lastmile_qr_scan", "android": "https://dc.lft.to/lastmile_qr_scan"}}, {"name": "414e4de3462abc232ab2ad56c370732c", "lon": -77.041031, "lat": 38.917761166666665, "type": "electric_scooter", "fusion_lon": 0.0, "is_reserved": 0, "bike_id": "414e4de3462abc232ab2ad56c370732c", "fusion_lat": 0.0, "is_disabled": 0, "rental_uris": {"ios": "https://dc.lft.to/lastmile_qr_scan", "android": "https://dc.lft.to/lastmile_qr_scan"}}, {"name": "d255394f1b54ca3473bc7837d954edc6", "lon": -77.02136566666667, "lat": 38.937652666666665, "type": "electric_scooter", "fusion_lon": 0.0, "is_reserved": 0, "bike_id": "d255394f1b54ca3473bc7837d954edc6", "fusion_lat": 0.0, "is_disabled": 0, "rental_uris": {"ios": "https://dc.lft.to/lastmile_qr_scan", "android": "https://dc.lft.to/lastmile_qr_scan"}}, {"name": "5c2483aa58544adf51dac05b9c3df954", "lon": -77.02813433333333, "lat": 38.88184666666667, "type": "electric_scooter", "fusion_lon": 0.0, "is_reserved": 0, "bike_id": "5c2483aa58544adf51dac05b9c3df954", "fusion_lat": 0.0, "is_disabled": 0, "rental_uris": {"ios": "https://dc.lft.to/lastmile_qr_scan", "android": "https://dc.lft.to/lastmile_qr_scan"}}, {"name": "299b00bfd6fea3c1f0648461a20dd0f1", "lon": -77.04617733333333, "lat": 38.915726166666666, "type": "electric_scooter", "fusion_lon": 0.0, "is_reserved": 0, "bike_id": "299b00bfd6fea3c1f0648461a20dd0f1", "fusion_lat": 0.0, "is_disabled": 0, "rental_uris": {"ios": "https://dc.lft.to/lastmile_qr_scan", "android": "https://dc.lft.to/lastmile_qr_scan"}}, {"name": "aef5550f4f752f3725a58edb6f983e05", "lon": -77.06932333333333, "lat": 38.907754833333335, "type": "electric_scooter", "fusion_lon": 0.0, "is_reserved": 0, "bike_id": "aef5550f4f752f3725a58edb6f983e05", "fusion_lat": 0.0, "is_disabled": 0, "rental_uris": {"ios": "https://dc.lft.to/lastmile_qr_scan", "android": "https://dc.lft.to/lastmile_qr_scan"}},