{"data": {"bikes": [{"is_disabled": 0, "fusion_lon": 0.0, "fusion_lat": 0.0, "lat": 38.88390583333333, "type": "electric_scooter", "lon": -76.9859355, "bike_id": "6e05687cfd882fc4821a2beebab37237", "rental_uris": {"android": "https://dc.lft.to/lastmile_qr_scan", "ios": "https://dc.lft.to/lastmile_qr_scan"}, "name": "6e05687cfd882fc4821a2beebab37237", "is_reserved": 0}, {"is_disabled": 0, "fusion_lon": 0.0, "fusion_lat": 0.0, "lat": 38.87619983333333, "type": "electric_scooter", "lon": -76.965385, "bike_id": "ca7db6bc78a26125c2558c86701d3cff", "rental_uris": {"android": "https://dc.lft.to/lastmile_qr_scan", "ios": "https://dc.lft.to/lastmile_qr_scan"}, "name": "ca7db6bc78a26125c2558c86701d3cff", "is_reserved": 0}, {"is_disabled": 0, "fusion_lon": 0.0, "fusion_lat": 0.0, "lat": 38.89910183333333, "type": "electric_scooter", "lon": -77.013797, "bike_id": "18b5e1b0507316c9476a8c3d4d1276db", "rental_uris": {"android": "https://dc.lft.to/lastmile_qr_scan", "ios": "https://dc.lft.to/lastmile_qr_scan"}, "name": "18b5e1b0507316c9476a8c3d4d1276db", "is_reserved": 0}, {"is_disabled": 0, "fusion_lon": 0.0, "fusion_lat": 0.0, "lat": 38.909630666666665, "type": "electric_scooter", "lon": -77.0676235, "bike_id": "3d48bb72750bd357e68e235e85baed9b", "rental_uris": {"android": "https://dc.lft.to/lastmile_qr_scan", "ios": "https://dc.lft.to/lastmile_qr_scan"}, "name": "3d48bb72750bd357e68e235e85baed9b", "is_reserved": 0}, {"is_disabled": 0, "fusion_lon": 0.0, "fusion_lat": 0.0, "lat": 38.956448333333334, "type": "electric_scooter", "lon": -77.03295666666666, "bike_id": "6c60f9175426e64b522ea9944072784b", "rental_uris": {"android": "https://dc.lft.to/lastmile_qr_scan", "ios": "https://dc.lft.to/lastmile_qr_scan"}, "name": "6c60f9175426e64b522ea9944072784b", "is_reserved": 0}, {"is_disabled": 0, "fusion_lon": 0.0, "fusion_lat": 0.0, "lat": 38.962181, "type": "electric_scooter", "lon": -77.02802933333334, "bike_id": "a33f2095dd6c2d0e755ec7c1f9f493bb", "rental_uris": {"android": "https://dc.lft.to/lastmile_qr_scan", "ios": "https://dc.lft.to/lastmile_qr_scan"}, "name": "a33f2095dd6c2d0e755ec7c1f9f493bb", "is_reserved": 0}, {"is_disabled": 0, "fusion_lon": 0.0, "fusion_lat": 0.0, "lat": 38.9908635, "type": "electric_bike", "lon": -76.87496483333334, "bike_id": "1adf971705d7301e18e15523f2fc7f38", "rental_uris": {"android": "https://dc.lft.to/lastmile_qr_scan", "ios": "https://dc.lft.to/lastmile_qr_scan"}, "name": "1adf971705d7301e18e15523f2fc7f38", "is_reserved": 0}, {"is_disabled": 0, "fusion_lon": 0.0, "fusion_lat": 0.0, "lat": 38.92637933333334, "type": "electric_scooter", "lon": -77.0372145, "bike_id": "3f89384fac072da8f33795fa3a28e1cb", "rental_uris": {"android": "https://dc.lft.to/lastmile_qr_scan", "ios": "https://dc.lft.to/lastmile_qr_scan"}, "name": "3f89384fac072da8f33795fa3a28e1cb", "is_reserved": 0}, {"is_disabled": 0, "fusion_lon": 0.0, "fusion_lat": 0.0, "lat": 38.88581, "type": "electric_scooter", "lon": -77.01978066666666, "bike_id": "1d1e686fa930d5d4ecd384f5c182ef6c", "rental_uris": {"android": "https://dc.lft.to/lastmile_qr_scan", "ios": "https://dc.lft.to/lastmile_qr_scan"}, "name": "1d1e686fa930d5d4ecd384f5c182ef6c", "is_reserved": 0}, {"is_disabled": 0, "fusion_lon": 0.0, "fusion_lat": 0.0, "lat": 38.90175133333334, "type": "electric_scooter", "lon": -77.02627483333333, "bike_id": "81e154d7ed1ff08b5637d8f761ee38ed", "rental_uris": {"android": "https://dc.lft.to/lastmile_qr_scan", "ios": "https://dc.lft.to/lastmile_qr_scan"}, "name": "81e154d7ed1ff08b5637d8f761ee38ed", "is_reserved": 0}, {"is_disabled": 0, "fusion_lon": 0.0, "fusion_lat": 0.0, "lat": 38.910094, "type": "electric_scooter", "lon": -77.0077115, "bike_id": "1db3206ec3f9bf761e573724206b9d9f", "rental_uris": {"android": "https://dc.lft.to/lastmile_qr_scan", "ios": "https://dc.lft.to/lastmile_qr_scan"}, "name": "1db3206ec3f9bf761e573724206b9d9f", "is_reserved": 0}, {"is_disabled": 0, "fusion_lon": 0.0, "fusion_lat": 0.0, "lat": 38.892207, "type": "electric_scooter", "lon": -77.02221133333333, "bike_id": "19bd3d16fb8ea17f11cceaca5b82d371", "rental_uris": {"android": "https://dc.lft.to/lastmile_qr_scan", "ios": "https://dc.lft.to/lastmile_qr_scan"}, "name": "19bd3d16fb8ea17f11cceaca5b82d371", "is_reserved": 0}, {"is_disabled": 0, "fusion_lon": 0.0, "fusion_lat": 0.0, "lat": 38.89520566666667, "type": "electric_scooter", "lon": -77.02819316666667, "bike_id": "3fc2f771f2813ac39b5db4fe2b5537f7", "rental_uris": {"android": "https://dc.lft.to/lastmile_qr_scan", "ios": "https://dc.lft.to/lastmile_qr_scan"}, "name": "3fc2f771f2813ac39b5db4fe2b5537f7", "is_reserved": 0}, {"is_disabled": 0, "fusion_lon": 0.0, "fusion_lat": 0.0, "lat": 38.90353983333333, "type": "electric_scooter", "lon": -77.05370283333333, "bike_id": "f849982986d23d0d5ce90d543e6b6bb6", "rental_uris": {"android": "https://dc.lft.to/lastmile_qr_scan", "ios": "https://dc.lft.to/lastmile_qr_scan"}, "name": "f849982986d23d0d5ce90d543e6b6bb6", "is_reserved": 0}, {"is_disabled": 0, "fusion_lon": 0.0, "fusion_lat": 0.0, "lat": 38.89676766666667, "type": "electric_scooter", "lon": -77.0515825, "bike_id": "d001f6dd3b5d6601f73d3be2a15c05c6", "rental_uris": {"android": "https://dc.lft.to/lastmile_qr_scan", "ios": "https://dc.lft.to/lastmile_qr_scan"}, "name": "d001f6dd3b5d6601f73d3be2a15c05c6", "is_reserved": 0}, {"is_disabled": 0, "fusion_lon": 0.0, "fusion_lat": 0.0, "lat": 38.919203333333336, "type": "electric_scooter", "lon": -77.0342135, "bike_id": "88e2207e6abaa5043f398174f3cc5c41", "rental_uris": {"android": "https://dc.lft.to/lastmile_qr_scan", "ios": "https://dc.lft.to/lastmile_qr_scan"}, "name": "88e2207e6abaa5043f398174f3cc5c41", "is_reserved": 0}, {"is_disabled": 0, "fusion_lon": 0.0, "fusion_lat": 0.0, "lat": 38.90376583333333, "type": "electric_scooter", "lon": -77.02522016666667, "bike_id": "bfc9af1e20074ae61494ff81e0200070", "rental_uris": {"android": "https://dc.lft.to/lastmile_qr_scan", "ios": "https://dc.lft.to/lastmile_qr_scan"}, "name": "bfc9af1e20074ae61494ff81e0200070", "is_reserved": 0}, {"is_disabled": 0, "fusion_lon": 0.0, "fusion_lat": 0.0, "lat": 38.96554316666667, "type": "electric_bike", "lon": -77.02297166666666, "bike_id": "fef701ccf2834d3253e2e2d5d24d0695", "rental_uris": {"android": "https://dc.lft.to/lastmile_qr_scan", "ios": "https://dc.lft.to/lastmile_qr_scan"}, "name": "fef701ccf2834d3253e2e2d5d24d0695", "is_reserved": 0}, {"is_disabled": 0, "fusion_lon": 0.0, "fusion_lat": 0.0, "lat": 38.90740133333333, "type": "electric_scooter", "lon": -77.04157, "bike_id": "c4390b0ce6aabae842c0df5d0cc94c47", "rental_uris": {"android": "https://dc.lft.to/lastmile_qr_scan", "ios": "https://dc.lft.to/lastmile_qr_scan"}, "name": "c4390b0ce6aabae842c0df5d0cc94c47", "is_reserved": 0}, {"is_disabled": 0, "fusion_lon": 0.0, "fusion_lat": 0.0, "lat": 38.913489, "type": "electric_scooter", "lon": -77.03963483333334, "bike_id": "b519c3e1d2ae8438be64b051fceec130", "rental_uris": {"android": "https://dc.lft.to/lastmile_qr_scan", "ios": "https://dc.lft.to/lastmile_qr_scan"}, "name": "b519c3e1d2ae8438be64b051fceec130", "is_reserved": 0}, {"is_disabled": 0, "fusion_lon": 0.0, "fusion_lat": 0.0, "lat": 38.918915, "type": "electric_scooter", "lon": -77.0446765, "bike_id": "5169b012c18ccca787b21c980e9523c4", "rental_uris": {"android": "https://dc.lft.to/lastmile_qr_scan", "ios": "https://dc.lft.to/lastmile_qr_scan"}, "name": "5169b012c18ccca787b21c980e9523c4", "is_reserved": 0}, {"is_disabled": 0, "fusion_lon": 0.0, "fusion_lat": 0.0, "lat": 38.92368533333333, "type": "electric_scooter", "lon": -77.0503545, "bike_id": "032dce672b1a13a16283027a797bd002", "rental_uris": {"android": "https://dc.lft.to/lastmile_qr_scan", "ios": "https://dc.lft.to/lastmile_qr_scan"}, "name": "032dce672b1a13a16283027a797bd002", "is_reserved": 0}, {"is_disabled": 0, "fusion_lon": 0.0, "fusion_lat": 0.0, "lat": 38.903129666666665, "type": "electric_scooter", "lon": -77.02867883333333, "bike_id": "d5fd7a7a52b886b55462752c7e0b66e0", "rental_uris": {"android": "https://dc.lft.to/lastmile_qr_scan", "ios": "https://dc.lft.to/lastmile_qr_scan"}, "name": "d5fd7a7a52b886b55462752c7e0b66e0", "is_reserved": 0}, {"is_disabled": 0, "fusion_lon": 0.0, "fusion_lat": 0.0, "lat": 38.92001033333333, "type": "electric_scooter", "lon": -77.03222766666667, "bike_id": "a4131cfc303b9055f4e744d77e8903cc", "rental_uris": {"android": "https://dc.lft.to/lastmile_qr_scan", "ios": "https://dc.lft.to/lastmile_qr_scan"}, "name": "a4131cfc303b9055f4e744d77e8903cc", "is_reserved": 0}, {"is_disabled": 0, "fusion_lon": 0.0, "fusion_lat": 0.0, "lat": 38.907191833333336, "type": "electric_scooter", "lon": -77.002432, "bike_id": "a38e2c8f3726d7f4a0b95176644672cd", "rental_uris": {"android": "https://dc.lft.to/lastmile_qr_scan", "ios": "https://dc.lft.to/lastmile_qr_scan"}, "name": "a38e2c8f3726d7f4a0b95176644672cd", "is_reserved": 0}, {"is_disabled": 0, "fusion_lon": 0.0, "fusion_lat": 0.0, "lat": 38.90979566666667, "type": "electric_scooter", "lon": -77.03856616666667, "bike_id": "6ed7a1dd8da27e738f77b62b8a4905a3", "rental_uris": {"android": "https://dc.lft.to/lastmile_qr_scan", "ios": "https://dc.lft.to/lastmile_qr_scan"}, "name": "6ed7a1dd8da27e738f77b62b8a4905a3", "is_reserved": 0}, {"is_disabled": 0, "fusion_lon": 0.0, "fusion_lat": 0.0, "lat": 38.90435133333333, "type": "electric_scooter", "lon": -77.06114483333333, "bike_id": "c648caf7205b269be9e806044822d893", "rental_uris": {"android": "https://dc.lft.to/lastmile_qr_scan", "ios": "https://dc.lft.to/lastmile_qr_scan"}, "name": "c648caf7205b269be9e806044822d893", "is_reserved": 0}, {"is_disabled": 0, "fusion_lon": 0.0, "fusion_lat": 0.0, "lat": 38.932457666666664, "type": "electric_scooter", "lon": -77.03988816666667, "bike_id": "c27c80204c1d937bc082fa56c468d284", "rental_uris": {"android": "https://dc.lft.to/lastmile_qr_scan", "ios": "https://dc.lft.to/lastmile_qr_scan"}, "name": "c27c80204c1d937bc082fa56c468d284", "is_reserved": 0}, {"is_disabled": 0, "fusion_lon": 0.0, "fusion_lat": 0.0, "lat": 38.92304016666667, "type": "electric_scooter", "lon": -77.0310405, "bike_id": "e12ea43201500fdb22cf4e0df6078f58", "rental_uris": {"android": "https://dc.lft.to/lastmile_qr_scan", "ios": "https://dc.lft.to/lastmile_qr_scan"}, "name": "e12ea43201500fdb22cf4e0df6078f58", "is_reserved": 0}, {"is_disabled": 0, "fusion_lon": 0.0, "fusion_lat": 0.0, "lat": 38.9489095, "type": "electric_bike", "lon": -76.96367516666666, "bike_id": "63a9afc3d1a01caeebb1510b8046864e", "rental_uris": {"android": "https://dc.lft.to/lastmile_qr_scan", "ios": "https://dc.lft.to/lastmile_qr_scan"}, "name": "63a9afc3d1a01caeebb1510b8046864e", "is_reserved": 0}, {"is_disabled": 0, "fusion_lon": 0.0, "fusion_lat": 0.0, "lat": 38.921458666666666, "type": "electric_scooter", "lon": -77.033829, "bike_id": "b3098730bbbbdf54bb7c9ab054c154d4", "rental_uris": {"android": "https://dc.lft.to/lastmile_qr_scan", "ios": "https://dc.lft.to/lastmile_qr_scan"}, "name": "b3098730bbbbdf54bb7c9ab054c154d4", "is_reserved": 0}, {"is_disabled": 0, "fusion_lon": 0.0, "fusion_lat": 0.0, "lat": 38.91776816666667, "type": "electric_scooter", "lon": -77.01775433333333, "bike_id": "a2abb1e08d0f9f34f5ba469f4f501213", "rental_uris": {"android": "https://dc.lft.to/lastmile_qr_scan", "ios": "https://dc.lft.to/lastmile_qr_scan"}, "name": "a2abb1e08d0f9f34f5ba469f4f501213", "is_reserved": 0}, {"is_disabled": 0, "fusion_lon": 0.0, "fusion_lat": 0.0, "lat": 39.052675, "type": "electric_bike", "lon": -77.04384566666667, "bike_id": "54da5f2666e4756580e5945678ace63d", "rental_uris": {"android": "https://dc.lft.to/lastmile_qr_scan", "ios": "https://dc.lft.to/lastmile_qr_scan"}, "name": "54da5f2666e4756580e5945678ace63d", "is_reserved": 0}, {"is_disabled": 0, "fusion_lon": 0.0, "fusion_lat": 0.0, "lat": 38.91406583333333, "type": "electric_scooter", "lon": -77.045268, "bike_id": "40269dcb6b559ba4a1a58a3bae9312c5", "rental_uris": {"android": "https://dc.lft.to/lastmile_qr_scan", "ios": "https://dc.lft.to/lastmile_qr_scan"}, "name": "40269dcb6b559ba4a1a58a3bae9312c5", "is_reserved": 0}, {"is_disabled": 0, "fusion_lon": 0.0, "fusion_lat": 0.0, "lat": 38.88447383333333, "type": "electric_bike", "lon": -76.91638283333333, "bike_id": "9b9792ba511e30b10315d0fde56dd56e", "rental_uris": {"android": "https://dc.lft.to/lastmile_qr_scan", "ios": "https://dc.lft.to/lastmile_qr_scan"}, "name": "9b9792ba511e30b10315d0fde56dd56e", "is_reserved": 0}, {"is_disabled": 0, "fusion_lon": 0.0, "fusion_lat": 0.0, "lat": 38.92858783333333, "type": "electric_scooter", "lon": -77.0315935, "bike_id": "acb05fdd98a1483619054ea8b40d4737", "rental_uris": {"android": "https://dc.lft.to/lastmile_qr_scan", "ios": "https://dc.lft.to/lastmile_qr_scan"}, "name": "acb05fdd98a1483619054ea8b40d4737", "is_reserved": 0}, {"is_disabled": 0, "fusion_lon": 0.0, "fusion_lat": 0.0, "lat": 39.08900366666666, "type": "electric_bike", "lon": -77.17845716666666, "bike_id": "96427dd527f036d4a3868e16f911c7f7", "rental_uris": {"android": "https://dc.lft.to/lastmile_qr_scan", "ios": "https://dc.lft.to/lastmile_qr_scan"}, "name": "96427dd527f036d4a3868e16f911c7f7", "is_reserved": 0}, {"is_disabled": 0, "fusion_lon": 0.0, "fusion_lat": 0.0, "lat": 38.9118455, "type": "electric_scooter", "lon": -77.04166566666666, "bike_id": "9e3913841e0c93d198f0faba15b36729", "rental_uris": {"android": "https://dc.lft.to/lastmile_qr_scan", "ios": "https://dc.lft.to/lastmile_qr_scan"}, "name": "9e3913841e0c93d198f0faba15b36729", "is_reserved": 0}, {"is_disabled": 0, "fusion_lon": 0.0, "fusion_lat": 0.0, "lat": 38.87845266666667, "type": "electric_scooter", "lon": -77.0228655, "bike_id": "41df7b3451ce40b89c2ea7e2391e98fe", "rental_uris": {"android": "https://dc.lft.to/lastmile_qr_scan", "ios": "https://dc.lft.to/lastmile_qr_scan"}, "name": "41df7b3451ce40b89c2ea7e2391e98fe", "is_reserved": 0}, {"is_disabled": 0, "fusion_lon": 0.0, "fusion_lat": 0.0, "lat": 38.90030133333333, "type": "electric_scooter", "lon": -77.01185033333333, "bike_id": "b396b433ab5c361eb9556d88da1c260f", "rental_uris": {"android": "https://dc.lft.to/lastmile_qr_scan", "ios": "https://dc.lft.to/lastmile_qr_scan"}, "name": "b396b433ab5c361eb9556d88da1c260f", "is_reserved": 0}, {"is_disabled": 0, "fusion_lon": 0.0, "fusion_lat": 0.0, "lat": 38.919195, "type": "electric_scooter", "lon": -77.03421366666667, "bike_id": "22d13eff96467e836826be094c9f8077", "rental_uris": {"android": "https://dc.lft.to/lastmile_qr_scan", "ios": "https://dc.lft.to/lastmile_qr_scan"}, "name": "22d13eff96467e836826be094c9f8077", "is_reserved": 0}, {"is_disabled": 0, "fusion_lon": 0.0, "fusion_lat": 0.0, "lat": 38.87648866666667, "type": "electric_scooter", "lon": -77.01565, "bike_id": "804dc7da6290f60099ec2eead506ef02", "rental_uris": {"android": "https://dc.lft.to/lastmile_qr_scan", "ios": "https://dc.lft.to/lastmile_qr_scan"}, "name": "804dc7da6290f60099ec2eead506ef02", "is_reserved": 0}, {"is_disabled": 0, "fusion_lon": 0.0, "fusion_lat": 0.0, "lat": 39.02995633333333, "type": "electric_bike", "lon": -77.1065275, "bike_id": "c0cab74b746f9560b60e222120836592", "rental_uris": {"android": "https://dc.lft.to/lastmile_qr_scan", "ios": "https://dc.lft.to/lastmile_qr_scan"}, "name": "c0cab74b746f9560b60e222120836592", "is_reserved": 0}, {"is_disabled": 0, "fusion_lon": 0.0, "fusion_lat": 0.0, "lat": 38.8990985, "type": "electric_scooter", "lon": -76.93392516666667, "bike_id": "e3e775094317b3c2f3aaafa354016045", "rental_uris": {"android": "https://dc.lft.to/lastmile_qr_scan", "ios": "https://dc.lft.to/lastmile_qr_scan"}, "name": "e3e775094317b3c2f3aaafa354016045", "is_reserved": 0}, {"is_disabled": 0, "fusion_lon": 0.0, "fusion_lat": 0.0, "lat": 38.96444416666667, "type": "electric_bike", "lon": -76.97724666666667, "bike_id": "f2a2fdd3c661d66dac27db41e5e69375", "rental_uris": {"android": "https://dc.lft.to/lastmile_qr_scan", "ios": "https://dc.lft.to/lastmile_qr_scan"}, "name": "f2a2fdd3c661d66dac27db41e5e69375", "is_reserved": 0}, {"is_disabled": 0, "fusion_lon": 0.0, "fusion_lat": 0.0, "lat": 38.952046, "type": "electric_scooter", "lon": -77.027323, "bike_id": "df1ae065ad09fc4ac9cdceb63e7dfc04", "rental_uris": {"android": "https://dc.lft.to/lastmile_qr_scan", "ios": "https://dc.lft.to/lastmile_qr_scan"}, "name": "df1ae065ad09fc4ac9cdceb63e7dfc04", "is_reserved": 0}, {"is_disabled": 0, "fusion_lon": 0.0, "fusion_lat": 0.0, "lat": 38.90012183333333, "type": "electric_scooter", "lon": -77.0047155, "bike_id": "b4b462bb8c9155675058887fb4d2a7d6", "rental_uris": {"android": "https://dc.lft.to/lastmile_qr_scan", "ios": "https://dc.lft.to/lastmile_qr_scan"}, "name": "b4b462bb8c9155675058887fb4d2a7d6", "is_reserved": 0}, {"is_disabled": 0, "fusion_lon": 0.0, "fusion_lat": 0.0, "lat": 38.9131985, "type": "electric_scooter", "lon": -77.02718083333333, "bike_id": "076c3c726b50fa70e1c7a8956f22f590", "rental_uris": {"android": "https://dc.lft.to/lastmile_qr_scan", "ios": "https://dc.lft.to/lastmile_qr_scan"}, "name": "076c3c726b50fa70e1c7a8956f22f590", "is_reserved": 0}, {"is_disabled": 0, "fusion_lon": 0.0, "fusion_lat": 0.0, "lat": 38.8509085, "type": "electric_bike", "lon": -76.95694983333334, "bike_id": "55d084061bceb43424104d0c410db18a", "rental_uris": {"android": "https://dc.lft.to/lastmile_qr_scan", "ios": "https://dc.lft.to/lastmile_qr_scan"}, "name": "55d084061bceb43424104d0c410db18a", "is_reserved": 0}, {"is_disabled": 0, "fusion_lon": 0.0, "fusion_lat": 0.0, "lat": 38.84288516666667, "type": "electric_scooter", "lon": -76.99948333333333, "bike_id": "cecbe6e6253aa34d76a3b2a5ff21612b", "rental_uris": {"android": "https://dc.lft.to/lastmile_qr_scan", "ios": "https://dc.lft.to/lastmile_qr_scan"}, "name": "cecbe6e6253aa34d76a3b2a5ff21612b", "is_reserved": 0}, {"is_disabled": 0, "fusion_lon": 0.0, "fusion_lat": 0.0, "lat": 38.942721666666664, "type": "electric_scooter", "lon": -77.03258566666666, "bike_id": "c2dfbcce93b82f6e0c783f6f50abe66f", "rental_uris": {"android": "https://dc.lft.to/lastmile_qr_scan", "ios": "https://dc.lft.to/lastmile_qr_scan"}, "name": "c2dfbcce93b82f6e0c783f6f50abe66f", "is_reserved": 0}, {"is_disabled": 0, "fusion_lon": 0.0, "fusion_lat": 0.0, "lat": 38.91265416666667, "type": "electric_scooter", "lon": -77.02241416666666, "bike_id": "333d5fb4a75d1dbda8e8d12f22af9c0f", "rental_uris": {"android": "https://dc.lft.to/lastmile_qr_scan", "ios": "https://dc.lft.to/lastmile_qr_scan"}, "name": "333d5fb4a75d1dbda8e8d12f22af9c0f", "is_reserved": 0}, {"is_disabled": 0, "fusion_lon": 0.0, "fusion_lat": 0.0, "lat": 38.90270183333333, "type": "electric_scooter", "lon": -77.03446966666667, "bike_id": "0fcac1cf253833214ae7651d84ccdcc3", "rental_uris": {"android": "https://dc.lft.to/lastmile_qr_scan", "ios": "https://dc.lft.to/lastmile_qr_scan"}, "name": "0fcac1cf253833214ae7651d84ccdcc3", "is_reserved": 0}, {"is_disabled": 0, "fusion_lon": 0.0, "fusion_lat": 0.0, "lat": 38.916885666666666, "type": "electric_scooter", "lon": -77.03633416666666, "bike_id": "3dc05e08ffe8cbba709cad5a8e0c5379", "rental_uris": {"android": "https://dc.lft.to/lastmile_qr_scan", "ios": "https://dc.lft.to/lastmile_qr_scan"}, "name": "3dc05e08ffe8cbba709cad5a8e0c5379", "is_reserved": 0}, {"is_disabled": 0, "fusion_lon": 0.0, "fusion_lat": 0.0, "lat": 38.902625666666665, "type": "electric_scooter", "lon": -77.03442716666666, "bike_id": "336810231d6cb8a5b6f0ed7173b22404", "rental_uris": {"android": "https://dc.lft.to/lastmile_qr_scan", "ios": "https://dc.lft.to/lastmile_qr_scan"}, "name": "336810231d6cb8a5b6f0ed7173b22404", "is_reserved": 0}, {"is_disabled": 0, "fusion_lon": 0.0, "fusion_lat": 0.0, "lat": 38.91027116666667, "type": "electric_scooter", "lon": -77.00759733333334, "bike_id": "3a44da9a44b34e33c2b31e59d106c3cb", "rental_uris": {"android": "https://dc.lft.to/lastmile_qr_scan", "ios": "https://dc.lft.to/lastmile_qr_scan"}, "name": "3a44da9a44b34e33c2b31e59d106c3cb", "is_reserved": 0}, {"is_disabled": 0, "fusion_lon": 0.0, "fusion_lat": 0.0, "lat": 38.892383333333335, "type": "electric_scooter", "lon": -77.03350966666666, "bike_id": "471d3169c44e4e50f16da87f8401c6cd", "rental_uris": {"android": "https://dc.lft.to/lastmile_qr_scan", "ios": "https://dc.lft.to/lastmile_qr_scan"}, "name": "471d3169c44e4e50f16da87f8401c6cd", "is_reserved": 0}, {"is_disabled": 0, "fusion_lon": 0.0, "fusion_lat": 0.0, "lat": 38.90081083333333, "type": "electric_scooter", "lon": -77.04428066666667, "bike_id": "c85073d65dad493dedf830b77adfbe85", "rental_uris": {"android": "https://dc.lft.to/lastmile_qr_scan", "ios": "https://dc.lft.to/lastmile_qr_scan"}, "name": "c85073d65dad493dedf830b77adfbe85", "is_reserved": 0}, {"is_disabled": 0, "fusion_lon": 0.0, "fusion_lat": 0.0, "lat": 38.905280166666664, "type": "electric_scooter", "lon": -77.0220985, "bike_id": "84d428d560684f012c95045d23bc610b", "rental_uris": {"android": "https://dc.lft.to/lastmile_qr_scan", "ios": "https://dc.lft.to/lastmile_qr_scan"}, "name": "84d428d560684f012c95045d23bc610b", "is_reserved": 0}, {"is_disabled": 0, "fusion_lon": 0.0, "fusion_lat": 0.0, "lat": 38.95783333333333, "type": "electric_scooter", "lon": -77.02464933333333, "bike_id": "13a482beb26192ff6091245bfb6105f3", "rental_uris": {"android": "https://dc.lft.to/lastmile_qr_scan", "ios": "https://dc.lft.to/lastmile_qr_scan"}, "name": "13a482beb26192ff6091245bfb6105f3", "is_reserved": 0}, {"is_disabled": 0, "fusion_lon": 0.0, "fusion_lat": 0.0, "lat": 38.899539, "type": "electric_scooter", "lon": -77.03187816666667, "bike_id": "1afd44f10d97bc8fecfa3e5a34358ef8", "rental_uris": {"android": "https://dc.lft.to/lastmile_qr_scan", "ios": "https://dc.lft.to/lastmile_qr_scan"}, "name": "1afd44f10d97bc8fecfa3e5a34358ef8", "is_reserved": 0}, {"is_disabled": 0, "fusion_lon": 0.0, "fusion_lat": 0.0, "lat": 38.91281733333334, "type": "electric_scooter", "lon": -76.98688616666666, "bike_id": "af1e06f4019a1a7c0bb105260b265934", "rental_uris": {"android": "https://dc.lft.to/lastmile_qr_scan", "ios": "https://dc.lft.to/lastmile_qr_scan"}, "name": "af1e06f4019a1a7c0bb105260b265934", "is_reserved": 0}, {"is_disabled": 0, "fusion_lon": 0.0, "fusion_lat": 0.0, "lat": 38.9356955, "type": "electric_scooter", "lon": -77.05877, "bike_id": "14727985bcf87158e390b422ac3362e7", "rental_uris": {"android": "https://dc.lft.to/lastmile_qr_scan", "ios": "https://dc.lft.to/lastmile_qr_scan"}, "name": "14727985bcf87158e390b422ac3362e7", "is_reserved": 0}, {"is_disabled": 0, "fusion_lon": 0.0, "fusion_lat": 0.0, "lat": 38.89695416666667, "type": "electric_scooter", "lon": -77.02430733333334, "bike_id": "4fcec5d09091d47c2d0058b837b0cf03", "rental_uris": {"android": "https://dc.lft.to/lastmile_qr_scan", "ios": "https://dc.lft.to/lastmile_qr_scan"}, "name": "4fcec5d09091d47c2d0058b837b0cf03", "is_reserved": 0}, {"is_disabled": 0, "fusion_lon": 0.0, "fusion_lat": 0.0, "lat": 38.899064, "type": "electric_scooter", "lon": -76.93394833333333, "bike_id": "4be8682804ae95fc82565f607776b31b", "rental_uris": {"android": "https://dc.lft.to/lastmile_qr_scan", "ios": "https://dc.lft.to/lastmile_qr_scan"}, "name": "4be8682804ae95fc82565f607776b31b", "is_reserved": 0}, {"is_disabled": 0, "fusion_lon": 0.0, "fusion_lat": 0.0, "lat": 38.91815733333333, "type": "electric_scooter", "lon": -77.02476316666667, "bike_id": "281ac1c6742398009a7928b64707073a", "rental_uris": {"android": "https://dc.lft.to/lastmile_qr_scan", "ios": "https://dc.lft.to/lastmile_qr_scan"}, "name": "281ac1c6742398009a7928b64707073a", "is_reserved": 0}, {"is_disabled": 0, "fusion_lon": 0.0, "fusion_lat": 0.0, "lat": 38.905588, "type": "electric_scooter", "lon": -77.04083366666667, "bike_id": "40a07fc1057583b2d90f410cc7c950fa", "rental_uris": {"android": "https://dc.lft.to/lastmile_qr_scan", "ios": "https://dc.lft.to/lastmile_qr_scan"}, "name": "40a07fc1057583b2d90f410cc7c950fa", "is_reserved": 0}, {"is_disabled": 0, "fusion_lon": 0.0, "fusion_lat": 0.0, "lat": 38.93494166666667, "type": "electric_scooter", "lon": -77.0242145, "bike_id": "35fba9551b8f77eabebd91874d83a26d", "rental_uris": {"android": "https://dc.lft.to/lastmile_qr_scan", "ios": "https://dc.lft.to/lastmile_qr_scan"}, "name": "35fba9551b8f77eabebd91874d83a26d", "is_reserved": 0}, {"is_disabled": 0, "fusion_lon": 0.0, "fusion_lat": 0.0, "lat": 38.842712166666665, "type": "electric_bike", "lon": -76.98842266666666, "bike_id": "ddf18ca1490d98d691b6181e14311a1b", "rental_uris": {"android": "https://dc.lft.to/lastmile_qr_scan", "ios": "https://dc.lft.to/lastmile_qr_scan"}, "name": "ddf18ca1490d98d691b6181e14311a1b", "is_reserved": 0}, {"is_disabled": 0, "fusion_lon": 0.0, "fusion_lat": 0.0, "lat": 38.9690885, "type": "electric_bike", "lon": -77.02615, "bike_id": "d01f12dd0c8f6bff033cefb8250cfdd4", "rental_uris": {"android": "https://dc.lft.to/lastmile_qr_scan", "ios": "https://dc.lft.to/lastmile_qr_scan"}, "name": "d01f12dd0c8f6bff033cefb8250cfdd4", "is_reserved": 0}, {"is_disabled": 0, "fusion_lon": 0.0, "fusion_lat": 0.0, "lat": 38.91689516666667, "type": "electric_scooter", "lon": -77.03637366666666, "bike_id": "00b7f74c53395d29e7b95859348e3a7b", "rental_uris": {"android": "https://dc.lft.to/lastmile_qr_scan", "ios": "https://dc.lft.to/lastmile_qr_scan"}, "name": "00b7f74c53395d29e7b95859348e3a7b", "is_reserved": 0}, {"is_disabled": 0, "fusion_lon": 0.0, "fusion_lat": 0.0, "lat": 38.91544716666667, "type": "electric_scooter", "lon": -77.03855066666667, "bike_id": "a425bec247be0d46be7b4024fb68e908", "rental_uris": {"android": "https://dc.lft.to/lastmile_qr_scan", "ios": "https://dc.lft.to/lastmile_qr_scan"}, "name": "a425bec247be0d46be7b4024fb68e908", "is_reserved": 0}, {"is_disabled": 0, "fusion_lon": 0.0, "fusion_lat": 0.0, "lat": 38.9202195, "type": "electric_scooter", "lon": -77.03117283333333, "bike_id": "4c31b506ad45c7b010ad072d9ef0f702", "rental_uris": {"android": "https://dc.lft.to/lastmile_qr_scan", "ios": "https://dc.lft.to/lastmile_qr_scan"}, "name": "4c31b506ad45c7b010ad072d9ef0f702", "is_reserved": 0}, {"is_disabled": 0, "fusion_lon": 0.0, "fusion_lat": 0.0, "lat": 38.892404, "type": "electric_scooter", "lon": -76.9883615, "bike_id": "506ddf51ad961ee509b31cbb58c91805", "rental_uris": {"android": "https://dc.lft.to/lastmile_qr_scan", "ios": "https://dc.lft.to/lastmile_qr_scan"}, "name": "506ddf51ad961ee509b31cbb58c91805", "is_reserved": 0}, {"is_disabled": 0, "fusion_lon": 0.0, "fusion_lat": 0.0, "lat": 38.913305333333334, "type": "electric_scooter", "lon": -77.0323845, "bike_id": "b76b30f34745d387668346305434709c", "rental_uris": {"android": "https://dc.lft.to/lastmile_qr_scan", "ios": "https://dc.lft.to/lastmile_qr_scan"}, "name": "b76b30f34745d387668346305434709c", "is_reserved": 0}, {"is_disabled": 0, "fusion_lon": 0.0, "fusion_lat": 0.0, "lat": 38.897785999999996, "type": "electric_bike", "lon": -77.01981666666667, "bike_id": "617f7c4a77379ce27b9af84c2103df0b", "rental_uris": {"android": "https://dc.lft.to/lastmile_qr_scan", "ios": "https://dc.lft.to/lastmile_qr_scan"}, "name": "617f7c4a77379ce27b9af84c2103df0b", "is_reserved": 0}, {"is_disabled": 0, "fusion_lon": 0.0, "fusion_lat": 0.0, "lat": 38.8857275, "type": "electric_scooter", "lon": -76.91903, "bike_id": "c876f482e487b4a70f65f4f610ec3e1a", "rental_uris": {"android": "https://dc.lft.to/lastmile_qr_scan", "ios": "https://dc.lft.to/lastmile_qr_scan"}, "name": "c876f482e487b4a70f65f4f610ec3e1a", "is_reserved": 0}, {"is_disabled": 0, "fusion_lon": 0.0, "fusion_lat": 0.0, "lat": 38.915470666666664, "type": "electric_scooter", "lon": -77.038522, "bike_id": "5470bc777bb1988dce3c68c19465e495", "rental_uris": {"android": "https://dc.lft.to/lastmile_qr_scan", "ios": "https://dc.lft.to/lastmile_qr_scan"}, "name": "5470bc777bb1988dce3c68c19465e495", "is_reserved": 0}, {"is_disabled": 0, "fusion_lon": 0.0, "fusion_lat": 0.0, "lat": 38.91026033333333, "type": "electric_scooter", "lon": -77.04272983333334, "bike_id": "78c4ab5757490f47c64b8672b2919674", "rental_uris": {"android": "https://dc.lft.to/lastmile_qr_scan", "ios": "https://dc.lft.to/lastmile_qr_scan"}, "name": "78c4ab5757490f47c64b8672b2919674", "is_reserved": 0}, {"is_disabled": 0, "fusion_lon": 0.0, "fusion_lat": 0.0, "lat": 39.03874866666666, "type": "electric_bike", "lon": -77.10912766666667, "bike_id": "7a8c0909b8cbc0db5d44961a49021077", "rental_uris": {"android": "https://dc.lft.to/lastmile_qr_scan", "ios": "https://dc.lft.to/lastmile_qr_scan"}, "name": "7a8c0909b8cbc0db5d44961a49021077", "is_reserved": 0}, {"is_disabled": 0, "fusion_lon": 0.0, "fusion_lat": 0.0, "lat": 38.992600333333336, "type": "electric_scooter", "lon": -77.03612666666666, "bike_id": "a5028ccf743621e3efbbaec7e894aebd", "rental_uris": {"android": "https://dc.lft.to/lastmile_qr_scan", "ios": "https://dc.lft.to/lastmile_qr_scan"}, "name": "a5028ccf743621e3efbbaec7e894aebd", "is_reserved": 0}, {"is_disabled": 0, "fusion_lon": 0.0, "fusion_lat": 0.0, "lat": 38.90961016666667, "type": "electric_scooter", "lon": -77.04718266666667, "bike_id": "a65021e125e79fdd85fdf78eb75cc50e", "rental_uris": {"android": "https://dc.lft.to/lastmile_qr_scan", "ios": "https://dc.lft.to/lastmile_qr_scan"}, "name": "a65021e125e79fdd85fdf78eb75cc50e", "is_reserved": 0}, {"is_disabled": 0, "fusion_lon": 0.0, "fusion_lat": 0.0, "lat": 38.917037, "type": "electric_scooter", "lon": -77.051267, "bike_id": "cfbd1af3c266c43913a95dc5be6e3ccd", "rental_uris": {"android": "https://dc.lft.to/lastmile_qr_scan", "ios": "https://dc.lft.to/lastmile_qr_scan"}, "name": "cfbd1af3c266c43913a95dc5be6e3ccd", "is_reserved": 0}, {"is_disabled": 0, "fusion_lon": 0.0, "fusion_lat": 0.0, "lat": 38.89054333333333, "type": "electric_scooter", "lon": -77.0320635, "bike_id": "fce08090ce6eef2816fde32cfee8fe6a", "rental_uris": {"android": "https://dc.lft.to/lastmile_qr_scan", "ios": "https://dc.lft.to/lastmile_qr_scan"}, "name": "fce08090ce6eef2816fde32cfee8fe6a", "is_reserved": 0}, {"is_disabled": 0, "fusion_lon": 0.0, "fusion_lat": 0.0, "lat": 38.90965933333333, "type": "electric_scooter", "lon": -77.04617166666667, "bike_id": "ea842444d7e6c0f6c07f255246e8bfd5", "rental_uris": {"android": "https://dc.lft.to/lastmile_qr_scan", "ios": "https://dc.lft.to/lastmile_qr_scan"}, "name": "ea842444d7e6c0f6c07f255246e8bfd5", "is_reserved": 0}, {"is_disabled": 0, "fusion_lon": 0.0, "fusion_lat": 0.0, "lat": 38.91782466666667, "type": "electric_scooter", "lon": -77.0432435, "bike_id": "8b5da644a38eb3d7dd6bb67391f8c8d9", "rental_uris": {"android": "https://dc.lft.to/lastmile_qr_scan", "ios": "https://dc.lft.to/lastmile_qr_scan"}, "name": "8b5da644a38eb3d7dd6bb67391f8c8d9", "is_reserved": 0}, {"is_disabled": 0, "fusion_lon": 0.0, "fusion_lat": 0.0, "lat": 38.9347065, "type": "electric_scooter", "lon": -77.07265083333333, "bike_id": "519bbfd834b7e1978632cc1985e5850c", "rental_uris": {"android": "https://dc.lft.to/lastmile_qr_scan", "ios": "https://dc.lft.to/lastmile_qr_scan"}, "name": "519bbfd834b7e1978632cc1985e5850c", "is_reserved": 0}, {"is_disabled": 0, "fusion_lon": 0.0, "fusion_lat": 0.0, "lat": 38.9583675, "type": "electric_scooter", "lon": -77.07165633333334, "bike_id": "b28377d8ea40ad1e8307fdf0aa7fb586", "rental_uris": {"android": "https://dc.lft.to/lastmile_qr_scan", "ios": "https://dc.lft.to/lastmile_qr_scan"}, "name": "b28377d8ea40ad1e8307fdf0aa7fb586", "is_reserved": 0}, {"is_disabled": 0, "fusion_lon": 0.0, "fusion_lat": 0.0, "lat": 38.906398333333335, "type": "electric_scooter", "lon": -76.98564566666667, "bike_id": "0d610f72bdd6caedfa2593aa092c92ac", "rental_uris": {"android": "https://dc.lft.to/lastmile_qr_scan", "ios": "https://dc.lft.to/lastmile_qr_scan"}, "name": "0d610f72bdd6caedfa2593aa092c92ac", "is_reserved": 0}, {"is_disabled": 0, "fusion_lon": 0.0, "fusion_lat": 0.0, "lat": 38.885011, "type": "electric_scooter", "lon": -77.0032705, "bike_id": "fd06e8d690a2fe954b84a4fc5f34cc91", "rental_uris": {"android": "https://dc.lft.to/lastmile_qr_scan", "ios": "https://dc.lft.to/lastmile_qr_scan"}, "name": "fd06e8d690a2fe954b84a4fc5f34cc91", "is_reserved": 0}, {"is_disabled": 0, "fusion_lon": 0.0, "fusion_lat": 0.0, "lat": 38.90271283333333, "type": "electric_scooter", "lon": -77.03441133333334, "bike_id": "10847bd8e2b74926a5f6676a46494bf0", "rental_uris": {"android": "https://dc.lft.to/lastmile_qr_scan", "ios": "https://dc.lft.to/lastmile_qr_scan"}, "name": "10847bd8e2b74926a5f6676a46494bf0", "is_reserved": 0}, {"is_disabled": 0, "fusion_lon": 0.0, "fusion_lat": 0.0, "lat": 38.91777883333334, "type": "electric_scooter", "lon": -77.0321545, "bike_id": "1ea0253192dca733ed90093c93271af9", "rental_uris": {"android": "https://dc.lft.to/lastmile_qr_scan", "ios": "https://dc.lft.to/lastmile_qr_scan"}, "name": "1ea0253192dca733ed90093c93271af9", "is_reserved": 0}, {"is_disabled": 0, "fusion_lon": 0.0, "fusion_lat": 0.0, "lat": 38.917093666666666, "type": "electric_scooter", "lon": -77.098156, "bike_id": "d23caf270de7603797501572c2ba6756", "rental_uris": {"android": "https://dc.lft.to/lastmile_qr_scan", "ios": "https://dc.lft.to/lastmile_qr_scan"}, "name": "d23caf270de7603797501572c2ba6756", "is_reserved": 0}, {"is_disabled": 0, "fusion_lon": 0.0, "fusion_lat": 0.0, "lat": 38.94962683333333, "type": "electric_scooter", "lon": -77.03763783333333, "bike_id": "19f2c7cd66f24eb3ee9b35683fa56853", "rental_uris": {"android": "https://dc.lft.to/lastmile_qr_scan", "ios": "https://dc.lft.to/lastmile_qr_scan"}, "name": "19f2c7cd66f24eb3ee9b35683fa56853", "is_reserved": 0}, {"is_disabled": 0, "fusion_lon": 0.0, "fusion_lat": 0.0, "lat": 38.924597, "type": "electric_scooter", "lon": -77.0396375, "bike_id": "35b2a3ac6b4352fb248b84427f7acb0f", "rental_uris": {"android": "https://dc.lft.to/lastmile_qr_scan", "ios": "https://dc.lft.to/lastmile_qr_scan"}, "name": "35b2a3ac6b4352fb248b84427f7acb0f", "is_reserved": 0}, {"is_disabled": 0, "fusion_lon": 0.0, "fusion_lat": 0.0, "lat": 38.903923, "type": "electric_scooter", "lon": -77.0402895, "bike_id": "75299a8e49800db9f370ff49c583e5b8", "rental_uris": {"android": "https://dc.lft.to/lastmile_qr_scan", "ios": "https://dc.lft.to/lastmile_qr_scan"}, "name": "75299a8e49800db9f370ff49c583e5b8", "is_reserved": 0}, {"is_disabled": 0, "fusion_lon": 0.0, "fusion_lat": 0.0, "lat": 39.026817666666666, "type": "electric_bike", "lon": -77.12597583333333, "bike_id": "b06dc6cf71c99df7e9c84fb62e11c710", "rental_uris": {"android": "https://dc.lft.to/lastmile_qr_scan", "ios": "https://dc.lft.to/lastmile_qr_scan"}, "name": "b06dc6cf71c99df7e9c84fb62e11c710", "is_reserved": 0}, {"is_disabled": 0, "fusion_lon": 0.0, "fusion_lat": 0.0, "lat": 38.91111333333333, "type": "electric_scooter", "lon": -77.038325, "bike_id": "6a34bf292ef359f6cf9341ddfe2c6985", "rental_uris": {"android": "https://dc.lft.to/lastmile_qr_scan", "ios": "https://dc.lft.to/lastmile_qr_scan"}, "name": "6a34bf292ef359f6cf9341ddfe2c6985", "is_reserved": 0}, {"is_disabled": 0, "fusion_lon": 0.0, "fusion_lat": 0.0, "lat": 38.889825, "type": "electric_scooter", "lon": -77.0025265, "bike_id": "154eb441c833554ff2fca1d31dadc8a2", "rental_uris": {"android": "https://dc.lft.to/lastmile_qr_scan", "ios": "https://dc.lft.to/lastmile_qr_scan"}, "name": "154eb441c833554ff2fca1d31dadc8a2", "is_reserved": 0}, {"is_disabled": 0, "fusion_lon": 0.0, "fusion_lat": 0.0, "lat": 38.946341333333336, "type": "electric_scooter", "lon": -77.01936666666667, "bike_id": "42b162aa6d0f1e299674182f4914bd83", "rental_uris": {"android": "https://dc.lft.to/lastmile_qr_scan", "ios": "https://dc.lft.to/lastmile_qr_scan"}, "name": "42b162aa6d0f1e299674182f4914bd83", "is_reserved": 0}, {"is_disabled": 0, "fusion_lon": 0.0, "fusion_lat": 0.0, "lat": 38.92750216666666, "type": "electric_scooter", "lon": -77.00591933333334, "bike_id": "d3e42d0aeeff8a453f2d11f970cc4987", "rental_uris": {"android": "https://dc.lft.to/lastmile_qr_scan", "ios": "https://dc.lft.to/lastmile_qr_scan"}, "name": "d3e42d0aeeff8a453f2d11f970cc4987", "is_reserved": 0}, {"is_disabled": 0, "fusion_lon": 0.0, "fusion_lat": 0.0, "lat": 38.907594, "type": "electric_scooter", "lon": -77.0627915, "bike_id": "d36828ad3234d1299d0c8ec78f176d18", "rental_uris": {"android": "https://dc.lft.to/lastmile_qr_scan", "ios": "https://dc.lft.to/lastmile_qr_scan"}, "name": "d36828ad3234d1299d0c8ec78f176d18", "is_reserved": 0}, {"is_disabled": 0, "fusion_lon": 0.0, "fusion_lat": 0.0, "lat": 38.85207283333333, "type": "electric_bike", "lon": -77.10132033333333, "bike_id": "71af99b499fa40df6ae141995961ce3f", "rental_uris": {"android": "https://dc.lft.to/lastmile_qr_scan", "ios": "https://dc.lft.to/lastmile_qr_scan"}, "name": "71af99b499fa40df6ae141995961ce3f", "is_reserved": 0}, {"is_disabled": 0, "fusion_lon": 0.0, "fusion_lat": 0.0, "lat": 38.9259735, "type": "electric_scooter", "lon": -77.02347533333334, "bike_id": "6d1979e4cfdaf4348288d74fa5ae8398", "rental_uris": {"android": "https://dc.lft.to/lastmile_qr_scan", "ios": "https://dc.lft.to/lastmile_qr_scan"}, "name": "6d1979e4cfdaf4348288d74fa5ae8398", "is_reserved": 0}, {"is_disabled": 0, "fusion_lon": 0.0, "fusion_lat": 0.0, "lat": 38.895894166666665, "type": "electric_scooter", "lon": -77.0092045, "bike_id": "fa39bf4a68f2fb3a03a8f3e9853ca2c1", "rental_uris": {"android": "https://dc.lft.to/lastmile_qr_scan", "ios": "https://dc.lft.to/lastmile_qr_scan"}, "name": "fa39bf4a68f2fb3a03a8f3e9853ca2c1", "is_reserved": 0}, {"is_disabled": 0, "fusion_lon": 0.0, "fusion_lat": 0.0, "lat": 38.827416166666666, "type": "electric_bike", "lon": -77.00848533333334, "bike_id": "a6b2771c26690dd6959f00d83177fa08", "rental_uris": {"android": "https://dc.lft.to/lastmile_qr_scan", "ios": "https://dc.lft.to/lastmile_qr_scan"}, "name": "a6b2771c26690dd6959f00d83177fa08", "is_reserved": 0}, {"is_disabled": 0, "fusion_lon": 0.0, "fusion_lat": 0.0, "lat": 38.887923666666666, "type": "electric_bike", "lon": -76.92997683333333, "bike_id": "fcef69ad376b9077061a7423a0f504df", "rental_uris": {"android": "https://dc.lft.to/lastmile_qr_scan", "ios": "https://dc.lft.to/lastmile_qr_scan"}, "name": "fcef69ad376b9077061a7423a0f504df", "is_reserved": 0}, {"is_disabled": 0, "fusion_lon": 0.0, "fusion_lat": 0.0, "lat": 38.90278833333333, "type": "electric_scooter", "lon": -77.02178666666667, "bike_id": "bd8492d77f0d3ae3622653b407329a57", "rental_uris": {"android": "https://dc.lft.to/lastmile_qr_scan", "ios": "https://dc.lft.to/lastmile_qr_scan"}, "name": "bd8492d77f0d3ae3622653b407329a57", "is_reserved": 0}, {"is_disabled": 0, "fusion_lon": 0.0, "fusion_lat": 0.0, "lat": 38.910130333333335, "type": "electric_scooter", "lon": -77.04813966666667, "bike_id": "f04a7367aa0e6adfffa8e6cc6e4854c2", "rental_uris": {"android": "https://dc.lft.to/lastmile_qr_scan", "ios": "https://dc.lft.to/lastmile_qr_scan"}, "name": "f04a7367aa0e6adfffa8e6cc6e4854c2", "is_reserved": 0}, {"is_disabled": 0, "fusion_lon": 0.0, "fusion_lat": 0.0, "lat": 38.940681166666664, "type": "electric_bike", "lon": -77.05292533333333, "bike_id": "02b0d35a966431dad847cc4f1f6280fb", "rental_uris": {"android": "https://dc.lft.to/lastmile_qr_scan", "ios": "https://dc.lft.to/lastmile_qr_scan"}, "name": "02b0d35a966431dad847cc4f1f6280fb", "is_reserved": 0}, {"is_disabled": 0, "fusion_lon": 0.0, "fusion_lat": 0.0, "lat": 39.0086685, "type": "electric_bike", "lon": -77.07904366666666, "bike_id": "cf9e718cbfcfb7b2626893c62b49db41", "rental_uris": {"android": "https://dc.lft.to/lastmile_qr_scan", "ios": "https://dc.lft.to/lastmile_qr_scan"}, "name": "cf9e718cbfcfb7b2626893c62b49db41", "is_reserved": 0}, {"is_disabled": 0, "fusion_lon": 0.0, "fusion_lat": 0.0, "lat": 38.92397966666667, "type": "electric_scooter", "lon": -77.02545733333334, "bike_id": "b11544b164abd18ed4579d46d6ffa66e", "rental_uris": {"android": "https://dc.lft.to/lastmile_qr_scan", "ios": "https://dc.lft.to/lastmile_qr_scan"}, "name": "b11544b164abd18ed4579d46d6ffa66e", "is_reserved": 0}, {"is_disabled": 0, "fusion_lon": 0.0, "fusion_lat": 0.0, "lat": 38.893696, "type": "electric_scooter", "lon": -76.94998116666666, "bike_id": "af71844374a7fbd2114d8b656ad992cb", "rental_uris": {"android": "https://dc.lft.to/lastmile_qr_scan", "ios": "https://dc.lft.to/lastmile_qr_scan"}, "name": "af71844374a7fbd2114d8b656ad992cb", "is_reserved": 0}, {"is_disabled": 0, "fusion_lon": 0.0, "fusion_lat": 0.0, "lat": 38.92986333333333, "type": "electric_scooter", "lon": -77.03473416666667, "bike_id": "43695a40b1fe0d4632fe662db14adb34", "rental_uris": {"android": "https://dc.lft.to/lastmile_qr_scan", "ios": "https://dc.lft.to/lastmile_qr_scan"}, "name": "43695a40b1fe0d4632fe662db14adb34", "is_reserved": 0}, {"is_disabled": 0, "fusion_lon": 0.0, "fusion_lat": 0.0, "lat": 38.92479633333333, "type": "electric_scooter", "lon": -77.02709333333334, "bike_id": "5b0376a18468883278708ae3afc1f4fe", "rental_uris": {"android": "https://dc.lft.to/lastmile_qr_scan", "ios": "https://dc.lft.to/lastmile_qr_scan"}, "name": "5b0376a18468883278708ae3afc1f4fe", "is_reserved": 0}, {"is_disabled": 0, "fusion_lon": 0.0, "fusion_lat": 0.0, "lat": 38.940365666666665, "type": "electric_scooter", "lon": -77.02903933333333, "bike_id": "7d5fde16524fe2343d9ad1be43de2955", "rental_uris": {"android": "https://dc.lft.to/lastmile_qr_scan", "ios": "https://dc.lft.to/lastmile_qr_scan"}, "name": "7d5fde16524fe2343d9ad1be43de2955", "is_reserved": 0}, {"is_disabled": 0, "fusion_lon": 0.0, "fusion_lat": 0.0, "lat": 38.898323833333336, "type": "electric_scooter", "lon": -76.98051233333334, "bike_id": "95ad4aef2a7d02e1caf6a1d96df2cb08", "rental_uris": {"android": "https://dc.lft.to/lastmile_qr_scan", "ios": "https://dc.lft.to/lastmile_qr_scan"}, "name": "95ad4aef2a7d02e1caf6a1d96df2cb08", "is_reserved": 0}, {"is_disabled": 0, "fusion_lon": 0.0, "fusion_lat": 0.0, "lat": 38.9168375, "type": "electric_scooter", "lon": -77.0258955, "bike_id": "5a3936d810c49ef2db4ca17b5b55b1c4", "rental_uris": {"android": "https://dc.lft.to/lastmile_qr_scan", "ios": "https://dc.lft.to/lastmile_qr_scan"}, "name": "5a3936d810c49ef2db4ca17b5b55b1c4", "is_reserved": 0}, {"is_disabled": 0, "fusion_lon": 0.0, "fusion_lat": 0.0, "lat": 38.90384816666667, "type": "electric_scooter", "lon": -76.9900205, "bike_id": "d4bd4222a048e8853e221625e9cff5d8", "rental_uris": {"android": "https://dc.lft.to/lastmile_qr_scan", "ios": "https://dc.lft.to/lastmile_qr_scan"}, "name": "d4bd4222a048e8853e221625e9cff5d8", "is_reserved": 0}, {"is_disabled": 0, "fusion_lon": 0.0, "fusion_lat": 0.0, "lat": 38.909704833333336, "type": "electric_scooter", "lon": -77.0362665, "bike_id": "e2d179e5f7229d53f2d43e5eb09cf970", "rental_uris": {"android": "https://dc.lft.to/lastmile_qr_scan", "ios": "https://dc.lft.to/lastmile_qr_scan"}, "name": "e2d179e5f7229d53f2d43e5eb09cf970", "is_reserved": 0}, {"is_disabled": 0, "fusion_lon": 0.0, "fusion_lat": 0.0, "lat": 38.86948533333333, "type": "electric_scooter", "lon": -76.9759235, "bike_id": "9d87f892e0cfb18b2bf152313bfe05be", "rental_uris": {"android": "https://dc.lft.to/lastmile_qr_scan", "ios": "https://dc.lft.to/lastmile_qr_scan"}, "name": "9d87f892e0cfb18b2bf152313bfe05be", "is_reserved": 0}, {"is_disabled": 0, "fusion_lon": 0.0, "fusion_lat": 0.0, "lat": 38.905555166666666, "type": "electric_scooter", "lon": -77.0179105, "bike_id": "ab7c9738b6672f4e2dc977f2cef6e8ed", "rental_uris": {"android": "https://dc.lft.to/lastmile_qr_scan", "ios": "https://dc.lft.to/lastmile_qr_scan"}, "name": "ab7c9738b6672f4e2dc977f2cef6e8ed", "is_reserved": 0}, {"is_disabled": 0, "fusion_lon": 0.0, "fusion_lat": 0.0, "lat": 38.94619, "type": "electric_bike", "lon": -76.93411033333334, "bike_id": "5697790eb51523f45c63bb9c23a92088", "rental_uris": {"android": "https://dc.lft.to/lastmile_qr_scan", "ios": "https://dc.lft.to/lastmile_qr_scan"}, "name": "5697790eb51523f45c63bb9c23a92088", "is_reserved": 0}, {"is_disabled": 0, "fusion_lon": 0.0, "fusion_lat": 0.0, "lat": 38.89824183333333, "type": "electric_scooter", "lon": -76.94652883333333, "bike_id": "899aea1d582e3761a0a11aae6fbab680", "rental_uris": {"android": "https://dc.lft.to/lastmile_qr_scan", "ios": "https://dc.lft.to/lastmile_qr_scan"}, "name": "899aea1d582e3761a0a11aae6fbab680", "is_reserved": 0}, {"is_disabled": 0, "fusion_lon": 0.0, "fusion_lat": 0.0, "lat": 39.0958685, "type": "electric_bike", "lon": -77.147782, "bike_id": "bc52d45bbc32e7e4814e081e63b8bdcd", "rental_uris": {"android": "https://dc.lft.to/lastmile_qr_scan", "ios": "https://dc.lft.to/lastmile_qr_scan"}, "name": "bc52d45bbc32e7e4814e081e63b8bdcd", "is_reserved": 0}, {"is_disabled": 0, "fusion_lon": 0.0, "fusion_lat": 0.0, "lat": 38.91555533333333, "type": "electric_scooter", "lon": -77.02045566666666, "bike_id": "92aa93d8ead34677fc6dff498673495d", "rental_uris": {"android": "https://dc.lft.to/lastmile_qr_scan", "ios": "https://dc.lft.to/lastmile_qr_scan"}, "name": "92aa93d8ead34677fc6dff498673495d", "is_reserved": 0}, {"is_disabled": 0, "fusion_lon": 0.0, "fusion_lat": 0.0, "lat": 38.85554033333333, "type": "electric_bike", "lon": -77.10713, "bike_id": "abc4a2e1a99a8df39fe14d33a7ef70ac", "rental_uris": {"android": "https://dc.lft.to/lastmile_qr_scan", "ios": "https://dc.lft.to/lastmile_qr_scan"}, "name": "abc4a2e1a99a8df39fe14d33a7ef70ac", "is_reserved": 0}, {"is_disabled": 0, "fusion_lon": 0.0, "fusion_lat": 0.0, "lat": 38.91244483333333, "type": "electric_scooter", "lon": -77.041618, "bike_id": "0159a06c04ccf7f424c0beb357178bf0", "rental_uris": {"android": "https://dc.lft.to/lastmile_qr_scan", "ios": "https://dc.lft.to/lastmile_qr_scan"}, "name": "0159a06c04ccf7f424c0beb357178bf0", "is_reserved": 0}, {"is_disabled": 0, "fusion_lon": 0.0, "fusion_lat": 0.0, "lat": 38.91403666666667, "type": "electric_scooter", "lon": -77.026705, "bike_id": "d16f99ec41c7cfed821c62ac33e3abec", "rental_uris": {"android": "https://dc.lft.to/lastmile_qr_scan", "ios": "https://dc.lft.to/lastmile_qr_scan"}, "name": "d16f99ec41c7cfed821c62ac33e3abec", "is_reserved": 0}, {"is_disabled": 0, "fusion_lon": 0.0, "fusion_lat": 0.0, "lat": 38.93109616666667, "type": "electric_scooter", "lon": -77.03500066666666, "bike_id": "8fdf5a8ecd35c6caf164a9039e8dee09", "rental_uris": {"android": "https://dc.lft.to/lastmile_qr_scan", "ios": "https://dc.lft.to/lastmile_qr_scan"}, "name": "8fdf5a8ecd35c6caf164a9039e8dee09", "is_reserved": 0}, {"is_disabled": 0, "fusion_lon": 0.0, "fusion_lat": 0.0, "lat": 38.999302666666665, "type": "electric_bike", "lon": -77.00126966666667, "bike_id": "ddd86032488ff2db5ee532a3cb680ba6", "rental_uris": {"android": "https://dc.lft.to/lastmile_qr_scan", "ios": "https://dc.lft.to/lastmile_qr_scan"}, "name": "ddd86032488ff2db5ee532a3cb680ba6", "is_reserved": 0}, {"is_disabled": 0, "fusion_lon": 0.0, "fusion_lat": 0.0, "lat": 38.8949545, "type": "electric_scooter", "lon": -76.94876083333334, "bike_id": "5e749b020bc56928419bf06a528b5c2e", "rental_uris": {"android": "https://dc.lft.to/lastmile_qr_scan", "ios": "https://dc.lft.to/lastmile_qr_scan"}, "name": "5e749b020bc56928419bf06a528b5c2e", "is_reserved": 0}, {"is_disabled": 0, "fusion_lon": 0.0, "fusion_lat": 0.0, "lat": 38.919332833333335, "type": "electric_scooter", "lon": -77.08129266666667, "bike_id": "8db7956628b59a53bbab1763f07adf0c", "rental_uris": {"android": "https://dc.lft.to/lastmile_qr_scan", "ios": "https://dc.lft.to/lastmile_qr_scan"}, "name": "8db7956628b59a53bbab1763f07adf0c", "is_reserved": 0}, {"is_disabled": 0, "fusion_lon": 0.0, "fusion_lat": 0.0, "lat": 38.88003916666667, "type": "electric_scooter", "lon": -76.93111966666666, "bike_id": "2527a436b933b606b1dfc0090c5aacf4", "rental_uris": {"android": "https://dc.lft.to/lastmile_qr_scan", "ios": "https://dc.lft.to/lastmile_qr_scan"}, "name": "2527a436b933b606b1dfc0090c5aacf4", "is_reserved": 0}, {"is_disabled": 0, "fusion_lon": 0.0, "fusion_lat": 0.0, "lat": 38.90703333333333, "type": "electric_scooter", "lon": -77.02385833333334, "bike_id": "a8d8adcdb278ef4dd9340f573fb58673", "rental_uris": {"android": "https://dc.lft.to/lastmile_qr_scan", "ios": "https://dc.lft.to/lastmile_qr_scan"}, "name": "a8d8adcdb278ef4dd9340f573fb58673", "is_reserved": 0}, {"is_disabled": 0, "fusion_lon": 0.0, "fusion_lat": 0.0, "lat": 38.923381, "type": "electric_scooter", "lon": -77.0401595, "bike_id": "e8a3404e7430917db741988234c041ae", "rental_uris": {"android": "https://dc.lft.to/lastmile_qr_scan", "ios": "https://dc.lft.to/lastmile_qr_scan"}, "name": "e8a3404e7430917db741988234c041ae", "is_reserved": 0}, {"is_disabled": 0, "fusion_lon": 0.0, "fusion_lat": 0.0, "lat": 38.87545133333333, "type": "electric_scooter", "lon": -77.004651, "bike_id": "ab115d17ac9e07f6b1fa53adee20b078", "rental_uris": {"android": "https://dc.lft.to/lastmile_qr_scan", "ios": "https://dc.lft.to/lastmile_qr_scan"}, "name": "ab115d17ac9e07f6b1fa53adee20b078", "is_reserved": 0}, {"is_disabled": 0, "fusion_lon": 0.0, "fusion_lat": 0.0, "lat": 38.91113466666667, "type": "electric_scooter", "lon": -77.0435925, "bike_id": "f23595c7b90b52f9eb632986441a4ad1", "rental_uris": {"android": "https://dc.lft.to/lastmile_qr_scan", "ios": "https://dc.lft.to/lastmile_qr_scan"}, "name": "f23595c7b90b52f9eb632986441a4ad1", "is_reserved": 0}, {"is_disabled": 0, "fusion_lon": 0.0, "fusion_lat": 0.0, "lat": 38.97052683333333, "type": "electric_bike", "lon": -76.96062833333333, "bike_id": "c91b9b59f2ecb8beb1463cb12abacc17", "rental_uris": {"android": "https://dc.lft.to/lastmile_qr_scan", "ios": "https://dc.lft.to/lastmile_qr_scan"}, "name": "c91b9b59f2ecb8beb1463cb12abacc17", "is_reserved": 0}, {"is_disabled": 0, "fusion_lon": 0.0, "fusion_lat": 0.0, "lat": 38.90541016666667, "type": "electric_scooter", "lon": -77.04337083333333, "bike_id": "d8474e152a8641b0a6330e6f846e2e8f", "rental_uris": {"android": "https://dc.lft.to/lastmile_qr_scan", "ios": "https://dc.lft.to/lastmile_qr_scan"}, "name": "d8474e152a8641b0a6330e6f846e2e8f", "is_reserved": 0}, {"is_disabled": 0, "fusion_lon": 0.0, "fusion_lat": 0.0, "lat": 38.887574666666666, "type": "electric_scooter", "lon": -76.9891185, "bike_id": "14d92ca8b40127b6646569f407e73580", "rental_uris": {"android": "https://dc.lft.to/lastmile_qr_scan", "ios": "https://dc.lft.to/lastmile_qr_scan"}, "name": "14d92ca8b40127b6646569f407e73580", "is_reserved": 0}, {"is_disabled": 0, "fusion_lon": 0.0, "fusion_lat": 0.0, "lat": 38.899176833333335, "type": "electric_scooter", "lon": -76.99156716666667, "bike_id": "42bc7c61f1c1ee13ef9f9532a60d3bd0", "rental_uris": {"android": "https://dc.lft.to/lastmile_qr_scan", "ios": "https://dc.lft.to/lastmile_qr_scan"}, "name": "42bc7c61f1c1ee13ef9f9532a60d3bd0", "is_reserved": 0}, {"is_disabled": 0, "fusion_lon": 0.0, "fusion_lat": 0.0, "lat": 38.88748066666667, "type": "electric_scooter", "lon": -77.00225333333333, "bike_id": "3364fbaae520746b167424a169b7c7c1", "rental_uris": {"android": "https://dc.lft.to/lastmile_qr_scan", "ios": "https://dc.lft.to/lastmile_qr_scan"}, "name": "3364fbaae520746b167424a169b7c7c1", "is_reserved": 0}, {"is_disabled": 0, "fusion_lon": 0.0, "fusion_lat": 0.0, "lat": 38.922905166666666, "type": "electric_scooter", "lon": -77.04144516666666, "bike_id": "6f9d96d9ab7b9643630c018d1d86ecb5", "rental_uris": {"android": "https://dc.lft.to/lastmile_qr_scan", "ios": "https://dc.lft.to/lastmile_qr_scan"}, "name": "6f9d96d9ab7b9643630c018d1d86ecb5", "is_reserved": 0}, {"is_disabled": 0, "fusion_lon": 0.0, "fusion_lat": 0.0, "lat": 38.91730666666667, "type": "electric_scooter", "lon": -76.99179466666666, "bike_id": "ca038eec447c2159bed4c5e4f3450bb1", "rental_uris": {"android": "https://dc.lft.to/lastmile_qr_scan", "ios": "https://dc.lft.to/lastmile_qr_scan"}, "name": "ca038eec447c2159bed4c5e4f3450bb1", "is_reserved": 0}, {"is_disabled": 0, "fusion_lon": 0.0, "fusion_lat": 0.0, "lat": 38.926022333333336, "type": "electric_scooter", "lon": -76.9820325, "bike_id": "6ea9ac06c25b8528f8bc94936fd26778", "rental_uris": {"android": "https://dc.lft.to/lastmile_qr_scan", "ios": "https://dc.lft.to/lastmile_qr_scan"}, "name": "6ea9ac06c25b8528f8bc94936fd26778", "is_reserved": 0}, {"is_disabled": 0, "fusion_lon": 0.0, "fusion_lat": 0.0, "lat": 38.947699, "type": "electric_bike", "lon": -76.97219583333333, "bike_id": "2a574e4f810512700a22d65d6502e4fd", "rental_uris": {"android": "https://dc.lft.to/lastmile_qr_scan", "ios": "https://dc.lft.to/lastmile_qr_scan"}, "name": "2a574e4f810512700a22d65d6502e4fd", "is_reserved": 0}, {"is_disabled": 0, "fusion_lon": 0.0, "fusion_lat": 0.0, "lat": 38.95295633333333, "type": "electric_scooter", "lon": -77.03585716666667, "bike_id": "4d2b1cea57f2c9da8678ef5c72644e17", "rental_uris": {"android": "https://dc.lft.to/lastmile_qr_scan", "ios": "https://dc.lft.to/lastmile_qr_scan"}, "name": "4d2b1cea57f2c9da8678ef5c72644e17", "is_reserved": 0}, {"is_disabled": 0, "fusion_lon": 0.0, "fusion_lat": 0.0, "lat": 38.925976, "type": "electric_scooter", "lon": -77.0215445, "bike_id": "8f76107f7c5b6d3c0434acf002ab0388", "rental_uris": {"android": "https://dc.lft.to/lastmile_qr_scan", "ios": "https://dc.lft.to/lastmile_qr_scan"}, "name": "8f76107f7c5b6d3c0434acf002ab0388", "is_reserved": 0}, {"is_disabled": 0, "fusion_lon": 0.0, "fusion_lat": 0.0, "lat": 38.91494816666667, "type": "electric_scooter", "lon": -77.012193, "bike_id": "907f300fb75ac2c4583ea097b53e6eca", "rental_uris": {"android": "https://dc.lft.to/lastmile_qr_scan", "ios": "https://dc.lft.to/lastmile_qr_scan"}, "name": "907f300fb75ac2c4583ea097b53e6eca", "is_reserved": 0}, {"is_disabled": 0, "fusion_lon": 0.0, "fusion_lat": 0.0, "lat": 38.872321666666664, "type": "electric_scooter", "lon": -77.00571333333333, "bike_id": "d4ef2cbdf2b3514749030c536d0cda14", "rental_uris": {"android": "https://dc.lft.to/lastmile_qr_scan", "ios": "https://dc.lft.to/lastmile_qr_scan"}, "name": "d4ef2cbdf2b3514749030c536d0cda14", "is_reserved": 0}, {"is_disabled": 0, "fusion_lon": 0.0, "fusion_lat": 0.0, "lat": 38.893541166666665, "type": "electric_scooter", "lon": -77.0221965, "bike_id": "70787f27fa7982b6af0c637fc111d74d", "rental_uris": {"android": "https://dc.lft.to/lastmile_qr_scan", "ios": "https://dc.lft.to/lastmile_qr_scan"}, "name": "70787f27fa7982b6af0c637fc111d74d", "is_reserved": 0}, {"is_disabled": 0, "fusion_lon": 0.0, "fusion_lat": 0.0, "lat": 38.911160833333334, "type": "electric_scooter", "lon": -77.04716683333334, "bike_id": "9eb41cd16e63d54df3523b92f5d3cd41", "rental_uris": {"android": "https://dc.lft.to/lastmile_qr_scan", "ios": "https://dc.lft.to/lastmile_qr_scan"}, "name": "9eb41cd16e63d54df3523b92f5d3cd41", "is_reserved": 0}, {"is_disabled": 0, "fusion_lon": 0.0, "fusion_lat": 0.0, "lat": 38.929714833333335, "type": "electric_scooter", "lon": -77.03469816666667, "bike_id": "10d2e8d79fceb4139d0b34c1ff830da5", "rental_uris": {"android": "https://dc.lft.to/lastmile_qr_scan", "ios": "https://dc.lft.to/lastmile_qr_scan"}, "name": "10d2e8d79fceb4139d0b34c1ff830da5", "is_reserved": 0}, {"is_disabled": 0, "fusion_lon": 0.0, "fusion_lat": 0.0, "lat": 38.9284065, "type": "electric_scooter", "lon": -77.01410033333333, "bike_id": "9fe52e665f2b413b9fe54946a1ba9cef", "rental_uris": {"android": "https://dc.lft.to/lastmile_qr_scan", "ios": "https://dc.lft.to/lastmile_qr_scan"}, "name": "9fe52e665f2b413b9fe54946a1ba9cef", "is_reserved": 0}, {"is_disabled": 0, "fusion_lon": 0.0, "fusion_lat": 0.0, "lat": 38.91570383333333, "type": "electric_scooter", "lon": -76.98108466666666, "bike_id": "b4e5fd8a4e0b4221839ff250fce25e0a", "rental_uris": {"android": "https://dc.lft.to/lastmile_qr_scan", "ios": "https://dc.lft.to/lastmile_qr_scan"}, "name": "b4e5fd8a4e0b4221839ff250fce25e0a", "is_reserved": 0}, {"is_disabled": 0, "fusion_lon": 0.0, "fusion_lat": 0.0, "lat": 38.859167166666666, "type": "electric_scooter", "lon": -76.987773, "bike_id": "f9a729276ac8a1a8c49a8444a736c444", "rental_uris": {"android": "https://dc.lft.to/lastmile_qr_scan", "ios": "https://dc.lft.to/lastmile_qr_scan"}, "name": "f9a729276ac8a1a8c49a8444a736c444", "is_reserved": 0}, {"is_disabled": 0, "fusion_lon": 0.0, "fusion_lat": 0.0, "lat": 38.924518166666665, "type": "electric_scooter", "lon": -77.050802, "bike_id": "527c8f26d35b06b012f80166e40c8560", "rental_uris": {"android": "https://dc.lft.to/lastmile_qr_scan", "ios": "https://dc.lft.to/lastmile_qr_scan"}, "name": "527c8f26d35b06b012f80166e40c8560", "is_reserved": 0}, {"is_disabled": 0, "fusion_lon": 0.0, "fusion_lat": 0.0, "lat": 38.87634933333333, "type": "electric_scooter", "lon": -77.0163205, "bike_id": "9ee892a3de418f92179940af191e143a", "rental_uris": {"android": "https://dc.lft.to/lastmile_qr_scan", "ios": "https://dc.lft.to/lastmile_qr_scan"}, "name": "9ee892a3de418f92179940af191e143a", "is_reserved": 0}, {"is_disabled": 0, "fusion_lon": 0.0, "fusion_lat": 0.0, "lat": 38.91267833333333, "type": "electric_scooter", "lon": -77.02234316666667, "bike_id": "ed45faabffcb504584c68035b4970bd1", "rental_uris": {"android": "https://dc.lft.to/lastmile_qr_scan", "ios": "https://dc.lft.to/lastmile_qr_scan"}, "name": "ed45faabffcb504584c68035b4970bd1", "is_reserved": 0}, {"is_disabled": 0, "fusion_lon": 0.0, "fusion_lat": 0.0, "lat": 38.92644466666667, "type": "electric_scooter", "lon": -77.0432705, "bike_id": "95fc51ca98b9608f5711fc83b0d24b01", "rental_uris": {"android": "https://dc.lft.to/lastmile_qr_scan", "ios": "https://dc.lft.to/lastmile_qr_scan"}, "name": "95fc51ca98b9608f5711fc83b0d24b01", "is_reserved": 0}, {"is_disabled": 0, "fusion_lon": 0.0, "fusion_lat": 0.0, "lat": 38.91546233333333, "type": "electric_scooter", "lon": -77.0307745, "bike_id": "8b85a4187ddbd9d9b35ff569004ef01a", "rental_uris": {"android": "https://dc.lft.to/lastmile_qr_scan", "ios": "https://dc.lft.to/lastmile_qr_scan"}, "name": "8b85a4187ddbd9d9b35ff569004ef01a", "is_reserved": 0}, {"is_disabled": 0, "fusion_lon": 0.0, "fusion_lat": 0.0, "lat": 38.905604, "type": "electric_scooter", "lon": -77.018891, "bike_id": "e6a3363a70e126d78be750aa4edb422b", "rental_uris": {"android": "https://dc.lft.to/lastmile_qr_scan", "ios": "https://dc.lft.to/lastmile_qr_scan"}, "name": "e6a3363a70e126d78be750aa4edb422b", "is_reserved": 0}, {"is_disabled": 0, "fusion_lon": 0.0, "fusion_lat": 0.0, "lat": 38.890126, "type": "electric_scooter", "lon": -76.93733416666667, "bike_id": "764026e6f658741cf9a20c3f1e634f12", "rental_uris": {"android": "https://dc.lft.to/lastmile_qr_scan", "ios": "https://dc.lft.to/lastmile_qr_scan"}, "name": "764026e6f658741cf9a20c3f1e634f12", "is_reserved": 0}, {"is_disabled": 0, "fusion_lon": 0.0, "fusion_lat": 0.0, "lat": 38.8443225, "type": "electric_scooter", "lon": -76.997835, "bike_id": "fb5df29871d76f1f6e249886b687ba1a", "rental_uris": {"android": "https://dc.lft.to/lastmile_qr_scan", "ios": "https://dc.lft.to/lastmile_qr_scan"}, "name": "fb5df29871d76f1f6e249886b687ba1a", "is_reserved": 0}, {"is_disabled": 0, "fusion_lon": 0.0, "fusion_lat": 0.0, "lat": 38.92129583333333, "type": "electric_scooter", "lon": -77.04421133333334, "bike_id": "e0a84919af5c5f72dfcc9a4cdf6eb07b", "rental_uris": {"android": "https://dc.lft.to/lastmile_qr_scan", "ios": "https://dc.lft.to/lastmile_qr_scan"}, "name": "e0a84919af5c5f72dfcc9a4cdf6eb07b", "is_reserved": 0}, {"is_disabled": 0, "fusion_lon": 0.0, "fusion_lat": 0.0, "lat": 38.909530833333335, "type": "electric_scooter", "lon": -77.02492366666667, "bike_id": "5f6af8bf7e89f1d4109a620412f3a73a", "rental_uris": {"android": "https://dc.lft.to/lastmile_qr_scan", "ios": "https://dc.lft.to/lastmile_qr_scan"}, "name": "5f6af8bf7e89f1d4109a620412f3a73a", "is_reserved": 0}, {"is_disabled": 0, "fusion_lon": 0.0, "fusion_lat": 0.0, "lat": 38.920903833333334, "type": "electric_scooter", "lon": -77.02592533333333, "bike_id": "353ffed1de06921ce1591a7c7f9ead1d", "rental_uris": {"android": "https://dc.lft.to/lastmile_qr_scan", "ios": "https://dc.lft.to/lastmile_qr_scan"}, "name": "353ffed1de06921ce1591a7c7f9ead1d", "is_reserved": 0}, {"is_disabled": 0, "fusion_lon": 0.0, "fusion_lat": 0.0, "lat": 38.887364833333336, "type": "electric_scooter", "lon": -76.97888783333333, "bike_id": "23a8c3fba838b2fa94eaaa3516334fd2", "rental_uris": {"android": "https://dc.lft.to/lastmile_qr_scan", "ios": "https://dc.lft.to/lastmile_qr_scan"}, "name": "23a8c3fba838b2fa94eaaa3516334fd2", "is_reserved": 0}, {"is_disabled": 0, "fusion_lon": 0.0, "fusion_lat": 0.0, "lat": 38.89737983333333, "type": "electric_scooter", "lon": -77.04678716666666, "bike_id": "96939a2cdcc8eb5c16b3df0fc4b88973", "rental_uris": {"android": "https://dc.lft.to/lastmile_qr_scan", "ios": "https://dc.lft.to/lastmile_qr_scan"}, "name": "96939a2cdcc8eb5c16b3df0fc4b88973", "is_reserved": 0}, {"is_disabled": 0, "fusion_lon": 0.0, "fusion_lat": 0.0, "lat": 38.86622233333333, "type": "electric_scooter", "lon": -76.98716283333333, "bike_id": "a9d8fa581684779d821ca366f42561ac", "rental_uris": {"android": "https://dc.lft.to/lastmile_qr_scan", "ios": "https://dc.lft.to/lastmile_qr_scan"}, "name": "a9d8fa581684779d821ca366f42561ac", "is_reserved": 0}, {"is_disabled": 0, "fusion_lon": 0.0, "fusion_lat": 0.0, "lat": 38.87675866666667, "type": "electric_scooter", "lon": -77.01597233333334, "bike_id": "72b897d48bdb19f1517cd6992fb7fcca", "rental_uris": {"android": "https://dc.lft.to/lastmile_qr_scan", "ios": "https://dc.lft.to/lastmile_qr_scan"}, "name": "72b897d48bdb19f1517cd6992fb7fcca", "is_reserved": 0}, {"is_disabled": 0, "fusion_lon": 0.0, "fusion_lat": 0.0, "lat": 38.919234333333335, "type": "electric_scooter", "lon": -77.0342375, "bike_id": "a7a21d9f71a779e836b7baddae3fbc31", "rental_uris": {"android": "https://dc.lft.to/lastmile_qr_scan", "ios": "https://dc.lft.to/lastmile_qr_scan"}, "name": "a7a21d9f71a779e836b7baddae3fbc31", "is_reserved": 0}, {"is_disabled": 0, "fusion_lon": 0.0, "fusion_lat": 0.0, "lat": 38.880372666666666, "type": "electric_bike", "lon": -76.9901565, "bike_id": "02c32ae487ee83bc035a2fb503f7b645", "rental_uris": {"android": "https://dc.lft.to/lastmile_qr_scan", "ios": "https://dc.lft.to/lastmile_qr_scan"}, "name": "02c32ae487ee83bc035a2fb503f7b645", "is_reserved": 0}, {"is_disabled": 0, "fusion_lon": 0.0, "fusion_lat": 0.0, "lat": 38.91112, "type": "electric_scooter", "lon": -77.03614883333333, "bike_id": "88fdb202ba41d81abe4045fcc4ab6a6c", "rental_uris": {"android": "https://dc.lft.to/lastmile_qr_scan", "ios": "https://dc.lft.to/lastmile_qr_scan"}, "name": "88fdb202ba41d81abe4045fcc4ab6a6c", "is_reserved": 0}, {"is_disabled": 0, "fusion_lon": 0.0, "fusion_lat": 0.0, "lat": 38.842963166666664, "type": "electric_bike", "lon": -77.07641483333333, "bike_id": "e6bb2b28b2b74ec8a35479e93f503669", "rental_uris": {"android": "https://dc.lft.to/lastmile_qr_scan", "ios": "https://dc.lft.to/lastmile_qr_scan"}, "name": "e6bb2b28b2b74ec8a35479e93f503669", "is_reserved": 0}, {"is_disabled": 0, "fusion_lon": 0.0, "fusion_lat": 0.0, "lat": 38.924162, "type": "electric_scooter", "lon": -77.05069533333334, "bike_id": "a1e11473ee41b62177fcfef1bca0b9be", "rental_uris": {"android": "https://dc.lft.to/lastmile_qr_scan", "ios": "https://dc.lft.to/lastmile_qr_scan"}, "name": "a1e11473ee41b62177fcfef1bca0b9be", "is_reserved": 0}, {"is_disabled": 0, "fusion_lon": 0.0, "fusion_lat": 0.0, "lat": 38.9003615, "type": "electric_scooter", "lon": -77.011823, "bike_id": "423835061931ea268e023fa7dd83e90d", "rental_uris": {"android": "https://dc.lft.to/lastmile_qr_scan", "ios": "https://dc.lft.to/lastmile_qr_scan"}, "name": "423835061931ea268e023fa7dd83e90d", "is_reserved": 0}, {"is_disabled": 0, "fusion_lon": 0.0, "fusion_lat": 0.0, "lat": 38.898957, "type": "electric_scooter", "lon": -77.040352, "bike_id": "2d2a36a3ade0571ceeaf417a1612dcdf", "rental_uris": {"android": "https://dc.lft.to/lastmile_qr_scan", "ios": "https://dc.lft.to/lastmile_qr_scan"}, "name": "2d2a36a3ade0571ceeaf417a1612dcdf", "is_reserved": 0}, {"is_disabled": 0, "fusion_lon": 0.0, "fusion_lat": 0.0, "lat": 38.952197, "type": "electric_scooter", "lon": -77.0276045, "bike_id": "b37361e757c7f6d841c4b669b3c0971f", "rental_uris": {"android": "https://dc.lft.to/lastmile_qr_scan", "ios": "https://dc.lft.to/lastmile_qr_scan"}, "name": "b37361e757c7f6d841c4b669b3c0971f", "is_reserved": 0}, {"is_disabled": 0, "fusion_lon": 0.0, "fusion_lat": 0.0, "lat": 38.9142625, "type": "electric_scooter", "lon": -77.0281645, "bike_id": "0259915def15b64336dea2f4f7e1da3f", "rental_uris": {"android": "https://dc.lft.to/lastmile_qr_scan", "ios": "https://dc.lft.to/lastmile_qr_scan"}, "name": "0259915def15b64336dea2f4f7e1da3f", "is_reserved": 0}, {"is_disabled": 0, "fusion_lon": 0.0, "fusion_lat": 0.0, "lat": 38.92229533333333, "type": "electric_scooter", "lon": -77.02335633333334, "bike_id": "97644a678484cc94442be89155098bea", "rental_uris": {"android": "https://dc.lft.to/lastmile_qr_scan", "ios": "https://dc.lft.to/lastmile_qr_scan"}, "name": "97644a678484cc94442be89155098bea", "is_reserved": 0}, {"is_disabled": 0, "fusion_lon": 0.0, "fusion_lat": 0.0, "lat": 38.922569333333335, "type": "electric_scooter", "lon": -77.07131316666667, "bike_id": "fc24b0e6e4b316a1378367e78c137695", "rental_uris": {"android": "https://dc.lft.to/lastmile_qr_scan", "ios": "https://dc.lft.to/lastmile_qr_scan"}, "name": "fc24b0e6e4b316a1378367e78c137695", "is_reserved": 0}, {"is_disabled": 0, "fusion_lon": 0.0, "fusion_lat": 0.0, "lat": 38.8975815, "type": "electric_scooter", "lon": -76.99269666666666, "bike_id": "227842a81db0675b9642149d8c37f387", "rental_uris": {"android": "https://dc.lft.to/lastmile_qr_scan", "ios": "https://dc.lft.to/lastmile_qr_scan"}, "name": "227842a81db0675b9642149d8c37f387", "is_reserved": 0}, {"is_disabled": 0, "fusion_lon": 0.0, "fusion_lat": 0.0, "lat": 38.9132275, "type": "electric_scooter", "lon": -77.01501766666667, "bike_id": "053a3c3692827dd2b91fe8adc3628f46", "rental_uris": {"android": "https://dc.lft.to/lastmile_qr_scan", "ios": "https://dc.lft.to/lastmile_qr_scan"}, "name": "053a3c3692827dd2b91fe8adc3628f46", "is_reserved": 0}, {"is_disabled": 0, "fusion_lon": 0.0, "fusion_lat": 0.0, "lat": 38.907761, "type": "electric_scooter", "lon": -76.94130466666667, "bike_id": "6a19b764cae4be27a87c2cdc46c0eeca", "rental_uris": {"android": "https://dc.lft.to/lastmile_qr_scan", "ios": "https://dc.lft.to/lastmile_qr_scan"}, "name": "6a19b764cae4be27a87c2cdc46c0eeca", "is_reserved": 0}, {"is_disabled": 0, "fusion_lon": 0.0, "fusion_lat": 0.0, "lat": 38.919542166666666, "type": "electric_scooter", "lon": -77.00043616666666, "bike_id": "1e3c959d3e4232aff2437016dd1ad528", "rental_uris": {"android": "https://dc.lft.to/lastmile_qr_scan", "ios": "https://dc.lft.to/lastmile_qr_scan"}, "name": "1e3c959d3e4232aff2437016dd1ad528", "is_reserved": 0}, {"is_disabled": 0, "fusion_lon": 0.0, "fusion_lat": 0.0, "lat": 38.91480516666667, "type": "electric_scooter", "lon": -77.04293266666667, "bike_id": "42c38b86417d7ae718571a323047c618", "rental_uris": {"android": "https://dc.lft.to/lastmile_qr_scan", "ios": "https://dc.lft.to/lastmile_qr_scan"}, "name": "42c38b86417d7ae718571a323047c618", "is_reserved": 0}, {"is_disabled": 0, "fusion_lon": 0.0, "fusion_lat": 0.0, "lat": 38.91243683333333, "type": "electric_scooter", "lon": -77.041608, "bike_id": "c15b1c1c2f0ecbb57d380b21bb2432fe", "rental_uris": {"android": "https://dc.lft.to/lastmile_qr_scan", "ios": "https://dc.lft.to/lastmile_qr_scan"}, "name": "c15b1c1c2f0ecbb57d380b21bb2432fe", "is_reserved": 0}, {"is_disabled": 0, "fusion_lon": 0.0, "fusion_lat": 0.0, "lat": 38.9297105, "type": "electric_scooter", "lon": -77.03272183333333, "bike_id": "5883c8e76a79bcba5f57d51f27f83d5f", "rental_uris": {"android": "https://dc.lft.to/lastmile_qr_scan", "ios": "https://dc.lft.to/lastmile_qr_scan"}, "name": "5883c8e76a79bcba5f57d51f27f83d5f", "is_reserved": 0}, {"is_disabled": 0, "fusion_lon": 0.0, "fusion_lat": 0.0, "lat": 38.91082316666667, "type": "electric_scooter", "lon": -77.02403, "bike_id": "87c01cfb2d4feeffcb06193de4a2f8d3", "rental_uris": {"android": "https://dc.lft.to/lastmile_qr_scan", "ios": "https://dc.lft.to/lastmile_qr_scan"}, "name": "87c01cfb2d4feeffcb06193de4a2f8d3", "is_reserved": 0}, {"is_disabled": 0, "fusion_lon": 0.0, "fusion_lat": 0.0, "lat": 38.9166045, "type": "electric_scooter", "lon": -77.0271225, "bike_id": "f9b641e1f51bc1028edf0086e36f06db", "rental_uris": {"android": "https://dc.lft.to/lastmile_qr_scan", "ios": "https://dc.lft.to/lastmile_qr_scan"}, "name": "f9b641e1f51bc1028edf0086e36f06db", "is_reserved": 0}, {"is_disabled": 0, "fusion_lon": 0.0, "fusion_lat": 0.0, "lat": 38.909919333333335, "type": "electric_scooter", "lon": -77.0373885, "bike_id": "0e8081bc2a3c581f5d1b98f98a33f91f", "rental_uris": {"android": "https://dc.lft.to/lastmile_qr_scan", "ios": "https://dc.lft.to/lastmile_qr_scan"}, "name": "0e8081bc2a3c581f5d1b98f98a33f91f", "is_reserved": 0}, {"is_disabled": 0, "fusion_lon": 0.0, "fusion_lat": 0.0, "lat": 38.872872666666666, "type": "electric_scooter", "lon": -77.0098235, "bike_id": "66fead8cabd08861ef2518478b707c35", "rental_uris": {"android": "https://dc.lft.to/lastmile_qr_scan", "ios": "https://dc.lft.to/lastmile_qr_scan"}, "name": "66fead8cabd08861ef2518478b707c35", "is_reserved": 0}, {"is_disabled": 0, "fusion_lon": 0.0, "fusion_lat": 0.0, "lat": 38.943144833333335, "type": "electric_scooter", "lon": -77.085848, "bike_id": "de566cda051651553d6ef07f1264b711", "rental_uris": {"android": "https://dc.lft.to/lastmile_qr_scan", "ios": "https://dc.lft.to/lastmile_qr_scan"}, "name": "de566cda051651553d6ef07f1264b711", "is_reserved": 0}, {"is_disabled": 0, "fusion_lon": 0.0, "fusion_lat": 0.0, "lat": 38.892695833333335, "type": "electric_scooter", "lon": -76.93726283333334, "bike_id": "47e6d27162cbbea385e563898113f90d", "rental_uris": {"android": "https://dc.lft.to/lastmile_qr_scan", "ios": "https://dc.lft.to/lastmile_qr_scan"}, "name": "47e6d27162cbbea385e563898113f90d", "is_reserved": 0}, {"is_disabled": 0, "fusion_lon": 0.0, "fusion_lat": 0.0, "lat": 38.90423066666666, "type": "electric_scooter", "lon": -77.05143766666667, "bike_id": "817c948de24940e02cecd345635be6dc", "rental_uris": {"android": "https://dc.lft.to/lastmile_qr_scan", "ios": "https://dc.lft.to/lastmile_qr_scan"}, "name": "817c948de24940e02cecd345635be6dc", "is_reserved": 0}, {"is_disabled": 0, "fusion_lon": 0.0, "fusion_lat": 0.0, "lat": 38.88132816666667, "type": "electric_scooter", "lon": -77.01653066666667, "bike_id": "c8551f0005df3226d29c386a3df9667d", "rental_uris": {"android": "https://dc.lft.to/lastmile_qr_scan", "ios": "https://dc.lft.to/lastmile_qr_scan"}, "name": "c8551f0005df3226d29c386a3df9667d", "is_reserved": 0}, {"is_disabled": 0, "fusion_lon": 0.0, "fusion_lat": 0.0, "lat": 38.90388383333333, "type": "electric_scooter", "lon": -77.01619916666667, "bike_id": "c356e6687feae08928061b1516f9b9a0", "rental_uris": {"android": "https://dc.lft.to/lastmile_qr_scan", "ios": "https://dc.lft.to/lastmile_qr_scan"}, "name": "c356e6687feae08928061b1516f9b9a0", "is_reserved": 0}, {"is_disabled": 0, "fusion_lon": 0.0, "fusion_lat": 0.0, "lat": 38.915358499999996, "type": "electric_scooter", "lon": -77.01271266666667, "bike_id": "11c258ee6da95229041a822f714dbd84", "rental_uris": {"android": "https://dc.lft.to/lastmile_qr_scan", "ios": "https://dc.lft.to/lastmile_qr_scan"}, "name": "11c258ee6da95229041a822f714dbd84", "is_reserved": 0}, {"is_disabled": 0, "fusion_lon": 0.0, "fusion_lat": 0.0, "lat": 38.89845916666667, "type": "electric_scooter", "lon": -76.94493366666667, "bike_id": "a61314504b0e8ea9997d5b8f0aede0c9", "rental_uris": {"android": "https://dc.lft.to/lastmile_qr_scan", "ios": "https://dc.lft.to/lastmile_qr_scan"}, "name": "a61314504b0e8ea9997d5b8f0aede0c9", "is_reserved": 0}, {"is_disabled": 0, "fusion_lon": 0.0, "fusion_lat": 0.0, "lat": 39.0229015, "type": "electric_bike", "lon": -77.02098033333333, "bike_id": "f97dec4f85b5596d197fbc03abd43881", "rental_uris": {"android": "https://dc.lft.to/lastmile_qr_scan", "ios": "https://dc.lft.to/lastmile_qr_scan"}, "name": "f97dec4f85b5596d197fbc03abd43881", "is_reserved": 0}, {"is_disabled": 0, "fusion_lon": 0.0, "fusion_lat": 0.0, "lat": 38.895042333333336, "type": "electric_scooter", "lon": -77.02282266666667, "bike_id": "a4733fbf8d089ee82fa1b5f8a269c491", "rental_uris": {"android": "https://dc.lft.to/lastmile_qr_scan", "ios": "https://dc.lft.to/lastmile_qr_scan"}, "name": "a4733fbf8d089ee82fa1b5f8a269c491", "is_reserved": 0}, {"is_disabled": 0, "fusion_lon": 0.0, "fusion_lat": 0.0, "lat": 38.935469166666664, "type": "electric_scooter", "lon": -77.05904966666667, "bike_id": "b9653ed144a18b090a7ce80907ea206c", "rental_uris": {"android": "https://dc.lft.to/lastmile_qr_scan", "ios": "https://dc.lft.to/lastmile_qr_scan"}, "name": "b9653ed144a18b090a7ce80907ea206c", "is_reserved": 0}, {"is_disabled": 0, "fusion_lon": 0.0, "fusion_lat": 0.0, "lat": 38.865202, "type": "electric_scooter", "lon": -76.98967233333333, "bike_id": "d1152ee8ae7350afaa19507ecc6005b6", "rental_uris": {"android": "https://dc.lft.to/lastmile_qr_scan", "ios": "https://dc.lft.to/lastmile_qr_scan"}, "name": "d1152ee8ae7350afaa19507ecc6005b6", "is_reserved": 0}, {"is_disabled": 0, "fusion_lon": 0.0, "fusion_lat": 0.0, "lat": 38.90011833333333, "type": "electric_scooter", "lon": -77.04481366666667, "bike_id": "5bd3de63284041b424c6013a42b4005b", "rental_uris": {"android": "https://dc.lft.to/lastmile_qr_scan", "ios": "https://dc.lft.to/lastmile_qr_scan"}, "name": "5bd3de63284041b424c6013a42b4005b", "is_reserved": 0}, {"is_disabled": 0, "fusion_lon": 0.0, "fusion_lat": 0.0, "lat": 38.90308816666667, "type": "electric_scooter", "lon": -77.04715983333334, "bike_id": "670647c1183de861369c1b21ac36e50a", "rental_uris": {"android": "https://dc.lft.to/lastmile_qr_scan", "ios": "https://dc.lft.to/lastmile_qr_scan"}, "name": "670647c1183de861369c1b21ac36e50a", "is_reserved": 0}, {"is_disabled": 0, "fusion_lon": 0.0, "fusion_lat": 0.0, "lat": 38.91194333333333, "type": "electric_scooter", "lon": -77.041559, "bike_id": "6e49ff2f43b44090416947f42373243f", "rental_uris": {"android": "https://dc.lft.to/lastmile_qr_scan", "ios": "https://dc.lft.to/lastmile_qr_scan"}, "name": "6e49ff2f43b44090416947f42373243f", "is_reserved": 0}, {"is_disabled": 0, "fusion_lon": 0.0, "fusion_lat": 0.0, "lat": 38.9141395, "type": "electric_scooter", "lon": -77.03809566666666, "bike_id": "6ac5ce4469942fcea3484bbe2f29516c", "rental_uris": {"android": "https://dc.lft.to/lastmile_qr_scan", "ios": "https://dc.lft.to/lastmile_qr_scan"}, "name": "6ac5ce4469942fcea3484bbe2f29516c", "is_reserved": 0}, {"is_disabled": 0, "fusion_lon": 0.0, "fusion_lat": 0.0, "lat": 38.895490833333334, "type": "electric_scooter", "lon": -76.94877283333334, "bike_id": "6798a457cc4f4b2e00bcb72f57fadbef", "rental_uris": {"android": "https://dc.lft.to/lastmile_qr_scan", "ios": "https://dc.lft.to/lastmile_qr_scan"}, "name": "6798a457cc4f4b2e00bcb72f57fadbef", "is_reserved": 0}, {"is_disabled": 0, "fusion_lon": 0.0, "fusion_lat": 0.0, "lat": 38.912598, "type": "electric_scooter", "lon": -77.01127916666667, "bike_id": "b5b352c58bd553ad8aace0bec3e336f3", "rental_uris": {"android": "https://dc.lft.to/lastmile_qr_scan", "ios": "https://dc.lft.to/lastmile_qr_scan"}, "name": "b5b352c58bd553ad8aace0bec3e336f3", "is_reserved": 0}, {"is_disabled": 0, "fusion_lon": 0.0, "fusion_lat": 0.0, "lat": 38.92412183333333, "type": "electric_scooter", "lon": -77.05746533333334, "bike_id": "f9670d612276e6a02b2d4f6eddb72424", "rental_uris": {"android": "https://dc.lft.to/lastmile_qr_scan", "ios": "https://dc.lft.to/lastmile_qr_scan"}, "name": "f9670d612276e6a02b2d4f6eddb72424", "is_reserved": 0}, {"is_disabled": 0, "fusion_lon": 0.0, "fusion_lat": 0.0, "lat": 38.91468233333333, "type": "electric_scooter", "lon": -77.02192883333333, "bike_id": "4b389da6e79f085dda232bf92edf4bfc", "rental_uris": {"android": "https://dc.lft.to/lastmile_qr_scan", "ios": "https://dc.lft.to/lastmile_qr_scan"}, "name": "4b389da6e79f085dda232bf92edf4bfc", "is_reserved": 0}, {"is_disabled": 0, "fusion_lon": 0.0, "fusion_lat": 0.0, "lat": 38.912965666666665, "type": "electric_scooter", "lon": -77.031985, "bike_id": "d081c71ee4efcabb4419a239136a6acc", "rental_uris": {"android": "https://dc.lft.to/lastmile_qr_scan", "ios": "https://dc.lft.to/lastmile_qr_scan"}, "name": "d081c71ee4efcabb4419a239136a6acc", "is_reserved": 0}, {"is_disabled": 0, "fusion_lon": 0.0, "fusion_lat": 0.0, "lat": 38.905880333333336, "type": "electric_scooter", "lon": -77.00602816666667, "bike_id": "65914237c12f2f0eed921fc7c5ba4090", "rental_uris": {"android": "https://dc.lft.to/lastmile_qr_scan", "ios": "https://dc.lft.to/lastmile_qr_scan"}, "name": "65914237c12f2f0eed921fc7c5ba4090", "is_reserved": 0}, {"is_disabled": 0, "fusion_lon": 0.0, "fusion_lat": 0.0, "lat": 38.914279, "type": "electric_scooter", "lon": -77.02954416666667, "bike_id": "59536a8c0731cbc75903bd9d18878864", "rental_uris": {"android": "https://dc.lft.to/lastmile_qr_scan", "ios": "https://dc.lft.to/lastmile_qr_scan"}, "name": "59536a8c0731cbc75903bd9d18878864", "is_reserved": 0}, {"is_disabled": 0, "fusion_lon": 0.0, "fusion_lat": 0.0, "lat": 38.970493166666664, "type": "electric_bike", "lon": -77.0308625, "bike_id": "9f66db06e6ad28391376837420c35289", "rental_uris": {"android": "https://dc.lft.to/lastmile_qr_scan", "ios": "https://dc.lft.to/lastmile_qr_scan"}, "name": "9f66db06e6ad28391376837420c35289", "is_reserved": 0}, {"is_disabled": 0, "fusion_lon": 0.0, "fusion_lat": 0.0, "lat": 38.9601795, "type": "electric_bike", "lon": -77.04254466666667, "bike_id": "d40ad1d74610e7c112ae7ca8edf3cdd6", "rental_uris": {"android": "https://dc.lft.to/lastmile_qr_scan", "ios": "https://dc.lft.to/lastmile_qr_scan"}, "name": "d40ad1d74610e7c112ae7ca8edf3cdd6", "is_reserved": 0}, {"is_disabled": 0, "fusion_lon": 0.0, "fusion_lat": 0.0, "lat": 38.861463666666666, "type": "electric_scooter", "lon": -76.96821033333333, "bike_id": "eaf4bd50f38df01d4ef5b11a164a0fe6", "rental_uris": {"android": "https://dc.lft.to/lastmile_qr_scan", "ios": "https://dc.lft.to/lastmile_qr_scan"}, "name": "eaf4bd50f38df01d4ef5b11a164a0fe6", "is_reserved": 0}, {"is_disabled": 0, "fusion_lon": 0.0, "fusion_lat": 0.0, "lat": 38.89672983333333, "type": "electric_scooter", "lon": -76.976165, "bike_id": "29ae9386a115c8fadc325349359d0d2b", "rental_uris": {"android": "https://dc.lft.to/lastmile_qr_scan", "ios": "https://dc.lft.to/lastmile_qr_scan"}, "name": "29ae9386a115c8fadc325349359d0d2b", "is_reserved": 0}, {"is_disabled": 0, "fusion_lon": 0.0, "fusion_lat": 0.0, "lat": 38.928231, "type": "electric_scooter", "lon": -77.02151633333334, "bike_id": "4df3e0c05a180f61cdbe1d25a10acba8", "rental_uris": {"android": "https://dc.lft.to/lastmile_qr_scan", "ios": "https://dc.lft.to/lastmile_qr_scan"}, "name": "4df3e0c05a180f61cdbe1d25a10acba8", "is_reserved": 0}, {"is_disabled": 0, "fusion_lon": 0.0, "fusion_lat": 0.0, "lat": 38.8973705, "type": "electric_scooter", "lon": -77.0468115, "bike_id": "d64d8826bd33d4524dc434a35988d6a2", "rental_uris": {"android": "https://dc.lft.to/lastmile_qr_scan", "ios": "https://dc.lft.to/lastmile_qr_scan"}, "name": "d64d8826bd33d4524dc434a35988d6a2", "is_reserved": 0}, {"is_disabled": 0, "fusion_lon": 0.0, "fusion_lat": 0.0, "lat": 38.9002945, "type": "electric_scooter", "lon": -77.0559235, "bike_id": "953cdcec071459a344a2f33bad14656f", "rental_uris": {"android": "https://dc.lft.to/lastmile_qr_scan", "ios": "https://dc.lft.to/lastmile_qr_scan"}, "name": "953cdcec071459a344a2f33bad14656f", "is_reserved": 0}, {"is_disabled": 0, "fusion_lon": 0.0, "fusion_lat": 0.0, "lat": 38.91183633333333, "type": "electric_scooter", "lon": -77.03801733333333, "bike_id": "8fed84c7fb6a85ffce6bb33599bc0113", "rental_uris": {"android": "https://dc.lft.to/lastmile_qr_scan", "ios": "https://dc.lft.to/lastmile_qr_scan"}, "name": "8fed84c7fb6a85ffce6bb33599bc0113", "is_reserved": 0}, {"is_disabled": 0, "fusion_lon": 0.0, "fusion_lat": 0.0, "lat": 38.91807416666666, "type": "electric_scooter", "lon": -77.0271475, "bike_id": "30fabf4da38ce36833b75a015042a1df", "rental_uris": {"android": "https://dc.lft.to/lastmile_qr_scan", "ios": "https://dc.lft.to/lastmile_qr_scan"}, "name": "30fabf4da38ce36833b75a015042a1df", "is_reserved": 0}, {"is_disabled": 0, "fusion_lon": 0.0, "fusion_lat": 0.0, "lat": 38.90246333333333, "type": "electric_bike", "lon": -76.97012783333334, "bike_id": "4c07cd8538a430b527b2795f51f64019", "rental_uris": {"android": "https://dc.lft.to/lastmile_qr_scan", "ios": "https://dc.lft.to/lastmile_qr_scan"}, "name": "4c07cd8538a430b527b2795f51f64019", "is_reserved": 0}, {"is_disabled": 0, "fusion_lon": 0.0, "fusion_lat": 0.0, "lat": 38.91243433333333, "type": "electric_scooter", "lon": -77.03839983333333, "bike_id": "169f8f35b5b7a92c7c27cea7b9092465", "rental_uris": {"android": "https://dc.lft.to/lastmile_qr_scan", "ios": "https://dc.lft.to/lastmile_qr_scan"}, "name": "169f8f35b5b7a92c7c27cea7b9092465", "is_reserved": 0}, {"is_disabled": 0, "fusion_lon": 0.0, "fusion_lat": 0.0, "lat": 38.91837233333333, "type": "electric_scooter", "lon": -77.034484, "bike_id": "87a6a681701208a2ee01cb07b43aee61", "rental_uris": {"android": "https://dc.lft.to/lastmile_qr_scan", "ios": "https://dc.lft.to/lastmile_qr_scan"}, "name": "87a6a681701208a2ee01cb07b43aee61", "is_reserved": 0}, {"is_disabled": 0, "fusion_lon": 0.0, "fusion_lat": 0.0, "lat": 38.91662, "type": "electric_scooter", "lon": -77.0271215, "bike_id": "e703068553d7c64080deb8fa1a886b3f", "rental_uris": {"android": "https://dc.lft.to/lastmile_qr_scan", "ios": "https://dc.lft.to/lastmile_qr_scan"}, "name": "e703068553d7c64080deb8fa1a886b3f", "is_reserved": 0}, {"is_disabled": 0, "fusion_lon": 0.0, "fusion_lat": 0.0, "lat": 38.87622733333333, "type": "electric_scooter", "lon": -76.9653495, "bike_id": "02301cf56eb0c4e119e0fc014e76af94", "rental_uris": {"android": "https://dc.lft.to/lastmile_qr_scan", "ios": "https://dc.lft.to/lastmile_qr_scan"}, "name": "02301cf56eb0c4e119e0fc014e76af94", "is_reserved": 0}, {"is_disabled": 0, "fusion_lon": 0.0, "fusion_lat": 0.0, "lat": 38.9263675, "type": "electric_scooter", "lon": -77.03719016666666, "bike_id": "fe6a0d75714f09376d645945e9e6dd5f", "rental_uris": {"android": "https://dc.lft.to/lastmile_qr_scan", "ios": "https://dc.lft.to/lastmile_qr_scan"}, "name": "fe6a0d75714f09376d645945e9e6dd5f", "is_reserved": 0}, {"is_disabled": 0, "fusion_lon": 0.0, "fusion_lat": 0.0, "lat": 38.877213, "type": "electric_scooter", "lon": -77.01745833333334, "bike_id": "1f043fab16af9ec68de8bcd0a33a3cab", "rental_uris": {"android": "https://dc.lft.to/lastmile_qr_scan", "ios": "https://dc.lft.to/lastmile_qr_scan"}, "name": "1f043fab16af9ec68de8bcd0a33a3cab", "is_reserved": 0}, {"is_disabled": 0, "fusion_lon": 0.0, "fusion_lat": 0.0, "lat": 38.877243, "type": "electric_scooter", "lon": -77.01772983333333, "bike_id": "b997e87104fc78f79d20a44cf243a2b1", "rental_uris": {"android": "https://dc.lft.to/lastmile_qr_scan", "ios": "https://dc.lft.to/lastmile_qr_scan"}, "name": "b997e87104fc78f79d20a44cf243a2b1", "is_reserved": 0}, {"is_disabled": 0, "fusion_lon": 0.0, "fusion_lat": 0.0, "lat": 38.92374, "type": "electric_scooter", "lon": -77.05032233333333, "bike_id": "ba1aa8564365e15c51df23ee93fa6419", "rental_uris": {"android": "https://dc.lft.to/lastmile_qr_scan", "ios": "https://dc.lft.to/lastmile_qr_scan"}, "name": "ba1aa8564365e15c51df23ee93fa6419", "is_reserved": 0}, {"is_disabled": 0, "fusion_lon": 0.0, "fusion_lat": 0.0, "lat": 39.04118033333334, "type": "electric_bike", "lon": -76.98916483333333, "bike_id": "09924d7d1b1328669b0243a392d2d2bc", "rental_uris": {"android": "https://dc.lft.to/lastmile_qr_scan", "ios": "https://dc.lft.to/lastmile_qr_scan"}, "name": "09924d7d1b1328669b0243a392d2d2bc", "is_reserved": 0}, {"is_disabled": 0, "fusion_lon": 0.0, "fusion_lat": 0.0, "lat": 38.907360833333335, "type": "electric_scooter", "lon": -77.02181983333334, "bike_id": "25beb91360fc9e3b1ff4a0ce5b9746c7", "rental_uris": {"android": "https://dc.lft.to/lastmile_qr_scan", "ios": "https://dc.lft.to/lastmile_qr_scan"}, "name": "25beb91360fc9e3b1ff4a0ce5b9746c7", "is_reserved": 0}, {"is_disabled": 0, "fusion_lon": 0.0, "fusion_lat": 0.0, "lat": 38.9194525, "type": "electric_scooter", "lon": -77.02494066666667, "bike_id": "5d66af0a478e48c1065b920c4de65fc9", "rental_uris": {"android": "https://dc.lft.to/lastmile_qr_scan", "ios": "https://dc.lft.to/lastmile_qr_scan"}, "name": "5d66af0a478e48c1065b920c4de65fc9", "is_reserved": 0}, {"is_disabled": 0, "fusion_lon": 0.0, "fusion_lat": 0.0, "lat": 38.896909666666666, "type": "electric_bike", "lon": -77.04513816666666, "bike_id": "033ca279bee91aac642c20e829d6f050", "rental_uris": {"android": "https://dc.lft.to/lastmile_qr_scan", "ios": "https://dc.lft.to/lastmile_qr_scan"}, "name": "033ca279bee91aac642c20e829d6f050", "is_reserved": 0}, {"is_disabled": 0, "fusion_lon": 0.0, "fusion_lat": 0.0, "lat": 38.8903285, "type": "electric_scooter", "lon": -77.0298025, "bike_id": "c1574ab5e856a6f229d29b116fce51a2", "rental_uris": {"android": "https://dc.lft.to/lastmile_qr_scan", "ios": "https://dc.lft.to/lastmile_qr_scan"}, "name": "c1574ab5e856a6f229d29b116fce51a2", "is_reserved": 0}, {"is_disabled": 0, "fusion_lon": 0.0, "fusion_lat": 0.0, "lat": 38.94796683333333, "type": "electric_scooter", "lon": -77.03284766666667, "bike_id": "7a2c9d36df4f6a3ad0029641a090f13b", "rental_uris": {"android": "https://dc.lft.to/lastmile_qr_scan", "ios": "https://dc.lft.to/lastmile_qr_scan"}, "name": "7a2c9d36df4f6a3ad0029641a090f13b", "is_reserved": 0}, {"is_disabled": 0, "fusion_lon": 0.0, "fusion_lat": 0.0, "lat": 38.911099166666666, "type": "electric_scooter", "lon": -77.05044116666667, "bike_id": "fca91bc5c103f5bbe015cf92e6c82814", "rental_uris": {"android": "https://dc.lft.to/lastmile_qr_scan", "ios": "https://dc.lft.to/lastmile_qr_scan"}, "name": "fca91bc5c103f5bbe015cf92e6c82814", "is_reserved": 0}, {"is_disabled": 0, "fusion_lon": 0.0, "fusion_lat": 0.0, "lat": 38.91712233333333, "type": "electric_scooter", "lon": -77.0278445, "bike_id": "c1c62666f5cf9f4c9a29de88187b04dc", "rental_uris": {"android": "https://dc.lft.to/lastmile_qr_scan", "ios": "https://dc.lft.to/lastmile_qr_scan"}, "name": "c1c62666f5cf9f4c9a29de88187b04dc", "is_reserved": 0}, {"is_disabled": 0, "fusion_lon": 0.0, "fusion_lat": 0.0, "lat": 38.827784333333334, "type": "electric_bike", "lon": -77.11082316666666, "bike_id": "8ef131f42c7ec94c070c435ae9f99b3c", "rental_uris": {"android": "https://dc.lft.to/lastmile_qr_scan", "ios": "https://dc.lft.to/lastmile_qr_scan"}, "name": "8ef131f42c7ec94c070c435ae9f99b3c", "is_reserved": 0}, {"is_disabled": 0, "fusion_lon": 0.0, "fusion_lat": 0.0, "lat": 38.961884166666664, "type": "electric_scooter", "lon": -77.02788816666667, "bike_id": "0c162e6a12db0b4bfa74c1ff095feac9", "rental_uris": {"android": "https://dc.lft.to/lastmile_qr_scan", "ios": "https://dc.lft.to/lastmile_qr_scan"}, "name": "0c162e6a12db0b4bfa74c1ff095feac9", "is_reserved": 0}, {"is_disabled": 0, "fusion_lon": 0.0, "fusion_lat": 0.0, "lat": 38.8983445, "type": "electric_scooter", "lon": -76.94633083333333, "bike_id": "77a3cd7a3ae2687e16a373c2c4a34023", "rental_uris": {"android": "https://dc.lft.to/lastmile_qr_scan", "ios": "https://dc.lft.to/lastmile_qr_scan"}, "name": "77a3cd7a3ae2687e16a373c2c4a34023", "is_reserved": 0}, {"is_disabled": 0, "fusion_lon": 0.0, "fusion_lat": 0.0, "lat": 38.897359, "type": "electric_scooter", "lon": -77.00043983333333, "bike_id": "53f858e65cb88dd4e5d6f5179b0ab079", "rental_uris": {"android": "https://dc.lft.to/lastmile_qr_scan", "ios": "https://dc.lft.to/lastmile_qr_scan"}, "name": "53f858e65cb88dd4e5d6f5179b0ab079", "is_reserved": 0}, {"is_disabled": 0, "fusion_lon": 0.0, "fusion_lat": 0.0, "lat": 38.93025266666667, "type": "electric_scooter", "lon": -77.03447716666666, "bike_id": "f841fd2bad80406557ffcb58df9c744f", "rental_uris": {"android": "https://dc.lft.to/lastmile_qr_scan", "ios": "https://dc.lft.to/lastmile_qr_scan"}, "name": "f841fd2bad80406557ffcb58df9c744f", "is_reserved": 0}, {"is_disabled": 0, "fusion_lon": 0.0, "fusion_lat": 0.0, "lat": 38.939566666666664, "type": "electric_scooter", "lon": -77.03281983333333, "bike_id": "77c53a51be30b19a3e2688bdb5713d9f", "rental_uris": {"android": "https://dc.lft.to/lastmile_qr_scan", "ios": "https://dc.lft.to/lastmile_qr_scan"}, "name": "77c53a51be30b19a3e2688bdb5713d9f", "is_reserved": 0}, {"is_disabled": 0, "fusion_lon": 0.0, "fusion_lat": 0.0, "lat": 38.90724266666667, "type": "electric_scooter", "lon": -77.04221983333333, "bike_id": "26eff1efed3640803a8b9b66a48c1b4b", "rental_uris": {"android": "https://dc.lft.to/lastmile_qr_scan", "ios": "https://dc.lft.to/lastmile_qr_scan"}, "name": "26eff1efed3640803a8b9b66a48c1b4b", "is_reserved": 0}, {"is_disabled": 0, "fusion_lon": 0.0, "fusion_lat": 0.0, "lat": 38.91577733333333, "type": "electric_scooter", "lon": -77.04676616666667, "bike_id": "b1b8091066b48f8048c3736c5d8ff6f0", "rental_uris": {"android": "https://dc.lft.to/lastmile_qr_scan", "ios": "https://dc.lft.to/lastmile_qr_scan"}, "name": "b1b8091066b48f8048c3736c5d8ff6f0", "is_reserved": 0}, {"is_disabled": 0, "fusion_lon": 0.0, "fusion_lat": 0.0, "lat": 38.824419666666664, "type": "electric_bike", "lon": -77.07046483333333, "bike_id": "cdf6159797f277e0361112f40791910f", "rental_uris": {"android": "https://dc.lft.to/lastmile_qr_scan", "ios": "https://dc.lft.to/lastmile_qr_scan"}, "name": "cdf6159797f277e0361112f40791910f", "is_reserved": 0}, {"is_disabled": 0, "fusion_lon": 0.0, "fusion_lat": 0.0, "lat": 38.903707, "type": "electric_scooter", "lon": -77.0280935, "bike_id": "e531fa4c31ba45f2de04f5fae81af4b1", "rental_uris": {"android": "https://dc.lft.to/lastmile_qr_scan", "ios": "https://dc.lft.to/lastmile_qr_scan"}, "name": "e531fa4c31ba45f2de04f5fae81af4b1", "is_reserved": 0}, {"is_disabled": 0, "fusion_lon": 0.0, "fusion_lat": 0.0, "lat": 38.92338766666667, "type": "electric_scooter", "lon": -77.0505445, "bike_id": "ff4748e974fe1f9940e4c61ee8635f78", "rental_uris": {"android": "https://dc.lft.to/lastmile_qr_scan", "ios": "https://dc.lft.to/lastmile_qr_scan"}, "name": "ff4748e974fe1f9940e4c61ee8635f78", "is_reserved": 0}, {"is_disabled": 0, "fusion_lon": 0.0, "fusion_lat": 0.0, "lat": 38.930899833333335, "type": "electric_scooter", "lon": -77.02471533333333, "bike_id": "c882764f62a0f7f7a3574a93fddfdaa7", "rental_uris": {"android": "https://dc.lft.to/lastmile_qr_scan", "ios": "https://dc.lft.to/lastmile_qr_scan"}, "name": "c882764f62a0f7f7a3574a93fddfdaa7", "is_reserved": 0}, {"is_disabled": 0, "fusion_lon": 0.0, "fusion_lat": 0.0, "lat": 38.923632166666664, "type": "electric_scooter", "lon": -77.03099716666667, "bike_id": "3bc074729e2b5c1d468ea1ba13cc15ed", "rental_uris": {"android": "https://dc.lft.to/lastmile_qr_scan", "ios": "https://dc.lft.to/lastmile_qr_scan"}, "name": "3bc074729e2b5c1d468ea1ba13cc15ed", "is_reserved": 0}, {"is_disabled": 0, "fusion_lon": 0.0, "fusion_lat": 0.0, "lat": 38.89496616666667, "type": "electric_scooter", "lon": -77.00945166666666, "bike_id": "11e96976e92f6fcd0865d36d9f636823", "rental_uris": {"android": "https://dc.lft.to/lastmile_qr_scan", "ios": "https://dc.lft.to/lastmile_qr_scan"}, "name": "11e96976e92f6fcd0865d36d9f636823", "is_reserved": 0}, {"is_disabled": 0, "fusion_lon": 0.0, "fusion_lat": 0.0, "lat": 38.900398333333335, "type": "electric_scooter", "lon": -76.983217, "bike_id": "7b8577d99175e6d48a838091f20bff31", "rental_uris": {"android": "https://dc.lft.to/lastmile_qr_scan", "ios": "https://dc.lft.to/lastmile_qr_scan"}, "name": "7b8577d99175e6d48a838091f20bff31", "is_reserved": 0}, {"is_disabled": 0, "fusion_lon": 0.0, "fusion_lat": 0.0, "lat": 38.9213185, "type": "electric_scooter", "lon": -77.009558, "bike_id": "e6f2f06a151f831452797534ff75bb3b", "rental_uris": {"android": "https://dc.lft.to/lastmile_qr_scan", "ios": "https://dc.lft.to/lastmile_qr_scan"}, "name": "e6f2f06a151f831452797534ff75bb3b", "is_reserved": 0}, {"is_disabled": 0, "fusion_lon": 0.0, "fusion_lat": 0.0, "lat": 38.92988666666667, "type": "electric_scooter", "lon": -77.023985, "bike_id": "7c2535e7ccf44b34d1efba6ef1ef6735", "rental_uris": {"android": "https://dc.lft.to/lastmile_qr_scan", "ios": "https://dc.lft.to/lastmile_qr_scan"}, "name": "7c2535e7ccf44b34d1efba6ef1ef6735", "is_reserved": 0}, {"is_disabled": 0, "fusion_lon": 0.0, "fusion_lat": 0.0, "lat": 38.92292916666667, "type": "electric_scooter", "lon": -77.04302183333333, "bike_id": "4b44eb2050a81b422d50d6d40e178103", "rental_uris": {"android": "https://dc.lft.to/lastmile_qr_scan", "ios": "https://dc.lft.to/lastmile_qr_scan"}, "name": "4b44eb2050a81b422d50d6d40e178103", "is_reserved": 0}, {"is_disabled": 0, "fusion_lon": 0.0, "fusion_lat": 0.0, "lat": 38.90991533333333, "type": "electric_bike", "lon": -77.04622716666667, "bike_id": "f473c6f79207fe9f1774a5dfd11f6688", "rental_uris": {"android": "https://dc.lft.to/lastmile_qr_scan", "ios": "https://dc.lft.to/lastmile_qr_scan"}, "name": "f473c6f79207fe9f1774a5dfd11f6688", "is_reserved": 0}, {"is_disabled": 0, "fusion_lon": 0.0, "fusion_lat": 0.0, "lat": 38.91462416666667, "type": "electric_scooter", "lon": -77.03879466666666, "bike_id": "7767f3697e616106ee14971de80155d4", "rental_uris": {"android": "https://dc.lft.to/lastmile_qr_scan", "ios": "https://dc.lft.to/lastmile_qr_scan"}, "name": "7767f3697e616106ee14971de80155d4", "is_reserved": 0}, {"is_disabled": 0, "fusion_lon": 0.0, "fusion_lat": 0.0, "lat": 38.93496666666667, "type": "electric_scooter", "lon": -77.02408716666666, "bike_id": "828fad7c6f0f3b8c9a1ded1924e6571a", "rental_uris": {"android": "https://dc.lft.to/lastmile_qr_scan", "ios": "https://dc.lft.to/lastmile_qr_scan"}, "name": "828fad7c6f0f3b8c9a1ded1924e6571a", "is_reserved": 0}, {"is_disabled": 0, "fusion_lon": 0.0, "fusion_lat": 0.0, "lat": 38.8450465, "type": "electric_bike", "lon": -76.97215249999999, "bike_id": "b0dfde8b80f6270a2838926d4369aad3", "rental_uris": {"android": "https://dc.lft.to/lastmile_qr_scan", "ios": "https://dc.lft.to/lastmile_qr_scan"}, "name": "b0dfde8b80f6270a2838926d4369aad3", "is_reserved": 0}, {"is_disabled": 0, "fusion_lon": 0.0, "fusion_lat": 0.0, "lat": 38.88489633333333, "type": "electric_scooter", "lon": -77.017245, "bike_id": "964e680b7991bf07a18743842ef2bfb5", "rental_uris": {"android": "https://dc.lft.to/lastmile_qr_scan", "ios": "https://dc.lft.to/lastmile_qr_scan"}, "name": "964e680b7991bf07a18743842ef2bfb5", "is_reserved": 0}, {"is_disabled": 0, "fusion_lon": 0.0, "fusion_lat": 0.0, "lat": 38.90419833333333, "type": "electric_scooter", "lon": -77.04833083333334, "bike_id": "3fd3fe98bd6cfc00598f45b598436ba3", "rental_uris": {"android": "https://dc.lft.to/lastmile_qr_scan", "ios": "https://dc.lft.to/lastmile_qr_scan"}, "name": "3fd3fe98bd6cfc00598f45b598436ba3", "is_reserved": 0}, {"is_disabled": 0, "fusion_lon": 0.0, "fusion_lat": 0.0, "lat": 38.92858183333333, "type": "electric_bike", "lon": -76.98935566666667, "bike_id": "9aa06b11920bf91fc24869eb7b1e20d0", "rental_uris": {"android": "https://dc.lft.to/lastmile_qr_scan", "ios": "https://dc.lft.to/lastmile_qr_scan"}, "name": "9aa06b11920bf91fc24869eb7b1e20d0", "is_reserved": 0}, {"is_disabled": 0, "fusion_lon": 0.0, "fusion_lat": 0.0, "lat": 38.99079066666667, "type": "electric_bike", "lon": -77.00176266666666, "bike_id": "84c489fcbaa9eca044a58edd4a42c806", "rental_uris": {"android": "https://dc.lft.to/lastmile_qr_scan", "ios": "https://dc.lft.to/lastmile_qr_scan"}, "name": "84c489fcbaa9eca044a58edd4a42c806", "is_reserved": 0}, {"is_disabled": 0, "fusion_lon": 0.0, "fusion_lat": 0.0, "lat": 38.92099916666667, "type": "electric_scooter", "lon": -77.0312125, "bike_id": "8fb40c957489f5ff3cac282a16b02678", "rental_uris": {"android": "https://dc.lft.to/lastmile_qr_scan", "ios": "https://dc.lft.to/lastmile_qr_scan"}, "name": "8fb40c957489f5ff3cac282a16b02678", "is_reserved": 0}, {"is_disabled": 0, "fusion_lon": 0.0, "fusion_lat": 0.0, "lat": 38.9189925, "type": "electric_scooter", "lon": -77.032216, "bike_id": "0549f8214996a843fdd54f552423bde2", "rental_uris": {"android": "https://dc.lft.to/lastmile_qr_scan", "ios": "https://dc.lft.to/lastmile_qr_scan"}, "name": "0549f8214996a843fdd54f552423bde2", "is_reserved": 0}, {"is_disabled": 0, "fusion_lon": 0.0, "fusion_lat": 0.0, "lat": 38.831146, "type": "electric_bike", "lon": -77.0432735, "bike_id": "73d6ea736efc54534eb94539f7a99268", "rental_uris": {"android": "https://dc.lft.to/lastmile_qr_scan", "ios": "https://dc.lft.to/lastmile_qr_scan"}, "name": "73d6ea736efc54534eb94539f7a99268", "is_reserved": 0}, {"is_disabled": 0, "fusion_lon": 0.0, "fusion_lat": 0.0, "lat": 39.115001666666664, "type": "electric_bike", "lon": -77.19548466666667, "bike_id": "8d6c936eb4eccf79485db0d37bb8774b", "rental_uris": {"android": "https://dc.lft.to/lastmile_qr_scan", "ios": "https://dc.lft.to/lastmile_qr_scan"}, "name": "8d6c936eb4eccf79485db0d37bb8774b", "is_reserved": 0}, {"is_disabled": 0, "fusion_lon": 0.0, "fusion_lat": 0.0, "lat": 38.93041816666667, "type": "electric_scooter", "lon": -77.00416233333333, "bike_id": "a0ddcd48ede1562c2cb2dfb00056688f", "rental_uris": {"android": "https://dc.lft.to/lastmile_qr_scan", "ios": "https://dc.lft.to/lastmile_qr_scan"}, "name": "a0ddcd48ede1562c2cb2dfb00056688f", "is_reserved": 0}, {"is_disabled": 0, "fusion_lon": 0.0, "fusion_lat": 0.0, "lat": 38.992438666666665, "type": "electric_bike", "lon": -77.04999133333334, "bike_id": "8d0c970afc3c56322fed35414a10fd3d", "rental_uris": {"android": "https://dc.lft.to/lastmile_qr_scan", "ios": "https://dc.lft.to/lastmile_qr_scan"}, "name": "8d0c970afc3c56322fed35414a10fd3d", "is_reserved": 0}, {"is_disabled": 0, "fusion_lon": 0.0, "fusion_lat": 0.0, "lat": 38.838094, "type": "electric_scooter", "lon": -77.004328, "bike_id": "44c34644e941e4536e52195c7a3b9559", "rental_uris": {"android": "https://dc.lft.to/lastmile_qr_scan", "ios": "https://dc.lft.to/lastmile_qr_scan"}, "name": "44c34644e941e4536e52195c7a3b9559", "is_reserved": 0}, {"is_disabled": 0, "fusion_lon": 0.0, "fusion_lat": 0.0, "lat": 38.8571445, "type": "electric_bike", "lon": -76.9811345, "bike_id": "a0789370d5c387f7b4411f7fc7efac0d", "rental_uris": {"android": "https://dc.lft.to/lastmile_qr_scan", "ios": "https://dc.lft.to/lastmile_qr_scan"}, "name": "a0789370d5c387f7b4411f7fc7efac0d", "is_reserved": 0}, {"is_disabled": 0, "fusion_lon": 0.0, "fusion_lat": 0.0, "lat": 38.942961, "type": "electric_scooter", "lon": -77.02351083333333, "bike_id": "0427d330b81b337636f882e29e8851cb", "rental_uris": {"android": "https://dc.lft.to/lastmile_qr_scan", "ios": "https://dc.lft.to/lastmile_qr_scan"}, "name": "0427d330b81b337636f882e29e8851cb", "is_reserved": 0}, {"is_disabled": 0, "fusion_lon": 0.0, "fusion_lat": 0.0, "lat": 38.89663483333333, "type": "electric_scooter", "lon": -77.02318916666667, "bike_id": "28f96e74294d82271e61098d96a4f09c", "rental_uris": {"android": "https://dc.lft.to/lastmile_qr_scan", "ios": "https://dc.lft.to/lastmile_qr_scan"}, "name": "28f96e74294d82271e61098d96a4f09c", "is_reserved": 0}, {"is_disabled": 0, "fusion_lon": 0.0, "fusion_lat": 0.0, "lat": 38.9293955, "type": "electric_scooter", "lon": -77.01645033333334, "bike_id": "b302cb3c66eecae147288032e329b9a5", "rental_uris": {"android": "https://dc.lft.to/lastmile_qr_scan", "ios": "https://dc.lft.to/lastmile_qr_scan"}, "name": "b302cb3c66eecae147288032e329b9a5", "is_reserved": 0}, {"is_disabled": 0, "fusion_lon": 0.0, "fusion_lat": 0.0, "lat": 38.93284716666667, "type": "electric_scooter", "lon": -77.02448816666667, "bike_id": "804b7ab40894c22424a4add40bfd07d9", "rental_uris": {"android": "https://dc.lft.to/lastmile_qr_scan", "ios": "https://dc.lft.to/lastmile_qr_scan"}, "name": "804b7ab40894c22424a4add40bfd07d9", "is_reserved": 0}, {"is_disabled": 0, "fusion_lon": 0.0, "fusion_lat": 0.0, "lat": 38.913347, "type": "electric_scooter", "lon": -77.052138, "bike_id": "c2401047b877999bff2d41c244b12d94", "rental_uris": {"android": "https://dc.lft.to/lastmile_qr_scan", "ios": "https://dc.lft.to/lastmile_qr_scan"}, "name": "c2401047b877999bff2d41c244b12d94", "is_reserved": 0}, {"is_disabled": 0, "fusion_lon": 0.0, "fusion_lat": 0.0, "lat": 38.95742833333333, "type": "electric_scooter", "lon": -77.02433016666667, "bike_id": "e04dfed1517c8ac21cbb596aee00eb37", "rental_uris": {"android": "https://dc.lft.to/lastmile_qr_scan", "ios": "https://dc.lft.to/lastmile_qr_scan"}, "name": "e04dfed1517c8ac21cbb596aee00eb37", "is_reserved": 0},