{"data": {"bikes": [{"lat": 38.9526035, "is_disabled": 0, "type": "electric_scooter", "lon": -77.06984466666667, "bike_id": "1b9118937334128e40fc408800322454", "fusion_lat": 0.0, "name": "1b9118937334128e40fc408800322454", "is_reserved": 0, "rental_uris": {"android": "https://dc.lft.to/lastmile_qr_scan", "ios": "https://dc.lft.to/lastmile_qr_scan"}, "fusion_lon": 0.0}, {"lat": 38.90680116666667, "is_disabled": 0, "type": "electric_scooter", "lon": -77.03645483333334, "bike_id": "2dba6769587ca354845cf0dc180fb6df", "fusion_lat": 0.0, "name": "2dba6769587ca354845cf0dc180fb6df", "is_reserved": 0, "rental_uris": {"android": "https://dc.lft.to/lastmile_qr_scan", "ios": "https://dc.lft.to/lastmile_qr_scan"}, "fusion_lon": 0.0}, {"lat": 38.91614383333334, "is_disabled": 0, "type": "electric_scooter", "lon": -77.036396, "bike_id": "f475c8b44fa683123d1c090497c3c032", "fusion_lat": 0.0, "name": "f475c8b44fa683123d1c090497c3c032", "is_reserved": 0, "rental_uris": {"android": "https://dc.lft.to/lastmile_qr_scan", "ios": "https://dc.lft.to/lastmile_qr_scan"}, "fusion_lon": 0.0}, {"lat": 38.91008933333333, "is_disabled": 0, "type": "electric_scooter", "lon": -77.04874383333333, "bike_id": "020f5b857d1979448970c4ebef1dd206", "fusion_lat": 0.0, "name": "020f5b857d1979448970c4ebef1dd206", "is_reserved": 0, "rental_uris": {"android": "https://dc.lft.to/lastmile_qr_scan", "ios": "https://dc.lft.to/lastmile_qr_scan"}, "fusion_lon": 0.0}, {"lat": 38.923823, "is_disabled": 0, "type": "electric_scooter", "lon": -77.05745983333334, "bike_id": "057fb6be3a1873af3ac49717e59a97d0", "fusion_lat": 0.0, "name": "057fb6be3a1873af3ac49717e59a97d0", "is_reserved": 0, "rental_uris": {"android": "https://dc.lft.to/lastmile_qr_scan", "ios": "https://dc.lft.to/lastmile_qr_scan"}, "fusion_lon": 0.0}, {"lat": 38.91570516666667, "is_disabled": 0, "type": "electric_scooter", "lon": -77.03837166666666, "bike_id": "e31e61ffab7fc7e2255b5d337bf08620", "fusion_lat": 0.0, "name": "e31e61ffab7fc7e2255b5d337bf08620", "is_reserved": 0, "rental_uris": {"android": "https://dc.lft.to/lastmile_qr_scan", "ios": "https://dc.lft.to/lastmile_qr_scan"}, "fusion_lon": 0.0}, {"lat": 38.954974, "is_disabled": 0, "type": "electric_scooter", "lon": -77.06562133333334, "bike_id": "acc060175585847b799559e6fdf77772", "fusion_lat": 0.0, "name": "acc060175585847b799559e6fdf77772", "is_reserved": 0, "rental_uris": {"android": "https://dc.lft.to/lastmile_qr_scan", "ios": "https://dc.lft.to/lastmile_qr_scan"}, "fusion_lon": 0.0}, {"lat": 38.91203816666667, "is_disabled": 0, "type": "electric_scooter", "lon": -77.014653, "bike_id": "ebe5da3feaed40bdeff2378253bbd46d", "fusion_lat": 0.0, "name": "ebe5da3feaed40bdeff2378253bbd46d", "is_reserved": 0, "rental_uris": {"android": "https://dc.lft.to/lastmile_qr_scan", "ios": "https://dc.lft.to/lastmile_qr_scan"}, "fusion_lon": 0.0}, {"lat": 38.854591666666664, "is_disabled": 0, "type": "electric_scooter", "lon": -76.97226433333333, "bike_id": "83e7dd14494dc0b2bb750b0c3897b5ce", "fusion_lat": 0.0, "name": "83e7dd14494dc0b2bb750b0c3897b5ce", "is_reserved": 0, "rental_uris": {"android": "https://dc.lft.to/lastmile_qr_scan", "ios": "https://dc.lft.to/lastmile_qr_scan"}, "fusion_lon": 0.0}, {"lat": 38.885028, "is_disabled": 0, "type": "electric_scooter", "lon": -77.00559533333333, "bike_id": "cf4e53de69195a73e39b2de59134e340", "fusion_lat": 0.0, "name": "cf4e53de69195a73e39b2de59134e340", "is_reserved": 0, "rental_uris": {"android": "https://dc.lft.to/lastmile_qr_scan", "ios": "https://dc.lft.to/lastmile_qr_scan"}, "fusion_lon": 0.0}, {"lat": 38.97839533333333, "is_disabled": 0, "type": "electric_bike", "lon": -77.02640166666667, "bike_id": "d8ace52e8575b30821613102cd6d0939", "fusion_lat": 0.0, "name": "d8ace52e8575b30821613102cd6d0939", "is_reserved": 0, "rental_uris": {"android": "https://dc.lft.to/lastmile_qr_scan", "ios": "https://dc.lft.to/lastmile_qr_scan"}, "fusion_lon": 0.0}, {"lat": 38.890023, "is_disabled": 0, "type": "electric_scooter", "lon": -77.04891816666667, "bike_id": "88b0256a673fe82992f8621bfdfa7c40", "fusion_lat": 0.0, "name": "88b0256a673fe82992f8621bfdfa7c40", "is_reserved": 0, "rental_uris": {"android": "https://dc.lft.to/lastmile_qr_scan", "ios": "https://dc.lft.to/lastmile_qr_scan"}, "fusion_lon": 0.0}, {"lat": 38.8638065, "is_disabled": 0, "type": "electric_scooter", "lon": -76.9925755, "bike_id": "c663ec757109789dfd7440ad23497d94", "fusion_lat": 0.0, "name": "c663ec757109789dfd7440ad23497d94", "is_reserved": 0, "rental_uris": {"android": "https://dc.lft.to/lastmile_qr_scan", "ios": "https://dc.lft.to/lastmile_qr_scan"}, "fusion_lon": 0.0}, {"lat": 38.91783933333333, "is_disabled": 0, "type": "electric_scooter", "lon": -77.04418233333334, "bike_id": "f780beb285c032803fff4321d772a0ea", "fusion_lat": 0.0, "name": "f780beb285c032803fff4321d772a0ea", "is_reserved": 0, "rental_uris": {"android": "https://dc.lft.to/lastmile_qr_scan", "ios": "https://dc.lft.to/lastmile_qr_scan"}, "fusion_lon": 0.0}, {"lat": 38.9278465, "is_disabled": 0, "type": "electric_bike", "lon": -76.97223216666667, "bike_id": "0701e2f0d4d1d672d0c1a5566404593f", "fusion_lat": 0.0, "name": "0701e2f0d4d1d672d0c1a5566404593f", "is_reserved": 0, "rental_uris": {"android": "https://dc.lft.to/lastmile_qr_scan", "ios": "https://dc.lft.to/lastmile_qr_scan"}, "fusion_lon": 0.0}, {"lat": 38.85531116666667, "is_disabled": 0, "type": "electric_bike", "lon": -77.12029816666667, "bike_id": "fb9d370e4251b3bdd08e4a27e6012e06", "fusion_lat": 0.0, "name": "fb9d370e4251b3bdd08e4a27e6012e06", "is_reserved": 0, "rental_uris": {"android": "https://dc.lft.to/lastmile_qr_scan", "ios": "https://dc.lft.to/lastmile_qr_scan"}, "fusion_lon": 0.0}, {"lat": 38.923564166666665, "is_disabled": 0, "type": "electric_scooter", "lon": -77.04393233333333, "bike_id": "4aefd2dedc1c8620d39520bbc8da4c58", "fusion_lat": 0.0, "name": "4aefd2dedc1c8620d39520bbc8da4c58", "is_reserved": 0, "rental_uris": {"android": "https://dc.lft.to/lastmile_qr_scan", "ios": "https://dc.lft.to/lastmile_qr_scan"}, "fusion_lon": 0.0}, {"lat": 38.94310566666667, "is_disabled": 0, "type": "electric_scooter", "lon": -77.05923466666667, "bike_id": "a8c4b788e9d1001247ff8ccd4123f30f", "fusion_lat": 0.0, "name": "a8c4b788e9d1001247ff8ccd4123f30f", "is_reserved": 0, "rental_uris": {"android": "https://dc.lft.to/lastmile_qr_scan", "ios": "https://dc.lft.to/lastmile_qr_scan"}, "fusion_lon": 0.0}, {"lat": 38.86576683333333, "is_disabled": 0, "type": "electric_bike", "lon": -76.973054, "bike_id": "6e42135a59ed223003890fe4739bf456", "fusion_lat": 0.0, "name": "6e42135a59ed223003890fe4739bf456", "is_reserved": 0, "rental_uris": {"android": "https://dc.lft.to/lastmile_qr_scan", "ios": "https://dc.lft.to/lastmile_qr_scan"}, "fusion_lon": 0.0}, {"lat": 38.924435333333335, "is_disabled": 0, "type": "electric_scooter", "lon": -77.02035633333334, "bike_id": "8c04cca49321ba190452963611147fa8", "fusion_lat": 0.0, "name": "8c04cca49321ba190452963611147fa8", "is_reserved": 0, "rental_uris": {"android": "https://dc.lft.to/lastmile_qr_scan", "ios": "https://dc.lft.to/lastmile_qr_scan"}, "fusion_lon": 0.0}, {"lat": 38.921420833333336, "is_disabled": 0, "type": "electric_scooter", "lon": -77.04353566666667, "bike_id": "4e318d6c18d03e46ff57d398215b082c", "fusion_lat": 0.0, "name": "4e318d6c18d03e46ff57d398215b082c", "is_reserved": 0, "rental_uris": {"android": "https://dc.lft.to/lastmile_qr_scan", "ios": "https://dc.lft.to/lastmile_qr_scan"}, "fusion_lon": 0.0}, {"lat": 38.903561333333336, "is_disabled": 0, "type": "electric_scooter", "lon": -77.01740716666667, "bike_id": "aa8f809a5839afed77c2b097ea4f2d28", "fusion_lat": 0.0, "name": "aa8f809a5839afed77c2b097ea4f2d28", "is_reserved": 0, "rental_uris": {"android": "https://dc.lft.to/lastmile_qr_scan", "ios": "https://dc.lft.to/lastmile_qr_scan"}, "fusion_lon": 0.0}, {"lat": 38.903323666666665, "is_disabled": 0, "type": "electric_scooter", "lon": -76.9759415, "bike_id": "c7bfe288bdd7a64e1beaee648764367d", "fusion_lat": 0.0, "name": "c7bfe288bdd7a64e1beaee648764367d", "is_reserved": 0, "rental_uris": {"android": "https://dc.lft.to/lastmile_qr_scan", "ios": "https://dc.lft.to/lastmile_qr_scan"}, "fusion_lon": 0.0}, {"lat": 38.8926135, "is_disabled": 0, "type": "electric_scooter", "lon": -76.94154316666666, "bike_id": "48b911d9e25ffac22e1d5d3e3d0e611e", "fusion_lat": 0.0, "name": "48b911d9e25ffac22e1d5d3e3d0e611e", "is_reserved": 0, "rental_uris": {"android": "https://dc.lft.to/lastmile_qr_scan", "ios": "https://dc.lft.to/lastmile_qr_scan"}, "fusion_lon": 0.0}, {"lat": 38.912745666666666, "is_disabled": 0, "type": "electric_bike", "lon": -77.0122035, "bike_id": "ff76ca7a8209447f773108fff86c3639", "fusion_lat": 0.0, "name": "ff76ca7a8209447f773108fff86c3639", "is_reserved": 0, "rental_uris": {"android": "https://dc.lft.to/lastmile_qr_scan", "ios": "https://dc.lft.to/lastmile_qr_scan"}, "fusion_lon": 0.0}, {"lat": 38.80679716666667, "is_disabled": 0, "type": "electric_bike", "lon": -77.08122433333334, "bike_id": "544c50025a3307c47baccdcf31f35676", "fusion_lat": 0.0, "name": "544c50025a3307c47baccdcf31f35676", "is_reserved": 0, "rental_uris": {"android": "https://dc.lft.to/lastmile_qr_scan", "ios": "https://dc.lft.to/lastmile_qr_scan"}, "fusion_lon": 0.0}, {"lat": 38.931996166666664, "is_disabled": 0, "type": "electric_scooter", "lon": -77.03750983333333, "bike_id": "79f0c5bf85a11b99697c35a0d50fa018", "fusion_lat": 0.0, "name": "79f0c5bf85a11b99697c35a0d50fa018", "is_reserved": 0, "rental_uris": {"android": "https://dc.lft.to/lastmile_qr_scan", "ios": "https://dc.lft.to/lastmile_qr_scan"}, "fusion_lon": 0.0}, {"lat": 38.874136166666666, "is_disabled": 0, "type": "electric_scooter", "lon": -76.97303416666666, "bike_id": "ab1be9e9f15a97a731780ef04cdb45a1", "fusion_lat": 0.0, "name": "ab1be9e9f15a97a731780ef04cdb45a1", "is_reserved": 0, "rental_uris": {"android": "https://dc.lft.to/lastmile_qr_scan", "ios": "https://dc.lft.to/lastmile_qr_scan"}, "fusion_lon": 0.0}, {"lat": 38.939955499999996, "is_disabled": 0, "type": "electric_scooter", "lon": -77.07177516666667, "bike_id": "8f8823bd9804911adc3f9a685f89a94e", "fusion_lat": 0.0, "name": "8f8823bd9804911adc3f9a685f89a94e", "is_reserved": 0, "rental_uris": {"android": "https://dc.lft.to/lastmile_qr_scan", "ios": "https://dc.lft.to/lastmile_qr_scan"}, "fusion_lon": 0.0}, {"lat": 38.89731533333333, "is_disabled": 0, "type": "electric_scooter", "lon": -77.04536116666667, "bike_id": "03f389a9ad8667a3257f84a08498c349", "fusion_lat": 0.0, "name": "03f389a9ad8667a3257f84a08498c349", "is_reserved": 0, "rental_uris": {"android": "https://dc.lft.to/lastmile_qr_scan", "ios": "https://dc.lft.to/lastmile_qr_scan"}, "fusion_lon": 0.0}, {"lat": 38.899054166666666, "is_disabled": 0, "type": "electric_scooter", "lon": -76.93356016666667, "bike_id": "c450aef80931a66a3c6268174a8fa4c4", "fusion_lat": 0.0, "name": "c450aef80931a66a3c6268174a8fa4c4", "is_reserved": 0, "rental_uris": {"android": "https://dc.lft.to/lastmile_qr_scan", "ios": "https://dc.lft.to/lastmile_qr_scan"}, "fusion_lon": 0.0}, {"lat": 38.903783833333335, "is_disabled": 0, "type": "electric_scooter", "lon": -77.01759766666666, "bike_id": "e7940a2a2a3ea3569fb62eaf6c2ffd67", "fusion_lat": 0.0, "name": "e7940a2a2a3ea3569fb62eaf6c2ffd67", "is_reserved": 0, "rental_uris": {"android": "https://dc.lft.to/lastmile_qr_scan", "ios": "https://dc.lft.to/lastmile_qr_scan"}, "fusion_lon": 0.0}, {"lat": 38.86655283333333, "is_disabled": 0, "type": "electric_scooter", "lon": -76.98884933333333, "bike_id": "db62139cea55338a0f95fd63cf7b5c1f", "fusion_lat": 0.0, "name": "db62139cea55338a0f95fd63cf7b5c1f", "is_reserved": 0, "rental_uris": {"android": "https://dc.lft.to/lastmile_qr_scan", "ios": "https://dc.lft.to/lastmile_qr_scan"}, "fusion_lon": 0.0}, {"lat": 38.93426316666667, "is_disabled": 0, "type": "electric_scooter", "lon": -77.03263166666666, "bike_id": "b64a5cece1b2fdbbed046e3b21a749e5", "fusion_lat": 0.0, "name": "b64a5cece1b2fdbbed046e3b21a749e5", "is_reserved": 0, "rental_uris": {"android": "https://dc.lft.to/lastmile_qr_scan", "ios": "https://dc.lft.to/lastmile_qr_scan"}, "fusion_lon": 0.0}, {"lat": 38.92573733333333, "is_disabled": 0, "type": "electric_scooter", "lon": -77.0575565, "bike_id": "1bafefea1b7cb84e9473d7e380fed5db", "fusion_lat": 0.0, "name": "1bafefea1b7cb84e9473d7e380fed5db", "is_reserved": 0, "rental_uris": {"android": "https://dc.lft.to/lastmile_qr_scan", "ios": "https://dc.lft.to/lastmile_qr_scan"}, "fusion_lon": 0.0}, {"lat": 38.917698333333334, "is_disabled": 0, "type": "electric_scooter", "lon": -77.043403, "bike_id": "d1ed06e2d477076c23f4fc9c6b10c75f", "fusion_lat": 0.0, "name": "d1ed06e2d477076c23f4fc9c6b10c75f", "is_reserved": 0, "rental_uris": {"android": "https://dc.lft.to/lastmile_qr_scan", "ios": "https://dc.lft.to/lastmile_qr_scan"}, "fusion_lon": 0.0}, {"lat": 38.90671666666667, "is_disabled": 0, "type": "electric_scooter", "lon": -77.02706816666667, "bike_id": "ce17eb12227a49df6a9076190c473472", "fusion_lat": 0.0, "name": "ce17eb12227a49df6a9076190c473472", "is_reserved": 0, "rental_uris": {"android": "https://dc.lft.to/lastmile_qr_scan", "ios": "https://dc.lft.to/lastmile_qr_scan"}, "fusion_lon": 0.0}, {"lat": 38.9082455, "is_disabled": 0, "type": "electric_scooter", "lon": -77.06372816666666, "bike_id": "b7a54db7435ebe36874b4a8521556184", "fusion_lat": 0.0, "name": "b7a54db7435ebe36874b4a8521556184", "is_reserved": 0, "rental_uris": {"android": "https://dc.lft.to/lastmile_qr_scan", "ios": "https://dc.lft.to/lastmile_qr_scan"}, "fusion_lon": 0.0}, {"lat": 38.898836, "is_disabled": 0, "type": "electric_scooter", "lon": -76.93177283333333, "bike_id": "d6dc0dfd46eb13cfeeeff4e86f19dfaf", "fusion_lat": 0.0, "name": "d6dc0dfd46eb13cfeeeff4e86f19dfaf", "is_reserved": 0, "rental_uris": {"android": "https://dc.lft.to/lastmile_qr_scan", "ios": "https://dc.lft.to/lastmile_qr_scan"}, "fusion_lon": 0.0}, {"lat": 38.91932033333333, "is_disabled": 0, "type": "electric_scooter", "lon": -77.0229955, "bike_id": "fc290a838b119cff4970434becac2ff3", "fusion_lat": 0.0, "name": "fc290a838b119cff4970434becac2ff3", "is_reserved": 0, "rental_uris": {"android": "https://dc.lft.to/lastmile_qr_scan", "ios": "https://dc.lft.to/lastmile_qr_scan"}, "fusion_lon": 0.0}, {"lat": 38.906786833333335, "is_disabled": 0, "type": "electric_scooter", "lon": -77.03756516666667, "bike_id": "d5a2554b6833d991ee61439fa61674ad", "fusion_lat": 0.0, "name": "d5a2554b6833d991ee61439fa61674ad", "is_reserved": 0, "rental_uris": {"android": "https://dc.lft.to/lastmile_qr_scan", "ios": "https://dc.lft.to/lastmile_qr_scan"}, "fusion_lon": 0.0}, {"lat": 38.89732166666667, "is_disabled": 0, "type": "electric_scooter", "lon": -77.0476175, "bike_id": "97f80aeadf88033dfb6999345db48442", "fusion_lat": 0.0, "name": "97f80aeadf88033dfb6999345db48442", "is_reserved": 0, "rental_uris": {"android": "https://dc.lft.to/lastmile_qr_scan", "ios": "https://dc.lft.to/lastmile_qr_scan"}, "fusion_lon": 0.0}, {"lat": 38.9224315, "is_disabled": 0, "type": "electric_scooter", "lon": -77.04575066666666, "bike_id": "d1d0f6f3ef4f005844d7d0dade137fcf", "fusion_lat": 0.0, "name": "d1d0f6f3ef4f005844d7d0dade137fcf", "is_reserved": 0, "rental_uris": {"android": "https://dc.lft.to/lastmile_qr_scan", "ios": "https://dc.lft.to/lastmile_qr_scan"}, "fusion_lon": 0.0}, {"lat": 38.900444666666665, "is_disabled": 0, "type": "electric_scooter", "lon": -77.02602583333334, "bike_id": "7899271030d7623808850fbb23c9cc80", "fusion_lat": 0.0, "name": "7899271030d7623808850fbb23c9cc80", "is_reserved": 0, "rental_uris": {"android": "https://dc.lft.to/lastmile_qr_scan", "ios": "https://dc.lft.to/lastmile_qr_scan"}, "fusion_lon": 0.0}, {"lat": 38.91387983333333, "is_disabled": 0, "type": "electric_scooter", "lon": -77.04170183333333, "bike_id": "d31b559f3cfcdf17b6c2ba4fe2beca7e", "fusion_lat": 0.0, "name": "d31b559f3cfcdf17b6c2ba4fe2beca7e", "is_reserved": 0, "rental_uris": {"android": "https://dc.lft.to/lastmile_qr_scan", "ios": "https://dc.lft.to/lastmile_qr_scan"}, "fusion_lon": 0.0}, {"lat": 38.85048166666667, "is_disabled": 0, "type": "electric_bike", "lon": -76.97319466666667, "bike_id": "836c426862aca6577f24b3b1b17f81a9", "fusion_lat": 0.0, "name": "836c426862aca6577f24b3b1b17f81a9", "is_reserved": 0, "rental_uris": {"android": "https://dc.lft.to/lastmile_qr_scan", "ios": "https://dc.lft.to/lastmile_qr_scan"}, "fusion_lon": 0.0}, {"lat": 38.933378, "is_disabled": 0, "type": "electric_bike", "lon": -77.04203216666667, "bike_id": "d133ff5876420832396f8f8e789b2981", "fusion_lat": 0.0, "name": "d133ff5876420832396f8f8e789b2981", "is_reserved": 0, "rental_uris": {"android": "https://dc.lft.to/lastmile_qr_scan", "ios": "https://dc.lft.to/lastmile_qr_scan"}, "fusion_lon": 0.0}, {"lat": 38.932308666666664, "is_disabled": 0, "type": "electric_scooter", "lon": -76.996, "bike_id": "76b6bdc43513590ede953e330d725740", "fusion_lat": 0.0, "name": "76b6bdc43513590ede953e330d725740", "is_reserved": 0, "rental_uris": {"android": "https://dc.lft.to/lastmile_qr_scan", "ios": "https://dc.lft.to/lastmile_qr_scan"}, "fusion_lon": 0.0}, {"lat": 38.90198083333333, "is_disabled": 0, "type": "electric_scooter", "lon": -77.025035, "bike_id": "4a828244d85bf1ddece9ae3b9e04c6ca", "fusion_lat": 0.0, "name": "4a828244d85bf1ddece9ae3b9e04c6ca", "is_reserved": 0, "rental_uris": {"android": "https://dc.lft.to/lastmile_qr_scan", "ios": "https://dc.lft.to/lastmile_qr_scan"}, "fusion_lon": 0.0}, {"lat": 38.89717233333333, "is_disabled": 0, "type": "electric_scooter", "lon": -77.00792916666667, "bike_id": "07ed23d66caf2d1c91ebdb4428741e46", "fusion_lat": 0.0, "name": "07ed23d66caf2d1c91ebdb4428741e46", "is_reserved": 0, "rental_uris": {"android": "https://dc.lft.to/lastmile_qr_scan", "ios": "https://dc.lft.to/lastmile_qr_scan"}, "fusion_lon": 0.0}, {"lat": 38.93186516666667, "is_disabled": 0, "type": "electric_scooter", "lon": -77.03869966666667, "bike_id": "9bfdaf18449bc6cc6425628a316e302c", "fusion_lat": 0.0, "name": "9bfdaf18449bc6cc6425628a316e302c", "is_reserved": 0, "rental_uris": {"android": "https://dc.lft.to/lastmile_qr_scan", "ios": "https://dc.lft.to/lastmile_qr_scan"}, "fusion_lon": 0.0}, {"lat": 38.92111833333333, "is_disabled": 0, "type": "electric_scooter", "lon": -77.04212016666666, "bike_id": "7b350209437b8ced9c25b3a6e6c79ccf", "fusion_lat": 0.0, "name": "7b350209437b8ced9c25b3a6e6c79ccf", "is_reserved": 0, "rental_uris": {"android": "https://dc.lft.to/lastmile_qr_scan", "ios": "https://dc.lft.to/lastmile_qr_scan"}, "fusion_lon": 0.0}, {"lat": 38.938653333333335, "is_disabled": 0, "type": "electric_scooter", "lon": -77.02592616666666, "bike_id": "ff28f7099eea5d550ccafff3c6ba1e58", "fusion_lat": 0.0, "name": "ff28f7099eea5d550ccafff3c6ba1e58", "is_reserved": 0, "rental_uris": {"android": "https://dc.lft.to/lastmile_qr_scan", "ios": "https://dc.lft.to/lastmile_qr_scan"}, "fusion_lon": 0.0}, {"lat": 38.81053683333333, "is_disabled": 0, "type": "electric_bike", "lon": -77.08505433333333, "bike_id": "20030f18bf8a89e8aad41957775b5fe5", "fusion_lat": 0.0, "name": "20030f18bf8a89e8aad41957775b5fe5", "is_reserved": 0, "rental_uris": {"android": "https://dc.lft.to/lastmile_qr_scan", "ios": "https://dc.lft.to/lastmile_qr_scan"}, "fusion_lon": 0.0}, {"lat": 38.912608166666665, "is_disabled": 0, "type": "electric_scooter", "lon": -77.03023283333333, "bike_id": "0bc2d3715b74f2e1b27a38e80e911bb6", "fusion_lat": 0.0, "name": "0bc2d3715b74f2e1b27a38e80e911bb6", "is_reserved": 0, "rental_uris": {"android": "https://dc.lft.to/lastmile_qr_scan", "ios": "https://dc.lft.to/lastmile_qr_scan"}, "fusion_lon": 0.0}, {"lat": 38.904896, "is_disabled": 0, "type": "electric_scooter", "lon": -76.99539866666667, "bike_id": "c271c8ea1ea8183ad17d182962abea94", "fusion_lat": 0.0, "name": "c271c8ea1ea8183ad17d182962abea94", "is_reserved": 0, "rental_uris": {"android": "https://dc.lft.to/lastmile_qr_scan", "ios": "https://dc.lft.to/lastmile_qr_scan"}, "fusion_lon": 0.0}, {"lat": 38.854294833333334, "is_disabled": 0, "type": "electric_bike", "lon": -76.90968966666667, "bike_id": "372413299d57fae9b1364fdddc29c735", "fusion_lat": 0.0, "name": "372413299d57fae9b1364fdddc29c735", "is_reserved": 0, "rental_uris": {"android": "https://dc.lft.to/lastmile_qr_scan", "ios": "https://dc.lft.to/lastmile_qr_scan"}, "fusion_lon": 0.0}, {"lat": 38.934253166666664, "is_disabled": 0, "type": "electric_scooter", "lon": -77.02840233333333, "bike_id": "6fc7d9282c81533b5d4f196ebc1dbc32", "fusion_lat": 0.0, "name": "6fc7d9282c81533b5d4f196ebc1dbc32", "is_reserved": 0, "rental_uris": {"android": "https://dc.lft.to/lastmile_qr_scan", "ios": "https://dc.lft.to/lastmile_qr_scan"}, "fusion_lon": 0.0}, {"lat": 38.94601, "is_disabled": 0, "type": "electric_scooter", "lon": -77.07037783333334, "bike_id": "ac19a2bf90b828b6bbe306cfbcc82c7b", "fusion_lat": 0.0, "name": "ac19a2bf90b828b6bbe306cfbcc82c7b", "is_reserved": 0, "rental_uris": {"android": "https://dc.lft.to/lastmile_qr_scan", "ios": "https://dc.lft.to/lastmile_qr_scan"}, "fusion_lon": 0.0}, {"lat": 38.923868, "is_disabled": 0, "type": "electric_scooter", "lon": -77.02757416666667, "bike_id": "4e3909ab3e5a3174747c6800704fbba9", "fusion_lat": 0.0, "name": "4e3909ab3e5a3174747c6800704fbba9", "is_reserved": 0, "rental_uris": {"android": "https://dc.lft.to/lastmile_qr_scan", "ios": "https://dc.lft.to/lastmile_qr_scan"}, "fusion_lon": 0.0}, {"lat": 38.915609, "is_disabled": 0, "type": "electric_scooter", "lon": -77.00976166666666, "bike_id": "7e06a1b36a8175461d94eaf840be180d", "fusion_lat": 0.0, "name": "7e06a1b36a8175461d94eaf840be180d", "is_reserved": 0, "rental_uris": {"android": "https://dc.lft.to/lastmile_qr_scan", "ios": "https://dc.lft.to/lastmile_qr_scan"}, "fusion_lon": 0.0}, {"lat": 38.934196, "is_disabled": 0, "type": "electric_scooter", "lon": -77.028427, "bike_id": "42965ea902e4c0e5ed6aa2251a6d3482", "fusion_lat": 0.0, "name": "42965ea902e4c0e5ed6aa2251a6d3482", "is_reserved": 0, "rental_uris": {"android": "https://dc.lft.to/lastmile_qr_scan", "ios": "https://dc.lft.to/lastmile_qr_scan"}, "fusion_lon": 0.0}, {"lat": 38.84432133333333, "is_disabled": 0, "type": "electric_scooter", "lon": -76.99812916666667, "bike_id": "4a7eae3ff9079ce0043b969d3e2e1098", "fusion_lat": 0.0, "name": "4a7eae3ff9079ce0043b969d3e2e1098", "is_reserved": 0, "rental_uris": {"android": "https://dc.lft.to/lastmile_qr_scan", "ios": "https://dc.lft.to/lastmile_qr_scan"}, "fusion_lon": 0.0}, {"lat": 38.90387333333334, "is_disabled": 0, "type": "electric_scooter", "lon": -76.98490433333333, "bike_id": "9dabcd48665455b0ae4894435c933104", "fusion_lat": 0.0, "name": "9dabcd48665455b0ae4894435c933104", "is_reserved": 0, "rental_uris": {"android": "https://dc.lft.to/lastmile_qr_scan", "ios": "https://dc.lft.to/lastmile_qr_scan"}, "fusion_lon": 0.0}, {"lat": 38.922352, "is_disabled": 0, "type": "electric_scooter", "lon": -77.029886, "bike_id": "c2a7d0184bf9da06d766fb789d881103", "fusion_lat": 0.0, "name": "c2a7d0184bf9da06d766fb789d881103", "is_reserved": 0, "rental_uris": {"android": "https://dc.lft.to/lastmile_qr_scan", "ios": "https://dc.lft.to/lastmile_qr_scan"}, "fusion_lon": 0.0}, {"lat": 38.876306166666666, "is_disabled": 0, "type": "electric_scooter", "lon": -76.96523266666667, "bike_id": "0b92d3033c1c6ea05956a9e3da5f33a7", "fusion_lat": 0.0, "name": "0b92d3033c1c6ea05956a9e3da5f33a7", "is_reserved": 0, "rental_uris": {"android": "https://dc.lft.to/lastmile_qr_scan", "ios": "https://dc.lft.to/lastmile_qr_scan"}, "fusion_lon": 0.0}, {"lat": 38.89625733333333, "is_disabled": 0, "type": "electric_scooter", "lon": -76.99845366666666, "bike_id": "b2bba4f0e03dc4fa6bd339755623cefc", "fusion_lat": 0.0, "name": "b2bba4f0e03dc4fa6bd339755623cefc", "is_reserved": 0, "rental_uris": {"android": "https://dc.lft.to/lastmile_qr_scan", "ios": "https://dc.lft.to/lastmile_qr_scan"}, "fusion_lon": 0.0}, {"lat": 38.893316166666665, "is_disabled": 0, "type": "electric_scooter", "lon": -76.92990166666667, "bike_id": "c8bacce8870b4e0983e2bc83940b6b50", "fusion_lat": 0.0, "name": "c8bacce8870b4e0983e2bc83940b6b50", "is_reserved": 0, "rental_uris": {"android": "https://dc.lft.to/lastmile_qr_scan", "ios": "https://dc.lft.to/lastmile_qr_scan"}, "fusion_lon": 0.0}, {"lat": 38.93205433333333, "is_disabled": 0, "type": "electric_scooter", "lon": -77.04423516666667, "bike_id": "510f4bda3be6af4315b8610db6036145", "fusion_lat": 0.0, "name": "510f4bda3be6af4315b8610db6036145", "is_reserved": 0, "rental_uris": {"android": "https://dc.lft.to/lastmile_qr_scan", "ios": "https://dc.lft.to/lastmile_qr_scan"}, "fusion_lon": 0.0}, {"lat": 38.9407505, "is_disabled": 0, "type": "electric_scooter", "lon": -77.06136933333333, "bike_id": "70d2695ff0f4ab438491213fb24b9062", "fusion_lat": 0.0, "name": "70d2695ff0f4ab438491213fb24b9062", "is_reserved": 0, "rental_uris": {"android": "https://dc.lft.to/lastmile_qr_scan", "ios": "https://dc.lft.to/lastmile_qr_scan"}, "fusion_lon": 0.0}, {"lat": 38.93255333333333, "is_disabled": 0, "type": "electric_scooter", "lon": -77.03257, "bike_id": "63c39afe684fe8692b41ccbc2ddefda9", "fusion_lat": 0.0, "name": "63c39afe684fe8692b41ccbc2ddefda9", "is_reserved": 0, "rental_uris": {"android": "https://dc.lft.to/lastmile_qr_scan", "ios": "https://dc.lft.to/lastmile_qr_scan"}, "fusion_lon": 0.0}, {"lat": 38.9365695, "is_disabled": 0, "type": "electric_scooter", "lon": -77.03651516666666, "bike_id": "5f5620756be736978fb1a7337cb244ea", "fusion_lat": 0.0, "name": "5f5620756be736978fb1a7337cb244ea", "is_reserved": 0, "rental_uris": {"android": "https://dc.lft.to/lastmile_qr_scan", "ios": "https://dc.lft.to/lastmile_qr_scan"}, "fusion_lon": 0.0}, {"lat": 38.93286883333333, "is_disabled": 0, "type": "electric_scooter", "lon": -77.02826833333333, "bike_id": "5cad1d48f4f0be3d5344d259d4540212", "fusion_lat": 0.0, "name": "5cad1d48f4f0be3d5344d259d4540212", "is_reserved": 0, "rental_uris": {"android": "https://dc.lft.to/lastmile_qr_scan", "ios": "https://dc.lft.to/lastmile_qr_scan"}, "fusion_lon": 0.0}, {"lat": 38.93104533333333, "is_disabled": 0, "type": "electric_scooter", "lon": -77.03511833333333, "bike_id": "360582d363a249dd7360bd353eb5d9a7", "fusion_lat": 0.0, "name": "360582d363a249dd7360bd353eb5d9a7", "is_reserved": 0, "rental_uris": {"android": "https://dc.lft.to/lastmile_qr_scan", "ios": "https://dc.lft.to/lastmile_qr_scan"}, "fusion_lon": 0.0}, {"lat": 38.90679383333333, "is_disabled": 0, "type": "electric_scooter", "lon": -77.03755066666666, "bike_id": "a382350bd824145b2058e1fc5524457b", "fusion_lat": 0.0, "name": "a382350bd824145b2058e1fc5524457b", "is_reserved": 0, "rental_uris": {"android": "https://dc.lft.to/lastmile_qr_scan", "ios": "https://dc.lft.to/lastmile_qr_scan"}, "fusion_lon": 0.0}, {"lat": 38.91473766666667, "is_disabled": 0, "type": "electric_scooter", "lon": -76.98350516666666, "bike_id": "71e74c347e50ef025d50b4a302518697", "fusion_lat": 0.0, "name": "71e74c347e50ef025d50b4a302518697", "is_reserved": 0, "rental_uris": {"android": "https://dc.lft.to/lastmile_qr_scan", "ios": "https://dc.lft.to/lastmile_qr_scan"}, "fusion_lon": 0.0}, {"lat": 38.90530183333333, "is_disabled": 0, "type": "electric_scooter", "lon": -77.00599133333333, "bike_id": "7e6fc69f1819c842a53f158a4bae438c", "fusion_lat": 0.0, "name": "7e6fc69f1819c842a53f158a4bae438c", "is_reserved": 0, "rental_uris": {"android": "https://dc.lft.to/lastmile_qr_scan", "ios": "https://dc.lft.to/lastmile_qr_scan"}, "fusion_lon": 0.0}, {"lat": 38.908638333333336, "is_disabled": 0, "type": "electric_bike", "lon": -76.94006916666666, "bike_id": "1e27418d8d672fbda75dc00bac243ac6", "fusion_lat": 0.0, "name": "1e27418d8d672fbda75dc00bac243ac6", "is_reserved": 0, "rental_uris": {"android": "https://dc.lft.to/lastmile_qr_scan", "ios": "https://dc.lft.to/lastmile_qr_scan"}, "fusion_lon": 0.0}, {"lat": 38.93913283333333, "is_disabled": 0, "type": "electric_scooter", "lon": -77.06675983333334, "bike_id": "2655e8429f200475f119ef92c851c683", "fusion_lat": 0.0, "name": "2655e8429f200475f119ef92c851c683", "is_reserved": 0, "rental_uris": {"android": "https://dc.lft.to/lastmile_qr_scan", "ios": "https://dc.lft.to/lastmile_qr_scan"}, "fusion_lon": 0.0}, {"lat": 38.9288125, "is_disabled": 0, "type": "electric_scooter", "lon": -77.0574805, "bike_id": "5c1d1da2993994d706ba54cae9dfc44f", "fusion_lat": 0.0, "name": "5c1d1da2993994d706ba54cae9dfc44f", "is_reserved": 0, "rental_uris": {"android": "https://dc.lft.to/lastmile_qr_scan", "ios": "https://dc.lft.to/lastmile_qr_scan"}, "fusion_lon": 0.0}, {"lat": 38.89656383333333, "is_disabled": 0, "type": "electric_scooter", "lon": -77.0052115, "bike_id": "539dffe310176d3f004ac324a976045d", "fusion_lat": 0.0, "name": "539dffe310176d3f004ac324a976045d", "is_reserved": 0, "rental_uris": {"android": "https://dc.lft.to/lastmile_qr_scan", "ios": "https://dc.lft.to/lastmile_qr_scan"}, "fusion_lon": 0.0}, {"lat": 38.92121266666667, "is_disabled": 0, "type": "electric_scooter", "lon": -77.0459455, "bike_id": "0d847fe0c66ae68e983d5d91f68413d6", "fusion_lat": 0.0, "name": "0d847fe0c66ae68e983d5d91f68413d6", "is_reserved": 0, "rental_uris": {"android": "https://dc.lft.to/lastmile_qr_scan", "ios": "https://dc.lft.to/lastmile_qr_scan"}, "fusion_lon": 0.0}, {"lat": 38.867105, "is_disabled": 0, "type": "electric_scooter", "lon": -76.9872555, "bike_id": "7b3230ce692a79b4772f689a2b8e910f", "fusion_lat": 0.0, "name": "7b3230ce692a79b4772f689a2b8e910f", "is_reserved": 0, "rental_uris": {"android": "https://dc.lft.to/lastmile_qr_scan", "ios": "https://dc.lft.to/lastmile_qr_scan"}, "fusion_lon": 0.0}, {"lat": 38.84507933333333, "is_disabled": 0, "type": "electric_bike", "lon": -76.99354133333334, "bike_id": "529917f3d2bc354222ba9ff5ee59bea4", "fusion_lat": 0.0, "name": "529917f3d2bc354222ba9ff5ee59bea4", "is_reserved": 0, "rental_uris": {"android": "https://dc.lft.to/lastmile_qr_scan", "ios": "https://dc.lft.to/lastmile_qr_scan"}, "fusion_lon": 0.0}, {"lat": 38.953448333333334, "is_disabled": 0, "type": "electric_scooter", "lon": -77.06919733333334, "bike_id": "015f73ac477a493e321d6ea9ea0c55bf", "fusion_lat": 0.0, "name": "015f73ac477a493e321d6ea9ea0c55bf", "is_reserved": 0, "rental_uris": {"android": "https://dc.lft.to/lastmile_qr_scan", "ios": "https://dc.lft.to/lastmile_qr_scan"}, "fusion_lon": 0.0}, {"lat": 38.90316333333333, "is_disabled": 0, "type": "electric_scooter", "lon": -77.05219733333334, "bike_id": "6ac3a5bdec740e122e02a5c40ac16ea0", "fusion_lat": 0.0, "name": "6ac3a5bdec740e122e02a5c40ac16ea0", "is_reserved": 0, "rental_uris": {"android": "https://dc.lft.to/lastmile_qr_scan", "ios": "https://dc.lft.to/lastmile_qr_scan"}, "fusion_lon": 0.0}, {"lat": 38.918716, "is_disabled": 0, "type": "electric_scooter", "lon": -77.0349485, "bike_id": "852ec3c9afeecc763cf0c153a23279fb", "fusion_lat": 0.0, "name": "852ec3c9afeecc763cf0c153a23279fb", "is_reserved": 0, "rental_uris": {"android": "https://dc.lft.to/lastmile_qr_scan", "ios": "https://dc.lft.to/lastmile_qr_scan"}, "fusion_lon": 0.0}, {"lat": 38.905867, "is_disabled": 0, "type": "electric_scooter", "lon": -76.98618866666666, "bike_id": "a0e5426b4ac27010631d14e8d2060863", "fusion_lat": 0.0, "name": "a0e5426b4ac27010631d14e8d2060863", "is_reserved": 0, "rental_uris": {"android": "https://dc.lft.to/lastmile_qr_scan", "ios": "https://dc.lft.to/lastmile_qr_scan"}, "fusion_lon": 0.0}, {"lat": 38.8706475, "is_disabled": 0, "type": "electric_scooter", "lon": -77.00835383333333, "bike_id": "6816ba689a45aa597eee5826688805f7", "fusion_lat": 0.0, "name": "6816ba689a45aa597eee5826688805f7", "is_reserved": 0, "rental_uris": {"android": "https://dc.lft.to/lastmile_qr_scan", "ios": "https://dc.lft.to/lastmile_qr_scan"}, "fusion_lon": 0.0}, {"lat": 38.93434033333333, "is_disabled": 0, "type": "electric_scooter", "lon": -77.034604, "bike_id": "fdab3cf863f654a24d97ac1b9ca4acd3", "fusion_lat": 0.0, "name": "fdab3cf863f654a24d97ac1b9ca4acd3", "is_reserved": 0, "rental_uris": {"android": "https://dc.lft.to/lastmile_qr_scan", "ios": "https://dc.lft.to/lastmile_qr_scan"}, "fusion_lon": 0.0}, {"lat": 38.862115333333335, "is_disabled": 0, "type": "electric_bike", "lon": -76.997795, "bike_id": "e37568c05a7166d98fc336367811385d", "fusion_lat": 0.0, "name": "e37568c05a7166d98fc336367811385d", "is_reserved": 0, "rental_uris": {"android": "https://dc.lft.to/lastmile_qr_scan", "ios": "https://dc.lft.to/lastmile_qr_scan"}, "fusion_lon": 0.0}, {"lat": 38.8667725, "is_disabled": 0, "type": "electric_scooter", "lon": -76.98540933333334, "bike_id": "4398abc952d14e01228a125ad78a6c19", "fusion_lat": 0.0, "name": "4398abc952d14e01228a125ad78a6c19", "is_reserved": 0, "rental_uris": {"android": "https://dc.lft.to/lastmile_qr_scan", "ios": "https://dc.lft.to/lastmile_qr_scan"}, "fusion_lon": 0.0}, {"lat": 38.91435, "is_disabled": 0, "type": "electric_bike", "lon": -77.017065, "bike_id": "dd1493c43b9fbc957744288945a2eab1", "fusion_lat": 0.0, "name": "dd1493c43b9fbc957744288945a2eab1", "is_reserved": 0, "rental_uris": {"android": "https://dc.lft.to/lastmile_qr_scan", "ios": "https://dc.lft.to/lastmile_qr_scan"}, "fusion_lon": 0.0}, {"lat": 38.883985833333334, "is_disabled": 0, "type": "electric_bike", "lon": -76.95430916666666, "bike_id": "cac04fb9044fd75716e95c91389e63c4", "fusion_lat": 0.0, "name": "cac04fb9044fd75716e95c91389e63c4", "is_reserved": 0, "rental_uris": {"android": "https://dc.lft.to/lastmile_qr_scan", "ios": "https://dc.lft.to/lastmile_qr_scan"}, "fusion_lon": 0.0}, {"lat": 38.88738216666667, "is_disabled": 0, "type": "electric_scooter", "lon": -77.0153085, "bike_id": "a53062e74a796653c86618bf123b6367", "fusion_lat": 0.0, "name": "a53062e74a796653c86618bf123b6367", "is_reserved": 0, "rental_uris": {"android": "https://dc.lft.to/lastmile_qr_scan", "ios": "https://dc.lft.to/lastmile_qr_scan"}, "fusion_lon": 0.0}, {"lat": 38.888862833333334, "is_disabled": 0, "type": "electric_scooter", "lon": -76.93156516666667, "bike_id": "c370c24e8fd82f754318b1d7ae763641", "fusion_lat": 0.0, "name": "c370c24e8fd82f754318b1d7ae763641", "is_reserved": 0, "rental_uris": {"android": "https://dc.lft.to/lastmile_qr_scan", "ios": "https://dc.lft.to/lastmile_qr_scan"}, "fusion_lon": 0.0}, {"lat": 38.931749, "is_disabled": 0, "type": "electric_scooter", "lon": -77.0281775, "bike_id": "962a4cd645faf0898281d21c0858ffaf", "fusion_lat": 0.0, "name": "962a4cd645faf0898281d21c0858ffaf", "is_reserved": 0, "rental_uris": {"android": "https://dc.lft.to/lastmile_qr_scan", "ios": "https://dc.lft.to/lastmile_qr_scan"}, "fusion_lon": 0.0}, {"lat": 38.90721416666667, "is_disabled": 0, "type": "electric_scooter", "lon": -77.04643583333333, "bike_id": "67ec7162e3b6c0051ae2c8bf93af1893", "fusion_lat": 0.0, "name": "67ec7162e3b6c0051ae2c8bf93af1893", "is_reserved": 0, "rental_uris": {"android": "https://dc.lft.to/lastmile_qr_scan", "ios": "https://dc.lft.to/lastmile_qr_scan"}, "fusion_lon": 0.0}, {"lat": 38.961492166666666, "is_disabled": 0, "type": "electric_scooter", "lon": -77.027823, "bike_id": "e705ff2b8fff5940804c3c6d2ee2a15f", "fusion_lat": 0.0, "name": "e705ff2b8fff5940804c3c6d2ee2a15f", "is_reserved": 0, "rental_uris": {"android": "https://dc.lft.to/lastmile_qr_scan", "ios": "https://dc.lft.to/lastmile_qr_scan"}, "fusion_lon": 0.0}, {"lat": 38.91191166666667, "is_disabled": 0, "type": "electric_scooter", "lon": -77.0430255, "bike_id": "6f1af92ba44aef8535a4ffe203d61899", "fusion_lat": 0.0, "name": "6f1af92ba44aef8535a4ffe203d61899", "is_reserved": 0, "rental_uris": {"android": "https://dc.lft.to/lastmile_qr_scan", "ios": "https://dc.lft.to/lastmile_qr_scan"}, "fusion_lon": 0.0}, {"lat": 39.0563385, "is_disabled": 0, "type": "electric_bike", "lon": -77.12526883333334, "bike_id": "1090b0bf0145a5a8bdf3ef59486552a7", "fusion_lat": 0.0, "name": "1090b0bf0145a5a8bdf3ef59486552a7", "is_reserved": 0, "rental_uris": {"android": "https://dc.lft.to/lastmile_qr_scan", "ios": "https://dc.lft.to/lastmile_qr_scan"}, "fusion_lon": 0.0}, {"lat": 38.9320845, "is_disabled": 0, "type": "electric_scooter", "lon": -77.02247266666667, "bike_id": "dddbcd66f7e75c772d20d9f6f0d4ce9c", "fusion_lat": 0.0, "name": "dddbcd66f7e75c772d20d9f6f0d4ce9c", "is_reserved": 0, "rental_uris": {"android": "https://dc.lft.to/lastmile_qr_scan", "ios": "https://dc.lft.to/lastmile_qr_scan"}, "fusion_lon": 0.0}, {"lat": 38.89042283333333, "is_disabled": 0, "type": "electric_scooter", "lon": -76.95247833333333, "bike_id": "870dec5adee5125444ff031297ab9a13", "fusion_lat": 0.0, "name": "870dec5adee5125444ff031297ab9a13", "is_reserved": 0, "rental_uris": {"android": "https://dc.lft.to/lastmile_qr_scan", "ios": "https://dc.lft.to/lastmile_qr_scan"}, "fusion_lon": 0.0}, {"lat": 38.908297833333336, "is_disabled": 0, "type": "electric_scooter", "lon": -77.00228016666667, "bike_id": "dbfdbdd28e70c500e646787b1f2bae52", "fusion_lat": 0.0, "name": "dbfdbdd28e70c500e646787b1f2bae52", "is_reserved": 0, "rental_uris": {"android": "https://dc.lft.to/lastmile_qr_scan", "ios": "https://dc.lft.to/lastmile_qr_scan"}, "fusion_lon": 0.0}, {"lat": 38.925501, "is_disabled": 0, "type": "electric_scooter", "lon": -77.0334165, "bike_id": "6ef7495cec91fee6fe9165adb8be41bd", "fusion_lat": 0.0, "name": "6ef7495cec91fee6fe9165adb8be41bd", "is_reserved": 0, "rental_uris": {"android": "https://dc.lft.to/lastmile_qr_scan", "ios": "https://dc.lft.to/lastmile_qr_scan"}, "fusion_lon": 0.0}, {"lat": 38.924814166666664, "is_disabled": 0, "type": "electric_scooter", "lon": -77.02840516666667, "bike_id": "a6ff384f94e7de0ad7b2df54a4c29e88", "fusion_lat": 0.0, "name": "a6ff384f94e7de0ad7b2df54a4c29e88", "is_reserved": 0, "rental_uris": {"android": "https://dc.lft.to/lastmile_qr_scan", "ios": "https://dc.lft.to/lastmile_qr_scan"}, "fusion_lon": 0.0}, {"lat": 38.898192333333334, "is_disabled": 0, "type": "electric_scooter", "lon": -76.99693683333334, "bike_id": "02726a689a6e16337bd7f26dd9544c28", "fusion_lat": 0.0, "name": "02726a689a6e16337bd7f26dd9544c28", "is_reserved": 0, "rental_uris": {"android": "https://dc.lft.to/lastmile_qr_scan", "ios": "https://dc.lft.to/lastmile_qr_scan"}, "fusion_lon": 0.0}, {"lat": 38.91965666666667, "is_disabled": 0, "type": "electric_scooter", "lon": -77.0120935, "bike_id": "0dece2b01786787cd56aafa3a34edd28", "fusion_lat": 0.0, "name": "0dece2b01786787cd56aafa3a34edd28", "is_reserved": 0, "rental_uris": {"android": "https://dc.lft.to/lastmile_qr_scan", "ios": "https://dc.lft.to/lastmile_qr_scan"}, "fusion_lon": 0.0}, {"lat": 38.844319, "is_disabled": 0, "type": "electric_scooter", "lon": -76.9966545, "bike_id": "5d07dcb0a3b4c5c49c041bcceeb165ec", "fusion_lat": 0.0, "name": "5d07dcb0a3b4c5c49c041bcceeb165ec", "is_reserved": 0, "rental_uris": {"android": "https://dc.lft.to/lastmile_qr_scan", "ios": "https://dc.lft.to/lastmile_qr_scan"}, "fusion_lon": 0.0}, {"lat": 38.907399166666664, "is_disabled": 0, "type": "electric_scooter", "lon": -77.039846, "bike_id": "5763824cb097012a631b41b6af5997cb", "fusion_lat": 0.0, "name": "5763824cb097012a631b41b6af5997cb", "is_reserved": 0, "rental_uris": {"android": "https://dc.lft.to/lastmile_qr_scan", "ios": "https://dc.lft.to/lastmile_qr_scan"}, "fusion_lon": 0.0}, {"lat": 38.85187833333333, "is_disabled": 0, "type": "electric_scooter", "lon": -76.97622433333333, "bike_id": "1a0ced88f36b0f13a080b7f962621e33", "fusion_lat": 0.0, "name": "1a0ced88f36b0f13a080b7f962621e33", "is_reserved": 0, "rental_uris": {"android": "https://dc.lft.to/lastmile_qr_scan", "ios": "https://dc.lft.to/lastmile_qr_scan"}, "fusion_lon": 0.0}, {"lat": 38.937426333333335, "is_disabled": 0, "type": "electric_scooter", "lon": -77.03623916666666, "bike_id": "78c82a10773f16185edd5a4406d9fd56", "fusion_lat": 0.0, "name": "78c82a10773f16185edd5a4406d9fd56", "is_reserved": 0, "rental_uris": {"android": "https://dc.lft.to/lastmile_qr_scan", "ios": "https://dc.lft.to/lastmile_qr_scan"}, "fusion_lon": 0.0}, {"lat": 38.89250533333333, "is_disabled": 0, "type": "electric_scooter", "lon": -77.03352816666667, "bike_id": "13da52ac33307233733c0da7d3b19013", "fusion_lat": 0.0, "name": "13da52ac33307233733c0da7d3b19013", "is_reserved": 0, "rental_uris": {"android": "https://dc.lft.to/lastmile_qr_scan", "ios": "https://dc.lft.to/lastmile_qr_scan"}, "fusion_lon": 0.0}, {"lat": 38.9258915, "is_disabled": 0, "type": "electric_scooter", "lon": -77.04405933333334, "bike_id": "cadfe441ff3f47e31ecd15ef18eab320", "fusion_lat": 0.0, "name": "cadfe441ff3f47e31ecd15ef18eab320", "is_reserved": 0, "rental_uris": {"android": "https://dc.lft.to/lastmile_qr_scan", "ios": "https://dc.lft.to/lastmile_qr_scan"}, "fusion_lon": 0.0}, {"lat": 38.862577333333334, "is_disabled": 0, "type": "electric_scooter", "lon": -76.99517183333333, "bike_id": "de08ea832e53208de5bb660330e46233", "fusion_lat": 0.0, "name": "de08ea832e53208de5bb660330e46233", "is_reserved": 0, "rental_uris": {"android": "https://dc.lft.to/lastmile_qr_scan", "ios": "https://dc.lft.to/lastmile_qr_scan"}, "fusion_lon": 0.0}, {"lat": 38.8985065, "is_disabled": 0, "type": "electric_scooter", "lon": -76.99034416666667, "bike_id": "93e90fdb6ba8fc064863c466c0213e4c", "fusion_lat": 0.0, "name": "93e90fdb6ba8fc064863c466c0213e4c", "is_reserved": 0, "rental_uris": {"android": "https://dc.lft.to/lastmile_qr_scan", "ios": "https://dc.lft.to/lastmile_qr_scan"}, "fusion_lon": 0.0}, {"lat": 38.93655533333333, "is_disabled": 0, "type": "electric_bike", "lon": -76.9522115, "bike_id": "ae9a0973b9d0a06238879c1dd551b77d", "fusion_lat": 0.0, "name": "ae9a0973b9d0a06238879c1dd551b77d", "is_reserved": 0, "rental_uris": {"android": "https://dc.lft.to/lastmile_qr_scan", "ios": "https://dc.lft.to/lastmile_qr_scan"}, "fusion_lon": 0.0}, {"lat": 39.034199666666666, "is_disabled": 0, "type": "electric_bike", "lon": -77.04300933333333, "bike_id": "a0e00fe3f68d978115805d9170b96fae", "fusion_lat": 0.0, "name": "a0e00fe3f68d978115805d9170b96fae", "is_reserved": 0, "rental_uris": {"android": "https://dc.lft.to/lastmile_qr_scan", "ios": "https://dc.lft.to/lastmile_qr_scan"}, "fusion_lon": 0.0}, {"lat": 38.89731583333333, "is_disabled": 0, "type": "electric_scooter", "lon": -77.04985683333334, "bike_id": "b04f21d17e6b4011a0997b846cd77180", "fusion_lat": 0.0, "name": "b04f21d17e6b4011a0997b846cd77180", "is_reserved": 0, "rental_uris": {"android": "https://dc.lft.to/lastmile_qr_scan", "ios": "https://dc.lft.to/lastmile_qr_scan"}, "fusion_lon": 0.0}, {"lat": 38.9643565, "is_disabled": 0, "type": "electric_bike", "lon": -77.02148266666667, "bike_id": "0d0915e51652e88f96f92bbb8bb20b04", "fusion_lat": 0.0, "name": "0d0915e51652e88f96f92bbb8bb20b04", "is_reserved": 0, "rental_uris": {"android": "https://dc.lft.to/lastmile_qr_scan", "ios": "https://dc.lft.to/lastmile_qr_scan"}, "fusion_lon": 0.0}, {"lat": 38.945487666666665, "is_disabled": 0, "type": "electric_bike", "lon": -76.89532633333333, "bike_id": "f33de402f9dc5fe112634c9683f31858", "fusion_lat": 0.0, "name": "f33de402f9dc5fe112634c9683f31858", "is_reserved": 0, "rental_uris": {"android": "https://dc.lft.to/lastmile_qr_scan", "ios": "https://dc.lft.to/lastmile_qr_scan"}, "fusion_lon": 0.0}, {"lat": 38.90254266666667, "is_disabled": 0, "type": "electric_scooter", "lon": -77.0174485, "bike_id": "cf85e4dddd6f8423ab9bdb1b0dd64178", "fusion_lat": 0.0, "name": "cf85e4dddd6f8423ab9bdb1b0dd64178", "is_reserved": 0, "rental_uris": {"android": "https://dc.lft.to/lastmile_qr_scan", "ios": "https://dc.lft.to/lastmile_qr_scan"}, "fusion_lon": 0.0}, {"lat": 38.909712999999996, "is_disabled": 0, "type": "electric_scooter", "lon": -77.047859, "bike_id": "ffc20c82a7217460b60f012b2bc48cc6", "fusion_lat": 0.0, "name": "ffc20c82a7217460b60f012b2bc48cc6", "is_reserved": 0, "rental_uris": {"android": "https://dc.lft.to/lastmile_qr_scan", "ios": "https://dc.lft.to/lastmile_qr_scan"}, "fusion_lon": 0.0}, {"lat": 38.90846033333333, "is_disabled": 0, "type": "electric_scooter", "lon": -77.04013166666667, "bike_id": "1be1de3ff5bd3b14dde466702fbf0fdc", "fusion_lat": 0.0, "name": "1be1de3ff5bd3b14dde466702fbf0fdc", "is_reserved": 0, "rental_uris": {"android": "https://dc.lft.to/lastmile_qr_scan", "ios": "https://dc.lft.to/lastmile_qr_scan"}, "fusion_lon": 0.0}, {"lat": 38.90545083333333, "is_disabled": 0, "type": "electric_scooter", "lon": -77.00579133333333, "bike_id": "5eddd8d048a1ea2864681578111d8e19", "fusion_lat": 0.0, "name": "5eddd8d048a1ea2864681578111d8e19", "is_reserved": 0, "rental_uris": {"android": "https://dc.lft.to/lastmile_qr_scan", "ios": "https://dc.lft.to/lastmile_qr_scan"}, "fusion_lon": 0.0}, {"lat": 38.99254966666667, "is_disabled": 0, "type": "electric_scooter", "lon": -77.036596, "bike_id": "5a8124670dd2198398b54de7b53756c4", "fusion_lat": 0.0, "name": "5a8124670dd2198398b54de7b53756c4", "is_reserved": 0, "rental_uris": {"android": "https://dc.lft.to/lastmile_qr_scan", "ios": "https://dc.lft.to/lastmile_qr_scan"}, "fusion_lon": 0.0}, {"lat": 38.917588, "is_disabled": 0, "type": "electric_scooter", "lon": -77.01474783333333, "bike_id": "ff4b7fc18d04c495e4d80b979fde91ac", "fusion_lat": 0.0, "name": "ff4b7fc18d04c495e4d80b979fde91ac", "is_reserved": 0, "rental_uris": {"android": "https://dc.lft.to/lastmile_qr_scan", "ios": "https://dc.lft.to/lastmile_qr_scan"}, "fusion_lon": 0.0}, {"lat": 38.919394, "is_disabled": 0, "type": "electric_scooter", "lon": -77.0705825, "bike_id": "1c2836bdcd574936bf31ccc3d590e02a", "fusion_lat": 0.0, "name": "1c2836bdcd574936bf31ccc3d590e02a", "is_reserved": 0, "rental_uris": {"android": "https://dc.lft.to/lastmile_qr_scan", "ios": "https://dc.lft.to/lastmile_qr_scan"}, "fusion_lon": 0.0}, {"lat": 38.858057, "is_disabled": 0, "type": "electric_scooter", "lon": -76.98649766666666, "bike_id": "4d7964245b38db599f599a9b7b511439", "fusion_lat": 0.0, "name": "4d7964245b38db599f599a9b7b511439", "is_reserved": 0, "rental_uris": {"android": "https://dc.lft.to/lastmile_qr_scan", "ios": "https://dc.lft.to/lastmile_qr_scan"}, "fusion_lon": 0.0}, {"lat": 38.91033566666667, "is_disabled": 0, "type": "electric_scooter", "lon": -77.04887916666667, "bike_id": "075070c5da0c188c656252d9c976dc2a", "fusion_lat": 0.0, "name": "075070c5da0c188c656252d9c976dc2a", "is_reserved": 0, "rental_uris": {"android": "https://dc.lft.to/lastmile_qr_scan", "ios": "https://dc.lft.to/lastmile_qr_scan"}, "fusion_lon": 0.0}, {"lat": 38.9126005, "is_disabled": 0, "type": "electric_scooter", "lon": -76.98357533333333, "bike_id": "16f91e4cd9b941360f4ccad4570ab5e4", "fusion_lat": 0.0, "name": "16f91e4cd9b941360f4ccad4570ab5e4", "is_reserved": 0, "rental_uris": {"android": "https://dc.lft.to/lastmile_qr_scan", "ios": "https://dc.lft.to/lastmile_qr_scan"}, "fusion_lon": 0.0}, {"lat": 38.91568016666667, "is_disabled": 0, "type": "electric_scooter", "lon": -77.03840066666666, "bike_id": "2b14374f6a58fc77a03291580a4d732c", "fusion_lat": 0.0, "name": "2b14374f6a58fc77a03291580a4d732c", "is_reserved": 0, "rental_uris": {"android": "https://dc.lft.to/lastmile_qr_scan", "ios": "https://dc.lft.to/lastmile_qr_scan"}, "fusion_lon": 0.0}, {"lat": 38.96612183333333, "is_disabled": 0, "type": "electric_scooter", "lon": -77.02054133333333, "bike_id": "ffcadff72962a40dcb7428408bf523ac", "fusion_lat": 0.0, "name": "ffcadff72962a40dcb7428408bf523ac", "is_reserved": 0, "rental_uris": {"android": "https://dc.lft.to/lastmile_qr_scan", "ios": "https://dc.lft.to/lastmile_qr_scan"}, "fusion_lon": 0.0}, {"lat": 38.9209325, "is_disabled": 0, "type": "electric_scooter", "lon": -77.022169, "bike_id": "ba3703fcb7aa4434141f4f5ce864ab09", "fusion_lat": 0.0, "name": "ba3703fcb7aa4434141f4f5ce864ab09", "is_reserved": 0, "rental_uris": {"android": "https://dc.lft.to/lastmile_qr_scan", "ios": "https://dc.lft.to/lastmile_qr_scan"}, "fusion_lon": 0.0}, {"lat": 38.8848935, "is_disabled": 0, "type": "electric_scooter", "lon": -77.03473133333334, "bike_id": "c99d8f63c7623f88caa2dadbfe55b000", "fusion_lat": 0.0, "name": "c99d8f63c7623f88caa2dadbfe55b000", "is_reserved": 0, "rental_uris": {"android": "https://dc.lft.to/lastmile_qr_scan", "ios": "https://dc.lft.to/lastmile_qr_scan"}, "fusion_lon": 0.0}, {"lat": 38.92664533333333, "is_disabled": 0, "type": "electric_scooter", "lon": -76.997498, "bike_id": "5563e0ab0dcc2f2f08644ef97bf980de", "fusion_lat": 0.0, "name": "5563e0ab0dcc2f2f08644ef97bf980de", "is_reserved": 0, "rental_uris": {"android": "https://dc.lft.to/lastmile_qr_scan", "ios": "https://dc.lft.to/lastmile_qr_scan"}, "fusion_lon": 0.0}, {"lat": 38.856767166666664, "is_disabled": 0, "type": "electric_scooter", "lon": -76.98166433333333, "bike_id": "9d5001bd53eeb4cecdd4754ca9c874ff", "fusion_lat": 0.0, "name": "9d5001bd53eeb4cecdd4754ca9c874ff", "is_reserved": 0, "rental_uris": {"android": "https://dc.lft.to/lastmile_qr_scan", "ios": "https://dc.lft.to/lastmile_qr_scan"}, "fusion_lon": 0.0}, {"lat": 38.895997666666666, "is_disabled": 0, "type": "electric_scooter", "lon": -77.0214525, "bike_id": "96e336ab8fa9bd828f93280d6d3be68e", "fusion_lat": 0.0, "name": "96e336ab8fa9bd828f93280d6d3be68e", "is_reserved": 0, "rental_uris": {"android": "https://dc.lft.to/lastmile_qr_scan", "ios": "https://dc.lft.to/lastmile_qr_scan"}, "fusion_lon": 0.0}, {"lat": 38.83726633333333, "is_disabled": 0, "type": "electric_bike", "lon": -76.9976365, "bike_id": "443f374f1d675ff240750c6eb23de139", "fusion_lat": 0.0, "name": "443f374f1d675ff240750c6eb23de139", "is_reserved": 0, "rental_uris": {"android": "https://dc.lft.to/lastmile_qr_scan", "ios": "https://dc.lft.to/lastmile_qr_scan"}, "fusion_lon": 0.0}, {"lat": 38.8650985, "is_disabled": 0, "type": "electric_scooter", "lon": -76.99003983333333, "bike_id": "e135c52d4e382aee44da4206501fd69b", "fusion_lat": 0.0, "name": "e135c52d4e382aee44da4206501fd69b", "is_reserved": 0, "rental_uris": {"android": "https://dc.lft.to/lastmile_qr_scan", "ios": "https://dc.lft.to/lastmile_qr_scan"}, "fusion_lon": 0.0}, {"lat": 38.9225295, "is_disabled": 0, "type": "electric_scooter", "lon": -77.04244, "bike_id": "61655cfd3d2bf8a239704f23af7c9a4e", "fusion_lat": 0.0, "name": "61655cfd3d2bf8a239704f23af7c9a4e", "is_reserved": 0, "rental_uris": {"android": "https://dc.lft.to/lastmile_qr_scan", "ios": "https://dc.lft.to/lastmile_qr_scan"}, "fusion_lon": 0.0}, {"lat": 38.921096666666664, "is_disabled": 0, "type": "electric_scooter", "lon": -77.04171466666666, "bike_id": "cf0916a88406d1fc7d648299d30c9664", "fusion_lat": 0.0, "name": "cf0916a88406d1fc7d648299d30c9664", "is_reserved": 0, "rental_uris": {"android": "https://dc.lft.to/lastmile_qr_scan", "ios": "https://dc.lft.to/lastmile_qr_scan"}, "fusion_lon": 0.0}, {"lat": 38.9341345, "is_disabled": 0, "type": "electric_scooter", "lon": -77.024608, "bike_id": "57ca562f52a3f4d6ee6c88dead837264", "fusion_lat": 0.0, "name": "57ca562f52a3f4d6ee6c88dead837264", "is_reserved": 0, "rental_uris": {"android": "https://dc.lft.to/lastmile_qr_scan", "ios": "https://dc.lft.to/lastmile_qr_scan"}, "fusion_lon": 0.0}, {"lat": 38.91670583333333, "is_disabled": 0, "type": "electric_scooter", "lon": -77.0472605, "bike_id": "1db76176f2c7b4b1215677f91eefc9f8", "fusion_lat": 0.0, "name": "1db76176f2c7b4b1215677f91eefc9f8", "is_reserved": 0, "rental_uris": {"android": "https://dc.lft.to/lastmile_qr_scan", "ios": "https://dc.lft.to/lastmile_qr_scan"}, "fusion_lon": 0.0}, {"lat": 38.8954515, "is_disabled": 0, "type": "electric_scooter", "lon": -77.0043425, "bike_id": "8db4f1dc67ed565685b92fb8dc37dded", "fusion_lat": 0.0, "name": "8db4f1dc67ed565685b92fb8dc37dded", "is_reserved": 0, "rental_uris": {"android": "https://dc.lft.to/lastmile_qr_scan", "ios": "https://dc.lft.to/lastmile_qr_scan"}, "fusion_lon": 0.0}, {"lat": 38.842757166666665, "is_disabled": 0, "type": "electric_bike", "lon": -76.98842766666667, "bike_id": "444e86c5a10594340e1fecac5f8fd47b", "fusion_lat": 0.0, "name": "444e86c5a10594340e1fecac5f8fd47b", "is_reserved": 0, "rental_uris": {"android": "https://dc.lft.to/lastmile_qr_scan", "ios": "https://dc.lft.to/lastmile_qr_scan"}, "fusion_lon": 0.0}, {"lat": 38.901171, "is_disabled": 0, "type": "electric_scooter", "lon": -77.02935766666667, "bike_id": "3a75232bafff4c910608b37d75064aab", "fusion_lat": 0.0, "name": "3a75232bafff4c910608b37d75064aab", "is_reserved": 0, "rental_uris": {"android": "https://dc.lft.to/lastmile_qr_scan", "ios": "https://dc.lft.to/lastmile_qr_scan"}, "fusion_lon": 0.0}, {"lat": 38.98278766666667, "is_disabled": 0, "type": "electric_bike", "lon": -77.02542383333333, "bike_id": "7825b0ed6f4073623fb45502956dc06b", "fusion_lat": 0.0, "name": "7825b0ed6f4073623fb45502956dc06b", "is_reserved": 0, "rental_uris": {"android": "https://dc.lft.to/lastmile_qr_scan", "ios": "https://dc.lft.to/lastmile_qr_scan"}, "fusion_lon": 0.0}, {"lat": 38.94067183333333, "is_disabled": 0, "type": "electric_scooter", "lon": -76.99455516666667, "bike_id": "a8dea4a1e1c27286bdcc7a1d638a93d5", "fusion_lat": 0.0, "name": "a8dea4a1e1c27286bdcc7a1d638a93d5", "is_reserved": 0, "rental_uris": {"android": "https://dc.lft.to/lastmile_qr_scan", "ios": "https://dc.lft.to/lastmile_qr_scan"}, "fusion_lon": 0.0}, {"lat": 38.90264283333333, "is_disabled": 0, "type": "electric_scooter", "lon": -77.019991, "bike_id": "03b4902c0e3b603039297db6c2157a69", "fusion_lat": 0.0, "name": "03b4902c0e3b603039297db6c2157a69", "is_reserved": 0, "rental_uris": {"android": "https://dc.lft.to/lastmile_qr_scan", "ios": "https://dc.lft.to/lastmile_qr_scan"}, "fusion_lon": 0.0}, {"lat": 38.8976595, "is_disabled": 0, "type": "electric_scooter", "lon": -77.04997083333333, "bike_id": "ba30c9e9ebd27d609dc6fdf10add104a", "fusion_lat": 0.0, "name": "ba30c9e9ebd27d609dc6fdf10add104a", "is_reserved": 0, "rental_uris": {"android": "https://dc.lft.to/lastmile_qr_scan", "ios": "https://dc.lft.to/lastmile_qr_scan"}, "fusion_lon": 0.0}, {"lat": 38.9307855, "is_disabled": 0, "type": "electric_scooter", "lon": -77.07765766666667, "bike_id": "96d5ca6c0b0ec6a025ef4bddf5edeca4", "fusion_lat": 0.0, "name": "96d5ca6c0b0ec6a025ef4bddf5edeca4", "is_reserved": 0, "rental_uris": {"android": "https://dc.lft.to/lastmile_qr_scan", "ios": "https://dc.lft.to/lastmile_qr_scan"}, "fusion_lon": 0.0}, {"lat": 38.90180466666666, "is_disabled": 0, "type": "electric_scooter", "lon": -77.02435716666666, "bike_id": "b751f82a2639be45cf7f2ce1d3516429", "fusion_lat": 0.0, "name": "b751f82a2639be45cf7f2ce1d3516429", "is_reserved": 0, "rental_uris": {"android": "https://dc.lft.to/lastmile_qr_scan", "ios": "https://dc.lft.to/lastmile_qr_scan"}, "fusion_lon": 0.0}, {"lat": 38.88479233333333, "is_disabled": 0, "type": "electric_scooter", "lon": -76.94526016666667, "bike_id": "3c5b8e18312415b45b6247ebd4d34085", "fusion_lat": 0.0, "name": "3c5b8e18312415b45b6247ebd4d34085", "is_reserved": 0, "rental_uris": {"android": "https://dc.lft.to/lastmile_qr_scan", "ios": "https://dc.lft.to/lastmile_qr_scan"}, "fusion_lon": 0.0}, {"lat": 38.9176435, "is_disabled": 0, "type": "electric_scooter", "lon": -77.02243466666667, "bike_id": "5d0956d18bfcecc7c4f8ce956acd713e", "fusion_lat": 0.0, "name": "5d0956d18bfcecc7c4f8ce956acd713e", "is_reserved": 0, "rental_uris": {"android": "https://dc.lft.to/lastmile_qr_scan", "ios": "https://dc.lft.to/lastmile_qr_scan"}, "fusion_lon": 0.0}, {"lat": 38.9005395, "is_disabled": 0, "type": "electric_scooter", "lon": -76.98372, "bike_id": "a8f9f6ec46bceeff56b64d9db8498db2", "fusion_lat": 0.0, "name": "a8f9f6ec46bceeff56b64d9db8498db2", "is_reserved": 0, "rental_uris": {"android": "https://dc.lft.to/lastmile_qr_scan", "ios": "https://dc.lft.to/lastmile_qr_scan"}, "fusion_lon": 0.0}, {"lat": 38.931481166666664, "is_disabled": 0, "type": "electric_scooter", "lon": -77.0214175, "bike_id": "e6a73166ad5a698c57edcbaf7810e701", "fusion_lat": 0.0, "name": "e6a73166ad5a698c57edcbaf7810e701", "is_reserved": 0, "rental_uris": {"android": "https://dc.lft.to/lastmile_qr_scan", "ios": "https://dc.lft.to/lastmile_qr_scan"}, "fusion_lon": 0.0}, {"lat": 38.85031266666667, "is_disabled": 0, "type": "electric_bike", "lon": -77.0980335, "bike_id": "89634b762cc535fc26051fdbd9a3afd3", "fusion_lat": 0.0, "name": "89634b762cc535fc26051fdbd9a3afd3", "is_reserved": 0, "rental_uris": {"android": "https://dc.lft.to/lastmile_qr_scan", "ios": "https://dc.lft.to/lastmile_qr_scan"}, "fusion_lon": 0.0}, {"lat": 38.8857785, "is_disabled": 0, "type": "electric_scooter", "lon": -76.9190955, "bike_id": "4ba1c8405ab1e3ec49a0171a7939e841", "fusion_lat": 0.0, "name": "4ba1c8405ab1e3ec49a0171a7939e841", "is_reserved": 0, "rental_uris": {"android": "https://dc.lft.to/lastmile_qr_scan", "ios": "https://dc.lft.to/lastmile_qr_scan"}, "fusion_lon": 0.0}, {"lat": 38.9373685, "is_disabled": 0, "type": "electric_scooter", "lon": -77.03475416666667, "bike_id": "11fcbe1622541b40fcb959dba30a7efe", "fusion_lat": 0.0, "name": "11fcbe1622541b40fcb959dba30a7efe", "is_reserved": 0, "rental_uris": {"android": "https://dc.lft.to/lastmile_qr_scan", "ios": "https://dc.lft.to/lastmile_qr_scan"}, "fusion_lon": 0.0}, {"lat": 38.95402583333333, "is_disabled": 0, "type": "electric_scooter", "lon": -77.02741466666667, "bike_id": "9fd413c7ca2ea6507677d0338b9a4cc0", "fusion_lat": 0.0, "name": "9fd413c7ca2ea6507677d0338b9a4cc0", "is_reserved": 0, "rental_uris": {"android": "https://dc.lft.to/lastmile_qr_scan", "ios": "https://dc.lft.to/lastmile_qr_scan"}, "fusion_lon": 0.0}, {"lat": 38.922496, "is_disabled": 0, "type": "electric_scooter", "lon": -77.0308655, "bike_id": "16ee07b13cb673112a699fbf1a15c3a5", "fusion_lat": 0.0, "name": "16ee07b13cb673112a699fbf1a15c3a5", "is_reserved": 0, "rental_uris": {"android": "https://dc.lft.to/lastmile_qr_scan", "ios": "https://dc.lft.to/lastmile_qr_scan"}, "fusion_lon": 0.0}, {"lat": 38.92738416666667, "is_disabled": 0, "type": "electric_scooter", "lon": -77.02591133333334, "bike_id": "28de315caf56774c4353bfe89e01c91b", "fusion_lat": 0.0, "name": "28de315caf56774c4353bfe89e01c91b", "is_reserved": 0, "rental_uris": {"android": "https://dc.lft.to/lastmile_qr_scan", "ios": "https://dc.lft.to/lastmile_qr_scan"}, "fusion_lon": 0.0}, {"lat": 38.914013, "is_disabled": 0, "type": "electric_scooter", "lon": -77.02604483333333, "bike_id": "7843785111f73ee724175a44d5bc2aa7", "fusion_lat": 0.0, "name": "7843785111f73ee724175a44d5bc2aa7", "is_reserved": 0, "rental_uris": {"android": "https://dc.lft.to/lastmile_qr_scan", "ios": "https://dc.lft.to/lastmile_qr_scan"}, "fusion_lon": 0.0}, {"lat": 38.92085566666667, "is_disabled": 0, "type": "electric_scooter", "lon": -77.04197966666666, "bike_id": "d65d104b64c5a6fc42676c947b7f6a91", "fusion_lat": 0.0, "name": "d65d104b64c5a6fc42676c947b7f6a91", "is_reserved": 0, "rental_uris": {"android": "https://dc.lft.to/lastmile_qr_scan", "ios": "https://dc.lft.to/lastmile_qr_scan"}, "fusion_lon": 0.0}, {"lat": 38.89840933333333, "is_disabled": 0, "type": "electric_scooter", "lon": -76.981774, "bike_id": "2a97c3ab1f10461dc83cb3963e78886a", "fusion_lat": 0.0, "name": "2a97c3ab1f10461dc83cb3963e78886a", "is_reserved": 0, "rental_uris": {"android": "https://dc.lft.to/lastmile_qr_scan", "ios": "https://dc.lft.to/lastmile_qr_scan"}, "fusion_lon": 0.0}, {"lat": 38.921859833333336, "is_disabled": 0, "type": "electric_scooter", "lon": -77.047094, "bike_id": "293e7face17982edf75e8844d61bce28", "fusion_lat": 0.0, "name": "293e7face17982edf75e8844d61bce28", "is_reserved": 0, "rental_uris": {"android": "https://dc.lft.to/lastmile_qr_scan", "ios": "https://dc.lft.to/lastmile_qr_scan"}, "fusion_lon": 0.0}, {"lat": 38.926002833333335, "is_disabled": 0, "type": "electric_scooter", "lon": -77.05693916666667, "bike_id": "9dac02dd9bb4a214be5d61418e3a252a", "fusion_lat": 0.0, "name": "9dac02dd9bb4a214be5d61418e3a252a", "is_reserved": 0, "rental_uris": {"android": "https://dc.lft.to/lastmile_qr_scan", "ios": "https://dc.lft.to/lastmile_qr_scan"}, "fusion_lon": 0.0}, {"lat": 38.86699183333333, "is_disabled": 0, "type": "electric_scooter", "lon": -76.98710216666667, "bike_id": "4b9ff71c7fa82f91af48b24ba4d9becb", "fusion_lat": 0.0, "name": "4b9ff71c7fa82f91af48b24ba4d9becb", "is_reserved": 0, "rental_uris": {"android": "https://dc.lft.to/lastmile_qr_scan", "ios": "https://dc.lft.to/lastmile_qr_scan"}, "fusion_lon": 0.0}, {"lat": 38.894337666666665, "is_disabled": 0, "type": "electric_scooter", "lon": -77.03158816666667, "bike_id": "7b7755b28dfcd20fce14c5da4d6a32cb", "fusion_lat": 0.0, "name": "7b7755b28dfcd20fce14c5da4d6a32cb", "is_reserved": 0, "rental_uris": {"android": "https://dc.lft.to/lastmile_qr_scan", "ios": "https://dc.lft.to/lastmile_qr_scan"}, "fusion_lon": 0.0}, {"lat": 38.9525865, "is_disabled": 0, "type": "electric_bike", "lon": -77.02393433333333, "bike_id": "60207dfc24f3be65ad256c6e294ce978", "fusion_lat": 0.0, "name": "60207dfc24f3be65ad256c6e294ce978", "is_reserved": 0, "rental_uris": {"android": "https://dc.lft.to/lastmile_qr_scan", "ios": "https://dc.lft.to/lastmile_qr_scan"}, "fusion_lon": 0.0}, {"lat": 38.9167785, "is_disabled": 0, "type": "electric_scooter", "lon": -77.02957766666667, "bike_id": "32dc21edee748d020e8314ade3c81fe5", "fusion_lat": 0.0, "name": "32dc21edee748d020e8314ade3c81fe5", "is_reserved": 0, "rental_uris": {"android": "https://dc.lft.to/lastmile_qr_scan", "ios": "https://dc.lft.to/lastmile_qr_scan"}, "fusion_lon": 0.0}, {"lat": 38.9100505, "is_disabled": 0, "type": "electric_scooter", "lon": -76.98616633333333, "bike_id": "8619757c3e7f599d9013994e56bcde54", "fusion_lat": 0.0, "name": "8619757c3e7f599d9013994e56bcde54", "is_reserved": 0, "rental_uris": {"android": "https://dc.lft.to/lastmile_qr_scan", "ios": "https://dc.lft.to/lastmile_qr_scan"}, "fusion_lon": 0.0}, {"lat": 38.899542333333336, "is_disabled": 0, "type": "electric_scooter", "lon": -77.0339645, "bike_id": "daff3453aa05702bf2c3784ae129ea06", "fusion_lat": 0.0, "name": "daff3453aa05702bf2c3784ae129ea06", "is_reserved": 0, "rental_uris": {"android": "https://dc.lft.to/lastmile_qr_scan", "ios": "https://dc.lft.to/lastmile_qr_scan"}, "fusion_lon": 0.0}, {"lat": 38.924224833333334, "is_disabled": 0, "type": "electric_scooter", "lon": -77.0297985, "bike_id": "be706a939c99d610e12d604c5874afd9", "fusion_lat": 0.0, "name": "be706a939c99d610e12d604c5874afd9", "is_reserved": 0, "rental_uris": {"android": "https://dc.lft.to/lastmile_qr_scan", "ios": "https://dc.lft.to/lastmile_qr_scan"}, "fusion_lon": 0.0}, {"lat": 38.9013865, "is_disabled": 0, "type": "electric_scooter", "lon": -77.01580383333334, "bike_id": "c06f95f23701c6339fe98af3a99a5d21", "fusion_lat": 0.0, "name": "c06f95f23701c6339fe98af3a99a5d21", "is_reserved": 0, "rental_uris": {"android": "https://dc.lft.to/lastmile_qr_scan", "ios": "https://dc.lft.to/lastmile_qr_scan"}, "fusion_lon": 0.0}, {"lat": 38.930858, "is_disabled": 0, "type": "electric_scooter", "lon": -77.077519, "bike_id": "abc047e29909af9cac25a14ece2ed18b", "fusion_lat": 0.0, "name": "abc047e29909af9cac25a14ece2ed18b", "is_reserved": 0, "rental_uris": {"android": "https://dc.lft.to/lastmile_qr_scan", "ios": "https://dc.lft.to/lastmile_qr_scan"}, "fusion_lon": 0.0}, {"lat": 38.92882016666667, "is_disabled": 0, "type": "electric_scooter", "lon": -77.03414833333333, "bike_id": "51e473e6983c3636f7ace6976a5e9234", "fusion_lat": 0.0, "name": "51e473e6983c3636f7ace6976a5e9234", "is_reserved": 0, "rental_uris": {"android": "https://dc.lft.to/lastmile_qr_scan", "ios": "https://dc.lft.to/lastmile_qr_scan"}, "fusion_lon": 0.0}, {"lat": 38.90095616666667, "is_disabled": 0, "type": "electric_scooter", "lon": -77.055967, "bike_id": "72f1fd46696bb5b70233c97a3c33af9c", "fusion_lat": 0.0, "name": "72f1fd46696bb5b70233c97a3c33af9c", "is_reserved": 0, "rental_uris": {"android": "https://dc.lft.to/lastmile_qr_scan", "ios": "https://dc.lft.to/lastmile_qr_scan"}, "fusion_lon": 0.0}, {"lat": 38.90008666666667, "is_disabled": 0, "type": "electric_scooter", "lon": -77.03317883333334, "bike_id": "d3be5b66d240defb18fa84eca4f92b79", "fusion_lat": 0.0, "name": "d3be5b66d240defb18fa84eca4f92b79", "is_reserved": 0, "rental_uris": {"android": "https://dc.lft.to/lastmile_qr_scan", "ios": "https://dc.lft.to/lastmile_qr_scan"}, "fusion_lon": 0.0}, {"lat": 38.9086225, "is_disabled": 0, "type": "electric_scooter", "lon": -77.0292405, "bike_id": "875547c3f7c00583a8215903fb70ed3e", "fusion_lat": 0.0, "name": "875547c3f7c00583a8215903fb70ed3e", "is_reserved": 0, "rental_uris": {"android": "https://dc.lft.to/lastmile_qr_scan", "ios": "https://dc.lft.to/lastmile_qr_scan"}, "fusion_lon": 0.0}, {"lat": 38.88975033333333, "is_disabled": 0, "type": "electric_scooter", "lon": -76.9373655, "bike_id": "cd9d6682228388de11add8ad452a314e", "fusion_lat": 0.0, "name": "cd9d6682228388de11add8ad452a314e", "is_reserved": 0, "rental_uris": {"android": "https://dc.lft.to/lastmile_qr_scan", "ios": "https://dc.lft.to/lastmile_qr_scan"}, "fusion_lon": 0.0}, {"lat": 38.9275955, "is_disabled": 0, "type": "electric_bike", "lon": -77.068822, "bike_id": "4d2d98d429e4a9c4c263c597d6bedfbb", "fusion_lat": 0.0, "name": "4d2d98d429e4a9c4c263c597d6bedfbb", "is_reserved": 0, "rental_uris": {"android": "https://dc.lft.to/lastmile_qr_scan", "ios": "https://dc.lft.to/lastmile_qr_scan"}, "fusion_lon": 0.0}, {"lat": 38.899740666666666, "is_disabled": 0, "type": "electric_scooter", "lon": -77.01907683333333, "bike_id": "0407faf29c85179ed12219bf845870ac", "fusion_lat": 0.0, "name": "0407faf29c85179ed12219bf845870ac", "is_reserved": 0, "rental_uris": {"android": "https://dc.lft.to/lastmile_qr_scan", "ios": "https://dc.lft.to/lastmile_qr_scan"}, "fusion_lon": 0.0}, {"lat": 38.859195166666666, "is_disabled": 0, "type": "electric_scooter", "lon": -76.98981183333333, "bike_id": "d597ad4286acce32ff385e84bae75e55", "fusion_lat": 0.0, "name": "d597ad4286acce32ff385e84bae75e55", "is_reserved": 0, "rental_uris": {"android": "https://dc.lft.to/lastmile_qr_scan", "ios": "https://dc.lft.to/lastmile_qr_scan"}, "fusion_lon": 0.0}, {"lat": 38.89222683333333, "is_disabled": 0, "type": "electric_scooter", "lon": -76.9329685, "bike_id": "5f87dcfc2996c42a05a98265c38dfe53", "fusion_lat": 0.0, "name": "5f87dcfc2996c42a05a98265c38dfe53", "is_reserved": 0, "rental_uris": {"android": "https://dc.lft.to/lastmile_qr_scan", "ios": "https://dc.lft.to/lastmile_qr_scan"}, "fusion_lon": 0.0}, {"lat": 38.945101333333334, "is_disabled": 0, "type": "electric_scooter", "lon": -77.0216555, "bike_id": "a34f9aacd5bce6231e4a8280920da917", "fusion_lat": 0.0, "name": "a34f9aacd5bce6231e4a8280920da917", "is_reserved": 0, "rental_uris": {"android": "https://dc.lft.to/lastmile_qr_scan", "ios": "https://dc.lft.to/lastmile_qr_scan"}, "fusion_lon": 0.0}, {"lat": 38.932208, "is_disabled": 0, "type": "electric_scooter", "lon": -77.02731483333334, "bike_id": "47194cad50445540070d05b28dd72d18", "fusion_lat": 0.0, "name": "47194cad50445540070d05b28dd72d18", "is_reserved": 0, "rental_uris": {"android": "https://dc.lft.to/lastmile_qr_scan", "ios": "https://dc.lft.to/lastmile_qr_scan"}, "fusion_lon": 0.0}, {"lat": 38.904297666666665, "is_disabled": 0, "type": "electric_scooter", "lon": -77.0251095, "bike_id": "6a7cc9ba323b55da1a58d292acf601e6", "fusion_lat": 0.0, "name": "6a7cc9ba323b55da1a58d292acf601e6", "is_reserved": 0, "rental_uris": {"android": "https://dc.lft.to/lastmile_qr_scan", "ios": "https://dc.lft.to/lastmile_qr_scan"}, "fusion_lon": 0.0}, {"lat": 38.896328, "is_disabled": 0, "type": "electric_scooter", "lon": -77.04482833333333, "bike_id": "03990b19526ae374071a4f9baee03e7a", "fusion_lat": 0.0, "name": "03990b19526ae374071a4f9baee03e7a", "is_reserved": 0, "rental_uris": {"android": "https://dc.lft.to/lastmile_qr_scan", "ios": "https://dc.lft.to/lastmile_qr_scan"}, "fusion_lon": 0.0}, {"lat": 38.905558666666664, "is_disabled": 0, "type": "electric_scooter", "lon": -77.043189, "bike_id": "7f260872eee643376f6c12b5901bf3fe", "fusion_lat": 0.0, "name": "7f260872eee643376f6c12b5901bf3fe", "is_reserved": 0, "rental_uris": {"android": "https://dc.lft.to/lastmile_qr_scan", "ios": "https://dc.lft.to/lastmile_qr_scan"}, "fusion_lon": 0.0}, {"lat": 38.93524816666667, "is_disabled": 0, "type": "electric_scooter", "lon": -77.03688883333334, "bike_id": "4643710233e9772e50259007e234a987", "fusion_lat": 0.0, "name": "4643710233e9772e50259007e234a987", "is_reserved": 0, "rental_uris": {"android": "https://dc.lft.to/lastmile_qr_scan", "ios": "https://dc.lft.to/lastmile_qr_scan"}, "fusion_lon": 0.0}, {"lat": 38.9125605, "is_disabled": 0, "type": "electric_scooter", "lon": -77.038635, "bike_id": "f004d71df94042e5e3cff42ad2851510", "fusion_lat": 0.0, "name": "f004d71df94042e5e3cff42ad2851510", "is_reserved": 0, "rental_uris": {"android": "https://dc.lft.to/lastmile_qr_scan", "ios": "https://dc.lft.to/lastmile_qr_scan"}, "fusion_lon": 0.0}, {"lat": 38.91061966666667, "is_disabled": 0, "type": "electric_scooter", "lon": -77.052445, "bike_id": "45bcf0c70a3f7457227282a7c238e601", "fusion_lat": 0.0, "name": "45bcf0c70a3f7457227282a7c238e601", "is_reserved": 0, "rental_uris": {"android": "https://dc.lft.to/lastmile_qr_scan", "ios": "https://dc.lft.to/lastmile_qr_scan"}, "fusion_lon": 0.0}, {"lat": 38.88598366666667, "is_disabled": 0, "type": "electric_scooter", "lon": -77.02194016666667, "bike_id": "d5c896f6326e2668696e9540e1d636af", "fusion_lat": 0.0, "name": "d5c896f6326e2668696e9540e1d636af", "is_reserved": 0, "rental_uris": {"android": "https://dc.lft.to/lastmile_qr_scan", "ios": "https://dc.lft.to/lastmile_qr_scan"}, "fusion_lon": 0.0}, {"lat": 38.920501, "is_disabled": 0, "type": "electric_scooter", "lon": -77.0288735, "bike_id": "58c70d04ec292dee3c62e29316c4425d", "fusion_lat": 0.0, "name": "58c70d04ec292dee3c62e29316c4425d", "is_reserved": 0, "rental_uris": {"android": "https://dc.lft.to/lastmile_qr_scan", "ios": "https://dc.lft.to/lastmile_qr_scan"}, "fusion_lon": 0.0}, {"lat": 38.9111425, "is_disabled": 0, "type": "electric_scooter", "lon": -77.03017516666667, "bike_id": "a1ccdaf8dca058d5bbd1d3189a05cea8", "fusion_lat": 0.0, "name": "a1ccdaf8dca058d5bbd1d3189a05cea8", "is_reserved": 0, "rental_uris": {"android": "https://dc.lft.to/lastmile_qr_scan", "ios": "https://dc.lft.to/lastmile_qr_scan"}, "fusion_lon": 0.0}, {"lat": 38.92154433333333, "is_disabled": 0, "type": "electric_scooter", "lon": -77.033746, "bike_id": "917a385cd0327a425be4ac3e8ae27dc5", "fusion_lat": 0.0, "name": "917a385cd0327a425be4ac3e8ae27dc5", "is_reserved": 0, "rental_uris": {"android": "https://dc.lft.to/lastmile_qr_scan", "ios": "https://dc.lft.to/lastmile_qr_scan"}, "fusion_lon": 0.0}, {"lat": 38.9306925, "is_disabled": 0, "type": "electric_scooter", "lon": -77.02816633333333, "bike_id": "4c5bd983122ceed5c76b31617b42d854", "fusion_lat": 0.0, "name": "4c5bd983122ceed5c76b31617b42d854", "is_reserved": 0, "rental_uris": {"android": "https://dc.lft.to/lastmile_qr_scan", "ios": "https://dc.lft.to/lastmile_qr_scan"}, "fusion_lon": 0.0}, {"lat": 38.927753, "is_disabled": 0, "type": "electric_scooter", "lon": -77.02772683333333, "bike_id": "8ab9186934308fbecfb4877c99e76a21", "fusion_lat": 0.0, "name": "8ab9186934308fbecfb4877c99e76a21", "is_reserved": 0, "rental_uris": {"android": "https://dc.lft.to/lastmile_qr_scan", "ios": "https://dc.lft.to/lastmile_qr_scan"}, "fusion_lon": 0.0}, {"lat": 38.93228666666667, "is_disabled": 0, "type": "electric_scooter", "lon": -76.99605333333334, "bike_id": "1d4c684fbb2bcc9e7db6d9daf1e23294", "fusion_lat": 0.0, "name": "1d4c684fbb2bcc9e7db6d9daf1e23294", "is_reserved": 0, "rental_uris": {"android": "https://dc.lft.to/lastmile_qr_scan", "ios": "https://dc.lft.to/lastmile_qr_scan"}, "fusion_lon": 0.0}, {"lat": 38.92729666666666, "is_disabled": 0, "type": "electric_scooter", "lon": -77.022385, "bike_id": "432dd8d7002610e82688ff00be336aaa", "fusion_lat": 0.0, "name": "432dd8d7002610e82688ff00be336aaa", "is_reserved": 0, "rental_uris": {"android": "https://dc.lft.to/lastmile_qr_scan", "ios": "https://dc.lft.to/lastmile_qr_scan"}, "fusion_lon": 0.0}, {"lat": 38.9182935, "is_disabled": 0, "type": "electric_scooter", "lon": -77.039432, "bike_id": "fdf6124504d112822de3b32d0e0c4b90", "fusion_lat": 0.0, "name": "fdf6124504d112822de3b32d0e0c4b90", "is_reserved": 0, "rental_uris": {"android": "https://dc.lft.to/lastmile_qr_scan", "ios": "https://dc.lft.to/lastmile_qr_scan"}, "fusion_lon": 0.0}, {"lat": 38.916188166666664, "is_disabled": 0, "type": "electric_scooter", "lon": -76.97949416666667, "bike_id": "99ff59297d6f1a1c7ee5ded9228c70bb", "fusion_lat": 0.0, "name": "99ff59297d6f1a1c7ee5ded9228c70bb", "is_reserved": 0, "rental_uris": {"android": "https://dc.lft.to/lastmile_qr_scan", "ios": "https://dc.lft.to/lastmile_qr_scan"}, "fusion_lon": 0.0}, {"lat": 38.905277, "is_disabled": 0, "type": "electric_scooter", "lon": -77.0056645, "bike_id": "15654548d66211117e3f5f05d4b4b706", "fusion_lat": 0.0, "name": "15654548d66211117e3f5f05d4b4b706", "is_reserved": 0, "rental_uris": {"android": "https://dc.lft.to/lastmile_qr_scan", "ios": "https://dc.lft.to/lastmile_qr_scan"}, "fusion_lon": 0.0}, {"lat": 38.907375, "is_disabled": 0, "type": "electric_scooter", "lon": -77.02948466666666, "bike_id": "ed7c1b1a3cf9e0795b82272fcb534dee", "fusion_lat": 0.0, "name": "ed7c1b1a3cf9e0795b82272fcb534dee", "is_reserved": 0, "rental_uris": {"android": "https://dc.lft.to/lastmile_qr_scan", "ios": "https://dc.lft.to/lastmile_qr_scan"}, "fusion_lon": 0.0}, {"lat": 38.91840766666667, "is_disabled": 0, "type": "electric_scooter", "lon": -77.03536233333334, "bike_id": "71e7eb23722ca3f00a2c5cf302d52560", "fusion_lat": 0.0, "name": "71e7eb23722ca3f00a2c5cf302d52560", "is_reserved": 0, "rental_uris": {"android": "https://dc.lft.to/lastmile_qr_scan", "ios": "https://dc.lft.to/lastmile_qr_scan"}, "fusion_lon": 0.0}, {"lat": 38.99992183333333, "is_disabled": 0, "type": "electric_bike", "lon": -76.9249345, "bike_id": "e9b1dbb7ccf142dafee348a0f05371d4", "fusion_lat": 0.0, "name": "e9b1dbb7ccf142dafee348a0f05371d4", "is_reserved": 0, "rental_uris": {"android": "https://dc.lft.to/lastmile_qr_scan", "ios": "https://dc.lft.to/lastmile_qr_scan"}, "fusion_lon": 0.0}, {"lat": 38.95215533333333, "is_disabled": 0, "type": "electric_scooter", "lon": -77.085984, "bike_id": "99b3a1a7c2c84e665a407fa0996b064f", "fusion_lat": 0.0, "name": "99b3a1a7c2c84e665a407fa0996b064f", "is_reserved": 0, "rental_uris": {"android": "https://dc.lft.to/lastmile_qr_scan", "ios": "https://dc.lft.to/lastmile_qr_scan"}, "fusion_lon": 0.0}, {"lat": 38.91927316666667, "is_disabled": 0, "type": "electric_scooter", "lon": -77.031845, "bike_id": "908ab20962700fd69ec133f4662fbccb", "fusion_lat": 0.0, "name": "908ab20962700fd69ec133f4662fbccb", "is_reserved": 0, "rental_uris": {"android": "https://dc.lft.to/lastmile_qr_scan", "ios": "https://dc.lft.to/lastmile_qr_scan"}, "fusion_lon": 0.0}, {"lat": 38.90502383333333, "is_disabled": 0, "type": "electric_scooter", "lon": -77.0294985, "bike_id": "e49c3ca43733fb04c525c40e45e1e7b4", "fusion_lat": 0.0, "name": "e49c3ca43733fb04c525c40e45e1e7b4", "is_reserved": 0, "rental_uris": {"android": "https://dc.lft.to/lastmile_qr_scan", "ios": "https://dc.lft.to/lastmile_qr_scan"}, "fusion_lon": 0.0}, {"lat": 38.890901166666666, "is_disabled": 0, "type": "electric_scooter", "lon": -76.95271383333333, "bike_id": "7a596220a9346a63d6e2b38e55270075", "fusion_lat": 0.0, "name": "7a596220a9346a63d6e2b38e55270075", "is_reserved": 0, "rental_uris": {"android": "https://dc.lft.to/lastmile_qr_scan", "ios": "https://dc.lft.to/lastmile_qr_scan"}, "fusion_lon": 0.0}, {"lat": 38.88073583333333, "is_disabled": 0, "type": "electric_bike", "lon": -77.10943716666667, "bike_id": "62332b8431d93074c53aa09f721dddf3", "fusion_lat": 0.0, "name": "62332b8431d93074c53aa09f721dddf3", "is_reserved": 0, "rental_uris": {"android": "https://dc.lft.to/lastmile_qr_scan", "ios": "https://dc.lft.to/lastmile_qr_scan"}, "fusion_lon": 0.0}, {"lat": 38.894946166666664, "is_disabled": 0, "type": "electric_scooter", "lon": -77.0211765, "bike_id": "1c2b3b3f2caa2ac52eda47b5da25ec03", "fusion_lat": 0.0, "name": "1c2b3b3f2caa2ac52eda47b5da25ec03", "is_reserved": 0, "rental_uris": {"android": "https://dc.lft.to/lastmile_qr_scan", "ios": "https://dc.lft.to/lastmile_qr_scan"}, "fusion_lon": 0.0}, {"lat": 38.89346883333333, "is_disabled": 0, "type": "electric_scooter", "lon": -76.94929383333333, "bike_id": "9fc7cbf329cceaa0e3299c8bd20fb356", "fusion_lat": 0.0, "name": "9fc7cbf329cceaa0e3299c8bd20fb356", "is_reserved": 0, "rental_uris": {"android": "https://dc.lft.to/lastmile_qr_scan", "ios": "https://dc.lft.to/lastmile_qr_scan"}, "fusion_lon": 0.0}, {"lat": 38.91819683333333, "is_disabled": 0, "type": "electric_scooter", "lon": -77.0390905, "bike_id": "e38b06e35acf455bfe0f40c9d0cc17df", "fusion_lat": 0.0, "name": "e38b06e35acf455bfe0f40c9d0cc17df", "is_reserved": 0, "rental_uris": {"android": "https://dc.lft.to/lastmile_qr_scan", "ios": "https://dc.lft.to/lastmile_qr_scan"}, "fusion_lon": 0.0}, {"lat": 38.907955333333334, "is_disabled": 0, "type": "electric_scooter", "lon": -77.04352016666667, "bike_id": "d3a7e42af44edb65f3b4772511779479", "fusion_lat": 0.0, "name": "d3a7e42af44edb65f3b4772511779479", "is_reserved": 0, "rental_uris": {"android": "https://dc.lft.to/lastmile_qr_scan", "ios": "https://dc.lft.to/lastmile_qr_scan"}, "fusion_lon": 0.0}, {"lat": 38.90354766666667, "is_disabled": 0, "type": "electric_scooter", "lon": -77.05342083333333, "bike_id": "61cf337c6189fb696045a071fdea6f46", "fusion_lat": 0.0, "name": "61cf337c6189fb696045a071fdea6f46", "is_reserved": 0, "rental_uris": {"android": "https://dc.lft.to/lastmile_qr_scan", "ios": "https://dc.lft.to/lastmile_qr_scan"}, "fusion_lon": 0.0}, {"lat": 38.971975666666665, "is_disabled": 0, "type": "electric_bike", "lon": -77.02719033333334, "bike_id": "413984a761495c727d6f13c802f2a815", "fusion_lat": 0.0, "name": "413984a761495c727d6f13c802f2a815", "is_reserved": 0, "rental_uris": {"android": "https://dc.lft.to/lastmile_qr_scan", "ios": "https://dc.lft.to/lastmile_qr_scan"}, "fusion_lon": 0.0}, {"lat": 38.9256725, "is_disabled": 0, "type": "electric_scooter", "lon": -77.035355, "bike_id": "f8a07a5ae36e2466db0b676d65f61da8", "fusion_lat": 0.0, "name": "f8a07a5ae36e2466db0b676d65f61da8", "is_reserved": 0, "rental_uris": {"android": "https://dc.lft.to/lastmile_qr_scan", "ios": "https://dc.lft.to/lastmile_qr_scan"}, "fusion_lon": 0.0}, {"lat": 38.903564333333335, "is_disabled": 0, "type": "electric_scooter", "lon": -77.04252483333333, "bike_id": "95c62b20e3e6a70682cf13d4d5249484", "fusion_lat": 0.0, "name": "95c62b20e3e6a70682cf13d4d5249484", "is_reserved": 0, "rental_uris": {"android": "https://dc.lft.to/lastmile_qr_scan", "ios": "https://dc.lft.to/lastmile_qr_scan"}, "fusion_lon": 0.0}, {"lat": 38.90815516666667, "is_disabled": 0, "type": "electric_scooter", "lon": -76.9827695, "bike_id": "7aba1c2f8cc6e22772a145e644d7d71b", "fusion_lat": 0.0, "name": "7aba1c2f8cc6e22772a145e644d7d71b", "is_reserved": 0, "rental_uris": {"android": "https://dc.lft.to/lastmile_qr_scan", "ios": "https://dc.lft.to/lastmile_qr_scan"}, "fusion_lon": 0.0}, {"lat": 38.909780833333336, "is_disabled": 0, "type": "electric_bike", "lon": -76.98510583333334, "bike_id": "f6d4bef8a94f0c14a5a538563dd89976", "fusion_lat": 0.0, "name": "f6d4bef8a94f0c14a5a538563dd89976", "is_reserved": 0, "rental_uris": {"android": "https://dc.lft.to/lastmile_qr_scan", "ios": "https://dc.lft.to/lastmile_qr_scan"}, "fusion_lon": 0.0}, {"lat": 38.905635333333336, "is_disabled": 0, "type": "electric_scooter", "lon": -77.03406233333334, "bike_id": "5a0c243de3b10abafb99027e1dda46b4", "fusion_lat": 0.0, "name": "5a0c243de3b10abafb99027e1dda46b4", "is_reserved": 0, "rental_uris": {"android": "https://dc.lft.to/lastmile_qr_scan", "ios": "https://dc.lft.to/lastmile_qr_scan"}, "fusion_lon": 0.0}, {"lat": 38.93096766666667, "is_disabled": 0, "type": "electric_scooter", "lon": -77.02555816666667, "bike_id": "1eceff079a95f4b629770b8701e2172c", "fusion_lat": 0.0, "name": "1eceff079a95f4b629770b8701e2172c", "is_reserved": 0, "rental_uris": {"android": "https://dc.lft.to/lastmile_qr_scan", "ios": "https://dc.lft.to/lastmile_qr_scan"}, "fusion_lon": 0.0}, {"lat": 38.93356416666666, "is_disabled": 0, "type": "electric_scooter", "lon": -77.07375983333333, "bike_id": "ef163180775fdb58f6ad5b062621fa73", "fusion_lat": 0.0, "name": "ef163180775fdb58f6ad5b062621fa73", "is_reserved": 0, "rental_uris": {"android": "https://dc.lft.to/lastmile_qr_scan", "ios": "https://dc.lft.to/lastmile_qr_scan"}, "fusion_lon": 0.0}, {"lat": 38.89244983333333, "is_disabled": 0, "type": "electric_scooter", "lon": -77.04886, "bike_id": "849223e9f3858c52f606a1d7357201e5", "fusion_lat": 0.0, "name": "849223e9f3858c52f606a1d7357201e5", "is_reserved": 0, "rental_uris": {"android": "https://dc.lft.to/lastmile_qr_scan", "ios": "https://dc.lft.to/lastmile_qr_scan"}, "fusion_lon": 0.0}, {"lat": 38.89840566666667, "is_disabled": 0, "type": "electric_scooter", "lon": -76.93102766666667, "bike_id": "249a2d876379490af63f72e8cdefc354", "fusion_lat": 0.0, "name": "249a2d876379490af63f72e8cdefc354", "is_reserved": 0, "rental_uris": {"android": "https://dc.lft.to/lastmile_qr_scan", "ios": "https://dc.lft.to/lastmile_qr_scan"}, "fusion_lon": 0.0}, {"lat": 38.90861783333333, "is_disabled": 0, "type": "electric_bike", "lon": -76.9316255, "bike_id": "9a9b178705402e7ff1666afe2acda68b", "fusion_lat": 0.0, "name": "9a9b178705402e7ff1666afe2acda68b", "is_reserved": 0, "rental_uris": {"android": "https://dc.lft.to/lastmile_qr_scan", "ios": "https://dc.lft.to/lastmile_qr_scan"}, "fusion_lon": 0.0}, {"lat": 38.903160166666666, "is_disabled": 0, "type": "electric_scooter", "lon": -76.98995266666667, "bike_id": "2cc8554226220eecdf045a0a117cdef9", "fusion_lat": 0.0, "name": "2cc8554226220eecdf045a0a117cdef9", "is_reserved": 0, "rental_uris": {"android": "https://dc.lft.to/lastmile_qr_scan", "ios": "https://dc.lft.to/lastmile_qr_scan"}, "fusion_lon": 0.0}, {"lat": 38.874602, "is_disabled": 0, "type": "electric_scooter", "lon": -77.00919783333333, "bike_id": "422505315d8a59e90b2a2a94fda0bd1b", "fusion_lat": 0.0, "name": "422505315d8a59e90b2a2a94fda0bd1b", "is_reserved": 0, "rental_uris": {"android": "https://dc.lft.to/lastmile_qr_scan", "ios": "https://dc.lft.to/lastmile_qr_scan"}, "fusion_lon": 0.0}, {"lat": 38.9692675, "is_disabled": 0, "type": "electric_bike", "lon": -77.02617966666666, "bike_id": "5593a2f7f7bc4588abb213452548e398", "fusion_lat": 0.0, "name": "5593a2f7f7bc4588abb213452548e398", "is_reserved": 0, "rental_uris": {"android": "https://dc.lft.to/lastmile_qr_scan", "ios": "https://dc.lft.to/lastmile_qr_scan"}, "fusion_lon": 0.0}, {"lat": 38.9045605, "is_disabled": 0, "type": "electric_scooter", "lon": -76.994573, "bike_id": "4d3d25070250a5155d5f274300547110", "fusion_lat": 0.0, "name": "4d3d25070250a5155d5f274300547110", "is_reserved": 0, "rental_uris": {"android": "https://dc.lft.to/lastmile_qr_scan", "ios": "https://dc.lft.to/lastmile_qr_scan"}, "fusion_lon": 0.0}, {"lat": 38.873784, "is_disabled": 0, "type": "electric_bike", "lon": -77.117964, "bike_id": "48ac5622d6f32a7dd6918f14e5c31539", "fusion_lat": 0.0, "name": "48ac5622d6f32a7dd6918f14e5c31539", "is_reserved": 0, "rental_uris": {"android": "https://dc.lft.to/lastmile_qr_scan", "ios": "https://dc.lft.to/lastmile_qr_scan"}, "fusion_lon": 0.0}, {"lat": 38.920839, "is_disabled": 0, "type": "electric_bike", "lon": -76.991841, "bike_id": "f35c4b72da8e20bbdf4ef27740a607b1", "fusion_lat": 0.0, "name": "f35c4b72da8e20bbdf4ef27740a607b1", "is_reserved": 0, "rental_uris": {"android": "https://dc.lft.to/lastmile_qr_scan", "ios": "https://dc.lft.to/lastmile_qr_scan"}, "fusion_lon": 0.0}, {"lat": 38.896544166666665, "is_disabled": 0, "type": "electric_scooter", "lon": -77.04671316666666, "bike_id": "89655ae7f869ca3fb0e2d130bdee559c", "fusion_lat": 0.0, "name": "89655ae7f869ca3fb0e2d130bdee559c", "is_reserved": 0, "rental_uris": {"android": "https://dc.lft.to/lastmile_qr_scan", "ios": "https://dc.lft.to/lastmile_qr_scan"}, "fusion_lon": 0.0}, {"lat": 38.9660735, "is_disabled": 0, "type": "electric_bike", "lon": -76.9832565, "bike_id": "ebb9e54c8c7a5f0e0b900cebc6cc6419", "fusion_lat": 0.0, "name": "ebb9e54c8c7a5f0e0b900cebc6cc6419", "is_reserved": 0, "rental_uris": {"android": "https://dc.lft.to/lastmile_qr_scan", "ios": "https://dc.lft.to/lastmile_qr_scan"}, "fusion_lon": 0.0}, {"lat": 38.89785, "is_disabled": 0, "type": "electric_scooter", "lon": -77.00918283333333, "bike_id": "0897373bb46588d2ddda965ed1e2b61c", "fusion_lat": 0.0, "name": "0897373bb46588d2ddda965ed1e2b61c", "is_reserved": 0, "rental_uris": {"android": "https://dc.lft.to/lastmile_qr_scan", "ios": "https://dc.lft.to/lastmile_qr_scan"}, "fusion_lon": 0.0}, {"lat": 38.91924933333333, "is_disabled": 0, "type": "electric_scooter", "lon": -77.025102, "bike_id": "2cb2da7a1d9fe27614a24577c4e73696", "fusion_lat": 0.0, "name": "2cb2da7a1d9fe27614a24577c4e73696", "is_reserved": 0, "rental_uris": {"android": "https://dc.lft.to/lastmile_qr_scan", "ios": "https://dc.lft.to/lastmile_qr_scan"}, "fusion_lon": 0.0}, {"lat": 38.88764616666667, "is_disabled": 0, "type": "electric_scooter", "lon": -76.95595716666666, "bike_id": "df465482918a9e0f0fb662eefd05e99d", "fusion_lat": 0.0, "name": "df465482918a9e0f0fb662eefd05e99d", "is_reserved": 0, "rental_uris": {"android": "https://dc.lft.to/lastmile_qr_scan", "ios": "https://dc.lft.to/lastmile_qr_scan"}, "fusion_lon": 0.0}, {"lat": 38.95293316666667, "is_disabled": 0, "type": "electric_scooter", "lon": -77.081568, "bike_id": "65ea5136a520af0906acee4f35b3f2ae", "fusion_lat": 0.0, "name": "65ea5136a520af0906acee4f35b3f2ae", "is_reserved": 0, "rental_uris": {"android": "https://dc.lft.to/lastmile_qr_scan", "ios": "https://dc.lft.to/lastmile_qr_scan"}, "fusion_lon": 0.0}, {"lat": 38.89956166666666, "is_disabled": 0, "type": "electric_bike", "lon": -77.0209495, "bike_id": "459274198c6c9b277a6e597c1fb50971", "fusion_lat": 0.0, "name": "459274198c6c9b277a6e597c1fb50971", "is_reserved": 0, "rental_uris": {"android": "https://dc.lft.to/lastmile_qr_scan", "ios": "https://dc.lft.to/lastmile_qr_scan"}, "fusion_lon": 0.0}, {"lat": 38.866408666666665, "is_disabled": 0, "type": "electric_scooter", "lon": -76.98883183333334, "bike_id": "e2a46e77b253567fe972ea334e7e1c02", "fusion_lat": 0.0, "name": "e2a46e77b253567fe972ea334e7e1c02", "is_reserved": 0, "rental_uris": {"android": "https://dc.lft.to/lastmile_qr_scan", "ios": "https://dc.lft.to/lastmile_qr_scan"}, "fusion_lon": 0.0}, {"lat": 38.92066466666667, "is_disabled": 0, "type": "electric_scooter", "lon": -77.04371366666666, "bike_id": "fc015e51d5e944dc081a72ec133e5ab3", "fusion_lat": 0.0, "name": "fc015e51d5e944dc081a72ec133e5ab3", "is_reserved": 0, "rental_uris": {"android": "https://dc.lft.to/lastmile_qr_scan", "ios": "https://dc.lft.to/lastmile_qr_scan"}, "fusion_lon": 0.0}, {"lat": 38.92306416666667, "is_disabled": 0, "type": "electric_bike", "lon": -77.0354355, "bike_id": "f7d245214fd24e857fecbb414287c795", "fusion_lat": 0.0, "name": "f7d245214fd24e857fecbb414287c795", "is_reserved": 0, "rental_uris": {"android": "https://dc.lft.to/lastmile_qr_scan", "ios": "https://dc.lft.to/lastmile_qr_scan"}, "fusion_lon": 0.0}, {"lat": 38.93733133333333, "is_disabled": 0, "type": "electric_scooter", "lon": -77.03266016666667, "bike_id": "a4ffa7ecb286e2cca1ddbd21b343008d", "fusion_lat": 0.0, "name": "a4ffa7ecb286e2cca1ddbd21b343008d", "is_reserved": 0, "rental_uris": {"android": "https://dc.lft.to/lastmile_qr_scan", "ios": "https://dc.lft.to/lastmile_qr_scan"}, "fusion_lon": 0.0}, {"lat": 38.9387565, "is_disabled": 0, "type": "electric_scooter", "lon": -77.03124216666667, "bike_id": "14589306d068e5f9aa52d0290bb12204", "fusion_lat": 0.0, "name": "14589306d068e5f9aa52d0290bb12204", "is_reserved": 0, "rental_uris": {"android": "https://dc.lft.to/lastmile_qr_scan", "ios": "https://dc.lft.to/lastmile_qr_scan"}, "fusion_lon": 0.0}, {"lat": 38.917232166666665, "is_disabled": 0, "type": "electric_scooter", "lon": -77.04588716666666, "bike_id": "4ad28a332f33de63c89ebf612a169dd9", "fusion_lat": 0.0, "name": "4ad28a332f33de63c89ebf612a169dd9", "is_reserved": 0, "rental_uris": {"android": "https://dc.lft.to/lastmile_qr_scan", "ios": "https://dc.lft.to/lastmile_qr_scan"}, "fusion_lon": 0.0}, {"lat": 38.85572666666667, "is_disabled": 0, "type": "electric_bike", "lon": -77.1113965, "bike_id": "0b8c73fd446664bb6021f54a46ec4cff", "fusion_lat": 0.0, "name": "0b8c73fd446664bb6021f54a46ec4cff", "is_reserved": 0, "rental_uris": {"android": "https://dc.lft.to/lastmile_qr_scan", "ios": "https://dc.lft.to/lastmile_qr_scan"}, "fusion_lon": 0.0}, {"lat": 38.91959816666667, "is_disabled": 0, "type": "electric_scooter", "lon": -76.98075616666667, "bike_id": "b779457dcb1fb1aefe0ba907690bf963", "fusion_lat": 0.0, "name": "b779457dcb1fb1aefe0ba907690bf963", "is_reserved": 0, "rental_uris": {"android": "https://dc.lft.to/lastmile_qr_scan", "ios": "https://dc.lft.to/lastmile_qr_scan"}, "fusion_lon": 0.0}, {"lat": 38.90257716666667, "is_disabled": 0, "type": "electric_scooter", "lon": -77.028064, "bike_id": "8c1c690cedbe7876892862376cc789aa", "fusion_lat": 0.0, "name": "8c1c690cedbe7876892862376cc789aa", "is_reserved": 0, "rental_uris": {"android": "https://dc.lft.to/lastmile_qr_scan", "ios": "https://dc.lft.to/lastmile_qr_scan"}, "fusion_lon": 0.0}, {"lat": 38.90898, "is_disabled": 0, "type": "electric_bike", "lon": -77.03215, "bike_id": "850a3e6a584bd2c86b08375468403c5d", "fusion_lat": 0.0, "name": "850a3e6a584bd2c86b08375468403c5d", "is_reserved": 0, "rental_uris": {"android": "https://dc.lft.to/lastmile_qr_scan", "ios": "https://dc.lft.to/lastmile_qr_scan"}, "fusion_lon": 0.0}, {"lat": 38.933281, "is_disabled": 0, "type": "electric_scooter", "lon": -77.0436595, "bike_id": "b8d9518bfefee1b37a03af73148b70d3", "fusion_lat": 0.0, "name": "b8d9518bfefee1b37a03af73148b70d3", "is_reserved": 0, "rental_uris": {"android": "https://dc.lft.to/lastmile_qr_scan", "ios": "https://dc.lft.to/lastmile_qr_scan"}, "fusion_lon": 0.0}, {"lat": 38.898379, "is_disabled": 0, "type": "electric_scooter", "lon": -77.030226, "bike_id": "2e6928860af7bcd8dd067502761505fa", "fusion_lat": 0.0, "name": "2e6928860af7bcd8dd067502761505fa", "is_reserved": 0, "rental_uris": {"android": "https://dc.lft.to/lastmile_qr_scan", "ios": "https://dc.lft.to/lastmile_qr_scan"}, "fusion_lon": 0.0}, {"lat": 38.92861083333333, "is_disabled": 0, "type": "electric_scooter", "lon": -77.02992933333333, "bike_id": "ca9a013a774d9c73097fcb87e3903203", "fusion_lat": 0.0, "name": "ca9a013a774d9c73097fcb87e3903203", "is_reserved": 0, "rental_uris": {"android": "https://dc.lft.to/lastmile_qr_scan", "ios": "https://dc.lft.to/lastmile_qr_scan"}, "fusion_lon": 0.0}, {"lat": 38.90209566666667, "is_disabled": 0, "type": "electric_scooter", "lon": -76.9882865, "bike_id": "5df6d80b59df401a7ccdafa460a090fd", "fusion_lat": 0.0, "name": "5df6d80b59df401a7ccdafa460a090fd", "is_reserved": 0, "rental_uris": {"android": "https://dc.lft.to/lastmile_qr_scan", "ios": "https://dc.lft.to/lastmile_qr_scan"}, "fusion_lon": 0.0}, {"lat": 38.903640333333335, "is_disabled": 0, "type": "electric_scooter", "lon": -76.97650666666667, "bike_id": "0fa16913c7f25d70c468e81bc8498cbf", "fusion_lat": 0.0, "name": "0fa16913c7f25d70c468e81bc8498cbf", "is_reserved": 0, "rental_uris": {"android": "https://dc.lft.to/lastmile_qr_scan", "ios": "https://dc.lft.to/lastmile_qr_scan"}, "fusion_lon": 0.0}, {"lat": 38.9147725, "is_disabled": 0, "type": "electric_scooter", "lon": -77.0425635, "bike_id": "e8ec93bcab68569f049334d770645154", "fusion_lat": 0.0, "name": "e8ec93bcab68569f049334d770645154", "is_reserved": 0, "rental_uris": {"android": "https://dc.lft.to/lastmile_qr_scan", "ios": "https://dc.lft.to/lastmile_qr_scan"}, "fusion_lon": 0.0}, {"lat": 38.92598266666667, "is_disabled": 0, "type": "electric_scooter", "lon": -77.02490833333333, "bike_id": "63bc9bfedf4c0756349b2fc8e8315eb6", "fusion_lat": 0.0, "name": "63bc9bfedf4c0756349b2fc8e8315eb6", "is_reserved": 0, "rental_uris": {"android": "https://dc.lft.to/lastmile_qr_scan", "ios": "https://dc.lft.to/lastmile_qr_scan"}, "fusion_lon": 0.0}, {"lat": 38.8962785, "is_disabled": 0, "type": "electric_scooter", "lon": -77.04503766666667, "bike_id": "1abca20d682b4b1925d175886c046677", "fusion_lat": 0.0, "name": "1abca20d682b4b1925d175886c046677", "is_reserved": 0, "rental_uris": {"android": "https://dc.lft.to/lastmile_qr_scan", "ios": "https://dc.lft.to/lastmile_qr_scan"}, "fusion_lon": 0.0}, {"lat": 38.96068133333333, "is_disabled": 0, "type": "electric_scooter", "lon": -77.07305266666667, "bike_id": "36b02eb07af528b216dc866dec57003b", "fusion_lat": 0.0, "name": "36b02eb07af528b216dc866dec57003b", "is_reserved": 0, "rental_uris": {"android": "https://dc.lft.to/lastmile_qr_scan", "ios": "https://dc.lft.to/lastmile_qr_scan"}, "fusion_lon": 0.0}, {"lat": 38.914751833333334, "is_disabled": 0, "type": "electric_scooter", "lon": -77.03234883333333, "bike_id": "c444310c16b4b5e77789aa6a22950ceb", "fusion_lat": 0.0, "name": "c444310c16b4b5e77789aa6a22950ceb", "is_reserved": 0, "rental_uris": {"android": "https://dc.lft.to/lastmile_qr_scan", "ios": "https://dc.lft.to/lastmile_qr_scan"}, "fusion_lon": 0.0}, {"lat": 38.9187725, "is_disabled": 0, "type": "electric_scooter", "lon": -77.03503133333334, "bike_id": "02cc6a1e16b4433335bd372031266211", "fusion_lat": 0.0, "name": "02cc6a1e16b4433335bd372031266211", "is_reserved": 0, "rental_uris": {"android": "https://dc.lft.to/lastmile_qr_scan", "ios": "https://dc.lft.to/lastmile_qr_scan"}, "fusion_lon": 0.0}, {"lat": 38.8923015, "is_disabled": 0, "type": "electric_scooter", "lon": -77.0500395, "bike_id": "4fcc8152e0e619c84fd5337d4a41fe88", "fusion_lat": 0.0, "name": "4fcc8152e0e619c84fd5337d4a41fe88", "is_reserved": 0, "rental_uris": {"android": "https://dc.lft.to/lastmile_qr_scan", "ios": "https://dc.lft.to/lastmile_qr_scan"}, "fusion_lon": 0.0}, {"lat": 38.895480166666665, "is_disabled": 0, "type": "electric_scooter", "lon": -76.93376066666667, "bike_id": "67cc2b5109ea1b13a9b929b18f11b91d", "fusion_lat": 0.0, "name": "67cc2b5109ea1b13a9b929b18f11b91d", "is_reserved": 0, "rental_uris": {"android": "https://dc.lft.to/lastmile_qr_scan", "ios": "https://dc.lft.to/lastmile_qr_scan"}, "fusion_lon": 0.0}, {"lat": 38.926634666666665, "is_disabled": 0, "type": "electric_scooter", "lon": -77.05595883333334, "bike_id": "a2a103c0e52101d68c5cf1c1be02c9cf", "fusion_lat": 0.0, "name": "a2a103c0e52101d68c5cf1c1be02c9cf", "is_reserved": 0, "rental_uris": {"android": "https://dc.lft.to/lastmile_qr_scan", "ios": "https://dc.lft.to/lastmile_qr_scan"}, "fusion_lon": 0.0}, {"lat": 38.876818666666665, "is_disabled": 0, "type": "electric_bike", "lon": -77.01608716666667, "bike_id": "38c06038ff506235fe0575c32d8514a8", "fusion_lat": 0.0, "name": "38c06038ff506235fe0575c32d8514a8", "is_reserved": 0, "rental_uris": {"android": "https://dc.lft.to/lastmile_qr_scan", "ios": "https://dc.lft.to/lastmile_qr_scan"}, "fusion_lon": 0.0}, {"lat": 38.87469883333333, "is_disabled": 0, "type": "electric_scooter", "lon": -77.00518366666667, "bike_id": "511254a399aba63fcd4df347526531ab", "fusion_lat": 0.0, "name": "511254a399aba63fcd4df347526531ab", "is_reserved": 0, "rental_uris": {"android": "https://dc.lft.to/lastmile_qr_scan", "ios": "https://dc.lft.to/lastmile_qr_scan"}, "fusion_lon": 0.0}, {"lat": 38.9353505, "is_disabled": 0, "type": "electric_scooter", "lon": -77.02351033333333, "bike_id": "aeb1467159019de7dd61a658e7ddfdfc", "fusion_lat": 0.0, "name": "aeb1467159019de7dd61a658e7ddfdfc", "is_reserved": 0, "rental_uris": {"android": "https://dc.lft.to/lastmile_qr_scan", "ios": "https://dc.lft.to/lastmile_qr_scan"}, "fusion_lon": 0.0}, {"lat": 38.938601166666665, "is_disabled": 0, "type": "electric_scooter", "lon": -77.02324866666666, "bike_id": "87b26ef13295944d01fbbb270e6f0896", "fusion_lat": 0.0, "name": "87b26ef13295944d01fbbb270e6f0896", "is_reserved": 0, "rental_uris": {"android": "https://dc.lft.to/lastmile_qr_scan", "ios": "https://dc.lft.to/lastmile_qr_scan"}, "fusion_lon": 0.0}, {"lat": 38.9346865, "is_disabled": 0, "type": "electric_scooter", "lon": -77.02832483333333, "bike_id": "fc47e47b098c84bde8c622208932ec85", "fusion_lat": 0.0, "name": "fc47e47b098c84bde8c622208932ec85", "is_reserved": 0, "rental_uris": {"android": "https://dc.lft.to/lastmile_qr_scan", "ios": "https://dc.lft.to/lastmile_qr_scan"}, "fusion_lon": 0.0}, {"lat": 38.919445, "is_disabled": 0, "type": "electric_scooter", "lon": -77.07060916666667, "bike_id": "a9846f4652d7de3fcb68cb3545e56e39", "fusion_lat": 0.0, "name": "a9846f4652d7de3fcb68cb3545e56e39", "is_reserved": 0, "rental_uris": {"android": "https://dc.lft.to/lastmile_qr_scan", "ios": "https://dc.lft.to/lastmile_qr_scan"}, "fusion_lon": 0.0}, {"lat": 38.93357566666667, "is_disabled": 0, "type": "electric_scooter", "lon": -77.02490866666666, "bike_id": "7a8d0f2ccf579c3e6c857652956f3e97", "fusion_lat": 0.0, "name": "7a8d0f2ccf579c3e6c857652956f3e97", "is_reserved": 0, "rental_uris": {"android": "https://dc.lft.to/lastmile_qr_scan", "ios": "https://dc.lft.to/lastmile_qr_scan"}, "fusion_lon": 0.0}, {"lat": 38.95404716666667, "is_disabled": 0, "type": "electric_scooter", "lon": -77.0274395, "bike_id": "07a7dfc0f3d0d4cd4168bdd39a3f7c12", "fusion_lat": 0.0, "name": "07a7dfc0f3d0d4cd4168bdd39a3f7c12", "is_reserved": 0, "rental_uris": {"android": "https://dc.lft.to/lastmile_qr_scan", "ios": "https://dc.lft.to/lastmile_qr_scan"}, "fusion_lon": 0.0}, {"lat": 38.80269216666667, "is_disabled": 0, "type": "electric_bike", "lon": -77.08111116666667, "bike_id": "925d7eafdd016e542c9c661758a2cfb4", "fusion_lat": 0.0, "name": "925d7eafdd016e542c9c661758a2cfb4", "is_reserved": 0, "rental_uris": {"android": "https://dc.lft.to/lastmile_qr_scan", "ios": "https://dc.lft.to/lastmile_qr_scan"}, "fusion_lon": 0.0}, {"lat": 38.89240266666667, "is_disabled": 0, "type": "electric_scooter", "lon": -77.05029183333333, "bike_id": "cf3121eb376fed62a8ec377eb2e2e8c0", "fusion_lat": 0.0, "name": "cf3121eb376fed62a8ec377eb2e2e8c0", "is_reserved": 0, "rental_uris": {"android": "https://dc.lft.to/lastmile_qr_scan", "ios": "https://dc.lft.to/lastmile_qr_scan"}, "fusion_lon": 0.0}, {"lat": 38.920396, "is_disabled": 0, "type": "electric_scooter", "lon": -77.02361966666666, "bike_id": "7fcd3f4e5af4a95ea79437ab64141829", "fusion_lat": 0.0, "name": "7fcd3f4e5af4a95ea79437ab64141829", "is_reserved": 0, "rental_uris": {"android": "https://dc.lft.to/lastmile_qr_scan", "ios": "https://dc.lft.to/lastmile_qr_scan"}, "fusion_lon": 0.0}, {"lat": 38.86256233333334, "is_disabled": 0, "type": "electric_scooter", "lon": -76.99517216666666, "bike_id": "556e88527b52c94a7ee3bb35c329bcc3", "fusion_lat": 0.0, "name": "556e88527b52c94a7ee3bb35c329bcc3", "is_reserved": 0, "rental_uris": {"android": "https://dc.lft.to/lastmile_qr_scan", "ios": "https://dc.lft.to/lastmile_qr_scan"}, "fusion_lon": 0.0}, {"lat": 38.89704833333333, "is_disabled": 0, "type": "electric_scooter", "lon": -77.0502825, "bike_id": "48c241717baf30627a849f19945fdf7e", "fusion_lat": 0.0, "name": "48c241717baf30627a849f19945fdf7e", "is_reserved": 0, "rental_uris": {"android": "https://dc.lft.to/lastmile_qr_scan", "ios": "https://dc.lft.to/lastmile_qr_scan"}, "fusion_lon": 0.0}, {"lat": 38.882788166666664, "is_disabled": 0, "type": "electric_bike", "lon": -76.9877815, "bike_id": "10fedce83378a2379cc6faa420375884", "fusion_lat": 0.0, "name": "10fedce83378a2379cc6faa420375884", "is_reserved": 0, "rental_uris": {"android": "https://dc.lft.to/lastmile_qr_scan", "ios": "https://dc.lft.to/lastmile_qr_scan"}, "fusion_lon": 0.0}, {"lat": 38.898796, "is_disabled": 0, "type": "electric_scooter", "lon": -77.05338133333333, "bike_id": "b197caf06e7a5331a84635ce6fc2d572", "fusion_lat": 0.0, "name": "b197caf06e7a5331a84635ce6fc2d572", "is_reserved": 0, "rental_uris": {"android": "https://dc.lft.to/lastmile_qr_scan", "ios": "https://dc.lft.to/lastmile_qr_scan"}, "fusion_lon": 0.0}, {"lat": 38.89917116666667, "is_disabled": 0, "type": "electric_scooter", "lon": -76.93380483333334, "bike_id": "5b7cc0cf7c3452e487d3c76bcc333306", "fusion_lat": 0.0, "name": "5b7cc0cf7c3452e487d3c76bcc333306", "is_reserved": 0, "rental_uris": {"android": "https://dc.lft.to/lastmile_qr_scan", "ios": "https://dc.lft.to/lastmile_qr_scan"}, "fusion_lon": 0.0},