{"data": {"bikes": [{"fusion_lon": 0.0, "name": "8b5892108367023e529eb9d374d6425f", "rental_uris": {"android": "https://dc.lft.to/lastmile_qr_scan", "ios": "https://dc.lft.to/lastmile_qr_scan"}, "lat": 38.946758, "bike_id": "8b5892108367023e529eb9d374d6425f", "is_disabled": 0, "lon": -76.9932925, "is_reserved": 0, "fusion_lat": 0.0, "type": "electric_bike"}, {"fusion_lon": 0.0, "name": "dc84cf7eb34f077e4218cee21f4ffbfd", "rental_uris": {"android": "https://dc.lft.to/lastmile_qr_scan", "ios": "https://dc.lft.to/lastmile_qr_scan"}, "lat": 38.89707333333333, "bike_id": "dc84cf7eb34f077e4218cee21f4ffbfd", "is_disabled": 0, "lon": -76.99116816666667, "is_reserved": 0, "fusion_lat": 0.0, "type": "electric_scooter"}, {"fusion_lon": 0.0, "name": "b1503f0d4afa833f244005ed983e652f", "rental_uris": {"android": "https://dc.lft.to/lastmile_qr_scan", "ios": "https://dc.lft.to/lastmile_qr_scan"}, "lat": 38.898299333333334, "bike_id": "b1503f0d4afa833f244005ed983e652f", "is_disabled": 0, "lon": -77.00735683333333, "is_reserved": 0, "fusion_lat": 0.0, "type": "electric_scooter"}, {"fusion_lon": 0.0, "name": "b0937ef64a78e5f5c7872bdaa0a6f384", "rental_uris": {"android": "https://dc.lft.to/lastmile_qr_scan", "ios": "https://dc.lft.to/lastmile_qr_scan"}, "lat": 38.87036533333333, "bike_id": "b0937ef64a78e5f5c7872bdaa0a6f384", "is_disabled": 0, "lon": -77.22904133333333, "is_reserved": 0, "fusion_lat": 0.0, "type": "electric_bike"}, {"fusion_lon": 0.0, "name": "879cef73b25eff2ab6fd0bacccda1cfb", "rental_uris": {"android": "https://dc.lft.to/lastmile_qr_scan", "ios": "https://dc.lft.to/lastmile_qr_scan"}, "lat": 38.92412133333333, "bike_id": "879cef73b25eff2ab6fd0bacccda1cfb", "is_disabled": 0, "lon": -77.020148, "is_reserved": 0, "fusion_lat": 0.0, "type": "electric_scooter"}, {"fusion_lon": 0.0, "name": "fcad18ff40dc7f736e2465a71503ba6c", "rental_uris": {"android": "https://dc.lft.to/lastmile_qr_scan", "ios": "https://dc.lft.to/lastmile_qr_scan"}, "lat": 38.90328183333333, "bike_id": "fcad18ff40dc7f736e2465a71503ba6c", "is_disabled": 0, "lon": -76.97596516666667, "is_reserved": 0, "fusion_lat": 0.0, "type": "electric_scooter"}, {"fusion_lon": 0.0, "name": "359e49db8341d5ecc1884e61e487d3b5", "rental_uris": {"android": "https://dc.lft.to/lastmile_qr_scan", "ios": "https://dc.lft.to/lastmile_qr_scan"}, "lat": 38.90395983333333, "bike_id": "359e49db8341d5ecc1884e61e487d3b5", "is_disabled": 0, "lon": -77.00426766666666, "is_reserved": 0, "fusion_lat": 0.0, "type": "electric_scooter"}, {"fusion_lon": 0.0, "name": "a689cbe36d01b42e403e584f96c98eac", "rental_uris": {"android": "https://dc.lft.to/lastmile_qr_scan", "ios": "https://dc.lft.to/lastmile_qr_scan"}, "lat": 38.95072483333333, "bike_id": "a689cbe36d01b42e403e584f96c98eac", "is_disabled": 0, "lon": -77.02990083333333, "is_reserved": 0, "fusion_lat": 0.0, "type": "electric_scooter"}, {"fusion_lon": 0.0, "name": "d283402578f53e2ad6c2e8210b96eedf", "rental_uris": {"android": "https://dc.lft.to/lastmile_qr_scan", "ios": "https://dc.lft.to/lastmile_qr_scan"}, "lat": 38.9232035, "bike_id": "d283402578f53e2ad6c2e8210b96eedf", "is_disabled": 0, "lon": -77.01963283333333, "is_reserved": 0, "fusion_lat": 0.0, "type": "electric_scooter"}, {"fusion_lon": 0.0, "name": "563df70d1c048341acb89383ad55286d", "rental_uris": {"android": "https://dc.lft.to/lastmile_qr_scan", "ios": "https://dc.lft.to/lastmile_qr_scan"}, "lat": 38.900245166666664, "bike_id": "563df70d1c048341acb89383ad55286d", "is_disabled": 0, "lon": -76.986899, "is_reserved": 0, "fusion_lat": 0.0, "type": "electric_scooter"}, {"fusion_lon": 0.0, "name": "b73cdc921d759f43dec3ceada26e9a08", "rental_uris": {"android": "https://dc.lft.to/lastmile_qr_scan", "ios": "https://dc.lft.to/lastmile_qr_scan"}, "lat": 38.854318166666665, "bike_id": "b73cdc921d759f43dec3ceada26e9a08", "is_disabled": 0, "lon": -77.08322833333334, "is_reserved": 0, "fusion_lat": 0.0, "type": "electric_bike"}, {"fusion_lon": 0.0, "name": "894c3be62a0770ffe0b5b4d496283b48", "rental_uris": {"android": "https://dc.lft.to/lastmile_qr_scan", "ios": "https://dc.lft.to/lastmile_qr_scan"}, "lat": 38.926099, "bike_id": "894c3be62a0770ffe0b5b4d496283b48", "is_disabled": 0, "lon": -77.02162883333334, "is_reserved": 0, "fusion_lat": 0.0, "type": "electric_scooter"}, {"fusion_lon": 0.0, "name": "18ad48967a93d5347f74ce635ff6bade", "rental_uris": {"android": "https://dc.lft.to/lastmile_qr_scan", "ios": "https://dc.lft.to/lastmile_qr_scan"}, "lat": 38.92681533333333, "bike_id": "18ad48967a93d5347f74ce635ff6bade", "is_disabled": 0, "lon": -76.99559483333333, "is_reserved": 0, "fusion_lat": 0.0, "type": "electric_scooter"}, {"fusion_lon": 0.0, "name": "d39a24cd07e0a3e66d2d994fc92f72eb", "rental_uris": {"android": "https://dc.lft.to/lastmile_qr_scan", "ios": "https://dc.lft.to/lastmile_qr_scan"}, "lat": 38.901979833333336, "bike_id": "d39a24cd07e0a3e66d2d994fc92f72eb", "is_disabled": 0, "lon": -77.0612085, "is_reserved": 0, "fusion_lat": 0.0, "type": "electric_scooter"}, {"fusion_lon": 0.0, "name": "8ddbe88deff9a50cf837c48cb13248d8", "rental_uris": {"android": "https://dc.lft.to/lastmile_qr_scan", "ios": "https://dc.lft.to/lastmile_qr_scan"}, "lat": 38.92044666666666, "bike_id": "8ddbe88deff9a50cf837c48cb13248d8", "is_disabled": 0, "lon": -77.02443566666666, "is_reserved": 0, "fusion_lat": 0.0, "type": "electric_scooter"}, {"fusion_lon": 0.0, "name": "a37c97267584464745a63b6e808a45f2", "rental_uris": {"android": "https://dc.lft.to/lastmile_qr_scan", "ios": "https://dc.lft.to/lastmile_qr_scan"}, "lat": 38.9641355, "bike_id": "a37c97267584464745a63b6e808a45f2", "is_disabled": 0, "lon": -77.03257466666666, "is_reserved": 0, "fusion_lat": 0.0, "type": "electric_scooter"}, {"fusion_lon": 0.0, "name": "97b586fc560eec9df924af5ffa9306ae", "rental_uris": {"android": "https://dc.lft.to/lastmile_qr_scan", "ios": "https://dc.lft.to/lastmile_qr_scan"}, "lat": 38.93522733333333, "bike_id": "97b586fc560eec9df924af5ffa9306ae", "is_disabled": 0, "lon": -77.03259683333333, "is_reserved": 0, "fusion_lat": 0.0, "type": "electric_scooter"}, {"fusion_lon": 0.0, "name": "9c585c64c0150aa2fdd1ee69aef4b288", "rental_uris": {"android": "https://dc.lft.to/lastmile_qr_scan", "ios": "https://dc.lft.to/lastmile_qr_scan"}, "lat": 38.938363833333334, "bike_id": "9c585c64c0150aa2fdd1ee69aef4b288", "is_disabled": 0, "lon": -77.02481866666666, "is_reserved": 0, "fusion_lat": 0.0, "type": "electric_scooter"}, {"fusion_lon": 0.0, "name": "b577e50f19cc41c88c5045b93fd3c530", "rental_uris": {"android": "https://dc.lft.to/lastmile_qr_scan", "ios": "https://dc.lft.to/lastmile_qr_scan"}, "lat": 38.9205925, "bike_id": "b577e50f19cc41c88c5045b93fd3c530", "is_disabled": 0, "lon": -77.02947116666667, "is_reserved": 0, "fusion_lat": 0.0, "type": "electric_scooter"}, {"fusion_lon": 0.0, "name": "8a83ad2f2d6fbc22503916326ae048c1", "rental_uris": {"android": "https://dc.lft.to/lastmile_qr_scan", "ios": "https://dc.lft.to/lastmile_qr_scan"}, "lat": 38.902392166666665, "bike_id": "8a83ad2f2d6fbc22503916326ae048c1", "is_disabled": 0, "lon": -77.01735266666667, "is_reserved": 0, "fusion_lat": 0.0, "type": "electric_scooter"}, {"fusion_lon": 0.0, "name": "cae94b64c1e6fadc9fca37430bd0ada0", "rental_uris": {"android": "https://dc.lft.to/lastmile_qr_scan", "ios": "https://dc.lft.to/lastmile_qr_scan"}, "lat": 38.92060333333333, "bike_id": "cae94b64c1e6fadc9fca37430bd0ada0", "is_disabled": 0, "lon": -77.02946666666666, "is_reserved": 0, "fusion_lat": 0.0, "type": "electric_scooter"}, {"fusion_lon": 0.0, "name": "14c5f739957d520a9206fa1093208364", "rental_uris": {"android": "https://dc.lft.to/lastmile_qr_scan", "ios": "https://dc.lft.to/lastmile_qr_scan"}, "lat": 38.916996833333336, "bike_id": "14c5f739957d520a9206fa1093208364", "is_disabled": 0, "lon": -77.04191733333333, "is_reserved": 0, "fusion_lat": 0.0, "type": "electric_scooter"}, {"fusion_lon": 0.0, "name": "20b7aa86aa4b1ff73174338e479b9449", "rental_uris": {"android": "https://dc.lft.to/lastmile_qr_scan", "ios": "https://dc.lft.to/lastmile_qr_scan"}, "lat": 38.90960233333333, "bike_id": "20b7aa86aa4b1ff73174338e479b9449", "is_disabled": 0, "lon": -77.0244485, "is_reserved": 0, "fusion_lat": 0.0, "type": "electric_scooter"}, {"fusion_lon": 0.0, "name": "5edb9cbf2802acf7e2cb35e46df6431f", "rental_uris": {"android": "https://dc.lft.to/lastmile_qr_scan", "ios": "https://dc.lft.to/lastmile_qr_scan"}, "lat": 38.900700666666665, "bike_id": "5edb9cbf2802acf7e2cb35e46df6431f", "is_disabled": 0, "lon": -77.02790816666666, "is_reserved": 0, "fusion_lat": 0.0, "type": "electric_bike"}, {"fusion_lon": 0.0, "name": "359eabf160bb324128c7d44703a5f6ee", "rental_uris": {"android": "https://dc.lft.to/lastmile_qr_scan", "ios": "https://dc.lft.to/lastmile_qr_scan"}, "lat": 38.901238166666666, "bike_id": "359eabf160bb324128c7d44703a5f6ee", "is_disabled": 0, "lon": -77.031596, "is_reserved": 0, "fusion_lat": 0.0, "type": "electric_scooter"}, {"fusion_lon": 0.0, "name": "73481149ef5399e6b5b1578a4eee1ca4", "rental_uris": {"android": "https://dc.lft.to/lastmile_qr_scan", "ios": "https://dc.lft.to/lastmile_qr_scan"}, "lat": 38.915533833333335, "bike_id": "73481149ef5399e6b5b1578a4eee1ca4", "is_disabled": 0, "lon": -77.036665, "is_reserved": 0, "fusion_lat": 0.0, "type": "electric_scooter"}, {"fusion_lon": 0.0, "name": "447af5a1cbb2cf2b22a6087952d9872b", "rental_uris": {"android": "https://dc.lft.to/lastmile_qr_scan", "ios": "https://dc.lft.to/lastmile_qr_scan"}, "lat": 38.908289833333335, "bike_id": "447af5a1cbb2cf2b22a6087952d9872b", "is_disabled": 0, "lon": -76.9415945, "is_reserved": 0, "fusion_lat": 0.0, "type": "electric_bike"}, {"fusion_lon": 0.0, "name": "457d3e59cbd5bb85b1c27fcc5b0cf77d", "rental_uris": {"android": "https://dc.lft.to/lastmile_qr_scan", "ios": "https://dc.lft.to/lastmile_qr_scan"}, "lat": 38.9002475, "bike_id": "457d3e59cbd5bb85b1c27fcc5b0cf77d", "is_disabled": 0, "lon": -77.0114445, "is_reserved": 0, "fusion_lat": 0.0, "type": "electric_scooter"}, {"fusion_lon": 0.0, "name": "39fd26014b4ea722f093ad6865902d68", "rental_uris": {"android": "https://dc.lft.to/lastmile_qr_scan", "ios": "https://dc.lft.to/lastmile_qr_scan"}, "lat": 38.89963933333333, "bike_id": "39fd26014b4ea722f093ad6865902d68", "is_disabled": 0, "lon": -77.03075833333334, "is_reserved": 0, "fusion_lat": 0.0, "type": "electric_scooter"}, {"fusion_lon": 0.0, "name": "998df6cfeb40f17b37ee655f89305f80", "rental_uris": {"android": "https://dc.lft.to/lastmile_qr_scan", "ios": "https://dc.lft.to/lastmile_qr_scan"}, "lat": 38.8775115, "bike_id": "998df6cfeb40f17b37ee655f89305f80", "is_disabled": 0, "lon": -77.0075845, "is_reserved": 0, "fusion_lat": 0.0, "type": "electric_scooter"}, {"fusion_lon": 0.0, "name": "22493b7e32671b6a8f02714663d49172", "rental_uris": {"android": "https://dc.lft.to/lastmile_qr_scan", "ios": "https://dc.lft.to/lastmile_qr_scan"}, "lat": 38.905514833333335, "bike_id": "22493b7e32671b6a8f02714663d49172", "is_disabled": 0, "lon": -77.03984083333333, "is_reserved": 0, "fusion_lat": 0.0, "type": "electric_scooter"}, {"fusion_lon": 0.0, "name": "8f59d40f3a732b9493b4124e583fb300", "rental_uris": {"android": "https://dc.lft.to/lastmile_qr_scan", "ios": "https://dc.lft.to/lastmile_qr_scan"}, "lat": 38.8848135, "bike_id": "8f59d40f3a732b9493b4124e583fb300", "is_disabled": 0, "lon": -77.01514333333333, "is_reserved": 0, "fusion_lat": 0.0, "type": "electric_scooter"}, {"fusion_lon": 0.0, "name": "a425112f067fa5185f6d6a148849cf4d", "rental_uris": {"android": "https://dc.lft.to/lastmile_qr_scan", "ios": "https://dc.lft.to/lastmile_qr_scan"}, "lat": 38.90397766666667, "bike_id": "a425112f067fa5185f6d6a148849cf4d", "is_disabled": 0, "lon": -76.981156, "is_reserved": 0, "fusion_lat": 0.0, "type": "electric_scooter"}, {"fusion_lon": 0.0, "name": "026798bb60548d33a9ecd01b1c77be53", "rental_uris": {"android": "https://dc.lft.to/lastmile_qr_scan", "ios": "https://dc.lft.to/lastmile_qr_scan"}, "lat": 38.9082935, "bike_id": "026798bb60548d33a9ecd01b1c77be53", "is_disabled": 0, "lon": -77.03827916666667, "is_reserved": 0, "fusion_lat": 0.0, "type": "electric_scooter"}, {"fusion_lon": 0.0, "name": "4bff3e1d48ec6fbc93b7cac526308e89", "rental_uris": {"android": "https://dc.lft.to/lastmile_qr_scan", "ios": "https://dc.lft.to/lastmile_qr_scan"}, "lat": 38.92128133333333, "bike_id": "4bff3e1d48ec6fbc93b7cac526308e89", "is_disabled": 0, "lon": -77.02145866666666, "is_reserved": 0, "fusion_lat": 0.0, "type": "electric_scooter"}, {"fusion_lon": 0.0, "name": "401f39c5bb9e5831b805aae0f252c76b", "rental_uris": {"android": "https://dc.lft.to/lastmile_qr_scan", "ios": "https://dc.lft.to/lastmile_qr_scan"}, "lat": 38.95297166666667, "bike_id": "401f39c5bb9e5831b805aae0f252c76b", "is_disabled": 0, "lon": -77.02780616666666, "is_reserved": 0, "fusion_lat": 0.0, "type": "electric_scooter"}, {"fusion_lon": 0.0, "name": "d043572f05ba01027c88f32e0568657f", "rental_uris": {"android": "https://dc.lft.to/lastmile_qr_scan", "ios": "https://dc.lft.to/lastmile_qr_scan"}, "lat": 38.8876695, "bike_id": "d043572f05ba01027c88f32e0568657f", "is_disabled": 0, "lon": -76.93268333333333, "is_reserved": 0, "fusion_lat": 0.0, "type": "electric_scooter"}, {"fusion_lon": 0.0, "name": "40b72269c47e9e87c0685e162958b140", "rental_uris": {"android": "https://dc.lft.to/lastmile_qr_scan", "ios": "https://dc.lft.to/lastmile_qr_scan"}, "lat": 38.9067395, "bike_id": "40b72269c47e9e87c0685e162958b140", "is_disabled": 0, "lon": -77.02693183333334, "is_reserved": 0, "fusion_lat": 0.0, "type": "electric_scooter"}, {"fusion_lon": 0.0, "name": "37fe4672d9fe16e026506484061c979c", "rental_uris": {"android": "https://dc.lft.to/lastmile_qr_scan", "ios": "https://dc.lft.to/lastmile_qr_scan"}, "lat": 38.887213, "bike_id": "37fe4672d9fe16e026506484061c979c", "is_disabled": 0, "lon": -76.99679333333333, "is_reserved": 0, "fusion_lat": 0.0, "type": "electric_scooter"}, {"fusion_lon": 0.0, "name": "1e0ed90b56d88c59faddb4bd2d3d70e1", "rental_uris": {"android": "https://dc.lft.to/lastmile_qr_scan", "ios": "https://dc.lft.to/lastmile_qr_scan"}, "lat": 38.895982333333336, "bike_id": "1e0ed90b56d88c59faddb4bd2d3d70e1", "is_disabled": 0, "lon": -76.967823, "is_reserved": 0, "fusion_lat": 0.0, "type": "electric_bike"}, {"fusion_lon": 0.0, "name": "449950a2018ce48d81f4717d244dc09d", "rental_uris": {"android": "https://dc.lft.to/lastmile_qr_scan", "ios": "https://dc.lft.to/lastmile_qr_scan"}, "lat": 38.92163166666667, "bike_id": "449950a2018ce48d81f4717d244dc09d", "is_disabled": 0, "lon": -77.02025116666667, "is_reserved": 0, "fusion_lat": 0.0, "type": "electric_scooter"}, {"fusion_lon": 0.0, "name": "a7b8fff941b55013b6fcbbdea23fe900", "rental_uris": {"android": "https://dc.lft.to/lastmile_qr_scan", "ios": "https://dc.lft.to/lastmile_qr_scan"}, "lat": 38.92685433333333, "bike_id": "a7b8fff941b55013b6fcbbdea23fe900", "is_disabled": 0, "lon": -77.02968466666667, "is_reserved": 0, "fusion_lat": 0.0, "type": "electric_scooter"}, {"fusion_lon": 0.0, "name": "a18e23437cc53345c834ac12d4ffae3a", "rental_uris": {"android": "https://dc.lft.to/lastmile_qr_scan", "ios": "https://dc.lft.to/lastmile_qr_scan"}, "lat": 38.888755, "bike_id": "a18e23437cc53345c834ac12d4ffae3a", "is_disabled": 0, "lon": -76.99035383333333, "is_reserved": 0, "fusion_lat": 0.0, "type": "electric_scooter"}, {"fusion_lon": 0.0, "name": "0f9b7e0331351cac4c82a24dfdac7baa", "rental_uris": {"android": "https://dc.lft.to/lastmile_qr_scan", "ios": "https://dc.lft.to/lastmile_qr_scan"}, "lat": 38.9295795, "bike_id": "0f9b7e0331351cac4c82a24dfdac7baa", "is_disabled": 0, "lon": -77.01148033333334, "is_reserved": 0, "fusion_lat": 0.0, "type": "electric_scooter"}, {"fusion_lon": 0.0, "name": "c2e8e3ca0a0abbf799e1a299ecc3cb81", "rental_uris": {"android": "https://dc.lft.to/lastmile_qr_scan", "ios": "https://dc.lft.to/lastmile_qr_scan"}, "lat": 38.909646, "bike_id": "c2e8e3ca0a0abbf799e1a299ecc3cb81", "is_disabled": 0, "lon": -77.0342425, "is_reserved": 0, "fusion_lat": 0.0, "type": "electric_scooter"}, {"fusion_lon": 0.0, "name": "1953ea66792976e37dc978bf46cc1bad", "rental_uris": {"android": "https://dc.lft.to/lastmile_qr_scan", "ios": "https://dc.lft.to/lastmile_qr_scan"}, "lat": 38.89608533333333, "bike_id": "1953ea66792976e37dc978bf46cc1bad", "is_disabled": 0, "lon": -77.03036616666667, "is_reserved": 0, "fusion_lat": 0.0, "type": "electric_scooter"}, {"fusion_lon": 0.0, "name": "76299782163968bf2383f66944b698fb", "rental_uris": {"android": "https://dc.lft.to/lastmile_qr_scan", "ios": "https://dc.lft.to/lastmile_qr_scan"}, "lat": 38.903847999999996, "bike_id": "76299782163968bf2383f66944b698fb", "is_disabled": 0, "lon": -77.0292165, "is_reserved": 0, "fusion_lat": 0.0, "type": "electric_scooter"}, {"fusion_lon": 0.0, "name": "bb0216419414185161755fcbb0f919d8", "rental_uris": {"android": "https://dc.lft.to/lastmile_qr_scan", "ios": "https://dc.lft.to/lastmile_qr_scan"}, "lat": 38.92486733333333, "bike_id": "bb0216419414185161755fcbb0f919d8", "is_disabled": 0, "lon": -77.03916183333334, "is_reserved": 0, "fusion_lat": 0.0, "type": "electric_scooter"}, {"fusion_lon": 0.0, "name": "ac175a7d5086c794a7ffe58ee457b29f", "rental_uris": {"android": "https://dc.lft.to/lastmile_qr_scan", "ios": "https://dc.lft.to/lastmile_qr_scan"}, "lat": 38.91362383333333, "bike_id": "ac175a7d5086c794a7ffe58ee457b29f", "is_disabled": 0, "lon": -77.0458615, "is_reserved": 0, "fusion_lat": 0.0, "type": "electric_scooter"}, {"fusion_lon": 0.0, "name": "0e6751d7355356da40aa5a6f3c02ab9e", "rental_uris": {"android": "https://dc.lft.to/lastmile_qr_scan", "ios": "https://dc.lft.to/lastmile_qr_scan"}, "lat": 38.90847383333333, "bike_id": "0e6751d7355356da40aa5a6f3c02ab9e", "is_disabled": 0, "lon": -77.000842, "is_reserved": 0, "fusion_lat": 0.0, "type": "electric_scooter"}, {"fusion_lon": 0.0, "name": "03a607ed2afa758fa66ae739e8d432e8", "rental_uris": {"android": "https://dc.lft.to/lastmile_qr_scan", "ios": "https://dc.lft.to/lastmile_qr_scan"}, "lat": 38.92181466666667, "bike_id": "03a607ed2afa758fa66ae739e8d432e8", "is_disabled": 0, "lon": -76.99834683333333, "is_reserved": 0, "fusion_lat": 0.0, "type": "electric_scooter"}, {"fusion_lon": 0.0, "name": "977cc01c2837f7df0352f84eb10d01f5", "rental_uris": {"android": "https://dc.lft.to/lastmile_qr_scan", "ios": "https://dc.lft.to/lastmile_qr_scan"}, "lat": 38.90008533333334, "bike_id": "977cc01c2837f7df0352f84eb10d01f5", "is_disabled": 0, "lon": -77.04665216666666, "is_reserved": 0, "fusion_lat": 0.0, "type": "electric_scooter"}, {"fusion_lon": 0.0, "name": "2269f9e45353db0d49bc89a7514a85ab", "rental_uris": {"android": "https://dc.lft.to/lastmile_qr_scan", "ios": "https://dc.lft.to/lastmile_qr_scan"}, "lat": 38.89970916666667, "bike_id": "2269f9e45353db0d49bc89a7514a85ab", "is_disabled": 0, "lon": -77.01620483333333, "is_reserved": 0, "fusion_lat": 0.0, "type": "electric_scooter"}, {"fusion_lon": 0.0, "name": "63f24aa8748edf389594a817808ad3cb", "rental_uris": {"android": "https://dc.lft.to/lastmile_qr_scan", "ios": "https://dc.lft.to/lastmile_qr_scan"}, "lat": 38.86245783333333, "bike_id": "63f24aa8748edf389594a817808ad3cb", "is_disabled": 0, "lon": -76.99503083333333, "is_reserved": 0, "fusion_lat": 0.0, "type": "electric_scooter"}, {"fusion_lon": 0.0, "name": "3e3be6d27e8c69fad470dd60f5277f43", "rental_uris": {"android": "https://dc.lft.to/lastmile_qr_scan", "ios": "https://dc.lft.to/lastmile_qr_scan"}, "lat": 38.92433033333333, "bike_id": "3e3be6d27e8c69fad470dd60f5277f43", "is_disabled": 0, "lon": -77.052082, "is_reserved": 0, "fusion_lat": 0.0, "type": "electric_scooter"}, {"fusion_lon": 0.0, "name": "b4d9398441d461406aec5b51339c4111", "rental_uris": {"android": "https://dc.lft.to/lastmile_qr_scan", "ios": "https://dc.lft.to/lastmile_qr_scan"}, "lat": 38.96030433333333, "bike_id": "b4d9398441d461406aec5b51339c4111", "is_disabled": 0, "lon": -77.02428833333333, "is_reserved": 0, "fusion_lat": 0.0, "type": "electric_scooter"}, {"fusion_lon": 0.0, "name": "6f76aefe4bcbdc97c4548362fed9a5db", "rental_uris": {"android": "https://dc.lft.to/lastmile_qr_scan", "ios": "https://dc.lft.to/lastmile_qr_scan"}, "lat": 38.915519, "bike_id": "6f76aefe4bcbdc97c4548362fed9a5db", "is_disabled": 0, "lon": -77.04710116666666, "is_reserved": 0, "fusion_lat": 0.0, "type": "electric_scooter"}, {"fusion_lon": 0.0, "name": "5e6a59fed0dd0510a5c399edf44a8325", "rental_uris": {"android": "https://dc.lft.to/lastmile_qr_scan", "ios": "https://dc.lft.to/lastmile_qr_scan"}, "lat": 38.87691383333333, "bike_id": "5e6a59fed0dd0510a5c399edf44a8325", "is_disabled": 0, "lon": -77.00744066666667, "is_reserved": 0, "fusion_lat": 0.0, "type": "electric_scooter"}, {"fusion_lon": 0.0, "name": "6c16164efa8595a1f3c78b0a77b7011a", "rental_uris": {"android": "https://dc.lft.to/lastmile_qr_scan", "ios": "https://dc.lft.to/lastmile_qr_scan"}, "lat": 38.88522866666667, "bike_id": "6c16164efa8595a1f3c78b0a77b7011a", "is_disabled": 0, "lon": -76.9771075, "is_reserved": 0, "fusion_lat": 0.0, "type": "electric_scooter"}, {"fusion_lon": 0.0, "name": "00de0003eee66fa962c7ae7ec356585a", "rental_uris": {"android": "https://dc.lft.to/lastmile_qr_scan", "ios": "https://dc.lft.to/lastmile_qr_scan"}, "lat": 38.905804833333335, "bike_id": "00de0003eee66fa962c7ae7ec356585a", "is_disabled": 0, "lon": -77.04202283333333, "is_reserved": 0, "fusion_lat": 0.0, "type": "electric_scooter"}, {"fusion_lon": 0.0, "name": "cb4de4d5465354626a04f49d53214f01", "rental_uris": {"android": "https://dc.lft.to/lastmile_qr_scan", "ios": "https://dc.lft.to/lastmile_qr_scan"}, "lat": 38.916906166666664, "bike_id": "cb4de4d5465354626a04f49d53214f01", "is_disabled": 0, "lon": -77.02601583333333, "is_reserved": 0, "fusion_lat": 0.0, "type": "electric_scooter"}, {"fusion_lon": 0.0, "name": "bcf04133dd6bffbc39fb1e7e60e2d9a9", "rental_uris": {"android": "https://dc.lft.to/lastmile_qr_scan", "ios": "https://dc.lft.to/lastmile_qr_scan"}, "lat": 38.87627116666667, "bike_id": "bcf04133dd6bffbc39fb1e7e60e2d9a9", "is_disabled": 0, "lon": -77.0165845, "is_reserved": 0, "fusion_lat": 0.0, "type": "electric_scooter"}, {"fusion_lon": 0.0, "name": "0ada029d7a3ab6792f575c5b4051970b", "rental_uris": {"android": "https://dc.lft.to/lastmile_qr_scan", "ios": "https://dc.lft.to/lastmile_qr_scan"}, "lat": 38.900679, "bike_id": "0ada029d7a3ab6792f575c5b4051970b", "is_disabled": 0, "lon": -76.92744816666666, "is_reserved": 0, "fusion_lat": 0.0, "type": "electric_scooter"}, {"fusion_lon": 0.0, "name": "f8299a5b96f06ca4c15e55268ef138da", "rental_uris": {"android": "https://dc.lft.to/lastmile_qr_scan", "ios": "https://dc.lft.to/lastmile_qr_scan"}, "lat": 38.8785955, "bike_id": "f8299a5b96f06ca4c15e55268ef138da", "is_disabled": 0, "lon": -76.9916195, "is_reserved": 0, "fusion_lat": 0.0, "type": "electric_scooter"}, {"fusion_lon": 0.0, "name": "db1f296a38ea43f126416ed9db52606c", "rental_uris": {"android": "https://dc.lft.to/lastmile_qr_scan", "ios": "https://dc.lft.to/lastmile_qr_scan"}, "lat": 38.90013233333333, "bike_id": "db1f296a38ea43f126416ed9db52606c", "is_disabled": 0, "lon": -77.0216865, "is_reserved": 0, "fusion_lat": 0.0, "type": "electric_scooter"}, {"fusion_lon": 0.0, "name": "ad87c2f4353f3829d17d508269fe92f6", "rental_uris": {"android": "https://dc.lft.to/lastmile_qr_scan", "ios": "https://dc.lft.to/lastmile_qr_scan"}, "lat": 38.89899666666667, "bike_id": "ad87c2f4353f3829d17d508269fe92f6", "is_disabled": 0, "lon": -77.03279883333333, "is_reserved": 0, "fusion_lat": 0.0, "type": "electric_scooter"}, {"fusion_lon": 0.0, "name": "941c86d9b2428fe4f3a23d0401b179f1", "rental_uris": {"android": "https://dc.lft.to/lastmile_qr_scan", "ios": "https://dc.lft.to/lastmile_qr_scan"}, "lat": 38.93520083333333, "bike_id": "941c86d9b2428fe4f3a23d0401b179f1", "is_disabled": 0, "lon": -77.02851516666666, "is_reserved": 0, "fusion_lat": 0.0, "type": "electric_scooter"}, {"fusion_lon": 0.0, "name": "2392d1aa9ee9100d4ef31800c3d66fe7", "rental_uris": {"android": "https://dc.lft.to/lastmile_qr_scan", "ios": "https://dc.lft.to/lastmile_qr_scan"}, "lat": 38.9042515, "bike_id": "2392d1aa9ee9100d4ef31800c3d66fe7", "is_disabled": 0, "lon": -77.02604933333333, "is_reserved": 0, "fusion_lat": 0.0, "type": "electric_scooter"}, {"fusion_lon": 0.0, "name": "2a96d3e332a6c6c75ffd419b82888e5a", "rental_uris": {"android": "https://dc.lft.to/lastmile_qr_scan", "ios": "https://dc.lft.to/lastmile_qr_scan"}, "lat": 38.882630166666665, "bike_id": "2a96d3e332a6c6c75ffd419b82888e5a", "is_disabled": 0, "lon": -76.99201683333334, "is_reserved": 0, "fusion_lat": 0.0, "type": "electric_scooter"}, {"fusion_lon": 0.0, "name": "cc168698bbabddf7bec32c409759dcad", "rental_uris": {"android": "https://dc.lft.to/lastmile_qr_scan", "ios": "https://dc.lft.to/lastmile_qr_scan"}, "lat": 38.96119183333333, "bike_id": "cc168698bbabddf7bec32c409759dcad", "is_disabled": 0, "lon": -77.0279405, "is_reserved": 0, "fusion_lat": 0.0, "type": "electric_scooter"}, {"fusion_lon": 0.0, "name": "50e198a92df0e7986fde3c4a28b71365", "rental_uris": {"android": "https://dc.lft.to/lastmile_qr_scan", "ios": "https://dc.lft.to/lastmile_qr_scan"}, "lat": 38.92602766666667, "bike_id": "50e198a92df0e7986fde3c4a28b71365", "is_disabled": 0, "lon": -77.0215815, "is_reserved": 0, "fusion_lat": 0.0, "type": "electric_scooter"}, {"fusion_lon": 0.0, "name": "51b84bddc21cc89832aad35704a9e15b", "rental_uris": {"android": "https://dc.lft.to/lastmile_qr_scan", "ios": "https://dc.lft.to/lastmile_qr_scan"}, "lat": 38.905574, "bike_id": "51b84bddc21cc89832aad35704a9e15b", "is_disabled": 0, "lon": -77.034625, "is_reserved": 0, "fusion_lat": 0.0, "type": "electric_scooter"}, {"fusion_lon": 0.0, "name": "8713d7284a549b41a6bb3a3882f2ff56", "rental_uris": {"android": "https://dc.lft.to/lastmile_qr_scan", "ios": "https://dc.lft.to/lastmile_qr_scan"}, "lat": 38.89762866666667, "bike_id": "8713d7284a549b41a6bb3a3882f2ff56", "is_disabled": 0, "lon": -77.0259965, "is_reserved": 0, "fusion_lat": 0.0, "type": "electric_scooter"}, {"fusion_lon": 0.0, "name": "a4acf17ba58f0bd948ef9d4061191f2a", "rental_uris": {"android": "https://dc.lft.to/lastmile_qr_scan", "ios": "https://dc.lft.to/lastmile_qr_scan"}, "lat": 38.89615966666667, "bike_id": "a4acf17ba58f0bd948ef9d4061191f2a", "is_disabled": 0, "lon": -77.01161616666667, "is_reserved": 0, "fusion_lat": 0.0, "type": "electric_scooter"}, {"fusion_lon": 0.0, "name": "564063e39ece15ccc05e54d270c2fd82", "rental_uris": {"android": "https://dc.lft.to/lastmile_qr_scan", "ios": "https://dc.lft.to/lastmile_qr_scan"}, "lat": 38.90545766666666, "bike_id": "564063e39ece15ccc05e54d270c2fd82", "is_disabled": 0, "lon": -77.00409633333334, "is_reserved": 0, "fusion_lat": 0.0, "type": "electric_scooter"}, {"fusion_lon": 0.0, "name": "19f67ecffa382229596739846724e16c", "rental_uris": {"android": "https://dc.lft.to/lastmile_qr_scan", "ios": "https://dc.lft.to/lastmile_qr_scan"}, "lat": 38.9110725, "bike_id": "19f67ecffa382229596739846724e16c", "is_disabled": 0, "lon": -77.00366233333334, "is_reserved": 0, "fusion_lat": 0.0, "type": "electric_scooter"}, {"fusion_lon": 0.0, "name": "c2952ef2403568ad79fa01bd8f4a5fa8", "rental_uris": {"android": "https://dc.lft.to/lastmile_qr_scan", "ios": "https://dc.lft.to/lastmile_qr_scan"}, "lat": 38.90562166666667, "bike_id": "c2952ef2403568ad79fa01bd8f4a5fa8", "is_disabled": 0, "lon": -76.9821225, "is_reserved": 0, "fusion_lat": 0.0, "type": "electric_scooter"}, {"fusion_lon": 0.0, "name": "e45fb5f53940437a9c9f00f363dc7d74", "rental_uris": {"android": "https://dc.lft.to/lastmile_qr_scan", "ios": "https://dc.lft.to/lastmile_qr_scan"}, "lat": 38.90177716666667, "bike_id": "e45fb5f53940437a9c9f00f363dc7d74", "is_disabled": 0, "lon": -77.0240835, "is_reserved": 0, "fusion_lat": 0.0, "type": "electric_scooter"}, {"fusion_lon": 0.0, "name": "12f974c281d4b9928e3f4c744fe2c38a", "rental_uris": {"android": "https://dc.lft.to/lastmile_qr_scan", "ios": "https://dc.lft.to/lastmile_qr_scan"}, "lat": 38.897011, "bike_id": "12f974c281d4b9928e3f4c744fe2c38a", "is_disabled": 0, "lon": -77.04477583333333, "is_reserved": 0, "fusion_lat": 0.0, "type": "electric_scooter"}, {"fusion_lon": 0.0, "name": "6eab094a7a6ffb6c76f3e2f41a95f9f8", "rental_uris": {"android": "https://dc.lft.to/lastmile_qr_scan", "ios": "https://dc.lft.to/lastmile_qr_scan"}, "lat": 38.897554, "bike_id": "6eab094a7a6ffb6c76f3e2f41a95f9f8", "is_disabled": 0, "lon": -77.02680183333334, "is_reserved": 0, "fusion_lat": 0.0, "type": "electric_scooter"}, {"fusion_lon": 0.0, "name": "fdf8c8328bb6f79d2f7fa441fd4b6b9c", "rental_uris": {"android": "https://dc.lft.to/lastmile_qr_scan", "ios": "https://dc.lft.to/lastmile_qr_scan"}, "lat": 38.927850166666666, "bike_id": "fdf8c8328bb6f79d2f7fa441fd4b6b9c", "is_disabled": 0, "lon": -77.02182816666667, "is_reserved": 0, "fusion_lat": 0.0, "type": "electric_bike"}, {"fusion_lon": 0.0, "name": "60116b02085e8b32860525ad5913499c", "rental_uris": {"android": "https://dc.lft.to/lastmile_qr_scan", "ios": "https://dc.lft.to/lastmile_qr_scan"}, "lat": 38.88490783333334, "bike_id": "60116b02085e8b32860525ad5913499c", "is_disabled": 0, "lon": -77.00729833333334, "is_reserved": 0, "fusion_lat": 0.0, "type": "electric_scooter"}, {"fusion_lon": 0.0, "name": "b51a6f41015a84c60f4090d736dfd5ff", "rental_uris": {"android": "https://dc.lft.to/lastmile_qr_scan", "ios": "https://dc.lft.to/lastmile_qr_scan"}, "lat": 38.929224, "bike_id": "b51a6f41015a84c60f4090d736dfd5ff", "is_disabled": 0, "lon": -77.0067845, "is_reserved": 0, "fusion_lat": 0.0, "type": "electric_scooter"}, {"fusion_lon": 0.0, "name": "67f4c69011b9315e81af5ffdb6577e62", "rental_uris": {"android": "https://dc.lft.to/lastmile_qr_scan", "ios": "https://dc.lft.to/lastmile_qr_scan"}, "lat": 38.926649833333336, "bike_id": "67f4c69011b9315e81af5ffdb6577e62", "is_disabled": 0, "lon": -77.03092183333334, "is_reserved": 0, "fusion_lat": 0.0, "type": "electric_scooter"}, {"fusion_lon": 0.0, "name": "8f06cf797cb1fa4b7b89e1b3d18909a3", "rental_uris": {"android": "https://dc.lft.to/lastmile_qr_scan", "ios": "https://dc.lft.to/lastmile_qr_scan"}, "lat": 38.8870125, "bike_id": "8f06cf797cb1fa4b7b89e1b3d18909a3", "is_disabled": 0, "lon": -77.01366016666667, "is_reserved": 0, "fusion_lat": 0.0, "type": "electric_scooter"}, {"fusion_lon": 0.0, "name": "d056f66dde11b7d6033457eb286ce0e0", "rental_uris": {"android": "https://dc.lft.to/lastmile_qr_scan", "ios": "https://dc.lft.to/lastmile_qr_scan"}, "lat": 38.90722816666667, "bike_id": "d056f66dde11b7d6033457eb286ce0e0", "is_disabled": 0, "lon": -77.04015566666666, "is_reserved": 0, "fusion_lat": 0.0, "type": "electric_scooter"}, {"fusion_lon": 0.0, "name": "bc0dd26bd46643e710e37e1dba44cfc5", "rental_uris": {"android": "https://dc.lft.to/lastmile_qr_scan", "ios": "https://dc.lft.to/lastmile_qr_scan"}, "lat": 38.925410666666664, "bike_id": "bc0dd26bd46643e710e37e1dba44cfc5", "is_disabled": 0, "lon": -77.0297035, "is_reserved": 0, "fusion_lat": 0.0, "type": "electric_scooter"}, {"fusion_lon": 0.0, "name": "9a60975fcdd5fe1a0d8b2699b1653487", "rental_uris": {"android": "https://dc.lft.to/lastmile_qr_scan", "ios": "https://dc.lft.to/lastmile_qr_scan"}, "lat": 38.9345785, "bike_id": "9a60975fcdd5fe1a0d8b2699b1653487", "is_disabled": 0, "lon": -77.058099, "is_reserved": 0, "fusion_lat": 0.0, "type": "electric_scooter"}, {"fusion_lon": 0.0, "name": "ea8308ba73bc0dafcb177a313c5f8666", "rental_uris": {"android": "https://dc.lft.to/lastmile_qr_scan", "ios": "https://dc.lft.to/lastmile_qr_scan"}, "lat": 38.88479733333333, "bike_id": "ea8308ba73bc0dafcb177a313c5f8666", "is_disabled": 0, "lon": -77.01515966666666, "is_reserved": 0, "fusion_lat": 0.0, "type": "electric_scooter"}, {"fusion_lon": 0.0, "name": "935f087b02ca7d26f5cc7cdf227495ae", "rental_uris": {"android": "https://dc.lft.to/lastmile_qr_scan", "ios": "https://dc.lft.to/lastmile_qr_scan"}, "lat": 38.89887483333333, "bike_id": "935f087b02ca7d26f5cc7cdf227495ae", "is_disabled": 0, "lon": -76.98002383333333, "is_reserved": 0, "fusion_lat": 0.0, "type": "electric_scooter"}, {"fusion_lon": 0.0, "name": "ef841a73b3b57b78630758f56e53f85a", "rental_uris": {"android": "https://dc.lft.to/lastmile_qr_scan", "ios": "https://dc.lft.to/lastmile_qr_scan"}, "lat": 38.92146366666667, "bike_id": "ef841a73b3b57b78630758f56e53f85a", "is_disabled": 0, "lon": -77.02093383333333, "is_reserved": 0, "fusion_lat": 0.0, "type": "electric_scooter"}, {"fusion_lon": 0.0, "name": "df038c7cc54a9835d46fc5ed8c78f68c", "rental_uris": {"android": "https://dc.lft.to/lastmile_qr_scan", "ios": "https://dc.lft.to/lastmile_qr_scan"}, "lat": 38.864849666666665, "bike_id": "df038c7cc54a9835d46fc5ed8c78f68c", "is_disabled": 0, "lon": -76.97750833333333, "is_reserved": 0, "fusion_lat": 0.0, "type": "electric_bike"}, {"fusion_lon": 0.0, "name": "1f4c9e7183d72c117d5a306fe4b3903a", "rental_uris": {"android": "https://dc.lft.to/lastmile_qr_scan", "ios": "https://dc.lft.to/lastmile_qr_scan"}, "lat": 38.89225733333333, "bike_id": "1f4c9e7183d72c117d5a306fe4b3903a", "is_disabled": 0, "lon": -77.04507116666667, "is_reserved": 0, "fusion_lat": 0.0, "type": "electric_scooter"}, {"fusion_lon": 0.0, "name": "815e81666c09f0e5c41a3d2dbd718210", "rental_uris": {"android": "https://dc.lft.to/lastmile_qr_scan", "ios": "https://dc.lft.to/lastmile_qr_scan"}, "lat": 38.884190333333336, "bike_id": "815e81666c09f0e5c41a3d2dbd718210", "is_disabled": 0, "lon": -76.99703116666667, "is_reserved": 0, "fusion_lat": 0.0, "type": "electric_scooter"}, {"fusion_lon": 0.0, "name": "21d858bc02d3f79946b8a843fad80dfe", "rental_uris": {"android": "https://dc.lft.to/lastmile_qr_scan", "ios": "https://dc.lft.to/lastmile_qr_scan"}, "lat": 38.901841833333336, "bike_id": "21d858bc02d3f79946b8a843fad80dfe", "is_disabled": 0, "lon": -77.0240575, "is_reserved": 0, "fusion_lat": 0.0, "type": "electric_scooter"}, {"fusion_lon": 0.0, "name": "f0a0cfde6a776b29160d0f3b04a0a2d6", "rental_uris": {"android": "https://dc.lft.to/lastmile_qr_scan", "ios": "https://dc.lft.to/lastmile_qr_scan"}, "lat": 38.927159833333334, "bike_id": "f0a0cfde6a776b29160d0f3b04a0a2d6", "is_disabled": 0, "lon": -77.035606, "is_reserved": 0, "fusion_lat": 0.0, "type": "electric_scooter"}, {"fusion_lon": 0.0, "name": "b7e417f864ca81c28f6f9f8801d27535", "rental_uris": {"android": "https://dc.lft.to/lastmile_qr_scan", "ios": "https://dc.lft.to/lastmile_qr_scan"}, "lat": 38.89548, "bike_id": "b7e417f864ca81c28f6f9f8801d27535", "is_disabled": 0, "lon": -77.00913166666666, "is_reserved": 0, "fusion_lat": 0.0, "type": "electric_scooter"}, {"fusion_lon": 0.0, "name": "3931f95a72ed2270e1a6b337ce011e5e", "rental_uris": {"android": "https://dc.lft.to/lastmile_qr_scan", "ios": "https://dc.lft.to/lastmile_qr_scan"}, "lat": 38.92056383333333, "bike_id": "3931f95a72ed2270e1a6b337ce011e5e", "is_disabled": 0, "lon": -77.02298283333333, "is_reserved": 0, "fusion_lat": 0.0, "type": "electric_scooter"}, {"fusion_lon": 0.0, "name": "16ee07a99a37de1df4c551b77e3c2848", "rental_uris": {"android": "https://dc.lft.to/lastmile_qr_scan", "ios": "https://dc.lft.to/lastmile_qr_scan"}, "lat": 38.951876, "bike_id": "16ee07a99a37de1df4c551b77e3c2848", "is_disabled": 0, "lon": -76.991768, "is_reserved": 0, "fusion_lat": 0.0, "type": "electric_scooter"}, {"fusion_lon": 0.0, "name": "8fcbfbe560be3aea8670a2fa5f9b9a31", "rental_uris": {"android": "https://dc.lft.to/lastmile_qr_scan", "ios": "https://dc.lft.to/lastmile_qr_scan"}, "lat": 38.93519883333333, "bike_id": "8fcbfbe560be3aea8670a2fa5f9b9a31", "is_disabled": 0, "lon": -77.0870135, "is_reserved": 0, "fusion_lat": 0.0, "type": "electric_scooter"}, {"fusion_lon": 0.0, "name": "37b90e5660c0fb817e2497a5042b14e7", "rental_uris": {"android": "https://dc.lft.to/lastmile_qr_scan", "ios": "https://dc.lft.to/lastmile_qr_scan"}, "lat": 38.9430995, "bike_id": "37b90e5660c0fb817e2497a5042b14e7", "is_disabled": 0, "lon": -77.06152566666667, "is_reserved": 0, "fusion_lat": 0.0, "type": "electric_scooter"}, {"fusion_lon": 0.0, "name": "7daf67c368357b806446db82c75c023a", "rental_uris": {"android": "https://dc.lft.to/lastmile_qr_scan", "ios": "https://dc.lft.to/lastmile_qr_scan"}, "lat": 38.93763766666667, "bike_id": "7daf67c368357b806446db82c75c023a", "is_disabled": 0, "lon": -77.032435, "is_reserved": 0, "fusion_lat": 0.0, "type": "electric_scooter"}, {"fusion_lon": 0.0, "name": "08ba83b25964889d633219214b7f312d", "rental_uris": {"android": "https://dc.lft.to/lastmile_qr_scan", "ios": "https://dc.lft.to/lastmile_qr_scan"}, "lat": 38.900286, "bike_id": "08ba83b25964889d633219214b7f312d", "is_disabled": 0, "lon": -76.99844166666666, "is_reserved": 0, "fusion_lat": 0.0, "type": "electric_scooter"}, {"fusion_lon": 0.0, "name": "5c14653e16098563860764946eb65234", "rental_uris": {"android": "https://dc.lft.to/lastmile_qr_scan", "ios": "https://dc.lft.to/lastmile_qr_scan"}, "lat": 38.864264166666665, "bike_id": "5c14653e16098563860764946eb65234", "is_disabled": 0, "lon": -76.97491366666667, "is_reserved": 0, "fusion_lat": 0.0, "type": "electric_scooter"}, {"fusion_lon": 0.0, "name": "f188cbc32ba0938bfc715f1de2303a5e", "rental_uris": {"android": "https://dc.lft.to/lastmile_qr_scan", "ios": "https://dc.lft.to/lastmile_qr_scan"}, "lat": 38.90035533333333, "bike_id": "f188cbc32ba0938bfc715f1de2303a5e", "is_disabled": 0, "lon": -77.00202166666666, "is_reserved": 0, "fusion_lat": 0.0, "type": "electric_scooter"}, {"fusion_lon": 0.0, "name": "af334bda2dbb8bb94ac0c7ae79e17c73", "rental_uris": {"android": "https://dc.lft.to/lastmile_qr_scan", "ios": "https://dc.lft.to/lastmile_qr_scan"}, "lat": 38.891723999999996, "bike_id": "af334bda2dbb8bb94ac0c7ae79e17c73", "is_disabled": 0, "lon": -76.9425815, "is_reserved": 0, "fusion_lat": 0.0, "type": "electric_scooter"}, {"fusion_lon": 0.0, "name": "be4254afbe10d7763f520d8fc41588e5", "rental_uris": {"android": "https://dc.lft.to/lastmile_qr_scan", "ios": "https://dc.lft.to/lastmile_qr_scan"}, "lat": 38.894794833333336, "bike_id": "be4254afbe10d7763f520d8fc41588e5", "is_disabled": 0, "lon": -76.99579833333334, "is_reserved": 0, "fusion_lat": 0.0, "type": "electric_scooter"}, {"fusion_lon": 0.0, "name": "2470b3df59cf5a8a4d6dd9806f46e5ab", "rental_uris": {"android": "https://dc.lft.to/lastmile_qr_scan", "ios": "https://dc.lft.to/lastmile_qr_scan"}, "lat": 38.93520766666666, "bike_id": "2470b3df59cf5a8a4d6dd9806f46e5ab", "is_disabled": 0, "lon": -77.0325755, "is_reserved": 0, "fusion_lat": 0.0, "type": "electric_scooter"}, {"fusion_lon": 0.0, "name": "32e52aae64f510a2f6bdd8e8f5775d4a", "rental_uris": {"android": "https://dc.lft.to/lastmile_qr_scan", "ios": "https://dc.lft.to/lastmile_qr_scan"}, "lat": 38.9237075, "bike_id": "32e52aae64f510a2f6bdd8e8f5775d4a", "is_disabled": 0, "lon": -77.01960466666667, "is_reserved": 0, "fusion_lat": 0.0, "type": "electric_scooter"}, {"fusion_lon": 0.0, "name": "41300277ef4fd29712a10b268c74c1e5", "rental_uris": {"android": "https://dc.lft.to/lastmile_qr_scan", "ios": "https://dc.lft.to/lastmile_qr_scan"}, "lat": 38.89736633333333, "bike_id": "41300277ef4fd29712a10b268c74c1e5", "is_disabled": 0, "lon": -77.0268975, "is_reserved": 0, "fusion_lat": 0.0, "type": "electric_scooter"}, {"fusion_lon": 0.0, "name": "f496f96119a52c1b13b979765ff6985c", "rental_uris": {"android": "https://dc.lft.to/lastmile_qr_scan", "ios": "https://dc.lft.to/lastmile_qr_scan"}, "lat": 38.920552666666666, "bike_id": "f496f96119a52c1b13b979765ff6985c", "is_disabled": 0, "lon": -77.02514266666667, "is_reserved": 0, "fusion_lat": 0.0, "type": "electric_scooter"}, {"fusion_lon": 0.0, "name": "f1ca8a19da6c28883927d4b0f66b9ccf", "rental_uris": {"android": "https://dc.lft.to/lastmile_qr_scan", "ios": "https://dc.lft.to/lastmile_qr_scan"}, "lat": 38.90589766666667, "bike_id": "f1ca8a19da6c28883927d4b0f66b9ccf", "is_disabled": 0, "lon": -77.04306866666667, "is_reserved": 0, "fusion_lat": 0.0, "type": "electric_scooter"}, {"fusion_lon": 0.0, "name": "37710d9f67f2bd66a532921bc3519d3c", "rental_uris": {"android": "https://dc.lft.to/lastmile_qr_scan", "ios": "https://dc.lft.to/lastmile_qr_scan"}, "lat": 38.893515, "bike_id": "37710d9f67f2bd66a532921bc3519d3c", "is_disabled": 0, "lon": -77.017493, "is_reserved": 0, "fusion_lat": 0.0, "type": "electric_scooter"}, {"fusion_lon": 0.0, "name": "da2411070c5aedde9c4f26609debd652", "rental_uris": {"android": "https://dc.lft.to/lastmile_qr_scan", "ios": "https://dc.lft.to/lastmile_qr_scan"}, "lat": 38.893011333333334, "bike_id": "da2411070c5aedde9c4f26609debd652", "is_disabled": 0, "lon": -76.93969966666667, "is_reserved": 0, "fusion_lat": 0.0, "type": "electric_scooter"}, {"fusion_lon": 0.0, "name": "0ad15e03e92a8cb254f7f0579059a5b9", "rental_uris": {"android": "https://dc.lft.to/lastmile_qr_scan", "ios": "https://dc.lft.to/lastmile_qr_scan"}, "lat": 38.883688, "bike_id": "0ad15e03e92a8cb254f7f0579059a5b9", "is_disabled": 0, "lon": -76.995193, "is_reserved": 0, "fusion_lat": 0.0, "type": "electric_scooter"}, {"fusion_lon": 0.0, "name": "fa052e01d80797d698b5151e8ac144a2", "rental_uris": {"android": "https://dc.lft.to/lastmile_qr_scan", "ios": "https://dc.lft.to/lastmile_qr_scan"}, "lat": 38.923631666666665, "bike_id": "fa052e01d80797d698b5151e8ac144a2", "is_disabled": 0, "lon": -77.051322, "is_reserved": 0, "fusion_lat": 0.0, "type": "electric_scooter"}, {"fusion_lon": 0.0, "name": "ee363ceac52ec72c37b8c0eea4bce502", "rental_uris": {"android": "https://dc.lft.to/lastmile_qr_scan", "ios": "https://dc.lft.to/lastmile_qr_scan"}, "lat": 38.93613783333333, "bike_id": "ee363ceac52ec72c37b8c0eea4bce502", "is_disabled": 0, "lon": -77.05583366666667, "is_reserved": 0, "fusion_lat": 0.0, "type": "electric_scooter"}, {"fusion_lon": 0.0, "name": "98502290a5eae121d1357f7509448a04", "rental_uris": {"android": "https://dc.lft.to/lastmile_qr_scan", "ios": "https://dc.lft.to/lastmile_qr_scan"}, "lat": 38.915203166666664, "bike_id": "98502290a5eae121d1357f7509448a04", "is_disabled": 0, "lon": -77.02195316666666, "is_reserved": 0, "fusion_lat": 0.0, "type": "electric_scooter"}, {"fusion_lon": 0.0, "name": "4669a8878d9b4a78fb6d80e482aa8558", "rental_uris": {"android": "https://dc.lft.to/lastmile_qr_scan", "ios": "https://dc.lft.to/lastmile_qr_scan"}, "lat": 38.90567133333333, "bike_id": "4669a8878d9b4a78fb6d80e482aa8558", "is_disabled": 0, "lon": -77.041077, "is_reserved": 0, "fusion_lat": 0.0, "type": "electric_scooter"}, {"fusion_lon": 0.0, "name": "ff225d6af18694d956ed225e792af40f", "rental_uris": {"android": "https://dc.lft.to/lastmile_qr_scan", "ios": "https://dc.lft.to/lastmile_qr_scan"}, "lat": 38.90676833333333, "bike_id": "ff225d6af18694d956ed225e792af40f", "is_disabled": 0, "lon": -77.026977, "is_reserved": 0, "fusion_lat": 0.0, "type": "electric_scooter"}, {"fusion_lon": 0.0, "name": "92f564bf672ab2ebb0ca6d82bfb83c46", "rental_uris": {"android": "https://dc.lft.to/lastmile_qr_scan", "ios": "https://dc.lft.to/lastmile_qr_scan"}, "lat": 38.84754233333334, "bike_id": "92f564bf672ab2ebb0ca6d82bfb83c46", "is_disabled": 0, "lon": -77.05372066666666, "is_reserved": 0, "fusion_lat": 0.0, "type": "electric_bike"}, {"fusion_lon": 0.0, "name": "bfc3f196d10c5272c4f17d8332387f87", "rental_uris": {"android": "https://dc.lft.to/lastmile_qr_scan", "ios": "https://dc.lft.to/lastmile_qr_scan"}, "lat": 38.9212055, "bike_id": "bfc3f196d10c5272c4f17d8332387f87", "is_disabled": 0, "lon": -77.01927333333333, "is_reserved": 0, "fusion_lat": 0.0, "type": "electric_scooter"}, {"fusion_lon": 0.0, "name": "a2f4f4beb92860d2c3fe09d632b9a1d0", "rental_uris": {"android": "https://dc.lft.to/lastmile_qr_scan", "ios": "https://dc.lft.to/lastmile_qr_scan"}, "lat": 38.92357716666667, "bike_id": "a2f4f4beb92860d2c3fe09d632b9a1d0", "is_disabled": 0, "lon": -77.05032766666666, "is_reserved": 0, "fusion_lat": 0.0, "type": "electric_scooter"}, {"fusion_lon": 0.0, "name": "aee5fc3731213db9cb2c397f95f91814", "rental_uris": {"android": "https://dc.lft.to/lastmile_qr_scan", "ios": "https://dc.lft.to/lastmile_qr_scan"}, "lat": 38.9259855, "bike_id": "aee5fc3731213db9cb2c397f95f91814", "is_disabled": 0, "lon": -77.0215435, "is_reserved": 0, "fusion_lat": 0.0, "type": "electric_scooter"}, {"fusion_lon": 0.0, "name": "7595c29c858a0d820ffa1596ac0965f9", "rental_uris": {"android": "https://dc.lft.to/lastmile_qr_scan", "ios": "https://dc.lft.to/lastmile_qr_scan"}, "lat": 38.910614, "bike_id": "7595c29c858a0d820ffa1596ac0965f9", "is_disabled": 0, "lon": -77.04676933333333, "is_reserved": 0, "fusion_lat": 0.0, "type": "electric_scooter"}, {"fusion_lon": 0.0, "name": "d5f0779020daca15e3f3683f2fc6a799", "rental_uris": {"android": "https://dc.lft.to/lastmile_qr_scan", "ios": "https://dc.lft.to/lastmile_qr_scan"}, "lat": 38.87531283333333, "bike_id": "d5f0779020daca15e3f3683f2fc6a799", "is_disabled": 0, "lon": -77.01750283333334, "is_reserved": 0, "fusion_lat": 0.0, "type": "electric_scooter"}, {"fusion_lon": 0.0, "name": "2041ddbd4c843f80e7b147465ccffc63", "rental_uris": {"android": "https://dc.lft.to/lastmile_qr_scan", "ios": "https://dc.lft.to/lastmile_qr_scan"}, "lat": 38.905812, "bike_id": "2041ddbd4c843f80e7b147465ccffc63", "is_disabled": 0, "lon": -77.04242183333334, "is_reserved": 0, "fusion_lat": 0.0, "type": "electric_scooter"}, {"fusion_lon": 0.0, "name": "cbd42c075af511063d2aff45a370e6f8", "rental_uris": {"android": "https://dc.lft.to/lastmile_qr_scan", "ios": "https://dc.lft.to/lastmile_qr_scan"}, "lat": 38.941607833333336, "bike_id": "cbd42c075af511063d2aff45a370e6f8", "is_disabled": 0, "lon": -77.02562416666666, "is_reserved": 0, "fusion_lat": 0.0, "type": "electric_scooter"}, {"fusion_lon": 0.0, "name": "66fb91cd0ed5ac9c0c227c32f15036fc", "rental_uris": {"android": "https://dc.lft.to/lastmile_qr_scan", "ios": "https://dc.lft.to/lastmile_qr_scan"}, "lat": 38.89850666666667, "bike_id": "66fb91cd0ed5ac9c0c227c32f15036fc", "is_disabled": 0, "lon": -77.0437085, "is_reserved": 0, "fusion_lat": 0.0, "type": "electric_scooter"}, {"fusion_lon": 0.0, "name": "031a36e9ee8681edc47d7852198674db", "rental_uris": {"android": "https://dc.lft.to/lastmile_qr_scan", "ios": "https://dc.lft.to/lastmile_qr_scan"}, "lat": 38.920617166666666, "bike_id": "031a36e9ee8681edc47d7852198674db", "is_disabled": 0, "lon": -77.03468716666667, "is_reserved": 0, "fusion_lat": 0.0, "type": "electric_scooter"}, {"fusion_lon": 0.0, "name": "fdc5623d4b2880d8d0afba2938badfb3", "rental_uris": {"android": "https://dc.lft.to/lastmile_qr_scan", "ios": "https://dc.lft.to/lastmile_qr_scan"}, "lat": 38.9071475, "bike_id": "fdc5623d4b2880d8d0afba2938badfb3", "is_disabled": 0, "lon": -77.02567266666667, "is_reserved": 0, "fusion_lat": 0.0, "type": "electric_scooter"}, {"fusion_lon": 0.0, "name": "abb91ea644f37d4c3376007d2a199bd8", "rental_uris": {"android": "https://dc.lft.to/lastmile_qr_scan", "ios": "https://dc.lft.to/lastmile_qr_scan"}, "lat": 38.946060333333335, "bike_id": "abb91ea644f37d4c3376007d2a199bd8", "is_disabled": 0, "lon": -77.08031633333333, "is_reserved": 0, "fusion_lat": 0.0, "type": "electric_scooter"}, {"fusion_lon": 0.0, "name": "4f617f437e1904623c6011bcc463268e", "rental_uris": {"android": "https://dc.lft.to/lastmile_qr_scan", "ios": "https://dc.lft.to/lastmile_qr_scan"}, "lat": 38.90323166666667, "bike_id": "4f617f437e1904623c6011bcc463268e", "is_disabled": 0, "lon": -77.0382915, "is_reserved": 0, "fusion_lat": 0.0, "type": "electric_scooter"}, {"fusion_lon": 0.0, "name": "e69f7ad1f37704b9750bd7054eedb0b8", "rental_uris": {"android": "https://dc.lft.to/lastmile_qr_scan", "ios": "https://dc.lft.to/lastmile_qr_scan"}, "lat": 38.92576183333333, "bike_id": "e69f7ad1f37704b9750bd7054eedb0b8", "is_disabled": 0, "lon": -77.03740416666666, "is_reserved": 0, "fusion_lat": 0.0, "type": "electric_scooter"}, {"fusion_lon": 0.0, "name": "0780e5c1df90a2eb56d59070621bca8b", "rental_uris": {"android": "https://dc.lft.to/lastmile_qr_scan", "ios": "https://dc.lft.to/lastmile_qr_scan"}, "lat": 38.942462166666665, "bike_id": "0780e5c1df90a2eb56d59070621bca8b", "is_disabled": 0, "lon": -77.0217675, "is_reserved": 0, "fusion_lat": 0.0, "type": "electric_scooter"}, {"fusion_lon": 0.0, "name": "cebe70c552542aaa741ee5e706f12b63", "rental_uris": {"android": "https://dc.lft.to/lastmile_qr_scan", "ios": "https://dc.lft.to/lastmile_qr_scan"}, "lat": 38.905339, "bike_id": "cebe70c552542aaa741ee5e706f12b63", "is_disabled": 0, "lon": -77.05920266666666, "is_reserved": 0, "fusion_lat": 0.0, "type": "electric_scooter"}, {"fusion_lon": 0.0, "name": "444802d5a9828919fcb75d7ea73be7b4", "rental_uris": {"android": "https://dc.lft.to/lastmile_qr_scan", "ios": "https://dc.lft.to/lastmile_qr_scan"}, "lat": 38.9291895, "bike_id": "444802d5a9828919fcb75d7ea73be7b4", "is_disabled": 0, "lon": -77.03247, "is_reserved": 0, "fusion_lat": 0.0, "type": "electric_scooter"}, {"fusion_lon": 0.0, "name": "9c9b237c789bd99822e22786c96be834", "rental_uris": {"android": "https://dc.lft.to/lastmile_qr_scan", "ios": "https://dc.lft.to/lastmile_qr_scan"}, "lat": 38.88497483333333, "bike_id": "9c9b237c789bd99822e22786c96be834", "is_disabled": 0, "lon": -77.02190716666667, "is_reserved": 0, "fusion_lat": 0.0, "type": "electric_scooter"}, {"fusion_lon": 0.0, "name": "f67572ed33f58e7173eb2707ff84f2d1", "rental_uris": {"android": "https://dc.lft.to/lastmile_qr_scan", "ios": "https://dc.lft.to/lastmile_qr_scan"}, "lat": 38.899087333333334, "bike_id": "f67572ed33f58e7173eb2707ff84f2d1", "is_disabled": 0, "lon": -77.04029716666666, "is_reserved": 0, "fusion_lat": 0.0, "type": "electric_scooter"}, {"fusion_lon": 0.0, "name": "2ac1ca5f70dddd6c527719e0fee0d1fc", "rental_uris": {"android": "https://dc.lft.to/lastmile_qr_scan", "ios": "https://dc.lft.to/lastmile_qr_scan"}, "lat": 38.82427966666667, "bike_id": "2ac1ca5f70dddd6c527719e0fee0d1fc", "is_disabled": 0, "lon": -77.1204325, "is_reserved": 0, "fusion_lat": 0.0, "type": "electric_bike"}, {"fusion_lon": 0.0, "name": "f92ec7dc9ab89346408b437039736e42", "rental_uris": {"android": "https://dc.lft.to/lastmile_qr_scan", "ios": "https://dc.lft.to/lastmile_qr_scan"}, "lat": 38.91684216666667, "bike_id": "f92ec7dc9ab89346408b437039736e42", "is_disabled": 0, "lon": -77.02894533333334, "is_reserved": 0, "fusion_lat": 0.0, "type": "electric_scooter"}, {"fusion_lon": 0.0, "name": "f3d720a1a6819ffc83feaf538c2070e3", "rental_uris": {"android": "https://dc.lft.to/lastmile_qr_scan", "ios": "https://dc.lft.to/lastmile_qr_scan"}, "lat": 38.9259865, "bike_id": "f3d720a1a6819ffc83feaf538c2070e3", "is_disabled": 0, "lon": -77.02150933333333, "is_reserved": 0, "fusion_lat": 0.0, "type": "electric_scooter"}, {"fusion_lon": 0.0, "name": "bf4ae986dc9fb744a03f09e86559ccaf", "rental_uris": {"android": "https://dc.lft.to/lastmile_qr_scan", "ios": "https://dc.lft.to/lastmile_qr_scan"}, "lat": 38.939691333333336, "bike_id": "bf4ae986dc9fb744a03f09e86559ccaf", "is_disabled": 0, "lon": -76.98619516666666, "is_reserved": 0, "fusion_lat": 0.0, "type": "electric_bike"}, {"fusion_lon": 0.0, "name": "63cf1a2f665fd9691ea07200d451796c", "rental_uris": {"android": "https://dc.lft.to/lastmile_qr_scan", "ios": "https://dc.lft.to/lastmile_qr_scan"}, "lat": 38.924442, "bike_id": "63cf1a2f665fd9691ea07200d451796c", "is_disabled": 0, "lon": -77.02979466666666, "is_reserved": 0, "fusion_lat": 0.0, "type": "electric_scooter"}, {"fusion_lon": 0.0, "name": "4f50177893356951ec6b2cfbd5670078", "rental_uris": {"android": "https://dc.lft.to/lastmile_qr_scan", "ios": "https://dc.lft.to/lastmile_qr_scan"}, "lat": 38.89734333333333, "bike_id": "4f50177893356951ec6b2cfbd5670078", "is_disabled": 0, "lon": -77.02697033333334, "is_reserved": 0, "fusion_lat": 0.0, "type": "electric_scooter"}, {"fusion_lon": 0.0, "name": "276c99676ff0a9f0138cf6119a599d7e", "rental_uris": {"android": "https://dc.lft.to/lastmile_qr_scan", "ios": "https://dc.lft.to/lastmile_qr_scan"}, "lat": 38.90370716666666, "bike_id": "276c99676ff0a9f0138cf6119a599d7e", "is_disabled": 0, "lon": -77.03862733333334, "is_reserved": 0, "fusion_lat": 0.0, "type": "electric_scooter"}, {"fusion_lon": 0.0, "name": "d320168b4f5beee814343c6a58743953", "rental_uris": {"android": "https://dc.lft.to/lastmile_qr_scan", "ios": "https://dc.lft.to/lastmile_qr_scan"}, "lat": 38.857733, "bike_id": "d320168b4f5beee814343c6a58743953", "is_disabled": 0, "lon": -76.9874695, "is_reserved": 0, "fusion_lat": 0.0, "type": "electric_bike"}, {"fusion_lon": 0.0, "name": "67350b444286fbe1507f22e31cd791a7", "rental_uris": {"android": "https://dc.lft.to/lastmile_qr_scan", "ios": "https://dc.lft.to/lastmile_qr_scan"}, "lat": 38.90956416666667, "bike_id": "67350b444286fbe1507f22e31cd791a7", "is_disabled": 0, "lon": -77.01402483333334, "is_reserved": 0, "fusion_lat": 0.0, "type": "electric_scooter"}, {"fusion_lon": 0.0, "name": "41734166c5084851934d9e2fe9b7b4ce", "rental_uris": {"android": "https://dc.lft.to/lastmile_qr_scan", "ios": "https://dc.lft.to/lastmile_qr_scan"}, "lat": 38.9246365, "bike_id": "41734166c5084851934d9e2fe9b7b4ce", "is_disabled": 0, "lon": -77.02112166666667, "is_reserved": 0, "fusion_lat": 0.0, "type": "electric_scooter"}, {"fusion_lon": 0.0, "name": "093699cca1469ab8e149fc5424ea92c2", "rental_uris": {"android": "https://dc.lft.to/lastmile_qr_scan", "ios": "https://dc.lft.to/lastmile_qr_scan"}, "lat": 38.90540383333333, "bike_id": "093699cca1469ab8e149fc5424ea92c2", "is_disabled": 0, "lon": -77.00568916666667, "is_reserved": 0, "fusion_lat": 0.0, "type": "electric_scooter"}, {"fusion_lon": 0.0, "name": "447da356e14c474c227965de7f1b3f78", "rental_uris": {"android": "https://dc.lft.to/lastmile_qr_scan", "ios": "https://dc.lft.to/lastmile_qr_scan"}, "lat": 38.92068966666667, "bike_id": "447da356e14c474c227965de7f1b3f78", "is_disabled": 0, "lon": -77.0242395, "is_reserved": 0, "fusion_lat": 0.0, "type": "electric_scooter"}, {"fusion_lon": 0.0, "name": "ecedffdf569a7a9c570a2f9664ee6095", "rental_uris": {"android": "https://dc.lft.to/lastmile_qr_scan", "ios": "https://dc.lft.to/lastmile_qr_scan"}, "lat": 38.8917025, "bike_id": "ecedffdf569a7a9c570a2f9664ee6095", "is_disabled": 0, "lon": -77.01548066666666, "is_reserved": 0, "fusion_lat": 0.0, "type": "electric_scooter"}, {"fusion_lon": 0.0, "name": "394575a808e5e62e0787740baabf6bbb", "rental_uris": {"android": "https://dc.lft.to/lastmile_qr_scan", "ios": "https://dc.lft.to/lastmile_qr_scan"}, "lat": 38.90899816666666, "bike_id": "394575a808e5e62e0787740baabf6bbb", "is_disabled": 0, "lon": -77.07264183333334, "is_reserved": 0, "fusion_lat": 0.0, "type": "electric_scooter"}, {"fusion_lon": 0.0, "name": "794f3a218341d3c68665c7f0a6b52acc", "rental_uris": {"android": "https://dc.lft.to/lastmile_qr_scan", "ios": "https://dc.lft.to/lastmile_qr_scan"}, "lat": 38.89401266666667, "bike_id": "794f3a218341d3c68665c7f0a6b52acc", "is_disabled": 0, "lon": -77.0232445, "is_reserved": 0, "fusion_lat": 0.0, "type": "electric_scooter"}, {"fusion_lon": 0.0, "name": "ac14e0366176c6c387c28241517ab840", "rental_uris": {"android": "https://dc.lft.to/lastmile_qr_scan", "ios": "https://dc.lft.to/lastmile_qr_scan"}, "lat": 38.8968735, "bike_id": "ac14e0366176c6c387c28241517ab840", "is_disabled": 0, "lon": -77.04336316666667, "is_reserved": 0, "fusion_lat": 0.0, "type": "electric_scooter"}, {"fusion_lon": 0.0, "name": "87cb81a9f78715fa8fc000cfeb177d82", "rental_uris": {"android": "https://dc.lft.to/lastmile_qr_scan", "ios": "https://dc.lft.to/lastmile_qr_scan"}, "lat": 38.90376416666667, "bike_id": "87cb81a9f78715fa8fc000cfeb177d82", "is_disabled": 0, "lon": -77.03212966666666, "is_reserved": 0, "fusion_lat": 0.0, "type": "electric_scooter"}, {"fusion_lon": 0.0, "name": "ee5eeb04aeb71c074656c9b6319ab9b3", "rental_uris": {"android": "https://dc.lft.to/lastmile_qr_scan", "ios": "https://dc.lft.to/lastmile_qr_scan"}, "lat": 38.905655333333335, "bike_id": "ee5eeb04aeb71c074656c9b6319ab9b3", "is_disabled": 0, "lon": -77.034246, "is_reserved": 0, "fusion_lat": 0.0, "type": "electric_scooter"}, {"fusion_lon": 0.0, "name": "05145c0e8c6813dbf4a90f53f991ef8d", "rental_uris": {"android": "https://dc.lft.to/lastmile_qr_scan", "ios": "https://dc.lft.to/lastmile_qr_scan"}, "lat": 38.8972505, "bike_id": "05145c0e8c6813dbf4a90f53f991ef8d", "is_disabled": 0, "lon": -77.03212983333333, "is_reserved": 0, "fusion_lat": 0.0, "type": "electric_scooter"}, {"fusion_lon": 0.0, "name": "0276b91a87e7c478d451565104935902", "rental_uris": {"android": "https://dc.lft.to/lastmile_qr_scan", "ios": "https://dc.lft.to/lastmile_qr_scan"}, "lat": 38.88366933333333, "bike_id": "0276b91a87e7c478d451565104935902", "is_disabled": 0, "lon": -76.99519433333333, "is_reserved": 0, "fusion_lat": 0.0, "type": "electric_scooter"}, {"fusion_lon": 0.0, "name": "c814969ece8d9375986bd2d67ed8cbe8", "rental_uris": {"android": "https://dc.lft.to/lastmile_qr_scan", "ios": "https://dc.lft.to/lastmile_qr_scan"}, "lat": 38.89352216666666, "bike_id": "c814969ece8d9375986bd2d67ed8cbe8", "is_disabled": 0, "lon": -77.00338316666667, "is_reserved": 0, "fusion_lat": 0.0, "type": "electric_scooter"}, {"fusion_lon": 0.0, "name": "6495cb19c36facb26acdd4d33d6cbbb3", "rental_uris": {"android": "https://dc.lft.to/lastmile_qr_scan", "ios": "https://dc.lft.to/lastmile_qr_scan"}, "lat": 38.9117155, "bike_id": "6495cb19c36facb26acdd4d33d6cbbb3", "is_disabled": 0, "lon": -77.003232, "is_reserved": 0, "fusion_lat": 0.0, "type": "electric_bike"}, {"fusion_lon": 0.0, "name": "5aa0df5d7a6f8c809e5bece5cd6c465a", "rental_uris": {"android": "https://dc.lft.to/lastmile_qr_scan", "ios": "https://dc.lft.to/lastmile_qr_scan"}, "lat": 38.92216, "bike_id": "5aa0df5d7a6f8c809e5bece5cd6c465a", "is_disabled": 0, "lon": -77.04246466666666, "is_reserved": 0, "fusion_lat": 0.0, "type": "electric_scooter"}, {"fusion_lon": 0.0, "name": "807de64d96b1e87c393c75b5b13a339b", "rental_uris": {"android": "https://dc.lft.to/lastmile_qr_scan", "ios": "https://dc.lft.to/lastmile_qr_scan"}, "lat": 38.891605, "bike_id": "807de64d96b1e87c393c75b5b13a339b", "is_disabled": 0, "lon": -77.02180116666666, "is_reserved": 0, "fusion_lat": 0.0, "type": "electric_scooter"}, {"fusion_lon": 0.0, "name": "c6a0dadb12be786d420f889a097fe0c1", "rental_uris": {"android": "https://dc.lft.to/lastmile_qr_scan", "ios": "https://dc.lft.to/lastmile_qr_scan"}, "lat": 38.9025865, "bike_id": "c6a0dadb12be786d420f889a097fe0c1", "is_disabled": 0, "lon": -77.02999316666667, "is_reserved": 0, "fusion_lat": 0.0, "type": "electric_scooter"}, {"fusion_lon": 0.0, "name": "f5a348feeab678f1edbeb49471b1adf3", "rental_uris": {"android": "https://dc.lft.to/lastmile_qr_scan", "ios": "https://dc.lft.to/lastmile_qr_scan"}, "lat": 38.907389, "bike_id": "f5a348feeab678f1edbeb49471b1adf3", "is_disabled": 0, "lon": -77.04178566666667, "is_reserved": 0, "fusion_lat": 0.0, "type": "electric_scooter"}, {"fusion_lon": 0.0, "name": "e3730089398828e61c89213444aa9128", "rental_uris": {"android": "https://dc.lft.to/lastmile_qr_scan", "ios": "https://dc.lft.to/lastmile_qr_scan"}, "lat": 38.90185816666666, "bike_id": "e3730089398828e61c89213444aa9128", "is_disabled": 0, "lon": -76.93009766666667, "is_reserved": 0, "fusion_lat": 0.0, "type": "electric_scooter"}, {"fusion_lon": 0.0, "name": "8ddff73cb515c34f885cb2ea5d73942b", "rental_uris": {"android": "https://dc.lft.to/lastmile_qr_scan", "ios": "https://dc.lft.to/lastmile_qr_scan"}, "lat": 38.9066835, "bike_id": "8ddff73cb515c34f885cb2ea5d73942b", "is_disabled": 0, "lon": -77.0380065, "is_reserved": 0, "fusion_lat": 0.0, "type": "electric_scooter"}, {"fusion_lon": 0.0, "name": "3f087b352ce5bd96bcc4dc0080910932", "rental_uris": {"android": "https://dc.lft.to/lastmile_qr_scan", "ios": "https://dc.lft.to/lastmile_qr_scan"}, "lat": 38.89479433333333, "bike_id": "3f087b352ce5bd96bcc4dc0080910932", "is_disabled": 0, "lon": -76.995774, "is_reserved": 0, "fusion_lat": 0.0, "type": "electric_scooter"}, {"fusion_lon": 0.0, "name": "de917b68c14089f9e85d25f4a1fee4cd", "rental_uris": {"android": "https://dc.lft.to/lastmile_qr_scan", "ios": "https://dc.lft.to/lastmile_qr_scan"}, "lat": 38.902548, "bike_id": "de917b68c14089f9e85d25f4a1fee4cd", "is_disabled": 0, "lon": -77.02452066666666, "is_reserved": 0, "fusion_lat": 0.0, "type": "electric_scooter"}, {"fusion_lon": 0.0, "name": "eb0a78f96050de8a03d177b888f67617", "rental_uris": {"android": "https://dc.lft.to/lastmile_qr_scan", "ios": "https://dc.lft.to/lastmile_qr_scan"}, "lat": 38.8997455, "bike_id": "eb0a78f96050de8a03d177b888f67617", "is_disabled": 0, "lon": -76.98379383333334, "is_reserved": 0, "fusion_lat": 0.0, "type": "electric_scooter"}, {"fusion_lon": 0.0, "name": "cf6c26f5661f611707d2706024d1d65b", "rental_uris": {"android": "https://dc.lft.to/lastmile_qr_scan", "ios": "https://dc.lft.to/lastmile_qr_scan"}, "lat": 38.918582666666666, "bike_id": "cf6c26f5661f611707d2706024d1d65b", "is_disabled": 0, "lon": -77.0280745, "is_reserved": 0, "fusion_lat": 0.0, "type": "electric_scooter"}, {"fusion_lon": 0.0, "name": "e74649595c3f80771bbce79a11718637", "rental_uris": {"android": "https://dc.lft.to/lastmile_qr_scan", "ios": "https://dc.lft.to/lastmile_qr_scan"}, "lat": 38.89956883333333, "bike_id": "e74649595c3f80771bbce79a11718637", "is_disabled": 0, "lon": -77.0145515, "is_reserved": 0, "fusion_lat": 0.0, "type": "electric_scooter"}, {"fusion_lon": 0.0, "name": "71e953ae7d55d51adafc7ac7063db39a", "rental_uris": {"android": "https://dc.lft.to/lastmile_qr_scan", "ios": "https://dc.lft.to/lastmile_qr_scan"}, "lat": 38.913251333333335, "bike_id": "71e953ae7d55d51adafc7ac7063db39a", "is_disabled": 0, "lon": -77.0449365, "is_reserved": 0, "fusion_lat": 0.0, "type": "electric_scooter"}, {"fusion_lon": 0.0, "name": "e8e42b3f5d9a40f99f46c13bbb056b27", "rental_uris": {"android": "https://dc.lft.to/lastmile_qr_scan", "ios": "https://dc.lft.to/lastmile_qr_scan"}, "lat": 38.8873285, "bike_id": "e8e42b3f5d9a40f99f46c13bbb056b27", "is_disabled": 0, "lon": -77.01527383333334, "is_reserved": 0, "fusion_lat": 0.0, "type": "electric_scooter"}, {"fusion_lon": 0.0, "name": "47088e7b6a720cdc6a6ba8321f172f24", "rental_uris": {"android": "https://dc.lft.to/lastmile_qr_scan", "ios": "https://dc.lft.to/lastmile_qr_scan"}, "lat": 38.9013355, "bike_id": "47088e7b6a720cdc6a6ba8321f172f24", "is_disabled": 0, "lon": -77.0320675, "is_reserved": 0, "fusion_lat": 0.0, "type": "electric_scooter"}, {"fusion_lon": 0.0, "name": "cf317309e6b889edaab247b2613672fa", "rental_uris": {"android": "https://dc.lft.to/lastmile_qr_scan", "ios": "https://dc.lft.to/lastmile_qr_scan"}, "lat": 38.9025795, "bike_id": "cf317309e6b889edaab247b2613672fa", "is_disabled": 0, "lon": -77.01893166666666, "is_reserved": 0, "fusion_lat": 0.0, "type": "electric_scooter"}, {"fusion_lon": 0.0, "name": "2799b04809db1424d0d53c91f4ef5008", "rental_uris": {"android": "https://dc.lft.to/lastmile_qr_scan", "ios": "https://dc.lft.to/lastmile_qr_scan"}, "lat": 38.903612, "bike_id": "2799b04809db1424d0d53c91f4ef5008", "is_disabled": 0, "lon": -77.03851916666666, "is_reserved": 0, "fusion_lat": 0.0, "type": "electric_scooter"}, {"fusion_lon": 0.0, "name": "f2980991c14a5770e5698f87e58efff3", "rental_uris": {"android": "https://dc.lft.to/lastmile_qr_scan", "ios": "https://dc.lft.to/lastmile_qr_scan"}, "lat": 38.91922866666667, "bike_id": "f2980991c14a5770e5698f87e58efff3", "is_disabled": 0, "lon": -77.00972266666666, "is_reserved": 0, "fusion_lat": 0.0, "type": "electric_scooter"}, {"fusion_lon": 0.0, "name": "158a5e03f74c71e8e2bcda57fc029605", "rental_uris": {"android": "https://dc.lft.to/lastmile_qr_scan", "ios": "https://dc.lft.to/lastmile_qr_scan"}, "lat": 38.90356333333333, "bike_id": "158a5e03f74c71e8e2bcda57fc029605", "is_disabled": 0, "lon": -77.0261605, "is_reserved": 0, "fusion_lat": 0.0, "type": "electric_scooter"}, {"fusion_lon": 0.0, "name": "9b7f4688c2a093a26ebe152f606a05bd", "rental_uris": {"android": "https://dc.lft.to/lastmile_qr_scan", "ios": "https://dc.lft.to/lastmile_qr_scan"}, "lat": 38.9061645, "bike_id": "9b7f4688c2a093a26ebe152f606a05bd", "is_disabled": 0, "lon": -76.95015216666667, "is_reserved": 0, "fusion_lat": 0.0, "type": "electric_scooter"}, {"fusion_lon": 0.0, "name": "06f2b9bd4cba2c35075696cafc741153", "rental_uris": {"android": "https://dc.lft.to/lastmile_qr_scan", "ios": "https://dc.lft.to/lastmile_qr_scan"}, "lat": 38.89394683333333, "bike_id": "06f2b9bd4cba2c35075696cafc741153", "is_disabled": 0, "lon": -77.002141, "is_reserved": 0, "fusion_lat": 0.0, "type": "electric_scooter"}, {"fusion_lon": 0.0, "name": "787cc9c06b0af814d680f237fde613d8", "rental_uris": {"android": "https://dc.lft.to/lastmile_qr_scan", "ios": "https://dc.lft.to/lastmile_qr_scan"}, "lat": 38.961199666666666, "bike_id": "787cc9c06b0af814d680f237fde613d8", "is_disabled": 0, "lon": -77.027917, "is_reserved": 0, "fusion_lat": 0.0, "type": "electric_scooter"}, {"fusion_lon": 0.0, "name": "dcf9cf03d65900d8561323e08d851782", "rental_uris": {"android": "https://dc.lft.to/lastmile_qr_scan", "ios": "https://dc.lft.to/lastmile_qr_scan"}, "lat": 38.885065833333336, "bike_id": "dcf9cf03d65900d8561323e08d851782", "is_disabled": 0, "lon": -77.01117166666667, "is_reserved": 0, "fusion_lat": 0.0, "type": "electric_scooter"}, {"fusion_lon": 0.0, "name": "ea51405e76bd862cb0f2a3e8dc2e0077", "rental_uris": {"android": "https://dc.lft.to/lastmile_qr_scan", "ios": "https://dc.lft.to/lastmile_qr_scan"}, "lat": 38.886289166666664, "bike_id": "ea51405e76bd862cb0f2a3e8dc2e0077", "is_disabled": 0, "lon": -77.01515866666666, "is_reserved": 0, "fusion_lat": 0.0, "type": "electric_scooter"}, {"fusion_lon": 0.0, "name": "8d0c832ba5b1441faac96a940643c44f", "rental_uris": {"android": "https://dc.lft.to/lastmile_qr_scan", "ios": "https://dc.lft.to/lastmile_qr_scan"}, "lat": 38.904497166666665, "bike_id": "8d0c832ba5b1441faac96a940643c44f", "is_disabled": 0, "lon": -77.0514875, "is_reserved": 0, "fusion_lat": 0.0, "type": "electric_scooter"}, {"fusion_lon": 0.0, "name": "a6948a7a8b4d5785dc43354d0297c97a", "rental_uris": {"android": "https://dc.lft.to/lastmile_qr_scan", "ios": "https://dc.lft.to/lastmile_qr_scan"}, "lat": 38.900262166666664, "bike_id": "a6948a7a8b4d5785dc43354d0297c97a", "is_disabled": 0, "lon": -76.99856566666666, "is_reserved": 0, "fusion_lat": 0.0, "type": "electric_scooter"}, {"fusion_lon": 0.0, "name": "037dfece3e5e49ab97cf1f610181da80", "rental_uris": {"android": "https://dc.lft.to/lastmile_qr_scan", "ios": "https://dc.lft.to/lastmile_qr_scan"}, "lat": 38.926120833333336, "bike_id": "037dfece3e5e49ab97cf1f610181da80", "is_disabled": 0, "lon": -77.02162916666667, "is_reserved": 0, "fusion_lat": 0.0, "type": "electric_scooter"}, {"fusion_lon": 0.0, "name": "d1d3268e626d40fc80d6a0da811b847d", "rental_uris": {"android": "https://dc.lft.to/lastmile_qr_scan", "ios": "https://dc.lft.to/lastmile_qr_scan"}, "lat": 38.91319, "bike_id": "d1d3268e626d40fc80d6a0da811b847d", "is_disabled": 0, "lon": -77.0401855, "is_reserved": 0, "fusion_lat": 0.0, "type": "electric_scooter"}, {"fusion_lon": 0.0, "name": "20693d49085d60b3bcb0f2ecc5812c92", "rental_uris": {"android": "https://dc.lft.to/lastmile_qr_scan", "ios": "https://dc.lft.to/lastmile_qr_scan"}, "lat": 38.9216375, "bike_id": "20693d49085d60b3bcb0f2ecc5812c92", "is_disabled": 0, "lon": -77.02668, "is_reserved": 0, "fusion_lat": 0.0, "type": "electric_scooter"}, {"fusion_lon": 0.0, "name": "b449494b1e3020e2d55e902756ed10ce", "rental_uris": {"android": "https://dc.lft.to/lastmile_qr_scan", "ios": "https://dc.lft.to/lastmile_qr_scan"}, "lat": 38.92006516666667, "bike_id": "b449494b1e3020e2d55e902756ed10ce", "is_disabled": 0, "lon": -77.0377965, "is_reserved": 0, "fusion_lat": 0.0, "type": "electric_scooter"}, {"fusion_lon": 0.0, "name": "4c76fa5c657c15172b241c90cbb6d93e", "rental_uris": {"android": "https://dc.lft.to/lastmile_qr_scan", "ios": "https://dc.lft.to/lastmile_qr_scan"}, "lat": 38.885116333333336, "bike_id": "4c76fa5c657c15172b241c90cbb6d93e", "is_disabled": 0, "lon": -76.99674949999999, "is_reserved": 0, "fusion_lat": 0.0, "type": "electric_scooter"}, {"fusion_lon": 0.0, "name": "7d83d7cfe1a231cfc581d3dd8c851f1f", "rental_uris": {"android": "https://dc.lft.to/lastmile_qr_scan", "ios": "https://dc.lft.to/lastmile_qr_scan"}, "lat": 38.9260175, "bike_id": "7d83d7cfe1a231cfc581d3dd8c851f1f", "is_disabled": 0, "lon": -77.02156933333333, "is_reserved": 0, "fusion_lat": 0.0, "type": "electric_scooter"}, {"fusion_lon": 0.0, "name": "0b897d18be0b887ca63a9ba1fedd21b4", "rental_uris": {"android": "https://dc.lft.to/lastmile_qr_scan", "ios": "https://dc.lft.to/lastmile_qr_scan"}, "lat": 38.9576075, "bike_id": "0b897d18be0b887ca63a9ba1fedd21b4", "is_disabled": 0, "lon": -77.00914166666666, "is_reserved": 0, "fusion_lat": 0.0, "type": "electric_scooter"}, {"fusion_lon": 0.0, "name": "e99fd5f182ffb43582e13d8a04b0404f", "rental_uris": {"android": "https://dc.lft.to/lastmile_qr_scan", "ios": "https://dc.lft.to/lastmile_qr_scan"}, "lat": 38.892273, "bike_id": "e99fd5f182ffb43582e13d8a04b0404f", "is_disabled": 0, "lon": -77.02387, "is_reserved": 0, "fusion_lat": 0.0, "type": "electric_scooter"}, {"fusion_lon": 0.0, "name": "cec44be45fe1213b5631c8a48dc11ba1", "rental_uris": {"android": "https://dc.lft.to/lastmile_qr_scan", "ios": "https://dc.lft.to/lastmile_qr_scan"}, "lat": 38.896300833333335, "bike_id": "cec44be45fe1213b5631c8a48dc11ba1", "is_disabled": 0, "lon": -77.02380383333333, "is_reserved": 0, "fusion_lat": 0.0, "type": "electric_scooter"}, {"fusion_lon": 0.0, "name": "4a1da5044d7f58cc4e8ecae3785a0b80", "rental_uris": {"android": "https://dc.lft.to/lastmile_qr_scan", "ios": "https://dc.lft.to/lastmile_qr_scan"}, "lat": 38.92041666666667, "bike_id": "4a1da5044d7f58cc4e8ecae3785a0b80", "is_disabled": 0, "lon": -76.9912765, "is_reserved": 0, "fusion_lat": 0.0, "type": "electric_bike"}, {"fusion_lon": 0.0, "name": "bd07af3441fc87c88616cb1a6fc6007d", "rental_uris": {"android": "https://dc.lft.to/lastmile_qr_scan", "ios": "https://dc.lft.to/lastmile_qr_scan"}, "lat": 38.919453833333336, "bike_id": "bd07af3441fc87c88616cb1a6fc6007d", "is_disabled": 0, "lon": -77.02495616666667, "is_reserved": 0, "fusion_lat": 0.0, "type": "electric_scooter"}, {"fusion_lon": 0.0, "name": "e0b295790186854a69bfe31a27daf822", "rental_uris": {"android": "https://dc.lft.to/lastmile_qr_scan", "ios": "https://dc.lft.to/lastmile_qr_scan"}, "lat": 38.92342683333333, "bike_id": "e0b295790186854a69bfe31a27daf822", "is_disabled": 0, "lon": -77.0190935, "is_reserved": 0, "fusion_lat": 0.0, "type": "electric_scooter"}, {"fusion_lon": 0.0, "name": "4d222e45af222e943b97b01c2dcfc6ce", "rental_uris": {"android": "https://dc.lft.to/lastmile_qr_scan", "ios": "https://dc.lft.to/lastmile_qr_scan"}, "lat": 38.94362, "bike_id": "4d222e45af222e943b97b01c2dcfc6ce", "is_disabled": 0, "lon": -77.0610615, "is_reserved": 0, "fusion_lat": 0.0, "type": "electric_scooter"}, {"fusion_lon": 0.0, "name": "c5d28e3a1c8a866465f44e611b99dde8", "rental_uris": {"android": "https://dc.lft.to/lastmile_qr_scan", "ios": "https://dc.lft.to/lastmile_qr_scan"}, "lat": 38.92264466666666, "bike_id": "c5d28e3a1c8a866465f44e611b99dde8", "is_disabled": 0, "lon": -77.0339725, "is_reserved": 0, "fusion_lat": 0.0, "type": "electric_scooter"}, {"fusion_lon": 0.0, "name": "1cfea2ac8d116ed4dc74a252b7181af4", "rental_uris": {"android": "https://dc.lft.to/lastmile_qr_scan", "ios": "https://dc.lft.to/lastmile_qr_scan"}, "lat": 38.87655733333333, "bike_id": "1cfea2ac8d116ed4dc74a252b7181af4", "is_disabled": 0, "lon": -76.9932655, "is_reserved": 0, "fusion_lat": 0.0, "type": "electric_scooter"}, {"fusion_lon": 0.0, "name": "d67e0f9eeca7000d437feb7455ba33c4", "rental_uris": {"android": "https://dc.lft.to/lastmile_qr_scan", "ios": "https://dc.lft.to/lastmile_qr_scan"}, "lat": 38.954210333333336, "bike_id": "d67e0f9eeca7000d437feb7455ba33c4", "is_disabled": 0, "lon": -77.0073055, "is_reserved": 0, "fusion_lat": 0.0, "type": "electric_scooter"}, {"fusion_lon": 0.0, "name": "5cd8390e6dcd3b7cfec1be56c061fc8e", "rental_uris": {"android": "https://dc.lft.to/lastmile_qr_scan", "ios": "https://dc.lft.to/lastmile_qr_scan"}, "lat": 38.895412, "bike_id": "5cd8390e6dcd3b7cfec1be56c061fc8e", "is_disabled": 0, "lon": -77.0110635, "is_reserved": 0, "fusion_lat": 0.0, "type": "electric_scooter"}, {"fusion_lon": 0.0, "name": "30ed65881ae110bf94fb0c3686a88e11", "rental_uris": {"android": "https://dc.lft.to/lastmile_qr_scan", "ios": "https://dc.lft.to/lastmile_qr_scan"}, "lat": 38.91457916666667, "bike_id": "30ed65881ae110bf94fb0c3686a88e11", "is_disabled": 0, "lon": -77.041799, "is_reserved": 0, "fusion_lat": 0.0, "type": "electric_scooter"}, {"fusion_lon": 0.0, "name": "19bc61457966923c006715ff5768906f", "rental_uris": {"android": "https://dc.lft.to/lastmile_qr_scan", "ios": "https://dc.lft.to/lastmile_qr_scan"}, "lat": 38.921427333333334, "bike_id": "19bc61457966923c006715ff5768906f", "is_disabled": 0, "lon": -77.03326766666666, "is_reserved": 0, "fusion_lat": 0.0, "type": "electric_scooter"}, {"fusion_lon": 0.0, "name": "e7b0f9e0590eeb8c6ce2560ccd1bc087", "rental_uris": {"android": "https://dc.lft.to/lastmile_qr_scan", "ios": "https://dc.lft.to/lastmile_qr_scan"}, "lat": 38.89352016666667, "bike_id": "e7b0f9e0590eeb8c6ce2560ccd1bc087", "is_disabled": 0, "lon": -77.00332716666666, "is_reserved": 0, "fusion_lat": 0.0, "type": "electric_scooter"}, {"fusion_lon": 0.0, "name": "b16d9be9770ef20f3a15a6976c8fb95e", "rental_uris": {"android": "https://dc.lft.to/lastmile_qr_scan", "ios": "https://dc.lft.to/lastmile_qr_scan"}, "lat": 38.90068933333333, "bike_id": "b16d9be9770ef20f3a15a6976c8fb95e", "is_disabled": 0, "lon": -77.04481033333333, "is_reserved": 0, "fusion_lat": 0.0, "type": "electric_scooter"}, {"fusion_lon": 0.0, "name": "80961acdb1b10da30455c41db1a0fc49", "rental_uris": {"android": "https://dc.lft.to/lastmile_qr_scan", "ios": "https://dc.lft.to/lastmile_qr_scan"}, "lat": 38.89615933333333, "bike_id": "80961acdb1b10da30455c41db1a0fc49", "is_disabled": 0, "lon": -76.9075935, "is_reserved": 0, "fusion_lat": 0.0, "type": "electric_bike"}, {"fusion_lon": 0.0, "name": "3879be61817fb44b25d1037de2125c7e", "rental_uris": {"android": "https://dc.lft.to/lastmile_qr_scan", "ios": "https://dc.lft.to/lastmile_qr_scan"}, "lat": 38.90317966666667, "bike_id": "3879be61817fb44b25d1037de2125c7e", "is_disabled": 0, "lon": -76.98154616666666, "is_reserved": 0, "fusion_lat": 0.0, "type": "electric_scooter"}, {"fusion_lon": 0.0, "name": "141c7081341055e535c76156c32fa6c6", "rental_uris": {"android": "https://dc.lft.to/lastmile_qr_scan", "ios": "https://dc.lft.to/lastmile_qr_scan"}, "lat": 38.90792783333333, "bike_id": "141c7081341055e535c76156c32fa6c6", "is_disabled": 0, "lon": -77.03192033333333, "is_reserved": 0, "fusion_lat": 0.0, "type": "electric_scooter"}, {"fusion_lon": 0.0, "name": "a509c3a72f6764396413e9f91f259661", "rental_uris": {"android": "https://dc.lft.to/lastmile_qr_scan", "ios": "https://dc.lft.to/lastmile_qr_scan"}, "lat": 38.8935245, "bike_id": "a509c3a72f6764396413e9f91f259661", "is_disabled": 0, "lon": -77.00339216666667, "is_reserved": 0, "fusion_lat": 0.0, "type": "electric_scooter"}, {"fusion_lon": 0.0, "name": "3ef075aecc0459b70c2212d62cf2cf5e", "rental_uris": {"android": "https://dc.lft.to/lastmile_qr_scan", "ios": "https://dc.lft.to/lastmile_qr_scan"}, "lat": 38.898870333333335, "bike_id": "3ef075aecc0459b70c2212d62cf2cf5e", "is_disabled": 0, "lon": -77.03322016666667, "is_reserved": 0, "fusion_lat": 0.0, "type": "electric_scooter"}, {"fusion_lon": 0.0, "name": "d81e2084c73a16104e337f8e2dff48d8", "rental_uris": {"android": "https://dc.lft.to/lastmile_qr_scan", "ios": "https://dc.lft.to/lastmile_qr_scan"}, "lat": 38.920247833333335, "bike_id": "d81e2084c73a16104e337f8e2dff48d8", "is_disabled": 0, "lon": -77.0281005, "is_reserved": 0, "fusion_lat": 0.0, "type": "electric_scooter"}, {"fusion_lon": 0.0, "name": "583881c327579a192565826da976be92", "rental_uris": {"android": "https://dc.lft.to/lastmile_qr_scan", "ios": "https://dc.lft.to/lastmile_qr_scan"}, "lat": 38.910090333333336, "bike_id": "583881c327579a192565826da976be92", "is_disabled": 0, "lon": -76.99400716666666, "is_reserved": 0, "fusion_lat": 0.0, "type": "electric_scooter"}, {"fusion_lon": 0.0, "name": "61b78c35cb744e218334e8f4382ca94a", "rental_uris": {"android": "https://dc.lft.to/lastmile_qr_scan", "ios": "https://dc.lft.to/lastmile_qr_scan"}, "lat": 38.9169145, "bike_id": "61b78c35cb744e218334e8f4382ca94a", "is_disabled": 0, "lon": -77.04344133333333, "is_reserved": 0, "fusion_lat": 0.0, "type": "electric_scooter"}, {"fusion_lon": 0.0, "name": "d7a3317d473773935fe40a14d5423b3c", "rental_uris": {"android": "https://dc.lft.to/lastmile_qr_scan", "ios": "https://dc.lft.to/lastmile_qr_scan"}, "lat": 38.883947166666665, "bike_id": "d7a3317d473773935fe40a14d5423b3c", "is_disabled": 0, "lon": -76.988387, "is_reserved": 0, "fusion_lat": 0.0, "type": "electric_scooter"}, {"fusion_lon": 0.0, "name": "ee3c2a214270a46c5879f26bfd54ed1a", "rental_uris": {"android": "https://dc.lft.to/lastmile_qr_scan", "ios": "https://dc.lft.to/lastmile_qr_scan"}, "lat": 38.88837816666667, "bike_id": "ee3c2a214270a46c5879f26bfd54ed1a", "is_disabled": 0, "lon": -76.9868685, "is_reserved": 0, "fusion_lat": 0.0, "type": "electric_scooter"}, {"fusion_lon": 0.0, "name": "358d121ded3966d6d73bdb45c4bfb205", "rental_uris": {"android": "https://dc.lft.to/lastmile_qr_scan", "ios": "https://dc.lft.to/lastmile_qr_scan"}, "lat": 38.915884166666665, "bike_id": "358d121ded3966d6d73bdb45c4bfb205", "is_disabled": 0, "lon": -77.04489066666666, "is_reserved": 0, "fusion_lat": 0.0, "type": "electric_scooter"}, {"fusion_lon": 0.0, "name": "758d2dc49361fe0caafd83e4cfc8527b", "rental_uris": {"android": "https://dc.lft.to/lastmile_qr_scan", "ios": "https://dc.lft.to/lastmile_qr_scan"}, "lat": 38.90519333333334, "bike_id": "758d2dc49361fe0caafd83e4cfc8527b", "is_disabled": 0, "lon": -77.04494733333334, "is_reserved": 0, "fusion_lat": 0.0, "type": "electric_scooter"}, {"fusion_lon": 0.0, "name": "9b8f2a3b73c90b5e00db43f57c96b111", "rental_uris": {"android": "https://dc.lft.to/lastmile_qr_scan", "ios": "https://dc.lft.to/lastmile_qr_scan"}, "lat": 38.90327283333333, "bike_id": "9b8f2a3b73c90b5e00db43f57c96b111", "is_disabled": 0, "lon": -76.97532233333334, "is_reserved": 0, "fusion_lat": 0.0, "type": "electric_bike"}, {"fusion_lon": 0.0, "name": "98da68537953aa19a192b8897d4a420d", "rental_uris": {"android": "https://dc.lft.to/lastmile_qr_scan", "ios": "https://dc.lft.to/lastmile_qr_scan"}, "lat": 38.8904895, "bike_id": "98da68537953aa19a192b8897d4a420d", "is_disabled": 0, "lon": -76.93758033333333, "is_reserved": 0, "fusion_lat": 0.0, "type": "electric_scooter"}, {"fusion_lon": 0.0, "name": "b1d68f695e743269520322f1f88529ac", "rental_uris": {"android": "https://dc.lft.to/lastmile_qr_scan", "ios": "https://dc.lft.to/lastmile_qr_scan"}, "lat": 38.919749, "bike_id": "b1d68f695e743269520322f1f88529ac", "is_disabled": 0, "lon": -77.02186966666666, "is_reserved": 0, "fusion_lat": 0.0, "type": "electric_scooter"}, {"fusion_lon": 0.0, "name": "d9f1b03adf73d6b3f46a1a6b55b06c56", "rental_uris": {"android": "https://dc.lft.to/lastmile_qr_scan", "ios": "https://dc.lft.to/lastmile_qr_scan"}, "lat": 38.90423116666667, "bike_id": "d9f1b03adf73d6b3f46a1a6b55b06c56", "is_disabled": 0, "lon": -77.02774916666667, "is_reserved": 0, "fusion_lat": 0.0, "type": "electric_scooter"}, {"fusion_lon": 0.0, "name": "5eae914331b372a5c3d4d559c3be52e4", "rental_uris": {"android": "https://dc.lft.to/lastmile_qr_scan", "ios": "https://dc.lft.to/lastmile_qr_scan"}, "lat": 38.8785325, "bike_id": "5eae914331b372a5c3d4d559c3be52e4", "is_disabled": 0, "lon": -77.01746633333333, "is_reserved": 0, "fusion_lat": 0.0, "type": "electric_scooter"}, {"fusion_lon": 0.0, "name": "ab7e5614b1e690a24cfe23f6f857ddda", "rental_uris": {"android": "https://dc.lft.to/lastmile_qr_scan", "ios": "https://dc.lft.to/lastmile_qr_scan"}, "lat": 38.881183, "bike_id": "ab7e5614b1e690a24cfe23f6f857ddda", "is_disabled": 0, "lon": -76.99284983333334, "is_reserved": 0, "fusion_lat": 0.0, "type": "electric_scooter"}, {"fusion_lon": 0.0, "name": "7b4dc7caed19904d19d2785f7669beed", "rental_uris": {"android": "https://dc.lft.to/lastmile_qr_scan", "ios": "https://dc.lft.to/lastmile_qr_scan"}, "lat": 38.903688833333334, "bike_id": "7b4dc7caed19904d19d2785f7669beed", "is_disabled": 0, "lon": -77.02201533333333, "is_reserved": 0, "fusion_lat": 0.0, "type": "electric_scooter"}, {"fusion_lon": 0.0, "name": "445b4fe540b1cf18d4b1ec58241b2a3c", "rental_uris": {"android": "https://dc.lft.to/lastmile_qr_scan", "ios": "https://dc.lft.to/lastmile_qr_scan"}, "lat": 38.92628416666667, "bike_id": "445b4fe540b1cf18d4b1ec58241b2a3c", "is_disabled": 0, "lon": -77.04252866666667, "is_reserved": 0, "fusion_lat": 0.0, "type": "electric_scooter"}, {"fusion_lon": 0.0, "name": "23eb72f1964f107b07c17fed3303ab0c", "rental_uris": {"android": "https://dc.lft.to/lastmile_qr_scan", "ios": "https://dc.lft.to/lastmile_qr_scan"}, "lat": 38.9243755, "bike_id": "23eb72f1964f107b07c17fed3303ab0c", "is_disabled": 0, "lon": -77.01944716666667, "is_reserved": 0, "fusion_lat": 0.0, "type": "electric_scooter"}, {"fusion_lon": 0.0, "name": "8bf43cade2a9d1ccf66abd8d87175305", "rental_uris": {"android": "https://dc.lft.to/lastmile_qr_scan", "ios": "https://dc.lft.to/lastmile_qr_scan"}, "lat": 38.92563616666666, "bike_id": "8bf43cade2a9d1ccf66abd8d87175305", "is_disabled": 0, "lon": -76.99961316666666, "is_reserved": 0, "fusion_lat": 0.0, "type": "electric_scooter"}, {"fusion_lon": 0.0, "name": "7bac14590c1d80e338b03b211bff6e42", "rental_uris": {"android": "https://dc.lft.to/lastmile_qr_scan", "ios": "https://dc.lft.to/lastmile_qr_scan"}, "lat": 38.894323166666666, "bike_id": "7bac14590c1d80e338b03b211bff6e42", "is_disabled": 0, "lon": -77.0263895, "is_reserved": 0, "fusion_lat": 0.0, "type": "electric_scooter"}, {"fusion_lon": 0.0, "name": "0362f1b0c9844454ca4f0a1db2f0043a", "rental_uris": {"android": "https://dc.lft.to/lastmile_qr_scan", "ios": "https://dc.lft.to/lastmile_qr_scan"}, "lat": 38.91718683333333, "bike_id": "0362f1b0c9844454ca4f0a1db2f0043a", "is_disabled": 0, "lon": -77.03139083333333, "is_reserved": 0, "fusion_lat": 0.0, "type": "electric_scooter"}, {"fusion_lon": 0.0, "name": "8d3b14e296fb62a4b6d7151abc075260", "rental_uris": {"android": "https://dc.lft.to/lastmile_qr_scan", "ios": "https://dc.lft.to/lastmile_qr_scan"}, "lat": 38.899334, "bike_id": "8d3b14e296fb62a4b6d7151abc075260", "is_disabled": 0, "lon": -77.00359383333333, "is_reserved": 0, "fusion_lat": 0.0, "type": "electric_scooter"}, {"fusion_lon": 0.0, "name": "a6e0e9ae22f55f986babbf94ba8e8606", "rental_uris": {"android": "https://dc.lft.to/lastmile_qr_scan", "ios": "https://dc.lft.to/lastmile_qr_scan"}, "lat": 38.92825216666667, "bike_id": "a6e0e9ae22f55f986babbf94ba8e8606", "is_disabled": 0, "lon": -77.0142365, "is_reserved": 0, "fusion_lat": 0.0, "type": "electric_scooter"}, {"fusion_lon": 0.0, "name": "ca56b7f2986881388fe26b4613d81ece", "rental_uris": {"android": "https://dc.lft.to/lastmile_qr_scan", "ios": "https://dc.lft.to/lastmile_qr_scan"}, "lat": 38.912859833333336, "bike_id": "ca56b7f2986881388fe26b4613d81ece", "is_disabled": 0, "lon": -77.03446666666666, "is_reserved": 0, "fusion_lat": 0.0, "type": "electric_scooter"}, {"fusion_lon": 0.0, "name": "30f72fe4c58569b4b4121b739412fb48", "rental_uris": {"android": "https://dc.lft.to/lastmile_qr_scan", "ios": "https://dc.lft.to/lastmile_qr_scan"}, "lat": 38.898784, "bike_id": "30f72fe4c58569b4b4121b739412fb48", "is_disabled": 0, "lon": -77.02185183333333, "is_reserved": 0, "fusion_lat": 0.0, "type": "electric_scooter"}, {"fusion_lon": 0.0, "name": "f20e3f15d666a4deb142e04e45d055f2", "rental_uris": {"android": "https://dc.lft.to/lastmile_qr_scan", "ios": "https://dc.lft.to/lastmile_qr_scan"}, "lat": 38.898176666666664, "bike_id": "f20e3f15d666a4deb142e04e45d055f2", "is_disabled": 0, "lon": -77.048922, "is_reserved": 0, "fusion_lat": 0.0, "type": "electric_scooter"}, {"fusion_lon": 0.0, "name": "640e98c346083f785aa11cd6846db7d3", "rental_uris": {"android": "https://dc.lft.to/lastmile_qr_scan", "ios": "https://dc.lft.to/lastmile_qr_scan"}, "lat": 38.90427, "bike_id": "640e98c346083f785aa11cd6846db7d3", "is_disabled": 0, "lon": -77.043438, "is_reserved": 0, "fusion_lat": 0.0, "type": "electric_scooter"}, {"fusion_lon": 0.0, "name": "25dc273d783e70833bfbfe747ebd8eec", "rental_uris": {"android": "https://dc.lft.to/lastmile_qr_scan", "ios": "https://dc.lft.to/lastmile_qr_scan"}, "lat": 38.90143033333333, "bike_id": "25dc273d783e70833bfbfe747ebd8eec", "is_disabled": 0, "lon": -77.0218155, "is_reserved": 0, "fusion_lat": 0.0, "type": "electric_scooter"}, {"fusion_lon": 0.0, "name": "25611dcc3ee9c235d49ba2ebc05819b1", "rental_uris": {"android": "https://dc.lft.to/lastmile_qr_scan", "ios": "https://dc.lft.to/lastmile_qr_scan"}, "lat": 38.92639916666667, "bike_id": "25611dcc3ee9c235d49ba2ebc05819b1", "is_disabled": 0, "lon": -77.03549, "is_reserved": 0, "fusion_lat": 0.0, "type": "electric_scooter"}, {"fusion_lon": 0.0, "name": "5d5f9d69e3673c155308468a88373837", "rental_uris": {"android": "https://dc.lft.to/lastmile_qr_scan", "ios": "https://dc.lft.to/lastmile_qr_scan"}, "lat": 38.91552633333333, "bike_id": "5d5f9d69e3673c155308468a88373837", "is_disabled": 0, "lon": -77.06794566666666, "is_reserved": 0, "fusion_lat": 0.0, "type": "electric_scooter"}, {"fusion_lon": 0.0, "name": "c9c88fb1521c755a41a102e6ba9e3392", "rental_uris": {"android": "https://dc.lft.to/lastmile_qr_scan", "ios": "https://dc.lft.to/lastmile_qr_scan"}, "lat": 38.922344333333335, "bike_id": "c9c88fb1521c755a41a102e6ba9e3392", "is_disabled": 0, "lon": -77.0214655, "is_reserved": 0, "fusion_lat": 0.0, "type": "electric_scooter"}, {"fusion_lon": 0.0, "name": "6f1eefe64a0ea57d4f702d5c2fa0e5b7", "rental_uris": {"android": "https://dc.lft.to/lastmile_qr_scan", "ios": "https://dc.lft.to/lastmile_qr_scan"}, "lat": 38.9135205, "bike_id": "6f1eefe64a0ea57d4f702d5c2fa0e5b7", "is_disabled": 0, "lon": -77.03846433333334, "is_reserved": 0, "fusion_lat": 0.0, "type": "electric_scooter"}, {"fusion_lon": 0.0, "name": "092e6ce7108a95944e86d21665de94f6", "rental_uris": {"android": "https://dc.lft.to/lastmile_qr_scan", "ios": "https://dc.lft.to/lastmile_qr_scan"}, "lat": 38.924861, "bike_id": "092e6ce7108a95944e86d21665de94f6", "is_disabled": 0, "lon": -77.02245483333333, "is_reserved": 0, "fusion_lat": 0.0, "type": "electric_scooter"}, {"fusion_lon": 0.0, "name": "693d442c0ce81ab9abf757a9e67ea5e0", "rental_uris": {"android": "https://dc.lft.to/lastmile_qr_scan", "ios": "https://dc.lft.to/lastmile_qr_scan"}, "lat": 38.924630666666665, "bike_id": "693d442c0ce81ab9abf757a9e67ea5e0", "is_disabled": 0, "lon": -77.02219216666667, "is_reserved": 0, "fusion_lat": 0.0, "type": "electric_scooter"}, {"fusion_lon": 0.0, "name": "78ec730df9b0d5f1902bec000417c460", "rental_uris": {"android": "https://dc.lft.to/lastmile_qr_scan", "ios": "https://dc.lft.to/lastmile_qr_scan"}, "lat": 38.906343, "bike_id": "78ec730df9b0d5f1902bec000417c460", "is_disabled": 0, "lon": -77.00874766666666, "is_reserved": 0, "fusion_lat": 0.0, "type": "electric_scooter"}, {"fusion_lon": 0.0, "name": "62f9f49f13c8f949818d95ca05e20fcf", "rental_uris": {"android": "https://dc.lft.to/lastmile_qr_scan", "ios": "https://dc.lft.to/lastmile_qr_scan"}, "lat": 38.94332416666666, "bike_id": "62f9f49f13c8f949818d95ca05e20fcf", "is_disabled": 0, "lon": -77.026898, "is_reserved": 0, "fusion_lat": 0.0, "type": "electric_scooter"}, {"fusion_lon": 0.0, "name": "c00aa03e329bc9c989ba63c34de3411d", "rental_uris": {"android": "https://dc.lft.to/lastmile_qr_scan", "ios": "https://dc.lft.to/lastmile_qr_scan"}, "lat": 38.92794383333333, "bike_id": "c00aa03e329bc9c989ba63c34de3411d", "is_disabled": 0, "lon": -77.054239, "is_reserved": 0, "fusion_lat": 0.0, "type": "electric_scooter"}, {"fusion_lon": 0.0, "name": "0f13252a7125074d988e1262489cbfda", "rental_uris": {"android": "https://dc.lft.to/lastmile_qr_scan", "ios": "https://dc.lft.to/lastmile_qr_scan"}, "lat": 38.896068, "bike_id": "0f13252a7125074d988e1262489cbfda", "is_disabled": 0, "lon": -77.04516016666666, "is_reserved": 0, "fusion_lat": 0.0, "type": "electric_scooter"}, {"fusion_lon": 0.0, "name": "bc4f16635e535854c4db070e398f82a1", "rental_uris": {"android": "https://dc.lft.to/lastmile_qr_scan", "ios": "https://dc.lft.to/lastmile_qr_scan"}, "lat": 38.8191325, "bike_id": "bc4f16635e535854c4db070e398f82a1", "is_disabled": 0, "lon": -77.12660533333333, "is_reserved": 0, "fusion_lat": 0.0, "type": "electric_bike"}, {"fusion_lon": 0.0, "name": "e7e5d4a8ca13d23a157e95e7686015da", "rental_uris": {"android": "https://dc.lft.to/lastmile_qr_scan", "ios": "https://dc.lft.to/lastmile_qr_scan"}, "lat": 38.92056183333333, "bike_id": "e7e5d4a8ca13d23a157e95e7686015da", "is_disabled": 0, "lon": -77.02514283333333, "is_reserved": 0, "fusion_lat": 0.0, "type": "electric_scooter"}, {"fusion_lon": 0.0, "name": "b467fa2fabacc385ac560f5773694774", "rental_uris": {"android": "https://dc.lft.to/lastmile_qr_scan", "ios": "https://dc.lft.to/lastmile_qr_scan"}, "lat": 38.90082133333333, "bike_id": "b467fa2fabacc385ac560f5773694774", "is_disabled": 0, "lon": -77.04700483333333, "is_reserved": 0, "fusion_lat": 0.0, "type": "electric_scooter"}, {"fusion_lon": 0.0, "name": "9f0a4012ab897f80c690f03fa66cc4e5", "rental_uris": {"android": "https://dc.lft.to/lastmile_qr_scan", "ios": "https://dc.lft.to/lastmile_qr_scan"}, "lat": 38.924154333333334, "bike_id": "9f0a4012ab897f80c690f03fa66cc4e5", "is_disabled": 0, "lon": -77.04555766666667, "is_reserved": 0, "fusion_lat": 0.0, "type": "electric_scooter"}, {"fusion_lon": 0.0, "name": "7a9dd63ae041cff09bcd8fd8d5120acc", "rental_uris": {"android": "https://dc.lft.to/lastmile_qr_scan", "ios": "https://dc.lft.to/lastmile_qr_scan"}, "lat": 38.89222983333333, "bike_id": "7a9dd63ae041cff09bcd8fd8d5120acc", "is_disabled": 0, "lon": -77.03023316666666, "is_reserved": 0, "fusion_lat": 0.0, "type": "electric_scooter"}, {"fusion_lon": 0.0, "name": "697c3d597c1bf172abd6fc032a64d5d4", "rental_uris": {"android": "https://dc.lft.to/lastmile_qr_scan", "ios": "https://dc.lft.to/lastmile_qr_scan"}, "lat": 38.906685, "bike_id": "697c3d597c1bf172abd6fc032a64d5d4", "is_disabled": 0, "lon": -76.98026066666667, "is_reserved": 0, "fusion_lat": 0.0, "type": "electric_scooter"}, {"fusion_lon": 0.0, "name": "b3d4d467a45f10b53e4553698c0696a8", "rental_uris": {"android": "https://dc.lft.to/lastmile_qr_scan", "ios": "https://dc.lft.to/lastmile_qr_scan"}, "lat": 38.8974145, "bike_id": "b3d4d467a45f10b53e4553698c0696a8", "is_disabled": 0, "lon": -77.028154, "is_reserved": 0, "fusion_lat": 0.0, "type": "electric_scooter"}, {"fusion_lon": 0.0, "name": "cae6fdde7f267db21db4cf724b983b70", "rental_uris": {"android": "https://dc.lft.to/lastmile_qr_scan", "ios": "https://dc.lft.to/lastmile_qr_scan"}, "lat": 38.91576516666667, "bike_id": "cae6fdde7f267db21db4cf724b983b70", "is_disabled": 0, "lon": -77.01234433333333, "is_reserved": 0, "fusion_lat": 0.0, "type": "electric_scooter"}, {"fusion_lon": 0.0, "name": "965ba2ac7d199b7eb8040c464ec2a4a3", "rental_uris": {"android": "https://dc.lft.to/lastmile_qr_scan", "ios": "https://dc.lft.to/lastmile_qr_scan"}, "lat": 38.8972285, "bike_id": "965ba2ac7d199b7eb8040c464ec2a4a3", "is_disabled": 0, "lon": -77.03346783333333, "is_reserved": 0, "fusion_lat": 0.0, "type": "electric_scooter"}, {"fusion_lon": 0.0, "name": "98f8d69c100a17fdac25ee61bf8f727c", "rental_uris": {"android": "https://dc.lft.to/lastmile_qr_scan", "ios": "https://dc.lft.to/lastmile_qr_scan"}, "lat": 38.885062, "bike_id": "98f8d69c100a17fdac25ee61bf8f727c", "is_disabled": 0, "lon": -77.015909, "is_reserved": 0, "fusion_lat": 0.0, "type": "electric_scooter"}, {"fusion_lon": 0.0, "name": "540753e07592950fc155e2b681a8e804", "rental_uris": {"android": "https://dc.lft.to/lastmile_qr_scan", "ios": "https://dc.lft.to/lastmile_qr_scan"}, "lat": 38.91994016666666, "bike_id": "540753e07592950fc155e2b681a8e804", "is_disabled": 0, "lon": -76.98394933333333, "is_reserved": 0, "fusion_lat": 0.0, "type": "electric_scooter"}, {"fusion_lon": 0.0, "name": "fc12da52dfad691da086595424a1eab5", "rental_uris": {"android": "https://dc.lft.to/lastmile_qr_scan", "ios": "https://dc.lft.to/lastmile_qr_scan"}, "lat": 38.93334766666667, "bike_id": "fc12da52dfad691da086595424a1eab5", "is_disabled": 0, "lon": -77.02855666666666, "is_reserved": 0, "fusion_lat": 0.0, "type": "electric_scooter"}, {"fusion_lon": 0.0, "name": "d44d77ba9a6574e66fbb88411654184b", "rental_uris": {"android": "https://dc.lft.to/lastmile_qr_scan", "ios": "https://dc.lft.to/lastmile_qr_scan"}, "lat": 38.900335, "bike_id": "d44d77ba9a6574e66fbb88411654184b", "is_disabled": 0, "lon": -76.988342, "is_reserved": 0, "fusion_lat": 0.0, "type": "electric_scooter"}, {"fusion_lon": 0.0, "name": "563bb678cfc48783815366d64f07349a", "rental_uris": {"android": "https://dc.lft.to/lastmile_qr_scan", "ios": "https://dc.lft.to/lastmile_qr_scan"}, "lat": 38.89961666666667, "bike_id": "563bb678cfc48783815366d64f07349a", "is_disabled": 0, "lon": -77.01510383333333, "is_reserved": 0, "fusion_lat": 0.0, "type": "electric_scooter"}, {"fusion_lon": 0.0, "name": "c243313cac780b7c4c3bdf999eb54429", "rental_uris": {"android": "https://dc.lft.to/lastmile_qr_scan", "ios": "https://dc.lft.to/lastmile_qr_scan"}, "lat": 38.906568666666665, "bike_id": "c243313cac780b7c4c3bdf999eb54429", "is_disabled": 0, "lon": -77.07127933333334, "is_reserved": 0, "fusion_lat": 0.0, "type": "electric_scooter"}, {"fusion_lon": 0.0, "name": "185c8978983e2b961b7f832ba43f5755", "rental_uris": {"android": "https://dc.lft.to/lastmile_qr_scan", "ios": "https://dc.lft.to/lastmile_qr_scan"}, "lat": 38.901651333333334, "bike_id": "185c8978983e2b961b7f832ba43f5755", "is_disabled": 0, "lon": -76.976868, "is_reserved": 0, "fusion_lat": 0.0, "type": "electric_bike"}, {"fusion_lon": 0.0, "name": "14948d6ac11b308cfa0c8d4be7525702", "rental_uris": {"android": "https://dc.lft.to/lastmile_qr_scan", "ios": "https://dc.lft.to/lastmile_qr_scan"}, "lat": 38.90417383333333, "bike_id": "14948d6ac11b308cfa0c8d4be7525702", "is_disabled": 0, "lon": -77.049961, "is_reserved": 0, "fusion_lat": 0.0, "type": "electric_scooter"}, {"fusion_lon": 0.0, "name": "90c940779e713750f76751fdcfe13153", "rental_uris": {"android": "https://dc.lft.to/lastmile_qr_scan", "ios": "https://dc.lft.to/lastmile_qr_scan"}, "lat": 38.83121533333333, "bike_id": "90c940779e713750f76751fdcfe13153", "is_disabled": 0, "lon": -77.0014505, "is_reserved": 0, "fusion_lat": 0.0, "type": "electric_scooter"}, {"fusion_lon": 0.0, "name": "7d71d6ba03d3fa5b91bb072512984d90", "rental_uris": {"android": "https://dc.lft.to/lastmile_qr_scan", "ios": "https://dc.lft.to/lastmile_qr_scan"}, "lat": 38.846245333333336, "bike_id": "7d71d6ba03d3fa5b91bb072512984d90", "is_disabled": 0, "lon": -76.981216, "is_reserved": 0, "fusion_lat": 0.0, "type": "electric_scooter"}, {"fusion_lon": 0.0, "name": "00ad9848e0047d433bfd1b104c08e668", "rental_uris": {"android": "https://dc.lft.to/lastmile_qr_scan", "ios": "https://dc.lft.to/lastmile_qr_scan"}, "lat": 38.89680366666666, "bike_id": "00ad9848e0047d433bfd1b104c08e668", "is_disabled": 0, "lon": -77.04487283333333, "is_reserved": 0, "fusion_lat": 0.0, "type": "electric_scooter"}, {"fusion_lon": 0.0, "name": "84867dc967cec1b858e82ecbdd283dbb", "rental_uris": {"android": "https://dc.lft.to/lastmile_qr_scan", "ios": "https://dc.lft.to/lastmile_qr_scan"}, "lat": 38.91495333333334, "bike_id": "84867dc967cec1b858e82ecbdd283dbb", "is_disabled": 0, "lon": -76.98377883333333, "is_reserved": 0, "fusion_lat": 0.0, "type": "electric_scooter"}, {"fusion_lon": 0.0, "name": "ad3b7083c966d1d4aeee6c9163ffc570", "rental_uris": {"android": "https://dc.lft.to/lastmile_qr_scan", "ios": "https://dc.lft.to/lastmile_qr_scan"}, "lat": 38.8708035, "bike_id": "ad3b7083c966d1d4aeee6c9163ffc570", "is_disabled": 0, "lon": -77.01191416666667, "is_reserved": 0, "fusion_lat": 0.0, "type": "electric_bike"}, {"fusion_lon": 0.0, "name": "4315fe3be6a598f15f7ebf00e574a10b", "rental_uris": {"android": "https://dc.lft.to/lastmile_qr_scan", "ios": "https://dc.lft.to/lastmile_qr_scan"}, "lat": 38.924696, "bike_id": "4315fe3be6a598f15f7ebf00e574a10b", "is_disabled": 0, "lon": -77.02219816666667, "is_reserved": 0, "fusion_lat": 0.0, "type": "electric_scooter"}, {"fusion_lon": 0.0, "name": "5ce5bf2a5cae0b7b99b1f7410ad2d4c6", "rental_uris": {"android": "https://dc.lft.to/lastmile_qr_scan", "ios": "https://dc.lft.to/lastmile_qr_scan"}, "lat": 38.893611666666665, "bike_id": "5ce5bf2a5cae0b7b99b1f7410ad2d4c6", "is_disabled": 0, "lon": -77.00332616666667, "is_reserved": 0, "fusion_lat": 0.0, "type": "electric_scooter"}, {"fusion_lon": 0.0, "name": "a8bdf379793236af2da6a0a78aa0c85a", "rental_uris": {"android": "https://dc.lft.to/lastmile_qr_scan", "ios": "https://dc.lft.to/lastmile_qr_scan"}, "lat": 38.912938833333335, "bike_id": "a8bdf379793236af2da6a0a78aa0c85a", "is_disabled": 0, "lon": -76.9854465, "is_reserved": 0, "fusion_lat": 0.0, "type": "electric_scooter"}, {"fusion_lon": 0.0, "name": "a13cf60d3709ea4d4be95ccc594d3273", "rental_uris": {"android": "https://dc.lft.to/lastmile_qr_scan", "ios": "https://dc.lft.to/lastmile_qr_scan"}, "lat": 38.926107, "bike_id": "a13cf60d3709ea4d4be95ccc594d3273", "is_disabled": 0, "lon": -77.02164683333334, "is_reserved": 0, "fusion_lat": 0.0, "type": "electric_scooter"}, {"fusion_lon": 0.0, "name": "74bc80ffb9ad8c08e05010310576d515", "rental_uris": {"android": "https://dc.lft.to/lastmile_qr_scan", "ios": "https://dc.lft.to/lastmile_qr_scan"}, "lat": 38.9557525, "bike_id": "74bc80ffb9ad8c08e05010310576d515", "is_disabled": 0, "lon": -77.07010933333333, "is_reserved": 0, "fusion_lat": 0.0, "type": "electric_scooter"}, {"fusion_lon": 0.0, "name": "e16c5af37d004dedfdbe275fcdc72b28", "rental_uris": {"android": "https://dc.lft.to/lastmile_qr_scan", "ios": "https://dc.lft.to/lastmile_qr_scan"}, "lat": 38.878493, "bike_id": "e16c5af37d004dedfdbe275fcdc72b28", "is_disabled": 0, "lon": -77.022359, "is_reserved": 0, "fusion_lat": 0.0, "type": "electric_scooter"}, {"fusion_lon": 0.0, "name": "73eb64d115a62c1d31188d310440600d", "rental_uris": {"android": "https://dc.lft.to/lastmile_qr_scan", "ios": "https://dc.lft.to/lastmile_qr_scan"}, "lat": 38.956578, "bike_id": "73eb64d115a62c1d31188d310440600d", "is_disabled": 0, "lon": -77.08368216666666, "is_reserved": 0, "fusion_lat": 0.0, "type": "electric_scooter"}, {"fusion_lon": 0.0, "name": "356e55d90a64594cc33e7f6dbddf1e9e", "rental_uris": {"android": "https://dc.lft.to/lastmile_qr_scan", "ios": "https://dc.lft.to/lastmile_qr_scan"}, "lat": 38.89619183333333, "bike_id": "356e55d90a64594cc33e7f6dbddf1e9e", "is_disabled": 0, "lon": -77.02212783333333, "is_reserved": 0, "fusion_lat": 0.0, "type": "electric_scooter"}, {"fusion_lon": 0.0, "name": "3af9aa3e861efc593c0e28021f0a3775", "rental_uris": {"android": "https://dc.lft.to/lastmile_qr_scan", "ios": "https://dc.lft.to/lastmile_qr_scan"}, "lat": 38.905603666666664, "bike_id": "3af9aa3e861efc593c0e28021f0a3775", "is_disabled": 0, "lon": -77.04575416666667, "is_reserved": 0, "fusion_lat": 0.0, "type": "electric_scooter"}, {"fusion_lon": 0.0, "name": "0d756493319eb392329e6bb02f5fd01e", "rental_uris": {"android": "https://dc.lft.to/lastmile_qr_scan", "ios": "https://dc.lft.to/lastmile_qr_scan"}, "lat": 38.906269, "bike_id": "0d756493319eb392329e6bb02f5fd01e", "is_disabled": 0, "lon": -77.03896483333334, "is_reserved": 0, "fusion_lat": 0.0, "type": "electric_scooter"}, {"fusion_lon": 0.0, "name": "4262ef8dfca50ddcde33e08b6c9e7f87", "rental_uris": {"android": "https://dc.lft.to/lastmile_qr_scan", "ios": "https://dc.lft.to/lastmile_qr_scan"}, "lat": 39.029233166666664, "bike_id": "4262ef8dfca50ddcde33e08b6c9e7f87", "is_disabled": 0, "lon": -77.01366133333333, "is_reserved": 0, "fusion_lat": 0.0, "type": "electric_bike"}, {"fusion_lon": 0.0, "name": "0fd9ddb400657e83cc2cc2f2bd8e72fa", "rental_uris": {"android": "https://dc.lft.to/lastmile_qr_scan", "ios": "https://dc.lft.to/lastmile_qr_scan"}, "lat": 38.91345066666667, "bike_id": "0fd9ddb400657e83cc2cc2f2bd8e72fa", "is_disabled": 0, "lon": -77.01224583333334, "is_reserved": 0, "fusion_lat": 0.0, "type": "electric_scooter"},