{"data": {"bikes": [{"fusion_lat": 0.0, "name": "b390ab9962258c261a71c49b256473c4", "is_disabled": 0, "rental_uris": {"android": "https://dc.lft.to/lastmile_qr_scan", "ios": "https://dc.lft.to/lastmile_qr_scan"}, "fusion_lon": 0.0, "lat": 38.87799, "bike_id": "b390ab9962258c261a71c49b256473c4", "type": "electric_scooter", "is_reserved": 0, "lon": -76.99015633333333}, {"fusion_lat": 0.0, "name": "5f54ea34c32d7ad1660f965155dfa855", "is_disabled": 0, "rental_uris": {"android": "https://dc.lft.to/lastmile_qr_scan", "ios": "https://dc.lft.to/lastmile_qr_scan"}, "fusion_lon": 0.0, "lat": 38.903986, "bike_id": "5f54ea34c32d7ad1660f965155dfa855", "type": "electric_scooter", "is_reserved": 0, "lon": -76.98934983333334}, {"fusion_lat": 0.0, "name": "bc89b2b6f5c8407b606ae9f9a347850d", "is_disabled": 0, "rental_uris": {"android": "https://dc.lft.to/lastmile_qr_scan", "ios": "https://dc.lft.to/lastmile_qr_scan"}, "fusion_lon": 0.0, "lat": 38.909526, "bike_id": "bc89b2b6f5c8407b606ae9f9a347850d", "type": "electric_scooter", "is_reserved": 0, "lon": -77.0448175}, {"fusion_lat": 0.0, "name": "aa549692675f99283b9891139bab55e9", "is_disabled": 0, "rental_uris": {"android": "https://dc.lft.to/lastmile_qr_scan", "ios": "https://dc.lft.to/lastmile_qr_scan"}, "fusion_lon": 0.0, "lat": 39.041804666666664, "bike_id": "aa549692675f99283b9891139bab55e9", "type": "electric_bike", "is_reserved": 0, "lon": -77.05242016666666}, {"fusion_lat": 0.0, "name": "71647e253349ca656559e069dbc47003", "is_disabled": 0, "rental_uris": {"android": "https://dc.lft.to/lastmile_qr_scan", "ios": "https://dc.lft.to/lastmile_qr_scan"}, "fusion_lon": 0.0, "lat": 38.90824416666667, "bike_id": "71647e253349ca656559e069dbc47003", "type": "electric_scooter", "is_reserved": 0, "lon": -77.0432725}, {"fusion_lat": 0.0, "name": "ee239da713cc6d5ccdc104b26c6da48e", "is_disabled": 0, "rental_uris": {"android": "https://dc.lft.to/lastmile_qr_scan", "ios": "https://dc.lft.to/lastmile_qr_scan"}, "fusion_lon": 0.0, "lat": 38.91707983333333, "bike_id": "ee239da713cc6d5ccdc104b26c6da48e", "type": "electric_scooter", "is_reserved": 0, "lon": -77.0404295}, {"fusion_lat": 0.0, "name": "204909f6edfd8dafd51932fafb107a97", "is_disabled": 0, "rental_uris": {"android": "https://dc.lft.to/lastmile_qr_scan", "ios": "https://dc.lft.to/lastmile_qr_scan"}, "fusion_lon": 0.0, "lat": 38.932449166666665, "bike_id": "204909f6edfd8dafd51932fafb107a97", "type": "electric_scooter", "is_reserved": 0, "lon": -77.0294775}, {"fusion_lat": 0.0, "name": "2fd1fc7f9a9e8c643da37ebe55bba945", "is_disabled": 0, "rental_uris": {"android": "https://dc.lft.to/lastmile_qr_scan", "ios": "https://dc.lft.to/lastmile_qr_scan"}, "fusion_lon": 0.0, "lat": 38.9168555, "bike_id": "2fd1fc7f9a9e8c643da37ebe55bba945", "type": "electric_scooter", "is_reserved": 0, "lon": -77.03202583333334}, {"fusion_lat": 0.0, "name": "dcad178b83965dd80df8fd1a8f9a0223", "is_disabled": 0, "rental_uris": {"android": "https://dc.lft.to/lastmile_qr_scan", "ios": "https://dc.lft.to/lastmile_qr_scan"}, "fusion_lon": 0.0, "lat": 38.913214333333336, "bike_id": "dcad178b83965dd80df8fd1a8f9a0223", "type": "electric_scooter", "is_reserved": 0, "lon": -77.04478733333333}, {"fusion_lat": 0.0, "name": "4bc6e6c6aa99c0b49974f1d6cddba4f4", "is_disabled": 0, "rental_uris": {"android": "https://dc.lft.to/lastmile_qr_scan", "ios": "https://dc.lft.to/lastmile_qr_scan"}, "fusion_lon": 0.0, "lat": 38.921207333333335, "bike_id": "4bc6e6c6aa99c0b49974f1d6cddba4f4", "type": "electric_scooter", "is_reserved": 0, "lon": -77.03187733333333}, {"fusion_lat": 0.0, "name": "bbd54cbdf6e7ff25fb22e7963a2a9bd4", "is_disabled": 0, "rental_uris": {"android": "https://dc.lft.to/lastmile_qr_scan", "ios": "https://dc.lft.to/lastmile_qr_scan"}, "fusion_lon": 0.0, "lat": 38.923392166666666, "bike_id": "bbd54cbdf6e7ff25fb22e7963a2a9bd4", "type": "electric_scooter", "is_reserved": 0, "lon": -77.0377075}, {"fusion_lat": 0.0, "name": "244533eff3822308d4ecad24e9317d6e", "is_disabled": 0, "rental_uris": {"android": "https://dc.lft.to/lastmile_qr_scan", "ios": "https://dc.lft.to/lastmile_qr_scan"}, "fusion_lon": 0.0, "lat": 38.909758, "bike_id": "244533eff3822308d4ecad24e9317d6e", "type": "electric_scooter", "is_reserved": 0, "lon": -77.0208825}, {"fusion_lat": 0.0, "name": "8c6a9f98c2c65d60f476eb44bc5c7fbb", "is_disabled": 0, "rental_uris": {"android": "https://dc.lft.to/lastmile_qr_scan", "ios": "https://dc.lft.to/lastmile_qr_scan"}, "fusion_lon": 0.0, "lat": 38.82862733333333, "bike_id": "8c6a9f98c2c65d60f476eb44bc5c7fbb", "type": "electric_bike", "is_reserved": 0, "lon": -77.088083}, {"fusion_lat": 0.0, "name": "5c10f1d1e2bf83c3686dc30ebecd22a4", "is_disabled": 0, "rental_uris": {"android": "https://dc.lft.to/lastmile_qr_scan", "ios": "https://dc.lft.to/lastmile_qr_scan"}, "fusion_lon": 0.0, "lat": 38.8386235, "bike_id": "5c10f1d1e2bf83c3686dc30ebecd22a4", "type": "electric_scooter", "is_reserved": 0, "lon": -76.99696566666667}, {"fusion_lat": 0.0, "name": "12256aae31b21c76fdd4cbc587fbc0fa", "is_disabled": 0, "rental_uris": {"android": "https://dc.lft.to/lastmile_qr_scan", "ios": "https://dc.lft.to/lastmile_qr_scan"}, "fusion_lon": 0.0, "lat": 38.94623883333333, "bike_id": "12256aae31b21c76fdd4cbc587fbc0fa", "type": "electric_scooter", "is_reserved": 0, "lon": -77.03278883333333}, {"fusion_lat": 0.0, "name": "9d4e2065d447932de982f2ed68cac1f0", "is_disabled": 0, "rental_uris": {"android": "https://dc.lft.to/lastmile_qr_scan", "ios": "https://dc.lft.to/lastmile_qr_scan"}, "fusion_lon": 0.0, "lat": 38.92049866666667, "bike_id": "9d4e2065d447932de982f2ed68cac1f0", "type": "electric_scooter", "is_reserved": 0, "lon": -77.00212333333333}, {"fusion_lat": 0.0, "name": "f9c3b93c151b1b8642b8b7427cc72fa8", "is_disabled": 0, "rental_uris": {"android": "https://dc.lft.to/lastmile_qr_scan", "ios": "https://dc.lft.to/lastmile_qr_scan"}, "fusion_lon": 0.0, "lat": 38.89638633333333, "bike_id": "f9c3b93c151b1b8642b8b7427cc72fa8", "type": "electric_scooter", "is_reserved": 0, "lon": -77.01146866666667}, {"fusion_lat": 0.0, "name": "a1df0d74294e3bcf48e39f99cd57b04a", "is_disabled": 0, "rental_uris": {"android": "https://dc.lft.to/lastmile_qr_scan", "ios": "https://dc.lft.to/lastmile_qr_scan"}, "fusion_lon": 0.0, "lat": 38.88869116666667, "bike_id": "a1df0d74294e3bcf48e39f99cd57b04a", "type": "electric_scooter", "is_reserved": 0, "lon": -76.98451233333333}, {"fusion_lat": 0.0, "name": "5c1f18180a6048f0dd2baab6ba3a3b6e", "is_disabled": 0, "rental_uris": {"android": "https://dc.lft.to/lastmile_qr_scan", "ios": "https://dc.lft.to/lastmile_qr_scan"}, "fusion_lon": 0.0, "lat": 38.907321, "bike_id": "5c1f18180a6048f0dd2baab6ba3a3b6e", "type": "electric_scooter", "is_reserved": 0, "lon": -77.02543083333333}, {"fusion_lat": 0.0, "name": "2fe3591a5df815be04f1d53d1d172b9f", "is_disabled": 0, "rental_uris": {"android": "https://dc.lft.to/lastmile_qr_scan", "ios": "https://dc.lft.to/lastmile_qr_scan"}, "fusion_lon": 0.0, "lat": 38.887529, "bike_id": "2fe3591a5df815be04f1d53d1d172b9f", "type": "electric_scooter", "is_reserved": 0, "lon": -77.02369483333334}, {"fusion_lat": 0.0, "name": "e4723b5142311868a2b5a22707511138", "is_disabled": 0, "rental_uris": {"android": "https://dc.lft.to/lastmile_qr_scan", "ios": "https://dc.lft.to/lastmile_qr_scan"}, "fusion_lon": 0.0, "lat": 38.9491065, "bike_id": "e4723b5142311868a2b5a22707511138", "type": "electric_bike", "is_reserved": 0, "lon": -77.03803483333333}, {"fusion_lat": 0.0, "name": "607ca7a2c2b3c25b8b68e9c69aa32aee", "is_disabled": 0, "rental_uris": {"android": "https://dc.lft.to/lastmile_qr_scan", "ios": "https://dc.lft.to/lastmile_qr_scan"}, "fusion_lon": 0.0, "lat": 38.92651, "bike_id": "607ca7a2c2b3c25b8b68e9c69aa32aee", "type": "electric_scooter", "is_reserved": 0, "lon": -77.0339855}, {"fusion_lat": 0.0, "name": "4ce223a72b6a0578919f6c8c1520b368", "is_disabled": 0, "rental_uris": {"android": "https://dc.lft.to/lastmile_qr_scan", "ios": "https://dc.lft.to/lastmile_qr_scan"}, "fusion_lon": 0.0, "lat": 38.88633266666667, "bike_id": "4ce223a72b6a0578919f6c8c1520b368", "type": "electric_scooter", "is_reserved": 0, "lon": -76.92588016666667}, {"fusion_lat": 0.0, "name": "847a899dca92cbbf2e8864147fb97ab1", "is_disabled": 0, "rental_uris": {"android": "https://dc.lft.to/lastmile_qr_scan", "ios": "https://dc.lft.to/lastmile_qr_scan"}, "fusion_lon": 0.0, "lat": 38.90193516666667, "bike_id": "847a899dca92cbbf2e8864147fb97ab1", "type": "electric_scooter", "is_reserved": 0, "lon": -76.9289885}, {"fusion_lat": 0.0, "name": "34b4d89b587e1ce5d7435dec41b668a4", "is_disabled": 0, "rental_uris": {"android": "https://dc.lft.to/lastmile_qr_scan", "ios": "https://dc.lft.to/lastmile_qr_scan"}, "fusion_lon": 0.0, "lat": 38.8835345, "bike_id": "34b4d89b587e1ce5d7435dec41b668a4", "type": "electric_scooter", "is_reserved": 0, "lon": -76.99509383333333}, {"fusion_lat": 0.0, "name": "5f9d567310af5c809c3f5d7ca99da766", "is_disabled": 0, "rental_uris": {"android": "https://dc.lft.to/lastmile_qr_scan", "ios": "https://dc.lft.to/lastmile_qr_scan"}, "fusion_lon": 0.0, "lat": 38.85515766666666, "bike_id": "5f9d567310af5c809c3f5d7ca99da766", "type": "electric_bike", "is_reserved": 0, "lon": -77.105386}, {"fusion_lat": 0.0, "name": "49766e75ff11f6c77a1539f678e67cb7", "is_disabled": 0, "rental_uris": {"android": "https://dc.lft.to/lastmile_qr_scan", "ios": "https://dc.lft.to/lastmile_qr_scan"}, "fusion_lon": 0.0, "lat": 38.9197215, "bike_id": "49766e75ff11f6c77a1539f678e67cb7", "type": "electric_scooter", "is_reserved": 0, "lon": -77.0011035}, {"fusion_lat": 0.0, "name": "ef5014ef8c55ba58ac24ff8c8aa132b6", "is_disabled": 0, "rental_uris": {"android": "https://dc.lft.to/lastmile_qr_scan", "ios": "https://dc.lft.to/lastmile_qr_scan"}, "fusion_lon": 0.0, "lat": 38.92821, "bike_id": "ef5014ef8c55ba58ac24ff8c8aa132b6", "type": "electric_scooter", "is_reserved": 0, "lon": -77.05434866666667}, {"fusion_lat": 0.0, "name": "67bb5fa6c904ba992a841466a07b0887", "is_disabled": 0, "rental_uris": {"android": "https://dc.lft.to/lastmile_qr_scan", "ios": "https://dc.lft.to/lastmile_qr_scan"}, "fusion_lon": 0.0, "lat": 38.9056475, "bike_id": "67bb5fa6c904ba992a841466a07b0887", "type": "electric_scooter", "is_reserved": 0, "lon": -77.0307285}, {"fusion_lat": 0.0, "name": "25def25cfbb9dec96e23109308d0d9ab", "is_disabled": 0, "rental_uris": {"android": "https://dc.lft.to/lastmile_qr_scan", "ios": "https://dc.lft.to/lastmile_qr_scan"}, "fusion_lon": 0.0, "lat": 38.90316333333333, "bike_id": "25def25cfbb9dec96e23109308d0d9ab", "type": "electric_scooter", "is_reserved": 0, "lon": -76.977906}, {"fusion_lat": 0.0, "name": "00a30887d787e42a3f4921e66270f5f6", "is_disabled": 0, "rental_uris": {"android": "https://dc.lft.to/lastmile_qr_scan", "ios": "https://dc.lft.to/lastmile_qr_scan"}, "fusion_lon": 0.0, "lat": 38.891602166666665, "bike_id": "00a30887d787e42a3f4921e66270f5f6", "type": "electric_bike", "is_reserved": 0, "lon": -77.00466483333334}, {"fusion_lat": 0.0, "name": "60e4b912b277dc205a49f428fce0cd15", "is_disabled": 0, "rental_uris": {"android": "https://dc.lft.to/lastmile_qr_scan", "ios": "https://dc.lft.to/lastmile_qr_scan"}, "fusion_lon": 0.0, "lat": 38.887359333333336, "bike_id": "60e4b912b277dc205a49f428fce0cd15", "type": "electric_scooter", "is_reserved": 0, "lon": -77.02581716666667}, {"fusion_lat": 0.0, "name": "63e24de64aa90b1f21d6b4fcb7ce23ae", "is_disabled": 0, "rental_uris": {"android": "https://dc.lft.to/lastmile_qr_scan", "ios": "https://dc.lft.to/lastmile_qr_scan"}, "fusion_lon": 0.0, "lat": 38.93461033333333, "bike_id": "63e24de64aa90b1f21d6b4fcb7ce23ae", "type": "electric_scooter", "is_reserved": 0, "lon": -77.072691}, {"fusion_lat": 0.0, "name": "e152b3baf5408a1302dd6e6d493fd8b6", "is_disabled": 0, "rental_uris": {"android": "https://dc.lft.to/lastmile_qr_scan", "ios": "https://dc.lft.to/lastmile_qr_scan"}, "fusion_lon": 0.0, "lat": 38.945169, "bike_id": "e152b3baf5408a1302dd6e6d493fd8b6", "type": "electric_bike", "is_reserved": 0, "lon": -77.00674066666667}, {"fusion_lat": 0.0, "name": "7788dfc5bd4f3316cbbd2d41ef5991fd", "is_disabled": 0, "rental_uris": {"android": "https://dc.lft.to/lastmile_qr_scan", "ios": "https://dc.lft.to/lastmile_qr_scan"}, "fusion_lon": 0.0, "lat": 38.95734816666667, "bike_id": "7788dfc5bd4f3316cbbd2d41ef5991fd", "type": "electric_scooter", "is_reserved": 0, "lon": -77.02402383333333}, {"fusion_lat": 0.0, "name": "43ee18198f79055c32f7f66abe12e674", "is_disabled": 0, "rental_uris": {"android": "https://dc.lft.to/lastmile_qr_scan", "ios": "https://dc.lft.to/lastmile_qr_scan"}, "fusion_lon": 0.0, "lat": 38.91838, "bike_id": "43ee18198f79055c32f7f66abe12e674", "type": "electric_scooter", "is_reserved": 0, "lon": -77.02400816666666}, {"fusion_lat": 0.0, "name": "9a9ff8817723a7e1f0add4c11b4b2fe6", "is_disabled": 0, "rental_uris": {"android": "https://dc.lft.to/lastmile_qr_scan", "ios": "https://dc.lft.to/lastmile_qr_scan"}, "fusion_lon": 0.0, "lat": 38.901821166666664, "bike_id": "9a9ff8817723a7e1f0add4c11b4b2fe6", "type": "electric_scooter", "is_reserved": 0, "lon": -76.94145783333333}, {"fusion_lat": 0.0, "name": "d8c14a63977bb86e289a9bd38a2ee41c", "is_disabled": 0, "rental_uris": {"android": "https://dc.lft.to/lastmile_qr_scan", "ios": "https://dc.lft.to/lastmile_qr_scan"}, "fusion_lon": 0.0, "lat": 38.89742616666667, "bike_id": "d8c14a63977bb86e289a9bd38a2ee41c", "type": "electric_scooter", "is_reserved": 0, "lon": -77.00005416666667}, {"fusion_lat": 0.0, "name": "c03a088b22a9b1447214a62aad55171c", "is_disabled": 0, "rental_uris": {"android": "https://dc.lft.to/lastmile_qr_scan", "ios": "https://dc.lft.to/lastmile_qr_scan"}, "fusion_lon": 0.0, "lat": 38.904999, "bike_id": "c03a088b22a9b1447214a62aad55171c", "type": "electric_scooter", "is_reserved": 0, "lon": -77.03448083333333}, {"fusion_lat": 0.0, "name": "48ddcdb76bb235b810f304d0bf4100f2", "is_disabled": 0, "rental_uris": {"android": "https://dc.lft.to/lastmile_qr_scan", "ios": "https://dc.lft.to/lastmile_qr_scan"}, "fusion_lon": 0.0, "lat": 38.900342333333334, "bike_id": "48ddcdb76bb235b810f304d0bf4100f2", "type": "electric_scooter", "is_reserved": 0, "lon": -77.01185916666667}, {"fusion_lat": 0.0, "name": "1e233e6e2e970b3d165b6d0c16d60b51", "is_disabled": 0, "rental_uris": {"android": "https://dc.lft.to/lastmile_qr_scan", "ios": "https://dc.lft.to/lastmile_qr_scan"}, "fusion_lon": 0.0, "lat": 38.916464, "bike_id": "1e233e6e2e970b3d165b6d0c16d60b51", "type": "electric_scooter", "is_reserved": 0, "lon": -77.0482745}, {"fusion_lat": 0.0, "name": "b9f1b2d766d7cce6c7af6d923755edf4", "is_disabled": 0, "rental_uris": {"android": "https://dc.lft.to/lastmile_qr_scan", "ios": "https://dc.lft.to/lastmile_qr_scan"}, "fusion_lon": 0.0, "lat": 38.881331833333334, "bike_id": "b9f1b2d766d7cce6c7af6d923755edf4", "type": "electric_scooter", "is_reserved": 0, "lon": -76.992869}, {"fusion_lat": 0.0, "name": "f8816ad750b7404ce16a521a2b925664", "is_disabled": 0, "rental_uris": {"android": "https://dc.lft.to/lastmile_qr_scan", "ios": "https://dc.lft.to/lastmile_qr_scan"}, "fusion_lon": 0.0, "lat": 38.87651616666667, "bike_id": "f8816ad750b7404ce16a521a2b925664", "type": "electric_scooter", "is_reserved": 0, "lon": -77.00120483333333}, {"fusion_lat": 0.0, "name": "825566bc562e273fec90f8806aab0ea5", "is_disabled": 0, "rental_uris": {"android": "https://dc.lft.to/lastmile_qr_scan", "ios": "https://dc.lft.to/lastmile_qr_scan"}, "fusion_lon": 0.0, "lat": 38.90198483333333, "bike_id": "825566bc562e273fec90f8806aab0ea5", "type": "electric_scooter", "is_reserved": 0, "lon": -76.98842166666667}, {"fusion_lat": 0.0, "name": "2b20d7359cb41409b0c1d07472018854", "is_disabled": 0, "rental_uris": {"android": "https://dc.lft.to/lastmile_qr_scan", "ios": "https://dc.lft.to/lastmile_qr_scan"}, "fusion_lon": 0.0, "lat": 38.9203495, "bike_id": "2b20d7359cb41409b0c1d07472018854", "type": "electric_scooter", "is_reserved": 0, "lon": -77.01788583333334}, {"fusion_lat": 0.0, "name": "668f6cf40681c0edc6325a3e1b22f076", "is_disabled": 0, "rental_uris": {"android": "https://dc.lft.to/lastmile_qr_scan", "ios": "https://dc.lft.to/lastmile_qr_scan"}, "fusion_lon": 0.0, "lat": 38.84914583333333, "bike_id": "668f6cf40681c0edc6325a3e1b22f076", "type": "electric_bike", "is_reserved": 0, "lon": -77.07928066666666}, {"fusion_lat": 0.0, "name": "39ef72365f5a081f593039957576aaae", "is_disabled": 0, "rental_uris": {"android": "https://dc.lft.to/lastmile_qr_scan", "ios": "https://dc.lft.to/lastmile_qr_scan"}, "fusion_lon": 0.0, "lat": 38.931955, "bike_id": "39ef72365f5a081f593039957576aaae", "type": "electric_scooter", "is_reserved": 0, "lon": -77.02973916666667}, {"fusion_lat": 0.0, "name": "16571f58012d2a02d83b3e1945164163", "is_disabled": 0, "rental_uris": {"android": "https://dc.lft.to/lastmile_qr_scan", "ios": "https://dc.lft.to/lastmile_qr_scan"}, "fusion_lon": 0.0, "lat": 38.900621, "bike_id": "16571f58012d2a02d83b3e1945164163", "type": "electric_scooter", "is_reserved": 0, "lon": -76.98716233333333}, {"fusion_lat": 0.0, "name": "62f235426e289e9117114382efe4d398", "is_disabled": 0, "rental_uris": {"android": "https://dc.lft.to/lastmile_qr_scan", "ios": "https://dc.lft.to/lastmile_qr_scan"}, "fusion_lon": 0.0, "lat": 38.9270835, "bike_id": "62f235426e289e9117114382efe4d398", "type": "electric_scooter", "is_reserved": 0, "lon": -77.02080083333334}, {"fusion_lat": 0.0, "name": "fdee493fc619c5a15f9b4ecda7f736ec", "is_disabled": 0, "rental_uris": {"android": "https://dc.lft.to/lastmile_qr_scan", "ios": "https://dc.lft.to/lastmile_qr_scan"}, "fusion_lon": 0.0, "lat": 38.88518233333333, "bike_id": "fdee493fc619c5a15f9b4ecda7f736ec", "type": "electric_scooter", "is_reserved": 0, "lon": -76.99756066666667}, {"fusion_lat": 0.0, "name": "2af4e04d40b9a452b720dfeec9f8a313", "is_disabled": 0, "rental_uris": {"android": "https://dc.lft.to/lastmile_qr_scan", "ios": "https://dc.lft.to/lastmile_qr_scan"}, "fusion_lon": 0.0, "lat": 38.8160785, "bike_id": "2af4e04d40b9a452b720dfeec9f8a313", "type": "electric_bike", "is_reserved": 0, "lon": -76.99655616666666}, {"fusion_lat": 0.0, "name": "30f86fed1e974ad7bbd150378fbd535d", "is_disabled": 0, "rental_uris": {"android": "https://dc.lft.to/lastmile_qr_scan", "ios": "https://dc.lft.to/lastmile_qr_scan"}, "fusion_lon": 0.0, "lat": 39.014182166666664, "bike_id": "30f86fed1e974ad7bbd150378fbd535d", "type": "electric_bike", "is_reserved": 0, "lon": -77.04497233333333}, {"fusion_lat": 0.0, "name": "da28b146eb6b667271585e72dbfb809d", "is_disabled": 0, "rental_uris": {"android": "https://dc.lft.to/lastmile_qr_scan", "ios": "https://dc.lft.to/lastmile_qr_scan"}, "fusion_lon": 0.0, "lat": 38.928246, "bike_id": "da28b146eb6b667271585e72dbfb809d", "type": "electric_bike", "is_reserved": 0, "lon": -77.05422}, {"fusion_lat": 0.0, "name": "6f6044b1c949cd2fa8722b32cda51f25", "is_disabled": 0, "rental_uris": {"android": "https://dc.lft.to/lastmile_qr_scan", "ios": "https://dc.lft.to/lastmile_qr_scan"}, "fusion_lon": 0.0, "lat": 38.899149333333334, "bike_id": "6f6044b1c949cd2fa8722b32cda51f25", "type": "electric_scooter", "is_reserved": 0, "lon": -77.040704}, {"fusion_lat": 0.0, "name": "b624825b153feffd061f979f7f972759", "is_disabled": 0, "rental_uris": {"android": "https://dc.lft.to/lastmile_qr_scan", "ios": "https://dc.lft.to/lastmile_qr_scan"}, "fusion_lon": 0.0, "lat": 38.87634833333333, "bike_id": "b624825b153feffd061f979f7f972759", "type": "electric_scooter", "is_reserved": 0, "lon": -77.009478}, {"fusion_lat": 0.0, "name": "89a5f2ba1e1112133cb2455c752f2c6e", "is_disabled": 0, "rental_uris": {"android": "https://dc.lft.to/lastmile_qr_scan", "ios": "https://dc.lft.to/lastmile_qr_scan"}, "fusion_lon": 0.0, "lat": 38.91568, "bike_id": "89a5f2ba1e1112133cb2455c752f2c6e", "type": "electric_scooter", "is_reserved": 0, "lon": -77.03212766666667}, {"fusion_lat": 0.0, "name": "9826b4f9232a070436feaf83fd37484c", "is_disabled": 0, "rental_uris": {"android": "https://dc.lft.to/lastmile_qr_scan", "ios": "https://dc.lft.to/lastmile_qr_scan"}, "fusion_lon": 0.0, "lat": 38.8975325, "bike_id": "9826b4f9232a070436feaf83fd37484c", "type": "electric_scooter", "is_reserved": 0, "lon": -77.03179716666666}, {"fusion_lat": 0.0, "name": "a6fae0ed17ff8d26fcf99fc26fe00669", "is_disabled": 0, "rental_uris": {"android": "https://dc.lft.to/lastmile_qr_scan", "ios": "https://dc.lft.to/lastmile_qr_scan"}, "fusion_lon": 0.0, "lat": 38.918122333333336, "bike_id": "a6fae0ed17ff8d26fcf99fc26fe00669", "type": "electric_scooter", "is_reserved": 0, "lon": -77.03338333333333}, {"fusion_lat": 0.0, "name": "bbdfdb705de9c648093565590382a8ca", "is_disabled": 0, "rental_uris": {"android": "https://dc.lft.to/lastmile_qr_scan", "ios": "https://dc.lft.to/lastmile_qr_scan"}, "fusion_lon": 0.0, "lat": 38.91143833333334, "bike_id": "bbdfdb705de9c648093565590382a8ca", "type": "electric_scooter", "is_reserved": 0, "lon": -77.0108005}, {"fusion_lat": 0.0, "name": "8537667e8e83fbe9a6aa1cce9dd491c5", "is_disabled": 0, "rental_uris": {"android": "https://dc.lft.to/lastmile_qr_scan", "ios": "https://dc.lft.to/lastmile_qr_scan"}, "fusion_lon": 0.0, "lat": 38.94020283333333, "bike_id": "8537667e8e83fbe9a6aa1cce9dd491c5", "type": "electric_scooter", "is_reserved": 0, "lon": -77.02764533333334}, {"fusion_lat": 0.0, "name": "9c4bed1a167a16600d73425e82015834", "is_disabled": 0, "rental_uris": {"android": "https://dc.lft.to/lastmile_qr_scan", "ios": "https://dc.lft.to/lastmile_qr_scan"}, "fusion_lon": 0.0, "lat": 38.92614916666667, "bike_id": "9c4bed1a167a16600d73425e82015834", "type": "electric_scooter", "is_reserved": 0, "lon": -77.02218433333333}, {"fusion_lat": 0.0, "name": "771d1520024b5181cbdb889011cf1997", "is_disabled": 0, "rental_uris": {"android": "https://dc.lft.to/lastmile_qr_scan", "ios": "https://dc.lft.to/lastmile_qr_scan"}, "fusion_lon": 0.0, "lat": 38.919304333333336, "bike_id": "771d1520024b5181cbdb889011cf1997", "type": "electric_scooter", "is_reserved": 0, "lon": -77.02510216666667}, {"fusion_lat": 0.0, "name": "3c466e065124576d1343b192f783df08", "is_disabled": 0, "rental_uris": {"android": "https://dc.lft.to/lastmile_qr_scan", "ios": "https://dc.lft.to/lastmile_qr_scan"}, "fusion_lon": 0.0, "lat": 38.901491666666665, "bike_id": "3c466e065124576d1343b192f783df08", "type": "electric_scooter", "is_reserved": 0, "lon": -77.00913783333333}, {"fusion_lat": 0.0, "name": "367e62bb70162c6ecc6833ee40b25e1f", "is_disabled": 0, "rental_uris": {"android": "https://dc.lft.to/lastmile_qr_scan", "ios": "https://dc.lft.to/lastmile_qr_scan"}, "fusion_lon": 0.0, "lat": 38.93396516666667, "bike_id": "367e62bb70162c6ecc6833ee40b25e1f", "type": "electric_scooter", "is_reserved": 0, "lon": -77.057703}, {"fusion_lat": 0.0, "name": "3c4a07cc795a64435ef0cd8b421f3cb7", "is_disabled": 0, "rental_uris": {"android": "https://dc.lft.to/lastmile_qr_scan", "ios": "https://dc.lft.to/lastmile_qr_scan"}, "fusion_lon": 0.0, "lat": 38.915371, "bike_id": "3c4a07cc795a64435ef0cd8b421f3cb7", "type": "electric_scooter", "is_reserved": 0, "lon": -76.98235633333333}, {"fusion_lat": 0.0, "name": "5b6bac2561df96c99572e76e5f6f14c0", "is_disabled": 0, "rental_uris": {"android": "https://dc.lft.to/lastmile_qr_scan", "ios": "https://dc.lft.to/lastmile_qr_scan"}, "fusion_lon": 0.0, "lat": 38.892370166666666, "bike_id": "5b6bac2561df96c99572e76e5f6f14c0", "type": "electric_scooter", "is_reserved": 0, "lon": -77.033474}, {"fusion_lat": 0.0, "name": "c9abb104a5b2eea1597269e14e0e7d17", "is_disabled": 0, "rental_uris": {"android": "https://dc.lft.to/lastmile_qr_scan", "ios": "https://dc.lft.to/lastmile_qr_scan"}, "fusion_lon": 0.0, "lat": 38.924973666666666, "bike_id": "c9abb104a5b2eea1597269e14e0e7d17", "type": "electric_scooter", "is_reserved": 0, "lon": -77.05108483333333}, {"fusion_lat": 0.0, "name": "f1ba68ffa0589f9eea54d7e8d49808a0", "is_disabled": 0, "rental_uris": {"android": "https://dc.lft.to/lastmile_qr_scan", "ios": "https://dc.lft.to/lastmile_qr_scan"}, "fusion_lon": 0.0, "lat": 38.938166333333335, "bike_id": "f1ba68ffa0589f9eea54d7e8d49808a0", "type": "electric_scooter", "is_reserved": 0, "lon": -77.06019133333334}, {"fusion_lat": 0.0, "name": "083039620d4803caae24baacbb4d6f7a", "is_disabled": 0, "rental_uris": {"android": "https://dc.lft.to/lastmile_qr_scan", "ios": "https://dc.lft.to/lastmile_qr_scan"}, "fusion_lon": 0.0, "lat": 38.9044835, "bike_id": "083039620d4803caae24baacbb4d6f7a", "type": "electric_scooter", "is_reserved": 0, "lon": -76.97425066666666}, {"fusion_lat": 0.0, "name": "7e5356d787eff6854d6106bbb73e261d", "is_disabled": 0, "rental_uris": {"android": "https://dc.lft.to/lastmile_qr_scan", "ios": "https://dc.lft.to/lastmile_qr_scan"}, "fusion_lon": 0.0, "lat": 38.919292, "bike_id": "7e5356d787eff6854d6106bbb73e261d", "type": "electric_scooter", "is_reserved": 0, "lon": -77.02506633333333}, {"fusion_lat": 0.0, "name": "6eb9bc0c6df4615544b871f490746188", "is_disabled": 0, "rental_uris": {"android": "https://dc.lft.to/lastmile_qr_scan", "ios": "https://dc.lft.to/lastmile_qr_scan"}, "fusion_lon": 0.0, "lat": 38.9021795, "bike_id": "6eb9bc0c6df4615544b871f490746188", "type": "electric_scooter", "is_reserved": 0, "lon": -76.9950075}, {"fusion_lat": 0.0, "name": "19d6075dfd89e1b495e1a61a4cf9791d", "is_disabled": 0, "rental_uris": {"android": "https://dc.lft.to/lastmile_qr_scan", "ios": "https://dc.lft.to/lastmile_qr_scan"}, "fusion_lon": 0.0, "lat": 38.90766383333333, "bike_id": "19d6075dfd89e1b495e1a61a4cf9791d", "type": "electric_scooter", "is_reserved": 0, "lon": -77.03827116666666}, {"fusion_lat": 0.0, "name": "468769a5d057ad56ea848fa67895233a", "is_disabled": 0, "rental_uris": {"android": "https://dc.lft.to/lastmile_qr_scan", "ios": "https://dc.lft.to/lastmile_qr_scan"}, "fusion_lon": 0.0, "lat": 38.92879116666667, "bike_id": "468769a5d057ad56ea848fa67895233a", "type": "electric_scooter", "is_reserved": 0, "lon": -77.03222633333333}, {"fusion_lat": 0.0, "name": "b548eb415d2f8bf31592d3b8d770b38f", "is_disabled": 0, "rental_uris": {"android": "https://dc.lft.to/lastmile_qr_scan", "ios": "https://dc.lft.to/lastmile_qr_scan"}, "fusion_lon": 0.0, "lat": 38.9156405, "bike_id": "b548eb415d2f8bf31592d3b8d770b38f", "type": "electric_scooter", "is_reserved": 0, "lon": -77.02217383333333}, {"fusion_lat": 0.0, "name": "2b0469d7e68666a188b39a3b789e4468", "is_disabled": 0, "rental_uris": {"android": "https://dc.lft.to/lastmile_qr_scan", "ios": "https://dc.lft.to/lastmile_qr_scan"}, "fusion_lon": 0.0, "lat": 38.900322, "bike_id": "2b0469d7e68666a188b39a3b789e4468", "type": "electric_scooter", "is_reserved": 0, "lon": -76.99857683333333}, {"fusion_lat": 0.0, "name": "17c9c622ea80e92fc5c00f8dc9359fa9", "is_disabled": 0, "rental_uris": {"android": "https://dc.lft.to/lastmile_qr_scan", "ios": "https://dc.lft.to/lastmile_qr_scan"}, "fusion_lon": 0.0, "lat": 38.88660816666667, "bike_id": "17c9c622ea80e92fc5c00f8dc9359fa9", "type": "electric_scooter", "is_reserved": 0, "lon": -77.0010165}, {"fusion_lat": 0.0, "name": "70ec7e1632e4c2a190e76efe1427513b", "is_disabled": 0, "rental_uris": {"android": "https://dc.lft.to/lastmile_qr_scan", "ios": "https://dc.lft.to/lastmile_qr_scan"}, "fusion_lon": 0.0, "lat": 38.85357666666667, "bike_id": "70ec7e1632e4c2a190e76efe1427513b", "type": "electric_bike", "is_reserved": 0, "lon": -77.13462266666667}, {"fusion_lat": 0.0, "name": "83625feb960aa76e7fc09f08b14b18d6", "is_disabled": 0, "rental_uris": {"android": "https://dc.lft.to/lastmile_qr_scan", "ios": "https://dc.lft.to/lastmile_qr_scan"}, "fusion_lon": 0.0, "lat": 38.9145825, "bike_id": "83625feb960aa76e7fc09f08b14b18d6", "type": "electric_scooter", "is_reserved": 0, "lon": -77.00214566666666}, {"fusion_lat": 0.0, "name": "faab9f676d6945d4f18f6802b1c3c815", "is_disabled": 0, "rental_uris": {"android": "https://dc.lft.to/lastmile_qr_scan", "ios": "https://dc.lft.to/lastmile_qr_scan"}, "fusion_lon": 0.0, "lat": 38.90979883333333, "bike_id": "faab9f676d6945d4f18f6802b1c3c815", "type": "electric_scooter", "is_reserved": 0, "lon": -77.03386083333334}, {"fusion_lat": 0.0, "name": "b7ecea3029bad337b98d7a563c76470e", "is_disabled": 0, "rental_uris": {"android": "https://dc.lft.to/lastmile_qr_scan", "ios": "https://dc.lft.to/lastmile_qr_scan"}, "fusion_lon": 0.0, "lat": 38.89637533333333, "bike_id": "b7ecea3029bad337b98d7a563c76470e", "type": "electric_scooter", "is_reserved": 0, "lon": -77.0322465}, {"fusion_lat": 0.0, "name": "25a8acf2dd56128e74f824079e773ea2", "is_disabled": 0, "rental_uris": {"android": "https://dc.lft.to/lastmile_qr_scan", "ios": "https://dc.lft.to/lastmile_qr_scan"}, "fusion_lon": 0.0, "lat": 38.89744016666667, "bike_id": "25a8acf2dd56128e74f824079e773ea2", "type": "electric_scooter", "is_reserved": 0, "lon": -77.00439033333333}, {"fusion_lat": 0.0, "name": "b6146d14d25f361d79a1cdb5c51ef7d2", "is_disabled": 0, "rental_uris": {"android": "https://dc.lft.to/lastmile_qr_scan", "ios": "https://dc.lft.to/lastmile_qr_scan"}, "fusion_lon": 0.0, "lat": 38.8643525, "bike_id": "b6146d14d25f361d79a1cdb5c51ef7d2", "type": "electric_scooter", "is_reserved": 0, "lon": -76.97394833333334}, {"fusion_lat": 0.0, "name": "75598e080783a6ca31cb0534930dbda4", "is_disabled": 0, "rental_uris": {"android": "https://dc.lft.to/lastmile_qr_scan", "ios": "https://dc.lft.to/lastmile_qr_scan"}, "fusion_lon": 0.0, "lat": 38.89794783333333, "bike_id": "75598e080783a6ca31cb0534930dbda4", "type": "electric_scooter", "is_reserved": 0, "lon": -76.93116266666667}, {"fusion_lat": 0.0, "name": "1b6682a1bf293c7741ee350bec40f359", "is_disabled": 0, "rental_uris": {"android": "https://dc.lft.to/lastmile_qr_scan", "ios": "https://dc.lft.to/lastmile_qr_scan"}, "fusion_lon": 0.0, "lat": 38.91818133333334, "bike_id": "1b6682a1bf293c7741ee350bec40f359", "type": "electric_scooter", "is_reserved": 0, "lon": -77.0253475}, {"fusion_lat": 0.0, "name": "dbe7349502a6bc8f4b8dad1bdecfbf30", "is_disabled": 0, "rental_uris": {"android": "https://dc.lft.to/lastmile_qr_scan", "ios": "https://dc.lft.to/lastmile_qr_scan"}, "fusion_lon": 0.0, "lat": 38.93221166666667, "bike_id": "dbe7349502a6bc8f4b8dad1bdecfbf30", "type": "electric_scooter", "is_reserved": 0, "lon": -77.03344}, {"fusion_lat": 0.0, "name": "822480f25558e227f9cae2439924522c", "is_disabled": 0, "rental_uris": {"android": "https://dc.lft.to/lastmile_qr_scan", "ios": "https://dc.lft.to/lastmile_qr_scan"}, "fusion_lon": 0.0, "lat": 38.862452166666664, "bike_id": "822480f25558e227f9cae2439924522c", "type": "electric_scooter", "is_reserved": 0, "lon": -76.994965}, {"fusion_lat": 0.0, "name": "39a9721c539f9fab3ce1ab66cb087f0d", "is_disabled": 0, "rental_uris": {"android": "https://dc.lft.to/lastmile_qr_scan", "ios": "https://dc.lft.to/lastmile_qr_scan"}, "fusion_lon": 0.0, "lat": 38.901630833333336, "bike_id": "39a9721c539f9fab3ce1ab66cb087f0d", "type": "electric_scooter", "is_reserved": 0, "lon": -77.016098}, {"fusion_lat": 0.0, "name": "e91a912bf8c42839d6476f1bd1ca95f5", "is_disabled": 0, "rental_uris": {"android": "https://dc.lft.to/lastmile_qr_scan", "ios": "https://dc.lft.to/lastmile_qr_scan"}, "fusion_lon": 0.0, "lat": 38.91664083333333, "bike_id": "e91a912bf8c42839d6476f1bd1ca95f5", "type": "electric_scooter", "is_reserved": 0, "lon": -77.0281385}, {"fusion_lat": 0.0, "name": "88f3b51d6609bd78efd67f2d7a2061c0", "is_disabled": 0, "rental_uris": {"android": "https://dc.lft.to/lastmile_qr_scan", "ios": "https://dc.lft.to/lastmile_qr_scan"}, "fusion_lon": 0.0, "lat": 38.87883866666667, "bike_id": "88f3b51d6609bd78efd67f2d7a2061c0", "type": "electric_scooter", "is_reserved": 0, "lon": -77.02229916666667}, {"fusion_lat": 0.0, "name": "ecdae2518a1f2cd553a5a55371e9c52b", "is_disabled": 0, "rental_uris": {"android": "https://dc.lft.to/lastmile_qr_scan", "ios": "https://dc.lft.to/lastmile_qr_scan"}, "fusion_lon": 0.0, "lat": 38.94120233333334, "bike_id": "ecdae2518a1f2cd553a5a55371e9c52b", "type": "electric_scooter", "is_reserved": 0, "lon": -77.0254245}, {"fusion_lat": 0.0, "name": "012af117e1b2d863600760dc4177c3c1", "is_disabled": 0, "rental_uris": {"android": "https://dc.lft.to/lastmile_qr_scan", "ios": "https://dc.lft.to/lastmile_qr_scan"}, "fusion_lon": 0.0, "lat": 38.896142833333336, "bike_id": "012af117e1b2d863600760dc4177c3c1", "type": "electric_bike", "is_reserved": 0, "lon": -76.9074095}, {"fusion_lat": 0.0, "name": "c6d061b1f750074125283abd57d2553d", "is_disabled": 0, "rental_uris": {"android": "https://dc.lft.to/lastmile_qr_scan", "ios": "https://dc.lft.to/lastmile_qr_scan"}, "fusion_lon": 0.0, "lat": 38.924128833333334, "bike_id": "c6d061b1f750074125283abd57d2553d", "type": "electric_scooter", "is_reserved": 0, "lon": -77.04454883333334}, {"fusion_lat": 0.0, "name": "e217dad4c64fb9bd66c353b33a60ac19", "is_disabled": 0, "rental_uris": {"android": "https://dc.lft.to/lastmile_qr_scan", "ios": "https://dc.lft.to/lastmile_qr_scan"}, "fusion_lon": 0.0, "lat": 38.9233825, "bike_id": "e217dad4c64fb9bd66c353b33a60ac19", "type": "electric_scooter", "is_reserved": 0, "lon": -77.0529855}, {"fusion_lat": 0.0, "name": "3ab4639138902c574cefb63851bb0d99", "is_disabled": 0, "rental_uris": {"android": "https://dc.lft.to/lastmile_qr_scan", "ios": "https://dc.lft.to/lastmile_qr_scan"}, "fusion_lon": 0.0, "lat": 38.9270295, "bike_id": "3ab4639138902c574cefb63851bb0d99", "type": "electric_scooter", "is_reserved": 0, "lon": -77.0146445}, {"fusion_lat": 0.0, "name": "a05ee5336aeaa1635762861b51e0a947", "is_disabled": 0, "rental_uris": {"android": "https://dc.lft.to/lastmile_qr_scan", "ios": "https://dc.lft.to/lastmile_qr_scan"}, "fusion_lon": 0.0, "lat": 38.931454, "bike_id": "a05ee5336aeaa1635762861b51e0a947", "type": "electric_scooter", "is_reserved": 0, "lon": -77.02987166666666}, {"fusion_lat": 0.0, "name": "03bb51b80c3a33ef3e58eb1a3ae02d3f", "is_disabled": 0, "rental_uris": {"android": "https://dc.lft.to/lastmile_qr_scan", "ios": "https://dc.lft.to/lastmile_qr_scan"}, "fusion_lon": 0.0, "lat": 38.89854283333333, "bike_id": "03bb51b80c3a33ef3e58eb1a3ae02d3f", "type": "electric_scooter", "is_reserved": 0, "lon": -77.041624}, {"fusion_lat": 0.0, "name": "a4a6c932698785fa34d40f72e5abec2e", "is_disabled": 0, "rental_uris": {"android": "https://dc.lft.to/lastmile_qr_scan", "ios": "https://dc.lft.to/lastmile_qr_scan"}, "fusion_lon": 0.0, "lat": 38.927443833333335, "bike_id": "a4a6c932698785fa34d40f72e5abec2e", "type": "electric_scooter", "is_reserved": 0, "lon": -77.02525866666667}, {"fusion_lat": 0.0, "name": "2003d5bbdaccc4a985f836f1f5576bb9", "is_disabled": 0, "rental_uris": {"android": "https://dc.lft.to/lastmile_qr_scan", "ios": "https://dc.lft.to/lastmile_qr_scan"}, "fusion_lon": 0.0, "lat": 38.931139, "bike_id": "2003d5bbdaccc4a985f836f1f5576bb9", "type": "electric_scooter", "is_reserved": 0, "lon": -77.03031066666667}, {"fusion_lat": 0.0, "name": "0cb2ef2802d1356dfc70489d59c6e0cd", "is_disabled": 0, "rental_uris": {"android": "https://dc.lft.to/lastmile_qr_scan", "ios": "https://dc.lft.to/lastmile_qr_scan"}, "fusion_lon": 0.0, "lat": 38.90375483333333, "bike_id": "0cb2ef2802d1356dfc70489d59c6e0cd", "type": "electric_scooter", "is_reserved": 0, "lon": -77.0018875}, {"fusion_lat": 0.0, "name": "7a48bed15d7124ce047b6f7c9898e7cb", "is_disabled": 0, "rental_uris": {"android": "https://dc.lft.to/lastmile_qr_scan", "ios": "https://dc.lft.to/lastmile_qr_scan"}, "fusion_lon": 0.0, "lat": 38.88413416666667, "bike_id": "7a48bed15d7124ce047b6f7c9898e7cb", "type": "electric_scooter", "is_reserved": 0, "lon": -76.985889}, {"fusion_lat": 0.0, "name": "8482e45eea860042538b716dbd1dc0ea", "is_disabled": 0, "rental_uris": {"android": "https://dc.lft.to/lastmile_qr_scan", "ios": "https://dc.lft.to/lastmile_qr_scan"}, "fusion_lon": 0.0, "lat": 38.87459166666667, "bike_id": "8482e45eea860042538b716dbd1dc0ea", "type": "electric_scooter", "is_reserved": 0, "lon": -77.00964183333333}, {"fusion_lat": 0.0, "name": "95f2a477bdb0b9394b9f980aaff2c109", "is_disabled": 0, "rental_uris": {"android": "https://dc.lft.to/lastmile_qr_scan", "ios": "https://dc.lft.to/lastmile_qr_scan"}, "fusion_lon": 0.0, "lat": 38.897446333333335, "bike_id": "95f2a477bdb0b9394b9f980aaff2c109", "type": "electric_scooter", "is_reserved": 0, "lon": -77.031962}, {"fusion_lat": 0.0, "name": "135c90d7628af8d0529817ee18388945", "is_disabled": 0, "rental_uris": {"android": "https://dc.lft.to/lastmile_qr_scan", "ios": "https://dc.lft.to/lastmile_qr_scan"}, "fusion_lon": 0.0, "lat": 38.92657833333333, "bike_id": "135c90d7628af8d0529817ee18388945", "type": "electric_scooter", "is_reserved": 0, "lon": -77.0372075}, {"fusion_lat": 0.0, "name": "d988e620fc5ccb6142b907ef9ad63e0b", "is_disabled": 0, "rental_uris": {"android": "https://dc.lft.to/lastmile_qr_scan", "ios": "https://dc.lft.to/lastmile_qr_scan"}, "fusion_lon": 0.0, "lat": 38.8987545, "bike_id": "d988e620fc5ccb6142b907ef9ad63e0b", "type": "electric_scooter", "is_reserved": 0, "lon": -76.931817}, {"fusion_lat": 0.0, "name": "1e205e17692355f9b746849c86f377fb", "is_disabled": 0, "rental_uris": {"android": "https://dc.lft.to/lastmile_qr_scan", "ios": "https://dc.lft.to/lastmile_qr_scan"}, "fusion_lon": 0.0, "lat": 38.8785265, "bike_id": "1e205e17692355f9b746849c86f377fb", "type": "electric_scooter", "is_reserved": 0, "lon": -77.01307383333334}, {"fusion_lat": 0.0, "name": "17cdc716243b17b4879d4087eb085cc1", "is_disabled": 0, "rental_uris": {"android": "https://dc.lft.to/lastmile_qr_scan", "ios": "https://dc.lft.to/lastmile_qr_scan"}, "fusion_lon": 0.0, "lat": 38.88081366666667, "bike_id": "17cdc716243b17b4879d4087eb085cc1", "type": "electric_scooter", "is_reserved": 0, "lon": -76.985318}, {"fusion_lat": 0.0, "name": "7816bc5ac50598eda00110604323efe9", "is_disabled": 0, "rental_uris": {"android": "https://dc.lft.to/lastmile_qr_scan", "ios": "https://dc.lft.to/lastmile_qr_scan"}, "fusion_lon": 0.0, "lat": 38.89138883333333, "bike_id": "7816bc5ac50598eda00110604323efe9", "type": "electric_scooter", "is_reserved": 0, "lon": -76.98371966666667}, {"fusion_lat": 0.0, "name": "a51aff4634742cb8d09910519ceb2cbc", "is_disabled": 0, "rental_uris": {"android": "https://dc.lft.to/lastmile_qr_scan", "ios": "https://dc.lft.to/lastmile_qr_scan"}, "fusion_lon": 0.0, "lat": 38.88231433333333, "bike_id": "a51aff4634742cb8d09910519ceb2cbc", "type": "electric_scooter", "is_reserved": 0, "lon": -77.02615883333333}, {"fusion_lat": 0.0, "name": "39fecabeb51bb619293c85f64c643088", "is_disabled": 0, "rental_uris": {"android": "https://dc.lft.to/lastmile_qr_scan", "ios": "https://dc.lft.to/lastmile_qr_scan"}, "fusion_lon": 0.0, "lat": 38.8852445, "bike_id": "39fecabeb51bb619293c85f64c643088", "type": "electric_scooter", "is_reserved": 0, "lon": -77.01531033333333}, {"fusion_lat": 0.0, "name": "f55ad8739bfbbd44821cf0f4c560fe3e", "is_disabled": 0, "rental_uris": {"android": "https://dc.lft.to/lastmile_qr_scan", "ios": "https://dc.lft.to/lastmile_qr_scan"}, "fusion_lon": 0.0, "lat": 38.985088166666664, "bike_id": "f55ad8739bfbbd44821cf0f4c560fe3e", "type": "electric_bike", "is_reserved": 0, "lon": -76.98202916666666}, {"fusion_lat": 0.0, "name": "d112cfc5644466a43f29dcce027d0309", "is_disabled": 0, "rental_uris": {"android": "https://dc.lft.to/lastmile_qr_scan", "ios": "https://dc.lft.to/lastmile_qr_scan"}, "fusion_lon": 0.0, "lat": 38.86063, "bike_id": "d112cfc5644466a43f29dcce027d0309", "type": "electric_scooter", "is_reserved": 0, "lon": -76.98497183333333}, {"fusion_lat": 0.0, "name": "7b2208825e06055022a1a29e5b51f231", "is_disabled": 0, "rental_uris": {"android": "https://dc.lft.to/lastmile_qr_scan", "ios": "https://dc.lft.to/lastmile_qr_scan"}, "fusion_lon": 0.0, "lat": 38.91430833333333, "bike_id": "7b2208825e06055022a1a29e5b51f231", "type": "electric_scooter", "is_reserved": 0, "lon": -77.06409066666667}, {"fusion_lat": 0.0, "name": "a681513b5b26a74398a9a1c1ca9a2100", "is_disabled": 0, "rental_uris": {"android": "https://dc.lft.to/lastmile_qr_scan", "ios": "https://dc.lft.to/lastmile_qr_scan"}, "fusion_lon": 0.0, "lat": 38.89646066666667, "bike_id": "a681513b5b26a74398a9a1c1ca9a2100", "type": "electric_scooter", "is_reserved": 0, "lon": -76.9995225}, {"fusion_lat": 0.0, "name": "c7444622271bbe41546f7006dd389886", "is_disabled": 0, "rental_uris": {"android": "https://dc.lft.to/lastmile_qr_scan", "ios": "https://dc.lft.to/lastmile_qr_scan"}, "fusion_lon": 0.0, "lat": 38.920791666666666, "bike_id": "c7444622271bbe41546f7006dd389886", "type": "electric_bike", "is_reserved": 0, "lon": -76.98944166666666}, {"fusion_lat": 0.0, "name": "bcd24776490951fbb85841ee54f4bc84", "is_disabled": 0, "rental_uris": {"android": "https://dc.lft.to/lastmile_qr_scan", "ios": "https://dc.lft.to/lastmile_qr_scan"}, "fusion_lon": 0.0, "lat": 38.91711383333333, "bike_id": "bcd24776490951fbb85841ee54f4bc84", "type": "electric_scooter", "is_reserved": 0, "lon": -77.01201883333333}, {"fusion_lat": 0.0, "name": "d9a401a496ebbbc7138c06d13375fffc", "is_disabled": 0, "rental_uris": {"android": "https://dc.lft.to/lastmile_qr_scan", "ios": "https://dc.lft.to/lastmile_qr_scan"}, "fusion_lon": 0.0, "lat": 38.90825366666667, "bike_id": "d9a401a496ebbbc7138c06d13375fffc", "type": "electric_scooter", "is_reserved": 0, "lon": -77.054886}, {"fusion_lat": 0.0, "name": "bf4131c74b50d7c924b68eb98f2e5e70", "is_disabled": 0, "rental_uris": {"android": "https://dc.lft.to/lastmile_qr_scan", "ios": "https://dc.lft.to/lastmile_qr_scan"}, "fusion_lon": 0.0, "lat": 38.961168, "bike_id": "bf4131c74b50d7c924b68eb98f2e5e70", "type": "electric_scooter", "is_reserved": 0, "lon": -77.02861533333333}, {"fusion_lat": 0.0, "name": "c1d059647aa5ac99ab6da6be2bfa7ba9", "is_disabled": 0, "rental_uris": {"android": "https://dc.lft.to/lastmile_qr_scan", "ios": "https://dc.lft.to/lastmile_qr_scan"}, "fusion_lon": 0.0, "lat": 38.918101666666665, "bike_id": "c1d059647aa5ac99ab6da6be2bfa7ba9", "type": "electric_scooter", "is_reserved": 0, "lon": -76.9997835}, {"fusion_lat": 0.0, "name": "336e2878fddc8952b88d3b6ba8b44e7b", "is_disabled": 0, "rental_uris": {"android": "https://dc.lft.to/lastmile_qr_scan", "ios": "https://dc.lft.to/lastmile_qr_scan"}, "fusion_lon": 0.0, "lat": 38.951158166666666, "bike_id": "336e2878fddc8952b88d3b6ba8b44e7b", "type": "electric_scooter", "is_reserved": 0, "lon": -77.01361233333333}, {"fusion_lat": 0.0, "name": "4a68594e32c0d3545a79a791a2f68aef", "is_disabled": 0, "rental_uris": {"android": "https://dc.lft.to/lastmile_qr_scan", "ios": "https://dc.lft.to/lastmile_qr_scan"}, "fusion_lon": 0.0, "lat": 38.946474333333335, "bike_id": "4a68594e32c0d3545a79a791a2f68aef", "type": "electric_bike", "is_reserved": 0, "lon": -77.0305425}, {"fusion_lat": 0.0, "name": "4d24fa9b85382c5eec21ffe8b86647c4", "is_disabled": 0, "rental_uris": {"android": "https://dc.lft.to/lastmile_qr_scan", "ios": "https://dc.lft.to/lastmile_qr_scan"}, "fusion_lon": 0.0, "lat": 38.936733333333336, "bike_id": "4d24fa9b85382c5eec21ffe8b86647c4", "type": "electric_scooter", "is_reserved": 0, "lon": -77.03590783333334}, {"fusion_lat": 0.0, "name": "921a027c1b6e3558bfb42a1cdc2f43e2", "is_disabled": 0, "rental_uris": {"android": "https://dc.lft.to/lastmile_qr_scan", "ios": "https://dc.lft.to/lastmile_qr_scan"}, "fusion_lon": 0.0, "lat": 38.97484016666667, "bike_id": "921a027c1b6e3558bfb42a1cdc2f43e2", "type": "electric_scooter", "is_reserved": 0, "lon": -77.0167485}, {"fusion_lat": 0.0, "name": "4456103f47f2aff75bc5c9d71ab681c4", "is_disabled": 0, "rental_uris": {"android": "https://dc.lft.to/lastmile_qr_scan", "ios": "https://dc.lft.to/lastmile_qr_scan"}, "fusion_lon": 0.0, "lat": 38.917730666666664, "bike_id": "4456103f47f2aff75bc5c9d71ab681c4", "type": "electric_scooter", "is_reserved": 0, "lon": -77.01919616666666}, {"fusion_lat": 0.0, "name": "6278523e738d270d8ab5708055c4858c", "is_disabled": 0, "rental_uris": {"android": "https://dc.lft.to/lastmile_qr_scan", "ios": "https://dc.lft.to/lastmile_qr_scan"}, "fusion_lon": 0.0, "lat": 38.94702083333333, "bike_id": "6278523e738d270d8ab5708055c4858c", "type": "electric_scooter", "is_reserved": 0, "lon": -77.01941683333334}, {"fusion_lat": 0.0, "name": "9fabb2bc6c24da55900bafdb9cfacad3", "is_disabled": 0, "rental_uris": {"android": "https://dc.lft.to/lastmile_qr_scan", "ios": "https://dc.lft.to/lastmile_qr_scan"}, "fusion_lon": 0.0, "lat": 38.885155, "bike_id": "9fabb2bc6c24da55900bafdb9cfacad3", "type": "electric_scooter", "is_reserved": 0, "lon": -76.92958033333333}, {"fusion_lat": 0.0, "name": "155c15f7f3e3f70204f6473bb518a5de", "is_disabled": 0, "rental_uris": {"android": "https://dc.lft.to/lastmile_qr_scan", "ios": "https://dc.lft.to/lastmile_qr_scan"}, "fusion_lon": 0.0, "lat": 38.9360255, "bike_id": "155c15f7f3e3f70204f6473bb518a5de", "type": "electric_scooter", "is_reserved": 0, "lon": -77.037292}, {"fusion_lat": 0.0, "name": "264294cbc9d93873e1db970c00b05fa2", "is_disabled": 0, "rental_uris": {"android": "https://dc.lft.to/lastmile_qr_scan", "ios": "https://dc.lft.to/lastmile_qr_scan"}, "fusion_lon": 0.0, "lat": 38.88455666666667, "bike_id": "264294cbc9d93873e1db970c00b05fa2", "type": "electric_scooter", "is_reserved": 0, "lon": -76.9982705}, {"fusion_lat": 0.0, "name": "387ab73c3312308a8b9b002d6fab2ca9", "is_disabled": 0, "rental_uris": {"android": "https://dc.lft.to/lastmile_qr_scan", "ios": "https://dc.lft.to/lastmile_qr_scan"}, "fusion_lon": 0.0, "lat": 38.911284333333334, "bike_id": "387ab73c3312308a8b9b002d6fab2ca9", "type": "electric_scooter", "is_reserved": 0, "lon": -77.02085883333334}, {"fusion_lat": 0.0, "name": "644aa3f98a26371238fd449bfdeaea03", "is_disabled": 0, "rental_uris": {"android": "https://dc.lft.to/lastmile_qr_scan", "ios": "https://dc.lft.to/lastmile_qr_scan"}, "fusion_lon": 0.0, "lat": 38.937800833333334, "bike_id": "644aa3f98a26371238fd449bfdeaea03", "type": "electric_scooter", "is_reserved": 0, "lon": -77.02459116666667}, {"fusion_lat": 0.0, "name": "e4c78a201f25515d4479cfba1d8ec35a", "is_disabled": 0, "rental_uris": {"android": "https://dc.lft.to/lastmile_qr_scan", "ios": "https://dc.lft.to/lastmile_qr_scan"}, "fusion_lon": 0.0, "lat": 38.919186, "bike_id": "e4c78a201f25515d4479cfba1d8ec35a", "type": "electric_scooter", "is_reserved": 0, "lon": -77.0331465}, {"fusion_lat": 0.0, "name": "7bef22f38d9a3dd1f08af85dc583df00", "is_disabled": 0, "rental_uris": {"android": "https://dc.lft.to/lastmile_qr_scan", "ios": "https://dc.lft.to/lastmile_qr_scan"}, "fusion_lon": 0.0, "lat": 38.933028666666665, "bike_id": "7bef22f38d9a3dd1f08af85dc583df00", "type": "electric_scooter", "is_reserved": 0, "lon": -77.02466483333333}, {"fusion_lat": 0.0, "name": "c81b5cb7253a2139038637f6efecbd28", "is_disabled": 0, "rental_uris": {"android": "https://dc.lft.to/lastmile_qr_scan", "ios": "https://dc.lft.to/lastmile_qr_scan"}, "fusion_lon": 0.0, "lat": 38.93187233333333, "bike_id": "c81b5cb7253a2139038637f6efecbd28", "type": "electric_scooter", "is_reserved": 0, "lon": -77.04291933333333}, {"fusion_lat": 0.0, "name": "bd11f19ce36ca8efd82a22515ffd1dc5", "is_disabled": 0, "rental_uris": {"android": "https://dc.lft.to/lastmile_qr_scan", "ios": "https://dc.lft.to/lastmile_qr_scan"}, "fusion_lon": 0.0, "lat": 38.920852833333335, "bike_id": "bd11f19ce36ca8efd82a22515ffd1dc5", "type": "electric_scooter", "is_reserved": 0, "lon": -77.00461633333333}, {"fusion_lat": 0.0, "name": "5e6d41661bce6a96a8174ba005b3fb91", "is_disabled": 0, "rental_uris": {"android": "https://dc.lft.to/lastmile_qr_scan", "ios": "https://dc.lft.to/lastmile_qr_scan"}, "fusion_lon": 0.0, "lat": 38.842816666666664, "bike_id": "5e6d41661bce6a96a8174ba005b3fb91", "type": "electric_bike", "is_reserved": 0, "lon": -77.04493683333334}, {"fusion_lat": 0.0, "name": "c753af73057a0d6c8bce19b76891d85b", "is_disabled": 0, "rental_uris": {"android": "https://dc.lft.to/lastmile_qr_scan", "ios": "https://dc.lft.to/lastmile_qr_scan"}, "fusion_lon": 0.0, "lat": 38.900026833333335, "bike_id": "c753af73057a0d6c8bce19b76891d85b", "type": "electric_scooter", "is_reserved": 0, "lon": -76.931564}, {"fusion_lat": 0.0, "name": "97ef323b5e53abd12a20611ae0b0277f", "is_disabled": 0, "rental_uris": {"android": "https://dc.lft.to/lastmile_qr_scan", "ios": "https://dc.lft.to/lastmile_qr_scan"}, "fusion_lon": 0.0, "lat": 38.8973805, "bike_id": "97ef323b5e53abd12a20611ae0b0277f", "type": "electric_scooter", "is_reserved": 0, "lon": -77.043473}, {"fusion_lat": 0.0, "name": "9ac5ddd4d8a1c87e8ccf771b0409ef50", "is_disabled": 0, "rental_uris": {"android": "https://dc.lft.to/lastmile_qr_scan", "ios": "https://dc.lft.to/lastmile_qr_scan"}, "fusion_lon": 0.0, "lat": 38.9352925, "bike_id": "9ac5ddd4d8a1c87e8ccf771b0409ef50", "type": "electric_scooter", "is_reserved": 0, "lon": -77.0365}, {"fusion_lat": 0.0, "name": "c385a85f775b96b71227763fe2afcdb7", "is_disabled": 0, "rental_uris": {"android": "https://dc.lft.to/lastmile_qr_scan", "ios": "https://dc.lft.to/lastmile_qr_scan"}, "fusion_lon": 0.0, "lat": 38.928305, "bike_id": "c385a85f775b96b71227763fe2afcdb7", "type": "electric_scooter", "is_reserved": 0, "lon": -77.03263116666666}, {"fusion_lat": 0.0, "name": "047d143c663e647dd82bc3009d85d27d", "is_disabled": 0, "rental_uris": {"android": "https://dc.lft.to/lastmile_qr_scan", "ios": "https://dc.lft.to/lastmile_qr_scan"}, "fusion_lon": 0.0, "lat": 38.89983866666667, "bike_id": "047d143c663e647dd82bc3009d85d27d", "type": "electric_scooter", "is_reserved": 0, "lon": -77.00642283333333}, {"fusion_lat": 0.0, "name": "d2d65dc6eef70f3f9020208335f0d846", "is_disabled": 0, "rental_uris": {"android": "https://dc.lft.to/lastmile_qr_scan", "ios": "https://dc.lft.to/lastmile_qr_scan"}, "fusion_lon": 0.0, "lat": 38.934657333333334, "bike_id": "d2d65dc6eef70f3f9020208335f0d846", "type": "electric_scooter", "is_reserved": 0, "lon": -77.04124166666666}, {"fusion_lat": 0.0, "name": "bebbb77b07dda67b3231f3106fdfa457", "is_disabled": 0, "rental_uris": {"android": "https://dc.lft.to/lastmile_qr_scan", "ios": "https://dc.lft.to/lastmile_qr_scan"}, "fusion_lon": 0.0, "lat": 38.91041533333333, "bike_id": "bebbb77b07dda67b3231f3106fdfa457", "type": "electric_scooter", "is_reserved": 0, "lon": -77.03435083333333}, {"fusion_lat": 0.0, "name": "c9a6501f640e5f239f86a4afa9397a55", "is_disabled": 0, "rental_uris": {"android": "https://dc.lft.to/lastmile_qr_scan", "ios": "https://dc.lft.to/lastmile_qr_scan"}, "fusion_lon": 0.0, "lat": 38.86679016666667, "bike_id": "c9a6501f640e5f239f86a4afa9397a55", "type": "electric_scooter", "is_reserved": 0, "lon": -76.98557833333334}, {"fusion_lat": 0.0, "name": "922506edd57e90a59703d8fcfc98a0e5", "is_disabled": 0, "rental_uris": {"android": "https://dc.lft.to/lastmile_qr_scan", "ios": "https://dc.lft.to/lastmile_qr_scan"}, "fusion_lon": 0.0, "lat": 38.884888, "bike_id": "922506edd57e90a59703d8fcfc98a0e5", "type": "electric_scooter", "is_reserved": 0, "lon": -77.00707833333334}, {"fusion_lat": 0.0, "name": "50dcccd69f81c5d2965889142015ae89", "is_disabled": 0, "rental_uris": {"android": "https://dc.lft.to/lastmile_qr_scan", "ios": "https://dc.lft.to/lastmile_qr_scan"}, "fusion_lon": 0.0, "lat": 38.92247966666667, "bike_id": "50dcccd69f81c5d2965889142015ae89", "type": "electric_scooter", "is_reserved": 0, "lon": -77.0419505}, {"fusion_lat": 0.0, "name": "b2109d68d7ac74b59651badf8e5405ec", "is_disabled": 0, "rental_uris": {"android": "https://dc.lft.to/lastmile_qr_scan", "ios": "https://dc.lft.to/lastmile_qr_scan"}, "fusion_lon": 0.0, "lat": 38.91707516666666, "bike_id": "b2109d68d7ac74b59651badf8e5405ec", "type": "electric_scooter", "is_reserved": 0, "lon": -77.04145816666667}, {"fusion_lat": 0.0, "name": "c1ce4aa4c011c3f9b990e7a94907b92c", "is_disabled": 0, "rental_uris": {"android": "https://dc.lft.to/lastmile_qr_scan", "ios": "https://dc.lft.to/lastmile_qr_scan"}, "fusion_lon": 0.0, "lat": 38.932443, "bike_id": "c1ce4aa4c011c3f9b990e7a94907b92c", "type": "electric_scooter", "is_reserved": 0, "lon": -77.034248}, {"fusion_lat": 0.0, "name": "e760f6c0a39d585f72a991ca6af065ef", "is_disabled": 0, "rental_uris": {"android": "https://dc.lft.to/lastmile_qr_scan", "ios": "https://dc.lft.to/lastmile_qr_scan"}, "fusion_lon": 0.0, "lat": 38.798623, "bike_id": "e760f6c0a39d585f72a991ca6af065ef", "type": "electric_bike", "is_reserved": 0, "lon": -77.06307666666666}, {"fusion_lat": 0.0, "name": "ae5ed79b777e9604137ea65b425270f7", "is_disabled": 0, "rental_uris": {"android": "https://dc.lft.to/lastmile_qr_scan", "ios": "https://dc.lft.to/lastmile_qr_scan"}, "fusion_lon": 0.0, "lat": 38.94753583333333, "bike_id": "ae5ed79b777e9604137ea65b425270f7", "type": "electric_scooter", "is_reserved": 0, "lon": -77.0071155}, {"fusion_lat": 0.0, "name": "734e3b8619fab0c1efdf260710a7738e", "is_disabled": 0, "rental_uris": {"android": "https://dc.lft.to/lastmile_qr_scan", "ios": "https://dc.lft.to/lastmile_qr_scan"}, "fusion_lon": 0.0, "lat": 38.898611333333335, "bike_id": "734e3b8619fab0c1efdf260710a7738e", "type": "electric_scooter", "is_reserved": 0, "lon": -76.9766915}, {"fusion_lat": 0.0, "name": "a86bbd87866051dc70b7df5aa4317158", "is_disabled": 0, "rental_uris": {"android": "https://dc.lft.to/lastmile_qr_scan", "ios": "https://dc.lft.to/lastmile_qr_scan"}, "fusion_lon": 0.0, "lat": 38.88213116666667, "bike_id": "a86bbd87866051dc70b7df5aa4317158", "type": "electric_scooter", "is_reserved": 0, "lon": -77.02860816666667}, {"fusion_lat": 0.0, "name": "78fad235b0ceab3003898ec971bfc1f3", "is_disabled": 0, "rental_uris": {"android": "https://dc.lft.to/lastmile_qr_scan", "ios": "https://dc.lft.to/lastmile_qr_scan"}, "fusion_lon": 0.0, "lat": 38.897410666666666, "bike_id": "78fad235b0ceab3003898ec971bfc1f3", "type": "electric_scooter", "is_reserved": 0, "lon": -77.04956816666666}, {"fusion_lat": 0.0, "name": "ba7fb8c553ac31dfb71d861a5f0c5246", "is_disabled": 0, "rental_uris": {"android": "https://dc.lft.to/lastmile_qr_scan", "ios": "https://dc.lft.to/lastmile_qr_scan"}, "fusion_lon": 0.0, "lat": 38.879833833333336, "bike_id": "ba7fb8c553ac31dfb71d861a5f0c5246", "type": "electric_scooter", "is_reserved": 0, "lon": -77.02404316666667}, {"fusion_lat": 0.0, "name": "a533524ea28deae8d49ce49f82302724", "is_disabled": 0, "rental_uris": {"android": "https://dc.lft.to/lastmile_qr_scan", "ios": "https://dc.lft.to/lastmile_qr_scan"}, "fusion_lon": 0.0, "lat": 38.92072983333333, "bike_id": "a533524ea28deae8d49ce49f82302724", "type": "electric_scooter", "is_reserved": 0, "lon": -77.02376283333334}, {"fusion_lat": 0.0, "name": "82fc2808c42391b90cbc605d9b9fafd7", "is_disabled": 0, "rental_uris": {"android": "https://dc.lft.to/lastmile_qr_scan", "ios": "https://dc.lft.to/lastmile_qr_scan"}, "fusion_lon": 0.0, "lat": 38.890898666666665, "bike_id": "82fc2808c42391b90cbc605d9b9fafd7", "type": "electric_scooter", "is_reserved": 0, "lon": -76.91922533333333}, {"fusion_lat": 0.0, "name": "8d9ecdcfa55ec1f7ae32cda639d4a502", "is_disabled": 0, "rental_uris": {"android": "https://dc.lft.to/lastmile_qr_scan", "ios": "https://dc.lft.to/lastmile_qr_scan"}, "fusion_lon": 0.0, "lat": 38.924732166666665, "bike_id": "8d9ecdcfa55ec1f7ae32cda639d4a502", "type": "electric_scooter", "is_reserved": 0, "lon": -77.03852416666666}, {"fusion_lat": 0.0, "name": "33d460f220927f7de0e446e67a28bfaf", "is_disabled": 0, "rental_uris": {"android": "https://dc.lft.to/lastmile_qr_scan", "ios": "https://dc.lft.to/lastmile_qr_scan"}, "fusion_lon": 0.0, "lat": 38.944324, "bike_id": "33d460f220927f7de0e446e67a28bfaf", "type": "electric_bike", "is_reserved": 0, "lon": -77.02601766666666}, {"fusion_lat": 0.0, "name": "d4ee43ebdfb5d92a1221089759e3fde0", "is_disabled": 0, "rental_uris": {"android": "https://dc.lft.to/lastmile_qr_scan", "ios": "https://dc.lft.to/lastmile_qr_scan"}, "fusion_lon": 0.0, "lat": 38.88593016666667, "bike_id": "d4ee43ebdfb5d92a1221089759e3fde0", "type": "electric_scooter", "is_reserved": 0, "lon": -77.01715716666666}, {"fusion_lat": 0.0, "name": "951de3466d3c453e2112dd5be4a00512", "is_disabled": 0, "rental_uris": {"android": "https://dc.lft.to/lastmile_qr_scan", "ios": "https://dc.lft.to/lastmile_qr_scan"}, "fusion_lon": 0.0, "lat": 38.91064166666666, "bike_id": "951de3466d3c453e2112dd5be4a00512", "type": "electric_scooter", "is_reserved": 0, "lon": -77.0410285}, {"fusion_lat": 0.0, "name": "e64de4df00aa52306cf0ea1a68431992", "is_disabled": 0, "rental_uris": {"android": "https://dc.lft.to/lastmile_qr_scan", "ios": "https://dc.lft.to/lastmile_qr_scan"}, "fusion_lon": 0.0, "lat": 38.95059966666667, "bike_id": "e64de4df00aa52306cf0ea1a68431992", "type": "electric_scooter", "is_reserved": 0, "lon": -77.08028466666667}, {"fusion_lat": 0.0, "name": "1cf29c3892aaaa87a6ead586cf63b239", "is_disabled": 0, "rental_uris": {"android": "https://dc.lft.to/lastmile_qr_scan", "ios": "https://dc.lft.to/lastmile_qr_scan"}, "fusion_lon": 0.0, "lat": 38.93401383333333, "bike_id": "1cf29c3892aaaa87a6ead586cf63b239", "type": "electric_scooter", "is_reserved": 0, "lon": -77.0574295}, {"fusion_lat": 0.0, "name": "0b90c4ba0171d991a034945be5ec1ea5", "is_disabled": 0, "rental_uris": {"android": "https://dc.lft.to/lastmile_qr_scan", "ios": "https://dc.lft.to/lastmile_qr_scan"}, "fusion_lon": 0.0, "lat": 38.897746833333336, "bike_id": "0b90c4ba0171d991a034945be5ec1ea5", "type": "electric_scooter", "is_reserved": 0, "lon": -77.02783516666666}, {"fusion_lat": 0.0, "name": "3000d5d89c4e486c7170a11fb2583707", "is_disabled": 0, "rental_uris": {"android": "https://dc.lft.to/lastmile_qr_scan", "ios": "https://dc.lft.to/lastmile_qr_scan"}, "fusion_lon": 0.0, "lat": 38.8967525, "bike_id": "3000d5d89c4e486c7170a11fb2583707", "type": "electric_scooter", "is_reserved": 0, "lon": -77.00513316666667}, {"fusion_lat": 0.0, "name": "a0dab15adeb09ec142f995449a751112", "is_disabled": 0, "rental_uris": {"android": "https://dc.lft.to/lastmile_qr_scan", "ios": "https://dc.lft.to/lastmile_qr_scan"}, "fusion_lon": 0.0, "lat": 38.90828616666667, "bike_id": "a0dab15adeb09ec142f995449a751112", "type": "electric_scooter", "is_reserved": 0, "lon": -76.98426716666667}, {"fusion_lat": 0.0, "name": "211b6ed1d384a807d680696fa0ba0dc8", "is_disabled": 0, "rental_uris": {"android": "https://dc.lft.to/lastmile_qr_scan", "ios": "https://dc.lft.to/lastmile_qr_scan"}, "fusion_lon": 0.0, "lat": 38.897893333333336, "bike_id": "211b6ed1d384a807d680696fa0ba0dc8", "type": "electric_scooter", "is_reserved": 0, "lon": -77.04659016666666}, {"fusion_lat": 0.0, "name": "61ea315b7fcfcbb768b3f02dd4c6b435", "is_disabled": 0, "rental_uris": {"android": "https://dc.lft.to/lastmile_qr_scan", "ios": "https://dc.lft.to/lastmile_qr_scan"}, "fusion_lon": 0.0, "lat": 38.948373833333335, "bike_id": "61ea315b7fcfcbb768b3f02dd4c6b435", "type": "electric_scooter", "is_reserved": 0, "lon": -77.02562716666667}, {"fusion_lat": 0.0, "name": "d61254104f1e7cd75990eb0ef0b4ad83", "is_disabled": 0, "rental_uris": {"android": "https://dc.lft.to/lastmile_qr_scan", "ios": "https://dc.lft.to/lastmile_qr_scan"}, "fusion_lon": 0.0, "lat": 38.90045333333333, "bike_id": "d61254104f1e7cd75990eb0ef0b4ad83", "type": "electric_scooter", "is_reserved": 0, "lon": -77.0557925}, {"fusion_lat": 0.0, "name": "80cbf8a0b36fde4f6cab0c570aedec0c", "is_disabled": 0, "rental_uris": {"android": "https://dc.lft.to/lastmile_qr_scan", "ios": "https://dc.lft.to/lastmile_qr_scan"}, "fusion_lon": 0.0, "lat": 38.794716, "bike_id": "80cbf8a0b36fde4f6cab0c570aedec0c", "type": "electric_bike", "is_reserved": 0, "lon": -76.992463}, {"fusion_lat": 0.0, "name": "836a7693c170435d6dcdf91cf6ee9450", "is_disabled": 0, "rental_uris": {"android": "https://dc.lft.to/lastmile_qr_scan", "ios": "https://dc.lft.to/lastmile_qr_scan"}, "fusion_lon": 0.0, "lat": 38.91705183333333, "bike_id": "836a7693c170435d6dcdf91cf6ee9450", "type": "electric_scooter", "is_reserved": 0, "lon": -77.04174616666667}, {"fusion_lat": 0.0, "name": "478575dbebad767b844a1ad1fa3ad8fc", "is_disabled": 0, "rental_uris": {"android": "https://dc.lft.to/lastmile_qr_scan", "ios": "https://dc.lft.to/lastmile_qr_scan"}, "fusion_lon": 0.0, "lat": 38.92253866666667, "bike_id": "478575dbebad767b844a1ad1fa3ad8fc", "type": "electric_scooter", "is_reserved": 0, "lon": -77.02979083333334}, {"fusion_lat": 0.0, "name": "c7a13fa0cc4eeabf50c279bbe9593287", "is_disabled": 0, "rental_uris": {"android": "https://dc.lft.to/lastmile_qr_scan", "ios": "https://dc.lft.to/lastmile_qr_scan"}, "fusion_lon": 0.0, "lat": 38.9190385, "bike_id": "c7a13fa0cc4eeabf50c279bbe9593287", "type": "electric_scooter", "is_reserved": 0, "lon": -77.02755666666667}, {"fusion_lat": 0.0, "name": "1ed55303a1054333d7e07abcb6e461cf", "is_disabled": 0, "rental_uris": {"android": "https://dc.lft.to/lastmile_qr_scan", "ios": "https://dc.lft.to/lastmile_qr_scan"}, "fusion_lon": 0.0, "lat": 38.89321783333333, "bike_id": "1ed55303a1054333d7e07abcb6e461cf", "type": "electric_scooter", "is_reserved": 0, "lon": -77.02166166666666}, {"fusion_lat": 0.0, "name": "0038f1c80e1c20f029b21facdbec71d2", "is_disabled": 0, "rental_uris": {"android": "https://dc.lft.to/lastmile_qr_scan", "ios": "https://dc.lft.to/lastmile_qr_scan"}, "fusion_lon": 0.0, "lat": 38.946613166666666, "bike_id": "0038f1c80e1c20f029b21facdbec71d2", "type": "electric_bike", "is_reserved": 0, "lon": -76.95667683333333}, {"fusion_lat": 0.0, "name": "19450843c30d3490145425482de6e4cc", "is_disabled": 0, "rental_uris": {"android": "https://dc.lft.to/lastmile_qr_scan", "ios": "https://dc.lft.to/lastmile_qr_scan"}, "fusion_lon": 0.0, "lat": 38.91749216666667, "bike_id": "19450843c30d3490145425482de6e4cc", "type": "electric_scooter", "is_reserved": 0, "lon": -77.041599}, {"fusion_lat": 0.0, "name": "134fb4727303ac1e27fbba1142a0f9bf", "is_disabled": 0, "rental_uris": {"android": "https://dc.lft.to/lastmile_qr_scan", "ios": "https://dc.lft.to/lastmile_qr_scan"}, "fusion_lon": 0.0, "lat": 38.921066333333336, "bike_id": "134fb4727303ac1e27fbba1142a0f9bf", "type": "electric_scooter", "is_reserved": 0, "lon": -77.04692866666667}, {"fusion_lat": 0.0, "name": "7e23def31c0a7251668fcf324bbdf3cf", "is_disabled": 0, "rental_uris": {"android": "https://dc.lft.to/lastmile_qr_scan", "ios": "https://dc.lft.to/lastmile_qr_scan"}, "fusion_lon": 0.0, "lat": 38.9002705, "bike_id": "7e23def31c0a7251668fcf324bbdf3cf", "type": "electric_scooter", "is_reserved": 0, "lon": -77.0581575}, {"fusion_lat": 0.0, "name": "75337cb1d0e64ab44e6092a123010bda", "is_disabled": 0, "rental_uris": {"android": "https://dc.lft.to/lastmile_qr_scan", "ios": "https://dc.lft.to/lastmile_qr_scan"}, "fusion_lon": 0.0, "lat": 38.89898383333333, "bike_id": "75337cb1d0e64ab44e6092a123010bda", "type": "electric_scooter", "is_reserved": 0, "lon": -76.9336575}, {"fusion_lat": 0.0, "name": "9c684ced3db855d429fc607ccc501d15", "is_disabled": 0, "rental_uris": {"android": "https://dc.lft.to/lastmile_qr_scan", "ios": "https://dc.lft.to/lastmile_qr_scan"}, "fusion_lon": 0.0, "lat": 38.9282925, "bike_id": "9c684ced3db855d429fc607ccc501d15", "type": "electric_scooter", "is_reserved": 0, "lon": -77.02261066666667}, {"fusion_lat": 0.0, "name": "82121572aad544c5c94bb61c3a362b44", "is_disabled": 0, "rental_uris": {"android": "https://dc.lft.to/lastmile_qr_scan", "ios": "https://dc.lft.to/lastmile_qr_scan"}, "fusion_lon": 0.0, "lat": 38.896188333333335, "bike_id": "82121572aad544c5c94bb61c3a362b44", "type": "electric_bike", "is_reserved": 0, "lon": -76.90741083333333}, {"fusion_lat": 0.0, "name": "bfb8c4c7f87dc0e2af44834da56f8f95", "is_disabled": 0, "rental_uris": {"android": "https://dc.lft.to/lastmile_qr_scan", "ios": "https://dc.lft.to/lastmile_qr_scan"}, "fusion_lon": 0.0, "lat": 38.917388833333334, "bike_id": "bfb8c4c7f87dc0e2af44834da56f8f95", "type": "electric_scooter", "is_reserved": 0, "lon": -77.02265483333333}, {"fusion_lat": 0.0, "name": "d5d14a31241c9e381175d20a597a33bc", "is_disabled": 0, "rental_uris": {"android": "https://dc.lft.to/lastmile_qr_scan", "ios": "https://dc.lft.to/lastmile_qr_scan"}, "fusion_lon": 0.0, "lat": 38.92331083333333, "bike_id": "d5d14a31241c9e381175d20a597a33bc", "type": "electric_scooter", "is_reserved": 0, "lon": -77.029643}, {"fusion_lat": 0.0, "name": "d11dc3ffd0e535942302e9907b34682b", "is_disabled": 0, "rental_uris": {"android": "https://dc.lft.to/lastmile_qr_scan", "ios": "https://dc.lft.to/lastmile_qr_scan"}, "fusion_lon": 0.0, "lat": 38.926781, "bike_id": "d11dc3ffd0e535942302e9907b34682b", "type": "electric_scooter", "is_reserved": 0, "lon": -77.03643183333334}, {"fusion_lat": 0.0, "name": "71c69396013e00dfc326489d38b937e0", "is_disabled": 0, "rental_uris": {"android": "https://dc.lft.to/lastmile_qr_scan", "ios": "https://dc.lft.to/lastmile_qr_scan"}, "fusion_lon": 0.0, "lat": 38.87748366666667, "bike_id": "71c69396013e00dfc326489d38b937e0", "type": "electric_scooter", "is_reserved": 0, "lon": -77.0026155}, {"fusion_lat": 0.0, "name": "918ca1a024482a2275839035472001b0", "is_disabled": 0, "rental_uris": {"android": "https://dc.lft.to/lastmile_qr_scan", "ios": "https://dc.lft.to/lastmile_qr_scan"}, "fusion_lon": 0.0, "lat": 38.9461535, "bike_id": "918ca1a024482a2275839035472001b0", "type": "electric_scooter", "is_reserved": 0, "lon": -77.08014316666667}, {"fusion_lat": 0.0, "name": "10a800c1423210091cee2b7623e771f1", "is_disabled": 0, "rental_uris": {"android": "https://dc.lft.to/lastmile_qr_scan", "ios": "https://dc.lft.to/lastmile_qr_scan"}, "fusion_lon": 0.0, "lat": 38.8969255, "bike_id": "10a800c1423210091cee2b7623e771f1", "type": "electric_scooter", "is_reserved": 0, "lon": -77.043369}, {"fusion_lat": 0.0, "name": "a8443a226f53bab02bd865dcb7883a16", "is_disabled": 0, "rental_uris": {"android": "https://dc.lft.to/lastmile_qr_scan", "ios": "https://dc.lft.to/lastmile_qr_scan"}, "fusion_lon": 0.0, "lat": 38.922699333333334, "bike_id": "a8443a226f53bab02bd865dcb7883a16", "type": "electric_scooter", "is_reserved": 0, "lon": -77.02954416666667}, {"fusion_lat": 0.0, "name": "e65a676f00d6429ec6cd98ce39b8fced", "is_disabled": 0, "rental_uris": {"android": "https://dc.lft.to/lastmile_qr_scan", "ios": "https://dc.lft.to/lastmile_qr_scan"}, "fusion_lon": 0.0, "lat": 38.95892516666667, "bike_id": "e65a676f00d6429ec6cd98ce39b8fced", "type": "electric_bike", "is_reserved": 0, "lon": -76.92470783333333}, {"fusion_lat": 0.0, "name": "0d4d3e6ca86a191ebdfea60077c8e9cc", "is_disabled": 0, "rental_uris": {"android": "https://dc.lft.to/lastmile_qr_scan", "ios": "https://dc.lft.to/lastmile_qr_scan"}, "fusion_lon": 0.0, "lat": 38.846179, "bike_id": "0d4d3e6ca86a191ebdfea60077c8e9cc", "type": "electric_bike", "is_reserved": 0, "lon": -76.9691065}, {"fusion_lat": 0.0, "name": "ef3a511c917770ffa0ed125f7b8ffa02", "is_disabled": 0, "rental_uris": {"android": "https://dc.lft.to/lastmile_qr_scan", "ios": "https://dc.lft.to/lastmile_qr_scan"}, "fusion_lon": 0.0, "lat": 38.948332, "bike_id": "ef3a511c917770ffa0ed125f7b8ffa02", "type": "electric_scooter", "is_reserved": 0, "lon": -77.080006}, {"fusion_lat": 0.0, "name": "6b88d8ba929b454e34560c8c6248fc2e", "is_disabled": 0, "rental_uris": {"android": "https://dc.lft.to/lastmile_qr_scan", "ios": "https://dc.lft.to/lastmile_qr_scan"}, "fusion_lon": 0.0, "lat": 38.87494083333333, "bike_id": "6b88d8ba929b454e34560c8c6248fc2e", "type": "electric_bike", "is_reserved": 0, "lon": -77.21122083333333}, {"fusion_lat": 0.0, "name": "59e70fd6f78334f971c2be11b63f9488", "is_disabled": 0, "rental_uris": {"android": "https://dc.lft.to/lastmile_qr_scan", "ios": "https://dc.lft.to/lastmile_qr_scan"}, "fusion_lon": 0.0, "lat": 38.89005433333333, "bike_id": "59e70fd6f78334f971c2be11b63f9488", "type": "electric_scooter", "is_reserved": 0, "lon": -76.93738933333333}, {"fusion_lat": 0.0, "name": "37516e864b97e88a3618ef9115cc6c9f", "is_disabled": 0, "rental_uris": {"android": "https://dc.lft.to/lastmile_qr_scan", "ios": "https://dc.lft.to/lastmile_qr_scan"}, "fusion_lon": 0.0, "lat": 38.9152645, "bike_id": "37516e864b97e88a3618ef9115cc6c9f", "type": "electric_scooter", "is_reserved": 0, "lon": -77.07554266666666}, {"fusion_lat": 0.0, "name": "037a390b7a73ea68acde2bf3fc8e23fc", "is_disabled": 0, "rental_uris": {"android": "https://dc.lft.to/lastmile_qr_scan", "ios": "https://dc.lft.to/lastmile_qr_scan"}, "fusion_lon": 0.0, "lat": 38.920555666666665, "bike_id": "037a390b7a73ea68acde2bf3fc8e23fc", "type": "electric_scooter", "is_reserved": 0, "lon": -77.02201566666666}, {"fusion_lat": 0.0, "name": "5d3c40044697e815d0517a0ea7eb788c", "is_disabled": 0, "rental_uris": {"android": "https://dc.lft.to/lastmile_qr_scan", "ios": "https://dc.lft.to/lastmile_qr_scan"}, "fusion_lon": 0.0, "lat": 38.91824483333333, "bike_id": "5d3c40044697e815d0517a0ea7eb788c", "type": "electric_scooter", "is_reserved": 0, "lon": -77.0416355}, {"fusion_lat": 0.0, "name": "39e3b4bd8c39af9a886605018e0725fe", "is_disabled": 0, "rental_uris": {"android": "https://dc.lft.to/lastmile_qr_scan", "ios": "https://dc.lft.to/lastmile_qr_scan"}, "fusion_lon": 0.0, "lat": 38.88416516666667, "bike_id": "39e3b4bd8c39af9a886605018e0725fe", "type": "electric_bike", "is_reserved": 0, "lon": -76.95415816666667}, {"fusion_lat": 0.0, "name": "59668a7bdfeab5edaeff947766cf3d27", "is_disabled": 0, "rental_uris": {"android": "https://dc.lft.to/lastmile_qr_scan", "ios": "https://dc.lft.to/lastmile_qr_scan"}, "fusion_lon": 0.0, "lat": 38.8779775, "bike_id": "59668a7bdfeab5edaeff947766cf3d27", "type": "electric_scooter", "is_reserved": 0, "lon": -77.00124016666666}, {"fusion_lat": 0.0, "name": "aa4b7f83b653d24bb1806988061fc00e", "is_disabled": 0, "rental_uris": {"android": "https://dc.lft.to/lastmile_qr_scan", "ios": "https://dc.lft.to/lastmile_qr_scan"}, "fusion_lon": 0.0, "lat": 38.879447, "bike_id": "aa4b7f83b653d24bb1806988061fc00e", "type": "electric_scooter", "is_reserved": 0, "lon": -77.00882583333333}, {"fusion_lat": 0.0, "name": "c45446ba800cc4d8e8555b5817677848", "is_disabled": 0, "rental_uris": {"android": "https://dc.lft.to/lastmile_qr_scan", "ios": "https://dc.lft.to/lastmile_qr_scan"}, "fusion_lon": 0.0, "lat": 38.89931466666667, "bike_id": "c45446ba800cc4d8e8555b5817677848", "type": "electric_scooter", "is_reserved": 0, "lon": -77.0278125}, {"fusion_lat": 0.0, "name": "e5cd221c318d092d86cd7ad3ade946b7", "is_disabled": 0, "rental_uris": {"android": "https://dc.lft.to/lastmile_qr_scan", "ios": "https://dc.lft.to/lastmile_qr_scan"}, "fusion_lon": 0.0, "lat": 38.95181916666667, "bike_id": "e5cd221c318d092d86cd7ad3ade946b7", "type": "electric_scooter", "is_reserved": 0, "lon": -77.02722383333334}, {"fusion_lat": 0.0, "name": "3306e8b2ec76158eebb40487a904e258", "is_disabled": 0, "rental_uris": {"android": "https://dc.lft.to/lastmile_qr_scan", "ios": "https://dc.lft.to/lastmile_qr_scan"}, "fusion_lon": 0.0, "lat": 38.897458, "bike_id": "3306e8b2ec76158eebb40487a904e258", "type": "electric_scooter", "is_reserved": 0, "lon": -77.044265}, {"fusion_lat": 0.0, "name": "e22bc8eaf816d74dcc3c00e6d0be607f", "is_disabled": 0, "rental_uris": {"android": "https://dc.lft.to/lastmile_qr_scan", "ios": "https://dc.lft.to/lastmile_qr_scan"}, "fusion_lon": 0.0, "lat": 38.929800666666665, "bike_id": "e22bc8eaf816d74dcc3c00e6d0be607f", "type": "electric_scooter", "is_reserved": 0, "lon": -77.01970383333334}, {"fusion_lat": 0.0, "name": "5dc1c906fe2ef75993dc041078b95ff5", "is_disabled": 0, "rental_uris": {"android": "https://dc.lft.to/lastmile_qr_scan", "ios": "https://dc.lft.to/lastmile_qr_scan"}, "fusion_lon": 0.0, "lat": 38.89217816666667, "bike_id": "5dc1c906fe2ef75993dc041078b95ff5", "type": "electric_scooter", "is_reserved": 0, "lon": -76.99714833333333}, {"fusion_lat": 0.0, "name": "09d0a505eafafd8ad0a1fb20cbcc16be", "is_disabled": 0, "rental_uris": {"android": "https://dc.lft.to/lastmile_qr_scan", "ios": "https://dc.lft.to/lastmile_qr_scan"}, "fusion_lon": 0.0, "lat": 38.864608, "bike_id": "09d0a505eafafd8ad0a1fb20cbcc16be", "type": "electric_bike", "is_reserved": 0, "lon": -76.94527416666666}, {"fusion_lat": 0.0, "name": "f569b8e2c892384dac427c04507a343c", "is_disabled": 0, "rental_uris": {"android": "https://dc.lft.to/lastmile_qr_scan", "ios": "https://dc.lft.to/lastmile_qr_scan"}, "fusion_lon": 0.0, "lat": 38.914140833333335, "bike_id": "f569b8e2c892384dac427c04507a343c", "type": "electric_scooter", "is_reserved": 0, "lon": -77.01318866666666}, {"fusion_lat": 0.0, "name": "009ed96a4b304656722f38af96e88c43", "is_disabled": 0, "rental_uris": {"android": "https://dc.lft.to/lastmile_qr_scan", "ios": "https://dc.lft.to/lastmile_qr_scan"}, "fusion_lon": 0.0, "lat": 38.919372333333335, "bike_id": "009ed96a4b304656722f38af96e88c43", "type": "electric_scooter", "is_reserved": 0, "lon": -77.04484066666667}, {"fusion_lat": 0.0, "name": "dab0a4183d46285dbcab1c3f2f10aeee", "is_disabled": 0, "rental_uris": {"android": "https://dc.lft.to/lastmile_qr_scan", "ios": "https://dc.lft.to/lastmile_qr_scan"}, "fusion_lon": 0.0, "lat": 38.92248983333333, "bike_id": "dab0a4183d46285dbcab1c3f2f10aeee", "type": "electric_scooter", "is_reserved": 0, "lon": -77.04245083333333}, {"fusion_lat": 0.0, "name": "9d94b7dc037529c01b9c7e9fdd957ca3", "is_disabled": 0, "rental_uris": {"android": "https://dc.lft.to/lastmile_qr_scan", "ios": "https://dc.lft.to/lastmile_qr_scan"}, "fusion_lon": 0.0, "lat": 38.9493675, "bike_id": "9d94b7dc037529c01b9c7e9fdd957ca3", "type": "electric_bike", "is_reserved": 0, "lon": -77.0653765}, {"fusion_lat": 0.0, "name": "a8ed80b61df91c9d30c8533ebb4ced82", "is_disabled": 0, "rental_uris": {"android": "https://dc.lft.to/lastmile_qr_scan", "ios": "https://dc.lft.to/lastmile_qr_scan"}, "fusion_lon": 0.0, "lat": 38.903907333333336, "bike_id": "a8ed80b61df91c9d30c8533ebb4ced82", "type": "electric_scooter", "is_reserved": 0, "lon": -77.05355766666666}, {"fusion_lat": 0.0, "name": "182fe7c92f9c7b5ca324f1f061cb8bc1", "is_disabled": 0, "rental_uris": {"android": "https://dc.lft.to/lastmile_qr_scan", "ios": "https://dc.lft.to/lastmile_qr_scan"}, "fusion_lon": 0.0, "lat": 38.8662025, "bike_id": "182fe7c92f9c7b5ca324f1f061cb8bc1", "type": "electric_bike", "is_reserved": 0, "lon": -76.9456665}, {"fusion_lat": 0.0, "name": "ed1f0b933226487f8dc9e04f0d56d9a0", "is_disabled": 0, "rental_uris": {"android": "https://dc.lft.to/lastmile_qr_scan", "ios": "https://dc.lft.to/lastmile_qr_scan"}, "fusion_lon": 0.0, "lat": 38.928503, "bike_id": "ed1f0b933226487f8dc9e04f0d56d9a0", "type": "electric_scooter", "is_reserved": 0, "lon": -77.01414266666667}, {"fusion_lat": 0.0, "name": "848bd4de5c9d09b11d873755bb56d3ac", "is_disabled": 0, "rental_uris": {"android": "https://dc.lft.to/lastmile_qr_scan", "ios": "https://dc.lft.to/lastmile_qr_scan"}, "fusion_lon": 0.0, "lat": 38.916419, "bike_id": "848bd4de5c9d09b11d873755bb56d3ac", "type": "electric_scooter", "is_reserved": 0, "lon": -77.03992733333334}, {"fusion_lat": 0.0, "name": "68fe6847aeb7b658707a8c54b682aebf", "is_disabled": 0, "rental_uris": {"android": "https://dc.lft.to/lastmile_qr_scan", "ios": "https://dc.lft.to/lastmile_qr_scan"}, "fusion_lon": 0.0, "lat": 38.92061983333333, "bike_id": "68fe6847aeb7b658707a8c54b682aebf", "type": "electric_scooter", "is_reserved": 0, "lon": -77.02385466666667}, {"fusion_lat": 0.0, "name": "5bce4d9b9502d2febe42b9e6e3e332c8", "is_disabled": 0, "rental_uris": {"android": "https://dc.lft.to/lastmile_qr_scan", "ios": "https://dc.lft.to/lastmile_qr_scan"}, "fusion_lon": 0.0, "lat": 38.92322383333333, "bike_id": "5bce4d9b9502d2febe42b9e6e3e332c8", "type": "electric_scooter", "is_reserved": 0, "lon": -77.029555}, {"fusion_lat": 0.0, "name": "6411cafd26d2d220a238133387c6fa13", "is_disabled": 0, "rental_uris": {"android": "https://dc.lft.to/lastmile_qr_scan", "ios": "https://dc.lft.to/lastmile_qr_scan"}, "fusion_lon": 0.0, "lat": 38.89726616666667, "bike_id": "6411cafd26d2d220a238133387c6fa13", "type": "electric_scooter", "is_reserved": 0, "lon": -77.00793566666667}, {"fusion_lat": 0.0, "name": "237f9059d67456acfe7c571ceb60f984", "is_disabled": 0, "rental_uris": {"android": "https://dc.lft.to/lastmile_qr_scan", "ios": "https://dc.lft.to/lastmile_qr_scan"}, "fusion_lon": 0.0, "lat": 38.932735666666666, "bike_id": "237f9059d67456acfe7c571ceb60f984", "type": "electric_scooter", "is_reserved": 0, "lon": -77.04541416666666}, {"fusion_lat": 0.0, "name": "0853c3cd20b4a37ef92d4d2cf6383b9c", "is_disabled": 0, "rental_uris": {"android": "https://dc.lft.to/lastmile_qr_scan", "ios": "https://dc.lft.to/lastmile_qr_scan"}, "fusion_lon": 0.0, "lat": 38.877220333333334, "bike_id": "0853c3cd20b4a37ef92d4d2cf6383b9c", "type": "electric_scooter", "is_reserved": 0, "lon": -77.017592}, {"fusion_lat": 0.0, "name": "f6f498d5df104224714567ae5991ec87", "is_disabled": 0, "rental_uris": {"android": "https://dc.lft.to/lastmile_qr_scan", "ios": "https://dc.lft.to/lastmile_qr_scan"}, "fusion_lon": 0.0, "lat": 38.936504, "bike_id": "f6f498d5df104224714567ae5991ec87", "type": "electric_scooter", "is_reserved": 0, "lon": -77.03697583333333}, {"fusion_lat": 0.0, "name": "16fbc9e91cf6a8301a7c2993d686d9ce", "is_disabled": 0, "rental_uris": {"android": "https://dc.lft.to/lastmile_qr_scan", "ios": "https://dc.lft.to/lastmile_qr_scan"}, "fusion_lon": 0.0, "lat": 38.92064333333333, "bike_id": "16fbc9e91cf6a8301a7c2993d686d9ce", "type": "electric_scooter", "is_reserved": 0, "lon": -77.03460483333333}, {"fusion_lat": 0.0, "name": "702a759f6359ee1e55134ead5cec522b", "is_disabled": 0, "rental_uris": {"android": "https://dc.lft.to/lastmile_qr_scan", "ios": "https://dc.lft.to/lastmile_qr_scan"}, "fusion_lon": 0.0, "lat": 38.86524383333333, "bike_id": "702a759f6359ee1e55134ead5cec522b", "type": "electric_bike", "is_reserved": 0, "lon": -76.9733075}, {"fusion_lat": 0.0, "name": "ae6ac52a604f257603fa52d1ce69a39a", "is_disabled": 0, "rental_uris": {"android": "https://dc.lft.to/lastmile_qr_scan", "ios": "https://dc.lft.to/lastmile_qr_scan"}, "fusion_lon": 0.0, "lat": 38.900187833333334, "bike_id": "ae6ac52a604f257603fa52d1ce69a39a", "type": "electric_scooter", "is_reserved": 0, "lon": -77.04128116666666}, {"fusion_lat": 0.0, "name": "62c66ab8fec40ce0d1921c35a5575a8c", "is_disabled": 0, "rental_uris": {"android": "https://dc.lft.to/lastmile_qr_scan", "ios": "https://dc.lft.to/lastmile_qr_scan"}, "fusion_lon": 0.0, "lat": 38.9154865, "bike_id": "62c66ab8fec40ce0d1921c35a5575a8c", "type": "electric_scooter", "is_reserved": 0, "lon": -77.038417}, {"fusion_lat": 0.0, "name": "d2a71416e0a3da3041e80418bfaed1e5", "is_disabled": 0, "rental_uris": {"android": "https://dc.lft.to/lastmile_qr_scan", "ios": "https://dc.lft.to/lastmile_qr_scan"}, "fusion_lon": 0.0, "lat": 38.9210555, "bike_id": "d2a71416e0a3da3041e80418bfaed1e5", "type": "electric_scooter", "is_reserved": 0, "lon": -77.07470416666666}, {"fusion_lat": 0.0, "name": "c29436bea4139275d15e571f6f3d3a35", "is_disabled": 0, "rental_uris": {"android": "https://dc.lft.to/lastmile_qr_scan", "ios": "https://dc.lft.to/lastmile_qr_scan"}, "fusion_lon": 0.0, "lat": 38.92611766666667, "bike_id": "c29436bea4139275d15e571f6f3d3a35", "type": "electric_scooter", "is_reserved": 0, "lon": -77.03965016666666}, {"fusion_lat": 0.0, "name": "3218677cf2a9c581f345d21477a5ccf8", "is_disabled": 0, "rental_uris": {"android": "https://dc.lft.to/lastmile_qr_scan", "ios": "https://dc.lft.to/lastmile_qr_scan"}, "fusion_lon": 0.0, "lat": 38.873736, "bike_id": "3218677cf2a9c581f345d21477a5ccf8", "type": "electric_scooter", "is_reserved": 0, "lon": -77.000916}, {"fusion_lat": 0.0, "name": "c0c5076d443e415ce8322c8064e1ee9d", "is_disabled": 0, "rental_uris": {"android": "https://dc.lft.to/lastmile_qr_scan", "ios": "https://dc.lft.to/lastmile_qr_scan"}, "fusion_lon": 0.0, "lat": 38.866571, "bike_id": "c0c5076d443e415ce8322c8064e1ee9d", "type": "electric_scooter", "is_reserved": 0, "lon": -76.98525033333334}, {"fusion_lat": 0.0, "name": "5584a1abd990c9ad7ba702fc77599a48", "is_disabled": 0, "rental_uris": {"android": "https://dc.lft.to/lastmile_qr_scan", "ios": "https://dc.lft.to/lastmile_qr_scan"}, "fusion_lon": 0.0, "lat": 38.900795333333335, "bike_id": "5584a1abd990c9ad7ba702fc77599a48", "type": "electric_scooter", "is_reserved": 0, "lon": -77.05036583333333}, {"fusion_lat": 0.0, "name": "ca5cd9ea7e8aac91e40338a0d60f7755", "is_disabled": 0, "rental_uris": {"android": "https://dc.lft.to/lastmile_qr_scan", "ios": "https://dc.lft.to/lastmile_qr_scan"}, "fusion_lon": 0.0, "lat": 38.94133733333334, "bike_id": "ca5cd9ea7e8aac91e40338a0d60f7755", "type": "electric_scooter", "is_reserved": 0, "lon": -77.01541283333333}, {"fusion_lat": 0.0, "name": "e5b22213c5d278923ff47cac49b4e87a", "is_disabled": 0, "rental_uris": {"android": "https://dc.lft.to/lastmile_qr_scan", "ios": "https://dc.lft.to/lastmile_qr_scan"}, "fusion_lon": 0.0, "lat": 38.932825666666666, "bike_id": "e5b22213c5d278923ff47cac49b4e87a", "type": "electric_scooter", "is_reserved": 0, "lon": -77.02743016666666}, {"fusion_lat": 0.0, "name": "54220b78774730b7f9da47c583a437ff", "is_disabled": 0, "rental_uris": {"android": "https://dc.lft.to/lastmile_qr_scan", "ios": "https://dc.lft.to/lastmile_qr_scan"}, "fusion_lon": 0.0, "lat": 38.956359666666664, "bike_id": "54220b78774730b7f9da47c583a437ff", "type": "electric_scooter", "is_reserved": 0, "lon": -77.03306683333334}, {"fusion_lat": 0.0, "name": "e438fc124dda600044bba9f0d7a35a6c", "is_disabled": 0, "rental_uris": {"android": "https://dc.lft.to/lastmile_qr_scan", "ios": "https://dc.lft.to/lastmile_qr_scan"}, "fusion_lon": 0.0, "lat": 38.910193666666665, "bike_id": "e438fc124dda600044bba9f0d7a35a6c", "type": "electric_scooter", "is_reserved": 0, "lon": -77.03859633333333}, {"fusion_lat": 0.0, "name": "ed9334cb4720ad3f30d9784c189ddcd9", "is_disabled": 0, "rental_uris": {"android": "https://dc.lft.to/lastmile_qr_scan", "ios": "https://dc.lft.to/lastmile_qr_scan"}, "fusion_lon": 0.0, "lat": 38.950201, "bike_id": "ed9334cb4720ad3f30d9784c189ddcd9", "type": "electric_scooter", "is_reserved": 0, "lon": -77.03347666666667}, {"fusion_lat": 0.0, "name": "b863b9640a2eb3a867b5cc24fc6163dd", "is_disabled": 0, "rental_uris": {"android": "https://dc.lft.to/lastmile_qr_scan", "ios": "https://dc.lft.to/lastmile_qr_scan"}, "fusion_lon": 0.0, "lat": 38.940918833333335, "bike_id": "b863b9640a2eb3a867b5cc24fc6163dd", "type": "electric_scooter", "is_reserved": 0, "lon": -77.02311516666667}, {"fusion_lat": 0.0, "name": "4ba07974c4faaf18a9ba43e5936408ff", "is_disabled": 0, "rental_uris": {"android": "https://dc.lft.to/lastmile_qr_scan", "ios": "https://dc.lft.to/lastmile_qr_scan"}, "fusion_lon": 0.0, "lat": 38.938991333333334, "bike_id": "4ba07974c4faaf18a9ba43e5936408ff", "type": "electric_scooter", "is_reserved": 0, "lon": -77.03312866666667}, {"fusion_lat": 0.0, "name": "ee70ee2303a472459699ceeb4f5ca31c", "is_disabled": 0, "rental_uris": {"android": "https://dc.lft.to/lastmile_qr_scan", "ios": "https://dc.lft.to/lastmile_qr_scan"}, "fusion_lon": 0.0, "lat": 38.882994, "bike_id": "ee70ee2303a472459699ceeb4f5ca31c", "type": "electric_bike", "is_reserved": 0, "lon": -77.030272}, {"fusion_lat": 0.0, "name": "177363bf6c04b6231faba45e4a8952e5", "is_disabled": 0, "rental_uris": {"android": "https://dc.lft.to/lastmile_qr_scan", "ios": "https://dc.lft.to/lastmile_qr_scan"}, "fusion_lon": 0.0, "lat": 38.9009035, "bike_id": "177363bf6c04b6231faba45e4a8952e5", "type": "electric_scooter", "is_reserved": 0, "lon": -76.983363}, {"fusion_lat": 0.0, "name": "c395edad3d0c9c74331209d3520dbbf0", "is_disabled": 0, "rental_uris": {"android": "https://dc.lft.to/lastmile_qr_scan", "ios": "https://dc.lft.to/lastmile_qr_scan"}, "fusion_lon": 0.0, "lat": 38.9270865, "bike_id": "c395edad3d0c9c74331209d3520dbbf0", "type": "electric_scooter", "is_reserved": 0, "lon": -77.0232155}, {"fusion_lat": 0.0, "name": "de5b5b59ec42893259d42821c0c3c21d", "is_disabled": 0, "rental_uris": {"android": "https://dc.lft.to/lastmile_qr_scan", "ios": "https://dc.lft.to/lastmile_qr_scan"}, "fusion_lon": 0.0, "lat": 38.9249725, "bike_id": "de5b5b59ec42893259d42821c0c3c21d", "type": "electric_scooter", "is_reserved": 0, "lon": -77.02171866666667}, {"fusion_lat": 0.0, "name": "17d39a563ea020313badda606013ebef", "is_disabled": 0, "rental_uris": {"android": "https://dc.lft.to/lastmile_qr_scan", "ios": "https://dc.lft.to/lastmile_qr_scan"}, "fusion_lon": 0.0, "lat": 38.9206175, "bike_id": "17d39a563ea020313badda606013ebef", "type": "electric_scooter", "is_reserved": 0, "lon": -77.02384466666666}, {"fusion_lat": 0.0, "name": "3d0cb37902141683012508ecee125a01", "is_disabled": 0, "rental_uris": {"android": "https://dc.lft.to/lastmile_qr_scan", "ios": "https://dc.lft.to/lastmile_qr_scan"}, "fusion_lon": 0.0, "lat": 38.8982975, "bike_id": "3d0cb37902141683012508ecee125a01", "type": "electric_scooter", "is_reserved": 0, "lon": -76.94653866666667}, {"fusion_lat": 0.0, "name": "d64c4ee80c30a7504d582dbb09fc1007", "is_disabled": 0, "rental_uris": {"android": "https://dc.lft.to/lastmile_qr_scan", "ios": "https://dc.lft.to/lastmile_qr_scan"}, "fusion_lon": 0.0, "lat": 38.90696333333333, "bike_id": "d64c4ee80c30a7504d582dbb09fc1007", "type": "electric_scooter", "is_reserved": 0, "lon": -77.04729566666667}, {"fusion_lat": 0.0, "name": "4421285094a37e44868830baccab9f1e", "is_disabled": 0, "rental_uris": {"android": "https://dc.lft.to/lastmile_qr_scan", "ios": "https://dc.lft.to/lastmile_qr_scan"}, "fusion_lon": 0.0, "lat": 38.8790085, "bike_id": "4421285094a37e44868830baccab9f1e", "type": "electric_scooter", "is_reserved": 0, "lon": -77.013617}, {"fusion_lat": 0.0, "name": "9b7e1d221ee1e8c369dbbdacd9b6f1a3", "is_disabled": 0, "rental_uris": {"android": "https://dc.lft.to/lastmile_qr_scan", "ios": "https://dc.lft.to/lastmile_qr_scan"}, "fusion_lon": 0.0, "lat": 38.904931, "bike_id": "9b7e1d221ee1e8c369dbbdacd9b6f1a3", "type": "electric_scooter", "is_reserved": 0, "lon": -77.01015233333334}, {"fusion_lat": 0.0, "name": "d96bab5809db9a565e2757cce95bce13", "is_disabled": 0, "rental_uris": {"android": "https://dc.lft.to/lastmile_qr_scan", "ios": "https://dc.lft.to/lastmile_qr_scan"}, "fusion_lon": 0.0, "lat": 38.9176645, "bike_id": "d96bab5809db9a565e2757cce95bce13", "type": "electric_scooter", "is_reserved": 0, "lon": -77.01500016666667}, {"fusion_lat": 0.0, "name": "a987a0e0372614ec4d8c6a282e574a58", "is_disabled": 0, "rental_uris": {"android": "https://dc.lft.to/lastmile_qr_scan", "ios": "https://dc.lft.to/lastmile_qr_scan"}, "fusion_lon": 0.0, "lat": 38.902696, "bike_id": "a987a0e0372614ec4d8c6a282e574a58", "type": "electric_scooter", "is_reserved": 0, "lon": -77.017822}, {"fusion_lat": 0.0, "name": "cb423d533293e7bb37e0d0caa3fc03c0", "is_disabled": 0, "rental_uris": {"android": "https://dc.lft.to/lastmile_qr_scan", "ios": "https://dc.lft.to/lastmile_qr_scan"}, "fusion_lon": 0.0, "lat": 38.94410233333333, "bike_id": "cb423d533293e7bb37e0d0caa3fc03c0", "type": "electric_scooter", "is_reserved": 0, "lon": -77.03199916666667}, {"fusion_lat": 0.0, "name": "d526d5f5137759f8f8de279255007035", "is_disabled": 0, "rental_uris": {"android": "https://dc.lft.to/lastmile_qr_scan", "ios": "https://dc.lft.to/lastmile_qr_scan"}, "fusion_lon": 0.0, "lat": 38.929618833333336, "bike_id": "d526d5f5137759f8f8de279255007035", "type": "electric_scooter", "is_reserved": 0, "lon": -77.03094383333334}, {"fusion_lat": 0.0, "name": "9743b8a6a41db61616c67cdd92b0c01d", "is_disabled": 0, "rental_uris": {"android": "https://dc.lft.to/lastmile_qr_scan", "ios": "https://dc.lft.to/lastmile_qr_scan"}, "fusion_lon": 0.0, "lat": 38.928486666666664, "bike_id": "9743b8a6a41db61616c67cdd92b0c01d", "type": "electric_scooter", "is_reserved": 0, "lon": -76.99768816666666}, {"fusion_lat": 0.0, "name": "593fb3bd00a5be7ec12dd197be5fa5ac", "is_disabled": 0, "rental_uris": {"android": "https://dc.lft.to/lastmile_qr_scan", "ios": "https://dc.lft.to/lastmile_qr_scan"}, "fusion_lon": 0.0, "lat": 38.935044833333336, "bike_id": "593fb3bd00a5be7ec12dd197be5fa5ac", "type": "electric_scooter", "is_reserved": 0, "lon": -77.02417916666667}, {"fusion_lat": 0.0, "name": "fb19425ee4ba5325bf7f865023922a55", "is_disabled": 0, "rental_uris": {"android": "https://dc.lft.to/lastmile_qr_scan", "ios": "https://dc.lft.to/lastmile_qr_scan"}, "fusion_lon": 0.0, "lat": 38.90427066666667, "bike_id": "fb19425ee4ba5325bf7f865023922a55", "type": "electric_scooter", "is_reserved": 0, "lon": -77.03436966666666}, {"fusion_lat": 0.0, "name": "9a975fc5d5e1c32cba23d87eec68f455", "is_disabled": 0, "rental_uris": {"android": "https://dc.lft.to/lastmile_qr_scan", "ios": "https://dc.lft.to/lastmile_qr_scan"}, "fusion_lon": 0.0, "lat": 39.00290416666667, "bike_id": "9a975fc5d5e1c32cba23d87eec68f455", "type": "electric_bike", "is_reserved": 0, "lon": -76.90294633333333}, {"fusion_lat": 0.0, "name": "84401f9f06f58063958b73e130f108bd", "is_disabled": 0, "rental_uris": {"android": "https://dc.lft.to/lastmile_qr_scan", "ios": "https://dc.lft.to/lastmile_qr_scan"}, "fusion_lon": 0.0, "lat": 38.948392, "bike_id": "84401f9f06f58063958b73e130f108bd", "type": "electric_scooter", "is_reserved": 0, "lon": -77.025699}, {"fusion_lat": 0.0, "name": "34ff580702bc195b035a27c3ef75425d", "is_disabled": 0, "rental_uris": {"android": "https://dc.lft.to/lastmile_qr_scan", "ios": "https://dc.lft.to/lastmile_qr_scan"}, "fusion_lon": 0.0, "lat": 38.92032733333333, "bike_id": "34ff580702bc195b035a27c3ef75425d", "type": "electric_scooter", "is_reserved": 0, "lon": -77.02800833333333}, {"fusion_lat": 0.0, "name": "9446d0d7edc7714aa00eefa87a327c9c", "is_disabled": 0, "rental_uris": {"android": "https://dc.lft.to/lastmile_qr_scan", "ios": "https://dc.lft.to/lastmile_qr_scan"}, "fusion_lon": 0.0, "lat": 38.921106333333334, "bike_id": "9446d0d7edc7714aa00eefa87a327c9c", "type": "electric_scooter", "is_reserved": 0, "lon": -77.04694683333334}, {"fusion_lat": 0.0, "name": "aae4ed968172c0c70bb5b36519579a4f", "is_disabled": 0, "rental_uris": {"android": "https://dc.lft.to/lastmile_qr_scan", "ios": "https://dc.lft.to/lastmile_qr_scan"}, "fusion_lon": 0.0, "lat": 38.93804983333333, "bike_id": "aae4ed968172c0c70bb5b36519579a4f", "type": "electric_scooter", "is_reserved": 0, "lon": -77.06860716666667}, {"fusion_lat": 0.0, "name": "418bb44db75bd19b8085b1fbfb34b341", "is_disabled": 0, "rental_uris": {"android": "https://dc.lft.to/lastmile_qr_scan", "ios": "https://dc.lft.to/lastmile_qr_scan"}, "fusion_lon": 0.0, "lat": 38.944711833333336, "bike_id": "418bb44db75bd19b8085b1fbfb34b341", "type": "electric_scooter", "is_reserved": 0, "lon": -77.0235675}, {"fusion_lat": 0.0, "name": "191404f58ff62c701633aac14a74bcc0", "is_disabled": 0, "rental_uris": {"android": "https://dc.lft.to/lastmile_qr_scan", "ios": "https://dc.lft.to/lastmile_qr_scan"}, "fusion_lon": 0.0, "lat": 38.9234725, "bike_id": "191404f58ff62c701633aac14a74bcc0", "type": "electric_scooter", "is_reserved": 0, "lon": -77.02016016666667}, {"fusion_lat": 0.0, "name": "5f2445aa077830d04b085447a92ebda6", "is_disabled": 0, "rental_uris": {"android": "https://dc.lft.to/lastmile_qr_scan", "ios": "https://dc.lft.to/lastmile_qr_scan"}, "fusion_lon": 0.0, "lat": 38.933244, "bike_id": "5f2445aa077830d04b085447a92ebda6", "type": "electric_scooter", "is_reserved": 0, "lon": -77.03436616666667}, {"fusion_lat": 0.0, "name": "f88b37f1a1e361a8534e941fb1fa321a", "is_disabled": 0, "rental_uris": {"android": "https://dc.lft.to/lastmile_qr_scan", "ios": "https://dc.lft.to/lastmile_qr_scan"}, "fusion_lon": 0.0, "lat": 38.897373333333334, "bike_id": "f88b37f1a1e361a8534e941fb1fa321a", "type": "electric_scooter", "is_reserved": 0, "lon": -77.02193516666667}, {"fusion_lat": 0.0, "name": "6825831292fb8fd18ab075e2587c62fb", "is_disabled": 0, "rental_uris": {"android": "https://dc.lft.to/lastmile_qr_scan", "ios": "https://dc.lft.to/lastmile_qr_scan"}, "fusion_lon": 0.0, "lat": 38.9235195, "bike_id": "6825831292fb8fd18ab075e2587c62fb", "type": "electric_scooter", "is_reserved": 0, "lon": -77.01948683333333}, {"fusion_lat": 0.0, "name": "97f012f4db20152b37b0e76549c7a707", "is_disabled": 0, "rental_uris": {"android": "https://dc.lft.to/lastmile_qr_scan", "ios": "https://dc.lft.to/lastmile_qr_scan"}, "fusion_lon": 0.0, "lat": 38.87311116666667, "bike_id": "97f012f4db20152b37b0e76549c7a707", "type": "electric_bike", "is_reserved": 0, "lon": -77.0109985}, {"fusion_lat": 0.0, "name": "f261ef773a5c1afce5a5b5f2ddc1aafc", "is_disabled": 0, "rental_uris": {"android": "https://dc.lft.to/lastmile_qr_scan", "ios": "https://dc.lft.to/lastmile_qr_scan"}, "fusion_lon": 0.0, "lat": 38.913368166666665, "bike_id": "f261ef773a5c1afce5a5b5f2ddc1aafc", "type": "electric_scooter", "is_reserved": 0, "lon": -77.0423505}, {"fusion_lat": 0.0, "name": "c2e6a93ef3c9850c266e6064da2de2b3", "is_disabled": 0, "rental_uris": {"android": "https://dc.lft.to/lastmile_qr_scan", "ios": "https://dc.lft.to/lastmile_qr_scan"}, "fusion_lon": 0.0, "lat": 38.922267, "bike_id": "c2e6a93ef3c9850c266e6064da2de2b3", "type": "electric_scooter", "is_reserved": 0, "lon": -77.041447}, {"fusion_lat": 0.0, "name": "e710c73b7de211b99376f8e8fa2bc29c", "is_disabled": 0, "rental_uris": {"android": "https://dc.lft.to/lastmile_qr_scan", "ios": "https://dc.lft.to/lastmile_qr_scan"}, "fusion_lon": 0.0, "lat": 38.907697166666665, "bike_id": "e710c73b7de211b99376f8e8fa2bc29c", "type": "electric_scooter", "is_reserved": 0, "lon": -77.03825916666666}, {"fusion_lat": 0.0, "name": "46836e746c7236332faf34b3bf463798", "is_disabled": 0, "rental_uris": {"android": "https://dc.lft.to/lastmile_qr_scan", "ios": "https://dc.lft.to/lastmile_qr_scan"}, "fusion_lon": 0.0, "lat": 38.935415166666665, "bike_id": "46836e746c7236332faf34b3bf463798", "type": "electric_scooter", "is_reserved": 0, "lon": -77.03262766666667}, {"fusion_lat": 0.0, "name": "7bda0bf4f877d31181eb1ebfa9627936", "is_disabled": 0, "rental_uris": {"android": "https://dc.lft.to/lastmile_qr_scan", "ios": "https://dc.lft.to/lastmile_qr_scan"}, "fusion_lon": 0.0, "lat": 38.907895, "bike_id": "7bda0bf4f877d31181eb1ebfa9627936", "type": "electric_scooter", "is_reserved": 0, "lon": -77.03430566666667}, {"fusion_lat": 0.0, "name": "472460b2d42cf33e7c1ca683dd45e3e6", "is_disabled": 0, "rental_uris": {"android": "https://dc.lft.to/lastmile_qr_scan", "ios": "https://dc.lft.to/lastmile_qr_scan"}, "fusion_lon": 0.0, "lat": 38.9237635, "bike_id": "472460b2d42cf33e7c1ca683dd45e3e6", "type": "electric_scooter", "is_reserved": 0, "lon": -77.0213915}, {"fusion_lat": 0.0, "name": "01b29693e3ba2384e3fde1818dab93f0", "is_disabled": 0, "rental_uris": {"android": "https://dc.lft.to/lastmile_qr_scan", "ios": "https://dc.lft.to/lastmile_qr_scan"}, "fusion_lon": 0.0, "lat": 38.913168, "bike_id": "01b29693e3ba2384e3fde1818dab93f0", "type": "electric_scooter", "is_reserved": 0, "lon": -77.021333}, {"fusion_lat": 0.0, "name": "74c6d728741c1db365beefbaf9d952bb", "is_disabled": 0, "rental_uris": {"android": "https://dc.lft.to/lastmile_qr_scan", "ios": "https://dc.lft.to/lastmile_qr_scan"}, "fusion_lon": 0.0, "lat": 38.90024616666667, "bike_id": "74c6d728741c1db365beefbaf9d952bb", "type": "electric_scooter", "is_reserved": 0, "lon": -77.0318545}, {"fusion_lat": 0.0, "name": "1d608e57808cb81bcf5f039b42693142", "is_disabled": 0, "rental_uris": {"android": "https://dc.lft.to/lastmile_qr_scan", "ios": "https://dc.lft.to/lastmile_qr_scan"}, "fusion_lon": 0.0, "lat": 38.884884, "bike_id": "1d608e57808cb81bcf5f039b42693142", "type": "electric_scooter", "is_reserved": 0, "lon": -77.015226}, {"fusion_lat": 0.0, "name": "1fbd45046eece596706140a180ee8d0e", "is_disabled": 0, "rental_uris": {"android": "https://dc.lft.to/lastmile_qr_scan", "ios": "https://dc.lft.to/lastmile_qr_scan"}, "fusion_lon": 0.0, "lat": 39.003861, "bike_id": "1fbd45046eece596706140a180ee8d0e", "type": "electric_bike", "is_reserved": 0, "lon": -77.01284233333334}, {"fusion_lat": 0.0, "name": "f1f482cd2f8b2d47bb3fd06823cad86b", "is_disabled": 0, "rental_uris": {"android": "https://dc.lft.to/lastmile_qr_scan", "ios": "https://dc.lft.to/lastmile_qr_scan"}, "fusion_lon": 0.0, "lat": 38.9318695, "bike_id": "f1f482cd2f8b2d47bb3fd06823cad86b", "type": "electric_scooter", "is_reserved": 0, "lon": -77.07319166666667}, {"fusion_lat": 0.0, "name": "68c9d47de0f37aa001005ad0d5e40d8c", "is_disabled": 0, "rental_uris": {"android": "https://dc.lft.to/lastmile_qr_scan", "ios": "https://dc.lft.to/lastmile_qr_scan"}, "fusion_lon": 0.0, "lat": 38.88495483333333, "bike_id": "68c9d47de0f37aa001005ad0d5e40d8c", "type": "electric_scooter", "is_reserved": 0, "lon": -77.01085233333333}, {"fusion_lat": 0.0, "name": "3453a86eaf6f7b1dc5a205d883d0953b", "is_disabled": 0, "rental_uris": {"android": "https://dc.lft.to/lastmile_qr_scan", "ios": "https://dc.lft.to/lastmile_qr_scan"}, "fusion_lon": 0.0, "lat": 38.88338983333333, "bike_id": "3453a86eaf6f7b1dc5a205d883d0953b", "type": "electric_scooter", "is_reserved": 0, "lon": -77.016929}, {"fusion_lat": 0.0, "name": "8103c1f5f9d7c1a56659d3f3689f7849", "is_disabled": 0, "rental_uris": {"android": "https://dc.lft.to/lastmile_qr_scan", "ios": "https://dc.lft.to/lastmile_qr_scan"}, "fusion_lon": 0.0, "lat": 38.90580583333333, "bike_id": "8103c1f5f9d7c1a56659d3f3689f7849", "type": "electric_scooter", "is_reserved": 0, "lon": -77.02208283333333}, {"fusion_lat": 0.0, "name": "e19d150969383b04b39d257447788b8f", "is_disabled": 0, "rental_uris": {"android": "https://dc.lft.to/lastmile_qr_scan", "ios": "https://dc.lft.to/lastmile_qr_scan"}, "fusion_lon": 0.0, "lat": 38.887729, "bike_id": "e19d150969383b04b39d257447788b8f", "type": "electric_scooter", "is_reserved": 0, "lon": -77.0026205}, {"fusion_lat": 0.0, "name": "a73dd6e3f444f41290312ce8feb1b4ac", "is_disabled": 0, "rental_uris": {"android": "https://dc.lft.to/lastmile_qr_scan", "ios": "https://dc.lft.to/lastmile_qr_scan"}, "fusion_lon": 0.0, "lat": 38.90682266666666, "bike_id": "a73dd6e3f444f41290312ce8feb1b4ac", "type": "electric_scooter", "is_reserved": 0, "lon": -77.02722266666666}, {"fusion_lat": 0.0, "name": "94d73f6acf6e1a7a10242023e36c16c1", "is_disabled": 0, "rental_uris": {"android": "https://dc.lft.to/lastmile_qr_scan", "ios": "https://dc.lft.to/lastmile_qr_scan"}, "fusion_lon": 0.0, "lat": 38.904100666666665, "bike_id": "94d73f6acf6e1a7a10242023e36c16c1", "type": "electric_scooter", "is_reserved": 0, "lon": -76.973284}, {"fusion_lat": 0.0, "name": "7c3a3be35a57d48aaa69b4baeaf7a08e", "is_disabled": 0, "rental_uris": {"android": "https://dc.lft.to/lastmile_qr_scan", "ios": "https://dc.lft.to/lastmile_qr_scan"}, "fusion_lon": 0.0, "lat": 38.9307885, "bike_id": "7c3a3be35a57d48aaa69b4baeaf7a08e", "type": "electric_scooter", "is_reserved": 0, "lon": -77.07761966666666}, {"fusion_lat": 0.0, "name": "a48d66d8195647e8f46a30d9ed0c2029", "is_disabled": 0, "rental_uris": {"android": "https://dc.lft.to/lastmile_qr_scan", "ios": "https://dc.lft.to/lastmile_qr_scan"}, "fusion_lon": 0.0, "lat": 38.901376666666664, "bike_id": "a48d66d8195647e8f46a30d9ed0c2029", "type": "electric_scooter", "is_reserved": 0, "lon": -77.03322316666667}, {"fusion_lat": 0.0, "name": "f184e595161cb9d9b3f7fa132fd99e06", "is_disabled": 0, "rental_uris": {"android": "https://dc.lft.to/lastmile_qr_scan", "ios": "https://dc.lft.to/lastmile_qr_scan"}, "fusion_lon": 0.0, "lat": 38.8806175, "bike_id": "f184e595161cb9d9b3f7fa132fd99e06", "type": "electric_scooter", "is_reserved": 0, "lon": -77.0254945}, {"fusion_lat": 0.0, "name": "d02798dfa58ec4ef24fa5e0b15034873", "is_disabled": 0, "rental_uris": {"android": "https://dc.lft.to/lastmile_qr_scan", "ios": "https://dc.lft.to/lastmile_qr_scan"}, "fusion_lon": 0.0, "lat": 38.902582833333334, "bike_id": "d02798dfa58ec4ef24fa5e0b15034873", "type": "electric_scooter", "is_reserved": 0, "lon": -76.9745095}, {"fusion_lat": 0.0, "name": "f69a2f39821d8db7fc4f641a91b1f935", "is_disabled": 0, "rental_uris": {"android": "https://dc.lft.to/lastmile_qr_scan", "ios": "https://dc.lft.to/lastmile_qr_scan"}, "fusion_lon": 0.0, "lat": 38.8602065, "bike_id": "f69a2f39821d8db7fc4f641a91b1f935", "type": "electric_bike", "is_reserved": 0, "lon": -77.1280765}, {"fusion_lat": 0.0, "name": "f4f3343e3feb80a5803816d250a7b04e", "is_disabled": 0, "rental_uris": {"android": "https://dc.lft.to/lastmile_qr_scan", "ios": "https://dc.lft.to/lastmile_qr_scan"}, "fusion_lon": 0.0, "lat": 38.95236883333333, "bike_id": "f4f3343e3feb80a5803816d250a7b04e", "type": "electric_scooter", "is_reserved": 0, "lon": -76.99002033333333}, {"fusion_lat": 0.0, "name": "463d070c3d21d00f5a4335f50cedcb2a", "is_disabled": 0, "rental_uris": {"android": "https://dc.lft.to/lastmile_qr_scan", "ios": "https://dc.lft.to/lastmile_qr_scan"},