{"data": {"bikes": [{"bike_id": "5415f3a6e9e9373217c17060c00720a7", "type": "electric_scooter", "is_disabled": 0, "lat": 38.935119666666665, "rental_uris": {"ios": "https://dc.lft.to/lastmile_qr_scan", "android": "https://dc.lft.to/lastmile_qr_scan"}, "is_reserved": 0, "fusion_lon": 0.0, "fusion_lat": 0.0, "lon": -77.0329435, "name": "5415f3a6e9e9373217c17060c00720a7"}, {"bike_id": "37f8efae6d8b7029acf5985ddaf6fcd3", "type": "electric_scooter", "is_disabled": 0, "lat": 38.932943333333334, "rental_uris": {"ios": "https://dc.lft.to/lastmile_qr_scan", "android": "https://dc.lft.to/lastmile_qr_scan"}, "is_reserved": 0, "fusion_lon": 0.0, "fusion_lat": 0.0, "lon": -77.04128733333333, "name": "37f8efae6d8b7029acf5985ddaf6fcd3"}, {"bike_id": "9eab7de27f800654f334983572d0fdc6", "type": "electric_bike", "is_disabled": 0, "lat": 38.85786483333333, "rental_uris": {"ios": "https://dc.lft.to/lastmile_qr_scan", "android": "https://dc.lft.to/lastmile_qr_scan"}, "is_reserved": 0, "fusion_lon": 0.0, "fusion_lat": 0.0, "lon": -77.12019216666667, "name": "9eab7de27f800654f334983572d0fdc6"}, {"bike_id": "b3e47fe2435fdefa9fa264430dcbc591", "type": "electric_scooter", "is_disabled": 0, "lat": 38.902032166666665, "rental_uris": {"ios": "https://dc.lft.to/lastmile_qr_scan", "android": "https://dc.lft.to/lastmile_qr_scan"}, "is_reserved": 0, "fusion_lon": 0.0, "fusion_lat": 0.0, "lon": -77.02376666666666, "name": "b3e47fe2435fdefa9fa264430dcbc591"}, {"bike_id": "ba0c170dd6ac5ed06f53689efcea8f06", "type": "electric_scooter", "is_disabled": 0, "lat": 38.895438, "rental_uris": {"ios": "https://dc.lft.to/lastmile_qr_scan", "android": "https://dc.lft.to/lastmile_qr_scan"}, "is_reserved": 0, "fusion_lon": 0.0, "fusion_lat": 0.0, "lon": -76.92951966666666, "name": "ba0c170dd6ac5ed06f53689efcea8f06"}, {"bike_id": "8f4361d3bebb100312b68b54045e5727", "type": "electric_scooter", "is_disabled": 0, "lat": 38.9056235, "rental_uris": {"ios": "https://dc.lft.to/lastmile_qr_scan", "android": "https://dc.lft.to/lastmile_qr_scan"}, "is_reserved": 0, "fusion_lon": 0.0, "fusion_lat": 0.0, "lon": -76.981423, "name": "8f4361d3bebb100312b68b54045e5727"}, {"bike_id": "3ff6e68dbeb7050d93944994391d09ed", "type": "electric_scooter", "is_disabled": 0, "lat": 38.926799833333334, "rental_uris": {"ios": "https://dc.lft.to/lastmile_qr_scan", "android": "https://dc.lft.to/lastmile_qr_scan"}, "is_reserved": 0, "fusion_lon": 0.0, "fusion_lat": 0.0, "lon": -77.04359483333333, "name": "3ff6e68dbeb7050d93944994391d09ed"}, {"bike_id": "73d764a0275a79cd68fd91505ea97905", "type": "electric_scooter", "is_disabled": 0, "lat": 38.88414316666667, "rental_uris": {"ios": "https://dc.lft.to/lastmile_qr_scan", "android": "https://dc.lft.to/lastmile_qr_scan"}, "is_reserved": 0, "fusion_lon": 0.0, "fusion_lat": 0.0, "lon": -77.03178116666666, "name": "73d764a0275a79cd68fd91505ea97905"}, {"bike_id": "deafc12ccde88708893c214d64ad42ec", "type": "electric_scooter", "is_disabled": 0, "lat": 38.91134366666667, "rental_uris": {"ios": "https://dc.lft.to/lastmile_qr_scan", "android": "https://dc.lft.to/lastmile_qr_scan"}, "is_reserved": 0, "fusion_lon": 0.0, "fusion_lat": 0.0, "lon": -77.065338, "name": "deafc12ccde88708893c214d64ad42ec"}, {"bike_id": "6da8539919828c7389ebd21c87dd7d77", "type": "electric_bike", "is_disabled": 0, "lat": 38.962026333333334, "rental_uris": {"ios": "https://dc.lft.to/lastmile_qr_scan", "android": "https://dc.lft.to/lastmile_qr_scan"}, "is_reserved": 0, "fusion_lon": 0.0, "fusion_lat": 0.0, "lon": -77.02795433333333, "name": "6da8539919828c7389ebd21c87dd7d77"}, {"bike_id": "40c3d01369ae9bf80979108b5de652a8", "type": "electric_scooter", "is_disabled": 0, "lat": 38.9332465, "rental_uris": {"ios": "https://dc.lft.to/lastmile_qr_scan", "android": "https://dc.lft.to/lastmile_qr_scan"}, "is_reserved": 0, "fusion_lon": 0.0, "fusion_lat": 0.0, "lon": -77.03259483333333, "name": "40c3d01369ae9bf80979108b5de652a8"}, {"bike_id": "8be874e6bdbe59fb23fff776bb039692", "type": "electric_scooter", "is_disabled": 0, "lat": 38.90650433333333, "rental_uris": {"ios": "https://dc.lft.to/lastmile_qr_scan", "android": "https://dc.lft.to/lastmile_qr_scan"}, "is_reserved": 0, "fusion_lon": 0.0, "fusion_lat": 0.0, "lon": -77.02510433333333, "name": "8be874e6bdbe59fb23fff776bb039692"}, {"bike_id": "5223c13bf52bad76526fb89f3a303f22", "type": "electric_scooter", "is_disabled": 0, "lat": 38.91986766666667, "rental_uris": {"ios": "https://dc.lft.to/lastmile_qr_scan", "android": "https://dc.lft.to/lastmile_qr_scan"}, "is_reserved": 0, "fusion_lon": 0.0, "fusion_lat": 0.0, "lon": -77.031909, "name": "5223c13bf52bad76526fb89f3a303f22"}, {"bike_id": "3c485dddaa73c38143e7c20e5ffd956c", "type": "electric_scooter", "is_disabled": 0, "lat": 38.92322683333333, "rental_uris": {"ios": "https://dc.lft.to/lastmile_qr_scan", "android": "https://dc.lft.to/lastmile_qr_scan"}, "is_reserved": 0, "fusion_lon": 0.0, "fusion_lat": 0.0, "lon": -77.02134466666666, "name": "3c485dddaa73c38143e7c20e5ffd956c"}, {"bike_id": "7837158ae3fbcfa481a506e7211d18ce", "type": "electric_scooter", "is_disabled": 0, "lat": 38.9216855, "rental_uris": {"ios": "https://dc.lft.to/lastmile_qr_scan", "android": "https://dc.lft.to/lastmile_qr_scan"}, "is_reserved": 0, "fusion_lon": 0.0, "fusion_lat": 0.0, "lon": -77.01910283333333, "name": "7837158ae3fbcfa481a506e7211d18ce"}, {"bike_id": "8671e95cc39e4b54a696e58ad5deb985", "type": "electric_scooter", "is_disabled": 0, "lat": 38.9572915, "rental_uris": {"ios": "https://dc.lft.to/lastmile_qr_scan", "android": "https://dc.lft.to/lastmile_qr_scan"}, "is_reserved": 0, "fusion_lon": 0.0, "fusion_lat": 0.0, "lon": -77.02401733333333, "name": "8671e95cc39e4b54a696e58ad5deb985"}, {"bike_id": "fc1490827a92333794e78ec538548394", "type": "electric_scooter", "is_disabled": 0, "lat": 38.904991833333334, "rental_uris": {"ios": "https://dc.lft.to/lastmile_qr_scan", "android": "https://dc.lft.to/lastmile_qr_scan"}, "is_reserved": 0, "fusion_lon": 0.0, "fusion_lat": 0.0, "lon": -77.02518283333333, "name": "fc1490827a92333794e78ec538548394"}, {"bike_id": "2c7823b1031d8394109f5510da89ff60", "type": "electric_scooter", "is_disabled": 0, "lat": 38.890411666666665, "rental_uris": {"ios": "https://dc.lft.to/lastmile_qr_scan", "android": "https://dc.lft.to/lastmile_qr_scan"}, "is_reserved": 0, "fusion_lon": 0.0, "fusion_lat": 0.0, "lon": -77.015048, "name": "2c7823b1031d8394109f5510da89ff60"}, {"bike_id": "d9d1a876cdf71791d6a5a6ef4ed26cd6", "type": "electric_scooter", "is_disabled": 0, "lat": 38.864617, "rental_uris": {"ios": "https://dc.lft.to/lastmile_qr_scan", "android": "https://dc.lft.to/lastmile_qr_scan"}, "is_reserved": 0, "fusion_lon": 0.0, "fusion_lat": 0.0, "lon": -77.01271116666666, "name": "d9d1a876cdf71791d6a5a6ef4ed26cd6"}, {"bike_id": "5ec7a3011cf9d711d985da403eee973f", "type": "electric_scooter", "is_disabled": 0, "lat": 38.918149666666665, "rental_uris": {"ios": "https://dc.lft.to/lastmile_qr_scan", "android": "https://dc.lft.to/lastmile_qr_scan"}, "is_reserved": 0, "fusion_lon": 0.0, "fusion_lat": 0.0, "lon": -77.03128983333333, "name": "5ec7a3011cf9d711d985da403eee973f"}, {"bike_id": "ad140afff2e6302885c707f7c1661bc8", "type": "electric_scooter", "is_disabled": 0, "lat": 38.9237025, "rental_uris": {"ios": "https://dc.lft.to/lastmile_qr_scan", "android": "https://dc.lft.to/lastmile_qr_scan"}, "is_reserved": 0, "fusion_lon": 0.0, "fusion_lat": 0.0, "lon": -77.02534866666667, "name": "ad140afff2e6302885c707f7c1661bc8"}, {"bike_id": "6583283cd9bf44ba528953aba379007c", "type": "electric_scooter", "is_disabled": 0, "lat": 38.922861166666664, "rental_uris": {"ios": "https://dc.lft.to/lastmile_qr_scan", "android": "https://dc.lft.to/lastmile_qr_scan"}, "is_reserved": 0, "fusion_lon": 0.0, "fusion_lat": 0.0, "lon": -76.99461433333333, "name": "6583283cd9bf44ba528953aba379007c"}, {"bike_id": "c1781af6ac9673281c5fffe185cbc0b9", "type": "electric_scooter", "is_disabled": 0, "lat": 38.951517333333335, "rental_uris": {"ios": "https://dc.lft.to/lastmile_qr_scan", "android": "https://dc.lft.to/lastmile_qr_scan"}, "is_reserved": 0, "fusion_lon": 0.0, "fusion_lat": 0.0, "lon": -77.018763, "name": "c1781af6ac9673281c5fffe185cbc0b9"}, {"bike_id": "5c2a053e241ac78125bc7c399e97d596", "type": "electric_scooter", "is_disabled": 0, "lat": 38.917067, "rental_uris": {"ios": "https://dc.lft.to/lastmile_qr_scan", "android": "https://dc.lft.to/lastmile_qr_scan"}, "is_reserved": 0, "fusion_lon": 0.0, "fusion_lat": 0.0, "lon": -77.09578316666666, "name": "5c2a053e241ac78125bc7c399e97d596"}, {"bike_id": "2b1cba2b40cd5bffec20316466306a25", "type": "electric_scooter", "is_disabled": 0, "lat": 38.92070866666667, "rental_uris": {"ios": "https://dc.lft.to/lastmile_qr_scan", "android": "https://dc.lft.to/lastmile_qr_scan"}, "is_reserved": 0, "fusion_lon": 0.0, "fusion_lat": 0.0, "lon": -77.02504616666667, "name": "2b1cba2b40cd5bffec20316466306a25"}, {"bike_id": "c12bf8e9dcb748e8ee54f8c7657f423e", "type": "electric_scooter", "is_disabled": 0, "lat": 38.9140395, "rental_uris": {"ios": "https://dc.lft.to/lastmile_qr_scan", "android": "https://dc.lft.to/lastmile_qr_scan"}, "is_reserved": 0, "fusion_lon": 0.0, "fusion_lat": 0.0, "lon": -77.032223, "name": "c12bf8e9dcb748e8ee54f8c7657f423e"}, {"bike_id": "874ba2c49485bc54437b9280fa1609d4", "type": "electric_scooter", "is_disabled": 0, "lat": 38.93675316666667, "rental_uris": {"ios": "https://dc.lft.to/lastmile_qr_scan", "android": "https://dc.lft.to/lastmile_qr_scan"}, "is_reserved": 0, "fusion_lon": 0.0, "fusion_lat": 0.0, "lon": -77.03632583333334, "name": "874ba2c49485bc54437b9280fa1609d4"}, {"bike_id": "6b04dd761f722a08508fcc1e120b1827", "type": "electric_scooter", "is_disabled": 0, "lat": 38.9470365, "rental_uris": {"ios": "https://dc.lft.to/lastmile_qr_scan", "android": "https://dc.lft.to/lastmile_qr_scan"}, "is_reserved": 0, "fusion_lon": 0.0, "fusion_lat": 0.0, "lon": -77.01937633333333, "name": "6b04dd761f722a08508fcc1e120b1827"}, {"bike_id": "d87c18a785320da8c626af6bc1a58785", "type": "electric_scooter", "is_disabled": 0, "lat": 38.94791716666667, "rental_uris": {"ios": "https://dc.lft.to/lastmile_qr_scan", "android": "https://dc.lft.to/lastmile_qr_scan"}, "is_reserved": 0, "fusion_lon": 0.0, "fusion_lat": 0.0, "lon": -77.0213865, "name": "d87c18a785320da8c626af6bc1a58785"}, {"bike_id": "ea5db2b57bc66c283ff34988828d4b92", "type": "electric_scooter", "is_disabled": 0, "lat": 38.919315833333336, "rental_uris": {"ios": "https://dc.lft.to/lastmile_qr_scan", "android": "https://dc.lft.to/lastmile_qr_scan"}, "is_reserved": 0, "fusion_lon": 0.0, "fusion_lat": 0.0, "lon": -77.04495366666667, "name": "ea5db2b57bc66c283ff34988828d4b92"}, {"bike_id": "3c9050b333bce061ace4223dfe6539c1", "type": "electric_scooter", "is_disabled": 0, "lat": 38.906934666666665, "rental_uris": {"ios": "https://dc.lft.to/lastmile_qr_scan", "android": "https://dc.lft.to/lastmile_qr_scan"}, "is_reserved": 0, "fusion_lon": 0.0, "fusion_lat": 0.0, "lon": -77.03597833333333, "name": "3c9050b333bce061ace4223dfe6539c1"}, {"bike_id": "fb620f5e9c1df7c40aa96ec6e5900734", "type": "electric_scooter", "is_disabled": 0, "lat": 38.91614833333333, "rental_uris": {"ios": "https://dc.lft.to/lastmile_qr_scan", "android": "https://dc.lft.to/lastmile_qr_scan"}, "is_reserved": 0, "fusion_lon": 0.0, "fusion_lat": 0.0, "lon": -77.048607, "name": "fb620f5e9c1df7c40aa96ec6e5900734"}, {"bike_id": "b0f480c5b37719e797963a00679ff992", "type": "electric_bike", "is_disabled": 0, "lat": 38.880595, "rental_uris": {"ios": "https://dc.lft.to/lastmile_qr_scan", "android": "https://dc.lft.to/lastmile_qr_scan"}, "is_reserved": 0, "fusion_lon": 0.0, "fusion_lat": 0.0, "lon": -76.96241033333334, "name": "b0f480c5b37719e797963a00679ff992"}, {"bike_id": "194981d1d96d079db98ba3fd49702ad7", "type": "electric_scooter", "is_disabled": 0, "lat": 38.913737, "rental_uris": {"ios": "https://dc.lft.to/lastmile_qr_scan", "android": "https://dc.lft.to/lastmile_qr_scan"}, "is_reserved": 0, "fusion_lon": 0.0, "fusion_lat": 0.0, "lon": -77.0726885, "name": "194981d1d96d079db98ba3fd49702ad7"}, {"bike_id": "806159cb426aa6c096763c5c4d7061f7", "type": "electric_scooter", "is_disabled": 0, "lat": 38.921378, "rental_uris": {"ios": "https://dc.lft.to/lastmile_qr_scan", "android": "https://dc.lft.to/lastmile_qr_scan"}, "is_reserved": 0, "fusion_lon": 0.0, "fusion_lat": 0.0, "lon": -77.04571816666666, "name": "806159cb426aa6c096763c5c4d7061f7"}, {"bike_id": "dd4edd59a7235ee923815af26c5fb69b", "type": "electric_bike", "is_disabled": 0, "lat": 38.91013, "rental_uris": {"ios": "https://dc.lft.to/lastmile_qr_scan", "android": "https://dc.lft.to/lastmile_qr_scan"}, "is_reserved": 0, "fusion_lon": 0.0, "fusion_lat": 0.0, "lon": -77.228002, "name": "dd4edd59a7235ee923815af26c5fb69b"}, {"bike_id": "8e6f9f05e56fc7e43a999a5fabb452f5", "type": "electric_scooter", "is_disabled": 0, "lat": 38.925951833333336, "rental_uris": {"ios": "https://dc.lft.to/lastmile_qr_scan", "android": "https://dc.lft.to/lastmile_qr_scan"}, "is_reserved": 0, "fusion_lon": 0.0, "fusion_lat": 0.0, "lon": -77.02496916666666, "name": "8e6f9f05e56fc7e43a999a5fabb452f5"}, {"bike_id": "b2be8fb049bc18c07a9aca58b6bc47d5", "type": "electric_bike", "is_disabled": 0, "lat": 38.87276816666667, "rental_uris": {"ios": "https://dc.lft.to/lastmile_qr_scan", "android": "https://dc.lft.to/lastmile_qr_scan"}, "is_reserved": 0, "fusion_lon": 0.0, "fusion_lat": 0.0, "lon": -77.23318, "name": "b2be8fb049bc18c07a9aca58b6bc47d5"}, {"bike_id": "450300047e0961da4b148b4a64395336", "type": "electric_scooter", "is_disabled": 0, "lat": 38.9191595, "rental_uris": {"ios": "https://dc.lft.to/lastmile_qr_scan", "android": "https://dc.lft.to/lastmile_qr_scan"}, "is_reserved": 0, "fusion_lon": 0.0, "fusion_lat": 0.0, "lon": -77.01412666666667, "name": "450300047e0961da4b148b4a64395336"}, {"bike_id": "a8a5910b27e11e9591cbf22e7ffe2e58", "type": "electric_scooter", "is_disabled": 0, "lat": 38.92440666666667, "rental_uris": {"ios": "https://dc.lft.to/lastmile_qr_scan", "android": "https://dc.lft.to/lastmile_qr_scan"}, "is_reserved": 0, "fusion_lon": 0.0, "fusion_lat": 0.0, "lon": -77.03351816666667, "name": "a8a5910b27e11e9591cbf22e7ffe2e58"}, {"bike_id": "b18b0f592923919a7213bb5a166fb4ec", "type": "electric_scooter", "is_disabled": 0, "lat": 38.869698, "rental_uris": {"ios": "https://dc.lft.to/lastmile_qr_scan", "android": "https://dc.lft.to/lastmile_qr_scan"}, "is_reserved": 0, "fusion_lon": 0.0, "fusion_lat": 0.0, "lon": -76.9818215, "name": "b18b0f592923919a7213bb5a166fb4ec"}, {"bike_id": "1a40ee1c6c346a99e31018b138ee933d", "type": "electric_scooter", "is_disabled": 0, "lat": 38.914055833333336, "rental_uris": {"ios": "https://dc.lft.to/lastmile_qr_scan", "android": "https://dc.lft.to/lastmile_qr_scan"}, "is_reserved": 0, "fusion_lon": 0.0, "fusion_lat": 0.0, "lon": -77.01555483333334, "name": "1a40ee1c6c346a99e31018b138ee933d"}, {"bike_id": "f122c1a6ae119d9520f46ed9965b4a63", "type": "electric_scooter", "is_disabled": 0, "lat": 38.92852, "rental_uris": {"ios": "https://dc.lft.to/lastmile_qr_scan", "android": "https://dc.lft.to/lastmile_qr_scan"}, "is_reserved": 0, "fusion_lon": 0.0, "fusion_lat": 0.0, "lon": -77.01952833333333, "name": "f122c1a6ae119d9520f46ed9965b4a63"}, {"bike_id": "09b1af6988ee1f2c1f62b63a5152311a", "type": "electric_scooter", "is_disabled": 0, "lat": 38.90097566666667, "rental_uris": {"ios": "https://dc.lft.to/lastmile_qr_scan", "android": "https://dc.lft.to/lastmile_qr_scan"}, "is_reserved": 0, "fusion_lon": 0.0, "fusion_lat": 0.0, "lon": -77.05781666666667, "name": "09b1af6988ee1f2c1f62b63a5152311a"}, {"bike_id": "d68f442cae9756c1ee292a4266ad3656", "type": "electric_scooter", "is_disabled": 0, "lat": 38.92149366666666, "rental_uris": {"ios": "https://dc.lft.to/lastmile_qr_scan", "android": "https://dc.lft.to/lastmile_qr_scan"}, "is_reserved": 0, "fusion_lon": 0.0, "fusion_lat": 0.0, "lon": -77.03526983333333, "name": "d68f442cae9756c1ee292a4266ad3656"}, {"bike_id": "db58a9bb26529012ade7efc37b86637c", "type": "electric_scooter", "is_disabled": 0, "lat": 38.910065333333336, "rental_uris": {"ios": "https://dc.lft.to/lastmile_qr_scan", "android": "https://dc.lft.to/lastmile_qr_scan"}, "is_reserved": 0, "fusion_lon": 0.0, "fusion_lat": 0.0, "lon": -76.98637716666667, "name": "db58a9bb26529012ade7efc37b86637c"}, {"bike_id": "04414901e230b7d2352bb964b595d930", "type": "electric_scooter", "is_disabled": 0, "lat": 38.9064225, "rental_uris": {"ios": "https://dc.lft.to/lastmile_qr_scan", "android": "https://dc.lft.to/lastmile_qr_scan"}, "is_reserved": 0, "fusion_lon": 0.0, "fusion_lat": 0.0, "lon": -76.98588533333333, "name": "04414901e230b7d2352bb964b595d930"}, {"bike_id": "1d7b212737c87852d09d232ae52e8594", "type": "electric_scooter", "is_disabled": 0, "lat": 38.902588, "rental_uris": {"ios": "https://dc.lft.to/lastmile_qr_scan", "android": "https://dc.lft.to/lastmile_qr_scan"}, "is_reserved": 0, "fusion_lon": 0.0, "fusion_lat": 0.0, "lon": -76.975504, "name": "1d7b212737c87852d09d232ae52e8594"}, {"bike_id": "9f676cceaa44526b196fcdbbb9772c0e", "type": "electric_scooter", "is_disabled": 0, "lat": 38.922173666666666, "rental_uris": {"ios": "https://dc.lft.to/lastmile_qr_scan", "android": "https://dc.lft.to/lastmile_qr_scan"}, "is_reserved": 0, "fusion_lon": 0.0, "fusion_lat": 0.0, "lon": -77.03451766666667, "name": "9f676cceaa44526b196fcdbbb9772c0e"}, {"bike_id": "5704d0d326eea6e8cb0e1562822c7603", "type": "electric_scooter", "is_disabled": 0, "lat": 38.90770216666667, "rental_uris": {"ios": "https://dc.lft.to/lastmile_qr_scan", "android": "https://dc.lft.to/lastmile_qr_scan"}, "is_reserved": 0, "fusion_lon": 0.0, "fusion_lat": 0.0, "lon": -77.0385635, "name": "5704d0d326eea6e8cb0e1562822c7603"}, {"bike_id": "f9f1521c6625a5ca15ea751ae97073d6", "type": "electric_scooter", "is_disabled": 0, "lat": 38.88525, "rental_uris": {"ios": "https://dc.lft.to/lastmile_qr_scan", "android": "https://dc.lft.to/lastmile_qr_scan"}, "is_reserved": 0, "fusion_lon": 0.0, "fusion_lat": 0.0, "lon": -77.01138266666666, "name": "f9f1521c6625a5ca15ea751ae97073d6"}, {"bike_id": "2796272420fdf319d7b58d1843660ff9", "type": "electric_scooter", "is_disabled": 0, "lat": 38.9614135, "rental_uris": {"ios": "https://dc.lft.to/lastmile_qr_scan", "android": "https://dc.lft.to/lastmile_qr_scan"}, "is_reserved": 0, "fusion_lon": 0.0, "fusion_lat": 0.0, "lon": -77.0299295, "name": "2796272420fdf319d7b58d1843660ff9"}, {"bike_id": "e427d4d404a3b5e316d3998ef5bed9b7", "type": "electric_scooter", "is_disabled": 0, "lat": 38.9023545, "rental_uris": {"ios": "https://dc.lft.to/lastmile_qr_scan", "android": "https://dc.lft.to/lastmile_qr_scan"}, "is_reserved": 0, "fusion_lon": 0.0, "fusion_lat": 0.0, "lon": -77.0020165, "name": "e427d4d404a3b5e316d3998ef5bed9b7"}, {"bike_id": "102fbc06ff0498530d4a05820e41849d", "type": "electric_bike", "is_disabled": 0, "lat": 39.03986283333333, "rental_uris": {"ios": "https://dc.lft.to/lastmile_qr_scan", "android": "https://dc.lft.to/lastmile_qr_scan"}, "is_reserved": 0, "fusion_lon": 0.0, "fusion_lat": 0.0, "lon": -76.999256, "name": "102fbc06ff0498530d4a05820e41849d"}, {"bike_id": "7e24a58cb2349e8006485ea1afff2371", "type": "electric_scooter", "is_disabled": 0, "lat": 38.903932833333336, "rental_uris": {"ios": "https://dc.lft.to/lastmile_qr_scan", "android": "https://dc.lft.to/lastmile_qr_scan"}, "is_reserved": 0, "fusion_lon": 0.0, "fusion_lat": 0.0, "lon": -77.04831433333334, "name": "7e24a58cb2349e8006485ea1afff2371"}, {"bike_id": "e865b6c1b53d02e73f921a0ccaf2bae5", "type": "electric_scooter", "is_disabled": 0, "lat": 38.90990333333333, "rental_uris": {"ios": "https://dc.lft.to/lastmile_qr_scan", "android": "https://dc.lft.to/lastmile_qr_scan"}, "is_reserved": 0, "fusion_lon": 0.0, "fusion_lat": 0.0, "lon": -77.03841483333333, "name": "e865b6c1b53d02e73f921a0ccaf2bae5"}, {"bike_id": "0028d189395128ddf33aa149995bba76", "type": "electric_scooter", "is_disabled": 0, "lat": 38.897305, "rental_uris": {"ios": "https://dc.lft.to/lastmile_qr_scan", "android": "https://dc.lft.to/lastmile_qr_scan"}, "is_reserved": 0, "fusion_lon": 0.0, "fusion_lat": 0.0, "lon": -77.0547765, "name": "0028d189395128ddf33aa149995bba76"}, {"bike_id": "5a63db7ae3f9b04dd98d84b626361ba6", "type": "electric_scooter", "is_disabled": 0, "lat": 38.867273833333336, "rental_uris": {"ios": "https://dc.lft.to/lastmile_qr_scan", "android": "https://dc.lft.to/lastmile_qr_scan"}, "is_reserved": 0, "fusion_lon": 0.0, "fusion_lat": 0.0, "lon": -76.97859116666666, "name": "5a63db7ae3f9b04dd98d84b626361ba6"}, {"bike_id": "527653ddc8fab98daf92749ef1034ac4", "type": "electric_scooter", "is_disabled": 0, "lat": 38.923883833333335, "rental_uris": {"ios": "https://dc.lft.to/lastmile_qr_scan", "android": "https://dc.lft.to/lastmile_qr_scan"}, "is_reserved": 0, "fusion_lon": 0.0, "fusion_lat": 0.0, "lon": -77.024936, "name": "527653ddc8fab98daf92749ef1034ac4"}, {"bike_id": "00f030921c4d89cde14911c6dd03adbe", "type": "electric_scooter", "is_disabled": 0, "lat": 38.83143783333333, "rental_uris": {"ios": "https://dc.lft.to/lastmile_qr_scan", "android": "https://dc.lft.to/lastmile_qr_scan"}, "is_reserved": 0, "fusion_lon": 0.0, "fusion_lat": 0.0, "lon": -77.05128866666666, "name": "00f030921c4d89cde14911c6dd03adbe"}, {"bike_id": "6df5d83b4aa25528a0a476527a6c3150", "type": "electric_scooter", "is_disabled": 0, "lat": 38.907357, "rental_uris": {"ios": "https://dc.lft.to/lastmile_qr_scan", "android": "https://dc.lft.to/lastmile_qr_scan"}, "is_reserved": 0, "fusion_lon": 0.0, "fusion_lat": 0.0, "lon": -76.979721, "name": "6df5d83b4aa25528a0a476527a6c3150"}, {"bike_id": "10eb2c962652d100873f3443b004512c", "type": "electric_scooter", "is_disabled": 0, "lat": 38.91785083333333, "rental_uris": {"ios": "https://dc.lft.to/lastmile_qr_scan", "android": "https://dc.lft.to/lastmile_qr_scan"}, "is_reserved": 0, "fusion_lon": 0.0, "fusion_lat": 0.0, "lon": -77.02303733333333, "name": "10eb2c962652d100873f3443b004512c"}, {"bike_id": "71912fe9152b841db68c32799f7c9d66", "type": "electric_scooter", "is_disabled": 0, "lat": 38.90744, "rental_uris": {"ios": "https://dc.lft.to/lastmile_qr_scan", "android": "https://dc.lft.to/lastmile_qr_scan"}, "is_reserved": 0, "fusion_lon": 0.0, "fusion_lat": 0.0, "lon": -77.0319135, "name": "71912fe9152b841db68c32799f7c9d66"}, {"bike_id": "4b13ebcb4823ccd366dc4c668dd03cec", "type": "electric_scooter", "is_disabled": 0, "lat": 38.91775716666667, "rental_uris": {"ios": "https://dc.lft.to/lastmile_qr_scan", "android": "https://dc.lft.to/lastmile_qr_scan"}, "is_reserved": 0, "fusion_lon": 0.0, "fusion_lat": 0.0, "lon": -77.03459133333334, "name": "4b13ebcb4823ccd366dc4c668dd03cec"}, {"bike_id": "8dd27cb122d1899cbf7da5f76fb28076", "type": "electric_bike", "is_disabled": 0, "lat": 38.801219833333334, "rental_uris": {"ios": "https://dc.lft.to/lastmile_qr_scan", "android": "https://dc.lft.to/lastmile_qr_scan"}, "is_reserved": 0, "fusion_lon": 0.0, "fusion_lat": 0.0, "lon": -77.07050233333334, "name": "8dd27cb122d1899cbf7da5f76fb28076"}, {"bike_id": "3078c7e7493476700554db70c59ed6e1", "type": "electric_scooter", "is_disabled": 0, "lat": 38.907058166666665, "rental_uris": {"ios": "https://dc.lft.to/lastmile_qr_scan", "android": "https://dc.lft.to/lastmile_qr_scan"}, "is_reserved": 0, "fusion_lon": 0.0, "fusion_lat": 0.0, "lon": -77.03441783333334, "name": "3078c7e7493476700554db70c59ed6e1"}, {"bike_id": "efa4319ac71c48d35a1d44bc4db02119", "type": "electric_scooter", "is_disabled": 0, "lat": 38.91155033333333, "rental_uris": {"ios": "https://dc.lft.to/lastmile_qr_scan", "android": "https://dc.lft.to/lastmile_qr_scan"}, "is_reserved": 0, "fusion_lon": 0.0, "fusion_lat": 0.0, "lon": -77.04427933333334, "name": "efa4319ac71c48d35a1d44bc4db02119"}, {"bike_id": "0bf9d81a94e5cf928c3e6da240c31b25", "type": "electric_scooter", "is_disabled": 0, "lat": 38.932144666666666, "rental_uris": {"ios": "https://dc.lft.to/lastmile_qr_scan", "android": "https://dc.lft.to/lastmile_qr_scan"}, "is_reserved": 0, "fusion_lon": 0.0, "fusion_lat": 0.0, "lon": -77.035159, "name": "0bf9d81a94e5cf928c3e6da240c31b25"}, {"bike_id": "7979c72d9696ad976c42c69f85271dde", "type": "electric_scooter", "is_disabled": 0, "lat": 38.923202833333335, "rental_uris": {"ios": "https://dc.lft.to/lastmile_qr_scan", "android": "https://dc.lft.to/lastmile_qr_scan"}, "is_reserved": 0, "fusion_lon": 0.0, "fusion_lat": 0.0, "lon": -77.021381, "name": "7979c72d9696ad976c42c69f85271dde"}, {"bike_id": "09e155591d71be23a8fef2a0267c9c3d", "type": "electric_scooter", "is_disabled": 0, "lat": 38.90075216666666, "rental_uris": {"ios": "https://dc.lft.to/lastmile_qr_scan", "android": "https://dc.lft.to/lastmile_qr_scan"}, "is_reserved": 0, "fusion_lon": 0.0, "fusion_lat": 0.0, "lon": -77.04687266666667, "name": "09e155591d71be23a8fef2a0267c9c3d"}, {"bike_id": "d2348788845cd431b8f6128d7748bf6e", "type": "electric_scooter", "is_disabled": 0, "lat": 38.949985166666664, "rental_uris": {"ios": "https://dc.lft.to/lastmile_qr_scan", "android": "https://dc.lft.to/lastmile_qr_scan"}, "is_reserved": 0, "fusion_lon": 0.0, "fusion_lat": 0.0, "lon": -77.00874133333333, "name": "d2348788845cd431b8f6128d7748bf6e"}, {"bike_id": "357ef227f1dca34e12f917040b67424b", "type": "electric_bike", "is_disabled": 0, "lat": 38.8452485, "rental_uris": {"ios": "https://dc.lft.to/lastmile_qr_scan", "android": "https://dc.lft.to/lastmile_qr_scan"}, "is_reserved": 0, "fusion_lon": 0.0, "fusion_lat": 0.0, "lon": -76.97396633333334, "name": "357ef227f1dca34e12f917040b67424b"}, {"bike_id": "81106487cbae4317fd864bda1353c10e", "type": "electric_scooter", "is_disabled": 0, "lat": 38.923622, "rental_uris": {"ios": "https://dc.lft.to/lastmile_qr_scan", "android": "https://dc.lft.to/lastmile_qr_scan"}, "is_reserved": 0, "fusion_lon": 0.0, "fusion_lat": 0.0, "lon": -77.05132733333333, "name": "81106487cbae4317fd864bda1353c10e"}, {"bike_id": "383ddb6c14d8780fe5cb0fe9428aaa11", "type": "electric_scooter", "is_disabled": 0, "lat": 38.9324785, "rental_uris": {"ios": "https://dc.lft.to/lastmile_qr_scan", "android": "https://dc.lft.to/lastmile_qr_scan"}, "is_reserved": 0, "fusion_lon": 0.0, "fusion_lat": 0.0, "lon": -77.0364295, "name": "383ddb6c14d8780fe5cb0fe9428aaa11"}, {"bike_id": "ef1504bb04eb243d93974292197ecedd", "type": "electric_scooter", "is_disabled": 0, "lat": 38.887656166666666, "rental_uris": {"ios": "https://dc.lft.to/lastmile_qr_scan", "android": "https://dc.lft.to/lastmile_qr_scan"}, "is_reserved": 0, "fusion_lon": 0.0, "fusion_lat": 0.0, "lon": -76.9560055, "name": "ef1504bb04eb243d93974292197ecedd"}, {"bike_id": "c3d58e74f8d3fa62644b613a815ea070", "type": "electric_scooter", "is_disabled": 0, "lat": 38.912809833333334, "rental_uris": {"ios": "https://dc.lft.to/lastmile_qr_scan", "android": "https://dc.lft.to/lastmile_qr_scan"}, "is_reserved": 0, "fusion_lon": 0.0, "fusion_lat": 0.0, "lon": -77.02717533333333, "name": "c3d58e74f8d3fa62644b613a815ea070"}, {"bike_id": "036a03b176a283403a32bafece4d1f60", "type": "electric_scooter", "is_disabled": 0, "lat": 38.9354315, "rental_uris": {"ios": "https://dc.lft.to/lastmile_qr_scan", "android": "https://dc.lft.to/lastmile_qr_scan"}, "is_reserved": 0, "fusion_lon": 0.0, "fusion_lat": 0.0, "lon": -77.05825, "name": "036a03b176a283403a32bafece4d1f60"}, {"bike_id": "47960021e754c3acf27ad649af4cdcda", "type": "electric_bike", "is_disabled": 0, "lat": 38.95590766666667, "rental_uris": {"ios": "https://dc.lft.to/lastmile_qr_scan", "android": "https://dc.lft.to/lastmile_qr_scan"}, "is_reserved": 0, "fusion_lon": 0.0, "fusion_lat": 0.0, "lon": -77.08799566666667, "name": "47960021e754c3acf27ad649af4cdcda"}, {"bike_id": "d173c11f5abdc87f0585152f943ac221", "type": "electric_scooter", "is_disabled": 0, "lat": 38.90551283333333, "rental_uris": {"ios": "https://dc.lft.to/lastmile_qr_scan", "android": "https://dc.lft.to/lastmile_qr_scan"}, "is_reserved": 0, "fusion_lon": 0.0, "fusion_lat": 0.0, "lon": -77.05006866666666, "name": "d173c11f5abdc87f0585152f943ac221"}, {"bike_id": "d202a62bd897308975949e010f15a8b8", "type": "electric_scooter", "is_disabled": 0, "lat": 38.89344066666666, "rental_uris": {"ios": "https://dc.lft.to/lastmile_qr_scan", "android": "https://dc.lft.to/lastmile_qr_scan"}, "is_reserved": 0, "fusion_lon": 0.0, "fusion_lat": 0.0, "lon": -77.02408683333333, "name": "d202a62bd897308975949e010f15a8b8"}, {"bike_id": "73c4c95ebb560d9a27c31045c31e6f2f", "type": "electric_scooter", "is_disabled": 0, "lat": 38.938719166666665, "rental_uris": {"ios": "https://dc.lft.to/lastmile_qr_scan", "android": "https://dc.lft.to/lastmile_qr_scan"}, "is_reserved": 0, "fusion_lon": 0.0, "fusion_lat": 0.0, "lon": -77.02921833333333, "name": "73c4c95ebb560d9a27c31045c31e6f2f"}, {"bike_id": "2f5292379c7102cb80e181b68c99484b", "type": "electric_scooter", "is_disabled": 0, "lat": 38.9165005, "rental_uris": {"ios": "https://dc.lft.to/lastmile_qr_scan", "android": "https://dc.lft.to/lastmile_qr_scan"}, "is_reserved": 0, "fusion_lon": 0.0, "fusion_lat": 0.0, "lon": -77.0319125, "name": "2f5292379c7102cb80e181b68c99484b"}, {"bike_id": "bb5c4d3a2eb180a9f5f61a91a9ec074d", "type": "electric_bike", "is_disabled": 0, "lat": 38.95248216666667, "rental_uris": {"ios": "https://dc.lft.to/lastmile_qr_scan", "android": "https://dc.lft.to/lastmile_qr_scan"}, "is_reserved": 0, "fusion_lon": 0.0, "fusion_lat": 0.0, "lon": -76.97676783333333, "name": "bb5c4d3a2eb180a9f5f61a91a9ec074d"}, {"bike_id": "4826b44466e3779dc511b3896bf4fbaf", "type": "electric_bike", "is_disabled": 0, "lat": 38.949236666666664, "rental_uris": {"ios": "https://dc.lft.to/lastmile_qr_scan", "android": "https://dc.lft.to/lastmile_qr_scan"}, "is_reserved": 0, "fusion_lon": 0.0, "fusion_lat": 0.0, "lon": -77.00798183333333, "name": "4826b44466e3779dc511b3896bf4fbaf"}, {"bike_id": "c83b153d1a18aad46b19731c9aac8ec6", "type": "electric_scooter", "is_disabled": 0, "lat": 38.911161, "rental_uris": {"ios": "https://dc.lft.to/lastmile_qr_scan", "android": "https://dc.lft.to/lastmile_qr_scan"}, "is_reserved": 0, "fusion_lon": 0.0, "fusion_lat": 0.0, "lon": -77.03919183333333, "name": "c83b153d1a18aad46b19731c9aac8ec6"}, {"bike_id": "2e1437834cdb4313f9aa556217e83152", "type": "electric_scooter", "is_disabled": 0, "lat": 38.917100166666664, "rental_uris": {"ios": "https://dc.lft.to/lastmile_qr_scan", "android": "https://dc.lft.to/lastmile_qr_scan"}, "is_reserved": 0, "fusion_lon": 0.0, "fusion_lat": 0.0, "lon": -77.0345565, "name": "2e1437834cdb4313f9aa556217e83152"}, {"bike_id": "15e10c1d6a26f8f90e726da1e3bb2f53", "type": "electric_scooter", "is_disabled": 0, "lat": 38.93524416666666, "rental_uris": {"ios": "https://dc.lft.to/lastmile_qr_scan", "android": "https://dc.lft.to/lastmile_qr_scan"}, "is_reserved": 0, "fusion_lon": 0.0, "fusion_lat": 0.0, "lon": -77.02967983333333, "name": "15e10c1d6a26f8f90e726da1e3bb2f53"}, {"bike_id": "e8cb3bd67e838d24b0312be34a895ae5", "type": "electric_scooter", "is_disabled": 0, "lat": 38.906486, "rental_uris": {"ios": "https://dc.lft.to/lastmile_qr_scan", "android": "https://dc.lft.to/lastmile_qr_scan"}, "is_reserved": 0, "fusion_lon": 0.0, "fusion_lat": 0.0, "lon": -77.01009183333333, "name": "e8cb3bd67e838d24b0312be34a895ae5"}, {"bike_id": "d21acd30ef48b3bb26efeb2db48fb6a3", "type": "electric_scooter", "is_disabled": 0, "lat": 38.9067485, "rental_uris": {"ios": "https://dc.lft.to/lastmile_qr_scan", "android": "https://dc.lft.to/lastmile_qr_scan"}, "is_reserved": 0, "fusion_lon": 0.0, "fusion_lat": 0.0, "lon": -77.07180383333333, "name": "d21acd30ef48b3bb26efeb2db48fb6a3"}, {"bike_id": "29e8293b47484dadb42a67d57d2e7289", "type": "electric_scooter", "is_disabled": 0, "lat": 38.9002985, "rental_uris": {"ios": "https://dc.lft.to/lastmile_qr_scan", "android": "https://dc.lft.to/lastmile_qr_scan"}, "is_reserved": 0, "fusion_lon": 0.0, "fusion_lat": 0.0, "lon": -76.98813233333334, "name": "29e8293b47484dadb42a67d57d2e7289"}, {"bike_id": "3ab0c616a28a8773455a439e239be743", "type": "electric_scooter", "is_disabled": 0, "lat": 38.916859333333335, "rental_uris": {"ios": "https://dc.lft.to/lastmile_qr_scan", "android": "https://dc.lft.to/lastmile_qr_scan"}, "is_reserved": 0, "fusion_lon": 0.0, "fusion_lat": 0.0, "lon": -77.02297133333333, "name": "3ab0c616a28a8773455a439e239be743"}, {"bike_id": "1113666ff584e9119ca4c60f5cbfa762", "type": "electric_scooter", "is_disabled": 0, "lat": 38.9110405, "rental_uris": {"ios": "https://dc.lft.to/lastmile_qr_scan", "android": "https://dc.lft.to/lastmile_qr_scan"}, "is_reserved": 0, "fusion_lon": 0.0, "fusion_lat": 0.0, "lon": -77.0115435, "name": "1113666ff584e9119ca4c60f5cbfa762"}, {"bike_id": "2542787709d0816c0535990ef94d5f10", "type": "electric_scooter", "is_disabled": 0, "lat": 38.90683383333333, "rental_uris": {"ios": "https://dc.lft.to/lastmile_qr_scan", "android": "https://dc.lft.to/lastmile_qr_scan"}, "is_reserved": 0, "fusion_lon": 0.0, "fusion_lat": 0.0, "lon": -77.063415, "name": "2542787709d0816c0535990ef94d5f10"}, {"bike_id": "c260dc083d51a9e60db499afe4a0e7a9", "type": "electric_scooter", "is_disabled": 0, "lat": 38.94214316666667, "rental_uris": {"ios": "https://dc.lft.to/lastmile_qr_scan", "android": "https://dc.lft.to/lastmile_qr_scan"}, "is_reserved": 0, "fusion_lon": 0.0, "fusion_lat": 0.0, "lon": -77.0258675, "name": "c260dc083d51a9e60db499afe4a0e7a9"}, {"bike_id": "ca20a8cfaac1015e77e04188b21e76d0", "type": "electric_scooter", "is_disabled": 0, "lat": 38.93184566666667, "rental_uris": {"ios": "https://dc.lft.to/lastmile_qr_scan", "android": "https://dc.lft.to/lastmile_qr_scan"}, "is_reserved": 0, "fusion_lon": 0.0, "fusion_lat": 0.0, "lon": -77.03656533333333, "name": "ca20a8cfaac1015e77e04188b21e76d0"}, {"bike_id": "5b572eae454cfdb1478bf00f7ee0df76", "type": "electric_scooter", "is_disabled": 0, "lat": 38.929765, "rental_uris": {"ios": "https://dc.lft.to/lastmile_qr_scan", "android": "https://dc.lft.to/lastmile_qr_scan"}, "is_reserved": 0, "fusion_lon": 0.0, "fusion_lat": 0.0, "lon": -77.03947, "name": "5b572eae454cfdb1478bf00f7ee0df76"}, {"bike_id": "f2714a37e9da15e2ca34ca00658133c7", "type": "electric_scooter", "is_disabled": 0, "lat": 38.9104655, "rental_uris": {"ios": "https://dc.lft.to/lastmile_qr_scan", "android": "https://dc.lft.to/lastmile_qr_scan"}, "is_reserved": 0, "fusion_lon": 0.0, "fusion_lat": 0.0, "lon": -77.04131316666667, "name": "f2714a37e9da15e2ca34ca00658133c7"}, {"bike_id": "19e2a8b7e7d0d36cb249bcb61ecda3e1", "type": "electric_scooter", "is_disabled": 0, "lat": 38.923422333333335, "rental_uris": {"ios": "https://dc.lft.to/lastmile_qr_scan", "android": "https://dc.lft.to/lastmile_qr_scan"}, "is_reserved": 0, "fusion_lon": 0.0, "fusion_lat": 0.0, "lon": -77.04023283333333, "name": "19e2a8b7e7d0d36cb249bcb61ecda3e1"}, {"bike_id": "2ec3d0ca5bb634220a0d91897cefdbca", "type": "electric_scooter", "is_disabled": 0, "lat": 38.93455433333333, "rental_uris": {"ios": "https://dc.lft.to/lastmile_qr_scan", "android": "https://dc.lft.to/lastmile_qr_scan"}, "is_reserved": 0, "fusion_lon": 0.0, "fusion_lat": 0.0, "lon": -77.07223266666666, "name": "2ec3d0ca5bb634220a0d91897cefdbca"}, {"bike_id": "606a5703d903433d05cffb65f8772a7a", "type": "electric_scooter", "is_disabled": 0, "lat": 38.92465766666667, "rental_uris": {"ios": "https://dc.lft.to/lastmile_qr_scan", "android": "https://dc.lft.to/lastmile_qr_scan"}, "is_reserved": 0, "fusion_lon": 0.0, "fusion_lat": 0.0, "lon": -77.05233683333333, "name": "606a5703d903433d05cffb65f8772a7a"}, {"bike_id": "db51b46a95e2592c08203b7bf6963219", "type": "electric_scooter", "is_disabled": 0, "lat": 38.8924845, "rental_uris": {"ios": "https://dc.lft.to/lastmile_qr_scan", "android": "https://dc.lft.to/lastmile_qr_scan"}, "is_reserved": 0, "fusion_lon": 0.0, "fusion_lat": 0.0, "lon": -77.0395785, "name": "db51b46a95e2592c08203b7bf6963219"}, {"bike_id": "5739aea86a3c225ea8ebf3e6860d457c", "type": "electric_bike", "is_disabled": 0, "lat": 39.05634716666667, "rental_uris": {"ios": "https://dc.lft.to/lastmile_qr_scan", "android": "https://dc.lft.to/lastmile_qr_scan"}, "is_reserved": 0, "fusion_lon": 0.0, "fusion_lat": 0.0, "lon": -77.12527366666667, "name": "5739aea86a3c225ea8ebf3e6860d457c"}, {"bike_id": "5d8c98255c7bb836cf895fa495e8a58e", "type": "electric_scooter", "is_disabled": 0, "lat": 38.907305, "rental_uris": {"ios": "https://dc.lft.to/lastmile_qr_scan", "android": "https://dc.lft.to/lastmile_qr_scan"}, "is_reserved": 0, "fusion_lon": 0.0, "fusion_lat": 0.0, "lon": -77.01491716666666, "name": "5d8c98255c7bb836cf895fa495e8a58e"}, {"bike_id": "c2f4d411cceb8ee83050909766c5a887", "type": "electric_scooter", "is_disabled": 0, "lat": 38.89869766666666, "rental_uris": {"ios": "https://dc.lft.to/lastmile_qr_scan", "android": "https://dc.lft.to/lastmile_qr_scan"}, "is_reserved": 0, "fusion_lon": 0.0, "fusion_lat": 0.0, "lon": -77.01994166666667, "name": "c2f4d411cceb8ee83050909766c5a887"}, {"bike_id": "fa79d87e7da0f455dea330fa3313e106", "type": "electric_scooter", "is_disabled": 0, "lat": 38.929858, "rental_uris": {"ios": "https://dc.lft.to/lastmile_qr_scan", "android": "https://dc.lft.to/lastmile_qr_scan"}, "is_reserved": 0, "fusion_lon": 0.0, "fusion_lat": 0.0, "lon": -77.034765, "name": "fa79d87e7da0f455dea330fa3313e106"}, {"bike_id": "16faa9ea98f97693c1207a672fd4a39e", "type": "electric_scooter", "is_disabled": 0, "lat": 38.890138, "rental_uris": {"ios": "https://dc.lft.to/lastmile_qr_scan", "android": "https://dc.lft.to/lastmile_qr_scan"}, "is_reserved": 0, "fusion_lon": 0.0, "fusion_lat": 0.0, "lon": -77.03329883333333, "name": "16faa9ea98f97693c1207a672fd4a39e"}, {"bike_id": "b1f4c76165971475950f33b6e3025f6a", "type": "electric_scooter", "is_disabled": 0, "lat": 38.91587783333333, "rental_uris": {"ios": "https://dc.lft.to/lastmile_qr_scan", "android": "https://dc.lft.to/lastmile_qr_scan"}, "is_reserved": 0, "fusion_lon": 0.0, "fusion_lat": 0.0, "lon": -77.0448725, "name": "b1f4c76165971475950f33b6e3025f6a"}, {"bike_id": "f33c723f0ba59499c27ef1901f566654", "type": "electric_bike", "is_disabled": 0, "lat": 38.928572, "rental_uris": {"ios": "https://dc.lft.to/lastmile_qr_scan", "android": "https://dc.lft.to/lastmile_qr_scan"}, "is_reserved": 0, "fusion_lon": 0.0, "fusion_lat": 0.0, "lon": -76.98939666666666, "name": "f33c723f0ba59499c27ef1901f566654"}, {"bike_id": "887b96cf2fb1266beee64fd96c82e83b", "type": "electric_scooter", "is_disabled": 0, "lat": 38.933622, "rental_uris": {"ios": "https://dc.lft.to/lastmile_qr_scan", "android": "https://dc.lft.to/lastmile_qr_scan"}, "is_reserved": 0, "fusion_lon": 0.0, "fusion_lat": 0.0, "lon": -77.088557, "name": "887b96cf2fb1266beee64fd96c82e83b"}, {"bike_id": "39909b01d7b83cd570fb451cf9054b02", "type": "electric_scooter", "is_disabled": 0, "lat": 38.905900833333334, "rental_uris": {"ios": "https://dc.lft.to/lastmile_qr_scan", "android": "https://dc.lft.to/lastmile_qr_scan"}, "is_reserved": 0, "fusion_lon": 0.0, "fusion_lat": 0.0, "lon": -77.051327, "name": "39909b01d7b83cd570fb451cf9054b02"}, {"bike_id": "2aed34da7d66bf2b86879b85527f8100", "type": "electric_scooter", "is_disabled": 0, "lat": 38.923639, "rental_uris": {"ios": "https://dc.lft.to/lastmile_qr_scan", "android": "https://dc.lft.to/lastmile_qr_scan"}, "is_reserved": 0, "fusion_lon": 0.0, "fusion_lat": 0.0, "lon": -77.01948933333334, "name": "2aed34da7d66bf2b86879b85527f8100"}, {"bike_id": "222649ca91df35f9380a279e17c53616", "type": "electric_bike", "is_disabled": 0, "lat": 38.8766895, "rental_uris": {"ios": "https://dc.lft.to/lastmile_qr_scan", "android": "https://dc.lft.to/lastmile_qr_scan"}, "is_reserved": 0, "fusion_lon": 0.0, "fusion_lat": 0.0, "lon": -77.0144185, "name": "222649ca91df35f9380a279e17c53616"}, {"bike_id": "65df164671904caaf119c4eb03422c49", "type": "electric_scooter", "is_disabled": 0, "lat": 38.90381883333333, "rental_uris": {"ios": "https://dc.lft.to/lastmile_qr_scan", "android": "https://dc.lft.to/lastmile_qr_scan"}, "is_reserved": 0, "fusion_lon": 0.0, "fusion_lat": 0.0, "lon": -77.02399116666666, "name": "65df164671904caaf119c4eb03422c49"}, {"bike_id": "199211575844e088a721b3eb222989af", "type": "electric_scooter", "is_disabled": 0, "lat": 38.9167515, "rental_uris": {"ios": "https://dc.lft.to/lastmile_qr_scan", "android": "https://dc.lft.to/lastmile_qr_scan"}, "is_reserved": 0, "fusion_lon": 0.0, "fusion_lat": 0.0, "lon": -77.0319325, "name": "199211575844e088a721b3eb222989af"}, {"bike_id": "0d0c2d80721609f9c6977132334c3cae", "type": "electric_scooter", "is_disabled": 0, "lat": 38.92656433333333, "rental_uris": {"ios": "https://dc.lft.to/lastmile_qr_scan", "android": "https://dc.lft.to/lastmile_qr_scan"}, "is_reserved": 0, "fusion_lon": 0.0, "fusion_lat": 0.0, "lon": -77.0372975, "name": "0d0c2d80721609f9c6977132334c3cae"}, {"bike_id": "0bf809510065c439f7b8027d681d5dab", "type": "electric_scooter", "is_disabled": 0, "lat": 38.9059065, "rental_uris": {"ios": "https://dc.lft.to/lastmile_qr_scan", "android": "https://dc.lft.to/lastmile_qr_scan"}, "is_reserved": 0, "fusion_lon": 0.0, "fusion_lat": 0.0, "lon": -77.0680425, "name": "0bf809510065c439f7b8027d681d5dab"}, {"bike_id": "04295350f2047aa0d1a42cda1472edb9", "type": "electric_scooter", "is_disabled": 0, "lat": 38.91914, "rental_uris": {"ios": "https://dc.lft.to/lastmile_qr_scan", "android": "https://dc.lft.to/lastmile_qr_scan"}, "is_reserved": 0, "fusion_lon": 0.0, "fusion_lat": 0.0, "lon": -77.0334375, "name": "04295350f2047aa0d1a42cda1472edb9"}, {"bike_id": "db81d3c01c918de5513dd4010a5c6982", "type": "electric_scooter", "is_disabled": 0, "lat": 38.89236066666667, "rental_uris": {"ios": "https://dc.lft.to/lastmile_qr_scan", "android": "https://dc.lft.to/lastmile_qr_scan"}, "is_reserved": 0, "fusion_lon": 0.0, "fusion_lat": 0.0, "lon": -77.023822, "name": "db81d3c01c918de5513dd4010a5c6982"}, {"bike_id": "14e82d7343c8fd37e029d895926fd3ac", "type": "electric_bike", "is_disabled": 0, "lat": 38.8360865, "rental_uris": {"ios": "https://dc.lft.to/lastmile_qr_scan", "android": "https://dc.lft.to/lastmile_qr_scan"}, "is_reserved": 0, "fusion_lon": 0.0, "fusion_lat": 0.0, "lon": -77.00379816666667, "name": "14e82d7343c8fd37e029d895926fd3ac"}, {"bike_id": "fbdbf271aef465088a3a117f973bfe67", "type": "electric_bike", "is_disabled": 0, "lat": 38.85936316666667, "rental_uris": {"ios": "https://dc.lft.to/lastmile_qr_scan", "android": "https://dc.lft.to/lastmile_qr_scan"}, "is_reserved": 0, "fusion_lon": 0.0, "fusion_lat": 0.0, "lon": -77.11828866666667, "name": "fbdbf271aef465088a3a117f973bfe67"}, {"bike_id": "50449b49c811fa875e00c0b28b2d9431", "type": "electric_bike", "is_disabled": 0, "lat": 38.82367466666667, "rental_uris": {"ios": "https://dc.lft.to/lastmile_qr_scan", "android": "https://dc.lft.to/lastmile_qr_scan"}, "is_reserved": 0, "fusion_lon": 0.0, "fusion_lat": 0.0, "lon": -77.0021815, "name": "50449b49c811fa875e00c0b28b2d9431"}, {"bike_id": "195d3a472973a8f1a85e32430ccd957e", "type": "electric_bike", "is_disabled": 0, "lat": 38.89811233333333, "rental_uris": {"ios": "https://dc.lft.to/lastmile_qr_scan", "android": "https://dc.lft.to/lastmile_qr_scan"}, "is_reserved": 0, "fusion_lon": 0.0, "fusion_lat": 0.0, "lon": -76.9907435, "name": "195d3a472973a8f1a85e32430ccd957e"}, {"bike_id": "1c81a175e7245e272d5a54b98beb6d1d", "type": "electric_scooter", "is_disabled": 0, "lat": 38.92227883333334, "rental_uris": {"ios": "https://dc.lft.to/lastmile_qr_scan", "android": "https://dc.lft.to/lastmile_qr_scan"}, "is_reserved": 0, "fusion_lon": 0.0, "fusion_lat": 0.0, "lon": -77.04715483333334, "name": "1c81a175e7245e272d5a54b98beb6d1d"}, {"bike_id": "710fc14f3d23bedf3c122bf1b405bacf", "type": "electric_scooter", "is_disabled": 0, "lat": 38.9208, "rental_uris": {"ios": "https://dc.lft.to/lastmile_qr_scan", "android": "https://dc.lft.to/lastmile_qr_scan"}, "is_reserved": 0, "fusion_lon": 0.0, "fusion_lat": 0.0, "lon": -77.004602, "name": "710fc14f3d23bedf3c122bf1b405bacf"}, {"bike_id": "70b54379d0319bb4a1bf9cdc7abcda56", "type": "electric_scooter", "is_disabled": 0, "lat": 38.914043666666664, "rental_uris": {"ios": "https://dc.lft.to/lastmile_qr_scan", "android": "https://dc.lft.to/lastmile_qr_scan"}, "is_reserved": 0, "fusion_lon": 0.0, "fusion_lat": 0.0, "lon": -77.021028, "name": "70b54379d0319bb4a1bf9cdc7abcda56"}, {"bike_id": "61778a0bad84dc2581ba904aca68c558", "type": "electric_scooter", "is_disabled": 0, "lat": 38.90681383333333, "rental_uris": {"ios": "https://dc.lft.to/lastmile_qr_scan", "android": "https://dc.lft.to/lastmile_qr_scan"}, "is_reserved": 0, "fusion_lon": 0.0, "fusion_lat": 0.0, "lon": -77.0634115, "name": "61778a0bad84dc2581ba904aca68c558"}, {"bike_id": "c6eb0d173b93740d61f7c0ccc31c846f", "type": "electric_scooter", "is_disabled": 0, "lat": 38.90361166666667, "rental_uris": {"ios": "https://dc.lft.to/lastmile_qr_scan", "android": "https://dc.lft.to/lastmile_qr_scan"}, "is_reserved": 0, "fusion_lon": 0.0, "fusion_lat": 0.0, "lon": -77.00746166666667, "name": "c6eb0d173b93740d61f7c0ccc31c846f"}, {"bike_id": "e468ca0649d264274bdf489cab9668ab", "type": "electric_scooter", "is_disabled": 0, "lat": 38.93870783333333, "rental_uris": {"ios": "https://dc.lft.to/lastmile_qr_scan", "android": "https://dc.lft.to/lastmile_qr_scan"}, "is_reserved": 0, "fusion_lon": 0.0, "fusion_lat": 0.0, "lon": -77.02446283333333, "name": "e468ca0649d264274bdf489cab9668ab"}, {"bike_id": "34a62c050f960c3e74fc857fb7050503", "type": "electric_scooter", "is_disabled": 0, "lat": 38.882674333333334, "rental_uris": {"ios": "https://dc.lft.to/lastmile_qr_scan", "android": "https://dc.lft.to/lastmile_qr_scan"}, "is_reserved": 0, "fusion_lon": 0.0, "fusion_lat": 0.0, "lon": -76.99253733333333, "name": "34a62c050f960c3e74fc857fb7050503"}, {"bike_id": "19fa68afefeba3c1a1461cb64e05add8", "type": "electric_scooter", "is_disabled": 0, "lat": 38.92085816666667, "rental_uris": {"ios": "https://dc.lft.to/lastmile_qr_scan", "android": "https://dc.lft.to/lastmile_qr_scan"}, "is_reserved": 0, "fusion_lon": 0.0, "fusion_lat": 0.0, "lon": -77.02405066666667, "name": "19fa68afefeba3c1a1461cb64e05add8"}, {"bike_id": "1c15ede685024e556241bd92a2cffad2", "type": "electric_scooter", "is_disabled": 0, "lat": 38.927502833333335, "rental_uris": {"ios": "https://dc.lft.to/lastmile_qr_scan", "android": "https://dc.lft.to/lastmile_qr_scan"}, "is_reserved": 0, "fusion_lon": 0.0, "fusion_lat": 0.0, "lon": -77.02307283333333, "name": "1c15ede685024e556241bd92a2cffad2"}, {"bike_id": "0dd12738d979ae332c68d3e630eb7fbd", "type": "electric_scooter", "is_disabled": 0, "lat": 38.916288333333334, "rental_uris": {"ios": "https://dc.lft.to/lastmile_qr_scan", "android": "https://dc.lft.to/lastmile_qr_scan"}, "is_reserved": 0, "fusion_lon": 0.0, "fusion_lat": 0.0, "lon": -77.03985416666667, "name": "0dd12738d979ae332c68d3e630eb7fbd"}, {"bike_id": "5e0330119644435eaf518b0ce6c21d0d", "type": "electric_scooter", "is_disabled": 0, "lat": 38.90202, "rental_uris": {"ios": "https://dc.lft.to/lastmile_qr_scan", "android": "https://dc.lft.to/lastmile_qr_scan"}, "is_reserved": 0, "fusion_lon": 0.0, "fusion_lat": 0.0, "lon": -77.02373266666666, "name": "5e0330119644435eaf518b0ce6c21d0d"}, {"bike_id": "6c76194b015da79bbae012bb52dc099e", "type": "electric_scooter", "is_disabled": 0, "lat": 38.91912383333333, "rental_uris": {"ios": "https://dc.lft.to/lastmile_qr_scan", "android": "https://dc.lft.to/lastmile_qr_scan"}, "is_reserved": 0, "fusion_lon": 0.0, "fusion_lat": 0.0, "lon": -77.03427316666667, "name": "6c76194b015da79bbae012bb52dc099e"}, {"bike_id": "766d03fa09ec673352a0e4bd82d9f241", "type": "electric_scooter", "is_disabled": 0, "lat": 38.90960416666667, "rental_uris": {"ios": "https://dc.lft.to/lastmile_qr_scan", "android": "https://dc.lft.to/lastmile_qr_scan"}, "is_reserved": 0, "fusion_lon": 0.0, "fusion_lat": 0.0, "lon": -77.02279933333334, "name": "766d03fa09ec673352a0e4bd82d9f241"}, {"bike_id": "b56baaa7a029da363eb8fecf2379d5ac", "type": "electric_scooter", "is_disabled": 0, "lat": 38.90816916666667, "rental_uris": {"ios": "https://dc.lft.to/lastmile_qr_scan", "android": "https://dc.lft.to/lastmile_qr_scan"}, "is_reserved": 0, "fusion_lon": 0.0, "fusion_lat": 0.0, "lon": -77.02375533333333, "name": "b56baaa7a029da363eb8fecf2379d5ac"}, {"bike_id": "0a0c79c619e2dd7835800caf0c4fabf3", "type": "electric_scooter", "is_disabled": 0, "lat": 38.9224205, "rental_uris": {"ios": "https://dc.lft.to/lastmile_qr_scan", "android": "https://dc.lft.to/lastmile_qr_scan"}, "is_reserved": 0, "fusion_lon": 0.0, "fusion_lat": 0.0, "lon": -77.07474183333333, "name": "0a0c79c619e2dd7835800caf0c4fabf3"}, {"bike_id": "8bb20e8b1cebc968a52cf7de637d6566", "type": "electric_scooter", "is_disabled": 0, "lat": 38.93678833333333, "rental_uris": {"ios": "https://dc.lft.to/lastmile_qr_scan", "android": "https://dc.lft.to/lastmile_qr_scan"}, "is_reserved": 0, "fusion_lon": 0.0, "fusion_lat": 0.0, "lon": -77.0362475, "name": "8bb20e8b1cebc968a52cf7de637d6566"}, {"bike_id": "5727226ff438af6b901907355ce4c017", "type": "electric_scooter", "is_disabled": 0, "lat": 38.92192633333333, "rental_uris": {"ios": "https://dc.lft.to/lastmile_qr_scan", "android": "https://dc.lft.to/lastmile_qr_scan"}, "is_reserved": 0, "fusion_lon": 0.0, "fusion_lat": 0.0, "lon": -76.99365516666667, "name": "5727226ff438af6b901907355ce4c017"}, {"bike_id": "98508a2a47669e3a3052e050adcb69b2", "type": "electric_scooter", "is_disabled": 0, "lat": 38.912767833333334, "rental_uris": {"ios": "https://dc.lft.to/lastmile_qr_scan", "android": "https://dc.lft.to/lastmile_qr_scan"}, "is_reserved": 0, "fusion_lon": 0.0, "fusion_lat": 0.0, "lon": -77.04736216666667, "name": "98508a2a47669e3a3052e050adcb69b2"}, {"bike_id": "6a6abc6c7dca621081ad2c8ea5a91039", "type": "electric_scooter", "is_disabled": 0, "lat": 38.857023, "rental_uris": {"ios": "https://dc.lft.to/lastmile_qr_scan", "android": "https://dc.lft.to/lastmile_qr_scan"}, "is_reserved": 0, "fusion_lon": 0.0, "fusion_lat": 0.0, "lon": -76.98975783333333, "name": "6a6abc6c7dca621081ad2c8ea5a91039"}, {"bike_id": "91702cf7e9912ef3cbee8b2b167af1c9", "type": "electric_scooter", "is_disabled": 0, "lat": 38.90062733333333, "rental_uris": {"ios": "https://dc.lft.to/lastmile_qr_scan", "android": "https://dc.lft.to/lastmile_qr_scan"}, "is_reserved": 0, "fusion_lon": 0.0, "fusion_lat": 0.0, "lon": -76.93479316666667, "name": "91702cf7e9912ef3cbee8b2b167af1c9"}, {"bike_id": "b8e926bd8c86df7153df2f8e354eeb3e", "type": "electric_scooter", "is_disabled": 0, "lat": 38.930068166666665, "rental_uris": {"ios": "https://dc.lft.to/lastmile_qr_scan", "android": "https://dc.lft.to/lastmile_qr_scan"}, "is_reserved": 0, "fusion_lon": 0.0, "fusion_lat": 0.0, "lon": -77.01432516666667, "name": "b8e926bd8c86df7153df2f8e354eeb3e"}, {"bike_id": "5d94c6044b89de5dd89997318403977f", "type": "electric_scooter", "is_disabled": 0, "lat": 38.935353166666665, "rental_uris": {"ios": "https://dc.lft.to/lastmile_qr_scan", "android": "https://dc.lft.to/lastmile_qr_scan"}, "is_reserved": 0, "fusion_lon": 0.0, "fusion_lat": 0.0, "lon": -77.023493, "name": "5d94c6044b89de5dd89997318403977f"}, {"bike_id": "08d631c42c934ea635c93447a3b1c0d5", "type": "electric_bike", "is_disabled": 0, "lat": 38.853198, "rental_uris": {"ios": "https://dc.lft.to/lastmile_qr_scan", "android": "https://dc.lft.to/lastmile_qr_scan"}, "is_reserved": 0, "fusion_lon": 0.0, "fusion_lat": 0.0, "lon": -76.98013633333333, "name": "08d631c42c934ea635c93447a3b1c0d5"}, {"bike_id": "c1d1705b6a64ddb1e13423f238be0a79", "type": "electric_scooter", "is_disabled": 0, "lat": 38.85209066666667, "rental_uris": {"ios": "https://dc.lft.to/lastmile_qr_scan", "android": "https://dc.lft.to/lastmile_qr_scan"}, "is_reserved": 0, "fusion_lon": 0.0, "fusion_lat": 0.0, "lon": -76.9856755, "name": "c1d1705b6a64ddb1e13423f238be0a79"}, {"bike_id": "9c7c4024d9b5cbfedb3cb58a14b66ab9", "type": "electric_scooter", "is_disabled": 0, "lat": 38.903590333333334, "rental_uris": {"ios": "https://dc.lft.to/lastmile_qr_scan", "android": "https://dc.lft.to/lastmile_qr_scan"}, "is_reserved": 0, "fusion_lon": 0.0, "fusion_lat": 0.0, "lon": -76.99384033333334, "name": "9c7c4024d9b5cbfedb3cb58a14b66ab9"}, {"bike_id": "ddecf62d19c9290897ae0ebd8196afd6", "type": "electric_bike", "is_disabled": 0, "lat": 39.057913, "rental_uris": {"ios": "https://dc.lft.to/lastmile_qr_scan", "android": "https://dc.lft.to/lastmile_qr_scan"}, "is_reserved": 0, "fusion_lon": 0.0, "fusion_lat": 0.0, "lon": -77.15025116666666, "name": "ddecf62d19c9290897ae0ebd8196afd6"}, {"bike_id": "68fa6b6604aaea0219a01cd90d9c4a58", "type": "electric_scooter", "is_disabled": 0, "lat": 38.934453500000004, "rental_uris": {"ios": "https://dc.lft.to/lastmile_qr_scan", "android": "https://dc.lft.to/lastmile_qr_scan"}, "is_reserved": 0, "fusion_lon": 0.0, "fusion_lat": 0.0, "lon": -77.02985683333333, "name": "68fa6b6604aaea0219a01cd90d9c4a58"}, {"bike_id": "ca7c7cfb6f0c3c3ce6f9e97358599bbb", "type": "electric_bike", "is_disabled": 0, "lat": 38.89739483333334, "rental_uris": {"ios": "https://dc.lft.to/lastmile_qr_scan", "android": "https://dc.lft.to/lastmile_qr_scan"}, "is_reserved": 0, "fusion_lon": 0.0, "fusion_lat": 0.0, "lon": -76.94251966666667, "name": "ca7c7cfb6f0c3c3ce6f9e97358599bbb"}, {"bike_id": "695fd41cf41c7daf08dc9b0b0acc96e7", "type": "electric_scooter", "is_disabled": 0, "lat": 38.9049885, "rental_uris": {"ios": "https://dc.lft.to/lastmile_qr_scan", "android": "https://dc.lft.to/lastmile_qr_scan"}, "is_reserved": 0, "fusion_lon": 0.0, "fusion_lat": 0.0, "lon": -77.060011, "name": "695fd41cf41c7daf08dc9b0b0acc96e7"}, {"bike_id": "4922a1ba72ebd9129d009352b5929de4", "type": "electric_scooter", "is_disabled": 0, "lat": 38.920838, "rental_uris": {"ios": "https://dc.lft.to/lastmile_qr_scan", "android": "https://dc.lft.to/lastmile_qr_scan"}, "is_reserved": 0, "fusion_lon": 0.0, "fusion_lat": 0.0, "lon": -77.02511516666667, "name": "4922a1ba72ebd9129d009352b5929de4"}, {"bike_id": "8725e64573b2f1848a22e9f112de69bc", "type": "electric_scooter", "is_disabled": 0, "lat": 38.8667435, "rental_uris": {"ios": "https://dc.lft.to/lastmile_qr_scan", "android": "https://dc.lft.to/lastmile_qr_scan"}, "is_reserved": 0, "fusion_lon": 0.0, "fusion_lat": 0.0, "lon": -76.98535333333334, "name": "8725e64573b2f1848a22e9f112de69bc"}, {"bike_id": "ba96e6ab946791ddc6df089fdabc6364", "type": "electric_scooter", "is_disabled": 0, "lat": 38.9021775, "rental_uris": {"ios": "https://dc.lft.to/lastmile_qr_scan", "android": "https://dc.lft.to/lastmile_qr_scan"}, "is_reserved": 0, "fusion_lon": 0.0, "fusion_lat": 0.0, "lon": -77.0238195, "name": "ba96e6ab946791ddc6df089fdabc6364"}, {"bike_id": "0beceb1893bc3717cc66cc09017a9b31", "type": "electric_scooter", "is_disabled": 0, "lat": 38.897159, "rental_uris": {"ios": "https://dc.lft.to/lastmile_qr_scan", "android": "https://dc.lft.to/lastmile_qr_scan"}, "is_reserved": 0, "fusion_lon": 0.0, "fusion_lat": 0.0, "lon": -77.0084805, "name": "0beceb1893bc3717cc66cc09017a9b31"}, {"bike_id": "34877d7bc31c356839ad99f482a51dcd", "type": "electric_scooter", "is_disabled": 0, "lat": 38.9234385, "rental_uris": {"ios": "https://dc.lft.to/lastmile_qr_scan", "android": "https://dc.lft.to/lastmile_qr_scan"}, "is_reserved": 0, "fusion_lon": 0.0, "fusion_lat": 0.0, "lon": -77.04175533333333, "name": "34877d7bc31c356839ad99f482a51dcd"}, {"bike_id": "0bc10d7b826fa9cf67c0be158a6e0a30", "type": "electric_scooter", "is_disabled": 0, "lat": 38.9175355, "rental_uris": {"ios": "https://dc.lft.to/lastmile_qr_scan", "android": "https://dc.lft.to/lastmile_qr_scan"}, "is_reserved": 0, "fusion_lon": 0.0, "fusion_lat": 0.0, "lon": -77.023052, "name": "0bc10d7b826fa9cf67c0be158a6e0a30"}, {"bike_id": "9d4e274c6348ed2030f377d852eb4360", "type": "electric_scooter", "is_disabled": 0, "lat": 38.89924233333333, "rental_uris": {"ios": "https://dc.lft.to/lastmile_qr_scan", "android": "https://dc.lft.to/lastmile_qr_scan"}, "is_reserved": 0, "fusion_lon": 0.0, "fusion_lat": 0.0, "lon": -77.053671, "name": "9d4e274c6348ed2030f377d852eb4360"}, {"bike_id": "a7650937621a4eb4bc65f8ff04bdc569", "type": "electric_bike", "is_disabled": 0, "lat": 38.96299166666667, "rental_uris": {"ios": "https://dc.lft.to/lastmile_qr_scan", "android": "https://dc.lft.to/lastmile_qr_scan"}, "is_reserved": 0, "fusion_lon": 0.0, "fusion_lat": 0.0, "lon": -77.01113883333333, "name": "a7650937621a4eb4bc65f8ff04bdc569"}, {"bike_id": "219520ada1885319e4e32c33d60d875f", "type": "electric_scooter", "is_disabled": 0, "lat": 38.90529566666667, "rental_uris": {"ios": "https://dc.lft.to/lastmile_qr_scan", "android": "https://dc.lft.to/lastmile_qr_scan"}, "is_reserved": 0, "fusion_lon": 0.0, "fusion_lat": 0.0, "lon": -77.061345, "name": "219520ada1885319e4e32c33d60d875f"}, {"bike_id": "f3ac81787324bd0be216515af4b75853", "type": "electric_scooter", "is_disabled": 0, "lat": 38.901042333333336, "rental_uris": {"ios": "https://dc.lft.to/lastmile_qr_scan", "android": "https://dc.lft.to/lastmile_qr_scan"}, "is_reserved": 0, "fusion_lon": 0.0, "fusion_lat": 0.0, "lon": -77.01816183333334, "name": "f3ac81787324bd0be216515af4b75853"}, {"bike_id": "cd6a715a8c7b84cd11b0130cda93b6ea", "type": "electric_bike", "is_disabled": 0, "lat": 38.963240666666664, "rental_uris": {"ios": "https://dc.lft.to/lastmile_qr_scan", "android": "https://dc.lft.to/lastmile_qr_scan"}, "is_reserved": 0, "fusion_lon": 0.0, "fusion_lat": 0.0, "lon": -76.97363766666666, "name": "cd6a715a8c7b84cd11b0130cda93b6ea"}, {"bike_id": "608573156917b704e65ed7cfcb42713d", "type": "electric_scooter", "is_disabled": 0, "lat": 38.9058915, "rental_uris": {"ios": "https://dc.lft.to/lastmile_qr_scan", "android": "https://dc.lft.to/lastmile_qr_scan"}, "is_reserved": 0, "fusion_lon": 0.0, "fusion_lat": 0.0, "lon": -77.03033033333334, "name": "608573156917b704e65ed7cfcb42713d"}, {"bike_id": "86e479017cd3ebe50cc0dce22c67597f", "type": "electric_bike", "is_disabled": 0, "lat": 38.9480385, "rental_uris": {"ios": "https://dc.lft.to/lastmile_qr_scan", "android": "https://dc.lft.to/lastmile_qr_scan"}, "is_reserved": 0, "fusion_lon": 0.0, "fusion_lat": 0.0, "lon": -76.96107683333334, "name": "86e479017cd3ebe50cc0dce22c67597f"}, {"bike_id": "f87a05a778ee72e3843dee26d0d287e7", "type": "electric_scooter", "is_disabled": 0, "lat": 38.902864, "rental_uris": {"ios": "https://dc.lft.to/lastmile_qr_scan", "android": "https://dc.lft.to/lastmile_qr_scan"}, "is_reserved": 0, "fusion_lon": 0.0, "fusion_lat": 0.0, "lon": -77.0385595, "name": "f87a05a778ee72e3843dee26d0d287e7"}, {"bike_id": "892aec2caf94ff861f70f1e9a6c6ed16", "type": "electric_scooter", "is_disabled": 0, "lat": 38.892508166666666, "rental_uris": {"ios": "https://dc.lft.to/lastmile_qr_scan", "android": "https://dc.lft.to/lastmile_qr_scan"}, "is_reserved": 0, "fusion_lon": 0.0, "fusion_lat": 0.0, "lon": -77.0467365, "name": "892aec2caf94ff861f70f1e9a6c6ed16"}, {"bike_id": "753ab3e1dea48906a373681518169de0", "type": "electric_scooter", "is_disabled": 0, "lat": 38.906094, "rental_uris": {"ios": "https://dc.lft.to/lastmile_qr_scan", "android": "https://dc.lft.to/lastmile_qr_scan"}, "is_reserved": 0, "fusion_lon": 0.0, "fusion_lat": 0.0, "lon": -77.04118216666667, "name": "753ab3e1dea48906a373681518169de0"}, {"bike_id": "8c1f7eb57fbef7be134d52c2f6c8425d", "type": "electric_scooter", "is_disabled": 0, "lat": 38.9003395, "rental_uris": {"ios": "https://dc.lft.to/lastmile_qr_scan", "android": "https://dc.lft.to/lastmile_qr_scan"}, "is_reserved": 0, "fusion_lon": 0.0, "fusion_lat": 0.0, "lon": -77.03519233333333, "name": "8c1f7eb57fbef7be134d52c2f6c8425d"}, {"bike_id": "ad5bdefb4b6ebaba874bb02fd5c21291", "type": "electric_scooter", "is_disabled": 0, "lat": 38.922045833333335, "rental_uris": {"ios": "https://dc.lft.to/lastmile_qr_scan", "android": "https://dc.lft.to/lastmile_qr_scan"}, "is_reserved": 0, "fusion_lon": 0.0, "fusion_lat": 0.0, "lon": -77.03905783333333, "name": "ad5bdefb4b6ebaba874bb02fd5c21291"}, {"bike_id": "a66a5667412da20eafe511049f559ce8", "type": "electric_scooter", "is_disabled": 0, "lat": 38.901722666666664, "rental_uris": {"ios": "https://dc.lft.to/lastmile_qr_scan", "android": "https://dc.lft.to/lastmile_qr_scan"}, "is_reserved": 0, "fusion_lon": 0.0, "fusion_lat": 0.0, "lon": -77.0248485, "name": "a66a5667412da20eafe511049f559ce8"}, {"bike_id": "39d6eb23b6028d0223d325993f28bf8c", "type": "electric_scooter", "is_disabled": 0, "lat": 38.929732, "rental_uris": {"ios": "https://dc.lft.to/lastmile_qr_scan", "android": "https://dc.lft.to/lastmile_qr_scan"}, "is_reserved": 0, "fusion_lon": 0.0, "fusion_lat": 0.0, "lon": -77.01688183333333, "name": "39d6eb23b6028d0223d325993f28bf8c"}, {"bike_id": "c768f9a1e915b74f73791d0867c7fd5e", "type": "electric_bike", "is_disabled": 0, "lat": 39.02432816666666, "rental_uris": {"ios": "https://dc.lft.to/lastmile_qr_scan", "android": "https://dc.lft.to/lastmile_qr_scan"}, "is_reserved": 0, "fusion_lon": 0.0, "fusion_lat": 0.0, "lon": -77.1309755, "name": "c768f9a1e915b74f73791d0867c7fd5e"}, {"bike_id": "3c14a087fc9c9859d96b9d97ae5c8ad4", "type": "electric_scooter", "is_disabled": 0, "lat": 38.929084833333334, "rental_uris": {"ios": "https://dc.lft.to/lastmile_qr_scan", "android": "https://dc.lft.to/lastmile_qr_scan"}, "is_reserved": 0, "fusion_lon": 0.0, "fusion_lat": 0.0, "lon": -77.03620283333333, "name": "3c14a087fc9c9859d96b9d97ae5c8ad4"}, {"bike_id": "347094ae51c7ad80d56a587476c0c700", "type": "electric_scooter", "is_disabled": 0, "lat": 38.904130333333335, "rental_uris": {"ios": "https://dc.lft.to/lastmile_qr_scan", "android": "https://dc.lft.to/lastmile_qr_scan"}, "is_reserved": 0, "fusion_lon": 0.0, "fusion_lat": 0.0, "lon": -77.01804983333334, "name": "347094ae51c7ad80d56a587476c0c700"}, {"bike_id": "4229c22fc4112933d59d1f56b6e4f485", "type": "electric_scooter", "is_disabled": 0, "lat": 38.90189016666667, "rental_uris": {"ios": "https://dc.lft.to/lastmile_qr_scan", "android": "https://dc.lft.to/lastmile_qr_scan"}, "is_reserved": 0, "fusion_lon": 0.0, "fusion_lat": 0.0, "lon": -77.0508395, "name": "4229c22fc4112933d59d1f56b6e4f485"}, {"bike_id": "039429a2f55e3a05fd235c948ea01dc2", "type": "electric_bike", "is_disabled": 0, "lat": 38.947822333333335, "rental_uris": {"ios": "https://dc.lft.to/lastmile_qr_scan", "android": "https://dc.lft.to/lastmile_qr_scan"}, "is_reserved": 0, "fusion_lon": 0.0, "fusion_lat": 0.0, "lon": -76.97210466666667, "name": "039429a2f55e3a05fd235c948ea01dc2"}, {"bike_id": "0eb4068474effb1f6dbbcd5d6d1aa7c6", "type": "electric_bike", "is_disabled": 0, "lat": 38.957094833333336, "rental_uris": {"ios": "https://dc.lft.to/lastmile_qr_scan", "android": "https://dc.lft.to/lastmile_qr_scan"}, "is_reserved": 0, "fusion_lon": 0.0, "fusion_lat": 0.0, "lon": -77.02401133333333, "name": "0eb4068474effb1f6dbbcd5d6d1aa7c6"}, {"bike_id": "854e69f2129cdb876c68eb089e6764f1", "type": "electric_scooter", "is_disabled": 0, "lat": 38.90781783333333, "rental_uris": {"ios": "https://dc.lft.to/lastmile_qr_scan", "android": "https://dc.lft.to/lastmile_qr_scan"}, "is_reserved": 0, "fusion_lon": 0.0, "fusion_lat": 0.0, "lon": -77.009595, "name": "854e69f2129cdb876c68eb089e6764f1"}, {"bike_id": "ccd1e6bd03fa4a49596bac9ea9088cb3", "type": "electric_scooter", "is_disabled": 0, "lat": 38.915636666666664, "rental_uris": {"ios": "https://dc.lft.to/lastmile_qr_scan", "android": "https://dc.lft.to/lastmile_qr_scan"}, "is_reserved": 0, "fusion_lon": 0.0, "fusion_lat": 0.0, "lon": -77.03871383333333, "name": "ccd1e6bd03fa4a49596bac9ea9088cb3"}, {"bike_id": "d4d13e46655adf2a1436b5033960f3c0", "type": "electric_scooter", "is_disabled": 0, "lat": 38.94185933333333, "rental_uris": {"ios": "https://dc.lft.to/lastmile_qr_scan", "android": "https://dc.lft.to/lastmile_qr_scan"}, "is_reserved": 0, "fusion_lon": 0.0, "fusion_lat": 0.0, "lon": -77.02493216666667, "name": "d4d13e46655adf2a1436b5033960f3c0"}, {"bike_id": "f5c9eed985d48f624034f6fbddcd7e26", "type": "electric_scooter", "is_disabled": 0, "lat": 38.9177355, "rental_uris": {"ios": "https://dc.lft.to/lastmile_qr_scan", "android": "https://dc.lft.to/lastmile_qr_scan"}, "is_reserved": 0, "fusion_lon": 0.0, "fusion_lat": 0.0, "lon": -77.03446716666667, "name": "f5c9eed985d48f624034f6fbddcd7e26"}, {"bike_id": "0c5258b61b3473efcf3b1bf36f8f6b99", "type": "electric_scooter", "is_disabled": 0, "lat": 38.934605833333336, "rental_uris": {"ios": "https://dc.lft.to/lastmile_qr_scan", "android": "https://dc.lft.to/lastmile_qr_scan"}, "is_reserved": 0, "fusion_lon": 0.0, "fusion_lat": 0.0, "lon": -76.9643975, "name": "0c5258b61b3473efcf3b1bf36f8f6b99"}, {"bike_id": "4a3716109340534e354e53c59edbd6c3", "type": "electric_scooter", "is_disabled": 0, "lat": 38.939784, "rental_uris": {"ios": "https://dc.lft.to/lastmile_qr_scan", "android": "https://dc.lft.to/lastmile_qr_scan"}, "is_reserved": 0, "fusion_lon": 0.0, "fusion_lat": 0.0, "lon": -77.03139533333334, "name": "4a3716109340534e354e53c59edbd6c3"}, {"bike_id": "cdb4c3988138a583d3577a2b622bafee", "type": "electric_scooter", "is_disabled": 0, "lat": 38.90948433333333, "rental_uris": {"ios": "https://dc.lft.to/lastmile_qr_scan", "android": "https://dc.lft.to/lastmile_qr_scan"}, "is_reserved": 0, "fusion_lon": 0.0, "fusion_lat": 0.0, "lon": -77.03447133333333, "name": "cdb4c3988138a583d3577a2b622bafee"}, {"bike_id": "168f1028daca00aece538e77a0c6015a", "type": "electric_scooter", "is_disabled": 0, "lat": 38.8970515, "rental_uris": {"ios": "https://dc.lft.to/lastmile_qr_scan", "android": "https://dc.lft.to/lastmile_qr_scan"}, "is_reserved": 0, "fusion_lon": 0.0, "fusion_lat": 0.0, "lon": -76.93000666666667, "name": "168f1028daca00aece538e77a0c6015a"}, {"bike_id": "82fd970f692e0ab070ce60015672e442", "type": "electric_scooter", "is_disabled": 0, "lat": 38.90737433333334, "rental_uris": {"ios": "https://dc.lft.to/lastmile_qr_scan", "android": "https://dc.lft.to/lastmile_qr_scan"}, "is_reserved": 0, "fusion_lon": 0.0, "fusion_lat": 0.0, "lon": -77.01316533333333, "name": "82fd970f692e0ab070ce60015672e442"}, {"bike_id": "150a7ade2cbfc0248840506ca1e3b190", "type": "electric_scooter", "is_disabled": 0, "lat": 38.90129783333333, "rental_uris": {"ios": "https://dc.lft.to/lastmile_qr_scan", "android": "https://dc.lft.to/lastmile_qr_scan"}, "is_reserved": 0, "fusion_lon": 0.0, "fusion_lat": 0.0, "lon": -77.025125, "name": "150a7ade2cbfc0248840506ca1e3b190"}, {"bike_id": "0b9482f7396171c1faf552208b57782b", "type": "electric_scooter", "is_disabled": 0, "lat": 38.90242666666666, "rental_uris": {"ios": "https://dc.lft.to/lastmile_qr_scan", "android": "https://dc.lft.to/lastmile_qr_scan"}, "is_reserved": 0, "fusion_lon": 0.0, "fusion_lat": 0.0, "lon": -76.99630316666666, "name": "0b9482f7396171c1faf552208b57782b"}, {"bike_id": "412efb61308d5816ee4d82e1c5c4def4", "type": "electric_scooter", "is_disabled": 0, "lat": 38.90341333333333, "rental_uris": {"ios": "https://dc.lft.to/lastmile_qr_scan", "android": "https://dc.lft.to/lastmile_qr_scan"}, "is_reserved": 0, "fusion_lon": 0.0, "fusion_lat": 0.0, "lon": -77.036455, "name": "412efb61308d5816ee4d82e1c5c4def4"}, {"bike_id": "51257a3b1709bf51c78efb19eb305849", "type": "electric_scooter", "is_disabled": 0, "lat": 38.92479216666667, "rental_uris": {"ios": "https://dc.lft.to/lastmile_qr_scan", "android": "https://dc.lft.to/lastmile_qr_scan"}, "is_reserved": 0, "fusion_lon": 0.0, "fusion_lat": 0.0, "lon": -77.02836066666667, "name": "51257a3b1709bf51c78efb19eb305849"}, {"bike_id": "8bf807ad06e30a0f79bec4c10419fdf0", "type": "electric_scooter", "is_disabled": 0, "lat": 38.922617, "rental_uris": {"ios": "https://dc.lft.to/lastmile_qr_scan", "android": "https://dc.lft.to/lastmile_qr_scan"}, "is_reserved": 0, "fusion_lon": 0.0, "fusion_lat": 0.0, "lon": -77.04296233333334, "name": "8bf807ad06e30a0f79bec4c10419fdf0"}, {"bike_id": "d8eee159d6957274d8655861b4f21c02", "type": "electric_scooter", "is_disabled": 0, "lat": 38.928645333333336, "rental_uris": {"ios": "https://dc.lft.to/lastmile_qr_scan", "android": "https://dc.lft.to/lastmile_qr_scan"}, "is_reserved": 0, "fusion_lon": 0.0, "fusion_lat": 0.0, "lon": -77.01345683333334, "name": "d8eee159d6957274d8655861b4f21c02"}, {"bike_id": "254a02c64716a868920e954a45876f73", "type": "electric_scooter", "is_disabled": 0, "lat": 38.91812566666667, "rental_uris": {"ios": "https://dc.lft.to/lastmile_qr_scan", "android": "https://dc.lft.to/lastmile_qr_scan"}, "is_reserved": 0, "fusion_lon": 0.0, "fusion_lat": 0.0, "lon": -77.007704, "name": "254a02c64716a868920e954a45876f73"}, {"bike_id": "185f5f57d0f771ff25b24baf3ae52056", "type": "electric_scooter", "is_disabled": 0, "lat": 38.907522166666666, "rental_uris": {"ios": "https://dc.lft.to/lastmile_qr_scan", "android": "https://dc.lft.to/lastmile_qr_scan"}, "is_reserved": 0, "fusion_lon": 0.0, "fusion_lat": 0.0, "lon": -77.03190216666667, "name": "185f5f57d0f771ff25b24baf3ae52056"}, {"bike_id": "fca91515ada976fc35c4a1a2d5b6d2f1", "type": "electric_scooter", "is_disabled": 0, "lat": 38.90151766666666, "rental_uris": {"ios": "https://dc.lft.to/lastmile_qr_scan", "android": "https://dc.lft.to/lastmile_qr_scan"}, "is_reserved": 0, "fusion_lon": 0.0, "fusion_lat": 0.0, "lon": -76.99022066666667, "name": "fca91515ada976fc35c4a1a2d5b6d2f1"}, {"bike_id": "cecb6028f511d0857eca0bcb1412c085", "type": "electric_bike", "is_disabled": 0, "lat": 38.8799525, "rental_uris": {"ios": "https://dc.lft.to/lastmile_qr_scan", "android": "https://dc.lft.to/lastmile_qr_scan"}, "is_reserved": 0, "fusion_lon": 0.0, "fusion_lat": 0.0, "lon": -76.98517416666667, "name": "cecb6028f511d0857eca0bcb1412c085"}, {"bike_id": "e01db45000b1799633b7063e53b64b78", "type": "electric_scooter", "is_disabled": 0, "lat": 38.909469666666666, "rental_uris": {"ios": "https://dc.lft.to/lastmile_qr_scan", "android": "https://dc.lft.to/lastmile_qr_scan"}, "is_reserved": 0, "fusion_lon": 0.0, "fusion_lat": 0.0, "lon": -77.04499666666666, "name": "e01db45000b1799633b7063e53b64b78"}, {"bike_id": "29dd17a3e2c6f6638eea6f47e50ddce9", "type": "electric_scooter", "is_disabled": 0, "lat": 38.903369833333336, "rental_uris": {"ios": "https://dc.lft.to/lastmile_qr_scan", "android": "https://dc.lft.to/lastmile_qr_scan"}, "is_reserved": 0, "fusion_lon": 0.0, "fusion_lat": 0.0, "lon": -77.05296733333333, "name": "29dd17a3e2c6f6638eea6f47e50ddce9"}, {"bike_id": "937d4dc272300c2109d24a5b72384ce7", "type": "electric_scooter", "is_disabled": 0, "lat": 38.910652, "rental_uris": {"ios": "https://dc.lft.to/lastmile_qr_scan", "android": "https://dc.lft.to/lastmile_qr_scan"}, "is_reserved": 0, "fusion_lon": 0.0, "fusion_lat": 0.0, "lon": -77.03727016666667, "name": "937d4dc272300c2109d24a5b72384ce7"}, {"bike_id": "704a2141cce90ae730bb0421157c9de9", "type": "electric_scooter", "is_disabled": 0, "lat": 38.9170545, "rental_uris": {"ios": "https://dc.lft.to/lastmile_qr_scan", "android": "https://dc.lft.to/lastmile_qr_scan"}, "is_reserved": 0, "fusion_lon": 0.0, "fusion_lat": 0.0, "lon": -77.03463166666667, "name": "704a2141cce90ae730bb0421157c9de9"}, {"bike_id": "5667a012282fda937272af5e74e073f3", "type": "electric_scooter", "is_disabled": 0, "lat": 38.908171333333335, "rental_uris": {"ios": "https://dc.lft.to/lastmile_qr_scan", "android": "https://dc.lft.to/lastmile_qr_scan"}, "is_reserved": 0, "fusion_lon": 0.0, "fusion_lat": 0.0, "lon": -77.0345825, "name": "5667a012282fda937272af5e74e073f3"}, {"bike_id": "46b853b3fb0f5a33f1f3cee463c881db", "type": "electric_bike", "is_disabled": 0, "lat": 38.93459566666667, "rental_uris": {"ios": "https://dc.lft.to/lastmile_qr_scan", "android": "https://dc.lft.to/lastmile_qr_scan"}, "is_reserved": 0, "fusion_lon": 0.0, "fusion_lat": 0.0, "lon": -77.027207, "name": "46b853b3fb0f5a33f1f3cee463c881db"}, {"bike_id": "e555e286da097de091c0c06b0c1c58c8", "type": "electric_scooter", "is_disabled": 0, "lat": 38.905326, "rental_uris": {"ios": "https://dc.lft.to/lastmile_qr_scan", "android": "https://dc.lft.to/lastmile_qr_scan"}, "is_reserved": 0, "fusion_lon": 0.0, "fusion_lat": 0.0, "lon": -77.05938283333333, "name": "e555e286da097de091c0c06b0c1c58c8"}, {"bike_id": "73b86f4cc5626b3b901b2fa8dd9cc6a9", "type": "electric_scooter", "is_disabled": 0, "lat": 38.928512833333336, "rental_uris": {"ios": "https://dc.lft.to/lastmile_qr_scan", "android": "https://dc.lft.to/lastmile_qr_scan"}, "is_reserved": 0, "fusion_lon": 0.0, "fusion_lat": 0.0, "lon": -77.0274965, "name": "73b86f4cc5626b3b901b2fa8dd9cc6a9"}, {"bike_id": "d645fd6dd26fb1af417409426f4b198b", "type": "electric_scooter", "is_disabled": 0, "lat": 38.933704, "rental_uris": {"ios": "https://dc.lft.to/lastmile_qr_scan", "android": "https://dc.lft.to/lastmile_qr_scan"}, "is_reserved": 0, "fusion_lon": 0.0, "fusion_lat": 0.0, "lon": -77.03987766666667, "name": "d645fd6dd26fb1af417409426f4b198b"}, {"bike_id": "dc1c21e63c5c994727695fa66a57d304", "type": "electric_scooter", "is_disabled": 0, "lat": 38.90666266666667, "rental_uris": {"ios": "https://dc.lft.to/lastmile_qr_scan", "android": "https://dc.lft.to/lastmile_qr_scan"}, "is_reserved": 0, "fusion_lon": 0.0, "fusion_lat": 0.0, "lon": -77.0717965, "name": "dc1c21e63c5c994727695fa66a57d304"}, {"bike_id": "324d5ac6b38086c02428eb2fed4cd19f", "type": "electric_scooter", "is_disabled": 0, "lat": 38.86245233333333, "rental_uris": {"ios": "https://dc.lft.to/lastmile_qr_scan", "android": "https://dc.lft.to/lastmile_qr_scan"}, "is_reserved": 0, "fusion_lon": 0.0, "fusion_lat": 0.0, "lon": -76.99502133333333, "name": "324d5ac6b38086c02428eb2fed4cd19f"}, {"bike_id": "2345646db0d0a715fcc9e34f9a2db818", "type": "electric_scooter", "is_disabled": 0, "lat": 38.9170455, "rental_uris": {"ios": "https://dc.lft.to/lastmile_qr_scan", "android": "https://dc.lft.to/lastmile_qr_scan"}, "is_reserved": 0, "fusion_lon": 0.0, "fusion_lat": 0.0, "lon": -77.01078283333334, "name": "2345646db0d0a715fcc9e34f9a2db818"}, {"bike_id": "96ba5d680bc590787324f987e388684c", "type": "electric_scooter", "is_disabled": 0, "lat": 38.88055683333333, "rental_uris": {"ios": "https://dc.lft.to/lastmile_qr_scan", "android": "https://dc.lft.to/lastmile_qr_scan"}, "is_reserved": 0, "fusion_lon": 0.0, "fusion_lat": 0.0, "lon": -76.932126, "name": "96ba5d680bc590787324f987e388684c"}, {"bike_id": "187decc9ce0c00f49af3b6ae46350bef", "type": "electric_scooter", "is_disabled": 0, "lat": 38.921949833333336, "rental_uris": {"ios": "https://dc.lft.to/lastmile_qr_scan", "android": "https://dc.lft.to/lastmile_qr_scan"}, "is_reserved": 0, "fusion_lon": 0.0, "fusion_lat": 0.0, "lon": -77.03517566666666, "name": "187decc9ce0c00f49af3b6ae46350bef"}, {"bike_id": "811db26bd36c351edd20e1137cf0c93a", "type": "electric_scooter", "is_disabled": 0, "lat": 38.954053333333334, "rental_uris": {"ios": "https://dc.lft.to/lastmile_qr_scan", "android": "https://dc.lft.to/lastmile_qr_scan"}, "is_reserved": 0, "fusion_lon": 0.0, "fusion_lat": 0.0, "lon": -76.9984915, "name": "811db26bd36c351edd20e1137cf0c93a"}, {"bike_id": "8beed92c132803c30a80bb1743da0f77", "type": "electric_scooter", "is_disabled": 0, "lat": 38.92652533333333, "rental_uris": {"ios": "https://dc.lft.to/lastmile_qr_scan", "android": "https://dc.lft.to/lastmile_qr_scan"}, "is_reserved": 0, "fusion_lon": 0.0, "fusion_lat": 0.0, "lon": -77.03731083333334, "name": "8beed92c132803c30a80bb1743da0f77"}, {"bike_id": "289b68ff0bafe6181c799fc061408afa", "type": "electric_scooter", "is_disabled": 0, "lat": 38.933330833333336, "rental_uris": {"ios": "https://dc.lft.to/lastmile_qr_scan", "android": "https://dc.lft.to/lastmile_qr_scan"}, "is_reserved": 0, "fusion_lon": 0.0, "fusion_lat": 0.0, "lon": -77.03881916666667, "name": "289b68ff0bafe6181c799fc061408afa"}, {"bike_id": "a8bc6622b65a9c52457763244ae4af87", "type": "electric_scooter", "is_disabled": 0, "lat": 38.91562866666666, "rental_uris": {"ios": "https://dc.lft.to/lastmile_qr_scan", "android": "https://dc.lft.to/lastmile_qr_scan"}, "is_reserved": 0, "fusion_lon": 0.0, "fusion_lat": 0.0, "lon": -77.03140066666667, "name": "a8bc6622b65a9c52457763244ae4af87"}, {"bike_id": "e3626da0ba24f900efb1779ed807cc68", "type": "electric_scooter", "is_disabled": 0, "lat": 38.90992133333334, "rental_uris": {"ios": "https://dc.lft.to/lastmile_qr_scan", "android": "https://dc.lft.to/lastmile_qr_scan"}, "is_reserved": 0, "fusion_lon": 0.0, "fusion_lat": 0.0, "lon": -77.040098, "name": "e3626da0ba24f900efb1779ed807cc68"}, {"bike_id": "66e9065caa9d9914672c9781247b1c7b", "type": "electric_scooter", "is_disabled": 0, "lat": 38.921175833333336, "rental_uris": {"ios": "https://dc.lft.to/lastmile_qr_scan", "android": "https://dc.lft.to/lastmile_qr_scan"}, "is_reserved": 0, "fusion_lon": 0.0, "fusion_lat": 0.0, "lon": -77.036582, "name": "66e9065caa9d9914672c9781247b1c7b"}, {"bike_id": "eb442e1e54937c2a5eb2b8798e35ef6f", "type": "electric_bike", "is_disabled": 0, "lat": 38.8840455, "rental_uris": {"ios": "https://dc.lft.to/lastmile_qr_scan", "android": "https://dc.lft.to/lastmile_qr_scan"}, "is_reserved": 0, "fusion_lon": 0.0, "fusion_lat": 0.0, "lon": -76.96062433333333, "name": "eb442e1e54937c2a5eb2b8798e35ef6f"}, {"bike_id": "250d278f1e1e50ad26af4ae43cd732c4", "type": "electric_scooter", "is_disabled": 0, "lat": 38.92811783333333, "rental_uris": {"ios": "https://dc.lft.to/lastmile_qr_scan", "android": "https://dc.lft.to/lastmile_qr_scan"}, "is_reserved": 0, "fusion_lon": 0.0, "fusion_lat": 0.0, "lon": -77.02809966666666, "name": "250d278f1e1e50ad26af4ae43cd732c4"}, {"bike_id": "1792fe0249791f512fe202dfad8982f7", "type": "electric_scooter", "is_disabled": 0, "lat": 38.9049465, "rental_uris": {"ios": "https://dc.lft.to/lastmile_qr_scan", "android": "https://dc.lft.to/lastmile_qr_scan"}, "is_reserved": 0, "fusion_lon": 0.0, "fusion_lat": 0.0, "lon": -77.0069265, "name": "1792fe0249791f512fe202dfad8982f7"}, {"bike_id": "f7cde671560ccc333fe8eac5f9ff39b3", "type": "electric_scooter", "is_disabled": 0, "lat": 38.93430383333333, "rental_uris": {"ios": "https://dc.lft.to/lastmile_qr_scan", "android": "https://dc.lft.to/lastmile_qr_scan"}, "is_reserved": 0, "fusion_lon": 0.0, "fusion_lat": 0.0, "lon": -77.0453965, "name": "f7cde671560ccc333fe8eac5f9ff39b3"}, {"bike_id": "2e8fe86333122db8c336084b0cad1446", "type": "electric_scooter", "is_disabled": 0, "lat": 38.95627566666667, "rental_uris": {"ios": "https://dc.lft.to/lastmile_qr_scan", "android": "https://dc.lft.to/lastmile_qr_scan"}, "is_reserved": 0, "fusion_lon": 0.0, "fusion_lat": 0.0, "lon": -77.02783466666666, "name": "2e8fe86333122db8c336084b0cad1446"}, {"bike_id": "4cae7887894e6249085e04c6f202e16a", "type": "electric_scooter", "is_disabled": 0, "lat": 38.91559633333333, "rental_uris": {"ios": "https://dc.lft.to/lastmile_qr_scan", "android": "https://dc.lft.to/lastmile_qr_scan"}, "is_reserved": 0, "fusion_lon": 0.0, "fusion_lat": 0.0, "lon": -77.0386975, "name": "4cae7887894e6249085e04c6f202e16a"}, {"bike_id": "0cfae0533a3060d08d8b1960969e7088", "type": "electric_scooter", "is_disabled": 0, "lat": 38.909785666666664, "rental_uris": {"ios": "https://dc.lft.to/lastmile_qr_scan", "android": "https://dc.lft.to/lastmile_qr_scan"}, "is_reserved": 0, "fusion_lon": 0.0, "fusion_lat": 0.0, "lon": -77.03185133333334, "name": "0cfae0533a3060d08d8b1960969e7088"}, {"bike_id": "1e41cfaf5d4a8be6b152a8979866f1f2", "type": "electric_scooter", "is_disabled": 0, "lat": 38.9585095, "rental_uris": {"ios": "https://dc.lft.to/lastmile_qr_scan", "android": "https://dc.lft.to/lastmile_qr_scan"}, "is_reserved": 0, "fusion_lon": 0.0, "fusion_lat": 0.0, "lon": -77.02806716666667, "name": "1e41cfaf5d4a8be6b152a8979866f1f2"}, {"bike_id": "8667c9212c7ca8761bf4fcd667d0b764", "type": "electric_scooter", "is_disabled": 0, "lat": 38.92263966666667, "rental_uris": {"ios": "https://dc.lft.to/lastmile_qr_scan", "android": "https://dc.lft.to/lastmile_qr_scan"}, "is_reserved": 0, "fusion_lon": 0.0, "fusion_lat": 0.0, "lon": -77.04297916666667, "name": "8667c9212c7ca8761bf4fcd667d0b764"}, {"bike_id": "1f97a2427a30f1e379872f9e7878ab99", "type": "electric_scooter", "is_disabled": 0, "lat": 38.91607716666667, "rental_uris": {"ios": "https://dc.lft.to/lastmile_qr_scan", "android": "https://dc.lft.to/lastmile_qr_scan"}, "is_reserved": 0, "fusion_lon": 0.0, "fusion_lat": 0.0, "lon": -77.02957616666667, "name": "1f97a2427a30f1e379872f9e7878ab99"}, {"bike_id": "aeb337664fe86dcf03364890b0e49829", "type": "electric_scooter", "is_disabled": 0, "lat": 38.924054166666664, "rental_uris": {"ios": "https://dc.lft.to/lastmile_qr_scan", "android": "https://dc.lft.to/lastmile_qr_scan"}, "is_reserved": 0, "fusion_lon": 0.0, "fusion_lat": 0.0, "lon": -77.02744083333333, "name": "aeb337664fe86dcf03364890b0e49829"}, {"bike_id": "52e68a4336a386aee5b1242ee06c4f17", "type": "electric_scooter", "is_disabled": 0, "lat": 38.973692166666666, "rental_uris": {"ios": "https://dc.lft.to/lastmile_qr_scan", "android": "https://dc.lft.to/lastmile_qr_scan"}, "is_reserved": 0, "fusion_lon": 0.0, "fusion_lat": 0.0, "lon": -77.01856133333334, "name": "52e68a4336a386aee5b1242ee06c4f17"}, {"bike_id": "f98e698b9da32de0e96db0bbb551944c", "type": "electric_scooter", "is_disabled": 0, "lat": 38.9083105, "rental_uris": {"ios": "https://dc.lft.to/lastmile_qr_scan", "android": "https://dc.lft.to/lastmile_qr_scan"}, "is_reserved": 0, "fusion_lon": 0.0, "fusion_lat": 0.0, "lon": -77.03851166666666, "name": "f98e698b9da32de0e96db0bbb551944c"}, {"bike_id": "3639952cfbfc4a00ed0f71a34412a2ae", "type": "electric_scooter", "is_disabled": 0, "lat": 38.92079616666667, "rental_uris": {"ios": "https://dc.lft.to/lastmile_qr_scan", "android": "https://dc.lft.to/lastmile_qr_scan"}, "is_reserved": 0, "fusion_lon": 0.0, "fusion_lat": 0.0, "lon": -77.014577, "name": "3639952cfbfc4a00ed0f71a34412a2ae"}, {"bike_id": "6ce3253a49e7c4c63e1f3bd908987f65", "type": "electric_scooter", "is_disabled": 0, "lat": 38.90544366666666, "rental_uris": {"ios": "https://dc.lft.to/lastmile_qr_scan", "android": "https://dc.lft.to/lastmile_qr_scan"}, "is_reserved": 0, "fusion_lon": 0.0, "fusion_lat": 0.0, "lon": -77.02847016666666, "name": "6ce3253a49e7c4c63e1f3bd908987f65"}, {"bike_id": "62fd0e8e4d3ea7572a600878bea0bb70", "type": "electric_scooter", "is_disabled": 0, "lat": 38.93699266666667, "rental_uris": {"ios": "https://dc.lft.to/lastmile_qr_scan", "android": "https://dc.lft.to/lastmile_qr_scan"}, "is_reserved": 0, "fusion_lon": 0.0, "fusion_lat": 0.0, "lon": -77.03288, "name": "62fd0e8e4d3ea7572a600878bea0bb70"}, {"bike_id": "a1d0dc73b584b7d9ebbe3e76813206ed", "type": "electric_scooter", "is_disabled": 0, "lat": 38.866825666666664, "rental_uris": {"ios": "https://dc.lft.to/lastmile_qr_scan", "android": "https://dc.lft.to/lastmile_qr_scan"}, "is_reserved": 0, "fusion_lon": 0.0, "fusion_lat": 0.0, "lon": -76.9857925, "name": "a1d0dc73b584b7d9ebbe3e76813206ed"}, {"bike_id": "195d8c46d6643967f8c651c64458bfa0", "type": "electric_scooter", "is_disabled": 0, "lat": 38.88478216666667, "rental_uris": {"ios": "https://dc.lft.to/lastmile_qr_scan", "android": "https://dc.lft.to/lastmile_qr_scan"}, "is_reserved": 0, "fusion_lon": 0.0, "fusion_lat": 0.0, "lon": -77.023694, "name": "195d8c46d6643967f8c651c64458bfa0"}, {"bike_id": "3568a5be3843394409d6b60920ece134", "type": "electric_scooter", "is_disabled": 0, "lat": 38.902699166666665, "rental_uris": {"ios": "https://dc.lft.to/lastmile_qr_scan", "android": "https://dc.lft.to/lastmile_qr_scan"}, "is_reserved": 0, "fusion_lon": 0.0, "fusion_lat": 0.0, "lon": -77.003281, "name": "3568a5be3843394409d6b60920ece134"}, {"bike_id": "0c7915f6858ec727449cb14c0a06d7e2", "type": "electric_scooter", "is_disabled": 0, "lat": 38.9029385, "rental_uris": {"ios": "https://dc.lft.to/lastmile_qr_scan", "android": "https://dc.lft.to/lastmile_qr_scan"}, "is_reserved": 0, "fusion_lon": 0.0, "fusion_lat": 0.0, "lon": -77.02420016666666, "name": "0c7915f6858ec727449cb14c0a06d7e2"}, {"bike_id": "06994e5955c061bc46fe96edb78702f5", "type": "electric_scooter", "is_disabled": 0, "lat": 38.8858805, "rental_uris": {"ios": "https://dc.lft.to/lastmile_qr_scan", "android": "https://dc.lft.to/lastmile_qr_scan"}, "is_reserved": 0, "fusion_lon": 0.0, "fusion_lat": 0.0, "lon": -77.02837583333333, "name": "06994e5955c061bc46fe96edb78702f5"}, {"bike_id": "b28fcca78503b52ccd391694f5df4ec4", "type": "electric_scooter", "is_disabled": 0, "lat": 38.92314416666667, "rental_uris": {"ios": "https://dc.lft.to/lastmile_qr_scan", "android": "https://dc.lft.to/lastmile_qr_scan"}, "is_reserved": 0, "fusion_lon": 0.0, "fusion_lat": 0.0, "lon": -77.03809566666666, "name": "b28fcca78503b52ccd391694f5df4ec4"}, {"bike_id": "95d0989b9eb84476249c892af1ca4010", "type": "electric_scooter", "is_disabled": 0, "lat": 38.9041125, "rental_uris": {"ios": "https://dc.lft.to/lastmile_qr_scan", "android": "https://dc.lft.to/lastmile_qr_scan"}, "is_reserved": 0, "fusion_lon": 0.0, "fusion_lat": 0.0, "lon": -76.97333066666667, "name": "95d0989b9eb84476249c892af1ca4010"}, {"bike_id": "7a8dca8a67fce6da2c318a1b780d8eb1", "type": "electric_bike", "is_disabled": 0, "lat": 38.87295666666667, "rental_uris": {"ios": "https://dc.lft.to/lastmile_qr_scan", "android": "https://dc.lft.to/lastmile_qr_scan"}, "is_reserved": 0, "fusion_lon": 0.0, "fusion_lat": 0.0, "lon": -76.96978816666666, "name": "7a8dca8a67fce6da2c318a1b780d8eb1"}, {"bike_id": "f240b020a9d64214fc17f83a941e4bce", "type": "electric_scooter", "is_disabled": 0, "lat": 38.9245765, "rental_uris": {"ios": "https://dc.lft.to/lastmile_qr_scan", "android": "https://dc.lft.to/lastmile_qr_scan"}, "is_reserved": 0, "fusion_lon": 0.0, "fusion_lat": 0.0, "lon": -76.99916483333334, "name": "f240b020a9d64214fc17f83a941e4bce"}, {"bike_id": "967c8656b2b020a5046b2274b111f2ca", "type": "electric_scooter", "is_disabled": 0, "lat": 38.87816633333333, "rental_uris": {"ios": "https://dc.lft.to/lastmile_qr_scan", "android": "https://dc.lft.to/lastmile_qr_scan"}, "is_reserved": 0, "fusion_lon": 0.0, "fusion_lat": 0.0, "lon": -76.93104833333334, "name": "967c8656b2b020a5046b2274b111f2ca"}, {"bike_id": "4fb8f9794b754b1c4463051122660fde", "type": "electric_scooter", "is_disabled": 0, "lat": 38.932395666666665, "rental_uris": {"ios": "https://dc.lft.to/lastmile_qr_scan", "android": "https://dc.lft.to/lastmile_qr_scan"}, "is_reserved": 0, "fusion_lon": 0.0, "fusion_lat": 0.0, "lon": -77.03852533333334, "name": "4fb8f9794b754b1c4463051122660fde"}, {"bike_id": "bdab49d4ef106730face9831d1f9d941", "type": "electric_bike", "is_disabled": 0, "lat": 38.936468, "rental_uris": {"ios": "https://dc.lft.to/lastmile_qr_scan", "android": "https://dc.lft.to/lastmile_qr_scan"}, "is_reserved": 0, "fusion_lon": 0.0, "fusion_lat": 0.0, "lon": -77.02087716666666, "name": "bdab49d4ef106730face9831d1f9d941"}, {"bike_id": "80dcb47cf880e22f713677d45d18c588", "type": "electric_scooter", "is_disabled": 0, "lat": 38.9000295, "rental_uris": {"ios": "https://dc.lft.to/lastmile_qr_scan", "android": "https://dc.lft.to/lastmile_qr_scan"}, "is_reserved": 0, "fusion_lon": 0.0, "fusion_lat": 0.0, "lon": -77.0447835, "name": "80dcb47cf880e22f713677d45d18c588"}, {"bike_id": "aaa4684dc8e4f51c28d079d01e827615", "type": "electric_scooter", "is_disabled": 0, "lat": 38.94989416666667, "rental_uris": {"ios": "https://dc.lft.to/lastmile_qr_scan", "android": "https://dc.lft.to/lastmile_qr_scan"}, "is_reserved": 0, "fusion_lon": 0.0, "fusion_lat": 0.0, "lon": -77.027054, "name": "aaa4684dc8e4f51c28d079d01e827615"}, {"bike_id": "9b0d63745e3909c04e28ce70eb8132d0", "type": "electric_scooter", "is_disabled": 0, "lat": 38.9084515, "rental_uris": {"ios": "https://dc.lft.to/lastmile_qr_scan", "android": "https://dc.lft.to/lastmile_qr_scan"}, "is_reserved": 0, "fusion_lon": 0.0, "fusion_lat": 0.0, "lon": -77.04336016666667, "name": "9b0d63745e3909c04e28ce70eb8132d0"}, {"bike_id": "bc4aade0e3c8f65e132177eda8632e75", "type": "electric_scooter", "is_disabled": 0, "lat": 38.90586616666667, "rental_uris": {"ios": "https://dc.lft.to/lastmile_qr_scan", "android": "https://dc.lft.to/lastmile_qr_scan"}, "is_reserved": 0, "fusion_lon": 0.0, "fusion_lat": 0.0, "lon": -77.0487785, "name": "bc4aade0e3c8f65e132177eda8632e75"}, {"bike_id": "78dca72b96fa0eceec0c4f01155617b2", "type": "electric_bike", "is_disabled": 0, "lat": 38.956219833333336, "rental_uris": {"ios": "https://dc.lft.to/lastmile_qr_scan", "android": "https://dc.lft.to/lastmile_qr_scan"}, "is_reserved": 0, "fusion_lon": 0.0, "fusion_lat": 0.0, "lon": -77.02595233333334, "name": "78dca72b96fa0eceec0c4f01155617b2"}, {"bike_id": "d61f539d4aa3c6021bf5589fce11edec", "type": "electric_scooter", "is_disabled": 0, "lat": 38.91374966666667, "rental_uris": {"ios": "https://dc.lft.to/lastmile_qr_scan", "android": "https://dc.lft.to/lastmile_qr_scan"}, "is_reserved": 0, "fusion_lon": 0.0, "fusion_lat": 0.0, "lon": -77.030148, "name": "d61f539d4aa3c6021bf5589fce11edec"}, {"bike_id": "bc6258cc4c220172188446c05464310b", "type": "electric_scooter", "is_disabled": 0, "lat": 38.885152166666664, "rental_uris": {"ios": "https://dc.lft.to/lastmile_qr_scan", "android": "https://dc.lft.to/lastmile_qr_scan"}, "is_reserved": 0, "fusion_lon": 0.0, "fusion_lat": 0.0, "lon": -77.02822383333333, "name": "bc6258cc4c220172188446c05464310b"}, {"bike_id": "50b1d6c39886ce8b57b5e7685860a908", "type": "electric_scooter", "is_disabled": 0, "lat": 38.9234155, "rental_uris": {"ios": "https://dc.lft.to/lastmile_qr_scan", "android": "https://dc.lft.to/lastmile_qr_scan"}, "is_reserved": 0, "fusion_lon": 0.0, "fusion_lat": 0.0, "lon": -77.05052516666667, "name": "50b1d6c39886ce8b57b5e7685860a908"}, {"bike_id": "a0861b9a8ec8c5c5d869b065c49097db", "type": "electric_scooter", "is_disabled": 0, "lat": 38.914525, "rental_uris": {"ios": "https://dc.lft.to/lastmile_qr_scan", "android": "https://dc.lft.to/lastmile_qr_scan"}, "is_reserved": 0, "fusion_lon": 0.0, "fusion_lat": 0.0, "lon": -77.0727105, "name": "a0861b9a8ec8c5c5d869b065c49097db"}, {"bike_id": "423b3d836db9c98764efaddff556f41f", "type": "electric_scooter", "is_disabled": 0, "lat": 38.865006666666666, "rental_uris": {"ios": "https://dc.lft.to/lastmile_qr_scan", "android": "https://dc.lft.to/lastmile_qr_scan"}, "is_reserved": 0, "fusion_lon": 0.0, "fusion_lat": 0.0, "lon": -76.97456266666667, "name": "423b3d836db9c98764efaddff556f41f"}, {"bike_id": "427cef0c24275ffc587b91982b30eccf", "type": "electric_scooter", "is_disabled": 0, "lat": 38.900347833333335, "rental_uris": {"ios": "https://dc.lft.to/lastmile_qr_scan", "android": "https://dc.lft.to/lastmile_qr_scan"}, "is_reserved": 0, "fusion_lon": 0.0, "fusion_lat": 0.0, "lon": -77.00701983333333, "name": "427cef0c24275ffc587b91982b30eccf"}, {"bike_id": "5ec8f0eaaa631f44bc16b7734f89ac41", "type": "electric_scooter", "is_disabled": 0, "lat": 38.9212935, "rental_uris": {"ios": "https://dc.lft.to/lastmile_qr_scan", "android": "https://dc.lft.to/lastmile_qr_scan"}, "is_reserved": 0, "fusion_lon": 0.0, "fusion_lat": 0.0, "lon": -77.04430516666666, "name": "5ec8f0eaaa631f44bc16b7734f89ac41"}, {"bike_id": "6dfa3d2efcb0c73afddaab4a37f3cdd6", "type": "electric_scooter", "is_disabled": 0, "lat": 38.870987666666664, "rental_uris": {"ios": "https://dc.lft.to/lastmile_qr_scan", "android": "https://dc.lft.to/lastmile_qr_scan"}, "is_reserved": 0, "fusion_lon": 0.0, "fusion_lat": 0.0, "lon": -77.0080765, "name": "6dfa3d2efcb0c73afddaab4a37f3cdd6"}, {"bike_id": "eb462ca5b19cc600912f36f2bbf5a0a3", "type": "electric_scooter", "is_disabled": 0, "lat": 38.9370025, "rental_uris": {"ios": "https://dc.lft.to/lastmile_qr_scan", "android": "https://dc.lft.to/lastmile_qr_scan"}, "is_reserved": 0, "fusion_lon": 0.0, "fusion_lat": 0.0, "lon": -77.032832, "name": "eb462ca5b19cc600912f36f2bbf5a0a3"}, {"bike_id": "95beb7a37e77b1aa1f7d9c290d5767b0", "type": "electric_scooter", "is_disabled": 0, "lat": 38.9177375, "rental_uris": {"ios": "https://dc.lft.to/lastmile_qr_scan", "android": "https://dc.lft.to/lastmile_qr_scan"}, "is_reserved": 0, "fusion_lon": 0.0, "fusion_lat": 0.0, "lon": -77.01493116666667, "name": "95beb7a37e77b1aa1f7d9c290d5767b0"}, {"bike_id": "873d8e77db3e08f4bdea5135fa72f0ea", "type": "electric_scooter", "is_disabled": 0, "lat": 38.8952555, "rental_uris": {"ios": "https://dc.lft.to/lastmile_qr_scan", "android": "https://dc.lft.to/lastmile_qr_scan"}, "is_reserved": 0, "fusion_lon": 0.0, "fusion_lat": 0.0, "lon": -77.01105833333334, "name": "873d8e77db3e08f4bdea5135fa72f0ea"}, {"bike_id": "4e0931600faeff6d35e193f2c4ca45f3", "type": "electric_scooter", "is_disabled": 0, "lat": 38.905536, "rental_uris": {"ios": "https://dc.lft.to/lastmile_qr_scan", "android": "https://dc.lft.to/lastmile_qr_scan"}, "is_reserved": 0, "fusion_lon": 0.0, "fusion_lat": 0.0, "lon": -77.00590783333334, "name": "4e0931600faeff6d35e193f2c4ca45f3"}, {"bike_id": "5709567071a9789f07560ef047174ee5", "type": "electric_scooter", "is_disabled": 0, "lat": 38.94289, "rental_uris": {"ios": "https://dc.lft.to/lastmile_qr_scan", "android": "https://dc.lft.to/lastmile_qr_scan"}, "is_reserved": 0, "fusion_lon": 0.0, "fusion_lat": 0.0, "lon": -77.07705883333334, "name": "5709567071a9789f07560ef047174ee5"}, {"bike_id": "f3d115737d2f78e20410f8182b0aa9de", "type": "electric_scooter", "is_disabled": 0, "lat": 38.863747333333336, "rental_uris": {"ios": "https://dc.lft.to/lastmile_qr_scan", "android": "https://dc.lft.to/lastmile_qr_scan"}, "is_reserved": 0, "fusion_lon": 0.0, "fusion_lat": 0.0, "lon": -76.9906325, "name": "f3d115737d2f78e20410f8182b0aa9de"}, {"bike_id": "b861c1b0769ce1598cae63b67d8cb95a", "type": "electric_scooter", "is_disabled": 0, "lat": 38.94271483333333, "rental_uris": {"ios": "https://dc.lft.to/lastmile_qr_scan", "android": "https://dc.lft.to/lastmile_qr_scan"}, "is_reserved": 0, "fusion_lon": 0.0, "fusion_lat": 0.0, "lon": -77.032586, "name": "b861c1b0769ce1598cae63b67d8cb95a"}, {"bike_id": "9d87a1ce2a8f4b721149ec464ed4e612", "type": "electric_scooter", "is_disabled": 0, "lat": 38.91762383333333, "rental_uris": {"ios": "https://dc.lft.to/lastmile_qr_scan", "android": "https://dc.lft.to/lastmile_qr_scan"}, "is_reserved": 0, "fusion_lon": 0.0, "fusion_lat": 0.0, "lon": -77.04772133333333, "name": "9d87a1ce2a8f4b721149ec464ed4e612"}, {"bike_id": "3c15d94ef9ba7edf74ca5265fac274e7", "type": "electric_scooter", "is_disabled": 0, "lat": 38.90662016666667, "rental_uris": {"ios": "https://dc.lft.to/lastmile_qr_scan", "android": "https://dc.lft.to/lastmile_qr_scan"}, "is_reserved": 0, "fusion_lon": 0.0, "fusion_lat": 0.0, "lon": -77.0269925, "name": "3c15d94ef9ba7edf74ca5265fac274e7"}, {"bike_id": "0eb3d16cf8b1cb37f90049a9d20c9aff", "type": "electric_bike", "is_disabled": 0, "lat": 38.94020233333333, "rental_uris": {"ios": "https://dc.lft.to/lastmile_qr_scan", "android": "https://dc.lft.to/lastmile_qr_scan"}, "is_reserved": 0, "fusion_lon": 0.0, "fusion_lat": 0.0, "lon": -76.97613916666667, "name": "0eb3d16cf8b1cb37f90049a9d20c9aff"}, {"bike_id": "3ca0a5026ebd642e1e2b2be69c8a9187", "type": "electric_scooter", "is_disabled": 0, "lat": 38.885921, "rental_uris": {"ios": "https://dc.lft.to/lastmile_qr_scan", "android": "https://dc.lft.to/lastmile_qr_scan"}, "is_reserved": 0, "fusion_lon": 0.0, "fusion_lat": 0.0, "lon": -77.01731083333334, "name": "3ca0a5026ebd642e1e2b2be69c8a9187"}, {"bike_id": "e4768370d90028b9b7099e73ee82387d", "type": "electric_bike", "is_disabled": 0, "lat": 38.956205, "rental_uris": {"ios": "https://dc.lft.to/lastmile_qr_scan", "android": "https://dc.lft.to/lastmile_qr_scan"}, "is_reserved": 0, "fusion_lon": 0.0, "fusion_lat": 0.0, "lon": -76.93875633333333, "name": "e4768370d90028b9b7099e73ee82387d"}, {"bike_id": "c8c6f56a78bf403bc94cdbc8e7a26fb4", "type": "electric_scooter", "is_disabled": 0, "lat": 38.884186166666666, "rental_uris": {"ios": "https://dc.lft.to/lastmile_qr_scan", "android": "https://dc.lft.to/lastmile_qr_scan"}, "is_reserved": 0, "fusion_lon": 0.0, "fusion_lat": 0.0, "lon": -77.0074375, "name": "c8c6f56a78bf403bc94cdbc8e7a26fb4"}, {"bike_id": "7ef70d6c27d24e4f2caad00677a3ba35", "type": "electric_scooter", "is_disabled": 0, "lat": 38.8637435, "rental_uris": {"ios": "https://dc.lft.to/lastmile_qr_scan", "android": "https://dc.lft.to/lastmile_qr_scan"}, "is_reserved": 0, "fusion_lon": 0.0, "fusion_lat": 0.0, "lon": -76.99057983333333, "name": "7ef70d6c27d24e4f2caad00677a3ba35"}, {"bike_id": "7495da19762384f6bf0e3ca1c338cb6b", "type": "electric_scooter", "is_disabled": 0, "lat": 38.9843055, "rental_uris": {"ios": "https://dc.lft.to/lastmile_qr_scan", "android": "https://dc.lft.to/lastmile_qr_scan"}, "is_reserved": 0, "fusion_lon": 0.0, "fusion_lat": 0.0, "lon": -77.02672533333333, "name": "7495da19762384f6bf0e3ca1c338cb6b"}, {"bike_id": "91534b25a94b76f1e1e89f6e8b745764", "type": "electric_scooter", "is_disabled": 0, "lat": 38.924207833333334, "rental_uris": {"ios": "https://dc.lft.to/lastmile_qr_scan", "android": "https://dc.lft.to/lastmile_qr_scan"}, "is_reserved": 0, "fusion_lon": 0.0, "fusion_lat": 0.0, "lon": -77.02263516666666, "name": "91534b25a94b76f1e1e89f6e8b745764"}, {"bike_id": "5479a2c4a2301ab0f6055de5188bb180", "type": "electric_scooter", "is_disabled": 0, "lat": 38.93548366666667, "rental_uris": {"ios": "https://dc.lft.to/lastmile_qr_scan", "android": "https://dc.lft.to/lastmile_qr_scan"}, "is_reserved": 0, "fusion_lon": 0.0, "fusion_lat": 0.0, "lon": -77.02507483333333, "name": "5479a2c4a2301ab0f6055de5188bb180"}, {"bike_id": "a462c283dec4fd5f8a2b5086f49a7a92", "type": "electric_scooter", "is_disabled": 0, "lat": 38.9282645, "rental_uris": {"ios": "https://dc.lft.to/lastmile_qr_scan", "android": "https://dc.lft.to/lastmile_qr_scan"}, "is_reserved": 0, "fusion_lon": 0.0, "fusion_lat": 0.0, "lon": -77.02259933333333, "name": "a462c283dec4fd5f8a2b5086f49a7a92"}, {"bike_id": "6a6a5f8e22fe530578fd14d10320d2bd", "type": "electric_scooter", "is_disabled": 0, "lat": 38.90266366666667, "rental_uris": {"ios": "https://dc.lft.to/lastmile_qr_scan", "android": "https://dc.lft.to/lastmile_qr_scan"}, "is_reserved": 0, "fusion_lon": 0.0, "fusion_lat": 0.0, "lon": -77.03387233333333, "name": "6a6a5f8e22fe530578fd14d10320d2bd"}, {"bike_id": "9e584ac7d1f4990558d05de95c3e32b4", "type": "electric_scooter", "is_disabled": 0, "lat": 38.9207435, "rental_uris": {"ios": "https://dc.lft.to/lastmile_qr_scan", "android": "https://dc.lft.to/lastmile_qr_scan"}, "is_reserved": 0, "fusion_lon": 0.0, "fusion_lat": 0.0, "lon": -77.02507783333333, "name": "9e584ac7d1f4990558d05de95c3e32b4"}, {"bike_id": "67b15731e7799d5892983b1520c17aaa", "type": "electric_scooter", "is_disabled": 0, "lat": 38.86217233333333, "rental_uris": {"ios": "https://dc.lft.to/lastmile_qr_scan", "android": "https://dc.lft.to/lastmile_qr_scan"}, "is_reserved": 0, "fusion_lon": 0.0, "fusion_lat": 0.0, "lon": -76.99487216666667, "name": "67b15731e7799d5892983b1520c17aaa"}, {"bike_id": "cf5fe534fd9a17df484e61b2c0cb5541", "type": "electric_scooter", "is_disabled": 0, "lat": 38.905944166666664, "rental_uris": {"ios": "https://dc.lft.to/lastmile_qr_scan", "android": "https://dc.lft.to/lastmile_qr_scan"}, "is_reserved": 0, "fusion_lon": 0.0, "fusion_lat": 0.0, "lon": -77.02182033333334, "name": "cf5fe534fd9a17df484e61b2c0cb5541"}, {"bike_id": "03ae0b03e639197cfc8c7d075c8ce64f", "type": "electric_scooter", "is_disabled": 0, "lat": 38.9171105, "rental_uris": {"ios": "https://dc.lft.to/lastmile_qr_scan", "android": "https://dc.lft.to/lastmile_qr_scan"}, "is_reserved": 0, "fusion_lon": 0.0, "fusion_lat": 0.0, "lon": -77.03863066666666, "name": "03ae0b03e639197cfc8c7d075c8ce64f"}, {"bike_id": "c2d44d656a15d2a578696674441ef1b0", "type": "electric_scooter", "is_disabled": 0, "lat": 38.902649833333335, "rental_uris": {"ios": "https://dc.lft.to/lastmile_qr_scan", "android": "https://dc.lft.to/lastmile_qr_scan"}, "is_reserved": 0, "fusion_lon": 0.0, "fusion_lat": 0.0, "lon": -77.01962466666667, "name": "c2d44d656a15d2a578696674441ef1b0"}, {"bike_id": "9159099e7b88836e0a4ef079818c4ba1", "type": "electric_scooter", "is_disabled": 0, "lat": 38.91682, "rental_uris": {"ios": "https://dc.lft.to/lastmile_qr_scan", "android": "https://dc.lft.to/lastmile_qr_scan"}, "is_reserved": 0, "fusion_lon": 0.0, "fusion_lat": 0.0, "lon": -77.02953016666666, "name": "9159099e7b88836e0a4ef079818c4ba1"}, {"bike_id": "b08db75ab9bea95c7bc8d4674daf09b3", "type": "electric_scooter", "is_disabled": 0, "lat": 38.92059583333333, "rental_uris": {"ios": "https://dc.lft.to/lastmile_qr_scan", "android": "https://dc.lft.to/lastmile_qr_scan"},