{"data": {"bikes": [{"is_disabled": 0, "rental_uris": {"android": "https://dc.lft.to/lastmile_qr_scan", "ios": "https://dc.lft.to/lastmile_qr_scan"}, "is_reserved": 0, "name": "478895bda1f8e3432ea02cc8ba9f513f", "lon": -77.03604866666667, "type": "electric_scooter", "bike_id": "478895bda1f8e3432ea02cc8ba9f513f", "fusion_lon": 0.0, "lat": 38.9347655, "fusion_lat": 0.0}, {"is_disabled": 0, "rental_uris": {"android": "https://dc.lft.to/lastmile_qr_scan", "ios": "https://dc.lft.to/lastmile_qr_scan"}, "is_reserved": 0, "name": "e9d43b0a33efc93b30694fac1d38ee43", "lon": -77.00658366666667, "type": "electric_scooter", "bike_id": "e9d43b0a33efc93b30694fac1d38ee43", "fusion_lon": 0.0, "lat": 38.944625333333335, "fusion_lat": 0.0}, {"is_disabled": 0, "rental_uris": {"android": "https://dc.lft.to/lastmile_qr_scan", "ios": "https://dc.lft.to/lastmile_qr_scan"}, "is_reserved": 0, "name": "359c49adfeb71b04ea911b1d7542a3cd", "lon": -77.038574, "type": "electric_scooter", "bike_id": "359c49adfeb71b04ea911b1d7542a3cd", "fusion_lon": 0.0, "lat": 38.914624333333336, "fusion_lat": 0.0}, {"is_disabled": 0, "rental_uris": {"android": "https://dc.lft.to/lastmile_qr_scan", "ios": "https://dc.lft.to/lastmile_qr_scan"}, "is_reserved": 0, "name": "95eea725990087b52cc4f26fc1a30a4b", "lon": -77.028753, "type": "electric_bike", "bike_id": "95eea725990087b52cc4f26fc1a30a4b", "fusion_lon": 0.0, "lat": 38.998262, "fusion_lat": 0.0}, {"is_disabled": 0, "rental_uris": {"android": "https://dc.lft.to/lastmile_qr_scan", "ios": "https://dc.lft.to/lastmile_qr_scan"}, "is_reserved": 0, "name": "fdf177ec04f5541a8dcfe1a964680bf7", "lon": -77.22936583333333, "type": "electric_bike", "bike_id": "fdf177ec04f5541a8dcfe1a964680bf7", "fusion_lon": 0.0, "lat": 38.93189783333333, "fusion_lat": 0.0}, {"is_disabled": 0, "rental_uris": {"android": "https://dc.lft.to/lastmile_qr_scan", "ios": "https://dc.lft.to/lastmile_qr_scan"}, "is_reserved": 0, "name": "3c936e03718274a2ebcfcd916f3c7095", "lon": -77.02227533333334, "type": "electric_scooter", "bike_id": "3c936e03718274a2ebcfcd916f3c7095", "fusion_lon": 0.0, "lat": 38.892173666666665, "fusion_lat": 0.0}, {"is_disabled": 0, "rental_uris": {"android": "https://dc.lft.to/lastmile_qr_scan", "ios": "https://dc.lft.to/lastmile_qr_scan"}, "is_reserved": 0, "name": "83f11b38868587f087c0d39ceb54c9a2", "lon": -77.02491416666666, "type": "electric_scooter", "bike_id": "83f11b38868587f087c0d39ceb54c9a2", "fusion_lon": 0.0, "lat": 38.91750433333333, "fusion_lat": 0.0}, {"is_disabled": 0, "rental_uris": {"android": "https://dc.lft.to/lastmile_qr_scan", "ios": "https://dc.lft.to/lastmile_qr_scan"}, "is_reserved": 0, "name": "2c7dcd6b0608b0b20072a5f03151e0a5", "lon": -76.916579, "type": "electric_bike", "bike_id": "2c7dcd6b0608b0b20072a5f03151e0a5", "fusion_lon": 0.0, "lat": 38.86858, "fusion_lat": 0.0}, {"is_disabled": 0, "rental_uris": {"android": "https://dc.lft.to/lastmile_qr_scan", "ios": "https://dc.lft.to/lastmile_qr_scan"}, "is_reserved": 0, "name": "9fd14ee55a36b7c6752239a23231bfa9", "lon": -77.00567833333334, "type": "electric_scooter", "bike_id": "9fd14ee55a36b7c6752239a23231bfa9", "fusion_lon": 0.0, "lat": 38.88496983333334, "fusion_lat": 0.0}, {"is_disabled": 0, "rental_uris": {"android": "https://dc.lft.to/lastmile_qr_scan", "ios": "https://dc.lft.to/lastmile_qr_scan"}, "is_reserved": 0, "name": "62f80d86b76b0090012018dd3f5a515f", "lon": -77.02541766666667, "type": "electric_scooter", "bike_id": "62f80d86b76b0090012018dd3f5a515f", "fusion_lon": 0.0, "lat": 38.92402933333334, "fusion_lat": 0.0}, {"is_disabled": 0, "rental_uris": {"android": "https://dc.lft.to/lastmile_qr_scan", "ios": "https://dc.lft.to/lastmile_qr_scan"}, "is_reserved": 0, "name": "e9b4260337f184537bd53b9e9f30441f", "lon": -77.0219545, "type": "electric_scooter", "bike_id": "e9b4260337f184537bd53b9e9f30441f", "fusion_lon": 0.0, "lat": 38.89507316666667, "fusion_lat": 0.0}, {"is_disabled": 0, "rental_uris": {"android": "https://dc.lft.to/lastmile_qr_scan", "ios": "https://dc.lft.to/lastmile_qr_scan"}, "is_reserved": 0, "name": "c73e272e646eda0618674b91cd42213f", "lon": -76.99488916666667, "type": "electric_scooter", "bike_id": "c73e272e646eda0618674b91cd42213f", "fusion_lon": 0.0, "lat": 38.86237466666667, "fusion_lat": 0.0}, {"is_disabled": 0, "rental_uris": {"android": "https://dc.lft.to/lastmile_qr_scan", "ios": "https://dc.lft.to/lastmile_qr_scan"}, "is_reserved": 0, "name": "8ff36f7d0a059b310bf8586fc771d7b9", "lon": -77.04347866666667, "type": "electric_scooter", "bike_id": "8ff36f7d0a059b310bf8586fc771d7b9", "fusion_lon": 0.0, "lat": 38.9216025, "fusion_lat": 0.0}, {"is_disabled": 0, "rental_uris": {"android": "https://dc.lft.to/lastmile_qr_scan", "ios": "https://dc.lft.to/lastmile_qr_scan"}, "is_reserved": 0, "name": "580263783015a426802db9099bd5316b", "lon": -77.031725, "type": "electric_scooter", "bike_id": "580263783015a426802db9099bd5316b", "fusion_lon": 0.0, "lat": 38.89176883333333, "fusion_lat": 0.0}, {"is_disabled": 0, "rental_uris": {"android": "https://dc.lft.to/lastmile_qr_scan", "ios": "https://dc.lft.to/lastmile_qr_scan"}, "is_reserved": 0, "name": "1b46d85b424ac39b852bc678e42a0b9c", "lon": -77.0278265, "type": "electric_scooter", "bike_id": "1b46d85b424ac39b852bc678e42a0b9c", "fusion_lon": 0.0, "lat": 38.9102155, "fusion_lat": 0.0}, {"is_disabled": 0, "rental_uris": {"android": "https://dc.lft.to/lastmile_qr_scan", "ios": "https://dc.lft.to/lastmile_qr_scan"}, "is_reserved": 0, "name": "a8ea8428aff883119cf8455a2e8dbb24", "lon": -77.03474033333333, "type": "electric_scooter", "bike_id": "a8ea8428aff883119cf8455a2e8dbb24", "fusion_lon": 0.0, "lat": 38.921446833333334, "fusion_lat": 0.0}, {"is_disabled": 0, "rental_uris": {"android": "https://dc.lft.to/lastmile_qr_scan", "ios": "https://dc.lft.to/lastmile_qr_scan"}, "is_reserved": 0, "name": "40f9849c68861fa2413428341db99513", "lon": -76.9861515, "type": "electric_scooter", "bike_id": "40f9849c68861fa2413428341db99513", "fusion_lon": 0.0, "lat": 38.882762, "fusion_lat": 0.0}, {"is_disabled": 0, "rental_uris": {"android": "https://dc.lft.to/lastmile_qr_scan", "ios": "https://dc.lft.to/lastmile_qr_scan"}, "is_reserved": 0, "name": "c5e4e308444e6272323c68591df94545", "lon": -77.0326255, "type": "electric_scooter", "bike_id": "c5e4e308444e6272323c68591df94545", "fusion_lon": 0.0, "lat": 38.9070815, "fusion_lat": 0.0}, {"is_disabled": 0, "rental_uris": {"android": "https://dc.lft.to/lastmile_qr_scan", "ios": "https://dc.lft.to/lastmile_qr_scan"}, "is_reserved": 0, "name": "091c145b101a25facb572bdd47cc5fed", "lon": -76.965498, "type": "electric_scooter", "bike_id": "091c145b101a25facb572bdd47cc5fed", "fusion_lon": 0.0, "lat": 38.9183925, "fusion_lat": 0.0}, {"is_disabled": 0, "rental_uris": {"android": "https://dc.lft.to/lastmile_qr_scan", "ios": "https://dc.lft.to/lastmile_qr_scan"}, "is_reserved": 0, "name": "2ceed8548972e64d2dffefb39aaff6d5", "lon": -77.021628, "type": "electric_scooter", "bike_id": "2ceed8548972e64d2dffefb39aaff6d5", "fusion_lon": 0.0, "lat": 38.926124333333334, "fusion_lat": 0.0}, {"is_disabled": 0, "rental_uris": {"android": "https://dc.lft.to/lastmile_qr_scan", "ios": "https://dc.lft.to/lastmile_qr_scan"}, "is_reserved": 0, "name": "617ac0df6a2312f408eeb90c011f0f9e", "lon": -77.12744683333334, "type": "electric_bike", "bike_id": "617ac0df6a2312f408eeb90c011f0f9e", "fusion_lon": 0.0, "lat": 38.888225, "fusion_lat": 0.0}, {"is_disabled": 0, "rental_uris": {"android": "https://dc.lft.to/lastmile_qr_scan", "ios": "https://dc.lft.to/lastmile_qr_scan"}, "is_reserved": 0, "name": "7f7bfb62d94a6587881b67e07fcec3e3", "lon": -77.0689955, "type": "electric_scooter", "bike_id": "7f7bfb62d94a6587881b67e07fcec3e3", "fusion_lon": 0.0, "lat": 38.90780516666667, "fusion_lat": 0.0}, {"is_disabled": 0, "rental_uris": {"android": "https://dc.lft.to/lastmile_qr_scan", "ios": "https://dc.lft.to/lastmile_qr_scan"}, "is_reserved": 0, "name": "5219631af752722eb307382b122fd724", "lon": -76.986216, "type": "electric_scooter", "bike_id": "5219631af752722eb307382b122fd724", "fusion_lon": 0.0, "lat": 38.903431833333336, "fusion_lat": 0.0}, {"is_disabled": 0, "rental_uris": {"android": "https://dc.lft.to/lastmile_qr_scan", "ios": "https://dc.lft.to/lastmile_qr_scan"}, "is_reserved": 0, "name": "b6f7a93a54c3e5c9b9a51b5458e72b6d", "lon": -77.04997666666667, "type": "electric_scooter", "bike_id": "b6f7a93a54c3e5c9b9a51b5458e72b6d", "fusion_lon": 0.0, "lat": 38.89229366666667, "fusion_lat": 0.0}, {"is_disabled": 0, "rental_uris": {"android": "https://dc.lft.to/lastmile_qr_scan", "ios": "https://dc.lft.to/lastmile_qr_scan"}, "is_reserved": 0, "name": "a1db6e81a6b1e2ac2fe0007ffbba042e", "lon": -77.03721216666666, "type": "electric_scooter", "bike_id": "a1db6e81a6b1e2ac2fe0007ffbba042e", "fusion_lon": 0.0, "lat": 38.9111315, "fusion_lat": 0.0}, {"is_disabled": 0, "rental_uris": {"android": "https://dc.lft.to/lastmile_qr_scan", "ios": "https://dc.lft.to/lastmile_qr_scan"}, "is_reserved": 0, "name": "1833fcc3b40b7bba562e0f809a12fbe0", "lon": -76.92232383333334, "type": "electric_scooter", "bike_id": "1833fcc3b40b7bba562e0f809a12fbe0", "fusion_lon": 0.0, "lat": 38.899967, "fusion_lat": 0.0}, {"is_disabled": 0, "rental_uris": {"android": "https://dc.lft.to/lastmile_qr_scan", "ios": "https://dc.lft.to/lastmile_qr_scan"}, "is_reserved": 0, "name": "071409d79ab17935a55ddebc1467edfb", "lon": -77.02173933333333, "type": "electric_scooter", "bike_id": "071409d79ab17935a55ddebc1467edfb", "fusion_lon": 0.0, "lat": 38.89935333333333, "fusion_lat": 0.0}, {"is_disabled": 0, "rental_uris": {"android": "https://dc.lft.to/lastmile_qr_scan", "ios": "https://dc.lft.to/lastmile_qr_scan"}, "is_reserved": 0, "name": "aac5e91475d61aa05eb270bcb705c5b0", "lon": -77.00391583333334, "type": "electric_scooter", "bike_id": "aac5e91475d61aa05eb270bcb705c5b0", "fusion_lon": 0.0, "lat": 38.9106105, "fusion_lat": 0.0}, {"is_disabled": 0, "rental_uris": {"android": "https://dc.lft.to/lastmile_qr_scan", "ios": "https://dc.lft.to/lastmile_qr_scan"}, "is_reserved": 0, "name": "d61bac290b72c37cb7989b11c597fb3b", "lon": -77.035491, "type": "electric_scooter", "bike_id": "d61bac290b72c37cb7989b11c597fb3b", "fusion_lon": 0.0, "lat": 38.924133499999996, "fusion_lat": 0.0}, {"is_disabled": 0, "rental_uris": {"android": "https://dc.lft.to/lastmile_qr_scan", "ios": "https://dc.lft.to/lastmile_qr_scan"}, "is_reserved": 0, "name": "7b32cc5fbab74f16160ba58464ee24eb", "lon": -77.02597233333333, "type": "electric_scooter", "bike_id": "7b32cc5fbab74f16160ba58464ee24eb", "fusion_lon": 0.0, "lat": 38.90755766666667, "fusion_lat": 0.0}, {"is_disabled": 0, "rental_uris": {"android": "https://dc.lft.to/lastmile_qr_scan", "ios": "https://dc.lft.to/lastmile_qr_scan"}, "is_reserved": 0, "name": "2f23ac7ebb3d39b401280ffe0e313c29", "lon": -76.942873, "type": "electric_scooter", "bike_id": "2f23ac7ebb3d39b401280ffe0e313c29", "fusion_lon": 0.0, "lat": 38.8830035, "fusion_lat": 0.0}, {"is_disabled": 0, "rental_uris": {"android": "https://dc.lft.to/lastmile_qr_scan", "ios": "https://dc.lft.to/lastmile_qr_scan"}, "is_reserved": 0, "name": "de02bc260aa757a1e20e1af2b175b218", "lon": -77.01215166666667, "type": "electric_scooter", "bike_id": "de02bc260aa757a1e20e1af2b175b218", "fusion_lon": 0.0, "lat": 38.91818033333333, "fusion_lat": 0.0}, {"is_disabled": 0, "rental_uris": {"android": "https://dc.lft.to/lastmile_qr_scan", "ios": "https://dc.lft.to/lastmile_qr_scan"}, "is_reserved": 0, "name": "b5e5b5168b206c6982445f809dffaf6a", "lon": -77.073911, "type": "electric_bike", "bike_id": "b5e5b5168b206c6982445f809dffaf6a", "fusion_lon": 0.0, "lat": 38.961775333333335, "fusion_lat": 0.0}, {"is_disabled": 0, "rental_uris": {"android": "https://dc.lft.to/lastmile_qr_scan", "ios": "https://dc.lft.to/lastmile_qr_scan"}, "is_reserved": 0, "name": "cb97b5f043cd37915700cd190c3cb1ec", "lon": -77.04062866666666, "type": "electric_scooter", "bike_id": "cb97b5f043cd37915700cd190c3cb1ec", "fusion_lon": 0.0, "lat": 38.910311166666666, "fusion_lat": 0.0}, {"is_disabled": 0, "rental_uris": {"android": "https://dc.lft.to/lastmile_qr_scan", "ios": "https://dc.lft.to/lastmile_qr_scan"}, "is_reserved": 0, "name": "b320c16ae0076dc9635209625cb31fb8", "lon": -76.93182266666666, "type": "electric_scooter", "bike_id": "b320c16ae0076dc9635209625cb31fb8", "fusion_lon": 0.0, "lat": 38.89875283333333, "fusion_lat": 0.0}, {"is_disabled": 0, "rental_uris": {"android": "https://dc.lft.to/lastmile_qr_scan", "ios": "https://dc.lft.to/lastmile_qr_scan"}, "is_reserved": 0, "name": "fbd815a02f1af578a398db68df46d7c0", "lon": -77.02793533333333, "type": "electric_scooter", "bike_id": "fbd815a02f1af578a398db68df46d7c0", "fusion_lon": 0.0, "lat": 38.96131466666667, "fusion_lat": 0.0}, {"is_disabled": 0, "rental_uris": {"android": "https://dc.lft.to/lastmile_qr_scan", "ios": "https://dc.lft.to/lastmile_qr_scan"}, "is_reserved": 0, "name": "7a6ce6bfe4788719a9f71b2489b7f9a0", "lon": -77.019729, "type": "electric_scooter", "bike_id": "7a6ce6bfe4788719a9f71b2489b7f9a0", "fusion_lon": 0.0, "lat": 38.911941166666665, "fusion_lat": 0.0}, {"is_disabled": 0, "rental_uris": {"android": "https://dc.lft.to/lastmile_qr_scan", "ios": "https://dc.lft.to/lastmile_qr_scan"}, "is_reserved": 0, "name": "55c2c00e554fd23fab31d2003d6e1f29", "lon": -77.05704266666666, "type": "electric_scooter", "bike_id": "55c2c00e554fd23fab31d2003d6e1f29", "fusion_lon": 0.0, "lat": 38.926188, "fusion_lat": 0.0}, {"is_disabled": 0, "rental_uris": {"android": "https://dc.lft.to/lastmile_qr_scan", "ios": "https://dc.lft.to/lastmile_qr_scan"}, "is_reserved": 0, "name": "e01d8dbf9398a9f739fa7ab2e7787826", "lon": -76.981623, "type": "electric_bike", "bike_id": "e01d8dbf9398a9f739fa7ab2e7787826", "fusion_lon": 0.0, "lat": 38.95960566666667, "fusion_lat": 0.0}, {"is_disabled": 0, "rental_uris": {"android": "https://dc.lft.to/lastmile_qr_scan", "ios": "https://dc.lft.to/lastmile_qr_scan"}, "is_reserved": 0, "name": "3897def330b3ceb420fe1b860843ea60", "lon": -77.024692, "type": "electric_bike", "bike_id": "3897def330b3ceb420fe1b860843ea60", "fusion_lon": 0.0, "lat": 38.95576366666667, "fusion_lat": 0.0}, {"is_disabled": 0, "rental_uris": {"android": "https://dc.lft.to/lastmile_qr_scan", "ios": "https://dc.lft.to/lastmile_qr_scan"}, "is_reserved": 0, "name": "59994e886d23437d678e984cac5da346", "lon": -77.023839, "type": "electric_scooter", "bike_id": "59994e886d23437d678e984cac5da346", "fusion_lon": 0.0, "lat": 38.905732666666665, "fusion_lat": 0.0}, {"is_disabled": 0, "rental_uris": {"android": "https://dc.lft.to/lastmile_qr_scan", "ios": "https://dc.lft.to/lastmile_qr_scan"}, "is_reserved": 0, "name": "fc91c0e53a9564a4f32281de5ce091f9", "lon": -76.95675016666667, "type": "electric_scooter", "bike_id": "fc91c0e53a9564a4f32281de5ce091f9", "fusion_lon": 0.0, "lat": 38.887652, "fusion_lat": 0.0}, {"is_disabled": 0, "rental_uris": {"android": "https://dc.lft.to/lastmile_qr_scan", "ios": "https://dc.lft.to/lastmile_qr_scan"}, "is_reserved": 0, "name": "66b619807f7099b2bc610302680162c4", "lon": -77.041455, "type": "electric_scooter", "bike_id": "66b619807f7099b2bc610302680162c4", "fusion_lon": 0.0, "lat": 38.9126875, "fusion_lat": 0.0}, {"is_disabled": 0, "rental_uris": {"android": "https://dc.lft.to/lastmile_qr_scan", "ios": "https://dc.lft.to/lastmile_qr_scan"}, "is_reserved": 0, "name": "9d4b97f2ef3f6f4ec81bffeb5881abc9", "lon": -77.1526555, "type": "electric_bike", "bike_id": "9d4b97f2ef3f6f4ec81bffeb5881abc9", "fusion_lon": 0.0, "lat": 39.10564166666666, "fusion_lat": 0.0}, {"is_disabled": 0, "rental_uris": {"android": "https://dc.lft.to/lastmile_qr_scan", "ios": "https://dc.lft.to/lastmile_qr_scan"}, "is_reserved": 0, "name": "41f68a9d797ad0ade69c0f6cf91d9c29", "lon": -77.02371183333334, "type": "electric_scooter", "bike_id": "41f68a9d797ad0ade69c0f6cf91d9c29", "fusion_lon": 0.0, "lat": 38.9140185, "fusion_lat": 0.0}, {"is_disabled": 0, "rental_uris": {"android": "https://dc.lft.to/lastmile_qr_scan", "ios": "https://dc.lft.to/lastmile_qr_scan"}, "is_reserved": 0, "name": "23437edefc5e82c6e0afe6b9e0e6ec42", "lon": -76.96835566666667, "type": "electric_bike", "bike_id": "23437edefc5e82c6e0afe6b9e0e6ec42", "fusion_lon": 0.0, "lat": 38.9244175, "fusion_lat": 0.0}, {"is_disabled": 0, "rental_uris": {"android": "https://dc.lft.to/lastmile_qr_scan", "ios": "https://dc.lft.to/lastmile_qr_scan"}, "is_reserved": 0, "name": "4965936e67791ce99ec963bb54c963e0", "lon": -77.03950766666667, "type": "electric_scooter", "bike_id": "4965936e67791ce99ec963bb54c963e0", "fusion_lon": 0.0, "lat": 38.898943833333334, "fusion_lat": 0.0}, {"is_disabled": 0, "rental_uris": {"android": "https://dc.lft.to/lastmile_qr_scan", "ios": "https://dc.lft.to/lastmile_qr_scan"}, "is_reserved": 0, "name": "27f808a367baae0d76b7720eab1aa8ef", "lon": -76.98325, "type": "electric_scooter", "bike_id": "27f808a367baae0d76b7720eab1aa8ef", "fusion_lon": 0.0, "lat": 38.861702333333334, "fusion_lat": 0.0}, {"is_disabled": 0, "rental_uris": {"android": "https://dc.lft.to/lastmile_qr_scan", "ios": "https://dc.lft.to/lastmile_qr_scan"}, "is_reserved": 0, "name": "ca2b02d7b3380e3add668328d461fc6b", "lon": -77.03210716666666, "type": "electric_scooter", "bike_id": "ca2b02d7b3380e3add668328d461fc6b", "fusion_lon": 0.0, "lat": 38.918238333333335, "fusion_lat": 0.0}, {"is_disabled": 0, "rental_uris": {"android": "https://dc.lft.to/lastmile_qr_scan", "ios": "https://dc.lft.to/lastmile_qr_scan"}, "is_reserved": 0, "name": "fede4801a7919a9f368991346cfc7b1e", "lon": -76.915973, "type": "electric_bike", "bike_id": "fede4801a7919a9f368991346cfc7b1e", "fusion_lon": 0.0, "lat": 38.879795666666666, "fusion_lat": 0.0}, {"is_disabled": 0, "rental_uris": {"android": "https://dc.lft.to/lastmile_qr_scan", "ios": "https://dc.lft.to/lastmile_qr_scan"}, "is_reserved": 0, "name": "b185200555b4267500f115a63e1c3b3c", "lon": -77.034499, "type": "electric_scooter", "bike_id": "b185200555b4267500f115a63e1c3b3c", "fusion_lon": 0.0, "lat": 38.96427583333333, "fusion_lat": 0.0}, {"is_disabled": 0, "rental_uris": {"android": "https://dc.lft.to/lastmile_qr_scan", "ios": "https://dc.lft.to/lastmile_qr_scan"}, "is_reserved": 0, "name": "e11a800ec29010ebbec004601f525753", "lon": -77.04843983333333, "type": "electric_scooter", "bike_id": "e11a800ec29010ebbec004601f525753", "fusion_lon": 0.0, "lat": 38.888316833333334, "fusion_lat": 0.0}, {"is_disabled": 0, "rental_uris": {"android": "https://dc.lft.to/lastmile_qr_scan", "ios": "https://dc.lft.to/lastmile_qr_scan"}, "is_reserved": 0, "name": "56d79089f8ae8e9b984958738e6dff9e", "lon": -77.05331666666666, "type": "electric_scooter", "bike_id": "56d79089f8ae8e9b984958738e6dff9e", "fusion_lon": 0.0, "lat": 38.92787583333333, "fusion_lat": 0.0}, {"is_disabled": 0, "rental_uris": {"android": "https://dc.lft.to/lastmile_qr_scan", "ios": "https://dc.lft.to/lastmile_qr_scan"}, "is_reserved": 0, "name": "e22e7032c203c0d90ebe32fb0f40518d", "lon": -77.04111383333333, "type": "electric_scooter", "bike_id": "e22e7032c203c0d90ebe32fb0f40518d", "fusion_lon": 0.0, "lat": 38.924479, "fusion_lat": 0.0}, {"is_disabled": 0, "rental_uris": {"android": "https://dc.lft.to/lastmile_qr_scan", "ios": "https://dc.lft.to/lastmile_qr_scan"}, "is_reserved": 0, "name": "35de708396f6530352c348c821683db5", "lon": -77.02821366666667, "type": "electric_bike", "bike_id": "35de708396f6530352c348c821683db5", "fusion_lon": 0.0, "lat": 38.932994, "fusion_lat": 0.0}, {"is_disabled": 0, "rental_uris": {"android": "https://dc.lft.to/lastmile_qr_scan", "ios": "https://dc.lft.to/lastmile_qr_scan"}, "is_reserved": 0, "name": "59d2f6300f4c4e03e5ffb90fc61a3e1d", "lon": -77.032431, "type": "electric_scooter", "bike_id": "59d2f6300f4c4e03e5ffb90fc61a3e1d", "fusion_lon": 0.0, "lat": 38.9149215, "fusion_lat": 0.0}, {"is_disabled": 0, "rental_uris": {"android": "https://dc.lft.to/lastmile_qr_scan", "ios": "https://dc.lft.to/lastmile_qr_scan"}, "is_reserved": 0, "name": "04a680e457c7f3818a3b872cc98be712", "lon": -76.9942795, "type": "electric_scooter", "bike_id": "04a680e457c7f3818a3b872cc98be712", "fusion_lon": 0.0, "lat": 38.922648333333335, "fusion_lat": 0.0}, {"is_disabled": 0, "rental_uris": {"android": "https://dc.lft.to/lastmile_qr_scan", "ios": "https://dc.lft.to/lastmile_qr_scan"}, "is_reserved": 0, "name": "4c03443e10bebdb0515c5d2420ace9a4", "lon": -77.02299116666667, "type": "electric_scooter", "bike_id": "4c03443e10bebdb0515c5d2420ace9a4", "fusion_lon": 0.0, "lat": 38.89578616666667, "fusion_lat": 0.0}, {"is_disabled": 0, "rental_uris": {"android": "https://dc.lft.to/lastmile_qr_scan", "ios": "https://dc.lft.to/lastmile_qr_scan"}, "is_reserved": 0, "name": "925861b2a68b1ed8e6ff235985bb88c6", "lon": -77.04487116666667, "type": "electric_scooter", "bike_id": "925861b2a68b1ed8e6ff235985bb88c6", "fusion_lon": 0.0, "lat": 38.924259166666666, "fusion_lat": 0.0}, {"is_disabled": 0, "rental_uris": {"android": "https://dc.lft.to/lastmile_qr_scan", "ios": "https://dc.lft.to/lastmile_qr_scan"}, "is_reserved": 0, "name": "97147d612b0d00768efa752304403c3d", "lon": -77.07277566666667, "type": "electric_scooter", "bike_id": "97147d612b0d00768efa752304403c3d", "fusion_lon": 0.0, "lat": 38.93472583333333, "fusion_lat": 0.0}, {"is_disabled": 0, "rental_uris": {"android": "https://dc.lft.to/lastmile_qr_scan", "ios": "https://dc.lft.to/lastmile_qr_scan"}, "is_reserved": 0, "name": "c2b4635d20c7a49454e6b12e1cf0a92e", "lon": -77.02791166666667, "type": "electric_scooter", "bike_id": "c2b4635d20c7a49454e6b12e1cf0a92e", "fusion_lon": 0.0, "lat": 38.91809666666666, "fusion_lat": 0.0}, {"is_disabled": 0, "rental_uris": {"android": "https://dc.lft.to/lastmile_qr_scan", "ios": "https://dc.lft.to/lastmile_qr_scan"}, "is_reserved": 0, "name": "810292d913c72385c650a4805f59a2ad", "lon": -77.032609, "type": "electric_scooter", "bike_id": "810292d913c72385c650a4805f59a2ad", "fusion_lon": 0.0, "lat": 38.93525116666667, "fusion_lat": 0.0}, {"is_disabled": 0, "rental_uris": {"android": "https://dc.lft.to/lastmile_qr_scan", "ios": "https://dc.lft.to/lastmile_qr_scan"}, "is_reserved": 0, "name": "43f50a9918e8fd22658eadde306133c5", "lon": -76.99163433333334, "type": "electric_scooter", "bike_id": "43f50a9918e8fd22658eadde306133c5", "fusion_lon": 0.0, "lat": 38.89776416666667, "fusion_lat": 0.0}, {"is_disabled": 0, "rental_uris": {"android": "https://dc.lft.to/lastmile_qr_scan", "ios": "https://dc.lft.to/lastmile_qr_scan"}, "is_reserved": 0, "name": "10f7c2471fb1a2b1fc6e74f11ba7e2bc", "lon": -77.00529183333333, "type": "electric_scooter", "bike_id": "10f7c2471fb1a2b1fc6e74f11ba7e2bc", "fusion_lon": 0.0, "lat": 38.87471016666667, "fusion_lat": 0.0}, {"is_disabled": 0, "rental_uris": {"android": "https://dc.lft.to/lastmile_qr_scan", "ios": "https://dc.lft.to/lastmile_qr_scan"}, "is_reserved": 0, "name": "c3e2aa5fea39e397d97910c6412fe14d", "lon": -77.0033875, "type": "electric_scooter", "bike_id": "c3e2aa5fea39e397d97910c6412fe14d", "fusion_lon": 0.0, "lat": 38.889848666666666, "fusion_lat": 0.0}, {"is_disabled": 0, "rental_uris": {"android": "https://dc.lft.to/lastmile_qr_scan", "ios": "https://dc.lft.to/lastmile_qr_scan"}, "is_reserved": 0, "name": "20eeeb6717db1128661a1d5eb063477f", "lon": -76.98119333333334, "type": "electric_scooter", "bike_id": "20eeeb6717db1128661a1d5eb063477f", "fusion_lon": 0.0, "lat": 38.89606716666667, "fusion_lat": 0.0}, {"is_disabled": 0, "rental_uris": {"android": "https://dc.lft.to/lastmile_qr_scan", "ios": "https://dc.lft.to/lastmile_qr_scan"}, "is_reserved": 0, "name": "e1ee7fc16e2dd4f7dacd05ac40901cf8", "lon": -77.032012, "type": "electric_scooter", "bike_id": "e1ee7fc16e2dd4f7dacd05ac40901cf8", "fusion_lon": 0.0, "lat": 38.91006633333333, "fusion_lat": 0.0}, {"is_disabled": 0, "rental_uris": {"android": "https://dc.lft.to/lastmile_qr_scan", "ios": "https://dc.lft.to/lastmile_qr_scan"}, "is_reserved": 0, "name": "b4ff183196a80a3266c12666fe710bec", "lon": -77.01395016666666, "type": "electric_scooter", "bike_id": "b4ff183196a80a3266c12666fe710bec", "fusion_lon": 0.0, "lat": 38.88026133333334, "fusion_lat": 0.0}, {"is_disabled": 0, "rental_uris": {"android": "https://dc.lft.to/lastmile_qr_scan", "ios": "https://dc.lft.to/lastmile_qr_scan"}, "is_reserved": 0, "name": "8b0b9d2f3a5ef14376f6034512ee07d8", "lon": -77.02183183333334, "type": "electric_scooter", "bike_id": "8b0b9d2f3a5ef14376f6034512ee07d8", "fusion_lon": 0.0, "lat": 38.9015185, "fusion_lat": 0.0}, {"is_disabled": 0, "rental_uris": {"android": "https://dc.lft.to/lastmile_qr_scan", "ios": "https://dc.lft.to/lastmile_qr_scan"}, "is_reserved": 0, "name": "a8925b1da328df857448a269cf05d2ee", "lon": -77.04142916666666, "type": "electric_scooter", "bike_id": "a8925b1da328df857448a269cf05d2ee", "fusion_lon": 0.0, "lat": 38.906446333333335, "fusion_lat": 0.0}, {"is_disabled": 0, "rental_uris": {"android": "https://dc.lft.to/lastmile_qr_scan", "ios": "https://dc.lft.to/lastmile_qr_scan"}, "is_reserved": 0, "name": "28676b62cd96b32e8776cbbbdeb6a831", "lon": -77.07080583333334, "type": "electric_scooter", "bike_id": "28676b62cd96b32e8776cbbbdeb6a831", "fusion_lon": 0.0, "lat": 38.9390445, "fusion_lat": 0.0}, {"is_disabled": 0, "rental_uris": {"android": "https://dc.lft.to/lastmile_qr_scan", "ios": "https://dc.lft.to/lastmile_qr_scan"}, "is_reserved": 0, "name": "9df1fa46ff476804a1beccc10dfd35f5", "lon": -76.99614783333334, "type": "electric_scooter", "bike_id": "9df1fa46ff476804a1beccc10dfd35f5", "fusion_lon": 0.0, "lat": 38.864642, "fusion_lat": 0.0}, {"is_disabled": 0, "rental_uris": {"android": "https://dc.lft.to/lastmile_qr_scan", "ios": "https://dc.lft.to/lastmile_qr_scan"}, "is_reserved": 0, "name": "bcf0e905c7cb7f5c65b23b18dce2beb8", "lon": -77.04274883333333, "type": "electric_scooter", "bike_id": "bcf0e905c7cb7f5c65b23b18dce2beb8", "fusion_lon": 0.0, "lat": 38.91036366666667, "fusion_lat": 0.0}, {"is_disabled": 0, "rental_uris": {"android": "https://dc.lft.to/lastmile_qr_scan", "ios": "https://dc.lft.to/lastmile_qr_scan"}, "is_reserved": 0, "name": "eb4240bc973abbbb23f98e6a87b59ccf", "lon": -77.02062833333333, "type": "electric_scooter", "bike_id": "eb4240bc973abbbb23f98e6a87b59ccf", "fusion_lon": 0.0, "lat": 38.884828166666665, "fusion_lat": 0.0}, {"is_disabled": 0, "rental_uris": {"android": "https://dc.lft.to/lastmile_qr_scan", "ios": "https://dc.lft.to/lastmile_qr_scan"}, "is_reserved": 0, "name": "e535e5284a71b56e9d836874e5ef1ff8", "lon": -76.987071, "type": "electric_scooter", "bike_id": "e535e5284a71b56e9d836874e5ef1ff8", "fusion_lon": 0.0, "lat": 38.865326833333334, "fusion_lat": 0.0}, {"is_disabled": 0, "rental_uris": {"android": "https://dc.lft.to/lastmile_qr_scan", "ios": "https://dc.lft.to/lastmile_qr_scan"}, "is_reserved": 0, "name": "f65f2ad804cda73d4c98366625b05c6a", "lon": -77.03060066666667, "type": "electric_scooter", "bike_id": "f65f2ad804cda73d4c98366625b05c6a", "fusion_lon": 0.0, "lat": 38.92581533333333, "fusion_lat": 0.0}, {"is_disabled": 0, "rental_uris": {"android": "https://dc.lft.to/lastmile_qr_scan", "ios": "https://dc.lft.to/lastmile_qr_scan"}, "is_reserved": 0, "name": "bb35f09011962fd290ded51c17913e70", "lon": -77.070432, "type": "electric_bike", "bike_id": "bb35f09011962fd290ded51c17913e70", "fusion_lon": 0.0, "lat": 38.82439466666666, "fusion_lat": 0.0}, {"is_disabled": 0, "rental_uris": {"android": "https://dc.lft.to/lastmile_qr_scan", "ios": "https://dc.lft.to/lastmile_qr_scan"}, "is_reserved": 0, "name": "e907885fda63e088cde3927ca1ef8764", "lon": -77.1282795, "type": "electric_bike", "bike_id": "e907885fda63e088cde3927ca1ef8764", "fusion_lon": 0.0, "lat": 38.8652855, "fusion_lat": 0.0}, {"is_disabled": 0, "rental_uris": {"android": "https://dc.lft.to/lastmile_qr_scan", "ios": "https://dc.lft.to/lastmile_qr_scan"}, "is_reserved": 0, "name": "c472830d531882c70b391226687da1e9", "lon": -77.02843116666666, "type": "electric_scooter", "bike_id": "c472830d531882c70b391226687da1e9", "fusion_lon": 0.0, "lat": 38.904418666666665, "fusion_lat": 0.0}, {"is_disabled": 0, "rental_uris": {"android": "https://dc.lft.to/lastmile_qr_scan", "ios": "https://dc.lft.to/lastmile_qr_scan"}, "is_reserved": 0, "name": "ac4a0dfc5a72269887bf1550b1964f64", "lon": -77.02571133333333, "type": "electric_scooter", "bike_id": "ac4a0dfc5a72269887bf1550b1964f64", "fusion_lon": 0.0, "lat": 38.884208, "fusion_lat": 0.0}, {"is_disabled": 0, "rental_uris": {"android": "https://dc.lft.to/lastmile_qr_scan", "ios": "https://dc.lft.to/lastmile_qr_scan"}, "is_reserved": 0, "name": "7705f708ccc292a83a54a5c91317ca25", "lon": -77.04515616666667, "type": "electric_scooter", "bike_id": "7705f708ccc292a83a54a5c91317ca25", "fusion_lon": 0.0, "lat": 38.885965666666664, "fusion_lat": 0.0}, {"is_disabled": 0, "rental_uris": {"android": "https://dc.lft.to/lastmile_qr_scan", "ios": "https://dc.lft.to/lastmile_qr_scan"}, "is_reserved": 0, "name": "2fc04388da199c580abf6ae82d477c2e", "lon": -77.03586616666666, "type": "electric_scooter", "bike_id": "2fc04388da199c580abf6ae82d477c2e", "fusion_lon": 0.0, "lat": 38.907516333333334, "fusion_lat": 0.0}, {"is_disabled": 0, "rental_uris": {"android": "https://dc.lft.to/lastmile_qr_scan", "ios": "https://dc.lft.to/lastmile_qr_scan"}, "is_reserved": 0, "name": "e7dd8814ad97cadb8ac898d5904787b1", "lon": -77.03382616666667, "type": "electric_scooter", "bike_id": "e7dd8814ad97cadb8ac898d5904787b1", "fusion_lon": 0.0, "lat": 38.937432333333334, "fusion_lat": 0.0}, {"is_disabled": 0, "rental_uris": {"android": "https://dc.lft.to/lastmile_qr_scan", "ios": "https://dc.lft.to/lastmile_qr_scan"}, "is_reserved": 0, "name": "deb5b499c7b5265f96203ea441196590", "lon": -77.0176615, "type": "electric_scooter", "bike_id": "deb5b499c7b5265f96203ea441196590", "fusion_lon": 0.0, "lat": 38.883260166666666, "fusion_lat": 0.0}, {"is_disabled": 0, "rental_uris": {"android": "https://dc.lft.to/lastmile_qr_scan", "ios": "https://dc.lft.to/lastmile_qr_scan"}, "is_reserved": 0, "name": "ae85ebf94c39dd1b54c39fa68b588ea9", "lon": -77.048708, "type": "electric_scooter", "bike_id": "ae85ebf94c39dd1b54c39fa68b588ea9", "fusion_lon": 0.0, "lat": 38.909465, "fusion_lat": 0.0}, {"is_disabled": 0, "rental_uris": {"android": "https://dc.lft.to/lastmile_qr_scan", "ios": "https://dc.lft.to/lastmile_qr_scan"}, "is_reserved": 0, "name": "fa64fb7ee04745fb8acf215f01adb4c8", "lon": -77.02956666666667, "type": "electric_scooter", "bike_id": "fa64fb7ee04745fb8acf215f01adb4c8", "fusion_lon": 0.0, "lat": 38.8922705, "fusion_lat": 0.0}, {"is_disabled": 0, "rental_uris": {"android": "https://dc.lft.to/lastmile_qr_scan", "ios": "https://dc.lft.to/lastmile_qr_scan"}, "is_reserved": 0, "name": "266098a974de609259674dda22371eeb", "lon": -77.026557, "type": "electric_bike", "bike_id": "266098a974de609259674dda22371eeb", "fusion_lon": 0.0, "lat": 38.988183, "fusion_lat": 0.0}, {"is_disabled": 0, "rental_uris": {"android": "https://dc.lft.to/lastmile_qr_scan", "ios": "https://dc.lft.to/lastmile_qr_scan"}, "is_reserved": 0, "name": "1f1d4429f0e0e35169e5a5e1e32605c5", "lon": -77.17521916666666, "type": "electric_bike", "bike_id": "1f1d4429f0e0e35169e5a5e1e32605c5", "fusion_lon": 0.0, "lat": 39.0959925, "fusion_lat": 0.0}, {"is_disabled": 0, "rental_uris": {"android": "https://dc.lft.to/lastmile_qr_scan", "ios": "https://dc.lft.to/lastmile_qr_scan"}, "is_reserved": 0, "name": "22ea2b4cef7ebd2dba72b619ab85dfb1", "lon": -77.0222255, "type": "electric_scooter", "bike_id": "22ea2b4cef7ebd2dba72b619ab85dfb1", "fusion_lon": 0.0, "lat": 38.88747033333333, "fusion_lat": 0.0}, {"is_disabled": 0, "rental_uris": {"android": "https://dc.lft.to/lastmile_qr_scan", "ios": "https://dc.lft.to/lastmile_qr_scan"}, "is_reserved": 0, "name": "366391debb17788b557709a3ee5242a1", "lon": -77.021244, "type": "electric_scooter", "bike_id": "366391debb17788b557709a3ee5242a1", "fusion_lon": 0.0, "lat": 38.887462166666666, "fusion_lat": 0.0}, {"is_disabled": 0, "rental_uris": {"android": "https://dc.lft.to/lastmile_qr_scan", "ios": "https://dc.lft.to/lastmile_qr_scan"}, "is_reserved": 0, "name": "d58e3ea10e13fb566802ed47260f418c", "lon": -77.06150433333333, "type": "electric_scooter", "bike_id": "d58e3ea10e13fb566802ed47260f418c", "fusion_lon": 0.0, "lat": 38.9051765, "fusion_lat": 0.0}, {"is_disabled": 0, "rental_uris": {"android": "https://dc.lft.to/lastmile_qr_scan", "ios": "https://dc.lft.to/lastmile_qr_scan"}, "is_reserved": 0, "name": "32a5593a481300142a2e1b455c8f98d5", "lon": -77.041682, "type": "electric_scooter", "bike_id": "32a5593a481300142a2e1b455c8f98d5", "fusion_lon": 0.0, "lat": 38.910252, "fusion_lat": 0.0}, {"is_disabled": 0, "rental_uris": {"android": "https://dc.lft.to/lastmile_qr_scan", "ios": "https://dc.lft.to/lastmile_qr_scan"}, "is_reserved": 0, "name": "1a7a303029fdaec2dcfe44a051e376b5", "lon": -77.03207516666667, "type": "electric_scooter", "bike_id": "1a7a303029fdaec2dcfe44a051e376b5", "fusion_lon": 0.0, "lat": 38.9199385, "fusion_lat": 0.0}, {"is_disabled": 0, "rental_uris": {"android": "https://dc.lft.to/lastmile_qr_scan", "ios": "https://dc.lft.to/lastmile_qr_scan"}, "is_reserved": 0, "name": "136ada098e67709a6bb1d2ebb513c96a", "lon": -77.03526966666666, "type": "electric_scooter", "bike_id": "136ada098e67709a6bb1d2ebb513c96a", "fusion_lon": 0.0, "lat": 38.9272385, "fusion_lat": 0.0}, {"is_disabled": 0, "rental_uris": {"android": "https://dc.lft.to/lastmile_qr_scan", "ios": "https://dc.lft.to/lastmile_qr_scan"}, "is_reserved": 0, "name": "43b8be0bfa7fd2bc46e3cd2baa513a25", "lon": -77.12627483333333, "type": "electric_bike", "bike_id": "43b8be0bfa7fd2bc46e3cd2baa513a25", "fusion_lon": 0.0, "lat": 39.0581065, "fusion_lat": 0.0}, {"is_disabled": 0, "rental_uris": {"android": "https://dc.lft.to/lastmile_qr_scan", "ios": "https://dc.lft.to/lastmile_qr_scan"}, "is_reserved": 0, "name": "7d8c997c999ceebbe780c72e8e3b2f46", "lon": -77.00334516666666, "type": "electric_scooter", "bike_id": "7d8c997c999ceebbe780c72e8e3b2f46", "fusion_lon": 0.0, "lat": 38.893557666666666, "fusion_lat": 0.0}, {"is_disabled": 0, "rental_uris": {"android": "https://dc.lft.to/lastmile_qr_scan", "ios": "https://dc.lft.to/lastmile_qr_scan"}, "is_reserved": 0, "name": "4626950d60af63c7a02d741d7f1f9802", "lon": -77.005359, "type": "electric_scooter", "bike_id": "4626950d60af63c7a02d741d7f1f9802", "fusion_lon": 0.0, "lat": 38.9296735, "fusion_lat": 0.0}, {"is_disabled": 0, "rental_uris": {"android": "https://dc.lft.to/lastmile_qr_scan", "ios": "https://dc.lft.to/lastmile_qr_scan"}, "is_reserved": 0, "name": "eb2bfca7cf6653a3fb933f077de95245", "lon": -77.007404, "type": "electric_scooter", "bike_id": "eb2bfca7cf6653a3fb933f077de95245", "fusion_lon": 0.0, "lat": 38.915555166666664, "fusion_lat": 0.0}, {"is_disabled": 0, "rental_uris": {"android": "https://dc.lft.to/lastmile_qr_scan", "ios": "https://dc.lft.to/lastmile_qr_scan"}, "is_reserved": 0, "name": "3cebb72c1f18e11f549c10e924f0b648", "lon": -77.034461, "type": "electric_scooter", "bike_id": "3cebb72c1f18e11f549c10e924f0b648", "fusion_lon": 0.0, "lat": 38.90891466666667, "fusion_lat": 0.0}, {"is_disabled": 0, "rental_uris": {"android": "https://dc.lft.to/lastmile_qr_scan", "ios": "https://dc.lft.to/lastmile_qr_scan"}, "is_reserved": 0, "name": "6316efbfa5481524ca85ca17cc61fcd4", "lon": -76.97917566666666, "type": "electric_scooter", "bike_id": "6316efbfa5481524ca85ca17cc61fcd4", "fusion_lon": 0.0, "lat": 38.904302, "fusion_lat": 0.0}, {"is_disabled": 0, "rental_uris": {"android": "https://dc.lft.to/lastmile_qr_scan", "ios": "https://dc.lft.to/lastmile_qr_scan"}, "is_reserved": 0, "name": "a71e29c456c3590ca913aaaf4beb5163", "lon": -77.03898916666667, "type": "electric_scooter", "bike_id": "a71e29c456c3590ca913aaaf4beb5163", "fusion_lon": 0.0, "lat": 38.9142795, "fusion_lat": 0.0}, {"is_disabled": 0, "rental_uris": {"android": "https://dc.lft.to/lastmile_qr_scan", "ios": "https://dc.lft.to/lastmile_qr_scan"}, "is_reserved": 0, "name": "9741c98a58a7fac6740e4165878d31f4", "lon": -76.98074166666666, "type": "electric_scooter", "bike_id": "9741c98a58a7fac6740e4165878d31f4", "fusion_lon": 0.0, "lat": 38.919332, "fusion_lat": 0.0}, {"is_disabled": 0, "rental_uris": {"android": "https://dc.lft.to/lastmile_qr_scan", "ios": "https://dc.lft.to/lastmile_qr_scan"}, "is_reserved": 0, "name": "e3cd01d17075945ddaa97b34c4973513", "lon": -76.93199483333333, "type": "electric_bike", "bike_id": "e3cd01d17075945ddaa97b34c4973513", "fusion_lon": 0.0, "lat": 38.872345333333335, "fusion_lat": 0.0}, {"is_disabled": 0, "rental_uris": {"android": "https://dc.lft.to/lastmile_qr_scan", "ios": "https://dc.lft.to/lastmile_qr_scan"}, "is_reserved": 0, "name": "7407c119cd1ae998f98a38fd4c740755", "lon": -77.00813833333333, "type": "electric_scooter", "bike_id": "7407c119cd1ae998f98a38fd4c740755", "fusion_lon": 0.0, "lat": 38.8832845, "fusion_lat": 0.0}, {"is_disabled": 0, "rental_uris": {"android": "https://dc.lft.to/lastmile_qr_scan", "ios": "https://dc.lft.to/lastmile_qr_scan"}, "is_reserved": 0, "name": "a5dce0553564d793e02e400dca6200a0", "lon": -77.00589566666666, "type": "electric_scooter", "bike_id": "a5dce0553564d793e02e400dca6200a0", "fusion_lon": 0.0, "lat": 38.92756933333333, "fusion_lat": 0.0}, {"is_disabled": 0, "rental_uris": {"android": "https://dc.lft.to/lastmile_qr_scan", "ios": "https://dc.lft.to/lastmile_qr_scan"}, "is_reserved": 0, "name": "408502eeacae489086dc629e563b8203", "lon": -76.996995, "type": "electric_scooter", "bike_id": "408502eeacae489086dc629e563b8203", "fusion_lon": 0.0, "lat": 38.83859566666667, "fusion_lat": 0.0}, {"is_disabled": 0, "rental_uris": {"android": "https://dc.lft.to/lastmile_qr_scan", "ios": "https://dc.lft.to/lastmile_qr_scan"}, "is_reserved": 0, "name": "1f2c5162d9b8c2ff4504dd7a95076396", "lon": -77.01855016666667, "type": "electric_scooter", "bike_id": "1f2c5162d9b8c2ff4504dd7a95076396", "fusion_lon": 0.0, "lat": 38.954281333333334, "fusion_lat": 0.0}, {"is_disabled": 0, "rental_uris": {"android": "https://dc.lft.to/lastmile_qr_scan", "ios": "https://dc.lft.to/lastmile_qr_scan"}, "is_reserved": 0, "name": "25e21f10a2fbc2a006937cf49d078cf9", "lon": -77.01890416666667, "type": "electric_scooter", "bike_id": "25e21f10a2fbc2a006937cf49d078cf9", "fusion_lon": 0.0, "lat": 38.929533166666666, "fusion_lat": 0.0}, {"is_disabled": 0, "rental_uris": {"android": "https://dc.lft.to/lastmile_qr_scan", "ios": "https://dc.lft.to/lastmile_qr_scan"}, "is_reserved": 0, "name": "4c4dfa6e17ab43ef9a1058238847fc02", "lon": -77.02374616666667, "type": "electric_scooter", "bike_id": "4c4dfa6e17ab43ef9a1058238847fc02", "fusion_lon": 0.0, "lat": 38.919182, "fusion_lat": 0.0}, {"is_disabled": 0, "rental_uris": {"android": "https://dc.lft.to/lastmile_qr_scan", "ios": "https://dc.lft.to/lastmile_qr_scan"}, "is_reserved": 0, "name": "092cbbeb58a8830f6e5e1de5633e2bbd", "lon": -77.021302, "type": "electric_bike", "bike_id": "092cbbeb58a8830f6e5e1de5633e2bbd", "fusion_lon": 0.0, "lat": 38.935764166666665, "fusion_lat": 0.0}, {"is_disabled": 0, "rental_uris": {"android": "https://dc.lft.to/lastmile_qr_scan", "ios": "https://dc.lft.to/lastmile_qr_scan"}, "is_reserved": 0, "name": "e21674ca55fa90676d9451780b02a706", "lon": -77.0008205, "type": "electric_bike", "bike_id": "e21674ca55fa90676d9451780b02a706", "fusion_lon": 0.0, "lat": 38.886073, "fusion_lat": 0.0}, {"is_disabled": 0, "rental_uris": {"android": "https://dc.lft.to/lastmile_qr_scan", "ios": "https://dc.lft.to/lastmile_qr_scan"}, "is_reserved": 0, "name": "bf0354dcb327eb304f403c8c37fe3b49", "lon": -77.00876183333334, "type": "electric_scooter", "bike_id": "bf0354dcb327eb304f403c8c37fe3b49", "fusion_lon": 0.0, "lat": 38.905769166666666, "fusion_lat": 0.0}, {"is_disabled": 0, "rental_uris": {"android": "https://dc.lft.to/lastmile_qr_scan", "ios": "https://dc.lft.to/lastmile_qr_scan"}, "is_reserved": 0, "name": "b0efd0e1180043cb19957d00dfa38ebe", "lon": -77.04331233333333, "type": "electric_scooter", "bike_id": "b0efd0e1180043cb19957d00dfa38ebe", "fusion_lon": 0.0, "lat": 38.923356166666665, "fusion_lat": 0.0}, {"is_disabled": 0, "rental_uris": {"android": "https://dc.lft.to/lastmile_qr_scan", "ios": "https://dc.lft.to/lastmile_qr_scan"}, "is_reserved": 0, "name": "661badfd4e94e25c788ebf6da2203af1", "lon": -77.0324255, "type": "electric_scooter", "bike_id": "661badfd4e94e25c788ebf6da2203af1", "fusion_lon": 0.0, "lat": 38.920987, "fusion_lat": 0.0}, {"is_disabled": 0, "rental_uris": {"android": "https://dc.lft.to/lastmile_qr_scan", "ios": "https://dc.lft.to/lastmile_qr_scan"}, "is_reserved": 0, "name": "1daee6c623e29051b8820c9e5c1cbf47", "lon": -77.01227283333333, "type": "electric_scooter", "bike_id": "1daee6c623e29051b8820c9e5c1cbf47", "fusion_lon": 0.0, "lat": 38.9072145, "fusion_lat": 0.0}, {"is_disabled": 0, "rental_uris": {"android": "https://dc.lft.to/lastmile_qr_scan", "ios": "https://dc.lft.to/lastmile_qr_scan"}, "is_reserved": 0, "name": "0e04f89cd3d83e6c633fe6bf55ca0320", "lon": -77.038486, "type": "electric_scooter", "bike_id": "0e04f89cd3d83e6c633fe6bf55ca0320", "fusion_lon": 0.0, "lat": 38.908668166666665, "fusion_lat": 0.0}, {"is_disabled": 0, "rental_uris": {"android": "https://dc.lft.to/lastmile_qr_scan", "ios": "https://dc.lft.to/lastmile_qr_scan"}, "is_reserved": 0, "name": "c74a3757a48a641b486ec7809fa34827", "lon": -77.05028083333333, "type": "electric_scooter", "bike_id": "c74a3757a48a641b486ec7809fa34827", "fusion_lon": 0.0, "lat": 38.90415216666667, "fusion_lat": 0.0}, {"is_disabled": 0, "rental_uris": {"android": "https://dc.lft.to/lastmile_qr_scan", "ios": "https://dc.lft.to/lastmile_qr_scan"}, "is_reserved": 0, "name": "ed93d73dca376d0c39a57bcba6d46eae", "lon": -76.8749655, "type": "electric_bike", "bike_id": "ed93d73dca376d0c39a57bcba6d46eae", "fusion_lon": 0.0, "lat": 38.9908975, "fusion_lat": 0.0}, {"is_disabled": 0, "rental_uris": {"android": "https://dc.lft.to/lastmile_qr_scan", "ios": "https://dc.lft.to/lastmile_qr_scan"}, "is_reserved": 0, "name": "d1c1798c857303de2a7137d30db1e71c", "lon": -77.03806, "type": "electric_scooter", "bike_id": "d1c1798c857303de2a7137d30db1e71c", "fusion_lon": 0.0, "lat": 38.90962416666667, "fusion_lat": 0.0}, {"is_disabled": 0, "rental_uris": {"android": "https://dc.lft.to/lastmile_qr_scan", "ios": "https://dc.lft.to/lastmile_qr_scan"}, "is_reserved": 0, "name": "b52c0544f801b2a72de149329cc259b9", "lon": -77.073026, "type": "electric_scooter", "bike_id": "b52c0544f801b2a72de149329cc259b9", "fusion_lon": 0.0, "lat": 38.9227815, "fusion_lat": 0.0}, {"is_disabled": 0, "rental_uris": {"android": "https://dc.lft.to/lastmile_qr_scan", "ios": "https://dc.lft.to/lastmile_qr_scan"}, "is_reserved": 0, "name": "d79d4cb8c91a3b629e1db62b0b6ec536", "lon": -77.023844, "type": "electric_scooter", "bike_id": "d79d4cb8c91a3b629e1db62b0b6ec536", "fusion_lon": 0.0, "lat": 38.9056295, "fusion_lat": 0.0}, {"is_disabled": 0, "rental_uris": {"android": "https://dc.lft.to/lastmile_qr_scan", "ios": "https://dc.lft.to/lastmile_qr_scan"}, "is_reserved": 0, "name": "f4ac064796047c9ebfee01e82ba03edf", "lon": -77.11221966666666, "type": "electric_bike", "bike_id": "f4ac064796047c9ebfee01e82ba03edf", "fusion_lon": 0.0, "lat": 38.8287415, "fusion_lat": 0.0}, {"is_disabled": 0, "rental_uris": {"android": "https://dc.lft.to/lastmile_qr_scan", "ios": "https://dc.lft.to/lastmile_qr_scan"}, "is_reserved": 0, "name": "1cbd0e293e3b01a81eebe416adc87723", "lon": -77.01214116666667, "type": "electric_scooter", "bike_id": "1cbd0e293e3b01a81eebe416adc87723", "fusion_lon": 0.0, "lat": 38.91014333333333, "fusion_lat": 0.0}, {"is_disabled": 0, "rental_uris": {"android": "https://dc.lft.to/lastmile_qr_scan", "ios": "https://dc.lft.to/lastmile_qr_scan"}, "is_reserved": 0, "name": "368f095363e7b1f75890c37f7aa9254c", "lon": -77.02843633333333, "type": "electric_scooter", "bike_id": "368f095363e7b1f75890c37f7aa9254c", "fusion_lon": 0.0, "lat": 38.9170625, "fusion_lat": 0.0}, {"is_disabled": 0, "rental_uris": {"android": "https://dc.lft.to/lastmile_qr_scan", "ios": "https://dc.lft.to/lastmile_qr_scan"}, "is_reserved": 0, "name": "86d65823724526e3ad6a7aae100f0629", "lon": -77.039932, "type": "electric_scooter", "bike_id": "86d65823724526e3ad6a7aae100f0629", "fusion_lon": 0.0, "lat": 38.902375166666666, "fusion_lat": 0.0}, {"is_disabled": 0, "rental_uris": {"android": "https://dc.lft.to/lastmile_qr_scan", "ios": "https://dc.lft.to/lastmile_qr_scan"}, "is_reserved": 0, "name": "1dce544150b726ee0c2853382a9e5061", "lon": -76.99631283333333, "type": "electric_scooter", "bike_id": "1dce544150b726ee0c2853382a9e5061", "fusion_lon": 0.0, "lat": 38.84619283333333, "fusion_lat": 0.0}, {"is_disabled": 0, "rental_uris": {"android": "https://dc.lft.to/lastmile_qr_scan", "ios": "https://dc.lft.to/lastmile_qr_scan"}, "is_reserved": 0, "name": "5b6cd927508f4fdf99407a59e71babd8", "lon": -77.02288083333333, "type": "electric_scooter", "bike_id": "5b6cd927508f4fdf99407a59e71babd8", "fusion_lon": 0.0, "lat": 38.909041333333334, "fusion_lat": 0.0}, {"is_disabled": 0, "rental_uris": {"android": "https://dc.lft.to/lastmile_qr_scan", "ios": "https://dc.lft.to/lastmile_qr_scan"}, "is_reserved": 0, "name": "09e2650d7c1952cf04b664f219730cdf", "lon": -77.050012, "type": "electric_scooter", "bike_id": "09e2650d7c1952cf04b664f219730cdf", "fusion_lon": 0.0, "lat": 38.91568683333333, "fusion_lat": 0.0}, {"is_disabled": 0, "rental_uris": {"android": "https://dc.lft.to/lastmile_qr_scan", "ios": "https://dc.lft.to/lastmile_qr_scan"}, "is_reserved": 0, "name": "14ce89188709802032f280802615cc53", "lon": -76.92890533333333, "type": "electric_bike", "bike_id": "14ce89188709802032f280802615cc53", "fusion_lon": 0.0, "lat": 38.978420166666666, "fusion_lat": 0.0}, {"is_disabled": 0, "rental_uris": {"android": "https://dc.lft.to/lastmile_qr_scan", "ios": "https://dc.lft.to/lastmile_qr_scan"}, "is_reserved": 0, "name": "3002c51ded2608a4f6e95668f2f58797", "lon": -77.01785483333333, "type": "electric_scooter", "bike_id": "3002c51ded2608a4f6e95668f2f58797", "fusion_lon": 0.0, "lat": 38.900525, "fusion_lat": 0.0}, {"is_disabled": 0, "rental_uris": {"android": "https://dc.lft.to/lastmile_qr_scan", "ios": "https://dc.lft.to/lastmile_qr_scan"}, "is_reserved": 0, "name": "ade1397a098cd7225392c4700584c4ca", "lon": -77.00535083333334, "type": "electric_scooter", "bike_id": "ade1397a098cd7225392c4700584c4ca", "fusion_lon": 0.0, "lat": 38.874679, "fusion_lat": 0.0}, {"is_disabled": 0, "rental_uris": {"android": "https://dc.lft.to/lastmile_qr_scan", "ios": "https://dc.lft.to/lastmile_qr_scan"}, "is_reserved": 0, "name": "cbd313577ce860977c8d645a4ccf5f1f", "lon": -77.03227766666667, "type": "electric_scooter", "bike_id": "cbd313577ce860977c8d645a4ccf5f1f", "fusion_lon": 0.0, "lat": 38.920643, "fusion_lat": 0.0}, {"is_disabled": 0, "rental_uris": {"android": "https://dc.lft.to/lastmile_qr_scan", "ios": "https://dc.lft.to/lastmile_qr_scan"}, "is_reserved": 0, "name": "18aa3c6fc8bbec297f600db8a48cf694", "lon": -77.0500785, "type": "electric_scooter", "bike_id": "18aa3c6fc8bbec297f600db8a48cf694", "fusion_lon": 0.0, "lat": 38.90554233333334, "fusion_lat": 0.0}, {"is_disabled": 0, "rental_uris": {"android": "https://dc.lft.to/lastmile_qr_scan", "ios": "https://dc.lft.to/lastmile_qr_scan"}, "is_reserved": 0, "name": "d6e01158ac7b4b77689ec1a308221eb6", "lon": -77.02477216666666, "type": "electric_scooter", "bike_id": "d6e01158ac7b4b77689ec1a308221eb6", "fusion_lon": 0.0, "lat": 38.904171166666664, "fusion_lat": 0.0}, {"is_disabled": 0, "rental_uris": {"android": "https://dc.lft.to/lastmile_qr_scan", "ios": "https://dc.lft.to/lastmile_qr_scan"}, "is_reserved": 0, "name": "f6f71bd24c5c2af04a03cd4828b97507", "lon": -77.021678, "type": "electric_scooter", "bike_id": "f6f71bd24c5c2af04a03cd4828b97507", "fusion_lon": 0.0, "lat": 38.92610833333333, "fusion_lat": 0.0}, {"is_disabled": 0, "rental_uris": {"android": "https://dc.lft.to/lastmile_qr_scan", "ios": "https://dc.lft.to/lastmile_qr_scan"}, "is_reserved": 0, "name": "e2bcf85ed4e1c8f4191056568fab8dce", "lon": -76.98080266666666, "type": "electric_scooter", "bike_id": "e2bcf85ed4e1c8f4191056568fab8dce", "fusion_lon": 0.0, "lat": 38.90166883333333, "fusion_lat": 0.0}, {"is_disabled": 0, "rental_uris": {"android": "https://dc.lft.to/lastmile_qr_scan", "ios": "https://dc.lft.to/lastmile_qr_scan"}, "is_reserved": 0, "name": "c2894bc4703c045f3fe8cea5010cb768", "lon": -76.93751616666667, "type": "electric_scooter", "bike_id": "c2894bc4703c045f3fe8cea5010cb768", "fusion_lon": 0.0, "lat": 38.890330166666665, "fusion_lat": 0.0}, {"is_disabled": 0, "rental_uris": {"android": "https://dc.lft.to/lastmile_qr_scan", "ios": "https://dc.lft.to/lastmile_qr_scan"}, "is_reserved": 0, "name": "35b25779679c1364cd8cb962baba8b57", "lon": -77.03570716666667, "type": "electric_scooter", "bike_id": "35b25779679c1364cd8cb962baba8b57", "fusion_lon": 0.0, "lat": 38.9046465, "fusion_lat": 0.0}, {"is_disabled": 0, "rental_uris": {"android": "https://dc.lft.to/lastmile_qr_scan", "ios": "https://dc.lft.to/lastmile_qr_scan"}, "is_reserved": 0, "name": "ad56b0d14523a99e4e8e6255309e1dd0", "lon": -77.03200033333333, "type": "electric_scooter", "bike_id": "ad56b0d14523a99e4e8e6255309e1dd0", "fusion_lon": 0.0, "lat": 38.917815, "fusion_lat": 0.0}, {"is_disabled": 0, "rental_uris": {"android": "https://dc.lft.to/lastmile_qr_scan", "ios": "https://dc.lft.to/lastmile_qr_scan"}, "is_reserved": 0, "name": "8ab9b51dc4be30d3008b5d12ab5cfcff", "lon": -77.0363735, "type": "electric_scooter", "bike_id": "8ab9b51dc4be30d3008b5d12ab5cfcff", "fusion_lon": 0.0, "lat": 38.93176716666667, "fusion_lat": 0.0}, {"is_disabled": 0, "rental_uris": {"android": "https://dc.lft.to/lastmile_qr_scan", "ios": "https://dc.lft.to/lastmile_qr_scan"}, "is_reserved": 0, "name": "52e8fe038c319e112f0c5794a2722c97", "lon": -76.9899675, "type": "electric_scooter", "bike_id": "52e8fe038c319e112f0c5794a2722c97", "fusion_lon": 0.0, "lat": 38.86433666666667, "fusion_lat": 0.0}, {"is_disabled": 0, "rental_uris": {"android": "https://dc.lft.to/lastmile_qr_scan", "ios": "https://dc.lft.to/lastmile_qr_scan"}, "is_reserved": 0, "name": "4cf2c42740bd563aa381fae6ed74f5e9", "lon": -77.0352255, "type": "electric_bike", "bike_id": "4cf2c42740bd563aa381fae6ed74f5e9", "fusion_lon": 0.0, "lat": 38.93596516666667, "fusion_lat": 0.0}, {"is_disabled": 0, "rental_uris": {"android": "https://dc.lft.to/lastmile_qr_scan", "ios": "https://dc.lft.to/lastmile_qr_scan"}, "is_reserved": 0, "name": "f6101d447addb66fff371bb5f6b32077", "lon": -77.03869316666666, "type": "electric_scooter", "bike_id": "f6101d447addb66fff371bb5f6b32077", "fusion_lon": 0.0, "lat": 38.92152566666667, "fusion_lat": 0.0}, {"is_disabled": 0, "rental_uris": {"android": "https://dc.lft.to/lastmile_qr_scan", "ios": "https://dc.lft.to/lastmile_qr_scan"}, "is_reserved": 0, "name": "029a47b6d7949b942724b1c5399d23c8", "lon": -77.05160366666667, "type": "electric_scooter", "bike_id": "029a47b6d7949b942724b1c5399d23c8", "fusion_lon": 0.0, "lat": 38.897619666666664, "fusion_lat": 0.0}, {"is_disabled": 0, "rental_uris": {"android": "https://dc.lft.to/lastmile_qr_scan", "ios": "https://dc.lft.to/lastmile_qr_scan"}, "is_reserved": 0, "name": "07c60217e5c8ea68f6be45e085744df1", "lon": -77.03175433333334, "type": "electric_scooter", "bike_id": "07c60217e5c8ea68f6be45e085744df1", "fusion_lon": 0.0, "lat": 38.8937855, "fusion_lat": 0.0}, {"is_disabled": 0, "rental_uris": {"android": "https://dc.lft.to/lastmile_qr_scan", "ios": "https://dc.lft.to/lastmile_qr_scan"}, "is_reserved": 0, "name": "33810cb176b950f58da6ac8fc84993ce", "lon": -77.0384535, "type": "electric_scooter", "bike_id": "33810cb176b950f58da6ac8fc84993ce", "fusion_lon": 0.0, "lat": 38.92165466666667, "fusion_lat": 0.0}, {"is_disabled": 0, "rental_uris": {"android": "https://dc.lft.to/lastmile_qr_scan", "ios": "https://dc.lft.to/lastmile_qr_scan"}, "is_reserved": 0, "name": "05ddf209be5827be19b10d6481ced193", "lon": -77.0419245, "type": "electric_scooter", "bike_id": "05ddf209be5827be19b10d6481ced193", "fusion_lon": 0.0, "lat": 38.926239, "fusion_lat": 0.0}, {"is_disabled": 0, "rental_uris": {"android": "https://dc.lft.to/lastmile_qr_scan", "ios": "https://dc.lft.to/lastmile_qr_scan"}, "is_reserved": 0, "name": "c491b23d284c42abcb19435b779880f8", "lon": -77.0431415, "type": "electric_scooter", "bike_id": "c491b23d284c42abcb19435b779880f8", "fusion_lon": 0.0, "lat": 38.918713, "fusion_lat": 0.0}, {"is_disabled": 0, "rental_uris": {"android": "https://dc.lft.to/lastmile_qr_scan", "ios": "https://dc.lft.to/lastmile_qr_scan"}, "is_reserved": 0, "name": "c96b811e3e5dcc94c9e899aa96b101db", "lon": -77.03123416666666, "type": "electric_scooter", "bike_id": "c96b811e3e5dcc94c9e899aa96b101db", "fusion_lon": 0.0, "lat": 38.92386616666667, "fusion_lat": 0.0}, {"is_disabled": 0, "rental_uris": {"android": "https://dc.lft.to/lastmile_qr_scan", "ios": "https://dc.lft.to/lastmile_qr_scan"}, "is_reserved": 0, "name": "607368908848a9489dd441a8226974f4", "lon": -77.05766683333333, "type": "electric_bike", "bike_id": "607368908848a9489dd441a8226974f4", "fusion_lon": 0.0, "lat": 38.92431233333333, "fusion_lat": 0.0}, {"is_disabled": 0, "rental_uris": {"android": "https://dc.lft.to/lastmile_qr_scan", "ios": "https://dc.lft.to/lastmile_qr_scan"}, "is_reserved": 0, "name": "cfcb7b7444b0ea87c0b60e8cf9fdef9d", "lon": -77.02416683333334, "type": "electric_scooter", "bike_id": "cfcb7b7444b0ea87c0b60e8cf9fdef9d", "fusion_lon": 0.0, "lat": 38.91255816666666, "fusion_lat": 0.0}, {"is_disabled": 0, "rental_uris": {"android": "https://dc.lft.to/lastmile_qr_scan", "ios": "https://dc.lft.to/lastmile_qr_scan"}, "is_reserved": 0, "name": "c3ab11e0490e6e3fc21abe303d373ff6", "lon": -77.04998383333333, "type": "electric_scooter", "bike_id": "c3ab11e0490e6e3fc21abe303d373ff6", "fusion_lon": 0.0, "lat": 38.897279166666664, "fusion_lat": 0.0}, {"is_disabled": 0, "rental_uris": {"android": "https://dc.lft.to/lastmile_qr_scan", "ios": "https://dc.lft.to/lastmile_qr_scan"}, "is_reserved": 0, "name": "a955f91d2fd7350be8531452d909eb58", "lon": -76.94633216666666, "type": "electric_scooter", "bike_id": "a955f91d2fd7350be8531452d909eb58", "fusion_lon": 0.0, "lat": 38.89842133333333, "fusion_lat": 0.0}, {"is_disabled": 0, "rental_uris": {"android": "https://dc.lft.to/lastmile_qr_scan", "ios": "https://dc.lft.to/lastmile_qr_scan"}, "is_reserved": 0, "name": "876b993d2a0561595f19e80184f95764", "lon": -77.0505225, "type": "electric_scooter", "bike_id": "876b993d2a0561595f19e80184f95764", "fusion_lon": 0.0, "lat": 38.916644, "fusion_lat": 0.0}, {"is_disabled": 0, "rental_uris": {"android": "https://dc.lft.to/lastmile_qr_scan", "ios": "https://dc.lft.to/lastmile_qr_scan"}, "is_reserved": 0, "name": "8d794905ab883cf7a102b2f07eeb9b91", "lon": -77.033119, "type": "electric_scooter", "bike_id": "8d794905ab883cf7a102b2f07eeb9b91", "fusion_lon": 0.0, "lat": 38.91807133333333, "fusion_lat": 0.0}, {"is_disabled": 0, "rental_uris": {"android": "https://dc.lft.to/lastmile_qr_scan", "ios": "https://dc.lft.to/lastmile_qr_scan"}, "is_reserved": 0, "name": "b9ffcbbcc5f64c8b9325f9858ffe9be6", "lon": -76.9962435, "type": "electric_scooter", "bike_id": "b9ffcbbcc5f64c8b9325f9858ffe9be6", "fusion_lon": 0.0, "lat": 38.90033833333333, "fusion_lat": 0.0}, {"is_disabled": 0, "rental_uris": {"android": "https://dc.lft.to/lastmile_qr_scan", "ios": "https://dc.lft.to/lastmile_qr_scan"}, "is_reserved": 0, "name": "766033eede698f13f9f2f812f8e00810", "lon": -77.02689383333333, "type": "electric_scooter", "bike_id": "766033eede698f13f9f2f812f8e00810", "fusion_lon": 0.0, "lat": 38.93635733333333, "fusion_lat": 0.0}, {"is_disabled": 0, "rental_uris": {"android": "https://dc.lft.to/lastmile_qr_scan", "ios": "https://dc.lft.to/lastmile_qr_scan"}, "is_reserved": 0, "name": "1a5a3dda0f5e1db70035905cbc5d73d5", "lon": -77.00920066666667, "type": "electric_bike", "bike_id": "1a5a3dda0f5e1db70035905cbc5d73d5", "fusion_lon": 0.0, "lat": 38.9784925, "fusion_lat": 0.0}, {"is_disabled": 0, "rental_uris": {"android": "https://dc.lft.to/lastmile_qr_scan", "ios": "https://dc.lft.to/lastmile_qr_scan"}, "is_reserved": 0, "name": "41c72aacf1901ab87341951f507873b9", "lon": -77.04504033333333, "type": "electric_scooter", "bike_id": "41c72aacf1901ab87341951f507873b9", "fusion_lon": 0.0, "lat": 38.921436166666666, "fusion_lat": 0.0}, {"is_disabled": 0, "rental_uris": {"android": "https://dc.lft.to/lastmile_qr_scan", "ios": "https://dc.lft.to/lastmile_qr_scan"}, "is_reserved": 0, "name": "31ba98ecd104e2631ad2d2879b5952b7", "lon": -77.02226866666666, "type": "electric_scooter", "bike_id": "31ba98ecd104e2631ad2d2879b5952b7", "fusion_lon": 0.0, "lat": 38.892190666666664, "fusion_lat": 0.0}, {"is_disabled": 0, "rental_uris": {"android": "https://dc.lft.to/lastmile_qr_scan", "ios": "https://dc.lft.to/lastmile_qr_scan"}, "is_reserved": 0, "name": "3e640e4b12cc57f6dee46006bbef3f16", "lon": -77.01012066666667, "type": "electric_scooter", "bike_id": "3e640e4b12cc57f6dee46006bbef3f16", "fusion_lon": 0.0, "lat": 38.87964683333333, "fusion_lat": 0.0}, {"is_disabled": 0, "rental_uris": {"android": "https://dc.lft.to/lastmile_qr_scan", "ios": "https://dc.lft.to/lastmile_qr_scan"}, "is_reserved": 0, "name": "e27c1ce48a975c5ba7b63c6b5ffb5ba8", "lon": -77.005715, "type": "electric_scooter", "bike_id": "e27c1ce48a975c5ba7b63c6b5ffb5ba8", "fusion_lon": 0.0, "lat": 38.928110333333336, "fusion_lat": 0.0}, {"is_disabled": 0, "rental_uris": {"android": "https://dc.lft.to/lastmile_qr_scan", "ios": "https://dc.lft.to/lastmile_qr_scan"}, "is_reserved": 0, "name": "f3a930d2f7da62bb622dc3f7c278b5a5", "lon": -76.9950805, "type": "electric_scooter", "bike_id": "f3a930d2f7da62bb622dc3f7c278b5a5", "fusion_lon": 0.0, "lat": 38.894781, "fusion_lat": 0.0}, {"is_disabled": 0, "rental_uris": {"android": "https://dc.lft.to/lastmile_qr_scan", "ios": "https://dc.lft.to/lastmile_qr_scan"}, "is_reserved": 0, "name": "5f8b71b0120cae13f5b422041bdc92a0", "lon": -77.0478295, "type": "electric_scooter", "bike_id": "5f8b71b0120cae13f5b422041bdc92a0", "fusion_lon": 0.0, "lat": 38.8996105, "fusion_lat": 0.0}, {"is_disabled": 0, "rental_uris": {"android": "https://dc.lft.to/lastmile_qr_scan", "ios": "https://dc.lft.to/lastmile_qr_scan"}, "is_reserved": 0, "name": "6c7bb54532facf0e36103a156fdf283b", "lon": -76.99412866666667, "type": "electric_scooter", "bike_id": "6c7bb54532facf0e36103a156fdf283b", "fusion_lon": 0.0, "lat": 38.894791166666664, "fusion_lat": 0.0}, {"is_disabled": 0, "rental_uris": {"android": "https://dc.lft.to/lastmile_qr_scan", "ios": "https://dc.lft.to/lastmile_qr_scan"}, "is_reserved": 0, "name": "312aa092b8c42935474fc31bbaf1c41f", "lon": -76.990592, "type": "electric_scooter", "bike_id": "312aa092b8c42935474fc31bbaf1c41f", "fusion_lon": 0.0, "lat": 38.8635815, "fusion_lat": 0.0}, {"is_disabled": 0, "rental_uris": {"android": "https://dc.lft.to/lastmile_qr_scan", "ios": "https://dc.lft.to/lastmile_qr_scan"}, "is_reserved": 0, "name": "7743da773900117e48d49c6bdcac989d", "lon": -77.032134, "type": "electric_scooter", "bike_id": "7743da773900117e48d49c6bdcac989d", "fusion_lon": 0.0, "lat": 38.900380166666665, "fusion_lat": 0.0}, {"is_disabled": 0, "rental_uris": {"android": "https://dc.lft.to/lastmile_qr_scan", "ios": "https://dc.lft.to/lastmile_qr_scan"}, "is_reserved": 0, "name": "32f40548c4313a85670446099a5d9668", "lon": -77.01198866666667, "type": "electric_scooter", "bike_id": "32f40548c4313a85670446099a5d9668", "fusion_lon": 0.0, "lat": 38.900015833333335, "fusion_lat": 0.0}, {"is_disabled": 0, "rental_uris": {"android": "https://dc.lft.to/lastmile_qr_scan", "ios": "https://dc.lft.to/lastmile_qr_scan"}, "is_reserved": 0, "name": "6bbb0a92431234ada611e589f9d84450", "lon": -77.03524616666667, "type": "electric_scooter", "bike_id": "6bbb0a92431234ada611e589f9d84450", "fusion_lon": 0.0, "lat": 38.922333333333334, "fusion_lat": 0.0}, {"is_disabled": 0, "rental_uris": {"android": "https://dc.lft.to/lastmile_qr_scan", "ios": "https://dc.lft.to/lastmile_qr_scan"}, "is_reserved": 0, "name": "a7caa583c9e395642488adae8184d737", "lon": -77.0366125, "type": "electric_scooter", "bike_id": "a7caa583c9e395642488adae8184d737", "fusion_lon": 0.0, "lat": 38.91711683333333, "fusion_lat": 0.0}, {"is_disabled": 0, "rental_uris": {"android": "https://dc.lft.to/lastmile_qr_scan", "ios": "https://dc.lft.to/lastmile_qr_scan"}, "is_reserved": 0, "name": "847d8aeba1386b03024aad61bcf94bb4", "lon": -77.05400016666667, "type": "electric_scooter", "bike_id": "847d8aeba1386b03024aad61bcf94bb4", "fusion_lon": 0.0, "lat": 38.905294166666664, "fusion_lat": 0.0}, {"is_disabled": 0, "rental_uris": {"android": "https://dc.lft.to/lastmile_qr_scan", "ios": "https://dc.lft.to/lastmile_qr_scan"}, "is_reserved": 0, "name": "c52438137004b19ef379b60d5f5376af", "lon": -76.99392116666667, "type": "electric_scooter", "bike_id": "c52438137004b19ef379b60d5f5376af", "fusion_lon": 0.0, "lat": 38.9211715, "fusion_lat": 0.0}, {"is_disabled": 0, "rental_uris": {"android": "https://dc.lft.to/lastmile_qr_scan", "ios": "https://dc.lft.to/lastmile_qr_scan"}, "is_reserved": 0, "name": "27dee88b5dc2ac2c608c64515870f566", "lon": -77.01222133333333, "type": "electric_scooter", "bike_id": "27dee88b5dc2ac2c608c64515870f566", "fusion_lon": 0.0, "lat": 38.914959833333334, "fusion_lat": 0.0}, {"is_disabled": 0, "rental_uris": {"android": "https://dc.lft.to/lastmile_qr_scan", "ios": "https://dc.lft.to/lastmile_qr_scan"}, "is_reserved": 0, "name": "99824a09fa045ea081439ceaf03f9dea", "lon": -76.99005466666667, "type": "electric_scooter", "bike_id": "99824a09fa045ea081439ceaf03f9dea", "fusion_lon": 0.0, "lat": 38.86505316666667, "fusion_lat": 0.0}, {"is_disabled": 0, "rental_uris": {"android": "https://dc.lft.to/lastmile_qr_scan", "ios": "https://dc.lft.to/lastmile_qr_scan"}, "is_reserved": 0, "name": "3ff039ffe9e2a84514bf4cc09d8ef209", "lon": -77.03626966666667, "type": "electric_scooter", "bike_id": "3ff039ffe9e2a84514bf4cc09d8ef209", "fusion_lon": 0.0, "lat": 38.9162505, "fusion_lat": 0.0}, {"is_disabled": 0, "rental_uris": {"android": "https://dc.lft.to/lastmile_qr_scan", "ios": "https://dc.lft.to/lastmile_qr_scan"}, "is_reserved": 0, "name": "6ce68f1d9151d18433f34bbf4879da42", "lon": -77.0372745, "type": "electric_scooter", "bike_id": "6ce68f1d9151d18433f34bbf4879da42", "fusion_lon": 0.0, "lat": 38.92651866666667, "fusion_lat": 0.0}, {"is_disabled": 0, "rental_uris": {"android": "https://dc.lft.to/lastmile_qr_scan", "ios": "https://dc.lft.to/lastmile_qr_scan"}, "is_reserved": 0, "name": "fa9945e075b7212775108b0ca0bbe68c", "lon": -76.94997733333334, "type": "electric_scooter", "bike_id": "fa9945e075b7212775108b0ca0bbe68c", "fusion_lon": 0.0, "lat": 38.8939845, "fusion_lat": 0.0}, {"is_disabled": 0, "rental_uris": {"android": "https://dc.lft.to/lastmile_qr_scan", "ios": "https://dc.lft.to/lastmile_qr_scan"}, "is_reserved": 0, "name": "6bcfb093108b7554dfbe943382d3ea8c", "lon": -76.9908435, "type": "electric_scooter", "bike_id": "6bcfb093108b7554dfbe943382d3ea8c", "fusion_lon": 0.0, "lat": 38.86047933333333, "fusion_lat": 0.0}, {"is_disabled": 0, "rental_uris": {"android": "https://dc.lft.to/lastmile_qr_scan", "ios": "https://dc.lft.to/lastmile_qr_scan"}, "is_reserved": 0, "name": "23735355921e28870df2de0d5e7de8df", "lon": -77.04172166666666, "type": "electric_scooter", "bike_id": "23735355921e28870df2de0d5e7de8df", "fusion_lon": 0.0, "lat": 38.90802, "fusion_lat": 0.0}, {"is_disabled": 0, "rental_uris": {"android": "https://dc.lft.to/lastmile_qr_scan", "ios": "https://dc.lft.to/lastmile_qr_scan"}, "is_reserved": 0, "name": "ba1bcccc3194603df4e37e69719ef64d", "lon": -76.96561566666666, "type": "electric_scooter", "bike_id": "ba1bcccc3194603df4e37e69719ef64d", "fusion_lon": 0.0, "lat": 38.918343, "fusion_lat": 0.0}, {"is_disabled": 0, "rental_uris": {"android": "https://dc.lft.to/lastmile_qr_scan", "ios": "https://dc.lft.to/lastmile_qr_scan"}, "is_reserved": 0, "name": "2791eb5f1cfaf782c9bd2ccffc5c3395", "lon": -77.03854216666667, "type": "electric_scooter", "bike_id": "2791eb5f1cfaf782c9bd2ccffc5c3395", "fusion_lon": 0.0, "lat": 38.9323925, "fusion_lat": 0.0}, {"is_disabled": 0, "rental_uris": {"android": "https://dc.lft.to/lastmile_qr_scan", "ios": "https://dc.lft.to/lastmile_qr_scan"}, "is_reserved": 0, "name": "57ad32096ccacb26899e00633c79d0be", "lon": -77.03328, "type": "electric_scooter", "bike_id": "57ad32096ccacb26899e00633c79d0be", "fusion_lon": 0.0, "lat": 38.89729833333333, "fusion_lat": 0.0}, {"is_disabled": 0, "rental_uris": {"android": "https://dc.lft.to/lastmile_qr_scan", "ios": "https://dc.lft.to/lastmile_qr_scan"}, "is_reserved": 0, "name": "d534dd5df7a1116ff5bb8d62a4676990", "lon": -77.02705033333334, "type": "electric_scooter", "bike_id": "d534dd5df7a1116ff5bb8d62a4676990", "fusion_lon": 0.0, "lat": 38.9497995, "fusion_lat": 0.0}, {"is_disabled": 0, "rental_uris": {"android": "https://dc.lft.to/lastmile_qr_scan", "ios": "https://dc.lft.to/lastmile_qr_scan"}, "is_reserved": 0, "name": "1c7c51a43c464ffa365078ce5e0d9d5e", "lon": -77.04116666666667, "type": "electric_scooter", "bike_id": "1c7c51a43c464ffa365078ce5e0d9d5e", "fusion_lon": 0.0, "lat": 38.931006, "fusion_lat": 0.0}, {"is_disabled": 0, "rental_uris": {"android": "https://dc.lft.to/lastmile_qr_scan", "ios": "https://dc.lft.to/lastmile_qr_scan"}, "is_reserved": 0, "name": "df985a442c2246ca0c6ec9d5367dd602", "lon": -77.03559533333333, "type": "electric_scooter", "bike_id": "df985a442c2246ca0c6ec9d5367dd602", "fusion_lon": 0.0, "lat": 38.918093999999996, "fusion_lat": 0.0}, {"is_disabled": 0, "rental_uris": {"android": "https://dc.lft.to/lastmile_qr_scan", "ios": "https://dc.lft.to/lastmile_qr_scan"}, "is_reserved": 0, "name": "eb2c295f75327969dedea2817cd083f0", "lon": -77.01376033333334, "type": "electric_scooter", "bike_id": "eb2c295f75327969dedea2817cd083f0", "fusion_lon": 0.0, "lat": 38.91038833333333, "fusion_lat": 0.0}, {"is_disabled": 0, "rental_uris": {"android": "https://dc.lft.to/lastmile_qr_scan", "ios": "https://dc.lft.to/lastmile_qr_scan"}, "is_reserved": 0, "name": "64d509a82e15ec42e22b829fc87d3c1b", "lon": -77.0222375, "type": "electric_scooter", "bike_id": "64d509a82e15ec42e22b829fc87d3c1b", "fusion_lon": 0.0, "lat": 38.912684666666664, "fusion_lat": 0.0}, {"is_disabled": 0, "rental_uris": {"android": "https://dc.lft.to/lastmile_qr_scan", "ios": "https://dc.lft.to/lastmile_qr_scan"}, "is_reserved": 0, "name": "4f7594b490d35fbfa28a104f418c6216", "lon": -77.03828333333334, "type": "electric_scooter", "bike_id": "4f7594b490d35fbfa28a104f418c6216", "fusion_lon": 0.0, "lat": 38.911083833333336, "fusion_lat": 0.0}, {"is_disabled": 0, "rental_uris": {"android": "https://dc.lft.to/lastmile_qr_scan", "ios": "https://dc.lft.to/lastmile_qr_scan"}, "is_reserved": 0, "name": "2441d41f0ab7a0c0763257a7e415b7d5", "lon": -77.043685, "type": "electric_scooter", "bike_id": "2441d41f0ab7a0c0763257a7e415b7d5", "fusion_lon": 0.0, "lat": 38.902611666666665, "fusion_lat": 0.0}, {"is_disabled": 0, "rental_uris": {"android": "https://dc.lft.to/lastmile_qr_scan", "ios": "https://dc.lft.to/lastmile_qr_scan"}, "is_reserved": 0, "name": "1bf4b8481016303797d2364fd476645b", "lon": -76.9900685, "type": "electric_scooter", "bike_id": "1bf4b8481016303797d2364fd476645b", "fusion_lon": 0.0, "lat": 38.86507733333333, "fusion_lat": 0.0}, {"is_disabled": 0, "rental_uris": {"android": "https://dc.lft.to/lastmile_qr_scan", "ios": "https://dc.lft.to/lastmile_qr_scan"}, "is_reserved": 0, "name": "46bcda97c68441f6c8d3684b2ef3a033", "lon": -77.095622, "type": "electric_bike", "bike_id": "46bcda97c68441f6c8d3684b2ef3a033", "fusion_lon": 0.0, "lat": 38.916958666666666, "fusion_lat": 0.0}, {"is_disabled": 0, "rental_uris": {"android": "https://dc.lft.to/lastmile_qr_scan", "ios": "https://dc.lft.to/lastmile_qr_scan"}, "is_reserved": 0, "name": "a1c9bc4f48ae0eaa09498cd301af016c", "lon": -77.0222485, "type": "electric_scooter", "bike_id": "a1c9bc4f48ae0eaa09498cd301af016c", "fusion_lon": 0.0, "lat": 38.90558866666667, "fusion_lat": 0.0}, {"is_disabled": 0, "rental_uris": {"android": "https://dc.lft.to/lastmile_qr_scan", "ios": "https://dc.lft.to/lastmile_qr_scan"}, "is_reserved": 0, "name": "8aa46954da222bafb4b0c02cee15aaec", "lon": -77.018974, "type": "electric_scooter", "bike_id": "8aa46954da222bafb4b0c02cee15aaec", "fusion_lon": 0.0, "lat": 38.912175166666664, "fusion_lat": 0.0}, {"is_disabled": 0, "rental_uris": {"android": "https://dc.lft.to/lastmile_qr_scan", "ios": "https://dc.lft.to/lastmile_qr_scan"}, "is_reserved": 0, "name": "e951db3a954bc3258ebb8b39e68a0c70", "lon": -77.02722266666666, "type": "electric_scooter", "bike_id": "e951db3a954bc3258ebb8b39e68a0c70", "fusion_lon": 0.0, "lat": 38.909637000000004, "fusion_lat": 0.0}, {"is_disabled": 0, "rental_uris": {"android": "https://dc.lft.to/lastmile_qr_scan", "ios": "https://dc.lft.to/lastmile_qr_scan"}, "is_reserved": 0, "name": "ade257cdd1dfaf641cb5ca76c2ddefb3", "lon": -77.046661, "type": "electric_scooter", "bike_id": "ade257cdd1dfaf641cb5ca76c2ddefb3", "fusion_lon": 0.0, "lat": 38.91176933333333, "fusion_lat": 0.0}, {"is_disabled": 0, "rental_uris": {"android": "https://dc.lft.to/lastmile_qr_scan", "ios": "https://dc.lft.to/lastmile_qr_scan"}, "is_reserved": 0, "name": "6c19743ef1b65c27415173435866401e", "lon": -76.99159083333333, "type": "electric_scooter", "bike_id": "6c19743ef1b65c27415173435866401e", "fusion_lon": 0.0, "lat": 38.8814195, "fusion_lat": 0.0}, {"is_disabled": 0, "rental_uris": {"android": "https://dc.lft.to/lastmile_qr_scan", "ios": "https://dc.lft.to/lastmile_qr_scan"}, "is_reserved": 0, "name": "54d24b3d1f718f53951c7256975fcaab", "lon": -77.01544766666666, "type": "electric_scooter", "bike_id": "54d24b3d1f718f53951c7256975fcaab", "fusion_lon": 0.0, "lat": 38.887697, "fusion_lat": 0.0}, {"is_disabled": 0, "rental_uris": {"android": "https://dc.lft.to/lastmile_qr_scan", "ios": "https://dc.lft.to/lastmile_qr_scan"}, "is_reserved": 0, "name": "b6500b940d58e8ad313d45ea27eb0701", "lon": -76.90090683333334, "type": "electric_bike", "bike_id": "b6500b940d58e8ad313d45ea27eb0701", "fusion_lon": 0.0, "lat": 38.887580166666666, "fusion_lat": 0.0}, {"is_disabled": 0, "rental_uris": {"android": "https://dc.lft.to/lastmile_qr_scan", "ios": "https://dc.lft.to/lastmile_qr_scan"}, "is_reserved": 0, "name": "b6d5a3d1a0718cea108a3c133c4319d4", "lon": -77.046547, "type": "electric_scooter", "bike_id": "b6d5a3d1a0718cea108a3c133c4319d4", "fusion_lon": 0.0, "lat": 38.905676666666665, "fusion_lat": 0.0}, {"is_disabled": 0, "rental_uris": {"android": "https://dc.lft.to/lastmile_qr_scan", "ios": "https://dc.lft.to/lastmile_qr_scan"}, "is_reserved": 0, "name": "d2513c8f12a7b3c25f4f6f409246a0ad", "lon": -76.98743433333334, "type": "electric_scooter", "bike_id": "d2513c8f12a7b3c25f4f6f409246a0ad", "fusion_lon": 0.0, "lat": 38.879607, "fusion_lat": 0.0}, {"is_disabled": 0, "rental_uris": {"android": "https://dc.lft.to/lastmile_qr_scan", "ios": "https://dc.lft.to/lastmile_qr_scan"}, "is_reserved": 0, "name": "bc49fb97252d24b5d2a105faed68d7ac", "lon": -77.04011783333333, "type": "electric_scooter", "bike_id": "bc49fb97252d24b5d2a105faed68d7ac", "fusion_lon": 0.0, "lat": 38.917935, "fusion_lat": 0.0}, {"is_disabled": 0, "rental_uris": {"android": "https://dc.lft.to/lastmile_qr_scan", "ios": "https://dc.lft.to/lastmile_qr_scan"}, "is_reserved": 0, "name": "d71b102fa64b7ac6aef7d289c40dd808", "lon": -77.02974316666666, "type": "electric_scooter", "bike_id": "d71b102fa64b7ac6aef7d289c40dd808", "fusion_lon": 0.0, "lat": 38.904534, "fusion_lat": 0.0}, {"is_disabled": 0, "rental_uris": {"android": "https://dc.lft.to/lastmile_qr_scan", "ios": "https://dc.lft.to/lastmile_qr_scan"}, "is_reserved": 0, "name": "8ceb12af094afa24bbf95a57b0d9eed0", "lon": -77.01963, "type": "electric_bike", "bike_id": "8ceb12af094afa24bbf95a57b0d9eed0", "fusion_lon": 0.0, "lat": 38.929906333333335, "fusion_lat": 0.0}, {"is_disabled": 0, "rental_uris": {"android": "https://dc.lft.to/lastmile_qr_scan", "ios": "https://dc.lft.to/lastmile_qr_scan"}, "is_reserved": 0, "name": "608cac90daf8aba90e3e12c2e103bc18", "lon": -77.11166383333334, "type": "electric_bike", "bike_id": "608cac90daf8aba90e3e12c2e103bc18", "fusion_lon": 0.0, "lat": 38.85648183333333, "fusion_lat": 0.0}, {"is_disabled": 0, "rental_uris": {"android": "https://dc.lft.to/lastmile_qr_scan", "ios": "https://dc.lft.to/lastmile_qr_scan"}, "is_reserved": 0, "name": "faf6253fbeb0d85322a143ae98fe35e2", "lon": -77.024614, "type": "electric_scooter", "bike_id": "faf6253fbeb0d85322a143ae98fe35e2", "fusion_lon": 0.0, "lat": 38.884078333333335, "fusion_lat": 0.0}, {"is_disabled": 0, "rental_uris": {"android": "https://dc.lft.to/lastmile_qr_scan", "ios": "https://dc.lft.to/lastmile_qr_scan"}, "is_reserved": 0, "name": "d33c05d127ea3c71b502b2d49b6e36f7", "lon": -77.094432, "type": "electric_scooter", "bike_id": "d33c05d127ea3c71b502b2d49b6e36f7", "fusion_lon": 0.0, "lat": 38.9178545, "fusion_lat": 0.0}, {"is_disabled": 0, "rental_uris": {"android": "https://dc.lft.to/lastmile_qr_scan", "ios": "https://dc.lft.to/lastmile_qr_scan"}, "is_reserved": 0, "name": "11c55a8603dfc4f72f5f1a9e70b35c34", "lon": -76.98837616666667, "type": "electric_scooter", "bike_id": "11c55a8603dfc4f72f5f1a9e70b35c34", "fusion_lon": 0.0, "lat": 38.898475166666664, "fusion_lat": 0.0}, {"is_disabled": 0, "rental_uris": {"android": "https://dc.lft.to/lastmile_qr_scan", "ios": "https://dc.lft.to/lastmile_qr_scan"}, "is_reserved": 0, "name": "87c79eef4eddab2836470f5f1e6669d2", "lon": -77.01529983333333, "type": "electric_scooter", "bike_id": "87c79eef4eddab2836470f5f1e6669d2", "fusion_lon": 0.0, "lat": 38.89545833333333, "fusion_lat": 0.0}, {"is_disabled": 0, "rental_uris": {"android": "https://dc.lft.to/lastmile_qr_scan", "ios": "https://dc.lft.to/lastmile_qr_scan"}, "is_reserved": 0, "name": "894ba756e719332483a184f9499b968e", "lon": -77.02828066666666, "type": "electric_scooter", "bike_id": "894ba756e719332483a184f9499b968e", "fusion_lon": 0.0, "lat": 38.929713166666666, "fusion_lat": 0.0}, {"is_disabled": 0, "rental_uris": {"android": "https://dc.lft.to/lastmile_qr_scan", "ios": "https://dc.lft.to/lastmile_qr_scan"}, "is_reserved": 0, "name": "6e5a01b0900e586d959dd2f019650934", "lon": -77.04328183333334, "type": "electric_scooter", "bike_id": "6e5a01b0900e586d959dd2f019650934", "fusion_lon": 0.0, "lat": 38.923335333333334, "fusion_lat": 0.0}, {"is_disabled": 0, "rental_uris": {"android": "https://dc.lft.to/lastmile_qr_scan", "ios": "https://dc.lft.to/lastmile_qr_scan"}, "is_reserved": 0, "name": "5287d20c60e38a9490b2ef045d2dbab7", "lon": -77.01011716666666, "type": "electric_scooter", "bike_id": "5287d20c60e38a9490b2ef045d2dbab7", "fusion_lon": 0.0, "lat": 38.91825716666666, "fusion_lat": 0.0}, {"is_disabled": 0, "rental_uris": {"android": "https://dc.lft.to/lastmile_qr_scan", "ios": "https://dc.lft.to/lastmile_qr_scan"}, "is_reserved": 0, "name": "063d3af7609fb17ad8fc4f5ddcba23d7", "lon": -76.98305433333333, "type": "electric_scooter", "bike_id": "063d3af7609fb17ad8fc4f5ddcba23d7", "fusion_lon": 0.0, "lat": 38.90370933333333, "fusion_lat": 0.0}, {"is_disabled": 0, "rental_uris": {"android": "https://dc.lft.to/lastmile_qr_scan", "ios": "https://dc.lft.to/lastmile_qr_scan"}, "is_reserved": 0, "name": "f7dc729e02d7f68a80a978b7157a5ac6", "lon": -77.005793, "type": "electric_scooter", "bike_id": "f7dc729e02d7f68a80a978b7157a5ac6", "fusion_lon": 0.0, "lat": 38.9059825, "fusion_lat": 0.0}, {"is_disabled": 0, "rental_uris": {"android": "https://dc.lft.to/lastmile_qr_scan", "ios": "https://dc.lft.to/lastmile_qr_scan"}, "is_reserved": 0, "name": "4f4b0b6e48f6f70f8c9b47d8303e7a13", "lon": -76.94942733333333, "type": "electric_scooter", "bike_id": "4f4b0b6e48f6f70f8c9b47d8303e7a13", "fusion_lon": 0.0, "lat": 38.883162166666665, "fusion_lat": 0.0}, {"is_disabled": 0, "rental_uris": {"android": "https://dc.lft.to/lastmile_qr_scan", "ios": "https://dc.lft.to/lastmile_qr_scan"}, "is_reserved": 0, "name": "e1d6a16bc24123e2f5ed59841c74a693", "lon": -77.03172, "type": "electric_scooter", "bike_id": "e1d6a16bc24123e2f5ed59841c74a693", "fusion_lon": 0.0, "lat": 38.9191635, "fusion_lat": 0.0}, {"is_disabled": 0, "rental_uris": {"android": "https://dc.lft.to/lastmile_qr_scan", "ios": "https://dc.lft.to/lastmile_qr_scan"}, "is_reserved": 0, "name": "ca4e5ba7e04daa736974cba44b58fd8f", "lon": -77.02513983333333, "type": "electric_scooter", "bike_id": "ca4e5ba7e04daa736974cba44b58fd8f", "fusion_lon": 0.0, "lat": 38.919167, "fusion_lat": 0.0}, {"is_disabled": 0, "rental_uris": {"android": "https://dc.lft.to/lastmile_qr_scan", "ios": "https://dc.lft.to/lastmile_qr_scan"}, "is_reserved": 0, "name": "f53f3d25e99154e2a405907dab9d4004", "lon": -77.035815, "type": "electric_scooter", "bike_id": "f53f3d25e99154e2a405907dab9d4004", "fusion_lon": 0.0, "lat": 38.907580333333335, "fusion_lat": 0.0}, {"is_disabled": 0, "rental_uris": {"android": "https://dc.lft.to/lastmile_qr_scan", "ios": "https://dc.lft.to/lastmile_qr_scan"}, "is_reserved": 0, "name": "feeb9b3acf407d86f02d15b9a2558cc8", "lon": -77.0036685, "type": "electric_scooter", "bike_id": "feeb9b3acf407d86f02d15b9a2558cc8", "fusion_lon": 0.0, "lat": 38.8775705, "fusion_lat": 0.0}, {"is_disabled": 0, "rental_uris": {"android": "https://dc.lft.to/lastmile_qr_scan", "ios": "https://dc.lft.to/lastmile_qr_scan"}, "is_reserved": 0, "name": "5b3caecd11fec343c8241af0b913c7b9", "lon": -77.02836333333333, "type": "electric_scooter", "bike_id": "5b3caecd11fec343c8241af0b913c7b9", "fusion_lon": 0.0, "lat": 38.9318545, "fusion_lat": 0.0}, {"is_disabled": 0, "rental_uris": {"android": "https://dc.lft.to/lastmile_qr_scan", "ios": "https://dc.lft.to/lastmile_qr_scan"}, "is_reserved": 0, "name": "c89314c6bb5cc64cfa49e2450e12bb01", "lon": -77.1780025, "type": "electric_bike", "bike_id": "c89314c6bb5cc64cfa49e2450e12bb01", "fusion_lon": 0.0, "lat": 39.088449833333335, "fusion_lat": 0.0}, {"is_disabled": 0, "rental_uris": {"android": "https://dc.lft.to/lastmile_qr_scan", "ios": "https://dc.lft.to/lastmile_qr_scan"}, "is_reserved": 0, "name": "762d68167f64df0734060821f61353fb", "lon": -77.05123683333333, "type": "electric_scooter", "bike_id": "762d68167f64df0734060821f61353fb", "fusion_lon": 0.0, "lat": 38.92340733333333, "fusion_lat": 0.0}, {"is_disabled": 0, "rental_uris": {"android": "https://dc.lft.to/lastmile_qr_scan", "ios": "https://dc.lft.to/lastmile_qr_scan"}, "is_reserved": 0, "name": "0c01995c2a8dd299e5f3df5ab3f2f86e", "lon": -77.050281, "type": "electric_scooter", "bike_id": "0c01995c2a8dd299e5f3df5ab3f2f86e", "fusion_lon": 0.0, "lat": 38.8978235, "fusion_lat": 0.0}, {"is_disabled": 0, "rental_uris": {"android": "https://dc.lft.to/lastmile_qr_scan", "ios": "https://dc.lft.to/lastmile_qr_scan"}, "is_reserved": 0, "name": "e947feba22c7a3c4749d4ed2d0319329", "lon": -76.98879266666667, "type": "electric_scooter", "bike_id": "e947feba22c7a3c4749d4ed2d0319329", "fusion_lon": 0.0, "lat": 38.86673666666667, "fusion_lat": 0.0}, {"is_disabled": 0, "rental_uris": {"android": "https://dc.lft.to/lastmile_qr_scan", "ios": "https://dc.lft.to/lastmile_qr_scan"}, "is_reserved": 0, "name": "3c0f0d672cfa46cdd990f175228a3c1f", "lon": -77.0292625, "type": "electric_bike", "bike_id": "3c0f0d672cfa46cdd990f175228a3c1f", "fusion_lon": 0.0, "lat": 38.90575033333333, "fusion_lat": 0.0}, {"is_disabled": 0, "rental_uris": {"android": "https://dc.lft.to/lastmile_qr_scan", "ios": "https://dc.lft.to/lastmile_qr_scan"}, "is_reserved": 0, "name": "a9ad7393d998232abc9d06fc61032039", "lon": -77.0324815, "type": "electric_scooter", "bike_id": "a9ad7393d998232abc9d06fc61032039", "fusion_lon": 0.0, "lat": 38.913224, "fusion_lat": 0.0}, {"is_disabled": 0, "rental_uris": {"android": "https://dc.lft.to/lastmile_qr_scan", "ios": "https://dc.lft.to/lastmile_qr_scan"}, "is_reserved": 0, "name": "5e14f469febae574e860e846f84f1eb5", "lon": -77.032972, "type": "electric_scooter", "bike_id": "5e14f469febae574e860e846f84f1eb5", "fusion_lon": 0.0, "lat": 38.92059316666667, "fusion_lat": 0.0}, {"is_disabled": 0, "rental_uris": {"android": "https://dc.lft.to/lastmile_qr_scan", "ios": "https://dc.lft.to/lastmile_qr_scan"}, "is_reserved": 0, "name": "afc7891196da17a2a4e75eb10b4296a5", "lon": -76.99003066666667, "type": "electric_scooter", "bike_id": "afc7891196da17a2a4e75eb10b4296a5", "fusion_lon": 0.0, "lat": 38.86507816666666, "fusion_lat": 0.0}, {"is_disabled": 0, "rental_uris": {"android": "https://dc.lft.to/lastmile_qr_scan", "ios": "https://dc.lft.to/lastmile_qr_scan"}, "is_reserved": 0, "name": "5ea64bc11c55c8ee737633b71227c4e7", "lon": -77.04349366666666, "type": "electric_scooter", "bike_id": "5ea64bc11c55c8ee737633b71227c4e7", "fusion_lon": 0.0, "lat": 38.898019, "fusion_lat": 0.0}, {"is_disabled": 0, "rental_uris": {"android": "https://dc.lft.to/lastmile_qr_scan", "ios": "https://dc.lft.to/lastmile_qr_scan"}, "is_reserved": 0, "name": "77bb690f8f6232526c4fe13d250f1948", "lon": -76.9963195, "type": "electric_scooter", "bike_id": "77bb690f8f6232526c4fe13d250f1948", "fusion_lon": 0.0, "lat": 38.900330333333336, "fusion_lat": 0.0}, {"is_disabled": 0, "rental_uris": {"android": "https://dc.lft.to/lastmile_qr_scan", "ios": "https://dc.lft.to/lastmile_qr_scan"}, "is_reserved": 0, "name": "c407382f5c2ee4859f8880205912bded", "lon": -76.95407416666667, "type": "electric_scooter", "bike_id": "c407382f5c2ee4859f8880205912bded", "fusion_lon": 0.0, "lat": 38.88432983333333, "fusion_lat": 0.0}, {"is_disabled": 0, "rental_uris": {"android": "https://dc.lft.to/lastmile_qr_scan", "ios": "https://dc.lft.to/lastmile_qr_scan"}, "is_reserved": 0, "name": "bc62424639a063319cf9a46258eec0a4", "lon": -77.03861366666666, "type": "electric_scooter", "bike_id": "bc62424639a063319cf9a46258eec0a4", "fusion_lon": 0.0, "lat": 38.901215666666666, "fusion_lat": 0.0}, {"is_disabled": 0, "rental_uris": {"android": "https://dc.lft.to/lastmile_qr_scan", "ios": "https://dc.lft.to/lastmile_qr_scan"}, "is_reserved": 0, "name": "8e51bd393ef766ef3c52625321dbe29c", "lon": -77.0416465, "type": "electric_scooter", "bike_id": "8e51bd393ef766ef3c52625321dbe29c", "fusion_lon": 0.0, "lat": 38.9135265, "fusion_lat": 0.0}, {"is_disabled": 0, "rental_uris": {"android": "https://dc.lft.to/lastmile_qr_scan", "ios": "https://dc.lft.to/lastmile_qr_scan"}, "is_reserved": 0, "name": "6c3cdb68ba83f591329910eefa59e236", "lon": -77.03813966666667, "type": "electric_scooter", "bike_id": "6c3cdb68ba83f591329910eefa59e236", "fusion_lon": 0.0, "lat": 38.915520666666666, "fusion_lat": 0.0}, {"is_disabled": 0, "rental_uris": {"android": "https://dc.lft.to/lastmile_qr_scan", "ios": "https://dc.lft.to/lastmile_qr_scan"}, "is_reserved": 0, "name": "2e62f8f685720033465869af354df7f3", "lon": -76.9964475, "type": "electric_scooter", "bike_id": "2e62f8f685720033465869af354df7f3", "fusion_lon": 0.0, "lat": 38.88718883333333, "fusion_lat": 0.0}, {"is_disabled": 0, "rental_uris": {"android": "https://dc.lft.to/lastmile_qr_scan", "ios": "https://dc.lft.to/lastmile_qr_scan"}, "is_reserved": 0, "name": "756b33f1f7e39c945d949add00fe629b", "lon": -77.03428433333333, "type": "electric_scooter", "bike_id": "756b33f1f7e39c945d949add00fe629b", "fusion_lon": 0.0, "lat": 38.91183733333333, "fusion_lat": 0.0}, {"is_disabled": 0, "rental_uris": {"android": "https://dc.lft.to/lastmile_qr_scan", "ios": "https://dc.lft.to/lastmile_qr_scan"}, "is_reserved": 0, "name": "df1667790c6179636a93e8c1fcb85cfe", "lon": -77.03853916666667, "type": "electric_scooter", "bike_id": "df1667790c6179636a93e8c1fcb85cfe", "fusion_lon": 0.0, "lat": 38.91682733333333, "fusion_lat": 0.0}, {"is_disabled": 0, "rental_uris": {"android": "https://dc.lft.to/lastmile_qr_scan", "ios": "https://dc.lft.to/lastmile_qr_scan"}, "is_reserved": 0, "name": "542f95e6220283e59e68997fab59352a", "lon": -77.01753083333334, "type": "electric_scooter", "bike_id": "542f95e6220283e59e68997fab59352a", "fusion_lon": 0.0, "lat": 38.90390166666667, "fusion_lat": 0.0}, {"is_disabled": 0, "rental_uris": {"android": "https://dc.lft.to/lastmile_qr_scan", "ios": "https://dc.lft.to/lastmile_qr_scan"}, "is_reserved": 0, "name": "7f49518c96f30745798238e21316a7a0", "lon": -77.032729, "type": "electric_scooter", "bike_id": "7f49518c96f30745798238e21316a7a0", "fusion_lon": 0.0, "lat": 38.904705, "fusion_lat": 0.0}, {"is_disabled": 0, "rental_uris": {"android": "https://dc.lft.to/lastmile_qr_scan", "ios": "https://dc.lft.to/lastmile_qr_scan"}, "is_reserved": 0, "name": "9a8d6ca3ef23963f3e4baaf27c2cdb8d", "lon": -77.0404015, "type": "electric_scooter", "bike_id": "9a8d6ca3ef23963f3e4baaf27c2cdb8d", "fusion_lon": 0.0, "lat": 38.905612833333336, "fusion_lat": 0.0}, {"is_disabled": 0, "rental_uris": {"android": "https://dc.lft.to/lastmile_qr_scan", "ios": "https://dc.lft.to/lastmile_qr_scan"}, "is_reserved": 0, "name": "b37be30028d3f4f111c924af8a68ced9", "lon": -77.05786533333334, "type": "electric_scooter", "bike_id": "b37be30028d3f4f111c924af8a68ced9", "fusion_lon": 0.0, "lat": 38.90509683333333, "fusion_lat": 0.0}, {"is_disabled": 0, "rental_uris": {"android": "https://dc.lft.to/lastmile_qr_scan", "ios": "https://dc.lft.to/lastmile_qr_scan"}, "is_reserved": 0, "name": "dc9b5d1df3bcd6b9f889d579fb3e7392", "lon": -77.05745816666666, "type": "electric_scooter", "bike_id": "dc9b5d1df3bcd6b9f889d579fb3e7392", "fusion_lon": 0.0, "lat": 38.93345266666667, "fusion_lat": 0.0}, {"is_disabled": 0, "rental_uris": {"android": "https://dc.lft.to/lastmile_qr_scan", "ios": "https://dc.lft.to/lastmile_qr_scan"}, "is_reserved": 0, "name": "5c40497eaf851cc20f4e71941099491a", "lon": -77.0317315, "type": "electric_scooter", "bike_id": "5c40497eaf851cc20f4e71941099491a", "fusion_lon": 0.0, "lat": 38.91416516666666, "fusion_lat": 0.0}, {"is_disabled": 0, "rental_uris": {"android": "https://dc.lft.to/lastmile_qr_scan", "ios": "https://dc.lft.to/lastmile_qr_scan"}, "is_reserved": 0, "name": "338614181eedbeaaef6163fe720bcd0c", "lon": -77.03179166666666, "type": "electric_scooter", "bike_id": "338614181eedbeaaef6163fe720bcd0c", "fusion_lon": 0.0, "lat": 38.916784, "fusion_lat": 0.0}, {"is_disabled": 0, "rental_uris": {"android": "https://dc.lft.to/lastmile_qr_scan", "ios": "https://dc.lft.to/lastmile_qr_scan"}, "is_reserved": 0, "name": "eb95763e09fa9e97918a9d368782d65b", "lon": -77.0152095, "type": "electric_scooter", "bike_id": "eb95763e09fa9e97918a9d368782d65b", "fusion_lon": 0.0, "lat": 38.884815333333336, "fusion_lat": 0.0}, {"is_disabled": 0, "rental_uris": {"android": "https://dc.lft.to/lastmile_qr_scan", "ios": "https://dc.lft.to/lastmile_qr_scan"}, "is_reserved": 0, "name": "73c4062bedcf11d350dbe841efedbec4", "lon": -77.04235533333333, "type": "electric_scooter", "bike_id": "73c4062bedcf11d350dbe841efedbec4", "fusion_lon": 0.0, "lat": 38.919246, "fusion_lat": 0.0}, {"is_disabled": 0, "rental_uris": {"android": "https://dc.lft.to/lastmile_qr_scan", "ios": "https://dc.lft.to/lastmile_qr_scan"}, "is_reserved": 0, "name": "c1b9e0903758ebf777380d1447058238", "lon": -77.01878616666667, "type": "electric_scooter", "bike_id": "c1b9e0903758ebf777380d1447058238", "fusion_lon": 0.0, "lat": 38.90052816666667, "fusion_lat": 0.0}, {"is_disabled": 0, "rental_uris": {"android": "https://dc.lft.to/lastmile_qr_scan", "ios": "https://dc.lft.to/lastmile_qr_scan"}, "is_reserved": 0, "name": "8222759f92b5a805bd505fc6f0cb0e70", "lon": -76.94896066666666, "type": "electric_scooter", "bike_id": "8222759f92b5a805bd505fc6f0cb0e70", "fusion_lon": 0.0, "lat": 38.895285666666666, "fusion_lat": 0.0}, {"is_disabled": 0, "rental_uris": {"android": "https://dc.lft.to/lastmile_qr_scan", "ios": "https://dc.lft.to/lastmile_qr_scan"}, "is_reserved": 0, "name": "6e291821cceaaa615b37fc9855b1ae2c", "lon": -77.06188516666667, "type": "electric_scooter", "bike_id": "6e291821cceaaa615b37fc9855b1ae2c", "fusion_lon": 0.0, "lat": 38.9301425, "fusion_lat": 0.0}, {"is_disabled": 0, "rental_uris": {"android": "https://dc.lft.to/lastmile_qr_scan", "ios": "https://dc.lft.to/lastmile_qr_scan"}, "is_reserved": 0, "name": "ea2a99c2a9549b5d78546921f52dfb6f", "lon": -77.03209316666667, "type": "electric_scooter", "bike_id": "ea2a99c2a9549b5d78546921f52dfb6f", "fusion_lon": 0.0, "lat": 38.91892883333333, "fusion_lat": 0.0}, {"is_disabled": 0, "rental_uris": {"android": "https://dc.lft.to/lastmile_qr_scan", "ios": "https://dc.lft.to/lastmile_qr_scan"}, "is_reserved": 0, "name": "4230afa415f73ff9fd4b3d5e6ad828b9", "lon": -77.01222533333333, "type": "electric_scooter", "bike_id": "4230afa415f73ff9fd4b3d5e6ad828b9", "fusion_lon": 0.0, "lat": 38.9149545, "fusion_lat": 0.0}, {"is_disabled": 0, "rental_uris": {"android": "https://dc.lft.to/lastmile_qr_scan", "ios": "https://dc.lft.to/lastmile_qr_scan"}, "is_reserved": 0, "name": "3a6ea5913cb69eda1db87241ccc1fdc4", "lon": -76.9888505, "type": "electric_scooter", "bike_id": "3a6ea5913cb69eda1db87241ccc1fdc4", "fusion_lon": 0.0, "lat": 38.8667265, "fusion_lat": 0.0}, {"is_disabled": 0, "rental_uris": {"android": "https://dc.lft.to/lastmile_qr_scan", "ios": "https://dc.lft.to/lastmile_qr_scan"}, "is_reserved": 0, "name": "cb9d413129709344b08bdce740d3c82a", "lon": -77.0117145, "type": "electric_scooter", "bike_id": "cb9d413129709344b08bdce740d3c82a", "fusion_lon": 0.0, "lat": 38.86805116666667, "fusion_lat": 0.0}, {"is_disabled": 0, "rental_uris": {"android": "https://dc.lft.to/lastmile_qr_scan", "ios": "https://dc.lft.to/lastmile_qr_scan"}, "is_reserved": 0, "name": "415f3374601c36cbe20c58f7ddbc2a57", "lon": -77.03464466666667, "type": "electric_scooter", "bike_id": "415f3374601c36cbe20c58f7ddbc2a57", "fusion_lon": 0.0, "lat": 38.916645833333334, "fusion_lat": 0.0}, {"is_disabled": 0, "rental_uris": {"android": "https://dc.lft.to/lastmile_qr_scan", "ios": "https://dc.lft.to/lastmile_qr_scan"}, "is_reserved": 0, "name": "30368993ed98211384597929d7e01a9e", "lon": -77.3441925, "type": "electric_bike", "bike_id": "30368993ed98211384597929d7e01a9e", "fusion_lon": 0.0, "lat": 38.94600233333333, "fusion_lat": 0.0}, {"is_disabled": 0, "rental_uris": {"android": "https://dc.lft.to/lastmile_qr_scan", "ios": "https://dc.lft.to/lastmile_qr_scan"}, "is_reserved": 0, "name": "f560804fec06fe994ea05f073ba71178", "lon": -77.14329083333334, "type": "electric_bike", "bike_id": "f560804fec06fe994ea05f073ba71178", "fusion_lon": 0.0, "lat": 39.05460183333334, "fusion_lat": 0.0}, {"is_disabled": 0, "rental_uris": {"android": "https://dc.lft.to/lastmile_qr_scan", "ios": "https://dc.lft.to/lastmile_qr_scan"}, "is_reserved": 0, "name": "bf7d7a59448d9e88bd6db6867f5acfe2", "lon": -77.032925, "type": "electric_scooter", "bike_id": "bf7d7a59448d9e88bd6db6867f5acfe2", "fusion_lon": 0.0, "lat": 38.92738283333333, "fusion_lat": 0.0}, {"is_disabled": 0, "rental_uris": {"android": "https://dc.lft.to/lastmile_qr_scan", "ios": "https://dc.lft.to/lastmile_qr_scan"}, "is_reserved": 0, "name": "9036db89d8f6a546ef017a86586f1c73", "lon": -76.98078016666666, "type": "electric_scooter", "bike_id": "9036db89d8f6a546ef017a86586f1c73", "fusion_lon": 0.0, "lat": 38.93654883333333, "fusion_lat": 0.0}, {"is_disabled": 0, "rental_uris": {"android": "https://dc.lft.to/lastmile_qr_scan", "ios": "https://dc.lft.to/lastmile_qr_scan"}, "is_reserved": 0, "name": "599c0c803c955f053390bf35abe6a205", "lon": -77.02717366666667, "type": "electric_scooter", "bike_id": "599c0c803c955f053390bf35abe6a205", "fusion_lon": 0.0, "lat": 38.909615333333335, "fusion_lat": 0.0}, {"is_disabled": 0, "rental_uris": {"android": "https://dc.lft.to/lastmile_qr_scan", "ios": "https://dc.lft.to/lastmile_qr_scan"}, "is_reserved": 0, "name": "3436da9dfd0e1fa9b6ad419bcb7ba9b7", "lon": -77.019944, "type": "electric_scooter", "bike_id": "3436da9dfd0e1fa9b6ad419bcb7ba9b7", "fusion_lon": 0.0, "lat": 38.89883316666667, "fusion_lat": 0.0}, {"is_disabled": 0, "rental_uris": {"android": "https://dc.lft.to/lastmile_qr_scan", "ios": "https://dc.lft.to/lastmile_qr_scan"}, "is_reserved": 0, "name": "2ca527df328ecf461b52b0e4a5059024", "lon": -76.94528366666667, "type": "electric_bike", "bike_id": "2ca527df328ecf461b52b0e4a5059024", "fusion_lon": 0.0, "lat": 38.86751133333333, "fusion_lat": 0.0}, {"is_disabled": 0, "rental_uris": {"android": "https://dc.lft.to/lastmile_qr_scan", "ios": "https://dc.lft.to/lastmile_qr_scan"}, "is_reserved": 0, "name": "4711a4c91bc65057514cede6a751361f", "lon": -77.05960833333333, "type": "electric_scooter", "bike_id": "4711a4c91bc65057514cede6a751361f", "fusion_lon": 0.0, "lat": 38.940848333333335, "fusion_lat": 0.0}, {"is_disabled": 0, "rental_uris": {"android": "https://dc.lft.to/lastmile_qr_scan", "ios": "https://dc.lft.to/lastmile_qr_scan"}, "is_reserved": 0, "name": "63a56f7be000cc4476161a2d04ea8658", "lon": -76.96554383333333, "type": "electric_scooter", "bike_id": "63a56f7be000cc4476161a2d04ea8658", "fusion_lon": 0.0, "lat": 38.918353333333336, "fusion_lat": 0.0}, {"is_disabled": 0, "rental_uris": {"android": "https://dc.lft.to/lastmile_qr_scan", "ios": "https://dc.lft.to/lastmile_qr_scan"}, "is_reserved": 0, "name": "0b0ef3386275eb64e822618afd65feac", "lon": -77.03658083333333, "type": "electric_scooter", "bike_id": "0b0ef3386275eb64e822618afd65feac", "fusion_lon": 0.0, "lat": 38.91591233333333, "fusion_lat": 0.0}, {"is_disabled": 0, "rental_uris": {"android": "https://dc.lft.to/lastmile_qr_scan", "ios": "https://dc.lft.to/lastmile_qr_scan"}, "is_reserved": 0, "name": "78beadc8426d0acb14cc6d09e60dcf88", "lon": -77.017417, "type": "electric_scooter", "bike_id": "78beadc8426d0acb14cc6d09e60dcf88", "fusion_lon": 0.0, "lat": 38.914385, "fusion_lat": 0.0}, {"is_disabled": 0, "rental_uris": {"android": "https://dc.lft.to/lastmile_qr_scan", "ios": "https://dc.lft.to/lastmile_qr_scan"}, "is_reserved": 0, "name": "385528a9e2c4de99be8daeb9a7acd9e9", "lon": -77.032969, "type": "electric_scooter", "bike_id": "385528a9e2c4de99be8daeb9a7acd9e9", "fusion_lon": 0.0, "lat": 38.93388933333333, "fusion_lat": 0.0}, {"is_disabled": 0, "rental_uris": {"android": "https://dc.lft.to/lastmile_qr_scan", "ios": "https://dc.lft.to/lastmile_qr_scan"}, "is_reserved": 0, "name": "57727f8ef00faaa73f71ea5797358450", "lon": -77.03045483333334, "type": "electric_scooter", "bike_id": "57727f8ef00faaa73f71ea5797358450", "fusion_lon": 0.0, "lat": 38.89969216666667, "fusion_lat": 0.0}, {"is_disabled": 0, "rental_uris": {"android": "https://dc.lft.to/lastmile_qr_scan", "ios": "https://dc.lft.to/lastmile_qr_scan"}, "is_reserved": 0, "name": "33e3578666c88df6fa02f5f493d4a855", "lon": -77.07306533333333, "type": "electric_scooter", "bike_id": "33e3578666c88df6fa02f5f493d4a855", "fusion_lon": 0.0, "lat": 38.9227685, "fusion_lat": 0.0}, {"is_disabled": 0, "rental_uris": {"android": "https://dc.lft.to/lastmile_qr_scan", "ios": "https://dc.lft.to/lastmile_qr_scan"}, "is_reserved": 0, "name": "1f68b26f0d7056d26b57891f3f1c8d78", "lon": -76.99071166666667, "type": "electric_scooter", "bike_id": "1f68b26f0d7056d26b57891f3f1c8d78", "fusion_lon": 0.0, "lat": 38.8635965, "fusion_lat": 0.0}, {"is_disabled": 0, "rental_uris": {"android": "https://dc.lft.to/lastmile_qr_scan", "ios": "https://dc.lft.to/lastmile_qr_scan"}, "is_reserved": 0, "name": "7db621990a9b119d253143253472f461", "lon": -77.03438283333334, "type": "electric_scooter", "bike_id": "7db621990a9b119d253143253472f461", "fusion_lon": 0.0, "lat": 38.9100775, "fusion_lat": 0.0}, {"is_disabled": 0, "rental_uris": {"android": "https://dc.lft.to/lastmile_qr_scan", "ios": "https://dc.lft.to/lastmile_qr_scan"}, "is_reserved": 0, "name": "de7a143b7ccceaa29164741e71a01ab2", "lon": -77.01458366666667, "type": "electric_scooter", "bike_id": "de7a143b7ccceaa29164741e71a01ab2", "fusion_lon": 0.0, "lat": 38.929870333333334, "fusion_lat": 0.0}, {"is_disabled": 0, "rental_uris": {"android": "https://dc.lft.to/lastmile_qr_scan", "ios": "https://dc.lft.to/lastmile_qr_scan"}, "is_reserved": 0, "name": "68e85db983833867e973a835a1e8f333", "lon": -77.01146683333333, "type": "electric_scooter", "bike_id": "68e85db983833867e973a835a1e8f333", "fusion_lon": 0.0, "lat": 38.920271, "fusion_lat": 0.0}, {"is_disabled": 0, "rental_uris": {"android": "https://dc.lft.to/lastmile_qr_scan", "ios": "https://dc.lft.to/lastmile_qr_scan"}, "is_reserved": 0, "name": "0405ff1c1b3fe53deff4a5b36886639e", "lon": -76.9955455, "type": "electric_scooter", "bike_id": "0405ff1c1b3fe53deff4a5b36886639e", "fusion_lon": 0.0, "lat": 38.883812, "fusion_lat": 0.0}, {"is_disabled": 0, "rental_uris": {"android": "https://dc.lft.to/lastmile_qr_scan", "ios": "https://dc.lft.to/lastmile_qr_scan"}, "is_reserved": 0, "name": "70ca7ebf98f88eb1947de2043996ff2f", "lon": -77.0250735, "type": "electric_scooter", "bike_id": "70ca7ebf98f88eb1947de2043996ff2f", "fusion_lon": 0.0, "lat": 38.902733, "fusion_lat": 0.0}, {"is_disabled": 0, "rental_uris": {"android": "https://dc.lft.to/lastmile_qr_scan", "ios": "https://dc.lft.to/lastmile_qr_scan"}, "is_reserved": 0, "name": "763decce8d73380e024beba16063f7c5", "lon": -77.00589033333334, "type": "electric_bike", "bike_id": "763decce8d73380e024beba16063f7c5", "fusion_lon": 0.0, "lat": 38.8368665, "fusion_lat": 0.0}, {"is_disabled": 0, "rental_uris": {"android": "https://dc.lft.to/lastmile_qr_scan", "ios": "https://dc.lft.to/lastmile_qr_scan"}, "is_reserved": 0, "name": "f90f5a3e9e32d17c5a8eea76393eb741", "lon": -77.03090883333333, "type": "electric_scooter", "bike_id": "f90f5a3e9e32d17c5a8eea76393eb741", "fusion_lon": 0.0, "lat": 38.935386, "fusion_lat": 0.0}, {"is_disabled": 0, "rental_uris": {"android": "https://dc.lft.to/lastmile_qr_scan", "ios": "https://dc.lft.to/lastmile_qr_scan"}, "is_reserved": 0, "name": "d838268c3d20048d9ce9723d903ba3ec", "lon": -76.929234, "type": "electric_bike", "bike_id": "d838268c3d20048d9ce9723d903ba3ec", "fusion_lon": 0.0, "lat": 38.902885833333336, "fusion_lat": 0.0}, {"is_disabled": 0, "rental_uris": {"android": "https://dc.lft.to/lastmile_qr_scan", "ios": "https://dc.lft.to/lastmile_qr_scan"}, "is_reserved": 0, "name": "853dbbb007eecb470efcfb5439d542f6", "lon": -76.93375583333334, "type": "electric_scooter", "bike_id": "853dbbb007eecb470efcfb5439d542f6", "fusion_lon": 0.0, "lat": 38.89914816666667, "fusion_lat": 0.0}, {"is_disabled": 0, "rental_uris": {"android": "https://dc.lft.to/lastmile_qr_scan", "ios": "https://dc.lft.to/lastmile_qr_scan"}, "is_reserved": 0, "name": "29085a90d3b29110f4fc6170ca468984", "lon": -77.0313215, "type": "electric_scooter", "bike_id": "29085a90d3b29110f4fc6170ca468984", "fusion_lon": 0.0, "lat": 38.923779333333336, "fusion_lat": 0.0}, {"is_disabled": 0, "rental_uris": {"android": "https://dc.lft.to/lastmile_qr_scan", "ios": "https://dc.lft.to/lastmile_qr_scan"}, "is_reserved": 0, "name": "7c9865a8b4e6738a555d6585b87cd1e1", "lon": -77.02222483333334, "type": "electric_scooter", "bike_id": "7c9865a8b4e6738a555d6585b87cd1e1", "fusion_lon": 0.0, "lat": 38.9126585, "fusion_lat": 0.0}, {"is_disabled": 0, "rental_uris": {"android": "https://dc.lft.to/lastmile_qr_scan", "ios": "https://dc.lft.to/lastmile_qr_scan"}, "is_reserved": 0, "name": "ffae3c8652b2624f6e425fbf887b49fb", "lon": -77.04005816666667, "type": "electric_scooter", "bike_id": "ffae3c8652b2624f6e425fbf887b49fb", "fusion_lon": 0.0, "lat": 38.91004016666667, "fusion_lat": 0.0}, {"is_disabled": 0, "rental_uris": {"android": "https://dc.lft.to/lastmile_qr_scan", "ios": "https://dc.lft.to/lastmile_qr_scan"}, "is_reserved": 0, "name": "26c74a3d479d97044138acb4b2c2a444", "lon": -76.961772, "type": "electric_bike", "bike_id": "26c74a3d479d97044138acb4b2c2a444", "fusion_lon": 0.0, "lat": 38.9186175, "fusion_lat": 0.0}, {"is_disabled": 0, "rental_uris": {"android": "https://dc.lft.to/lastmile_qr_scan", "ios": "https://dc.lft.to/lastmile_qr_scan"}, "is_reserved": 0, "name": "3870e78098572b1fbaa1c2aad7d37af7", "lon": -77.03182266666667, "type": "electric_scooter", "bike_id": "3870e78098572b1fbaa1c2aad7d37af7", "fusion_lon": 0.0, "lat": 38.91559783333334, "fusion_lat": 0.0}, {"is_disabled": 0, "rental_uris": {"android": "https://dc.lft.to/lastmile_qr_scan", "ios": "https://dc.lft.to/lastmile_qr_scan"}, "is_reserved": 0, "name": "44aa380f471f360516bba3d17ad08984", "lon": -77.03149516666667, "type": "electric_scooter", "bike_id": "44aa380f471f360516bba3d17ad08984", "fusion_lon": 0.0, "lat": 38.909623, "fusion_lat": 0.0},