{"data": {"bikes": [{"rental_uris": {"android": "https://dc.lft.to/lastmile_qr_scan", "ios": "https://dc.lft.to/lastmile_qr_scan"}, "bike_id": "5f04cdc7d99654a5e498a1c4091df778", "name": "5f04cdc7d99654a5e498a1c4091df778", "type": "electric_scooter", "lon": -77.02374366666666, "lat": 38.8792745, "is_disabled": 0, "is_reserved": 0, "fusion_lat": 0.0, "fusion_lon": 0.0}, {"rental_uris": {"android": "https://dc.lft.to/lastmile_qr_scan", "ios": "https://dc.lft.to/lastmile_qr_scan"}, "bike_id": "09093c151cbc6319b2d9ca95e2895e8d", "name": "09093c151cbc6319b2d9ca95e2895e8d", "type": "electric_scooter", "lon": -76.99980216666667, "lat": 38.874926, "is_disabled": 0, "is_reserved": 0, "fusion_lat": 0.0, "fusion_lon": 0.0}, {"rental_uris": {"android": "https://dc.lft.to/lastmile_qr_scan", "ios": "https://dc.lft.to/lastmile_qr_scan"}, "bike_id": "02fe3532ea5c4fa61ed44ddba0d1f4c3", "name": "02fe3532ea5c4fa61ed44ddba0d1f4c3", "type": "electric_scooter", "lon": -77.03353216666666, "lat": 38.886261833333336, "is_disabled": 0, "is_reserved": 0, "fusion_lat": 0.0, "fusion_lon": 0.0}, {"rental_uris": {"android": "https://dc.lft.to/lastmile_qr_scan", "ios": "https://dc.lft.to/lastmile_qr_scan"}, "bike_id": "4a320c680c226a4c1a46a1e4883f8ab7", "name": "4a320c680c226a4c1a46a1e4883f8ab7", "type": "electric_scooter", "lon": -77.073133, "lat": 38.93570833333333, "is_disabled": 0, "is_reserved": 0, "fusion_lat": 0.0, "fusion_lon": 0.0}, {"rental_uris": {"android": "https://dc.lft.to/lastmile_qr_scan", "ios": "https://dc.lft.to/lastmile_qr_scan"}, "bike_id": "daf1bcaa050ec281523718a216ffa229", "name": "daf1bcaa050ec281523718a216ffa229", "type": "electric_scooter", "lon": -77.02429666666667, "lat": 38.9562665, "is_disabled": 0, "is_reserved": 0, "fusion_lat": 0.0, "fusion_lon": 0.0}, {"rental_uris": {"android": "https://dc.lft.to/lastmile_qr_scan", "ios": "https://dc.lft.to/lastmile_qr_scan"}, "bike_id": "914a23109a970fa71bd1408971083999", "name": "914a23109a970fa71bd1408971083999", "type": "electric_scooter", "lon": -76.9853635, "lat": 38.909550333333335, "is_disabled": 0, "is_reserved": 0, "fusion_lat": 0.0, "fusion_lon": 0.0}, {"rental_uris": {"android": "https://dc.lft.to/lastmile_qr_scan", "ios": "https://dc.lft.to/lastmile_qr_scan"}, "bike_id": "5d9761cb54c72fcd439b175d53010b93", "name": "5d9761cb54c72fcd439b175d53010b93", "type": "electric_scooter", "lon": -77.04419533333333, "lat": 38.910877166666666, "is_disabled": 0, "is_reserved": 0, "fusion_lat": 0.0, "fusion_lon": 0.0}, {"rental_uris": {"android": "https://dc.lft.to/lastmile_qr_scan", "ios": "https://dc.lft.to/lastmile_qr_scan"}, "bike_id": "91613023e99501d5e93d0571ed857f60", "name": "91613023e99501d5e93d0571ed857f60", "type": "electric_scooter", "lon": -77.08595316666667, "lat": 38.908662166666666, "is_disabled": 0, "is_reserved": 0, "fusion_lat": 0.0, "fusion_lon": 0.0}, {"rental_uris": {"android": "https://dc.lft.to/lastmile_qr_scan", "ios": "https://dc.lft.to/lastmile_qr_scan"}, "bike_id": "245d6dac1cd876e3f9fa94a699f7d916", "name": "245d6dac1cd876e3f9fa94a699f7d916", "type": "electric_scooter", "lon": -77.04336766666667, "lat": 38.895258, "is_disabled": 0, "is_reserved": 0, "fusion_lat": 0.0, "fusion_lon": 0.0}, {"rental_uris": {"android": "https://dc.lft.to/lastmile_qr_scan", "ios": "https://dc.lft.to/lastmile_qr_scan"}, "bike_id": "d42cda4f47d50c3ac49a3582fd68f239", "name": "d42cda4f47d50c3ac49a3582fd68f239", "type": "electric_scooter", "lon": -76.9994845, "lat": 38.842947, "is_disabled": 0, "is_reserved": 0, "fusion_lat": 0.0, "fusion_lon": 0.0}, {"rental_uris": {"android": "https://dc.lft.to/lastmile_qr_scan", "ios": "https://dc.lft.to/lastmile_qr_scan"}, "bike_id": "5b94c720ba953d43dfe7634627ddf65a", "name": "5b94c720ba953d43dfe7634627ddf65a", "type": "electric_scooter", "lon": -76.9501875, "lat": 38.893882166666664, "is_disabled": 0, "is_reserved": 0, "fusion_lat": 0.0, "fusion_lon": 0.0}, {"rental_uris": {"android": "https://dc.lft.to/lastmile_qr_scan", "ios": "https://dc.lft.to/lastmile_qr_scan"}, "bike_id": "c6b9aaa124e1820cedc4c11fbb434e8b", "name": "c6b9aaa124e1820cedc4c11fbb434e8b", "type": "electric_scooter", "lon": -76.9646535, "lat": 38.934466666666665, "is_disabled": 0, "is_reserved": 0, "fusion_lat": 0.0, "fusion_lon": 0.0}, {"rental_uris": {"android": "https://dc.lft.to/lastmile_qr_scan", "ios": "https://dc.lft.to/lastmile_qr_scan"}, "bike_id": "6ac0190505f9c31254dfb1d19221599d", "name": "6ac0190505f9c31254dfb1d19221599d", "type": "electric_scooter", "lon": -77.02544783333333, "lat": 38.920952166666666, "is_disabled": 0, "is_reserved": 0, "fusion_lat": 0.0, "fusion_lon": 0.0}, {"rental_uris": {"android": "https://dc.lft.to/lastmile_qr_scan", "ios": "https://dc.lft.to/lastmile_qr_scan"}, "bike_id": "f3c5c0be3992f453c09d74e0720acdd9", "name": "f3c5c0be3992f453c09d74e0720acdd9", "type": "electric_scooter", "lon": -77.03688516666666, "lat": 38.90550233333333, "is_disabled": 0, "is_reserved": 0, "fusion_lat": 0.0, "fusion_lon": 0.0}, {"rental_uris": {"android": "https://dc.lft.to/lastmile_qr_scan", "ios": "https://dc.lft.to/lastmile_qr_scan"}, "bike_id": "7885f06cadcee9830c9981094409511d", "name": "7885f06cadcee9830c9981094409511d", "type": "electric_bike", "lon": -77.010311, "lat": 38.95879983333333, "is_disabled": 0, "is_reserved": 0, "fusion_lat": 0.0, "fusion_lon": 0.0}, {"rental_uris": {"android": "https://dc.lft.to/lastmile_qr_scan", "ios": "https://dc.lft.to/lastmile_qr_scan"}, "bike_id": "5c77ffe56553300fcb35fe56c2f6aec2", "name": "5c77ffe56553300fcb35fe56c2f6aec2", "type": "electric_scooter", "lon": -77.04665083333333, "lat": 38.90061983333333, "is_disabled": 0, "is_reserved": 0, "fusion_lat": 0.0, "fusion_lon": 0.0}, {"rental_uris": {"android": "https://dc.lft.to/lastmile_qr_scan", "ios": "https://dc.lft.to/lastmile_qr_scan"}, "bike_id": "7a0084e5c5de6fb8d9b2ad13532fb267", "name": "7a0084e5c5de6fb8d9b2ad13532fb267", "type": "electric_scooter", "lon": -77.05121416666667, "lat": 38.9234605, "is_disabled": 0, "is_reserved": 0, "fusion_lat": 0.0, "fusion_lon": 0.0}, {"rental_uris": {"android": "https://dc.lft.to/lastmile_qr_scan", "ios": "https://dc.lft.to/lastmile_qr_scan"}, "bike_id": "1f6ddc7c49d3cf61c2ba3bc198e57daf", "name": "1f6ddc7c49d3cf61c2ba3bc198e57daf", "type": "electric_scooter", "lon": -77.0324445, "lat": 38.928635666666665, "is_disabled": 0, "is_reserved": 0, "fusion_lat": 0.0, "fusion_lon": 0.0}, {"rental_uris": {"android": "https://dc.lft.to/lastmile_qr_scan", "ios": "https://dc.lft.to/lastmile_qr_scan"}, "bike_id": "6c78d3ec55b6976f2f8bbc48ffdda0ec", "name": "6c78d3ec55b6976f2f8bbc48ffdda0ec", "type": "electric_scooter", "lon": -76.977069, "lat": 38.902586166666666, "is_disabled": 0, "is_reserved": 0, "fusion_lat": 0.0, "fusion_lon": 0.0}, {"rental_uris": {"android": "https://dc.lft.to/lastmile_qr_scan", "ios": "https://dc.lft.to/lastmile_qr_scan"}, "bike_id": "de0bce680f264759781df81f86103af6", "name": "de0bce680f264759781df81f86103af6", "type": "electric_scooter", "lon": -77.03667233333333, "lat": 38.927235333333336, "is_disabled": 0, "is_reserved": 0, "fusion_lat": 0.0, "fusion_lon": 0.0}, {"rental_uris": {"android": "https://dc.lft.to/lastmile_qr_scan", "ios": "https://dc.lft.to/lastmile_qr_scan"}, "bike_id": "b7d2988ec4f72708a06318dd1e43e60b", "name": "b7d2988ec4f72708a06318dd1e43e60b", "type": "electric_scooter", "lon": -77.05000616666666, "lat": 38.892281, "is_disabled": 0, "is_reserved": 0, "fusion_lat": 0.0, "fusion_lon": 0.0}, {"rental_uris": {"android": "https://dc.lft.to/lastmile_qr_scan", "ios": "https://dc.lft.to/lastmile_qr_scan"}, "bike_id": "1fe19cee4c2bf17d2f601c7bb03429fd", "name": "1fe19cee4c2bf17d2f601c7bb03429fd", "type": "electric_scooter", "lon": -77.03689316666667, "lat": 38.908273333333334, "is_disabled": 0, "is_reserved": 0, "fusion_lat": 0.0, "fusion_lon": 0.0}, {"rental_uris": {"android": "https://dc.lft.to/lastmile_qr_scan", "ios": "https://dc.lft.to/lastmile_qr_scan"}, "bike_id": "1791e63a2a41c45a8915f83413df2f53", "name": "1791e63a2a41c45a8915f83413df2f53", "type": "electric_scooter", "lon": -77.0417915, "lat": 38.916677, "is_disabled": 0, "is_reserved": 0, "fusion_lat": 0.0, "fusion_lon": 0.0}, {"rental_uris": {"android": "https://dc.lft.to/lastmile_qr_scan", "ios": "https://dc.lft.to/lastmile_qr_scan"}, "bike_id": "e497cdd4d7817b766f4a350b64aeae09", "name": "e497cdd4d7817b766f4a350b64aeae09", "type": "electric_scooter", "lon": -77.02240816666666, "lat": 38.9224545, "is_disabled": 0, "is_reserved": 0, "fusion_lat": 0.0, "fusion_lon": 0.0}, {"rental_uris": {"android": "https://dc.lft.to/lastmile_qr_scan", "ios": "https://dc.lft.to/lastmile_qr_scan"}, "bike_id": "45936a2cc969759599c10608692de237", "name": "45936a2cc969759599c10608692de237", "type": "electric_scooter", "lon": -77.02394816666667, "lat": 38.91961083333333, "is_disabled": 0, "is_reserved": 0, "fusion_lat": 0.0, "fusion_lon": 0.0}, {"rental_uris": {"android": "https://dc.lft.to/lastmile_qr_scan", "ios": "https://dc.lft.to/lastmile_qr_scan"}, "bike_id": "7eb4ebf8c9573cfc141c68e59e63d1d0", "name": "7eb4ebf8c9573cfc141c68e59e63d1d0", "type": "electric_bike", "lon": -77.0791855, "lat": 38.80228183333333, "is_disabled": 0, "is_reserved": 0, "fusion_lat": 0.0, "fusion_lon": 0.0}, {"rental_uris": {"android": "https://dc.lft.to/lastmile_qr_scan", "ios": "https://dc.lft.to/lastmile_qr_scan"}, "bike_id": "7635b47cf8511740fa096424839781ba", "name": "7635b47cf8511740fa096424839781ba", "type": "electric_scooter", "lon": -77.02973633333333, "lat": 38.92258566666667, "is_disabled": 0, "is_reserved": 0, "fusion_lat": 0.0, "fusion_lon": 0.0}, {"rental_uris": {"android": "https://dc.lft.to/lastmile_qr_scan", "ios": "https://dc.lft.to/lastmile_qr_scan"}, "bike_id": "13a639299d222b8233e14133a6ab1ed8", "name": "13a639299d222b8233e14133a6ab1ed8", "type": "electric_scooter", "lon": -77.03194833333333, "lat": 38.9198925, "is_disabled": 0, "is_reserved": 0, "fusion_lat": 0.0, "fusion_lon": 0.0}, {"rental_uris": {"android": "https://dc.lft.to/lastmile_qr_scan", "ios": "https://dc.lft.to/lastmile_qr_scan"}, "bike_id": "4e9a8c903c103f8d5623ebaf83d44241", "name": "4e9a8c903c103f8d5623ebaf83d44241", "type": "electric_bike", "lon": -76.9805895, "lat": 38.9570665, "is_disabled": 0, "is_reserved": 0, "fusion_lat": 0.0, "fusion_lon": 0.0}, {"rental_uris": {"android": "https://dc.lft.to/lastmile_qr_scan", "ios": "https://dc.lft.to/lastmile_qr_scan"}, "bike_id": "7120f7e696254d32ef0b1f3392e47bdb", "name": "7120f7e696254d32ef0b1f3392e47bdb", "type": "electric_scooter", "lon": -76.9887995, "lat": 38.866606833333336, "is_disabled": 0, "is_reserved": 0, "fusion_lat": 0.0, "fusion_lon": 0.0}, {"rental_uris": {"android": "https://dc.lft.to/lastmile_qr_scan", "ios": "https://dc.lft.to/lastmile_qr_scan"}, "bike_id": "ae792630cb2a3eeaff80a84210d61bf7", "name": "ae792630cb2a3eeaff80a84210d61bf7", "type": "electric_scooter", "lon": -77.04109233333334, "lat": 38.924523666666666, "is_disabled": 0, "is_reserved": 0, "fusion_lat": 0.0, "fusion_lon": 0.0}, {"rental_uris": {"android": "https://dc.lft.to/lastmile_qr_scan", "ios": "https://dc.lft.to/lastmile_qr_scan"}, "bike_id": "8603b59b14988365664a994e294c641c", "name": "8603b59b14988365664a994e294c641c", "type": "electric_bike", "lon": -77.1609005, "lat": 38.886857666666664, "is_disabled": 0, "is_reserved": 0, "fusion_lat": 0.0, "fusion_lon": 0.0}, {"rental_uris": {"android": "https://dc.lft.to/lastmile_qr_scan", "ios": "https://dc.lft.to/lastmile_qr_scan"}, "bike_id": "8337bda94b59ec78f85204f863a65950", "name": "8337bda94b59ec78f85204f863a65950", "type": "electric_scooter", "lon": -77.01427816666667, "lat": 38.8993235, "is_disabled": 0, "is_reserved": 0, "fusion_lat": 0.0, "fusion_lon": 0.0}, {"rental_uris": {"android": "https://dc.lft.to/lastmile_qr_scan", "ios": "https://dc.lft.to/lastmile_qr_scan"}, "bike_id": "10a72f077931d124653350386add7e83", "name": "10a72f077931d124653350386add7e83", "type": "electric_bike", "lon": -77.13481616666667, "lat": 38.85356516666667, "is_disabled": 0, "is_reserved": 0, "fusion_lat": 0.0, "fusion_lon": 0.0}, {"rental_uris": {"android": "https://dc.lft.to/lastmile_qr_scan", "ios": "https://dc.lft.to/lastmile_qr_scan"}, "bike_id": "ef2e15a7f00b6b6c2f0c863d2fbd418e", "name": "ef2e15a7f00b6b6c2f0c863d2fbd418e", "type": "electric_scooter", "lon": -77.00631166666666, "lat": 38.876482833333334, "is_disabled": 0, "is_reserved": 0, "fusion_lat": 0.0, "fusion_lon": 0.0}, {"rental_uris": {"android": "https://dc.lft.to/lastmile_qr_scan", "ios": "https://dc.lft.to/lastmile_qr_scan"}, "bike_id": "cb6f1053b4b22751e5e315150c42e19f", "name": "cb6f1053b4b22751e5e315150c42e19f", "type": "electric_scooter", "lon": -76.9866525, "lat": 38.90252383333333, "is_disabled": 0, "is_reserved": 0, "fusion_lat": 0.0, "fusion_lon": 0.0}, {"rental_uris": {"android": "https://dc.lft.to/lastmile_qr_scan", "ios": "https://dc.lft.to/lastmile_qr_scan"}, "bike_id": "23bdd1f9e30f16d8b11cfdf97248c966", "name": "23bdd1f9e30f16d8b11cfdf97248c966", "type": "electric_scooter", "lon": -77.03986816666666, "lat": 38.91759883333334, "is_disabled": 0, "is_reserved": 0, "fusion_lat": 0.0, "fusion_lon": 0.0}, {"rental_uris": {"android": "https://dc.lft.to/lastmile_qr_scan", "ios": "https://dc.lft.to/lastmile_qr_scan"}, "bike_id": "f924a45d65dbb785b257b8518f6ddbb6", "name": "f924a45d65dbb785b257b8518f6ddbb6", "type": "electric_scooter", "lon": -77.024212, "lat": 38.907326166666664, "is_disabled": 0, "is_reserved": 0, "fusion_lat": 0.0, "fusion_lon": 0.0}, {"rental_uris": {"android": "https://dc.lft.to/lastmile_qr_scan", "ios": "https://dc.lft.to/lastmile_qr_scan"}, "bike_id": "a194f30a4ad301109f499145e2001038", "name": "a194f30a4ad301109f499145e2001038", "type": "electric_scooter", "lon": -77.032624, "lat": 38.93723083333333, "is_disabled": 0, "is_reserved": 0, "fusion_lat": 0.0, "fusion_lon": 0.0}, {"rental_uris": {"android": "https://dc.lft.to/lastmile_qr_scan", "ios": "https://dc.lft.to/lastmile_qr_scan"}, "bike_id": "7be2bd23835dd3de03dfd303fb8589d8", "name": "7be2bd23835dd3de03dfd303fb8589d8", "type": "electric_scooter", "lon": -77.03400866666667, "lat": 38.93122916666667, "is_disabled": 0, "is_reserved": 0, "fusion_lat": 0.0, "fusion_lon": 0.0}, {"rental_uris": {"android": "https://dc.lft.to/lastmile_qr_scan", "ios": "https://dc.lft.to/lastmile_qr_scan"}, "bike_id": "12148b5d0475f4f4297d4fd37b4193f6", "name": "12148b5d0475f4f4297d4fd37b4193f6", "type": "electric_scooter", "lon": -77.00568366666667, "lat": 38.885076833333336, "is_disabled": 0, "is_reserved": 0, "fusion_lat": 0.0, "fusion_lon": 0.0}, {"rental_uris": {"android": "https://dc.lft.to/lastmile_qr_scan", "ios": "https://dc.lft.to/lastmile_qr_scan"}, "bike_id": "679ea14166d971db1eb53eb702f8a5ad", "name": "679ea14166d971db1eb53eb702f8a5ad", "type": "electric_scooter", "lon": -77.03127316666667, "lat": 38.91555233333333, "is_disabled": 0, "is_reserved": 0, "fusion_lat": 0.0, "fusion_lon": 0.0}, {"rental_uris": {"android": "https://dc.lft.to/lastmile_qr_scan", "ios": "https://dc.lft.to/lastmile_qr_scan"}, "bike_id": "9ffc971b7d3708629ee824816f8abdbb", "name": "9ffc971b7d3708629ee824816f8abdbb", "type": "electric_scooter", "lon": -77.00797233333333, "lat": 38.897158, "is_disabled": 0, "is_reserved": 0, "fusion_lat": 0.0, "fusion_lon": 0.0}, {"rental_uris": {"android": "https://dc.lft.to/lastmile_qr_scan", "ios": "https://dc.lft.to/lastmile_qr_scan"}, "bike_id": "a42868b5409c6902256c01e0976ba2db", "name": "a42868b5409c6902256c01e0976ba2db", "type": "electric_scooter", "lon": -77.03090083333333, "lat": 38.897557666666664, "is_disabled": 0, "is_reserved": 0, "fusion_lat": 0.0, "fusion_lon": 0.0}, {"rental_uris": {"android": "https://dc.lft.to/lastmile_qr_scan", "ios": "https://dc.lft.to/lastmile_qr_scan"}, "bike_id": "18a4474014a552c7f957b4066b070865", "name": "18a4474014a552c7f957b4066b070865", "type": "electric_scooter", "lon": -77.03461483333334, "lat": 38.918238833333334, "is_disabled": 0, "is_reserved": 0, "fusion_lat": 0.0, "fusion_lon": 0.0}, {"rental_uris": {"android": "https://dc.lft.to/lastmile_qr_scan", "ios": "https://dc.lft.to/lastmile_qr_scan"}, "bike_id": "048dd58e2403861aff9d05f1c69e2dc0", "name": "048dd58e2403861aff9d05f1c69e2dc0", "type": "electric_scooter", "lon": -77.04394466666666, "lat": 38.900161833333335, "is_disabled": 0, "is_reserved": 0, "fusion_lat": 0.0, "fusion_lon": 0.0}, {"rental_uris": {"android": "https://dc.lft.to/lastmile_qr_scan", "ios": "https://dc.lft.to/lastmile_qr_scan"}, "bike_id": "28ee0e3da45fa09b5f7cb20033d13425", "name": "28ee0e3da45fa09b5f7cb20033d13425", "type": "electric_bike", "lon": -76.98108383333333, "lat": 38.87731, "is_disabled": 0, "is_reserved": 0, "fusion_lat": 0.0, "fusion_lon": 0.0}, {"rental_uris": {"android": "https://dc.lft.to/lastmile_qr_scan", "ios": "https://dc.lft.to/lastmile_qr_scan"}, "bike_id": "121377a2de91b870f504f1c29a6dfb09", "name": "121377a2de91b870f504f1c29a6dfb09", "type": "electric_scooter", "lon": -76.98887666666667, "lat": 38.90444566666667, "is_disabled": 0, "is_reserved": 0, "fusion_lat": 0.0, "fusion_lon": 0.0}, {"rental_uris": {"android": "https://dc.lft.to/lastmile_qr_scan", "ios": "https://dc.lft.to/lastmile_qr_scan"}, "bike_id": "9ba05331d86d0b4d87fc83d917feb196", "name": "9ba05331d86d0b4d87fc83d917feb196", "type": "electric_scooter", "lon": -77.05531483333333, "lat": 38.9301575, "is_disabled": 0, "is_reserved": 0, "fusion_lat": 0.0, "fusion_lon": 0.0}, {"rental_uris": {"android": "https://dc.lft.to/lastmile_qr_scan", "ios": "https://dc.lft.to/lastmile_qr_scan"}, "bike_id": "162e8b6cbb000fb93ba0039f7fad4909", "name": "162e8b6cbb000fb93ba0039f7fad4909", "type": "electric_scooter", "lon": -77.02422833333334, "lat": 38.907313, "is_disabled": 0, "is_reserved": 0, "fusion_lat": 0.0, "fusion_lon": 0.0}, {"rental_uris": {"android": "https://dc.lft.to/lastmile_qr_scan", "ios": "https://dc.lft.to/lastmile_qr_scan"}, "bike_id": "c081059e91c94339b94dbf4352f32032", "name": "c081059e91c94339b94dbf4352f32032", "type": "electric_scooter", "lon": -77.0363315, "lat": 38.917365333333336, "is_disabled": 0, "is_reserved": 0, "fusion_lat": 0.0, "fusion_lon": 0.0}, {"rental_uris": {"android": "https://dc.lft.to/lastmile_qr_scan", "ios": "https://dc.lft.to/lastmile_qr_scan"}, "bike_id": "5581180b5fbdfa1d7bcc3cd218b3d223", "name": "5581180b5fbdfa1d7bcc3cd218b3d223", "type": "electric_scooter", "lon": -76.99350116666666, "lat": 38.914823, "is_disabled": 0, "is_reserved": 0, "fusion_lat": 0.0, "fusion_lon": 0.0}, {"rental_uris": {"android": "https://dc.lft.to/lastmile_qr_scan", "ios": "https://dc.lft.to/lastmile_qr_scan"}, "bike_id": "51ad0929dfb2b4aa12fc48cc370dc640", "name": "51ad0929dfb2b4aa12fc48cc370dc640", "type": "electric_scooter", "lon": -77.03217583333333, "lat": 38.9132595, "is_disabled": 0, "is_reserved": 0, "fusion_lat": 0.0, "fusion_lon": 0.0}, {"rental_uris": {"android": "https://dc.lft.to/lastmile_qr_scan", "ios": "https://dc.lft.to/lastmile_qr_scan"}, "bike_id": "3ffc4bcf5b4d1ecbf432b3e024675c77", "name": "3ffc4bcf5b4d1ecbf432b3e024675c77", "type": "electric_scooter", "lon": -77.02719466666667, "lat": 38.94958866666666, "is_disabled": 0, "is_reserved": 0, "fusion_lat": 0.0, "fusion_lon": 0.0}, {"rental_uris": {"android": "https://dc.lft.to/lastmile_qr_scan", "ios": "https://dc.lft.to/lastmile_qr_scan"}, "bike_id": "146466594d98ab8a601383b7ff97cde1", "name": "146466594d98ab8a601383b7ff97cde1", "type": "electric_scooter", "lon": -77.03470816666666, "lat": 38.917000333333334, "is_disabled": 0, "is_reserved": 0, "fusion_lat": 0.0, "fusion_lon": 0.0}, {"rental_uris": {"android": "https://dc.lft.to/lastmile_qr_scan", "ios": "https://dc.lft.to/lastmile_qr_scan"}, "bike_id": "7fd926d3671586988d7d3c50664ed092", "name": "7fd926d3671586988d7d3c50664ed092", "type": "electric_scooter", "lon": -77.01594433333334, "lat": 38.94937133333333, "is_disabled": 0, "is_reserved": 0, "fusion_lat": 0.0, "fusion_lon": 0.0}, {"rental_uris": {"android": "https://dc.lft.to/lastmile_qr_scan", "ios": "https://dc.lft.to/lastmile_qr_scan"}, "bike_id": "948992f3480a935377d0ba787628b19c", "name": "948992f3480a935377d0ba787628b19c", "type": "electric_scooter", "lon": -77.05856466666667, "lat": 38.936086833333334, "is_disabled": 0, "is_reserved": 0, "fusion_lat": 0.0, "fusion_lon": 0.0}, {"rental_uris": {"android": "https://dc.lft.to/lastmile_qr_scan", "ios": "https://dc.lft.to/lastmile_qr_scan"}, "bike_id": "139ff80141d95ed9acca90a240dd884e", "name": "139ff80141d95ed9acca90a240dd884e", "type": "electric_scooter", "lon": -77.02564433333333, "lat": 38.92097966666667, "is_disabled": 0, "is_reserved": 0, "fusion_lat": 0.0, "fusion_lon": 0.0}, {"rental_uris": {"android": "https://dc.lft.to/lastmile_qr_scan", "ios": "https://dc.lft.to/lastmile_qr_scan"}, "bike_id": "2828e900bf46a65af1a1231637cfdecb", "name": "2828e900bf46a65af1a1231637cfdecb", "type": "electric_scooter", "lon": -77.03466683333333, "lat": 38.90398866666666, "is_disabled": 0, "is_reserved": 0, "fusion_lat": 0.0, "fusion_lon": 0.0}, {"rental_uris": {"android": "https://dc.lft.to/lastmile_qr_scan", "ios": "https://dc.lft.to/lastmile_qr_scan"}, "bike_id": "f345f07a2c4c0f36cde2b472443be437", "name": "f345f07a2c4c0f36cde2b472443be437", "type": "electric_scooter", "lon": -77.03871283333334, "lat": 38.904737, "is_disabled": 0, "is_reserved": 0, "fusion_lat": 0.0, "fusion_lon": 0.0}, {"rental_uris": {"android": "https://dc.lft.to/lastmile_qr_scan", "ios": "https://dc.lft.to/lastmile_qr_scan"}, "bike_id": "912a6c904b5af11450e7df6a4c627993", "name": "912a6c904b5af11450e7df6a4c627993", "type": "electric_scooter", "lon": -77.04598483333334, "lat": 38.91916233333333, "is_disabled": 0, "is_reserved": 0, "fusion_lat": 0.0, "fusion_lon": 0.0}, {"rental_uris": {"android": "https://dc.lft.to/lastmile_qr_scan", "ios": "https://dc.lft.to/lastmile_qr_scan"}, "bike_id": "61a5784c26f9f2fd6dfc2d5d04fb4815", "name": "61a5784c26f9f2fd6dfc2d5d04fb4815", "type": "electric_scooter", "lon": -77.0243065, "lat": 38.902814666666664, "is_disabled": 0, "is_reserved": 0, "fusion_lat": 0.0, "fusion_lon": 0.0}, {"rental_uris": {"android": "https://dc.lft.to/lastmile_qr_scan", "ios": "https://dc.lft.to/lastmile_qr_scan"}, "bike_id": "6feccb77f06ed0f637e2744f07065a8b", "name": "6feccb77f06ed0f637e2744f07065a8b", "type": "electric_scooter", "lon": -77.0425055, "lat": 38.90821833333333, "is_disabled": 0, "is_reserved": 0, "fusion_lat": 0.0, "fusion_lon": 0.0}, {"rental_uris": {"android": "https://dc.lft.to/lastmile_qr_scan", "ios": "https://dc.lft.to/lastmile_qr_scan"}, "bike_id": "f3edc1a350be98682617f9a972945166", "name": "f3edc1a350be98682617f9a972945166", "type": "electric_scooter", "lon": -77.04326783333333, "lat": 38.90378916666667, "is_disabled": 0, "is_reserved": 0, "fusion_lat": 0.0, "fusion_lon": 0.0}, {"rental_uris": {"android": "https://dc.lft.to/lastmile_qr_scan", "ios": "https://dc.lft.to/lastmile_qr_scan"}, "bike_id": "288aafd01ad6d75ea71b2962b0f469f8", "name": "288aafd01ad6d75ea71b2962b0f469f8", "type": "electric_scooter", "lon": -77.04193633333334, "lat": 38.901216166666664, "is_disabled": 0, "is_reserved": 0, "fusion_lat": 0.0, "fusion_lon": 0.0}, {"rental_uris": {"android": "https://dc.lft.to/lastmile_qr_scan", "ios": "https://dc.lft.to/lastmile_qr_scan"}, "bike_id": "7a5d7b1bcb20d4a1a97ce5b97829944b", "name": "7a5d7b1bcb20d4a1a97ce5b97829944b", "type": "electric_scooter", "lon": -77.01429116666667, "lat": 38.8993815, "is_disabled": 0, "is_reserved": 0, "fusion_lat": 0.0, "fusion_lon": 0.0}, {"rental_uris": {"android": "https://dc.lft.to/lastmile_qr_scan", "ios": "https://dc.lft.to/lastmile_qr_scan"}, "bike_id": "7329dc341d366e19896b60a55e0a66b7", "name": "7329dc341d366e19896b60a55e0a66b7", "type": "electric_scooter", "lon": -77.03208816666667, "lat": 38.89586516666667, "is_disabled": 0, "is_reserved": 0, "fusion_lat": 0.0, "fusion_lon": 0.0}, {"rental_uris": {"android": "https://dc.lft.to/lastmile_qr_scan", "ios": "https://dc.lft.to/lastmile_qr_scan"}, "bike_id": "9bba475adb48e7c3577e09df113e7c78", "name": "9bba475adb48e7c3577e09df113e7c78", "type": "electric_scooter", "lon": -77.017461, "lat": 38.872727833333336, "is_disabled": 0, "is_reserved": 0, "fusion_lat": 0.0, "fusion_lon": 0.0}, {"rental_uris": {"android": "https://dc.lft.to/lastmile_qr_scan", "ios": "https://dc.lft.to/lastmile_qr_scan"}, "bike_id": "321d30bf9455f5d9f9a4d53a9e4900a6", "name": "321d30bf9455f5d9f9a4d53a9e4900a6", "type": "electric_scooter", "lon": -77.03499116666667, "lat": 38.91694666666667, "is_disabled": 0, "is_reserved": 0, "fusion_lat": 0.0, "fusion_lon": 0.0}, {"rental_uris": {"android": "https://dc.lft.to/lastmile_qr_scan", "ios": "https://dc.lft.to/lastmile_qr_scan"}, "bike_id": "2b517aa4dfd87867c4318a25caa701f3", "name": "2b517aa4dfd87867c4318a25caa701f3", "type": "electric_scooter", "lon": -76.93351933333334, "lat": 38.899114833333336, "is_disabled": 0, "is_reserved": 0, "fusion_lat": 0.0, "fusion_lon": 0.0}, {"rental_uris": {"android": "https://dc.lft.to/lastmile_qr_scan", "ios": "https://dc.lft.to/lastmile_qr_scan"}, "bike_id": "eb8cbad25ffb038827e3971b74fcf94a", "name": "eb8cbad25ffb038827e3971b74fcf94a", "type": "electric_scooter", "lon": -77.04390666666667, "lat": 38.912578, "is_disabled": 0, "is_reserved": 0, "fusion_lat": 0.0, "fusion_lon": 0.0}, {"rental_uris": {"android": "https://dc.lft.to/lastmile_qr_scan", "ios": "https://dc.lft.to/lastmile_qr_scan"}, "bike_id": "bf9676d2aef27bc1f316364a74e79834", "name": "bf9676d2aef27bc1f316364a74e79834", "type": "electric_scooter", "lon": -77.01754616666666, "lat": 38.87502816666667, "is_disabled": 0, "is_reserved": 0, "fusion_lat": 0.0, "fusion_lon": 0.0}, {"rental_uris": {"android": "https://dc.lft.to/lastmile_qr_scan", "ios": "https://dc.lft.to/lastmile_qr_scan"}, "bike_id": "b76dd58c03072cf00ccb1c292ad203cd", "name": "b76dd58c03072cf00ccb1c292ad203cd", "type": "electric_scooter", "lon": -77.02551466666667, "lat": 38.880648, "is_disabled": 0, "is_reserved": 0, "fusion_lat": 0.0, "fusion_lon": 0.0}, {"rental_uris": {"android": "https://dc.lft.to/lastmile_qr_scan", "ios": "https://dc.lft.to/lastmile_qr_scan"}, "bike_id": "2ee6a8f79ef87e736c370cc6d2c38042", "name": "2ee6a8f79ef87e736c370cc6d2c38042", "type": "electric_scooter", "lon": -77.05852183333333, "lat": 38.9358785, "is_disabled": 0, "is_reserved": 0, "fusion_lat": 0.0, "fusion_lon": 0.0}, {"rental_uris": {"android": "https://dc.lft.to/lastmile_qr_scan", "ios": "https://dc.lft.to/lastmile_qr_scan"}, "bike_id": "5183ad9d6b606e8baeac6b305f68e9d0", "name": "5183ad9d6b606e8baeac6b305f68e9d0", "type": "electric_scooter", "lon": -77.02695383333334, "lat": 38.9112385, "is_disabled": 0, "is_reserved": 0, "fusion_lat": 0.0, "fusion_lon": 0.0}, {"rental_uris": {"android": "https://dc.lft.to/lastmile_qr_scan", "ios": "https://dc.lft.to/lastmile_qr_scan"}, "bike_id": "ec14cf92cdd6ed3aa8222ef36f3f73b0", "name": "ec14cf92cdd6ed3aa8222ef36f3f73b0", "type": "electric_scooter", "lon": -77.03227866666667, "lat": 38.91405066666667, "is_disabled": 0, "is_reserved": 0, "fusion_lat": 0.0, "fusion_lon": 0.0}, {"rental_uris": {"android": "https://dc.lft.to/lastmile_qr_scan", "ios": "https://dc.lft.to/lastmile_qr_scan"}, "bike_id": "306f3517875a3ed3935258b2904c7e7a", "name": "306f3517875a3ed3935258b2904c7e7a", "type": "electric_scooter", "lon": -77.04488466666666, "lat": 38.91935633333333, "is_disabled": 0, "is_reserved": 0, "fusion_lat": 0.0, "fusion_lon": 0.0}, {"rental_uris": {"android": "https://dc.lft.to/lastmile_qr_scan", "ios": "https://dc.lft.to/lastmile_qr_scan"}, "bike_id": "fe4292eef913eed999bc9f125f706052", "name": "fe4292eef913eed999bc9f125f706052", "type": "electric_scooter", "lon": -77.05187983333333, "lat": 38.90372083333333, "is_disabled": 0, "is_reserved": 0, "fusion_lat": 0.0, "fusion_lon": 0.0}, {"rental_uris": {"android": "https://dc.lft.to/lastmile_qr_scan", "ios": "https://dc.lft.to/lastmile_qr_scan"}, "bike_id": "5b505f93bf56ec8d4fe387c788b7eefe", "name": "5b505f93bf56ec8d4fe387c788b7eefe", "type": "electric_scooter", "lon": -77.02883216666666, "lat": 38.904347333333334, "is_disabled": 0, "is_reserved": 0, "fusion_lat": 0.0, "fusion_lon": 0.0}, {"rental_uris": {"android": "https://dc.lft.to/lastmile_qr_scan", "ios": "https://dc.lft.to/lastmile_qr_scan"}, "bike_id": "2bf7824fc32d4d60afad62b027e0c6ea", "name": "2bf7824fc32d4d60afad62b027e0c6ea", "type": "electric_scooter", "lon": -77.01766933333333, "lat": 38.88707933333333, "is_disabled": 0, "is_reserved": 0, "fusion_lat": 0.0, "fusion_lon": 0.0}, {"rental_uris": {"android": "https://dc.lft.to/lastmile_qr_scan", "ios": "https://dc.lft.to/lastmile_qr_scan"}, "bike_id": "769f40b6e36d5d5f44ce96e8dc025d0b", "name": "769f40b6e36d5d5f44ce96e8dc025d0b", "type": "electric_scooter", "lon": -77.04188216666667, "lat": 38.911236333333335, "is_disabled": 0, "is_reserved": 0, "fusion_lat": 0.0, "fusion_lon": 0.0}, {"rental_uris": {"android": "https://dc.lft.to/lastmile_qr_scan", "ios": "https://dc.lft.to/lastmile_qr_scan"}, "bike_id": "680ef4d1c5f59a66afc72d3328823a62", "name": "680ef4d1c5f59a66afc72d3328823a62", "type": "electric_scooter", "lon": -77.03345366666667, "lat": 38.935095833333335, "is_disabled": 0, "is_reserved": 0, "fusion_lat": 0.0, "fusion_lon": 0.0}, {"rental_uris": {"android": "https://dc.lft.to/lastmile_qr_scan", "ios": "https://dc.lft.to/lastmile_qr_scan"}, "bike_id": "7e6ebb18b0714721595d796e0605ade2", "name": "7e6ebb18b0714721595d796e0605ade2", "type": "electric_scooter", "lon": -77.03243383333333, "lat": 38.923656, "is_disabled": 0, "is_reserved": 0, "fusion_lat": 0.0, "fusion_lon": 0.0}, {"rental_uris": {"android": "https://dc.lft.to/lastmile_qr_scan", "ios": "https://dc.lft.to/lastmile_qr_scan"}, "bike_id": "2ff83460d1c9bd73e4bb4417a7bda08c", "name": "2ff83460d1c9bd73e4bb4417a7bda08c", "type": "electric_bike", "lon": -76.92334116666666, "lat": 38.8710485, "is_disabled": 0, "is_reserved": 0, "fusion_lat": 0.0, "fusion_lon": 0.0}, {"rental_uris": {"android": "https://dc.lft.to/lastmile_qr_scan", "ios": "https://dc.lft.to/lastmile_qr_scan"}, "bike_id": "58a2cdc4f6006f8843fb24f60ab91576", "name": "58a2cdc4f6006f8843fb24f60ab91576", "type": "electric_scooter", "lon": -76.96707316666667, "lat": 38.848016, "is_disabled": 0, "is_reserved": 0, "fusion_lat": 0.0, "fusion_lon": 0.0}, {"rental_uris": {"android": "https://dc.lft.to/lastmile_qr_scan", "ios": "https://dc.lft.to/lastmile_qr_scan"}, "bike_id": "55aca77798e588b72741fb0ae9b1bac3", "name": "55aca77798e588b72741fb0ae9b1bac3", "type": "electric_scooter", "lon": -77.02404366666667, "lat": 38.917465666666665, "is_disabled": 0, "is_reserved": 0, "fusion_lat": 0.0, "fusion_lon": 0.0}, {"rental_uris": {"android": "https://dc.lft.to/lastmile_qr_scan", "ios": "https://dc.lft.to/lastmile_qr_scan"}, "bike_id": "352d60dce82bf7d25ee6486399d4af94", "name": "352d60dce82bf7d25ee6486399d4af94", "type": "electric_scooter", "lon": -77.047047, "lat": 38.902193, "is_disabled": 0, "is_reserved": 0, "fusion_lat": 0.0, "fusion_lon": 0.0}, {"rental_uris": {"android": "https://dc.lft.to/lastmile_qr_scan", "ios": "https://dc.lft.to/lastmile_qr_scan"}, "bike_id": "f28ccce0273bfbf51dc665e6a13bd632", "name": "f28ccce0273bfbf51dc665e6a13bd632", "type": "electric_scooter", "lon": -77.02348483333333, "lat": 38.946178833333335, "is_disabled": 0, "is_reserved": 0, "fusion_lat": 0.0, "fusion_lon": 0.0}, {"rental_uris": {"android": "https://dc.lft.to/lastmile_qr_scan", "ios": "https://dc.lft.to/lastmile_qr_scan"}, "bike_id": "4f6884fc237d4b94eabbbec3d33eafbf", "name": "4f6884fc237d4b94eabbbec3d33eafbf", "type": "electric_scooter", "lon": -77.03365616666666, "lat": 38.9288335, "is_disabled": 0, "is_reserved": 0, "fusion_lat": 0.0, "fusion_lon": 0.0}, {"rental_uris": {"android": "https://dc.lft.to/lastmile_qr_scan", "ios": "https://dc.lft.to/lastmile_qr_scan"}, "bike_id": "918b468aa1dfd36e61697735ddda99ff", "name": "918b468aa1dfd36e61697735ddda99ff", "type": "electric_bike", "lon": -77.01050133333334, "lat": 38.8776305, "is_disabled": 0, "is_reserved": 0, "fusion_lat": 0.0, "fusion_lon": 0.0}, {"rental_uris": {"android": "https://dc.lft.to/lastmile_qr_scan", "ios": "https://dc.lft.to/lastmile_qr_scan"}, "bike_id": "8bc726da4010d33d2a4cf0defc144235", "name": "8bc726da4010d33d2a4cf0defc144235", "type": "electric_scooter", "lon": -77.05134883333334, "lat": 38.907148166666666, "is_disabled": 0, "is_reserved": 0, "fusion_lat": 0.0, "fusion_lon": 0.0}, {"rental_uris": {"android": "https://dc.lft.to/lastmile_qr_scan", "ios": "https://dc.lft.to/lastmile_qr_scan"}, "bike_id": "9d002ffd2d8fb7f86ed7356e1d5f0938", "name": "9d002ffd2d8fb7f86ed7356e1d5f0938", "type": "electric_scooter", "lon": -77.02483616666666, "lat": 38.92069166666667, "is_disabled": 0, "is_reserved": 0, "fusion_lat": 0.0, "fusion_lon": 0.0}, {"rental_uris": {"android": "https://dc.lft.to/lastmile_qr_scan", "ios": "https://dc.lft.to/lastmile_qr_scan"}, "bike_id": "8e5b187df64064831a71f374f3a470ea", "name": "8e5b187df64064831a71f374f3a470ea", "type": "electric_scooter", "lon": -76.999345, "lat": 38.892036, "is_disabled": 0, "is_reserved": 0, "fusion_lat": 0.0, "fusion_lon": 0.0}, {"rental_uris": {"android": "https://dc.lft.to/lastmile_qr_scan", "ios": "https://dc.lft.to/lastmile_qr_scan"}, "bike_id": "5e49ca91b4ff4ad42ac96aa25c32cab7", "name": "5e49ca91b4ff4ad42ac96aa25c32cab7", "type": "electric_bike", "lon": -76.97240583333334, "lat": 38.94902616666667, "is_disabled": 0, "is_reserved": 0, "fusion_lat": 0.0, "fusion_lon": 0.0}, {"rental_uris": {"android": "https://dc.lft.to/lastmile_qr_scan", "ios": "https://dc.lft.to/lastmile_qr_scan"}, "bike_id": "ef7fa3dcfbe3da5e20c44e01a1b6e325", "name": "ef7fa3dcfbe3da5e20c44e01a1b6e325", "type": "electric_scooter", "lon": -77.0220725, "lat": 38.88643916666667, "is_disabled": 0, "is_reserved": 0, "fusion_lat": 0.0, "fusion_lon": 0.0}, {"rental_uris": {"android": "https://dc.lft.to/lastmile_qr_scan", "ios": "https://dc.lft.to/lastmile_qr_scan"}, "bike_id": "c58cc8830cb9390f139d75dceb508c27", "name": "c58cc8830cb9390f139d75dceb508c27", "type": "electric_scooter", "lon": -77.05519733333334, "lat": 38.9296635, "is_disabled": 0, "is_reserved": 0, "fusion_lat": 0.0, "fusion_lon": 0.0}, {"rental_uris": {"android": "https://dc.lft.to/lastmile_qr_scan", "ios": "https://dc.lft.to/lastmile_qr_scan"}, "bike_id": "d13cbd48bb7ea7836f93f94694824e86", "name": "d13cbd48bb7ea7836f93f94694824e86", "type": "electric_scooter", "lon": -77.02985983333333, "lat": 38.93451616666667, "is_disabled": 0, "is_reserved": 0, "fusion_lat": 0.0, "fusion_lon": 0.0}, {"rental_uris": {"android": "https://dc.lft.to/lastmile_qr_scan", "ios": "https://dc.lft.to/lastmile_qr_scan"}, "bike_id": "15fe2e558d7813f2b02debe643efa192", "name": "15fe2e558d7813f2b02debe643efa192", "type": "electric_bike", "lon": -77.098216, "lat": 38.99125383333333, "is_disabled": 0, "is_reserved": 0, "fusion_lat": 0.0, "fusion_lon": 0.0}, {"rental_uris": {"android": "https://dc.lft.to/lastmile_qr_scan", "ios": "https://dc.lft.to/lastmile_qr_scan"}, "bike_id": "e05f7d9dac1220143de12535439b472e", "name": "e05f7d9dac1220143de12535439b472e", "type": "electric_scooter", "lon": -77.00129683333333, "lat": 38.905401833333336, "is_disabled": 0, "is_reserved": 0, "fusion_lat": 0.0, "fusion_lon": 0.0}, {"rental_uris": {"android": "https://dc.lft.to/lastmile_qr_scan", "ios": "https://dc.lft.to/lastmile_qr_scan"}, "bike_id": "64c955e9095c8744890721c2872f6602", "name": "64c955e9095c8744890721c2872f6602", "type": "electric_scooter", "lon": -77.02097816666667, "lat": 38.92711033333333, "is_disabled": 0, "is_reserved": 0, "fusion_lat": 0.0, "fusion_lon": 0.0}, {"rental_uris": {"android": "https://dc.lft.to/lastmile_qr_scan", "ios": "https://dc.lft.to/lastmile_qr_scan"}, "bike_id": "9fc9d7c6c3c6bee37fe62b46129b9a08", "name": "9fc9d7c6c3c6bee37fe62b46129b9a08", "type": "electric_scooter", "lon": -76.99330516666667, "lat": 38.9244685, "is_disabled": 0, "is_reserved": 0, "fusion_lat": 0.0, "fusion_lon": 0.0}, {"rental_uris": {"android": "https://dc.lft.to/lastmile_qr_scan", "ios": "https://dc.lft.to/lastmile_qr_scan"}, "bike_id": "7f9122c24443ff1223c9f9fb9abd68af", "name": "7f9122c24443ff1223c9f9fb9abd68af", "type": "electric_bike", "lon": -77.08589033333334, "lat": 38.8443915, "is_disabled": 0, "is_reserved": 0, "fusion_lat": 0.0, "fusion_lon": 0.0}, {"rental_uris": {"android": "https://dc.lft.to/lastmile_qr_scan", "ios": "https://dc.lft.to/lastmile_qr_scan"}, "bike_id": "c599129765240edf41839b4548153d63", "name": "c599129765240edf41839b4548153d63", "type": "electric_scooter", "lon": -77.03473133333334, "lat": 38.925378333333335, "is_disabled": 0, "is_reserved": 0, "fusion_lat": 0.0, "fusion_lon": 0.0}, {"rental_uris": {"android": "https://dc.lft.to/lastmile_qr_scan", "ios": "https://dc.lft.to/lastmile_qr_scan"}, "bike_id": "3bd54591835f09d6caf423c139be018c", "name": "3bd54591835f09d6caf423c139be018c", "type": "electric_scooter", "lon": -76.98113983333333, "lat": 38.914622333333334, "is_disabled": 0, "is_reserved": 0, "fusion_lat": 0.0, "fusion_lon": 0.0}, {"rental_uris": {"android": "https://dc.lft.to/lastmile_qr_scan", "ios": "https://dc.lft.to/lastmile_qr_scan"}, "bike_id": "042b8a6833a8432d82b595daebb7a7a2", "name": "042b8a6833a8432d82b595daebb7a7a2", "type": "electric_scooter", "lon": -77.03184283333333, "lat": 38.9238155, "is_disabled": 0, "is_reserved": 0, "fusion_lat": 0.0, "fusion_lon": 0.0}, {"rental_uris": {"android": "https://dc.lft.to/lastmile_qr_scan", "ios": "https://dc.lft.to/lastmile_qr_scan"}, "bike_id": "b4c85c2eeac276cce7bd851dc1b2b595", "name": "b4c85c2eeac276cce7bd851dc1b2b595", "type": "electric_scooter", "lon": -77.00593583333334, "lat": 38.90571766666667, "is_disabled": 0, "is_reserved": 0, "fusion_lat": 0.0, "fusion_lon": 0.0}, {"rental_uris": {"android": "https://dc.lft.to/lastmile_qr_scan", "ios": "https://dc.lft.to/lastmile_qr_scan"}, "bike_id": "2e3fc9e95351bfbda5b8eda519663fce", "name": "2e3fc9e95351bfbda5b8eda519663fce", "type": "electric_scooter", "lon": -77.07245, "lat": 38.93952733333333, "is_disabled": 0, "is_reserved": 0, "fusion_lat": 0.0, "fusion_lon": 0.0}, {"rental_uris": {"android": "https://dc.lft.to/lastmile_qr_scan", "ios": "https://dc.lft.to/lastmile_qr_scan"}, "bike_id": "77a5958ffed8b3332ae41ef76ba44eea", "name": "77a5958ffed8b3332ae41ef76ba44eea", "type": "electric_scooter", "lon": -77.01200883333334, "lat": 38.90012516666667, "is_disabled": 0, "is_reserved": 0, "fusion_lat": 0.0, "fusion_lon": 0.0}, {"rental_uris": {"android": "https://dc.lft.to/lastmile_qr_scan", "ios": "https://dc.lft.to/lastmile_qr_scan"}, "bike_id": "77390934a0bb6893425f94c5927c7b80", "name": "77390934a0bb6893425f94c5927c7b80", "type": "electric_scooter", "lon": -77.03224766666666, "lat": 38.908657, "is_disabled": 0, "is_reserved": 0, "fusion_lat": 0.0, "fusion_lon": 0.0}, {"rental_uris": {"android": "https://dc.lft.to/lastmile_qr_scan", "ios": "https://dc.lft.to/lastmile_qr_scan"}, "bike_id": "6980b7befc3281bbdae1e4e45c69fac1", "name": "6980b7befc3281bbdae1e4e45c69fac1", "type": "electric_scooter", "lon": -77.01797666666667, "lat": 38.876748666666664, "is_disabled": 0, "is_reserved": 0, "fusion_lat": 0.0, "fusion_lon": 0.0}, {"rental_uris": {"android": "https://dc.lft.to/lastmile_qr_scan", "ios": "https://dc.lft.to/lastmile_qr_scan"}, "bike_id": "f42b8e9089c2d4984b090d7f1a2c8d0e", "name": "f42b8e9089c2d4984b090d7f1a2c8d0e", "type": "electric_scooter", "lon": -76.977129, "lat": 38.8882105, "is_disabled": 0, "is_reserved": 0, "fusion_lat": 0.0, "fusion_lon": 0.0}, {"rental_uris": {"android": "https://dc.lft.to/lastmile_qr_scan", "ios": "https://dc.lft.to/lastmile_qr_scan"}, "bike_id": "c0c05c92d84a3641075d4b7bfd0466fa", "name": "c0c05c92d84a3641075d4b7bfd0466fa", "type": "electric_scooter", "lon": -77.041679, "lat": 38.9173035, "is_disabled": 0, "is_reserved": 0, "fusion_lat": 0.0, "fusion_lon": 0.0}, {"rental_uris": {"android": "https://dc.lft.to/lastmile_qr_scan", "ios": "https://dc.lft.to/lastmile_qr_scan"}, "bike_id": "b0c967e1d99d32d71a3a288613cb181a", "name": "b0c967e1d99d32d71a3a288613cb181a", "type": "electric_scooter", "lon": -77.04176466666667, "lat": 38.9188025, "is_disabled": 0, "is_reserved": 0, "fusion_lat": 0.0, "fusion_lon": 0.0}, {"rental_uris": {"android": "https://dc.lft.to/lastmile_qr_scan", "ios": "https://dc.lft.to/lastmile_qr_scan"}, "bike_id": "59d49f71543ff069a9341b543377f9d3", "name": "59d49f71543ff069a9341b543377f9d3", "type": "electric_scooter", "lon": -77.03251933333334, "lat": 38.91813666666667, "is_disabled": 0, "is_reserved": 0, "fusion_lat": 0.0, "fusion_lon": 0.0}, {"rental_uris": {"android": "https://dc.lft.to/lastmile_qr_scan", "ios": "https://dc.lft.to/lastmile_qr_scan"}, "bike_id": "bd59773d3ed3a31a2566d6169f937e2d", "name": "bd59773d3ed3a31a2566d6169f937e2d", "type": "electric_scooter", "lon": -76.995309, "lat": 38.86247916666667, "is_disabled": 0, "is_reserved": 0, "fusion_lat": 0.0, "fusion_lon": 0.0}, {"rental_uris": {"android": "https://dc.lft.to/lastmile_qr_scan", "ios": "https://dc.lft.to/lastmile_qr_scan"}, "bike_id": "38e4ad4d8eaceca266a5689f5348cb75", "name": "38e4ad4d8eaceca266a5689f5348cb75", "type": "electric_scooter", "lon": -76.983812, "lat": 38.86122983333333, "is_disabled": 0, "is_reserved": 0, "fusion_lat": 0.0, "fusion_lon": 0.0}, {"rental_uris": {"android": "https://dc.lft.to/lastmile_qr_scan", "ios": "https://dc.lft.to/lastmile_qr_scan"}, "bike_id": "ada0d9a815669388dbe272c6da2dc939", "name": "ada0d9a815669388dbe272c6da2dc939", "type": "electric_scooter", "lon": -77.0457345, "lat": 38.9177125, "is_disabled": 0, "is_reserved": 0, "fusion_lat": 0.0, "fusion_lon": 0.0}, {"rental_uris": {"android": "https://dc.lft.to/lastmile_qr_scan", "ios": "https://dc.lft.to/lastmile_qr_scan"}, "bike_id": "dc8a00b0da8660d5e1f6150dd25695fa", "name": "dc8a00b0da8660d5e1f6150dd25695fa", "type": "electric_scooter", "lon": -77.01785116666667, "lat": 38.91110916666667, "is_disabled": 0, "is_reserved": 0, "fusion_lat": 0.0, "fusion_lon": 0.0}, {"rental_uris": {"android": "https://dc.lft.to/lastmile_qr_scan", "ios": "https://dc.lft.to/lastmile_qr_scan"}, "bike_id": "9f97c637ab3b34268dad43c00d4a2723", "name": "9f97c637ab3b34268dad43c00d4a2723", "type": "electric_scooter", "lon": -77.0344445, "lat": 38.909484666666664, "is_disabled": 0, "is_reserved": 0, "fusion_lat": 0.0, "fusion_lon": 0.0}, {"rental_uris": {"android": "https://dc.lft.to/lastmile_qr_scan", "ios": "https://dc.lft.to/lastmile_qr_scan"}, "bike_id": "4ec99dcc0606f254aca56232ded3afb9", "name": "4ec99dcc0606f254aca56232ded3afb9", "type": "electric_scooter", "lon": -77.038496, "lat": 38.908212, "is_disabled": 0, "is_reserved": 0, "fusion_lat": 0.0, "fusion_lon": 0.0}, {"rental_uris": {"android": "https://dc.lft.to/lastmile_qr_scan", "ios": "https://dc.lft.to/lastmile_qr_scan"}, "bike_id": "0b7bc1b7619eace31c25ae3f54bda367", "name": "0b7bc1b7619eace31c25ae3f54bda367", "type": "electric_scooter", "lon": -77.04054766666667, "lat": 38.90269983333334, "is_disabled": 0, "is_reserved": 0, "fusion_lat": 0.0, "fusion_lon": 0.0}, {"rental_uris": {"android": "https://dc.lft.to/lastmile_qr_scan", "ios": "https://dc.lft.to/lastmile_qr_scan"}, "bike_id": "f85c4a42a42136e012fffee2bccb4321", "name": "f85c4a42a42136e012fffee2bccb4321", "type": "electric_scooter", "lon": -77.02914433333333, "lat": 38.898406666666666, "is_disabled": 0, "is_reserved": 0, "fusion_lat": 0.0, "fusion_lon": 0.0}, {"rental_uris": {"android": "https://dc.lft.to/lastmile_qr_scan", "ios": "https://dc.lft.to/lastmile_qr_scan"}, "bike_id": "b6da11a435fcae3a37cada3768b007b6", "name": "b6da11a435fcae3a37cada3768b007b6", "type": "electric_scooter", "lon": -77.0135085, "lat": 38.89912533333333, "is_disabled": 0, "is_reserved": 0, "fusion_lat": 0.0, "fusion_lon": 0.0}, {"rental_uris": {"android": "https://dc.lft.to/lastmile_qr_scan", "ios": "https://dc.lft.to/lastmile_qr_scan"}, "bike_id": "25c7de130e70e48c7e350e6f32531209", "name": "25c7de130e70e48c7e350e6f32531209", "type": "electric_scooter", "lon": -77.02387233333333, "lat": 38.9198225, "is_disabled": 0, "is_reserved": 0, "fusion_lat": 0.0, "fusion_lon": 0.0}, {"rental_uris": {"android": "https://dc.lft.to/lastmile_qr_scan", "ios": "https://dc.lft.to/lastmile_qr_scan"}, "bike_id": "747e2576a7d79e0bac9d8d82ca62cec7", "name": "747e2576a7d79e0bac9d8d82ca62cec7", "type": "electric_scooter", "lon": -77.04374166666666, "lat": 38.911151833333335, "is_disabled": 0, "is_reserved": 0, "fusion_lat": 0.0, "fusion_lon": 0.0}, {"rental_uris": {"android": "https://dc.lft.to/lastmile_qr_scan", "ios": "https://dc.lft.to/lastmile_qr_scan"}, "bike_id": "afdeed4a21f7cd2c9879ef20891ba19a", "name": "afdeed4a21f7cd2c9879ef20891ba19a", "type": "electric_scooter", "lon": -77.0239245, "lat": 38.89255, "is_disabled": 0, "is_reserved": 0, "fusion_lat": 0.0, "fusion_lon": 0.0}, {"rental_uris": {"android": "https://dc.lft.to/lastmile_qr_scan", "ios": "https://dc.lft.to/lastmile_qr_scan"}, "bike_id": "0575713a1d3d9911e4fc64bcfc80ba86", "name": "0575713a1d3d9911e4fc64bcfc80ba86", "type": "electric_scooter", "lon": -77.08191616666667, "lat": 38.935424833333336, "is_disabled": 0, "is_reserved": 0, "fusion_lat": 0.0, "fusion_lon": 0.0}, {"rental_uris": {"android": "https://dc.lft.to/lastmile_qr_scan", "ios": "https://dc.lft.to/lastmile_qr_scan"}, "bike_id": "c2a4930b6fe0b2f08d838d0cc2d9f698", "name": "c2a4930b6fe0b2f08d838d0cc2d9f698", "type": "electric_scooter", "lon": -77.03185483333333, "lat": 38.90010066666667, "is_disabled": 0, "is_reserved": 0, "fusion_lat": 0.0, "fusion_lon": 0.0}, {"rental_uris": {"android": "https://dc.lft.to/lastmile_qr_scan", "ios": "https://dc.lft.to/lastmile_qr_scan"}, "bike_id": "69673f1bbd006f2af273f7245366be95", "name": "69673f1bbd006f2af273f7245366be95", "type": "electric_scooter", "lon": -77.02286133333334, "lat": 38.916514166666666, "is_disabled": 0, "is_reserved": 0, "fusion_lat": 0.0, "fusion_lon": 0.0}, {"rental_uris": {"android": "https://dc.lft.to/lastmile_qr_scan", "ios": "https://dc.lft.to/lastmile_qr_scan"}, "bike_id": "d191d1471b95e679ba9dd17ff33fd5eb", "name": "d191d1471b95e679ba9dd17ff33fd5eb", "type": "electric_scooter", "lon": -77.0153785, "lat": 38.887465666666664, "is_disabled": 0, "is_reserved": 0, "fusion_lat": 0.0, "fusion_lon": 0.0}, {"rental_uris": {"android": "https://dc.lft.to/lastmile_qr_scan", "ios": "https://dc.lft.to/lastmile_qr_scan"}, "bike_id": "8782de8fad95e1bea44145224d915621", "name": "8782de8fad95e1bea44145224d915621", "type": "electric_scooter", "lon": -77.0236595, "lat": 38.89221516666667, "is_disabled": 0, "is_reserved": 0, "fusion_lat": 0.0, "fusion_lon": 0.0}, {"rental_uris": {"android": "https://dc.lft.to/lastmile_qr_scan", "ios": "https://dc.lft.to/lastmile_qr_scan"}, "bike_id": "7d9a05bc81106a7ea0968e0109863549", "name": "7d9a05bc81106a7ea0968e0109863549", "type": "electric_scooter", "lon": -76.99952316666666, "lat": 38.90850733333333, "is_disabled": 0, "is_reserved": 0, "fusion_lat": 0.0, "fusion_lon": 0.0}, {"rental_uris": {"android": "https://dc.lft.to/lastmile_qr_scan", "ios": "https://dc.lft.to/lastmile_qr_scan"}, "bike_id": "788f5fccbb535ebccf689f1ff18c0a4a", "name": "788f5fccbb535ebccf689f1ff18c0a4a", "type": "electric_scooter", "lon": -76.96538, "lat": 38.9184535, "is_disabled": 0, "is_reserved": 0, "fusion_lat": 0.0, "fusion_lon": 0.0}, {"rental_uris": {"android": "https://dc.lft.to/lastmile_qr_scan", "ios": "https://dc.lft.to/lastmile_qr_scan"}, "bike_id": "85fd913ffd9d120d82526648ce62ea3a", "name": "85fd913ffd9d120d82526648ce62ea3a", "type": "electric_scooter", "lon": -77.06104616666667, "lat": 38.9043975, "is_disabled": 0, "is_reserved": 0, "fusion_lat": 0.0, "fusion_lon": 0.0}, {"rental_uris": {"android": "https://dc.lft.to/lastmile_qr_scan", "ios": "https://dc.lft.to/lastmile_qr_scan"}, "bike_id": "c2f517407da4ac40806c5b1bd807b1d8", "name": "c2f517407da4ac40806c5b1bd807b1d8", "type": "electric_scooter", "lon": -77.029061, "lat": 38.9257085, "is_disabled": 0, "is_reserved": 0, "fusion_lat": 0.0, "fusion_lon": 0.0}, {"rental_uris": {"android": "https://dc.lft.to/lastmile_qr_scan", "ios": "https://dc.lft.to/lastmile_qr_scan"}, "bike_id": "02b1de19c8c8adc4621b12cb4761ac0d", "name": "02b1de19c8c8adc4621b12cb4761ac0d", "type": "electric_scooter", "lon": -77.04099983333333, "lat": 38.905089, "is_disabled": 0, "is_reserved": 0, "fusion_lat": 0.0, "fusion_lon": 0.0}, {"rental_uris": {"android": "https://dc.lft.to/lastmile_qr_scan", "ios": "https://dc.lft.to/lastmile_qr_scan"}, "bike_id": "5480d8cf28c5a6b5003eb99e1f5054bc", "name": "5480d8cf28c5a6b5003eb99e1f5054bc", "type": "electric_scooter", "lon": -77.00073683333333, "lat": 38.925489666666664, "is_disabled": 0, "is_reserved": 0, "fusion_lat": 0.0, "fusion_lon": 0.0}, {"rental_uris": {"android": "https://dc.lft.to/lastmile_qr_scan", "ios": "https://dc.lft.to/lastmile_qr_scan"}, "bike_id": "dfb07abfd09ae54c3e2a99d61ac9f107", "name": "dfb07abfd09ae54c3e2a99d61ac9f107", "type": "electric_bike", "lon": -77.08574866666666, "lat": 38.874217333333334, "is_disabled": 0, "is_reserved": 0, "fusion_lat": 0.0, "fusion_lon": 0.0}, {"rental_uris": {"android": "https://dc.lft.to/lastmile_qr_scan", "ios": "https://dc.lft.to/lastmile_qr_scan"}, "bike_id": "e45ce001ce3db7d1f3a3bb8132aeabdc", "name": "e45ce001ce3db7d1f3a3bb8132aeabdc", "type": "electric_scooter", "lon": -77.0268725, "lat": 38.90872266666667, "is_disabled": 0, "is_reserved": 0, "fusion_lat": 0.0, "fusion_lon": 0.0}, {"rental_uris": {"android": "https://dc.lft.to/lastmile_qr_scan", "ios": "https://dc.lft.to/lastmile_qr_scan"}, "bike_id": "18dafe8a54185bd6772001a97fb6e508", "name": "18dafe8a54185bd6772001a97fb6e508", "type": "electric_scooter", "lon": -77.0419595, "lat": 38.90546716666667, "is_disabled": 0, "is_reserved": 0, "fusion_lat": 0.0, "fusion_lon": 0.0}, {"rental_uris": {"android": "https://dc.lft.to/lastmile_qr_scan", "ios": "https://dc.lft.to/lastmile_qr_scan"}, "bike_id": "659558e97cd6d6f999d66dc8182ca61d", "name": "659558e97cd6d6f999d66dc8182ca61d", "type": "electric_scooter", "lon": -77.01756716666667, "lat": 38.87715816666667, "is_disabled": 0, "is_reserved": 0, "fusion_lat": 0.0, "fusion_lon": 0.0}, {"rental_uris": {"android": "https://dc.lft.to/lastmile_qr_scan", "ios": "https://dc.lft.to/lastmile_qr_scan"}, "bike_id": "4151364b00471f1b6d1191e807dd9cab", "name": "4151364b00471f1b6d1191e807dd9cab", "type": "electric_bike", "lon": -77.1013155, "lat": 38.8520685, "is_disabled": 0, "is_reserved": 0, "fusion_lat": 0.0, "fusion_lon": 0.0}, {"rental_uris": {"android": "https://dc.lft.to/lastmile_qr_scan", "ios": "https://dc.lft.to/lastmile_qr_scan"}, "bike_id": "63cea60c350f12c716a1148006e84f42", "name": "63cea60c350f12c716a1148006e84f42", "type": "electric_scooter", "lon": -76.9318425, "lat": 38.898747166666666, "is_disabled": 0, "is_reserved": 0, "fusion_lat": 0.0, "fusion_lon": 0.0}, {"rental_uris": {"android": "https://dc.lft.to/lastmile_qr_scan", "ios": "https://dc.lft.to/lastmile_qr_scan"}, "bike_id": "1b600dde9c27e5f7ed7237562def2502", "name": "1b600dde9c27e5f7ed7237562def2502", "type": "electric_scooter", "lon": -77.00683266666667, "lat": 38.9001145, "is_disabled": 0, "is_reserved": 0, "fusion_lat": 0.0, "fusion_lon": 0.0}, {"rental_uris": {"android": "https://dc.lft.to/lastmile_qr_scan", "ios": "https://dc.lft.to/lastmile_qr_scan"}, "bike_id": "d5bd3faa73740540a233b69857e62134", "name": "d5bd3faa73740540a233b69857e62134", "type": "electric_scooter", "lon": -77.0436225, "lat": 38.90766833333333, "is_disabled": 0, "is_reserved": 0, "fusion_lat": 0.0, "fusion_lon": 0.0}, {"rental_uris": {"android": "https://dc.lft.to/lastmile_qr_scan", "ios": "https://dc.lft.to/lastmile_qr_scan"}, "bike_id": "11daf10ffece2e5225c04030b29ab8d7", "name": "11daf10ffece2e5225c04030b29ab8d7", "type": "electric_scooter", "lon": -77.04313683333334, "lat": 38.923739833333336, "is_disabled": 0, "is_reserved": 0, "fusion_lat": 0.0, "fusion_lon": 0.0}, {"rental_uris": {"android": "https://dc.lft.to/lastmile_qr_scan", "ios": "https://dc.lft.to/lastmile_qr_scan"}, "bike_id": "27b74c82c559182ab6ef6a9016e155a9", "name": "27b74c82c559182ab6ef6a9016e155a9", "type": "electric_scooter", "lon": -77.04356333333334, "lat": 38.92344533333333, "is_disabled": 0, "is_reserved": 0, "fusion_lat": 0.0, "fusion_lon": 0.0}, {"rental_uris": {"android": "https://dc.lft.to/lastmile_qr_scan", "ios": "https://dc.lft.to/lastmile_qr_scan"}, "bike_id": "6a4cac52b2c94de7712c382d8b8cd952", "name": "6a4cac52b2c94de7712c382d8b8cd952", "type": "electric_scooter", "lon": -77.05024616666667, "lat": 38.8974405, "is_disabled": 0, "is_reserved": 0, "fusion_lat": 0.0, "fusion_lon": 0.0}, {"rental_uris": {"android": "https://dc.lft.to/lastmile_qr_scan", "ios": "https://dc.lft.to/lastmile_qr_scan"}, "bike_id": "a2917cf2d6fc7d14868922ef8206ad88", "name": "a2917cf2d6fc7d14868922ef8206ad88", "type": "electric_scooter", "lon": -77.05308616666667, "lat": 38.89851183333333, "is_disabled": 0, "is_reserved": 0, "fusion_lat": 0.0, "fusion_lon": 0.0}, {"rental_uris": {"android": "https://dc.lft.to/lastmile_qr_scan", "ios": "https://dc.lft.to/lastmile_qr_scan"}, "bike_id": "9a649cdf3bebb861b283e6ae3316d6f7", "name": "9a649cdf3bebb861b283e6ae3316d6f7", "type": "electric_scooter", "lon": -77.04379733333333, "lat": 38.91669, "is_disabled": 0, "is_reserved": 0, "fusion_lat": 0.0, "fusion_lon": 0.0}, {"rental_uris": {"android": "https://dc.lft.to/lastmile_qr_scan", "ios": "https://dc.lft.to/lastmile_qr_scan"}, "bike_id": "6c1db69566407789c33710086bb87b30", "name": "6c1db69566407789c33710086bb87b30", "type": "electric_scooter", "lon": -77.024385, "lat": 38.9008755, "is_disabled": 0, "is_reserved": 0, "fusion_lat": 0.0, "fusion_lon": 0.0}, {"rental_uris": {"android": "https://dc.lft.to/lastmile_qr_scan", "ios": "https://dc.lft.to/lastmile_qr_scan"}, "bike_id": "edf1e187b713e126973f2792fdfaba29", "name": "edf1e187b713e126973f2792fdfaba29", "type": "electric_bike", "lon": -77.12960883333334, "lat": 38.852209333333334, "is_disabled": 0, "is_reserved": 0, "fusion_lat": 0.0, "fusion_lon": 0.0}, {"rental_uris": {"android": "https://dc.lft.to/lastmile_qr_scan", "ios": "https://dc.lft.to/lastmile_qr_scan"}, "bike_id": "94bd77dd62d6842017e1fbbad4b398a7", "name": "94bd77dd62d6842017e1fbbad4b398a7", "type": "electric_scooter", "lon": -77.01217066666666, "lat": 38.8953985, "is_disabled": 0, "is_reserved": 0, "fusion_lat": 0.0, "fusion_lon": 0.0}, {"rental_uris": {"android": "https://dc.lft.to/lastmile_qr_scan", "ios": "https://dc.lft.to/lastmile_qr_scan"}, "bike_id": "664aeb33b2cc3e5a1d3ec750599683e1", "name": "664aeb33b2cc3e5a1d3ec750599683e1", "type": "electric_bike", "lon": -77.08936716666666, "lat": 38.86260816666667, "is_disabled": 0, "is_reserved": 0, "fusion_lat": 0.0, "fusion_lon": 0.0}, {"rental_uris": {"android": "https://dc.lft.to/lastmile_qr_scan", "ios": "https://dc.lft.to/lastmile_qr_scan"}, "bike_id": "f7b1ef6784104382c219ee4562ab2026", "name": "f7b1ef6784104382c219ee4562ab2026", "type": "electric_scooter", "lon": -77.03683016666666, "lat": 38.91679033333333, "is_disabled": 0, "is_reserved": 0, "fusion_lat": 0.0, "fusion_lon": 0.0}, {"rental_uris": {"android": "https://dc.lft.to/lastmile_qr_scan", "ios": "https://dc.lft.to/lastmile_qr_scan"}, "bike_id": "07bfbc96d33ec14501322fec1bb08fe0", "name": "07bfbc96d33ec14501322fec1bb08fe0", "type": "electric_scooter", "lon": -77.0436805, "lat": 38.898494, "is_disabled": 0, "is_reserved": 0, "fusion_lat": 0.0, "fusion_lon": 0.0}, {"rental_uris": {"android": "https://dc.lft.to/lastmile_qr_scan", "ios": "https://dc.lft.to/lastmile_qr_scan"}, "bike_id": "703c3d444f6d42affe7bff4ccb90b8bc", "name": "703c3d444f6d42affe7bff4ccb90b8bc", "type": "electric_scooter", "lon": -77.039659, "lat": 38.900273166666665, "is_disabled": 0, "is_reserved": 0, "fusion_lat": 0.0, "fusion_lon": 0.0}, {"rental_uris": {"android": "https://dc.lft.to/lastmile_qr_scan", "ios": "https://dc.lft.to/lastmile_qr_scan"}, "bike_id": "f02cfd3630afd913a37990289c3a268d", "name": "f02cfd3630afd913a37990289c3a268d", "type": "electric_scooter", "lon": -77.02714733333333, "lat": 38.898725166666665, "is_disabled": 0, "is_reserved": 0, "fusion_lat": 0.0, "fusion_lon": 0.0}, {"rental_uris": {"android": "https://dc.lft.to/lastmile_qr_scan", "ios": "https://dc.lft.to/lastmile_qr_scan"}, "bike_id": "49fa3fd2e769d7c9e427c6504870f676", "name": "49fa3fd2e769d7c9e427c6504870f676", "type": "electric_scooter", "lon": -76.99033983333334, "lat": 38.865292833333335, "is_disabled": 0, "is_reserved": 0, "fusion_lat": 0.0, "fusion_lon": 0.0}, {"rental_uris": {"android": "https://dc.lft.to/lastmile_qr_scan", "ios": "https://dc.lft.to/lastmile_qr_scan"}, "bike_id": "d2cb190f0b0b1bc547d8f6763611f859", "name": "d2cb190f0b0b1bc547d8f6763611f859", "type": "electric_scooter", "lon": -77.03334933333333, "lat": 38.91693383333333, "is_disabled": 0, "is_reserved": 0, "fusion_lat": 0.0, "fusion_lon": 0.0}, {"rental_uris": {"android": "https://dc.lft.to/lastmile_qr_scan", "ios": "https://dc.lft.to/lastmile_qr_scan"}, "bike_id": "a23c98ba31c75a5f7d5ea1f4d183b477", "name": "a23c98ba31c75a5f7d5ea1f4d183b477", "type": "electric_scooter", "lon": -76.950951, "lat": 38.8845015, "is_disabled": 0, "is_reserved": 0, "fusion_lat": 0.0, "fusion_lon": 0.0}, {"rental_uris": {"android": "https://dc.lft.to/lastmile_qr_scan", "ios": "https://dc.lft.to/lastmile_qr_scan"}, "bike_id": "ccbf5d2990ee31f1345896aa9203a296", "name": "ccbf5d2990ee31f1345896aa9203a296", "type": "electric_bike", "lon": -76.990427, "lat": 38.93810633333333, "is_disabled": 0, "is_reserved": 0, "fusion_lat": 0.0, "fusion_lon": 0.0}, {"rental_uris": {"android": "https://dc.lft.to/lastmile_qr_scan", "ios": "https://dc.lft.to/lastmile_qr_scan"}, "bike_id": "bfaad7c6a3e13232b917252436bf080f", "name": "bfaad7c6a3e13232b917252436bf080f", "type": "electric_bike", "lon": -77.0413365, "lat": 38.804998499999996, "is_disabled": 0, "is_reserved": 0, "fusion_lat": 0.0, "fusion_lon": 0.0}, {"rental_uris": {"android": "https://dc.lft.to/lastmile_qr_scan", "ios": "https://dc.lft.to/lastmile_qr_scan"}, "bike_id": "ed224962936acba25ee3ba29915d03ea", "name": "ed224962936acba25ee3ba29915d03ea", "type": "electric_scooter", "lon": -77.02971333333333, "lat": 38.92287966666667, "is_disabled": 0, "is_reserved": 0, "fusion_lat": 0.0, "fusion_lon": 0.0}, {"rental_uris": {"android": "https://dc.lft.to/lastmile_qr_scan", "ios": "https://dc.lft.to/lastmile_qr_scan"}, "bike_id": "a0b85b2cfca374fcdeee76cc0468bf25", "name": "a0b85b2cfca374fcdeee76cc0468bf25", "type": "electric_scooter", "lon": -77.0402245, "lat": 38.922664166666664, "is_disabled": 0, "is_reserved": 0, "fusion_lat": 0.0, "fusion_lon": 0.0}, {"rental_uris": {"android": "https://dc.lft.to/lastmile_qr_scan", "ios": "https://dc.lft.to/lastmile_qr_scan"}, "bike_id": "4b74a2739c27ff9b2dc5fdc2c9536dce", "name": "4b74a2739c27ff9b2dc5fdc2c9536dce", "type": "electric_scooter", "lon": -77.02282616666666, "lat": 38.9252405, "is_disabled": 0, "is_reserved": 0, "fusion_lat": 0.0, "fusion_lon": 0.0}, {"rental_uris": {"android": "https://dc.lft.to/lastmile_qr_scan", "ios": "https://dc.lft.to/lastmile_qr_scan"}, "bike_id": "b4f35f61b327bd3c03cb03a916e7d2b2", "name": "b4f35f61b327bd3c03cb03a916e7d2b2", "type": "electric_scooter", "lon": -77.04138566666667, "lat": 38.921755, "is_disabled": 0, "is_reserved": 0, "fusion_lat": 0.0, "fusion_lon": 0.0}, {"rental_uris": {"android": "https://dc.lft.to/lastmile_qr_scan", "ios": "https://dc.lft.to/lastmile_qr_scan"}, "bike_id": "cf572aa513acf53546dcce083b4ad9a0", "name": "cf572aa513acf53546dcce083b4ad9a0", "type": "electric_scooter", "lon": -77.0270905, "lat": 38.927169, "is_disabled": 0, "is_reserved": 0, "fusion_lat": 0.0, "fusion_lon": 0.0}, {"rental_uris": {"android": "https://dc.lft.to/lastmile_qr_scan", "ios": "https://dc.lft.to/lastmile_qr_scan"}, "bike_id": "eda288b8871319dcbc9618e12e7c0523", "name": "eda288b8871319dcbc9618e12e7c0523", "type": "electric_bike", "lon": -77.0020555, "lat": 38.81935583333333, "is_disabled": 0, "is_reserved": 0, "fusion_lat": 0.0, "fusion_lon": 0.0}, {"rental_uris": {"android": "https://dc.lft.to/lastmile_qr_scan", "ios": "https://dc.lft.to/lastmile_qr_scan"}, "bike_id": "cec0ecc7ec55992a6478e899793df90d", "name": "cec0ecc7ec55992a6478e899793df90d", "type": "electric_scooter", "lon": -77.02303516666667, "lat": 38.915450666666665, "is_disabled": 0, "is_reserved": 0, "fusion_lat": 0.0, "fusion_lon": 0.0}, {"rental_uris": {"android": "https://dc.lft.to/lastmile_qr_scan", "ios": "https://dc.lft.to/lastmile_qr_scan"}, "bike_id": "f5b0f850e54553083f0a91c46545917f", "name": "f5b0f850e54553083f0a91c46545917f", "type": "electric_scooter", "lon": -77.031794, "lat": 38.903621, "is_disabled": 0, "is_reserved": 0, "fusion_lat": 0.0, "fusion_lon": 0.0}, {"rental_uris": {"android": "https://dc.lft.to/lastmile_qr_scan", "ios": "https://dc.lft.to/lastmile_qr_scan"}, "bike_id": "9149253597e82d5d6aaa99981c653fcc", "name": "9149253597e82d5d6aaa99981c653fcc", "type": "electric_scooter", "lon": -77.047006, "lat": 38.9054025, "is_disabled": 0, "is_reserved": 0, "fusion_lat": 0.0, "fusion_lon": 0.0}, {"rental_uris": {"android": "https://dc.lft.to/lastmile_qr_scan", "ios": "https://dc.lft.to/lastmile_qr_scan"}, "bike_id": "129da22d763fc4a544d9b9b240c8d242", "name": "129da22d763fc4a544d9b9b240c8d242", "type": "electric_scooter", "lon": -77.04132316666667, "lat": 38.9214005, "is_disabled": 0, "is_reserved": 0, "fusion_lat": 0.0, "fusion_lon": 0.0}, {"rental_uris": {"android": "https://dc.lft.to/lastmile_qr_scan", "ios": "https://dc.lft.to/lastmile_qr_scan"}, "bike_id": "666f33c6b200af52348cbeb65f94b52d", "name": "666f33c6b200af52348cbeb65f94b52d", "type": "electric_scooter", "lon": -77.02045816666667, "lat": 38.915543666666665, "is_disabled": 0, "is_reserved": 0, "fusion_lat": 0.0, "fusion_lon": 0.0}, {"rental_uris": {"android": "https://dc.lft.to/lastmile_qr_scan", "ios": "https://dc.lft.to/lastmile_qr_scan"}, "bike_id": "0abb6994a0b023357c51f9a0c5a8f991", "name": "0abb6994a0b023357c51f9a0c5a8f991", "type": "electric_scooter", "lon": -77.03873683333333, "lat": 38.93239116666667, "is_disabled": 0, "is_reserved": 0, "fusion_lat": 0.0, "fusion_lon": 0.0}, {"rental_uris": {"android": "https://dc.lft.to/lastmile_qr_scan", "ios": "https://dc.lft.to/lastmile_qr_scan"}, "bike_id": "8a77abf2bed45e19070fd464f68e84ca", "name": "8a77abf2bed45e19070fd464f68e84ca", "type": "electric_scooter", "lon": -77.04329633333333, "lat": 38.92231566666667, "is_disabled": 0, "is_reserved": 0, "fusion_lat": 0.0, "fusion_lon": 0.0}, {"rental_uris": {"android": "https://dc.lft.to/lastmile_qr_scan", "ios": "https://dc.lft.to/lastmile_qr_scan"}, "bike_id": "1d96fb147b2c7141f1ef8d45cb2a8a32", "name": "1d96fb147b2c7141f1ef8d45cb2a8a32", "type": "electric_scooter", "lon": -77.03184316666666, "lat": 38.911753833333336, "is_disabled": 0, "is_reserved": 0, "fusion_lat": 0.0, "fusion_lon": 0.0}, {"rental_uris": {"android": "https://dc.lft.to/lastmile_qr_scan", "ios": "https://dc.lft.to/lastmile_qr_scan"}, "bike_id": "93c8aed80087895a1dbf6dbe70db713a", "name": "93c8aed80087895a1dbf6dbe70db713a", "type": "electric_scooter", "lon": -77.03486483333333, "lat": 38.93269933333333, "is_disabled": 0, "is_reserved": 0, "fusion_lat": 0.0, "fusion_lon": 0.0}, {"rental_uris": {"android": "https://dc.lft.to/lastmile_qr_scan", "ios": "https://dc.lft.to/lastmile_qr_scan"}, "bike_id": "08b85b1a3ea789b8e33ac9a4cee70e90", "name": "08b85b1a3ea789b8e33ac9a4cee70e90", "type": "electric_scooter", "lon": -77.05428016666667, "lat": 38.92336183333333, "is_disabled": 0, "is_reserved": 0, "fusion_lat": 0.0, "fusion_lon": 0.0}, {"rental_uris": {"android": "https://dc.lft.to/lastmile_qr_scan", "ios": "https://dc.lft.to/lastmile_qr_scan"}, "bike_id": "4175519d1d27172edcfdb7b668e804b5", "name": "4175519d1d27172edcfdb7b668e804b5", "type": "electric_scooter", "lon": -77.02294933333333, "lat": 38.915697, "is_disabled": 0, "is_reserved": 0, "fusion_lat": 0.0, "fusion_lon": 0.0}, {"rental_uris": {"android": "https://dc.lft.to/lastmile_qr_scan", "ios": "https://dc.lft.to/lastmile_qr_scan"}, "bike_id": "4832cd7cb696892f199b81ede5a7acce", "name": "4832cd7cb696892f199b81ede5a7acce", "type": "electric_scooter", "lon": -77.039817, "lat": 38.902722833333335, "is_disabled": 0, "is_reserved": 0, "fusion_lat": 0.0, "fusion_lon": 0.0}, {"rental_uris": {"android": "https://dc.lft.to/lastmile_qr_scan", "ios": "https://dc.lft.to/lastmile_qr_scan"}, "bike_id": "841b5e5ac6ff47de187dc9f59a173dbf", "name": "841b5e5ac6ff47de187dc9f59a173dbf", "type": "electric_scooter", "lon": -77.0420185, "lat": 38.922664166666664, "is_disabled": 0, "is_reserved": 0, "fusion_lat": 0.0, "fusion_lon": 0.0}, {"rental_uris": {"android": "https://dc.lft.to/lastmile_qr_scan", "ios": "https://dc.lft.to/lastmile_qr_scan"}, "bike_id": "9ed1f31b16aada4244349db6868108fa", "name": "9ed1f31b16aada4244349db6868108fa", "type": "electric_scooter", "lon": -77.03360066666667, "lat": 38.89960466666667, "is_disabled": 0, "is_reserved": 0, "fusion_lat": 0.0, "fusion_lon": 0.0}, {"rental_uris": {"android": "https://dc.lft.to/lastmile_qr_scan", "ios": "https://dc.lft.to/lastmile_qr_scan"}, "bike_id": "e4e4f1e82d68d8b974a9d2dd9b276d99", "name": "e4e4f1e82d68d8b974a9d2dd9b276d99", "type": "electric_scooter", "lon": -77.00976383333334, "lat": 38.91558216666667, "is_disabled": 0, "is_reserved": 0, "fusion_lat": 0.0, "fusion_lon": 0.0}, {"rental_uris": {"android": "https://dc.lft.to/lastmile_qr_scan", "ios": "https://dc.lft.to/lastmile_qr_scan"}, "bike_id": "22065169d5ecf3e070936078d1756e6f", "name": "22065169d5ecf3e070936078d1756e6f", "type": "electric_scooter", "lon": -77.01642, "lat": 38.910365666666664, "is_disabled": 0, "is_reserved": 0, "fusion_lat": 0.0, "fusion_lon": 0.0}, {"rental_uris": {"android": "https://dc.lft.to/lastmile_qr_scan", "ios": "https://dc.lft.to/lastmile_qr_scan"}, "bike_id": "6cdc8d34f727bf609dcccd3e17135f76", "name": "6cdc8d34f727bf609dcccd3e17135f76", "type": "electric_scooter", "lon": -77.03857283333333, "lat": 38.917753833333336, "is_disabled": 0, "is_reserved": 0, "fusion_lat": 0.0, "fusion_lon": 0.0}, {"rental_uris": {"android": "https://dc.lft.to/lastmile_qr_scan", "ios": "https://dc.lft.to/lastmile_qr_scan"}, "bike_id": "eca6dcee444864c6c6dbc57fbfb65601", "name": "eca6dcee444864c6c6dbc57fbfb65601", "type": "electric_scooter", "lon": -77.020043, "lat": 38.909532666666664, "is_disabled": 0, "is_reserved": 0, "fusion_lat": 0.0, "fusion_lon": 0.0}, {"rental_uris": {"android": "https://dc.lft.to/lastmile_qr_scan", "ios": "https://dc.lft.to/lastmile_qr_scan"}, "bike_id": "1e03ed4402223c1ca803905ffa4b1e97", "name": "1e03ed4402223c1ca803905ffa4b1e97", "type": "electric_scooter", "lon": -77.034424, "lat": 38.918427, "is_disabled": 0, "is_reserved": 0, "fusion_lat": 0.0, "fusion_lon": 0.0}, {"rental_uris": {"android": "https://dc.lft.to/lastmile_qr_scan", "ios": "https://dc.lft.to/lastmile_qr_scan"}, "bike_id": "a9d95940cbc11f08cd954043932e907e", "name": "a9d95940cbc11f08cd954043932e907e", "type": "electric_scooter", "lon": -77.0259865, "lat": 38.916903833333336, "is_disabled": 0, "is_reserved": 0, "fusion_lat": 0.0, "fusion_lon": 0.0}, {"rental_uris": {"android": "https://dc.lft.to/lastmile_qr_scan", "ios": "https://dc.lft.to/lastmile_qr_scan"}, "bike_id": "1fd0cd3d4c1a449ba66ed949dd3bfe44", "name": "1fd0cd3d4c1a449ba66ed949dd3bfe44", "type": "electric_scooter", "lon": -77.032434, "lat": 38.928667833333336, "is_disabled": 0, "is_reserved": 0, "fusion_lat": 0.0, "fusion_lon": 0.0}, {"rental_uris": {"android": "https://dc.lft.to/lastmile_qr_scan", "ios": "https://dc.lft.to/lastmile_qr_scan"}, "bike_id": "f5bdabb173d9291a21d125c7df6542a0", "name": "f5bdabb173d9291a21d125c7df6542a0", "type": "electric_scooter", "lon": -76.92916066666666, "lat": 38.89295416666667, "is_disabled": 0, "is_reserved": 0, "fusion_lat": 0.0, "fusion_lon": 0.0}, {"rental_uris": {"android": "https://dc.lft.to/lastmile_qr_scan", "ios": "https://dc.lft.to/lastmile_qr_scan"}, "bike_id": "9b58d28a92575be2d3ad7950ed0756cd", "name": "9b58d28a92575be2d3ad7950ed0756cd", "type": "electric_bike", "lon": -76.94796333333333, "lat": 38.8940175, "is_disabled": 0, "is_reserved": 0, "fusion_lat": 0.0, "fusion_lon": 0.0}, {"rental_uris": {"android": "https://dc.lft.to/lastmile_qr_scan", "ios": "https://dc.lft.to/lastmile_qr_scan"}, "bike_id": "7b423e9069c92b15cbe44ec8c9797fc8", "name": "7b423e9069c92b15cbe44ec8c9797fc8", "type": "electric_scooter", "lon": -77.030238, "lat": 38.92248583333333, "is_disabled": 0, "is_reserved": 0, "fusion_lat": 0.0, "fusion_lon": 0.0}, {"rental_uris": {"android": "https://dc.lft.to/lastmile_qr_scan", "ios": "https://dc.lft.to/lastmile_qr_scan"}, "bike_id": "7af0c2f2421978f9be21a28008f08439", "name": "7af0c2f2421978f9be21a28008f08439", "type": "electric_scooter", "lon": -77.02508266666666, "lat": 38.919227666666664, "is_disabled": 0, "is_reserved": 0, "fusion_lat": 0.0, "fusion_lon": 0.0}, {"rental_uris": {"android": "https://dc.lft.to/lastmile_qr_scan", "ios": "https://dc.lft.to/lastmile_qr_scan"}, "bike_id": "47abfbf344fa59fb1bb82d74f6c63db1", "name": "47abfbf344fa59fb1bb82d74f6c63db1", "type": "electric_scooter", "lon": -77.01908083333333, "lat": 38.91512083333333, "is_disabled": 0, "is_reserved": 0, "fusion_lat": 0.0, "fusion_lon": 0.0}, {"rental_uris": {"android": "https://dc.lft.to/lastmile_qr_scan", "ios": "https://dc.lft.to/lastmile_qr_scan"}, "bike_id": "a9b6d9062c7405d7373db3019ca4e3be", "name": "a9b6d9062c7405d7373db3019ca4e3be", "type": "electric_bike", "lon": -76.9783535, "lat": 38.87073683333333, "is_disabled": 0, "is_reserved": 0, "fusion_lat": 0.0, "fusion_lon": 0.0}, {"rental_uris": {"android": "https://dc.lft.to/lastmile_qr_scan", "ios": "https://dc.lft.to/lastmile_qr_scan"}, "bike_id": "d6bf02a5540723b8c7d8cdab6a977643", "name": "d6bf02a5540723b8c7d8cdab6a977643", "type": "electric_bike", "lon": -76.9605425, "lat": 38.8840535, "is_disabled": 0, "is_reserved": 0, "fusion_lat": 0.0, "fusion_lon": 0.0}, {"rental_uris": {"android": "https://dc.lft.to/lastmile_qr_scan", "ios": "https://dc.lft.to/lastmile_qr_scan"}, "bike_id": "e05b68da287bb94bc601a2567743ebd7", "name": "e05b68da287bb94bc601a2567743ebd7", "type": "electric_scooter", "lon": -77.03854033333333, "lat": 38.867473833333335, "is_disabled": 0, "is_reserved": 0, "fusion_lat": 0.0, "fusion_lon": 0.0}, {"rental_uris": {"android": "https://dc.lft.to/lastmile_qr_scan", "ios": "https://dc.lft.to/lastmile_qr_scan"}, "bike_id": "f76a8c5757cadfcd864a7fa0bb012972", "name": "f76a8c5757cadfcd864a7fa0bb012972", "type": "electric_bike", "lon": -76.98869133333334, "lat": 38.95481016666667, "is_disabled": 0, "is_reserved": 0, "fusion_lat": 0.0, "fusion_lon": 0.0}, {"rental_uris": {"android": "https://dc.lft.to/lastmile_qr_scan", "ios": "https://dc.lft.to/lastmile_qr_scan"}, "bike_id": "ceaf853ec8f24450b296741a02b6fe87", "name": "ceaf853ec8f24450b296741a02b6fe87", "type": "electric_scooter", "lon": -76.99332133333333, "lat": 38.87143183333333, "is_disabled": 0, "is_reserved": 0, "fusion_lat": 0.0, "fusion_lon": 0.0}, {"rental_uris": {"android": "https://dc.lft.to/lastmile_qr_scan", "ios": "https://dc.lft.to/lastmile_qr_scan"}, "bike_id": "e79861e4e8c9252de98bc6627398150d", "name": "e79861e4e8c9252de98bc6627398150d", "type": "electric_scooter", "lon": -77.05513983333333, "lat": 38.928362, "is_disabled": 0, "is_reserved": 0, "fusion_lat": 0.0, "fusion_lon": 0.0}, {"rental_uris": {"android": "https://dc.lft.to/lastmile_qr_scan", "ios": "https://dc.lft.to/lastmile_qr_scan"}, "bike_id": "05861e9df99fe5d66881e3a69d3fb404", "name": "05861e9df99fe5d66881e3a69d3fb404", "type": "electric_scooter", "lon": -77.003395, "lat": 38.88990616666667, "is_disabled": 0, "is_reserved": 0, "fusion_lat": 0.0, "fusion_lon": 0.0}, {"rental_uris": {"android": "https://dc.lft.to/lastmile_qr_scan", "ios": "https://dc.lft.to/lastmile_qr_scan"}, "bike_id": "8e7e506212c84b27bf029a9e663154bc", "name": "8e7e506212c84b27bf029a9e663154bc", "type": "electric_scooter", "lon": -76.9883905, "lat": 38.900317666666666, "is_disabled": 0, "is_reserved": 0, "fusion_lat": 0.0, "fusion_lon": 0.0}, {"rental_uris": {"android": "https://dc.lft.to/lastmile_qr_scan", "ios": "https://dc.lft.to/lastmile_qr_scan"}, "bike_id": "a5f44cd69dc126d31078254133b4321f", "name": "a5f44cd69dc126d31078254133b4321f", "type": "electric_scooter", "lon": -77.04997866666666, "lat": 38.892312, "is_disabled": 0, "is_reserved": 0, "fusion_lat": 0.0, "fusion_lon": 0.0}, {"rental_uris": {"android": "https://dc.lft.to/lastmile_qr_scan", "ios": "https://dc.lft.to/lastmile_qr_scan"}, "bike_id": "f5f57bd0b0d5f6e05fe35027b9f879e4", "name": "f5f57bd0b0d5f6e05fe35027b9f879e4", "type": "electric_scooter", "lon": -76.99306933333334, "lat": 38.899908833333335, "is_disabled": 0, "is_reserved": 0, "fusion_lat": 0.0, "fusion_lon": 0.0}, {"rental_uris": {"android": "https://dc.lft.to/lastmile_qr_scan", "ios": "https://dc.lft.to/lastmile_qr_scan"}, "bike_id": "95fbd530105fe9f4e585ffeb56e56528", "name": "95fbd530105fe9f4e585ffeb56e56528", "type": "electric_scooter", "lon": -77.04136716666666, "lat": 38.92175616666667, "is_disabled": 0, "is_reserved": 0, "fusion_lat": 0.0, "fusion_lon": 0.0}, {"rental_uris": {"android": "https://dc.lft.to/lastmile_qr_scan", "ios": "https://dc.lft.to/lastmile_qr_scan"}, "bike_id": "665c0c5e01ab8969b6c7d341420b99a4", "name": "665c0c5e01ab8969b6c7d341420b99a4", "type": "electric_scooter", "lon": -77.028077, "lat": 38.9308155, "is_disabled": 0, "is_reserved": 0, "fusion_lat": 0.0, "fusion_lon": 0.0}, {"rental_uris": {"android": "https://dc.lft.to/lastmile_qr_scan", "ios": "https://dc.lft.to/lastmile_qr_scan"}, "bike_id": "ef04530ab176bb1f97660bca5e3ff00c", "name": "ef04530ab176bb1f97660bca5e3ff00c", "type": "electric_scooter", "lon": -77.03845016666666, "lat": 38.909019666666666, "is_disabled": 0, "is_reserved": 0, "fusion_lat": 0.0, "fusion_lon": 0.0}, {"rental_uris": {"android": "https://dc.lft.to/lastmile_qr_scan", "ios": "https://dc.lft.to/lastmile_qr_scan"}, "bike_id": "dfcf60dbe74a1d121c906ec51259ff38", "name": "dfcf60dbe74a1d121c906ec51259ff38", "type": "electric_scooter", "lon": -77.04181783333334, "lat": 38.8922385, "is_disabled": 0, "is_reserved": 0, "fusion_lat": 0.0, "fusion_lon": 0.0}, {"rental_uris": {"android": "https://dc.lft.to/lastmile_qr_scan", "ios": "https://dc.lft.to/lastmile_qr_scan"}, "bike_id": "22ccb7558ea15c7aed0b5b9d4f1dd6e0", "name": "22ccb7558ea15c7aed0b5b9d4f1dd6e0", "type": "electric_bike", "lon": -77.05202733333333, "lat": 38.924613, "is_disabled": 0, "is_reserved": 0, "fusion_lat": 0.0, "fusion_lon": 0.0}, {"rental_uris": {"android": "https://dc.lft.to/lastmile_qr_scan", "ios": "https://dc.lft.to/lastmile_qr_scan"}, "bike_id": "9561e25fa4c2b2f22e94ea193bcfeda1", "name": "9561e25fa4c2b2f22e94ea193bcfeda1", "type": "electric_scooter", "lon": -77.02834316666667, "lat": 38.88747433333333, "is_disabled": 0, "is_reserved": 0, "fusion_lat": 0.0, "fusion_lon": 0.0}, {"rental_uris": {"android": "https://dc.lft.to/lastmile_qr_scan", "ios": "https://dc.lft.to/lastmile_qr_scan"}, "bike_id": "f74d57024ad982a50e44ee11d40b7c2c", "name": "f74d57024ad982a50e44ee11d40b7c2c", "type": "electric_bike", "lon": -76.9479795, "lat": 38.86193733333333, "is_disabled": 0, "is_reserved": 0, "fusion_lat": 0.0, "fusion_lon": 0.0}, {"rental_uris": {"android": "https://dc.lft.to/lastmile_qr_scan", "ios": "https://dc.lft.to/lastmile_qr_scan"}, "bike_id": "bf637cbe2ac12a11dd9eea00b01dfaba", "name": "bf637cbe2ac12a11dd9eea00b01dfaba", "type": "electric_scooter", "lon": -77.039162, "lat": 38.9247625, "is_disabled": 0, "is_reserved": 0, "fusion_lat": 0.0, "fusion_lon": 0.0}, {"rental_uris": {"android": "https://dc.lft.to/lastmile_qr_scan", "ios": "https://dc.lft.to/lastmile_qr_scan"}, "bike_id": "cb87ea83613d309dd6d4dde4d93529aa", "name": "cb87ea83613d309dd6d4dde4d93529aa", "type": "electric_scooter", "lon": -77.01411166666666, "lat": 38.88744533333333, "is_disabled": 0, "is_reserved": 0, "fusion_lat": 0.0, "fusion_lon": 0.0}, {"rental_uris": {"android": "https://dc.lft.to/lastmile_qr_scan", "ios": "https://dc.lft.to/lastmile_qr_scan"}, "bike_id": "f4a16480766445ef82f1f652c88fac15", "name": "f4a16480766445ef82f1f652c88fac15", "type": "electric_scooter", "lon": -76.93740266666667, "lat": 38.8901505, "is_disabled": 0, "is_reserved": 0, "fusion_lat": 0.0, "fusion_lon": 0.0}, {"rental_uris": {"android": "https://dc.lft.to/lastmile_qr_scan", "ios": "https://dc.lft.to/lastmile_qr_scan"}, "bike_id": "8dd7a28459bf9491cb1373fd1b0ba571", "name": "8dd7a28459bf9491cb1373fd1b0ba571", "type": "electric_scooter", "lon": -77.03274416666666, "lat": 38.92961866666667, "is_disabled": 0, "is_reserved": 0, "fusion_lat": 0.0, "fusion_lon": 0.0}, {"rental_uris": {"android": "https://dc.lft.to/lastmile_qr_scan", "ios": "https://dc.lft.to/lastmile_qr_scan"}, "bike_id": "581a37327728840c4451f5dfff577569", "name": "581a37327728840c4451f5dfff577569", "type": "electric_scooter", "lon": -77.020869, "lat": 38.9008005, "is_disabled": 0, "is_reserved": 0, "fusion_lat": 0.0, "fusion_lon": 0.0}, {"rental_uris": {"android": "https://dc.lft.to/lastmile_qr_scan", "ios": "https://dc.lft.to/lastmile_qr_scan"}, "bike_id": "b0c9c379bfaa3d83cce65057d0729bed", "name": "b0c9c379bfaa3d83cce65057d0729bed", "type": "electric_scooter", "lon": -77.06005366666666, "lat": 38.90179783333333, "is_disabled": 0, "is_reserved": 0, "fusion_lat": 0.0, "fusion_lon": 0.0}, {"rental_uris": {"android": "https://dc.lft.to/lastmile_qr_scan", "ios": "https://dc.lft.to/lastmile_qr_scan"}, "bike_id": "6930792693267b0dbc395e453f8857ad", "name": "6930792693267b0dbc395e453f8857ad", "type": "electric_scooter", "lon": -77.01412833333333, "lat": 38.92805833333333, "is_disabled": 0, "is_reserved": 0, "fusion_lat": 0.0, "fusion_lon": 0.0}, {"rental_uris": {"android": "https://dc.lft.to/lastmile_qr_scan", "ios": "https://dc.lft.to/lastmile_qr_scan"}, "bike_id": "a1441df4a3f9a8b0494343eb69971319", "name": "a1441df4a3f9a8b0494343eb69971319", "type": "electric_scooter", "lon": -76.99904933333333, "lat": 38.9482285, "is_disabled": 0, "is_reserved": 0, "fusion_lat": 0.0, "fusion_lon": 0.0}, {"rental_uris": {"android": "https://dc.lft.to/lastmile_qr_scan", "ios": "https://dc.lft.to/lastmile_qr_scan"}, "bike_id": "7948005e632760e922bcbe070ea39410", "name": "7948005e632760e922bcbe070ea39410", "type": "electric_bike", "lon": -76.99678233333333, "lat": 38.92487083333333, "is_disabled": 0, "is_reserved": 0, "fusion_lat": 0.0, "fusion_lon": 0.0}, {"rental_uris": {"android": "https://dc.lft.to/lastmile_qr_scan", "ios": "https://dc.lft.to/lastmile_qr_scan"}, "bike_id": "29bd03c3e1643a88286f9902d06e7b64", "name": "29bd03c3e1643a88286f9902d06e7b64", "type": "electric_scooter", "lon": -76.987133, "lat": 38.900665333333336, "is_disabled": 0, "is_reserved": 0, "fusion_lat": 0.0, "fusion_lon": 0.0}, {"rental_uris": {"android": "https://dc.lft.to/lastmile_qr_scan", "ios": "https://dc.lft.to/lastmile_qr_scan"}, "bike_id": "5c082b29ad4c8f6d036f48a28003446b", "name": "5c082b29ad4c8f6d036f48a28003446b", "type": "electric_bike", "lon": -76.98698133333333, "lat": 38.94473166666667, "is_disabled": 0, "is_reserved": 0, "fusion_lat": 0.0, "fusion_lon": 0.0}, {"rental_uris": {"android": "https://dc.lft.to/lastmile_qr_scan", "ios": "https://dc.lft.to/lastmile_qr_scan"}, "bike_id": "4d7b46306d5dfe708b1bacd6aaa8ef20", "name": "4d7b46306d5dfe708b1bacd6aaa8ef20", "type": "electric_scooter", "lon": -77.02994416666667, "lat": 38.897523666666665, "is_disabled": 0, "is_reserved": 0, "fusion_lat": 0.0, "fusion_lon": 0.0}, {"rental_uris": {"android": "https://dc.lft.to/lastmile_qr_scan", "ios": "https://dc.lft.to/lastmile_qr_scan"}, "bike_id": "4ea1307840c7c6a8d4e656aacba00efe", "name": "4ea1307840c7c6a8d4e656aacba00efe", "type": "electric_scooter", "lon": -76.94941533333333, "lat": 38.89495433333333, "is_disabled": 0, "is_reserved": 0, "fusion_lat": 0.0, "fusion_lon": 0.0}, {"rental_uris": {"android": "https://dc.lft.to/lastmile_qr_scan", "ios": "https://dc.lft.to/lastmile_qr_scan"}, "bike_id": "4e543d0b1630b7639451b0738e4a91bc", "name": "4e543d0b1630b7639451b0738e4a91bc", "type": "electric_scooter", "lon": -77.040268, "lat": 38.903654333333336, "is_disabled": 0, "is_reserved": 0, "fusion_lat": 0.0, "fusion_lon": 0.0}, {"rental_uris": {"android": "https://dc.lft.to/lastmile_qr_scan", "ios": "https://dc.lft.to/lastmile_qr_scan"}, "bike_id": "46237b7ae9a4b41a2317f2a11798b883", "name": "46237b7ae9a4b41a2317f2a11798b883", "type": "electric_scooter", "lon": -77.02493966666667, "lat": 38.943113833333335, "is_disabled": 0, "is_reserved": 0, "fusion_lat": 0.0, "fusion_lon": 0.0}, {"rental_uris": {"android": "https://dc.lft.to/lastmile_qr_scan", "ios": "https://dc.lft.to/lastmile_qr_scan"}, "bike_id": "02d602a57c57ebda0f555566ffe79630", "name": "02d602a57c57ebda0f555566ffe79630", "type": "electric_scooter", "lon": -77.05543383333334, "lat": 38.930098666666666, "is_disabled": 0, "is_reserved": 0, "fusion_lat": 0.0, "fusion_lon": 0.0}, {"rental_uris": {"android": "https://dc.lft.to/lastmile_qr_scan", "ios": "https://dc.lft.to/lastmile_qr_scan"}, "bike_id": "8ff847c86584e7f35adfd5c04e12eff2", "name": "8ff847c86584e7f35adfd5c04e12eff2", "type": "electric_scooter", "lon": -77.03669166666667, "lat": 38.92721233333333, "is_disabled": 0, "is_reserved": 0, "fusion_lat": 0.0, "fusion_lon": 0.0}, {"rental_uris": {"android": "https://dc.lft.to/lastmile_qr_scan", "ios": "https://dc.lft.to/lastmile_qr_scan"}, "bike_id": "a4f0533cb6a30b79f6d573829e072925", "name": "a4f0533cb6a30b79f6d573829e072925", "type": "electric_scooter", "lon": -77.0230775, "lat": 38.917719166666664, "is_disabled": 0, "is_reserved": 0, "fusion_lat": 0.0, "fusion_lon": 0.0}, {"rental_uris": {"android": "https://dc.lft.to/lastmile_qr_scan", "ios": "https://dc.lft.to/lastmile_qr_scan"}, "bike_id": "84def7270e071eba52af6ecfb78ca566", "name": "84def7270e071eba52af6ecfb78ca566", "type": "electric_scooter", "lon": -77.0011965, "lat": 38.907682, "is_disabled": 0, "is_reserved": 0, "fusion_lat": 0.0, "fusion_lon": 0.0}, {"rental_uris": {"android": "https://dc.lft.to/lastmile_qr_scan", "ios": "https://dc.lft.to/lastmile_qr_scan"}, "bike_id": "8c5ef9991697e3544826d7b46dd7da0c", "name": "8c5ef9991697e3544826d7b46dd7da0c", "type": "electric_bike", "lon": -77.09962366666667, "lat": 38.8579035, "is_disabled": 0, "is_reserved": 0, "fusion_lat": 0.0, "fusion_lon": 0.0}, {"rental_uris": {"android": "https://dc.lft.to/lastmile_qr_scan", "ios": "https://dc.lft.to/lastmile_qr_scan"}, "bike_id": "ab7ee48ae8c5fb39db8ee1393845df89", "name": "ab7ee48ae8c5fb39db8ee1393845df89", "type": "electric_scooter", "lon": -77.04677816666667, "lat": 38.90549333333333, "is_disabled": 0, "is_reserved": 0, "fusion_lat": 0.0, "fusion_lon": 0.0}, {"rental_uris": {"android": "https://dc.lft.to/lastmile_qr_scan", "ios": "https://dc.lft.to/lastmile_qr_scan"}, "bike_id": "c3aa81fa3f837a9a867a4b6ae01560f2", "name": "c3aa81fa3f837a9a867a4b6ae01560f2", "type": "electric_scooter", "lon": -77.04617733333333, "lat": 38.8960875, "is_disabled": 0, "is_reserved": 0, "fusion_lat": 0.0, "fusion_lon": 0.0}, {"rental_uris": {"android": "https://dc.lft.to/lastmile_qr_scan", "ios": "https://dc.lft.to/lastmile_qr_scan"}, "bike_id": "66a1f4722df8807472236ee5f8575e25", "name": "66a1f4722df8807472236ee5f8575e25", "type": "electric_scooter", "lon": -77.02884166666666, "lat": 38.89721466666667, "is_disabled": 0, "is_reserved": 0, "fusion_lat": 0.0, "fusion_lon": 0.0}, {"rental_uris": {"android": "https://dc.lft.to/lastmile_qr_scan", "ios": "https://dc.lft.to/lastmile_qr_scan"}, "bike_id": "9af8c150b3ae55b4537b433b12cd1014", "name": "9af8c150b3ae55b4537b433b12cd1014", "type": "electric_scooter", "lon": -77.02476966666667, "lat": 38.90970883333333, "is_disabled": 0, "is_reserved": 0, "fusion_lat": 0.0, "fusion_lon": 0.0}, {"rental_uris": {"android": "https://dc.lft.to/lastmile_qr_scan", "ios": "https://dc.lft.to/lastmile_qr_scan"}, "bike_id": "0cd667df688945362eeff60a2a60c307", "name": "0cd667df688945362eeff60a2a60c307", "type": "electric_bike", "lon": -76.96935383333333, "lat": 38.951909, "is_disabled": 0, "is_reserved": 0, "fusion_lat": 0.0, "fusion_lon": 0.0}, {"rental_uris": {"android": "https://dc.lft.to/lastmile_qr_scan", "ios": "https://dc.lft.to/lastmile_qr_scan"}, "bike_id": "a179f71f707557a113f73ac4e96bbbcf", "name": "a179f71f707557a113f73ac4e96bbbcf", "type": "electric_scooter", "lon": -76.97947116666667, "lat": 38.945240166666665, "is_disabled": 0, "is_reserved": 0, "fusion_lat": 0.0, "fusion_lon": 0.0}, {"rental_uris": {"android": "https://dc.lft.to/lastmile_qr_scan", "ios": "https://dc.lft.to/lastmile_qr_scan"}, "bike_id": "5d575b42f00bbdc950ee8723613265a1", "name": "5d575b42f00bbdc950ee8723613265a1", "type": "electric_scooter", "lon": -77.029414, "lat": 38.907363833333335, "is_disabled": 0, "is_reserved": 0, "fusion_lat": 0.0, "fusion_lon": 0.0}, {"rental_uris": {"android": "https://dc.lft.to/lastmile_qr_scan", "ios": "https://dc.lft.to/lastmile_qr_scan"}, "bike_id": "a425fbbcb99c7ccc4a2e0d0af7cb739c", "name": "a425fbbcb99c7ccc4a2e0d0af7cb739c", "type": "electric_scooter", "lon": -77.0423395, "lat": 38.911188333333335, "is_disabled": 0, "is_reserved": 0, "fusion_lat": 0.0, "fusion_lon": 0.0}, {"rental_uris": {"android": "https://dc.lft.to/lastmile_qr_scan", "ios": "https://dc.lft.to/lastmile_qr_scan"}, "bike_id": "aed97576fe3f2dc8652984d8087f5888", "name": "aed97576fe3f2dc8652984d8087f5888", "type": "electric_scooter", "lon": -77.025976, "lat": 38.8968625, "is_disabled": 0, "is_reserved": 0, "fusion_lat": 0.0, "fusion_lon": 0.0}, {"rental_uris": {"android": "https://dc.lft.to/lastmile_qr_scan", "ios": "https://dc.lft.to/lastmile_qr_scan"}, "bike_id": "d8b76c4af588d5252c50acb15fa122f8", "name": "d8b76c4af588d5252c50acb15fa122f8", "type": "electric_bike", "lon": -77.09799966666667, "lat": 38.850284, "is_disabled": 0, "is_reserved": 0, "fusion_lat": 0.0, "fusion_lon": 0.0}, {"rental_uris": {"android": "https://dc.lft.to/lastmile_qr_scan", "ios": "https://dc.lft.to/lastmile_qr_scan"}, "bike_id": "52a654af2bb0f3dc6795adbf82db0014", "name": "52a654af2bb0f3dc6795adbf82db0014", "type": "electric_scooter", "lon": -77.02082116666666, "lat": 38.91118016666667, "is_disabled": 0, "is_reserved": 0, "fusion_lat": 0.0, "fusion_lon": 0.0}, {"rental_uris": {"android": "https://dc.lft.to/lastmile_qr_scan", "ios": "https://dc.lft.to/lastmile_qr_scan"}, "bike_id": "b57e6ff14af5d6938512e951f6fd875c", "name": "b57e6ff14af5d6938512e951f6fd875c", "type": "electric_scooter", "lon": -77.02574366666667, "lat": 38.91602133333333, "is_disabled": 0, "is_reserved": 0, "fusion_lat": 0.0, "fusion_lon": 0.0}, {"rental_uris": {"android": "https://dc.lft.to/lastmile_qr_scan", "ios": "https://dc.lft.to/lastmile_qr_scan"}, "bike_id": "42ec44bd6f80024b6d173fc355ba5a64", "name": "42ec44bd6f80024b6d173fc355ba5a64", "type": "electric_scooter", "lon": -77.02165933333333, "lat": 38.884752666666664, "is_disabled": 0, "is_reserved": 0, "fusion_lat": 0.0, "fusion_lon": 0.0}, {"rental_uris": {"android": "https://dc.lft.to/lastmile_qr_scan", "ios": "https://dc.lft.to/lastmile_qr_scan"}, "bike_id": "069be669d01399aa1a0be85ab6085240", "name": "069be669d01399aa1a0be85ab6085240", "type": "electric_bike", "lon": -76.9848305, "lat": 38.910922, "is_disabled": 0, "is_reserved": 0, "fusion_lat": 0.0, "fusion_lon": 0.0}, {"rental_uris": {"android": "https://dc.lft.to/lastmile_qr_scan", "ios": "https://dc.lft.to/lastmile_qr_scan"}, "bike_id": "850be405a854514b89b27666d2fb1a88", "name": "850be405a854514b89b27666d2fb1a88", "type": "electric_scooter", "lon": -77.04490183333333, "lat": 38.9112675, "is_disabled": 0, "is_reserved": 0, "fusion_lat": 0.0, "fusion_lon": 0.0}, {"rental_uris": {"android": "https://dc.lft.to/lastmile_qr_scan", "ios": "https://dc.lft.to/lastmile_qr_scan"}, "bike_id": "cb4e9f9619172d85783ae57fc7fb8c13", "name": "cb4e9f9619172d85783ae57fc7fb8c13", "type": "electric_scooter", "lon": -77.0322125, "lat": 38.91716983333333, "is_disabled": 0, "is_reserved": 0, "fusion_lat": 0.0, "fusion_lon": 0.0}, {"rental_uris": {"android": "https://dc.lft.to/lastmile_qr_scan", "ios": "https://dc.lft.to/lastmile_qr_scan"}, "bike_id": "113176b8e0501eaea2ac91e59729162e", "name": "113176b8e0501eaea2ac91e59729162e", "type": "electric_scooter", "lon": -77.0393445, "lat": 38.915589833333335, "is_disabled": 0, "is_reserved": 0, "fusion_lat": 0.0, "fusion_lon": 0.0}, {"rental_uris": {"android": "https://dc.lft.to/lastmile_qr_scan", "ios": "https://dc.lft.to/lastmile_qr_scan"}, "bike_id": "a39a107eeb3eefb6c9be84cde7afc6b6", "name": "a39a107eeb3eefb6c9be84cde7afc6b6", "type": "electric_scooter", "lon": -77.02332283333334, "lat": 38.92618316666667, "is_disabled": 0, "is_reserved": 0, "fusion_lat": 0.0, "fusion_lon": 0.0}, {"rental_uris": {"android": "https://dc.lft.to/lastmile_qr_scan", "ios": "https://dc.lft.to/lastmile_qr_scan"}, "bike_id": "c0cc41073ce09c1a2da8d4a47a563c8f", "name": "c0cc41073ce09c1a2da8d4a47a563c8f", "type": "electric_scooter", "lon": -77.001214, "lat": 38.905579833333334, "is_disabled": 0, "is_reserved": 0, "fusion_lat": 0.0, "fusion_lon": 0.0}, {"rental_uris": {"android": "https://dc.lft.to/lastmile_qr_scan", "ios": "https://dc.lft.to/lastmile_qr_scan"}, "bike_id": "04c63dcb0b59dce9e24363c2814b1e36", "name": "04c63dcb0b59dce9e24363c2814b1e36", "type": "electric_scooter", "lon": -77.0277485, "lat": 38.9395995, "is_disabled": 0, "is_reserved": 0, "fusion_lat": 0.0, "fusion_lon": 0.0}, {"rental_uris": {"android": "https://dc.lft.to/lastmile_qr_scan", "ios": "https://dc.lft.to/lastmile_qr_scan"}, "bike_id": "42fdf76f5e111e7bc789e50faf085a36", "name": "42fdf76f5e111e7bc789e50faf085a36", "type": "electric_scooter", "lon": -77.07955433333333, "lat": 38.947655166666664, "is_disabled": 0, "is_reserved": 0, "fusion_lat": 0.0, "fusion_lon": 0.0}, {"rental_uris": {"android": "https://dc.lft.to/lastmile_qr_scan", "ios": "https://dc.lft.to/lastmile_qr_scan"}, "bike_id": "c774743c66b694297424780241eed53e", "name": "c774743c66b694297424780241eed53e", "type": "electric_scooter", "lon": -77.04643666666666, "lat": 38.9192445, "is_disabled": 0, "is_reserved": 0, "fusion_lat": 0.0, "fusion_lon": 0.0}, {"rental_uris": {"android": "https://dc.lft.to/lastmile_qr_scan", "ios": "https://dc.lft.to/lastmile_qr_scan"}, "bike_id": "e7ae05a7a40caa88f744872b2bcf7401", "name": "e7ae05a7a40caa88f744872b2bcf7401", "type": "electric_scooter", "lon": -76.9959045, "lat": 38.88433916666666, "is_disabled": 0, "is_reserved": 0, "fusion_lat": 0.0, "fusion_lon": 0.0}, {"rental_uris": {"android": "https://dc.lft.to/lastmile_qr_scan", "ios": "https://dc.lft.to/lastmile_qr_scan"}, "bike_id": "781c597a2ae28f619a8f46f5d98a8174", "name": "781c597a2ae28f619a8f46f5d98a8174", "type": "electric_scooter", "lon": -77.03290866666667, "lat": 38.920615166666664, "is_disabled": 0, "is_reserved": 0, "fusion_lat": 0.0, "fusion_lon": 0.0}, {"rental_uris": {"android": "https://dc.lft.to/lastmile_qr_scan", "ios": "https://dc.lft.to/lastmile_qr_scan"}, "bike_id": "69bfe910ce33ab2952b1b6b2067ea114", "name": "69bfe910ce33ab2952b1b6b2067ea114", "type": "electric_scooter", "lon": -77.043516, "lat": 38.921458333333334, "is_disabled": 0, "is_reserved": 0, "fusion_lat": 0.0, "fusion_lon": 0.0}, {"rental_uris": {"android": "https://dc.lft.to/lastmile_qr_scan", "ios": "https://dc.lft.to/lastmile_qr_scan"}, "bike_id": "7619b3aaed40e8ccf0c00573e19a2488", "name": "7619b3aaed40e8ccf0c00573e19a2488", "type": "electric_scooter", "lon": -77.050284, "lat": 38.906264, "is_disabled": 0, "is_reserved": 0, "fusion_lat": 0.0, "fusion_lon": 0.0}, {"rental_uris": {"android": "https://dc.lft.to/lastmile_qr_scan", "ios": "https://dc.lft.to/lastmile_qr_scan"}, "bike_id": "3c0b771d0f3c8b3085c45b5d6a21c06a", "name": "3c0b771d0f3c8b3085c45b5d6a21c06a", "type": "electric_scooter", "lon": -77.033709, "lat": 38.9038645, "is_disabled": 0, "is_reserved": 0, "fusion_lat": 0.0, "fusion_lon": 0.0}, {"rental_uris": {"android": "https://dc.lft.to/lastmile_qr_scan", "ios": "https://dc.lft.to/lastmile_qr_scan"}, "bike_id": "736868802c475ee3179b095077bbcc68", "name": "736868802c475ee3179b095077bbcc68", "type": "electric_scooter", "lon": -77.03046566666667, "lat": 38.91331, "is_disabled": 0, "is_reserved": 0, "fusion_lat": 0.0, "fusion_lon": 0.0}, {"rental_uris": {"android": "https://dc.lft.to/lastmile_qr_scan", "ios": "https://dc.lft.to/lastmile_qr_scan"}, "bike_id": "e8542b56d15871251b308966a31d1b33", "name": "e8542b56d15871251b308966a31d1b33", "type": "electric_scooter", "lon": -77.05123183333333, "lat": 38.923446, "is_disabled": 0, "is_reserved": 0, "fusion_lat": 0.0, "fusion_lon": 0.0}, {"rental_uris": {"android": "https://dc.lft.to/lastmile_qr_scan", "ios": "https://dc.lft.to/lastmile_qr_scan"}, "bike_id": "bee13c6137425bf3d0c063e961449517", "name": "bee13c6137425bf3d0c063e961449517", "type": "electric_scooter", "lon": -77.032219, "lat": 38.902504666666665, "is_disabled": 0, "is_reserved": 0, "fusion_lat": 0.0, "fusion_lon": 0.0}, {"rental_uris": {"android": "https://dc.lft.to/lastmile_qr_scan", "ios": "https://dc.lft.to/lastmile_qr_scan"}, "bike_id": "70cf2d1776a447542e75adc586a1d067", "name": "70cf2d1776a447542e75adc586a1d067", "type": "electric_scooter", "lon": -77.02167483333334, "lat": 38.914600166666666, "is_disabled": 0, "is_reserved": 0, "fusion_lat": 0.0, "fusion_lon": 0.0}, {"rental_uris": {"android": "https://dc.lft.to/lastmile_qr_scan", "ios": "https://dc.lft.to/lastmile_qr_scan"}, "bike_id": "5af0883c0be2555813ebdb51550e1e5e", "name": "5af0883c0be2555813ebdb51550e1e5e", "type": "electric_scooter", "lon": -77.04170683333334, "lat": 38.904537833333336, "is_disabled": 0, "is_reserved": 0, "fusion_lat": 0.0, "fusion_lon": 0.0}, {"rental_uris": {"android": "https://dc.lft.to/lastmile_qr_scan", "ios": "https://dc.lft.to/lastmile_qr_scan"}, "bike_id": "74a5a61f2b81fedf5acdfa7ebbe563ed", "name": "74a5a61f2b81fedf5acdfa7ebbe563ed", "type": "electric_scooter", "lon": -77.0523875, "lat": 38.923578666666664, "is_disabled": 0, "is_reserved": 0, "fusion_lat": 0.0, "fusion_lon": 0.0}, {"rental_uris": {"android": "https://dc.lft.to/lastmile_qr_scan", "ios": "https://dc.lft.to/lastmile_qr_scan"}, "bike_id": "a299807a46fc152b8d5bf2d530c36407", "name": "a299807a46fc152b8d5bf2d530c36407", "type": "electric_scooter", "lon": -77.027938, "lat": 38.95412366666667, "is_disabled": 0, "is_reserved": 0, "fusion_lat": 0.0, "fusion_lon": 0.0}, {"rental_uris": {"android": "https://dc.lft.to/lastmile_qr_scan", "ios": "https://dc.lft.to/lastmile_qr_scan"}, "bike_id": "0c2a1786323d1675371fd93170f129f2", "name": "0c2a1786323d1675371fd93170f129f2", "type": "electric_scooter", "lon": -77.0119015, "lat": 38.903082, "is_disabled": 0, "is_reserved": 0, "fusion_lat": 0.0, "fusion_lon": 0.0}, {"rental_uris": {"android": "https://dc.lft.to/lastmile_qr_scan", "ios": "https://dc.lft.to/lastmile_qr_scan"}, "bike_id": "b459444a5f6fdcacf7ffb0791ba9840e", "name": "b459444a5f6fdcacf7ffb0791ba9840e", "type": "electric_scooter", "lon": -76.94970466666666, "lat": 38.89363016666667, "is_disabled": 0, "is_reserved": 0, "fusion_lat": 0.0, "fusion_lon": 0.0}, {"rental_uris": {"android": "https://dc.lft.to/lastmile_qr_scan", "ios": "https://dc.lft.to/lastmile_qr_scan"}, "bike_id": "bedff20a8216f53240b0eca888744658", "name": "bedff20a8216f53240b0eca888744658", "type": "electric_scooter", "lon": -77.046164, "lat": 38.91502466666667, "is_disabled": 0, "is_reserved": 0, "fusion_lat": 0.0, "fusion_lon": 0.0}, {"rental_uris": {"android": "https://dc.lft.to/lastmile_qr_scan", "ios": "https://dc.lft.to/lastmile_qr_scan"}, "bike_id": "58d173d5f25029c37f3ad537855f880a", "name": "58d173d5f25029c37f3ad537855f880a", "type": "electric_scooter", "lon": -77.0321475, "lat": 38.9180235, "is_disabled": 0, "is_reserved": 0, "fusion_lat": 0.0, "fusion_lon": 0.0}, {"rental_uris": {"android": "https://dc.lft.to/lastmile_qr_scan", "ios": "https://dc.lft.to/lastmile_qr_scan"}, "bike_id": "dc966ad6975b606d24fcfc50a9a09ea4", "name": "dc966ad6975b606d24fcfc50a9a09ea4", "type": "electric_scooter", "lon": -77.04492633333334, "lat": 38.90861266666667, "is_disabled": 0, "is_reserved": 0, "fusion_lat": 0.0, "fusion_lon": 0.0}, {"rental_uris": {"android": "https://dc.lft.to/lastmile_qr_scan", "ios": "https://dc.lft.to/lastmile_qr_scan"}, "bike_id": "35a0d8949bc41cef88cd6a6dfd620762", "name": "35a0d8949bc41cef88cd6a6dfd620762", "type": "electric_scooter", "lon": -77.03178883333334, "lat": 38.91757116666667, "is_disabled": 0, "is_reserved": 0, "fusion_lat": 0.0, "fusion_lon": 0.0}, {"rental_uris": {"android": "https://dc.lft.to/lastmile_qr_scan", "ios": "https://dc.lft.to/lastmile_qr_scan"}, "bike_id": "d5e5d8285fd9a14f54167335938f9283", "name": "d5e5d8285fd9a14f54167335938f9283", "type": "electric_scooter", "lon": -76.99775666666666, "lat": 38.844257666666664, "is_disabled": 0, "is_reserved": 0, "fusion_lat": 0.0, "fusion_lon": 0.0}, {"rental_uris": {"android": "https://dc.lft.to/lastmile_qr_scan", "ios": "https://dc.lft.to/lastmile_qr_scan"}, "bike_id": "96bfabf84f3ace1e8cfa800061f26b20", "name": "96bfabf84f3ace1e8cfa800061f26b20", "type": "electric_scooter", "lon": -77.03121816666666, "lat": 38.91562316666667, "is_disabled": 0, "is_reserved": 0, "fusion_lat": 0.0, "fusion_lon": 0.0}, {"rental_uris": {"android": "https://dc.lft.to/lastmile_qr_scan", "ios": "https://dc.lft.to/lastmile_qr_scan"}, "bike_id": "0a9024021af1427dab9d76f08c3f9c31", "name": "0a9024021af1427dab9d76f08c3f9c31", "type": "electric_scooter", "lon": -77.02483183333334, "lat": 38.920585833333334, "is_disabled": 0, "is_reserved": 0, "fusion_lat": 0.0, "fusion_lon": 0.0}, {"rental_uris": {"android": "https://dc.lft.to/lastmile_qr_scan", "ios": "https://dc.lft.to/lastmile_qr_scan"}, "bike_id": "73578a49c34057ae2c47ca14ea7300ef", "name": "73578a49c34057ae2c47ca14ea7300ef", "type": "electric_scooter", "lon": -77.0318775, "lat": 38.91094833333333, "is_disabled": 0, "is_reserved": 0, "fusion_lat": 0.0, "fusion_lon": 0.0}, {"rental_uris": {"android": "https://dc.lft.to/lastmile_qr_scan", "ios": "https://dc.lft.to/lastmile_qr_scan"}, "bike_id": "4d6b71471acfef3d72977fc09d80bf59", "name": "4d6b71471acfef3d72977fc09d80bf59", "type": "electric_scooter", "lon": -77.01218716666666, "lat": 38.897734666666665, "is_disabled": 0, "is_reserved": 0, "fusion_lat": 0.0, "fusion_lon": 0.0}, {"rental_uris": {"android": "https://dc.lft.to/lastmile_qr_scan", "ios": "https://dc.lft.to/lastmile_qr_scan"}, "bike_id": "be2a5d4e6e714f806d3d6cdc5b0dc565", "name": "be2a5d4e6e714f806d3d6cdc5b0dc565", "type": "electric_scooter", "lon": -76.95752166666666, "lat": 38.88436083333333, "is_disabled": 0, "is_reserved": 0, "fusion_lat": 0.0, "fusion_lon": 0.0}, {"rental_uris": {"android": "https://dc.lft.to/lastmile_qr_scan", "ios": "https://dc.lft.to/lastmile_qr_scan"}, "bike_id": "28aef50613fd06c2a79c4257a8801620", "name": "28aef50613fd06c2a79c4257a8801620", "type": "electric_scooter", "lon": -77.04866933333334, "lat": 38.91526833333333, "is_disabled": 0, "is_reserved": 0, "fusion_lat": 0.0, "fusion_lon": 0.0}, {"rental_uris": {"android": "https://dc.lft.to/lastmile_qr_scan", "ios": "https://dc.lft.to/lastmile_qr_scan"}, "bike_id": "25823fd41d6603b6525e7d4b2938ea6d", "name": "25823fd41d6603b6525e7d4b2938ea6d", "type": "electric_scooter", "lon": -76.98070383333334, "lat": 38.9016825, "is_disabled": 0, "is_reserved": 0, "fusion_lat": 0.0, "fusion_lon": 0.0}, {"rental_uris": {"android": "https://dc.lft.to/lastmile_qr_scan", "ios": "https://dc.lft.to/lastmile_qr_scan"}, "bike_id": "8ee44110ef13ffaf49b8f2612a8ac293", "name": "8ee44110ef13ffaf49b8f2612a8ac293", "type": "electric_bike", "lon": -77.10599366666666, "lat": 38.92895583333333, "is_disabled": 0, "is_reserved": 0, "fusion_lat": 0.0, "fusion_lon": 0.0}, {"rental_uris": {"android": "https://dc.lft.to/lastmile_qr_scan", "ios": "https://dc.lft.to/lastmile_qr_scan"}, "bike_id": "3f8457bc02067f4f5b4de63d6f79c5fd", "name": "3f8457bc02067f4f5b4de63d6f79c5fd", "type": "electric_scooter", "lon": -77.02585766666667, "lat": 38.92036683333333, "is_disabled": 0, "is_reserved": 0, "fusion_lat": 0.0, "fusion_lon": 0.0}, {"rental_uris": {"android": "https://dc.lft.to/lastmile_qr_scan", "ios": "https://dc.lft.to/lastmile_qr_scan"},