{"data": {"bikes": [{"bike_id": "16251bd4917e5cfeeacba19d2d17acb3", "name": "16251bd4917e5cfeeacba19d2d17acb3", "lat": 38.92042283333333, "fusion_lat": 0.0, "type": "electric_scooter", "lon": -77.03410816666667, "is_disabled": 0, "fusion_lon": 0.0, "rental_uris": {"android": "https://dc.lft.to/lastmile_qr_scan", "ios": "https://dc.lft.to/lastmile_qr_scan"}, "is_reserved": 0}, {"bike_id": "8160e9ae20a3415ac6dec355fbdb37ae", "name": "8160e9ae20a3415ac6dec355fbdb37ae", "lat": 38.92260133333333, "fusion_lat": 0.0, "type": "electric_scooter", "lon": -77.0469455, "is_disabled": 0, "fusion_lon": 0.0, "rental_uris": {"android": "https://dc.lft.to/lastmile_qr_scan", "ios": "https://dc.lft.to/lastmile_qr_scan"}, "is_reserved": 0}, {"bike_id": "e753d434f6d97541314d7b771643ec16", "name": "e753d434f6d97541314d7b771643ec16", "lat": 38.90004183333333, "fusion_lat": 0.0, "type": "electric_scooter", "lon": -77.04650433333333, "is_disabled": 0, "fusion_lon": 0.0, "rental_uris": {"android": "https://dc.lft.to/lastmile_qr_scan", "ios": "https://dc.lft.to/lastmile_qr_scan"}, "is_reserved": 0}, {"bike_id": "6359b2fe83e69b0dac5df7f7a8341114", "name": "6359b2fe83e69b0dac5df7f7a8341114", "lat": 38.917143333333335, "fusion_lat": 0.0, "type": "electric_scooter", "lon": -77.03868366666667, "is_disabled": 0, "fusion_lon": 0.0, "rental_uris": {"android": "https://dc.lft.to/lastmile_qr_scan", "ios": "https://dc.lft.to/lastmile_qr_scan"}, "is_reserved": 0}, {"bike_id": "6d7e466ec57a8d1ea122285320a2b991", "name": "6d7e466ec57a8d1ea122285320a2b991", "lat": 38.87837666666667, "fusion_lat": 0.0, "type": "electric_scooter", "lon": -76.98746816666667, "is_disabled": 0, "fusion_lon": 0.0, "rental_uris": {"android": "https://dc.lft.to/lastmile_qr_scan", "ios": "https://dc.lft.to/lastmile_qr_scan"}, "is_reserved": 0}, {"bike_id": "c1928c5a75572419a1e8f9bc97b74841", "name": "c1928c5a75572419a1e8f9bc97b74841", "lat": 38.92693466666667, "fusion_lat": 0.0, "type": "electric_scooter", "lon": -77.0257245, "is_disabled": 0, "fusion_lon": 0.0, "rental_uris": {"android": "https://dc.lft.to/lastmile_qr_scan", "ios": "https://dc.lft.to/lastmile_qr_scan"}, "is_reserved": 0}, {"bike_id": "c2b279b0ac05a84abfb7ad2c91e118d7", "name": "c2b279b0ac05a84abfb7ad2c91e118d7", "lat": 38.91684383333333, "fusion_lat": 0.0, "type": "electric_scooter", "lon": -77.02986916666667, "is_disabled": 0, "fusion_lon": 0.0, "rental_uris": {"android": "https://dc.lft.to/lastmile_qr_scan", "ios": "https://dc.lft.to/lastmile_qr_scan"}, "is_reserved": 0}, {"bike_id": "d7029463fbf715fdff02af6fcd582628", "name": "d7029463fbf715fdff02af6fcd582628", "lat": 38.91539266666667, "fusion_lat": 0.0, "type": "electric_scooter", "lon": -77.02082216666666, "is_disabled": 0, "fusion_lon": 0.0, "rental_uris": {"android": "https://dc.lft.to/lastmile_qr_scan", "ios": "https://dc.lft.to/lastmile_qr_scan"}, "is_reserved": 0}, {"bike_id": "cfdbf73db41c42315cc229ccf54aed98", "name": "cfdbf73db41c42315cc229ccf54aed98", "lat": 38.883713666666665, "fusion_lat": 0.0, "type": "electric_scooter", "lon": -76.92418516666666, "is_disabled": 0, "fusion_lon": 0.0, "rental_uris": {"android": "https://dc.lft.to/lastmile_qr_scan", "ios": "https://dc.lft.to/lastmile_qr_scan"}, "is_reserved": 0}, {"bike_id": "ee20d7f0c9ce7fffca0247d8663c4fae", "name": "ee20d7f0c9ce7fffca0247d8663c4fae", "lat": 38.89965816666667, "fusion_lat": 0.0, "type": "electric_scooter", "lon": -76.93856333333333, "is_disabled": 0, "fusion_lon": 0.0, "rental_uris": {"android": "https://dc.lft.to/lastmile_qr_scan", "ios": "https://dc.lft.to/lastmile_qr_scan"}, "is_reserved": 0}, {"bike_id": "c3b1153d9edaf84fd7bb75a1a0a43f90", "name": "c3b1153d9edaf84fd7bb75a1a0a43f90", "lat": 38.931505666666666, "fusion_lat": 0.0, "type": "electric_scooter", "lon": -77.07852533333333, "is_disabled": 0, "fusion_lon": 0.0, "rental_uris": {"android": "https://dc.lft.to/lastmile_qr_scan", "ios": "https://dc.lft.to/lastmile_qr_scan"}, "is_reserved": 0}, {"bike_id": "03b6d6ad229903c5d8c39cb3737255bb", "name": "03b6d6ad229903c5d8c39cb3737255bb", "lat": 38.930148833333334, "fusion_lat": 0.0, "type": "electric_scooter", "lon": -77.02327033333333, "is_disabled": 0, "fusion_lon": 0.0, "rental_uris": {"android": "https://dc.lft.to/lastmile_qr_scan", "ios": "https://dc.lft.to/lastmile_qr_scan"}, "is_reserved": 0}, {"bike_id": "4f8c19fee7b567d803ab241e32444a7b", "name": "4f8c19fee7b567d803ab241e32444a7b", "lat": 38.889986666666665, "fusion_lat": 0.0, "type": "electric_scooter", "lon": -77.048994, "is_disabled": 0, "fusion_lon": 0.0, "rental_uris": {"android": "https://dc.lft.to/lastmile_qr_scan", "ios": "https://dc.lft.to/lastmile_qr_scan"}, "is_reserved": 0}, {"bike_id": "3d718a9415f6049668c7e226f5c4ff50", "name": "3d718a9415f6049668c7e226f5c4ff50", "lat": 38.916394833333335, "fusion_lat": 0.0, "type": "electric_scooter", "lon": -77.03703083333333, "is_disabled": 0, "fusion_lon": 0.0, "rental_uris": {"android": "https://dc.lft.to/lastmile_qr_scan", "ios": "https://dc.lft.to/lastmile_qr_scan"}, "is_reserved": 0}, {"bike_id": "a5786dd0da0968d0cf46554f7053670d", "name": "a5786dd0da0968d0cf46554f7053670d", "lat": 38.934447, "fusion_lat": 0.0, "type": "electric_scooter", "lon": -77.02978616666667, "is_disabled": 0, "fusion_lon": 0.0, "rental_uris": {"android": "https://dc.lft.to/lastmile_qr_scan", "ios": "https://dc.lft.to/lastmile_qr_scan"}, "is_reserved": 0}, {"bike_id": "9440050381ca2b884667c98e6df5904c", "name": "9440050381ca2b884667c98e6df5904c", "lat": 38.913290833333335, "fusion_lat": 0.0, "type": "electric_scooter", "lon": -77.04797083333334, "is_disabled": 0, "fusion_lon": 0.0, "rental_uris": {"android": "https://dc.lft.to/lastmile_qr_scan", "ios": "https://dc.lft.to/lastmile_qr_scan"}, "is_reserved": 0}, {"bike_id": "929a1b2965a3b6ac93c6dbad48a08bc3", "name": "929a1b2965a3b6ac93c6dbad48a08bc3", "lat": 38.89607, "fusion_lat": 0.0, "type": "electric_scooter", "lon": -77.0448635, "is_disabled": 0, "fusion_lon": 0.0, "rental_uris": {"android": "https://dc.lft.to/lastmile_qr_scan", "ios": "https://dc.lft.to/lastmile_qr_scan"}, "is_reserved": 0}, {"bike_id": "034eea20ee45d63bd9fd4931ff2794f9", "name": "034eea20ee45d63bd9fd4931ff2794f9", "lat": 38.887861666666666, "fusion_lat": 0.0, "type": "electric_bike", "lon": -76.92338283333333, "is_disabled": 0, "fusion_lon": 0.0, "rental_uris": {"android": "https://dc.lft.to/lastmile_qr_scan", "ios": "https://dc.lft.to/lastmile_qr_scan"}, "is_reserved": 0}, {"bike_id": "1f986b36036748f0d5653179c815d671", "name": "1f986b36036748f0d5653179c815d671", "lat": 38.898503, "fusion_lat": 0.0, "type": "electric_scooter", "lon": -77.029451, "is_disabled": 0, "fusion_lon": 0.0, "rental_uris": {"android": "https://dc.lft.to/lastmile_qr_scan", "ios": "https://dc.lft.to/lastmile_qr_scan"}, "is_reserved": 0}, {"bike_id": "9709b6064b81c562ca55411e2861d775", "name": "9709b6064b81c562ca55411e2861d775", "lat": 38.902145, "fusion_lat": 0.0, "type": "electric_scooter", "lon": -77.04768516666667, "is_disabled": 0, "fusion_lon": 0.0, "rental_uris": {"android": "https://dc.lft.to/lastmile_qr_scan", "ios": "https://dc.lft.to/lastmile_qr_scan"}, "is_reserved": 0}, {"bike_id": "5ea0078df94e8d6bca5baa97c925d41c", "name": "5ea0078df94e8d6bca5baa97c925d41c", "lat": 38.921115, "fusion_lat": 0.0, "type": "electric_scooter", "lon": -77.04166183333334, "is_disabled": 0, "fusion_lon": 0.0, "rental_uris": {"android": "https://dc.lft.to/lastmile_qr_scan", "ios": "https://dc.lft.to/lastmile_qr_scan"}, "is_reserved": 0}, {"bike_id": "df4c8f0d7490b2c6f3108b2f6cf5f845", "name": "df4c8f0d7490b2c6f3108b2f6cf5f845", "lat": 38.93153616666667, "fusion_lat": 0.0, "type": "electric_scooter", "lon": -77.03625433333333, "is_disabled": 0, "fusion_lon": 0.0, "rental_uris": {"android": "https://dc.lft.to/lastmile_qr_scan", "ios": "https://dc.lft.to/lastmile_qr_scan"}, "is_reserved": 0}, {"bike_id": "128e556d3f07df88fdc01938c0b44a0c", "name": "128e556d3f07df88fdc01938c0b44a0c", "lat": 38.926615166666664, "fusion_lat": 0.0, "type": "electric_scooter", "lon": -77.02753566666667, "is_disabled": 0, "fusion_lon": 0.0, "rental_uris": {"android": "https://dc.lft.to/lastmile_qr_scan", "ios": "https://dc.lft.to/lastmile_qr_scan"}, "is_reserved": 0}, {"bike_id": "89e828a6b21386df033ddaafb7804666", "name": "89e828a6b21386df033ddaafb7804666", "lat": 38.974804166666665, "fusion_lat": 0.0, "type": "electric_scooter", "lon": -77.0168935, "is_disabled": 0, "fusion_lon": 0.0, "rental_uris": {"android": "https://dc.lft.to/lastmile_qr_scan", "ios": "https://dc.lft.to/lastmile_qr_scan"}, "is_reserved": 0}, {"bike_id": "3fc36ec305706d770cf3245068965da4", "name": "3fc36ec305706d770cf3245068965da4", "lat": 38.905502, "fusion_lat": 0.0, "type": "electric_scooter", "lon": -77.04219283333333, "is_disabled": 0, "fusion_lon": 0.0, "rental_uris": {"android": "https://dc.lft.to/lastmile_qr_scan", "ios": "https://dc.lft.to/lastmile_qr_scan"}, "is_reserved": 0}, {"bike_id": "cdc8993659d2f2a0c4d32af6782f7e55", "name": "cdc8993659d2f2a0c4d32af6782f7e55", "lat": 38.91328583333333, "fusion_lat": 0.0, "type": "electric_scooter", "lon": -77.01499133333333, "is_disabled": 0, "fusion_lon": 0.0, "rental_uris": {"android": "https://dc.lft.to/lastmile_qr_scan", "ios": "https://dc.lft.to/lastmile_qr_scan"}, "is_reserved": 0}, {"bike_id": "05bab060bd9f3ca32d17d125fa5dc671", "name": "05bab060bd9f3ca32d17d125fa5dc671", "lat": 38.911646, "fusion_lat": 0.0, "type": "electric_scooter", "lon": -77.03836133333333, "is_disabled": 0, "fusion_lon": 0.0, "rental_uris": {"android": "https://dc.lft.to/lastmile_qr_scan", "ios": "https://dc.lft.to/lastmile_qr_scan"}, "is_reserved": 0}, {"bike_id": "eef2b50e1eb1ee462cbad9049d267fbc", "name": "eef2b50e1eb1ee462cbad9049d267fbc", "lat": 38.92147516666667, "fusion_lat": 0.0, "type": "electric_scooter", "lon": -77.021, "is_disabled": 0, "fusion_lon": 0.0, "rental_uris": {"android": "https://dc.lft.to/lastmile_qr_scan", "ios": "https://dc.lft.to/lastmile_qr_scan"}, "is_reserved": 0}, {"bike_id": "73743a8bb95d7c4a50cee90e6559dc28", "name": "73743a8bb95d7c4a50cee90e6559dc28", "lat": 38.91874716666667, "fusion_lat": 0.0, "type": "electric_bike", "lon": -76.96477483333334, "is_disabled": 0, "fusion_lon": 0.0, "rental_uris": {"android": "https://dc.lft.to/lastmile_qr_scan", "ios": "https://dc.lft.to/lastmile_qr_scan"}, "is_reserved": 0}, {"bike_id": "510ed1d21699ade3ea14a4f257c25efd", "name": "510ed1d21699ade3ea14a4f257c25efd", "lat": 38.92294366666667, "fusion_lat": 0.0, "type": "electric_scooter", "lon": -76.99782733333333, "is_disabled": 0, "fusion_lon": 0.0, "rental_uris": {"android": "https://dc.lft.to/lastmile_qr_scan", "ios": "https://dc.lft.to/lastmile_qr_scan"}, "is_reserved": 0}, {"bike_id": "717c8a492c3a8f9e8b05087beb45626a", "name": "717c8a492c3a8f9e8b05087beb45626a", "lat": 38.919186833333335, "fusion_lat": 0.0, "type": "electric_scooter", "lon": -77.07275416666667, "is_disabled": 0, "fusion_lon": 0.0, "rental_uris": {"android": "https://dc.lft.to/lastmile_qr_scan", "ios": "https://dc.lft.to/lastmile_qr_scan"}, "is_reserved": 0}, {"bike_id": "555dade249b463b3b97d6aff501afae1", "name": "555dade249b463b3b97d6aff501afae1", "lat": 38.926641333333336, "fusion_lat": 0.0, "type": "electric_scooter", "lon": -77.0275755, "is_disabled": 0, "fusion_lon": 0.0, "rental_uris": {"android": "https://dc.lft.to/lastmile_qr_scan", "ios": "https://dc.lft.to/lastmile_qr_scan"}, "is_reserved": 0}, {"bike_id": "9102ee7aed54ed56d8c3d49a2fb3efb2", "name": "9102ee7aed54ed56d8c3d49a2fb3efb2", "lat": 38.896154333333335, "fusion_lat": 0.0, "type": "electric_scooter", "lon": -77.02267183333333, "is_disabled": 0, "fusion_lon": 0.0, "rental_uris": {"android": "https://dc.lft.to/lastmile_qr_scan", "ios": "https://dc.lft.to/lastmile_qr_scan"}, "is_reserved": 0}, {"bike_id": "6ac480e925f341ddc1f925190a17ec47", "name": "6ac480e925f341ddc1f925190a17ec47", "lat": 38.88491633333334, "fusion_lat": 0.0, "type": "electric_scooter", "lon": -77.02161033333333, "is_disabled": 0, "fusion_lon": 0.0, "rental_uris": {"android": "https://dc.lft.to/lastmile_qr_scan", "ios": "https://dc.lft.to/lastmile_qr_scan"}, "is_reserved": 0}, {"bike_id": "383b2e60894b9bbc5404ad6cfb232c58", "name": "383b2e60894b9bbc5404ad6cfb232c58", "lat": 38.892242333333336, "fusion_lat": 0.0, "type": "electric_scooter", "lon": -77.04502116666667, "is_disabled": 0, "fusion_lon": 0.0, "rental_uris": {"android": "https://dc.lft.to/lastmile_qr_scan", "ios": "https://dc.lft.to/lastmile_qr_scan"}, "is_reserved": 0}, {"bike_id": "ab8da10f6e85a836e28fe64c703212f8", "name": "ab8da10f6e85a836e28fe64c703212f8", "lat": 38.92110433333333, "fusion_lat": 0.0, "type": "electric_scooter", "lon": -77.04162616666666, "is_disabled": 0, "fusion_lon": 0.0, "rental_uris": {"android": "https://dc.lft.to/lastmile_qr_scan", "ios": "https://dc.lft.to/lastmile_qr_scan"}, "is_reserved": 0}, {"bike_id": "db9a73b8ecac04bda65acc5c7c48705d", "name": "db9a73b8ecac04bda65acc5c7c48705d", "lat": 38.917081333333336, "fusion_lat": 0.0, "type": "electric_scooter", "lon": -77.02817366666666, "is_disabled": 0, "fusion_lon": 0.0, "rental_uris": {"android": "https://dc.lft.to/lastmile_qr_scan", "ios": "https://dc.lft.to/lastmile_qr_scan"}, "is_reserved": 0}, {"bike_id": "431b15474fcb5d2314d0f22e48e62ebf", "name": "431b15474fcb5d2314d0f22e48e62ebf", "lat": 38.899078333333335, "fusion_lat": 0.0, "type": "electric_scooter", "lon": -76.98, "is_disabled": 0, "fusion_lon": 0.0, "rental_uris": {"android": "https://dc.lft.to/lastmile_qr_scan", "ios": "https://dc.lft.to/lastmile_qr_scan"}, "is_reserved": 0}, {"bike_id": "0fa97d10d879b6f5969ae0ed0c0d7cb6", "name": "0fa97d10d879b6f5969ae0ed0c0d7cb6", "lat": 38.91461283333334, "fusion_lat": 0.0, "type": "electric_scooter", "lon": -77.03199116666667, "is_disabled": 0, "fusion_lon": 0.0, "rental_uris": {"android": "https://dc.lft.to/lastmile_qr_scan", "ios": "https://dc.lft.to/lastmile_qr_scan"}, "is_reserved": 0}, {"bike_id": "201a379f5cb0d683488c8984e49d375a", "name": "201a379f5cb0d683488c8984e49d375a", "lat": 38.9731645, "fusion_lat": 0.0, "type": "electric_bike", "lon": -76.994793, "is_disabled": 0, "fusion_lon": 0.0, "rental_uris": {"android": "https://dc.lft.to/lastmile_qr_scan", "ios": "https://dc.lft.to/lastmile_qr_scan"}, "is_reserved": 0}, {"bike_id": "aca0e0f0265ce4a0c68249ea4095b9bc", "name": "aca0e0f0265ce4a0c68249ea4095b9bc", "lat": 38.97488166666667, "fusion_lat": 0.0, "type": "electric_scooter", "lon": -77.01689566666667, "is_disabled": 0, "fusion_lon": 0.0, "rental_uris": {"android": "https://dc.lft.to/lastmile_qr_scan", "ios": "https://dc.lft.to/lastmile_qr_scan"}, "is_reserved": 0}, {"bike_id": "7e212bae2ef6e00c36a1ad1b2d4e5abf", "name": "7e212bae2ef6e00c36a1ad1b2d4e5abf", "lat": 38.928456833333335, "fusion_lat": 0.0, "type": "electric_scooter", "lon": -77.013899, "is_disabled": 0, "fusion_lon": 0.0, "rental_uris": {"android": "https://dc.lft.to/lastmile_qr_scan", "ios": "https://dc.lft.to/lastmile_qr_scan"}, "is_reserved": 0}, {"bike_id": "aa415a9ad6894923b3ebf5aa49d15244", "name": "aa415a9ad6894923b3ebf5aa49d15244", "lat": 38.91760683333333, "fusion_lat": 0.0, "type": "electric_scooter", "lon": -77.03175583333334, "is_disabled": 0, "fusion_lon": 0.0, "rental_uris": {"android": "https://dc.lft.to/lastmile_qr_scan", "ios": "https://dc.lft.to/lastmile_qr_scan"}, "is_reserved": 0}, {"bike_id": "1625e9fed679c9fcaff5181099bdd77c", "name": "1625e9fed679c9fcaff5181099bdd77c", "lat": 38.864309666666664, "fusion_lat": 0.0, "type": "electric_scooter", "lon": -76.99859583333334, "is_disabled": 0, "fusion_lon": 0.0, "rental_uris": {"android": "https://dc.lft.to/lastmile_qr_scan", "ios": "https://dc.lft.to/lastmile_qr_scan"}, "is_reserved": 0}, {"bike_id": "7e68c5c03698cdcf7171ad06b761e10d", "name": "7e68c5c03698cdcf7171ad06b761e10d", "lat": 38.9026265, "fusion_lat": 0.0, "type": "electric_scooter", "lon": -77.02692016666667, "is_disabled": 0, "fusion_lon": 0.0, "rental_uris": {"android": "https://dc.lft.to/lastmile_qr_scan", "ios": "https://dc.lft.to/lastmile_qr_scan"}, "is_reserved": 0}, {"bike_id": "b42d7b7037fe86792ba06b4fbff1b868", "name": "b42d7b7037fe86792ba06b4fbff1b868", "lat": 38.9194155, "fusion_lat": 0.0, "type": "electric_scooter", "lon": -77.01774783333333, "is_disabled": 0, "fusion_lon": 0.0, "rental_uris": {"android": "https://dc.lft.to/lastmile_qr_scan", "ios": "https://dc.lft.to/lastmile_qr_scan"}, "is_reserved": 0}, {"bike_id": "089a04bc1ef7486713e7848f822c9c73", "name": "089a04bc1ef7486713e7848f822c9c73", "lat": 38.91831633333334, "fusion_lat": 0.0, "type": "electric_scooter", "lon": -77.04561033333333, "is_disabled": 0, "fusion_lon": 0.0, "rental_uris": {"android": "https://dc.lft.to/lastmile_qr_scan", "ios": "https://dc.lft.to/lastmile_qr_scan"}, "is_reserved": 0}, {"bike_id": "0ae69b1a14e50f9350e9945372fcff18", "name": "0ae69b1a14e50f9350e9945372fcff18", "lat": 38.930511833333334, "fusion_lat": 0.0, "type": "electric_scooter", "lon": -77.03268, "is_disabled": 0, "fusion_lon": 0.0, "rental_uris": {"android": "https://dc.lft.to/lastmile_qr_scan", "ios": "https://dc.lft.to/lastmile_qr_scan"}, "is_reserved": 0}, {"bike_id": "592b5efef2f932264ed51b6256b44fdf", "name": "592b5efef2f932264ed51b6256b44fdf", "lat": 38.92394816666667, "fusion_lat": 0.0, "type": "electric_scooter", "lon": -77.02484566666666, "is_disabled": 0, "fusion_lon": 0.0, "rental_uris": {"android": "https://dc.lft.to/lastmile_qr_scan", "ios": "https://dc.lft.to/lastmile_qr_scan"}, "is_reserved": 0}, {"bike_id": "e622c30c42718403742bd2a3c53b0c99", "name": "e622c30c42718403742bd2a3c53b0c99", "lat": 38.880541, "fusion_lat": 0.0, "type": "electric_scooter", "lon": -77.0117695, "is_disabled": 0, "fusion_lon": 0.0, "rental_uris": {"android": "https://dc.lft.to/lastmile_qr_scan", "ios": "https://dc.lft.to/lastmile_qr_scan"}, "is_reserved": 0}, {"bike_id": "eaab824cc795fd81589cdaa0a688fa25", "name": "eaab824cc795fd81589cdaa0a688fa25", "lat": 38.936058, "fusion_lat": 0.0, "type": "electric_scooter", "lon": -77.02881216666667, "is_disabled": 0, "fusion_lon": 0.0, "rental_uris": {"android": "https://dc.lft.to/lastmile_qr_scan", "ios": "https://dc.lft.to/lastmile_qr_scan"}, "is_reserved": 0}, {"bike_id": "701f495e234acbd54946ffef8b74eb8e", "name": "701f495e234acbd54946ffef8b74eb8e", "lat": 38.90049616666667, "fusion_lat": 0.0, "type": "electric_scooter", "lon": -77.03794333333333, "is_disabled": 0, "fusion_lon": 0.0, "rental_uris": {"android": "https://dc.lft.to/lastmile_qr_scan", "ios": "https://dc.lft.to/lastmile_qr_scan"}, "is_reserved": 0}, {"bike_id": "3705f05d4a9227db28c2d0f1df486793", "name": "3705f05d4a9227db28c2d0f1df486793", "lat": 38.90076616666666, "fusion_lat": 0.0, "type": "electric_scooter", "lon": -76.98678216666667, "is_disabled": 0, "fusion_lon": 0.0, "rental_uris": {"android": "https://dc.lft.to/lastmile_qr_scan", "ios": "https://dc.lft.to/lastmile_qr_scan"}, "is_reserved": 0}, {"bike_id": "c9888eefa6a47e70b76db0c5c01a0e94", "name": "c9888eefa6a47e70b76db0c5c01a0e94", "lat": 38.92454883333333, "fusion_lat": 0.0, "type": "electric_scooter", "lon": -76.999072, "is_disabled": 0, "fusion_lon": 0.0, "rental_uris": {"android": "https://dc.lft.to/lastmile_qr_scan", "ios": "https://dc.lft.to/lastmile_qr_scan"}, "is_reserved": 0}, {"bike_id": "ab96a12b1c8f3ef828facfe989f0ac59", "name": "ab96a12b1c8f3ef828facfe989f0ac59", "lat": 38.94026066666667, "fusion_lat": 0.0, "type": "electric_scooter", "lon": -77.02643066666667, "is_disabled": 0, "fusion_lon": 0.0, "rental_uris": {"android": "https://dc.lft.to/lastmile_qr_scan", "ios": "https://dc.lft.to/lastmile_qr_scan"}, "is_reserved": 0}, {"bike_id": "046bac7a8730552680ccddc1bd73c72a", "name": "046bac7a8730552680ccddc1bd73c72a", "lat": 38.943095, "fusion_lat": 0.0, "type": "electric_scooter", "lon": -77.05925216666667, "is_disabled": 0, "fusion_lon": 0.0, "rental_uris": {"android": "https://dc.lft.to/lastmile_qr_scan", "ios": "https://dc.lft.to/lastmile_qr_scan"}, "is_reserved": 0}, {"bike_id": "ef1830a2004df8dfdd1d56c9f74576a8", "name": "ef1830a2004df8dfdd1d56c9f74576a8", "lat": 38.84910416666666, "fusion_lat": 0.0, "type": "electric_bike", "lon": -77.07791516666667, "is_disabled": 0, "fusion_lon": 0.0, "rental_uris": {"android": "https://dc.lft.to/lastmile_qr_scan", "ios": "https://dc.lft.to/lastmile_qr_scan"}, "is_reserved": 0}, {"bike_id": "2a09d2645abee560ef94e23b26f9881e", "name": "2a09d2645abee560ef94e23b26f9881e", "lat": 38.90262633333333, "fusion_lat": 0.0, "type": "electric_scooter", "lon": -76.99854133333334, "is_disabled": 0, "fusion_lon": 0.0, "rental_uris": {"android": "https://dc.lft.to/lastmile_qr_scan", "ios": "https://dc.lft.to/lastmile_qr_scan"}, "is_reserved": 0}, {"bike_id": "bfabd7864d4d20a37e5f3aae68e447bb", "name": "bfabd7864d4d20a37e5f3aae68e447bb", "lat": 38.92286516666667, "fusion_lat": 0.0, "type": "electric_scooter", "lon": -77.036582, "is_disabled": 0, "fusion_lon": 0.0, "rental_uris": {"android": "https://dc.lft.to/lastmile_qr_scan", "ios": "https://dc.lft.to/lastmile_qr_scan"}, "is_reserved": 0}, {"bike_id": "ef8973ea3e07f0e125329726cba2c663", "name": "ef8973ea3e07f0e125329726cba2c663", "lat": 38.907758333333334, "fusion_lat": 0.0, "type": "electric_scooter", "lon": -76.99440666666666, "is_disabled": 0, "fusion_lon": 0.0, "rental_uris": {"android": "https://dc.lft.to/lastmile_qr_scan", "ios": "https://dc.lft.to/lastmile_qr_scan"}, "is_reserved": 0}, {"bike_id": "99898529b782d7fc19aec61d13a3490e", "name": "99898529b782d7fc19aec61d13a3490e", "lat": 38.9192215, "fusion_lat": 0.0, "type": "electric_scooter", "lon": -77.0463625, "is_disabled": 0, "fusion_lon": 0.0, "rental_uris": {"android": "https://dc.lft.to/lastmile_qr_scan", "ios": "https://dc.lft.to/lastmile_qr_scan"}, "is_reserved": 0}, {"bike_id": "3c19a83c1888434cba8b79cf86898e5a", "name": "3c19a83c1888434cba8b79cf86898e5a", "lat": 38.89685716666666, "fusion_lat": 0.0, "type": "electric_scooter", "lon": -77.00490283333333, "is_disabled": 0, "fusion_lon": 0.0, "rental_uris": {"android": "https://dc.lft.to/lastmile_qr_scan", "ios": "https://dc.lft.to/lastmile_qr_scan"}, "is_reserved": 0}, {"bike_id": "3217f44178279379dd6178c3890d5c81", "name": "3217f44178279379dd6178c3890d5c81", "lat": 38.926900833333335, "fusion_lat": 0.0, "type": "electric_scooter", "lon": -77.02575983333334, "is_disabled": 0, "fusion_lon": 0.0, "rental_uris": {"android": "https://dc.lft.to/lastmile_qr_scan", "ios": "https://dc.lft.to/lastmile_qr_scan"}, "is_reserved": 0}, {"bike_id": "8e28d6f70c7dd4d4ff8e000fe45c9103", "name": "8e28d6f70c7dd4d4ff8e000fe45c9103", "lat": 38.89393783333333, "fusion_lat": 0.0, "type": "electric_bike", "lon": -76.86846916666667, "is_disabled": 0, "fusion_lon": 0.0, "rental_uris": {"android": "https://dc.lft.to/lastmile_qr_scan", "ios": "https://dc.lft.to/lastmile_qr_scan"}, "is_reserved": 0}, {"bike_id": "ce5b6ef26703221254b274d542d37485", "name": "ce5b6ef26703221254b274d542d37485", "lat": 38.89509616666667, "fusion_lat": 0.0, "type": "electric_scooter", "lon": -77.01135716666667, "is_disabled": 0, "fusion_lon": 0.0, "rental_uris": {"android": "https://dc.lft.to/lastmile_qr_scan", "ios": "https://dc.lft.to/lastmile_qr_scan"}, "is_reserved": 0}, {"bike_id": "ecc0077016dc33747d6b34a669aa0fd9", "name": "ecc0077016dc33747d6b34a669aa0fd9", "lat": 38.9576165, "fusion_lat": 0.0, "type": "electric_scooter", "lon": -77.01490166666666, "is_disabled": 0, "fusion_lon": 0.0, "rental_uris": {"android": "https://dc.lft.to/lastmile_qr_scan", "ios": "https://dc.lft.to/lastmile_qr_scan"}, "is_reserved": 0}, {"bike_id": "ea1eaa34955f2f35ec4e8b0be54502d8", "name": "ea1eaa34955f2f35ec4e8b0be54502d8", "lat": 38.905872333333335, "fusion_lat": 0.0, "type": "electric_scooter", "lon": -76.98411066666667, "is_disabled": 0, "fusion_lon": 0.0, "rental_uris": {"android": "https://dc.lft.to/lastmile_qr_scan", "ios": "https://dc.lft.to/lastmile_qr_scan"}, "is_reserved": 0}, {"bike_id": "f500c5babfe6da69514d9e04272f122d", "name": "f500c5babfe6da69514d9e04272f122d", "lat": 38.924778, "fusion_lat": 0.0, "type": "electric_scooter", "lon": -77.03043083333333, "is_disabled": 0, "fusion_lon": 0.0, "rental_uris": {"android": "https://dc.lft.to/lastmile_qr_scan", "ios": "https://dc.lft.to/lastmile_qr_scan"}, "is_reserved": 0}, {"bike_id": "334cc4faf13af1b72f14df8671f3cbbb", "name": "334cc4faf13af1b72f14df8671f3cbbb", "lat": 38.920398, "fusion_lat": 0.0, "type": "electric_scooter", "lon": -77.042021, "is_disabled": 0, "fusion_lon": 0.0, "rental_uris": {"android": "https://dc.lft.to/lastmile_qr_scan", "ios": "https://dc.lft.to/lastmile_qr_scan"}, "is_reserved": 0}, {"bike_id": "d3ed4b95664d9cbee15aa67f77f036d3", "name": "d3ed4b95664d9cbee15aa67f77f036d3", "lat": 38.9175175, "fusion_lat": 0.0, "type": "electric_scooter", "lon": -77.0385775, "is_disabled": 0, "fusion_lon": 0.0, "rental_uris": {"android": "https://dc.lft.to/lastmile_qr_scan", "ios": "https://dc.lft.to/lastmile_qr_scan"}, "is_reserved": 0}, {"bike_id": "5c167b615240422a226ac0270488edf0", "name": "5c167b615240422a226ac0270488edf0", "lat": 38.9117675, "fusion_lat": 0.0, "type": "electric_scooter", "lon": -77.06629, "is_disabled": 0, "fusion_lon": 0.0, "rental_uris": {"android": "https://dc.lft.to/lastmile_qr_scan", "ios": "https://dc.lft.to/lastmile_qr_scan"}, "is_reserved": 0}, {"bike_id": "fc6921e60fb67a32f6f3cb867f6725e9", "name": "fc6921e60fb67a32f6f3cb867f6725e9", "lat": 38.92211866666667, "fusion_lat": 0.0, "type": "electric_scooter", "lon": -77.0265275, "is_disabled": 0, "fusion_lon": 0.0, "rental_uris": {"android": "https://dc.lft.to/lastmile_qr_scan", "ios": "https://dc.lft.to/lastmile_qr_scan"}, "is_reserved": 0}, {"bike_id": "a7df945c991670c18d583f9fbc215cc0", "name": "a7df945c991670c18d583f9fbc215cc0", "lat": 38.912518, "fusion_lat": 0.0, "type": "electric_scooter", "lon": -77.02210166666667, "is_disabled": 0, "fusion_lon": 0.0, "rental_uris": {"android": "https://dc.lft.to/lastmile_qr_scan", "ios": "https://dc.lft.to/lastmile_qr_scan"}, "is_reserved": 0}, {"bike_id": "5af55701a47f4efb9b3ea425265dabfb", "name": "5af55701a47f4efb9b3ea425265dabfb", "lat": 38.919580333333336, "fusion_lat": 0.0, "type": "electric_scooter", "lon": -77.02300216666667, "is_disabled": 0, "fusion_lon": 0.0, "rental_uris": {"android": "https://dc.lft.to/lastmile_qr_scan", "ios": "https://dc.lft.to/lastmile_qr_scan"}, "is_reserved": 0}, {"bike_id": "fce0e4c69fcc941d153915844337a14f", "name": "fce0e4c69fcc941d153915844337a14f", "lat": 38.916901, "fusion_lat": 0.0, "type": "electric_scooter", "lon": -77.03220366666666, "is_disabled": 0, "fusion_lon": 0.0, "rental_uris": {"android": "https://dc.lft.to/lastmile_qr_scan", "ios": "https://dc.lft.to/lastmile_qr_scan"}, "is_reserved": 0}, {"bike_id": "76db119d95927eb66ffa712d31fa5fc6", "name": "76db119d95927eb66ffa712d31fa5fc6", "lat": 38.876595, "fusion_lat": 0.0, "type": "electric_scooter", "lon": -76.99318866666667, "is_disabled": 0, "fusion_lon": 0.0, "rental_uris": {"android": "https://dc.lft.to/lastmile_qr_scan", "ios": "https://dc.lft.to/lastmile_qr_scan"}, "is_reserved": 0}, {"bike_id": "7d10d9e9d2babe1b828e1d1e0eda41c9", "name": "7d10d9e9d2babe1b828e1d1e0eda41c9", "lat": 38.88506016666667, "fusion_lat": 0.0, "type": "electric_scooter", "lon": -76.99684116666667, "is_disabled": 0, "fusion_lon": 0.0, "rental_uris": {"android": "https://dc.lft.to/lastmile_qr_scan", "ios": "https://dc.lft.to/lastmile_qr_scan"}, "is_reserved": 0}, {"bike_id": "6349d58ec45ebe7577403609eebe204f", "name": "6349d58ec45ebe7577403609eebe204f", "lat": 38.98222033333333, "fusion_lat": 0.0, "type": "electric_scooter", "lon": -77.0264165, "is_disabled": 0, "fusion_lon": 0.0, "rental_uris": {"android": "https://dc.lft.to/lastmile_qr_scan", "ios": "https://dc.lft.to/lastmile_qr_scan"}, "is_reserved": 0}, {"bike_id": "7fab724ef4df5badba5db35161728945", "name": "7fab724ef4df5badba5db35161728945", "lat": 38.94413016666667, "fusion_lat": 0.0, "type": "electric_scooter", "lon": -77.0632125, "is_disabled": 0, "fusion_lon": 0.0, "rental_uris": {"android": "https://dc.lft.to/lastmile_qr_scan", "ios": "https://dc.lft.to/lastmile_qr_scan"}, "is_reserved": 0}, {"bike_id": "61ea98d736e7ae5c2369189b4a65bd2e", "name": "61ea98d736e7ae5c2369189b4a65bd2e", "lat": 38.89221766666667, "fusion_lat": 0.0, "type": "electric_scooter", "lon": -77.01735133333334, "is_disabled": 0, "fusion_lon": 0.0, "rental_uris": {"android": "https://dc.lft.to/lastmile_qr_scan", "ios": "https://dc.lft.to/lastmile_qr_scan"}, "is_reserved": 0}, {"bike_id": "8d88bff496f26b4a4a20bd7297e19616", "name": "8d88bff496f26b4a4a20bd7297e19616", "lat": 38.917168833333335, "fusion_lat": 0.0, "type": "electric_scooter", "lon": -77.02967116666666, "is_disabled": 0, "fusion_lon": 0.0, "rental_uris": {"android": "https://dc.lft.to/lastmile_qr_scan", "ios": "https://dc.lft.to/lastmile_qr_scan"}, "is_reserved": 0}, {"bike_id": "f29468915a8efe1cdb09591c002e0a83", "name": "f29468915a8efe1cdb09591c002e0a83", "lat": 38.89222216666667, "fusion_lat": 0.0, "type": "electric_scooter", "lon": -77.04367566666667, "is_disabled": 0, "fusion_lon": 0.0, "rental_uris": {"android": "https://dc.lft.to/lastmile_qr_scan", "ios": "https://dc.lft.to/lastmile_qr_scan"}, "is_reserved": 0}, {"bike_id": "cc77d070ecdc09f2ce033fa4c05b92f3", "name": "cc77d070ecdc09f2ce033fa4c05b92f3", "lat": 38.912678, "fusion_lat": 0.0, "type": "electric_scooter", "lon": -77.0224735, "is_disabled": 0, "fusion_lon": 0.0, "rental_uris": {"android": "https://dc.lft.to/lastmile_qr_scan", "ios": "https://dc.lft.to/lastmile_qr_scan"}, "is_reserved": 0}, {"bike_id": "9f2a90f5b790589679dbdf68d7493b92", "name": "9f2a90f5b790589679dbdf68d7493b92", "lat": 38.910535833333334, "fusion_lat": 0.0, "type": "electric_scooter", "lon": -77.055218, "is_disabled": 0, "fusion_lon": 0.0, "rental_uris": {"android": "https://dc.lft.to/lastmile_qr_scan", "ios": "https://dc.lft.to/lastmile_qr_scan"}, "is_reserved": 0}, {"bike_id": "f7b357f14ab7e9ea63a521f9aba00c5a", "name": "f7b357f14ab7e9ea63a521f9aba00c5a", "lat": 38.91160966666666, "fusion_lat": 0.0, "type": "electric_scooter", "lon": -77.038409, "is_disabled": 0, "fusion_lon": 0.0, "rental_uris": {"android": "https://dc.lft.to/lastmile_qr_scan", "ios": "https://dc.lft.to/lastmile_qr_scan"}, "is_reserved": 0}, {"bike_id": "39a06828996fe222573ce21e7a804382", "name": "39a06828996fe222573ce21e7a804382", "lat": 38.9353465, "fusion_lat": 0.0, "type": "electric_scooter", "lon": -77.023439, "is_disabled": 0, "fusion_lon": 0.0, "rental_uris": {"android": "https://dc.lft.to/lastmile_qr_scan", "ios": "https://dc.lft.to/lastmile_qr_scan"}, "is_reserved": 0}, {"bike_id": "59fc92a8a85fda09d497208d450d0ae4", "name": "59fc92a8a85fda09d497208d450d0ae4", "lat": 38.92435016666667, "fusion_lat": 0.0, "type": "electric_scooter", "lon": -77.0340405, "is_disabled": 0, "fusion_lon": 0.0, "rental_uris": {"android": "https://dc.lft.to/lastmile_qr_scan", "ios": "https://dc.lft.to/lastmile_qr_scan"}, "is_reserved": 0}, {"bike_id": "fc303848509a3b174487ae1001608251", "name": "fc303848509a3b174487ae1001608251", "lat": 38.9234865, "fusion_lat": 0.0, "type": "electric_scooter", "lon": -77.033616, "is_disabled": 0, "fusion_lon": 0.0, "rental_uris": {"android": "https://dc.lft.to/lastmile_qr_scan", "ios": "https://dc.lft.to/lastmile_qr_scan"}, "is_reserved": 0}, {"bike_id": "41a26056d908f161d2ffdae96edacc5d", "name": "41a26056d908f161d2ffdae96edacc5d", "lat": 38.91186, "fusion_lat": 0.0, "type": "electric_scooter", "lon": -77.02389183333334, "is_disabled": 0, "fusion_lon": 0.0, "rental_uris": {"android": "https://dc.lft.to/lastmile_qr_scan", "ios": "https://dc.lft.to/lastmile_qr_scan"}, "is_reserved": 0}, {"bike_id": "2f86433335a94fe1bd49e6bc661add5e", "name": "2f86433335a94fe1bd49e6bc661add5e", "lat": 38.89423983333333, "fusion_lat": 0.0, "type": "electric_scooter", "lon": -76.997777, "is_disabled": 0, "fusion_lon": 0.0, "rental_uris": {"android": "https://dc.lft.to/lastmile_qr_scan", "ios": "https://dc.lft.to/lastmile_qr_scan"}, "is_reserved": 0}, {"bike_id": "5a6526d34e8c3b014956e7b286f2347f", "name": "5a6526d34e8c3b014956e7b286f2347f", "lat": 39.03814, "fusion_lat": 0.0, "type": "electric_bike", "lon": -77.04227, "is_disabled": 0, "fusion_lon": 0.0, "rental_uris": {"android": "https://dc.lft.to/lastmile_qr_scan", "ios": "https://dc.lft.to/lastmile_qr_scan"}, "is_reserved": 0}, {"bike_id": "e56997e5cd09007831e962351c9730d4", "name": "e56997e5cd09007831e962351c9730d4", "lat": 38.924501666666664, "fusion_lat": 0.0, "type": "electric_scooter", "lon": -77.03403933333334, "is_disabled": 0, "fusion_lon": 0.0, "rental_uris": {"android": "https://dc.lft.to/lastmile_qr_scan", "ios": "https://dc.lft.to/lastmile_qr_scan"}, "is_reserved": 0}, {"bike_id": "7192f22ca3818272c4baed26b2a6604a", "name": "7192f22ca3818272c4baed26b2a6604a", "lat": 38.916898833333335, "fusion_lat": 0.0, "type": "electric_scooter", "lon": -77.03163716666667, "is_disabled": 0, "fusion_lon": 0.0, "rental_uris": {"android": "https://dc.lft.to/lastmile_qr_scan", "ios": "https://dc.lft.to/lastmile_qr_scan"}, "is_reserved": 0}, {"bike_id": "143b3dbc59b705b068909dc3a69082ec", "name": "143b3dbc59b705b068909dc3a69082ec", "lat": 38.884933, "fusion_lat": 0.0, "type": "electric_scooter", "lon": -77.00714983333333, "is_disabled": 0, "fusion_lon": 0.0, "rental_uris": {"android": "https://dc.lft.to/lastmile_qr_scan", "ios": "https://dc.lft.to/lastmile_qr_scan"}, "is_reserved": 0}, {"bike_id": "84c751ede0226385a85a3820518e5aa6", "name": "84c751ede0226385a85a3820518e5aa6", "lat": 38.9225995, "fusion_lat": 0.0, "type": "electric_scooter", "lon": -77.0203865, "is_disabled": 0, "fusion_lon": 0.0, "rental_uris": {"android": "https://dc.lft.to/lastmile_qr_scan", "ios": "https://dc.lft.to/lastmile_qr_scan"}, "is_reserved": 0}, {"bike_id": "98a97d6411c603f14b27367c88b5f78d", "name": "98a97d6411c603f14b27367c88b5f78d", "lat": 38.90737983333333, "fusion_lat": 0.0, "type": "electric_bike", "lon": -76.99293316666666, "is_disabled": 0, "fusion_lon": 0.0, "rental_uris": {"android": "https://dc.lft.to/lastmile_qr_scan", "ios": "https://dc.lft.to/lastmile_qr_scan"}, "is_reserved": 0}, {"bike_id": "40a8b6f924c48cece11adeaadf03c0ad", "name": "40a8b6f924c48cece11adeaadf03c0ad", "lat": 38.897420333333336, "fusion_lat": 0.0, "type": "electric_scooter", "lon": -77.03218933333333, "is_disabled": 0, "fusion_lon": 0.0, "rental_uris": {"android": "https://dc.lft.to/lastmile_qr_scan", "ios": "https://dc.lft.to/lastmile_qr_scan"}, "is_reserved": 0}, {"bike_id": "7883a80a39a1a0a7e3fd670da57cc186", "name": "7883a80a39a1a0a7e3fd670da57cc186", "lat": 38.891941833333334, "fusion_lat": 0.0, "type": "electric_scooter", "lon": -77.022188, "is_disabled": 0, "fusion_lon": 0.0, "rental_uris": {"android": "https://dc.lft.to/lastmile_qr_scan", "ios": "https://dc.lft.to/lastmile_qr_scan"}, "is_reserved": 0}, {"bike_id": "0af7326aee8ea79748c33a231c2e41c0", "name": "0af7326aee8ea79748c33a231c2e41c0", "lat": 38.9023815, "fusion_lat": 0.0, "type": "electric_scooter", "lon": -76.9741265, "is_disabled": 0, "fusion_lon": 0.0, "rental_uris": {"android": "https://dc.lft.to/lastmile_qr_scan", "ios": "https://dc.lft.to/lastmile_qr_scan"}, "is_reserved": 0}, {"bike_id": "f3c149db36a1003ad8c79cf9e4a61230", "name": "f3c149db36a1003ad8c79cf9e4a61230", "lat": 38.906940166666665, "fusion_lat": 0.0, "type": "electric_scooter", "lon": -77.0362135, "is_disabled": 0, "fusion_lon": 0.0, "rental_uris": {"android": "https://dc.lft.to/lastmile_qr_scan", "ios": "https://dc.lft.to/lastmile_qr_scan"}, "is_reserved": 0}, {"bike_id": "42c0eeb7394e65e3989735a050ccef2e", "name": "42c0eeb7394e65e3989735a050ccef2e", "lat": 38.89481, "fusion_lat": 0.0, "type": "electric_scooter", "lon": -76.9957645, "is_disabled": 0, "fusion_lon": 0.0, "rental_uris": {"android": "https://dc.lft.to/lastmile_qr_scan", "ios": "https://dc.lft.to/lastmile_qr_scan"}, "is_reserved": 0}, {"bike_id": "03838698c188fdbd1878a31eaecc9a6f", "name": "03838698c188fdbd1878a31eaecc9a6f", "lat": 38.899642166666666, "fusion_lat": 0.0, "type": "electric_bike", "lon": -76.986726, "is_disabled": 0, "fusion_lon": 0.0, "rental_uris": {"android": "https://dc.lft.to/lastmile_qr_scan", "ios": "https://dc.lft.to/lastmile_qr_scan"}, "is_reserved": 0}, {"bike_id": "23e205b624a16607123fd7868e296771", "name": "23e205b624a16607123fd7868e296771", "lat": 38.8935115, "fusion_lat": 0.0, "type": "electric_scooter", "lon": -77.01744116666667, "is_disabled": 0, "fusion_lon": 0.0, "rental_uris": {"android": "https://dc.lft.to/lastmile_qr_scan", "ios": "https://dc.lft.to/lastmile_qr_scan"}, "is_reserved": 0}, {"bike_id": "f14f321a140f6d3af1d8522697eabb2b", "name": "f14f321a140f6d3af1d8522697eabb2b", "lat": 38.92963433333333, "fusion_lat": 0.0, "type": "electric_scooter", "lon": -77.031553, "is_disabled": 0, "fusion_lon": 0.0, "rental_uris": {"android": "https://dc.lft.to/lastmile_qr_scan", "ios": "https://dc.lft.to/lastmile_qr_scan"}, "is_reserved": 0}, {"bike_id": "88a68f6e870ff6bc226dbde069dd8ea7", "name": "88a68f6e870ff6bc226dbde069dd8ea7", "lat": 38.8811495, "fusion_lat": 0.0, "type": "electric_scooter", "lon": -77.00095133333333, "is_disabled": 0, "fusion_lon": 0.0, "rental_uris": {"android": "https://dc.lft.to/lastmile_qr_scan", "ios": "https://dc.lft.to/lastmile_qr_scan"}, "is_reserved": 0}, {"bike_id": "c68aaa3470dd7f18eaa20044f0202f1f", "name": "c68aaa3470dd7f18eaa20044f0202f1f", "lat": 38.936772833333336, "fusion_lat": 0.0, "type": "electric_scooter", "lon": -77.036234, "is_disabled": 0, "fusion_lon": 0.0, "rental_uris": {"android": "https://dc.lft.to/lastmile_qr_scan", "ios": "https://dc.lft.to/lastmile_qr_scan"}, "is_reserved": 0}, {"bike_id": "d92dc4e5a5c9cea789a3ac893a9ba481", "name": "d92dc4e5a5c9cea789a3ac893a9ba481", "lat": 38.9104715, "fusion_lat": 0.0, "type": "electric_scooter", "lon": -77.02203816666666, "is_disabled": 0, "fusion_lon": 0.0, "rental_uris": {"android": "https://dc.lft.to/lastmile_qr_scan", "ios": "https://dc.lft.to/lastmile_qr_scan"}, "is_reserved": 0}, {"bike_id": "5e0b03ba2b1c987b133cb7660c6826c1", "name": "5e0b03ba2b1c987b133cb7660c6826c1", "lat": 38.864902666666666, "fusion_lat": 0.0, "type": "electric_scooter", "lon": -76.97740433333334, "is_disabled": 0, "fusion_lon": 0.0, "rental_uris": {"android": "https://dc.lft.to/lastmile_qr_scan", "ios": "https://dc.lft.to/lastmile_qr_scan"}, "is_reserved": 0}, {"bike_id": "19f8e1b6c033ef02ae4cf529b5c59c90", "name": "19f8e1b6c033ef02ae4cf529b5c59c90", "lat": 38.92167033333333, "fusion_lat": 0.0, "type": "electric_scooter", "lon": -77.026565, "is_disabled": 0, "fusion_lon": 0.0, "rental_uris": {"android": "https://dc.lft.to/lastmile_qr_scan", "ios": "https://dc.lft.to/lastmile_qr_scan"}, "is_reserved": 0}, {"bike_id": "be7fe0a986e4d1dfeb5c1f4c2e5e47cc", "name": "be7fe0a986e4d1dfeb5c1f4c2e5e47cc", "lat": 38.883487833333334, "fusion_lat": 0.0, "type": "electric_scooter", "lon": -76.99268733333334, "is_disabled": 0, "fusion_lon": 0.0, "rental_uris": {"android": "https://dc.lft.to/lastmile_qr_scan", "ios": "https://dc.lft.to/lastmile_qr_scan"}, "is_reserved": 0}, {"bike_id": "aaef221b76e4e36dc32873256cbfcedf", "name": "aaef221b76e4e36dc32873256cbfcedf", "lat": 38.944125166666666, "fusion_lat": 0.0, "type": "electric_scooter", "lon": -77.06320616666666, "is_disabled": 0, "fusion_lon": 0.0, "rental_uris": {"android": "https://dc.lft.to/lastmile_qr_scan", "ios": "https://dc.lft.to/lastmile_qr_scan"}, "is_reserved": 0}, {"bike_id": "98f6bec9d1c6933cabba8cb79e4e8b3b", "name": "98f6bec9d1c6933cabba8cb79e4e8b3b", "lat": 38.9011075, "fusion_lat": 0.0, "type": "electric_scooter", "lon": -77.03260916666666, "is_disabled": 0, "fusion_lon": 0.0, "rental_uris": {"android": "https://dc.lft.to/lastmile_qr_scan", "ios": "https://dc.lft.to/lastmile_qr_scan"}, "is_reserved": 0}, {"bike_id": "ae72dc8a01e05614dcf775ae334d898e", "name": "ae72dc8a01e05614dcf775ae334d898e", "lat": 38.904315833333335, "fusion_lat": 0.0, "type": "electric_scooter", "lon": -77.02566433333334, "is_disabled": 0, "fusion_lon": 0.0, "rental_uris": {"android": "https://dc.lft.to/lastmile_qr_scan", "ios": "https://dc.lft.to/lastmile_qr_scan"}, "is_reserved": 0}, {"bike_id": "7fc2889afcdcb2a88be8951c88070a98", "name": "7fc2889afcdcb2a88be8951c88070a98", "lat": 38.910135, "fusion_lat": 0.0, "type": "electric_scooter", "lon": -77.03450616666667, "is_disabled": 0, "fusion_lon": 0.0, "rental_uris": {"android": "https://dc.lft.to/lastmile_qr_scan", "ios": "https://dc.lft.to/lastmile_qr_scan"}, "is_reserved": 0}, {"bike_id": "5456faaa5cc5a04e03b499271a95a0a4", "name": "5456faaa5cc5a04e03b499271a95a0a4", "lat": 38.85706666666667, "fusion_lat": 0.0, "type": "electric_scooter", "lon": -76.98210016666667, "is_disabled": 0, "fusion_lon": 0.0, "rental_uris": {"android": "https://dc.lft.to/lastmile_qr_scan", "ios": "https://dc.lft.to/lastmile_qr_scan"}, "is_reserved": 0}, {"bike_id": "1b346538cd8da20b2b89c675e5c8fa7a", "name": "1b346538cd8da20b2b89c675e5c8fa7a", "lat": 38.897430666666665, "fusion_lat": 0.0, "type": "electric_scooter", "lon": -77.0249, "is_disabled": 0, "fusion_lon": 0.0, "rental_uris": {"android": "https://dc.lft.to/lastmile_qr_scan", "ios": "https://dc.lft.to/lastmile_qr_scan"}, "is_reserved": 0}, {"bike_id": "a14946ed054febd5975382cd288e4684", "name": "a14946ed054febd5975382cd288e4684", "lat": 38.90489433333333, "fusion_lat": 0.0, "type": "electric_scooter", "lon": -77.02963833333334, "is_disabled": 0, "fusion_lon": 0.0, "rental_uris": {"android": "https://dc.lft.to/lastmile_qr_scan", "ios": "https://dc.lft.to/lastmile_qr_scan"}, "is_reserved": 0}, {"bike_id": "65b6d9136bc73c41d6105d02249a618f", "name": "65b6d9136bc73c41d6105d02249a618f", "lat": 38.9112615, "fusion_lat": 0.0, "type": "electric_scooter", "lon": -77.02196716666667, "is_disabled": 0, "fusion_lon": 0.0, "rental_uris": {"android": "https://dc.lft.to/lastmile_qr_scan", "ios": "https://dc.lft.to/lastmile_qr_scan"}, "is_reserved": 0}, {"bike_id": "13b851e1d652efda5eafa94633190c32", "name": "13b851e1d652efda5eafa94633190c32", "lat": 38.92040266666667, "fusion_lat": 0.0, "type": "electric_scooter", "lon": -77.04814816666666, "is_disabled": 0, "fusion_lon": 0.0, "rental_uris": {"android": "https://dc.lft.to/lastmile_qr_scan", "ios": "https://dc.lft.to/lastmile_qr_scan"}, "is_reserved": 0}, {"bike_id": "801b0ec80f87a125db3a5c1fa673775d", "name": "801b0ec80f87a125db3a5c1fa673775d", "lat": 38.91803266666667, "fusion_lat": 0.0, "type": "electric_scooter", "lon": -77.0330005, "is_disabled": 0, "fusion_lon": 0.0, "rental_uris": {"android": "https://dc.lft.to/lastmile_qr_scan", "ios": "https://dc.lft.to/lastmile_qr_scan"}, "is_reserved": 0}, {"bike_id": "bb95a49e579b18e1966cbf7c79380e33", "name": "bb95a49e579b18e1966cbf7c79380e33", "lat": 38.911062, "fusion_lat": 0.0, "type": "electric_scooter", "lon": -77.04443383333333, "is_disabled": 0, "fusion_lon": 0.0, "rental_uris": {"android": "https://dc.lft.to/lastmile_qr_scan", "ios": "https://dc.lft.to/lastmile_qr_scan"}, "is_reserved": 0}, {"bike_id": "32fdae7854a45d2c7ae434fc8614602f", "name": "32fdae7854a45d2c7ae434fc8614602f", "lat": 38.915301, "fusion_lat": 0.0, "type": "electric_scooter", "lon": -77.03198183333333, "is_disabled": 0, "fusion_lon": 0.0, "rental_uris": {"android": "https://dc.lft.to/lastmile_qr_scan", "ios": "https://dc.lft.to/lastmile_qr_scan"}, "is_reserved": 0}, {"bike_id": "2f8f1a9efbf2cac36778eccedf5bdab5", "name": "2f8f1a9efbf2cac36778eccedf5bdab5", "lat": 38.91802666666667, "fusion_lat": 0.0, "type": "electric_scooter", "lon": -77.03431283333333, "is_disabled": 0, "fusion_lon": 0.0, "rental_uris": {"android": "https://dc.lft.to/lastmile_qr_scan", "ios": "https://dc.lft.to/lastmile_qr_scan"}, "is_reserved": 0}, {"bike_id": "a5b585dfac69deb76c9ceb432f795309", "name": "a5b585dfac69deb76c9ceb432f795309", "lat": 38.899755166666665, "fusion_lat": 0.0, "type": "electric_scooter", "lon": -77.02700266666666, "is_disabled": 0, "fusion_lon": 0.0, "rental_uris": {"android": "https://dc.lft.to/lastmile_qr_scan", "ios": "https://dc.lft.to/lastmile_qr_scan"}, "is_reserved": 0}, {"bike_id": "fec7d3f6c0657dd1d2e4e02bd4e3b7b2", "name": "fec7d3f6c0657dd1d2e4e02bd4e3b7b2", "lat": 38.92357916666667, "fusion_lat": 0.0, "type": "electric_scooter", "lon": -77.05034333333333, "is_disabled": 0, "fusion_lon": 0.0, "rental_uris": {"android": "https://dc.lft.to/lastmile_qr_scan", "ios": "https://dc.lft.to/lastmile_qr_scan"}, "is_reserved": 0}, {"bike_id": "7385540c2e88b096fb1c3549dd3d3f68", "name": "7385540c2e88b096fb1c3549dd3d3f68", "lat": 38.9179695, "fusion_lat": 0.0, "type": "electric_scooter", "lon": -77.03210483333334, "is_disabled": 0, "fusion_lon": 0.0, "rental_uris": {"android": "https://dc.lft.to/lastmile_qr_scan", "ios": "https://dc.lft.to/lastmile_qr_scan"}, "is_reserved": 0}, {"bike_id": "3ca01bee9b3c3d0ff4002b19162d58a2", "name": "3ca01bee9b3c3d0ff4002b19162d58a2", "lat": 38.90727233333333, "fusion_lat": 0.0, "type": "electric_scooter", "lon": -76.93447883333333, "is_disabled": 0, "fusion_lon": 0.0, "rental_uris": {"android": "https://dc.lft.to/lastmile_qr_scan", "ios": "https://dc.lft.to/lastmile_qr_scan"}, "is_reserved": 0}, {"bike_id": "fc192283e7f535fb87719dbab14140e7", "name": "fc192283e7f535fb87719dbab14140e7", "lat": 38.8635015, "fusion_lat": 0.0, "type": "electric_scooter", "lon": -76.98683533333333, "is_disabled": 0, "fusion_lon": 0.0, "rental_uris": {"android": "https://dc.lft.to/lastmile_qr_scan", "ios": "https://dc.lft.to/lastmile_qr_scan"}, "is_reserved": 0}, {"bike_id": "d5ff1753dec6446c4267bf83a271d008", "name": "d5ff1753dec6446c4267bf83a271d008", "lat": 38.914458, "fusion_lat": 0.0, "type": "electric_scooter", "lon": -76.97207433333334, "is_disabled": 0, "fusion_lon": 0.0, "rental_uris": {"android": "https://dc.lft.to/lastmile_qr_scan", "ios": "https://dc.lft.to/lastmile_qr_scan"}, "is_reserved": 0}, {"bike_id": "5f8fb06ed51947ce33581064dbf678bb", "name": "5f8fb06ed51947ce33581064dbf678bb", "lat": 38.84465683333333, "fusion_lat": 0.0, "type": "electric_bike", "lon": -76.98775816666667, "is_disabled": 0, "fusion_lon": 0.0, "rental_uris": {"android": "https://dc.lft.to/lastmile_qr_scan", "ios": "https://dc.lft.to/lastmile_qr_scan"}, "is_reserved": 0}, {"bike_id": "d2d1c5a56daf786f4fab7152941ef186", "name": "d2d1c5a56daf786f4fab7152941ef186", "lat": 38.89332866666667, "fusion_lat": 0.0, "type": "electric_scooter", "lon": -77.0486575, "is_disabled": 0, "fusion_lon": 0.0, "rental_uris": {"android": "https://dc.lft.to/lastmile_qr_scan", "ios": "https://dc.lft.to/lastmile_qr_scan"}, "is_reserved": 0}, {"bike_id": "e2e565d4a5bc14d12e0ad3909ad3a1af", "name": "e2e565d4a5bc14d12e0ad3909ad3a1af", "lat": 38.8820005, "fusion_lat": 0.0, "type": "electric_scooter", "lon": -76.98923816666667, "is_disabled": 0, "fusion_lon": 0.0, "rental_uris": {"android": "https://dc.lft.to/lastmile_qr_scan", "ios": "https://dc.lft.to/lastmile_qr_scan"}, "is_reserved": 0}, {"bike_id": "f5fc0109d017fc1b9a223f5e566c4f08", "name": "f5fc0109d017fc1b9a223f5e566c4f08", "lat": 38.922044166666666, "fusion_lat": 0.0, "type": "electric_scooter", "lon": -77.02031716666667, "is_disabled": 0, "fusion_lon": 0.0, "rental_uris": {"android": "https://dc.lft.to/lastmile_qr_scan", "ios": "https://dc.lft.to/lastmile_qr_scan"}, "is_reserved": 0}, {"bike_id": "40e14697ca29855feb3528a712d68244", "name": "40e14697ca29855feb3528a712d68244", "lat": 38.9225785, "fusion_lat": 0.0, "type": "electric_scooter", "lon": -77.04274633333333, "is_disabled": 0, "fusion_lon": 0.0, "rental_uris": {"android": "https://dc.lft.to/lastmile_qr_scan", "ios": "https://dc.lft.to/lastmile_qr_scan"}, "is_reserved": 0}, {"bike_id": "3b0a0fee88566605fa7b1bac38d358aa", "name": "3b0a0fee88566605fa7b1bac38d358aa", "lat": 38.91018733333333, "fusion_lat": 0.0, "type": "electric_scooter", "lon": -76.993729, "is_disabled": 0, "fusion_lon": 0.0, "rental_uris": {"android": "https://dc.lft.to/lastmile_qr_scan", "ios": "https://dc.lft.to/lastmile_qr_scan"}, "is_reserved": 0}, {"bike_id": "62087d9ad1d23e9906219664316f47d0", "name": "62087d9ad1d23e9906219664316f47d0", "lat": 38.8955205, "fusion_lat": 0.0, "type": "electric_scooter", "lon": -77.02987333333333, "is_disabled": 0, "fusion_lon": 0.0, "rental_uris": {"android": "https://dc.lft.to/lastmile_qr_scan", "ios": "https://dc.lft.to/lastmile_qr_scan"}, "is_reserved": 0}, {"bike_id": "280bfaadd71fade693235dce32b8dc04", "name": "280bfaadd71fade693235dce32b8dc04", "lat": 38.920232666666664, "fusion_lat": 0.0, "type": "electric_scooter", "lon": -77.03078733333334, "is_disabled": 0, "fusion_lon": 0.0, "rental_uris": {"android": "https://dc.lft.to/lastmile_qr_scan", "ios": "https://dc.lft.to/lastmile_qr_scan"}, "is_reserved": 0}, {"bike_id": "e9ae95aaecf43c9be6443f179cad722d", "name": "e9ae95aaecf43c9be6443f179cad722d", "lat": 38.9241645, "fusion_lat": 0.0, "type": "electric_scooter", "lon": -77.02007166666667, "is_disabled": 0, "fusion_lon": 0.0, "rental_uris": {"android": "https://dc.lft.to/lastmile_qr_scan", "ios": "https://dc.lft.to/lastmile_qr_scan"}, "is_reserved": 0}, {"bike_id": "9136cd40f954669099457f7449508017", "name": "9136cd40f954669099457f7449508017", "lat": 38.9084565, "fusion_lat": 0.0, "type": "electric_scooter", "lon": -77.00371333333334, "is_disabled": 0, "fusion_lon": 0.0, "rental_uris": {"android": "https://dc.lft.to/lastmile_qr_scan", "ios": "https://dc.lft.to/lastmile_qr_scan"}, "is_reserved": 0}, {"bike_id": "46d00efa58d61fb8d7f301379677a1ba", "name": "46d00efa58d61fb8d7f301379677a1ba", "lat": 38.92380216666667, "fusion_lat": 0.0, "type": "electric_scooter", "lon": -77.0364135, "is_disabled": 0, "fusion_lon": 0.0, "rental_uris": {"android": "https://dc.lft.to/lastmile_qr_scan", "ios": "https://dc.lft.to/lastmile_qr_scan"}, "is_reserved": 0}, {"bike_id": "7fe14db074345fa78150d197aedac016", "name": "7fe14db074345fa78150d197aedac016", "lat": 38.911813333333335, "fusion_lat": 0.0, "type": "electric_scooter", "lon": -77.03176933333333, "is_disabled": 0, "fusion_lon": 0.0, "rental_uris": {"android": "https://dc.lft.to/lastmile_qr_scan", "ios": "https://dc.lft.to/lastmile_qr_scan"}, "is_reserved": 0}, {"bike_id": "4260727cfe2eae5733dd349c49ebec5b", "name": "4260727cfe2eae5733dd349c49ebec5b", "lat": 38.902607333333336, "fusion_lat": 0.0, "type": "electric_scooter", "lon": -77.02693433333333, "is_disabled": 0, "fusion_lon": 0.0, "rental_uris": {"android": "https://dc.lft.to/lastmile_qr_scan", "ios": "https://dc.lft.to/lastmile_qr_scan"}, "is_reserved": 0}, {"bike_id": "a521e421b379fab535898dacd4bebdbe", "name": "a521e421b379fab535898dacd4bebdbe", "lat": 38.88283333333333, "fusion_lat": 0.0, "type": "electric_bike", "lon": -76.93241916666666, "is_disabled": 0, "fusion_lon": 0.0, "rental_uris": {"android": "https://dc.lft.to/lastmile_qr_scan", "ios": "https://dc.lft.to/lastmile_qr_scan"}, "is_reserved": 0}, {"bike_id": "ed66cd317554bb92ef63e8bc623b6641", "name": "ed66cd317554bb92ef63e8bc623b6641", "lat": 38.902575166666665, "fusion_lat": 0.0, "type": "electric_scooter", "lon": -77.0175665, "is_disabled": 0, "fusion_lon": 0.0, "rental_uris": {"android": "https://dc.lft.to/lastmile_qr_scan", "ios": "https://dc.lft.to/lastmile_qr_scan"}, "is_reserved": 0}, {"bike_id": "5a65aeb6955b68ad8d6cd5dfae0a73ae", "name": "5a65aeb6955b68ad8d6cd5dfae0a73ae", "lat": 38.90149783333333, "fusion_lat": 0.0, "type": "electric_scooter", "lon": -77.02588133333333, "is_disabled": 0, "fusion_lon": 0.0, "rental_uris": {"android": "https://dc.lft.to/lastmile_qr_scan", "ios": "https://dc.lft.to/lastmile_qr_scan"}, "is_reserved": 0}, {"bike_id": "224a718c8ed2b39aa050d5b2d07f0e91", "name": "224a718c8ed2b39aa050d5b2d07f0e91", "lat": 38.893966666666664, "fusion_lat": 0.0, "type": "electric_scooter", "lon": -77.02258716666667, "is_disabled": 0, "fusion_lon": 0.0, "rental_uris": {"android": "https://dc.lft.to/lastmile_qr_scan", "ios": "https://dc.lft.to/lastmile_qr_scan"}, "is_reserved": 0}, {"bike_id": "a7bc528bbb402b9189159989bc0a9280", "name": "a7bc528bbb402b9189159989bc0a9280", "lat": 38.90551166666667, "fusion_lat": 0.0, "type": "electric_scooter", "lon": -77.00289583333333, "is_disabled": 0, "fusion_lon": 0.0, "rental_uris": {"android": "https://dc.lft.to/lastmile_qr_scan", "ios": "https://dc.lft.to/lastmile_qr_scan"}, "is_reserved": 0}, {"bike_id": "e8b1420bda183766def2746d615c7767", "name": "e8b1420bda183766def2746d615c7767", "lat": 38.892272, "fusion_lat": 0.0, "type": "electric_scooter", "lon": -77.04478266666666, "is_disabled": 0, "fusion_lon": 0.0, "rental_uris": {"android": "https://dc.lft.to/lastmile_qr_scan", "ios": "https://dc.lft.to/lastmile_qr_scan"}, "is_reserved": 0}, {"bike_id": "b56c21be0c1bb32684d02ac6fea12b95", "name": "b56c21be0c1bb32684d02ac6fea12b95", "lat": 38.87708533333333, "fusion_lat": 0.0, "type": "electric_scooter", "lon": -77.01843766666667, "is_disabled": 0, "fusion_lon": 0.0, "rental_uris": {"android": "https://dc.lft.to/lastmile_qr_scan", "ios": "https://dc.lft.to/lastmile_qr_scan"}, "is_reserved": 0}, {"bike_id": "bde4d4ce8ff9d33ae371a52fd7619ef7", "name": "bde4d4ce8ff9d33ae371a52fd7619ef7", "lat": 38.92861416666667, "fusion_lat": 0.0, "type": "electric_scooter", "lon": -77.03728066666666, "is_disabled": 0, "fusion_lon": 0.0, "rental_uris": {"android": "https://dc.lft.to/lastmile_qr_scan", "ios": "https://dc.lft.to/lastmile_qr_scan"}, "is_reserved": 0}, {"bike_id": "b553af9f16936df6d9d25912e707b862", "name": "b553af9f16936df6d9d25912e707b862", "lat": 38.924166666666665, "fusion_lat": 0.0, "type": "electric_scooter", "lon": -77.0194095, "is_disabled": 0, "fusion_lon": 0.0, "rental_uris": {"android": "https://dc.lft.to/lastmile_qr_scan", "ios": "https://dc.lft.to/lastmile_qr_scan"}, "is_reserved": 0}, {"bike_id": "ec6718fe352680b33803f2eb114b4f1f", "name": "ec6718fe352680b33803f2eb114b4f1f", "lat": 38.8860635, "fusion_lat": 0.0, "type": "electric_scooter", "lon": -77.003986, "is_disabled": 0, "fusion_lon": 0.0, "rental_uris": {"android": "https://dc.lft.to/lastmile_qr_scan", "ios": "https://dc.lft.to/lastmile_qr_scan"}, "is_reserved": 0}, {"bike_id": "bbbf8dd73e624c74b1c18990a48341ca", "name": "bbbf8dd73e624c74b1c18990a48341ca", "lat": 39.0107735, "fusion_lat": 0.0, "type": "electric_bike", "lon": -76.9106185, "is_disabled": 0, "fusion_lon": 0.0, "rental_uris": {"android": "https://dc.lft.to/lastmile_qr_scan", "ios": "https://dc.lft.to/lastmile_qr_scan"}, "is_reserved": 0}, {"bike_id": "45449c605aee3501cffa9a6e02a3149b", "name": "45449c605aee3501cffa9a6e02a3149b", "lat": 38.91779783333333, "fusion_lat": 0.0, "type": "electric_scooter", "lon": -77.03451233333334, "is_disabled": 0, "fusion_lon": 0.0, "rental_uris": {"android": "https://dc.lft.to/lastmile_qr_scan", "ios": "https://dc.lft.to/lastmile_qr_scan"}, "is_reserved": 0}, {"bike_id": "7e0a25b0f6c67e7bb3962793af000c47", "name": "7e0a25b0f6c67e7bb3962793af000c47", "lat": 38.86016, "fusion_lat": 0.0, "type": "electric_scooter", "lon": -76.96996616666667, "is_disabled": 0, "fusion_lon": 0.0, "rental_uris": {"android": "https://dc.lft.to/lastmile_qr_scan", "ios": "https://dc.lft.to/lastmile_qr_scan"}, "is_reserved": 0}, {"bike_id": "c595f0aa19775b002301230db4b2e0c1", "name": "c595f0aa19775b002301230db4b2e0c1", "lat": 38.92780616666667, "fusion_lat": 0.0, "type": "electric_bike", "lon": -76.99908583333334, "is_disabled": 0, "fusion_lon": 0.0, "rental_uris": {"android": "https://dc.lft.to/lastmile_qr_scan", "ios": "https://dc.lft.to/lastmile_qr_scan"}, "is_reserved": 0}, {"bike_id": "7bbdeb22faf0048fe1e5120fce59fa37", "name": "7bbdeb22faf0048fe1e5120fce59fa37", "lat": 38.908167, "fusion_lat": 0.0, "type": "electric_scooter", "lon": -77.06907916666667, "is_disabled": 0, "fusion_lon": 0.0, "rental_uris": {"android": "https://dc.lft.to/lastmile_qr_scan", "ios": "https://dc.lft.to/lastmile_qr_scan"}, "is_reserved": 0}, {"bike_id": "1b28125c98de7202d3784a9c649ca6ab", "name": "1b28125c98de7202d3784a9c649ca6ab", "lat": 38.92846616666667, "fusion_lat": 0.0, "type": "electric_scooter", "lon": -77.03596033333334, "is_disabled": 0, "fusion_lon": 0.0, "rental_uris": {"android": "https://dc.lft.to/lastmile_qr_scan", "ios": "https://dc.lft.to/lastmile_qr_scan"}, "is_reserved": 0}, {"bike_id": "28b1857f34d2f16c4755bc1c369518d8", "name": "28b1857f34d2f16c4755bc1c369518d8", "lat": 38.91102566666667, "fusion_lat": 0.0, "type": "electric_scooter", "lon": -77.00863, "is_disabled": 0, "fusion_lon": 0.0, "rental_uris": {"android": "https://dc.lft.to/lastmile_qr_scan", "ios": "https://dc.lft.to/lastmile_qr_scan"}, "is_reserved": 0}, {"bike_id": "808a2a5d7a053dc5a44248109964e939", "name": "808a2a5d7a053dc5a44248109964e939", "lat": 38.923661333333335, "fusion_lat": 0.0, "type": "electric_scooter", "lon": -77.0502635, "is_disabled": 0, "fusion_lon": 0.0, "rental_uris": {"android": "https://dc.lft.to/lastmile_qr_scan", "ios": "https://dc.lft.to/lastmile_qr_scan"}, "is_reserved": 0}, {"bike_id": "be26e78c5d04bc00090121c5ebdeb749", "name": "be26e78c5d04bc00090121c5ebdeb749", "lat": 38.90025116666666, "fusion_lat": 0.0, "type": "electric_scooter", "lon": -77.0238075, "is_disabled": 0, "fusion_lon": 0.0, "rental_uris": {"android": "https://dc.lft.to/lastmile_qr_scan", "ios": "https://dc.lft.to/lastmile_qr_scan"}, "is_reserved": 0}, {"bike_id": "8225df28faff504a5bed41afe85665e3", "name": "8225df28faff504a5bed41afe85665e3", "lat": 38.910286166666666, "fusion_lat": 0.0, "type": "electric_scooter", "lon": -77.032085, "is_disabled": 0, "fusion_lon": 0.0, "rental_uris": {"android": "https://dc.lft.to/lastmile_qr_scan", "ios": "https://dc.lft.to/lastmile_qr_scan"}, "is_reserved": 0}, {"bike_id": "d90deee77336dad0f9c43a16872dd790", "name": "d90deee77336dad0f9c43a16872dd790", "lat": 38.884138166666666, "fusion_lat": 0.0, "type": "electric_scooter", "lon": -77.02569066666666, "is_disabled": 0, "fusion_lon": 0.0, "rental_uris": {"android": "https://dc.lft.to/lastmile_qr_scan", "ios": "https://dc.lft.to/lastmile_qr_scan"}, "is_reserved": 0}, {"bike_id": "4725a38963921347fd5d5b4985035dc3", "name": "4725a38963921347fd5d5b4985035dc3", "lat": 38.9185775, "fusion_lat": 0.0, "type": "electric_scooter", "lon": -77.02528233333334, "is_disabled": 0, "fusion_lon": 0.0, "rental_uris": {"android": "https://dc.lft.to/lastmile_qr_scan", "ios": "https://dc.lft.to/lastmile_qr_scan"}, "is_reserved": 0}, {"bike_id": "4e32f9423627d4c4280374d0dba5ea01", "name": "4e32f9423627d4c4280374d0dba5ea01", "lat": 38.879413166666666, "fusion_lat": 0.0, "type": "electric_scooter", "lon": -77.003797, "is_disabled": 0, "fusion_lon": 0.0, "rental_uris": {"android": "https://dc.lft.to/lastmile_qr_scan", "ios": "https://dc.lft.to/lastmile_qr_scan"}, "is_reserved": 0}, {"bike_id": "273555687a2b1cbefe56d80e5aa3ab8c", "name": "273555687a2b1cbefe56d80e5aa3ab8c", "lat": 38.8706985, "fusion_lat": 0.0, "type": "electric_bike", "lon": -77.11053516666666, "is_disabled": 0, "fusion_lon": 0.0, "rental_uris": {"android": "https://dc.lft.to/lastmile_qr_scan", "ios": "https://dc.lft.to/lastmile_qr_scan"}, "is_reserved": 0}, {"bike_id": "fddfb95b6122e8b035d38fd96d7d19e9", "name": "fddfb95b6122e8b035d38fd96d7d19e9", "lat": 38.899607333333336, "fusion_lat": 0.0, "type": "electric_scooter", "lon": -77.01610566666666, "is_disabled": 0, "fusion_lon": 0.0, "rental_uris": {"android": "https://dc.lft.to/lastmile_qr_scan", "ios": "https://dc.lft.to/lastmile_qr_scan"}, "is_reserved": 0}, {"bike_id": "664da9e1a1968df9fa95259eefad9383", "name": "664da9e1a1968df9fa95259eefad9383", "lat": 38.879979, "fusion_lat": 0.0, "type": "electric_bike", "lon": -76.98661633333333, "is_disabled": 0, "fusion_lon": 0.0, "rental_uris": {"android": "https://dc.lft.to/lastmile_qr_scan", "ios": "https://dc.lft.to/lastmile_qr_scan"}, "is_reserved": 0}, {"bike_id": "f6e173b90ef8273ee1c0f2d94ad8d5bd", "name": "f6e173b90ef8273ee1c0f2d94ad8d5bd", "lat": 38.8834265, "fusion_lat": 0.0, "type": "electric_scooter", "lon": -76.94286133333334, "is_disabled": 0, "fusion_lon": 0.0, "rental_uris": {"android": "https://dc.lft.to/lastmile_qr_scan", "ios": "https://dc.lft.to/lastmile_qr_scan"}, "is_reserved": 0}, {"bike_id": "f16fb3c72ca34f61cb2ba592c2411981", "name": "f16fb3c72ca34f61cb2ba592c2411981", "lat": 38.930840833333335, "fusion_lat": 0.0, "type": "electric_scooter", "lon": -77.03774783333333, "is_disabled": 0, "fusion_lon": 0.0, "rental_uris": {"android": "https://dc.lft.to/lastmile_qr_scan", "ios": "https://dc.lft.to/lastmile_qr_scan"}, "is_reserved": 0}, {"bike_id": "2bcf0835ea153d0d26d345e5baf26010", "name": "2bcf0835ea153d0d26d345e5baf26010", "lat": 38.94673433333333, "fusion_lat": 0.0, "type": "electric_bike", "lon": -76.99331666666667, "is_disabled": 0, "fusion_lon": 0.0, "rental_uris": {"android": "https://dc.lft.to/lastmile_qr_scan", "ios": "https://dc.lft.to/lastmile_qr_scan"}, "is_reserved": 0}, {"bike_id": "71db03cc091a470c62dd8e94b872514d", "name": "71db03cc091a470c62dd8e94b872514d", "lat": 38.918727, "fusion_lat": 0.0, "type": "electric_scooter", "lon": -77.03544183333334, "is_disabled": 0, "fusion_lon": 0.0, "rental_uris": {"android": "https://dc.lft.to/lastmile_qr_scan", "ios": "https://dc.lft.to/lastmile_qr_scan"}, "is_reserved": 0}, {"bike_id": "68cf06d2132d35509791a939129aa7b1", "name": "68cf06d2132d35509791a939129aa7b1", "lat": 38.908105166666665, "fusion_lat": 0.0, "type": "electric_scooter", "lon": -77.04293716666666, "is_disabled": 0, "fusion_lon": 0.0, "rental_uris": {"android": "https://dc.lft.to/lastmile_qr_scan", "ios": "https://dc.lft.to/lastmile_qr_scan"}, "is_reserved": 0}, {"bike_id": "5a7b0c5ff457ce5f609e6bf2e7992f47", "name": "5a7b0c5ff457ce5f609e6bf2e7992f47", "lat": 38.91579083333333, "fusion_lat": 0.0, "type": "electric_scooter", "lon": -77.01232416666667, "is_disabled": 0, "fusion_lon": 0.0, "rental_uris": {"android": "https://dc.lft.to/lastmile_qr_scan", "ios": "https://dc.lft.to/lastmile_qr_scan"}, "is_reserved": 0}, {"bike_id": "4c40069cc7b94dd78cc41677041cd199", "name": "4c40069cc7b94dd78cc41677041cd199", "lat": 38.89607216666667, "fusion_lat": 0.0, "type": "electric_scooter", "lon": -77.02593216666666, "is_disabled": 0, "fusion_lon": 0.0, "rental_uris": {"android": "https://dc.lft.to/lastmile_qr_scan", "ios": "https://dc.lft.to/lastmile_qr_scan"}, "is_reserved": 0}, {"bike_id": "0c95afc20714887daddd95e517bc8eb3", "name": "0c95afc20714887daddd95e517bc8eb3", "lat": 38.928733, "fusion_lat": 0.0, "type": "electric_scooter", "lon": -77.02704366666667, "is_disabled": 0, "fusion_lon": 0.0, "rental_uris": {"android": "https://dc.lft.to/lastmile_qr_scan", "ios": "https://dc.lft.to/lastmile_qr_scan"}, "is_reserved": 0}, {"bike_id": "7bec08bc8c7c9b66d91d37024667d3d1", "name": "7bec08bc8c7c9b66d91d37024667d3d1", "lat": 38.80632133333334, "fusion_lat": 0.0, "type": "electric_bike", "lon": -77.062536, "is_disabled": 0, "fusion_lon": 0.0, "rental_uris": {"android": "https://dc.lft.to/lastmile_qr_scan", "ios": "https://dc.lft.to/lastmile_qr_scan"}, "is_reserved": 0}, {"bike_id": "59e30d8951ee01b790477be23ef2c111", "name": "59e30d8951ee01b790477be23ef2c111", "lat": 38.919520166666665, "fusion_lat": 0.0, "type": "electric_scooter", "lon": -76.991925, "is_disabled": 0, "fusion_lon": 0.0, "rental_uris": {"android": "https://dc.lft.to/lastmile_qr_scan", "ios": "https://dc.lft.to/lastmile_qr_scan"}, "is_reserved": 0}, {"bike_id": "175adfafbd2d9cbe5ecb5e346c176c7f", "name": "175adfafbd2d9cbe5ecb5e346c176c7f", "lat": 38.91687533333333, "fusion_lat": 0.0, "type": "electric_scooter", "lon": -77.03768466666666, "is_disabled": 0, "fusion_lon": 0.0, "rental_uris": {"android": "https://dc.lft.to/lastmile_qr_scan", "ios": "https://dc.lft.to/lastmile_qr_scan"}, "is_reserved": 0}, {"bike_id": "a882ebf197d5fdd57b873df8bffd12b4", "name": "a882ebf197d5fdd57b873df8bffd12b4", "lat": 38.91886483333333, "fusion_lat": 0.0, "type": "electric_scooter", "lon": -77.02706966666666, "is_disabled": 0, "fusion_lon": 0.0, "rental_uris": {"android": "https://dc.lft.to/lastmile_qr_scan", "ios": "https://dc.lft.to/lastmile_qr_scan"}, "is_reserved": 0}, {"bike_id": "7f00511313158584d5acd4839268bf6a", "name": "7f00511313158584d5acd4839268bf6a", "lat": 38.905372666666665, "fusion_lat": 0.0, "type": "electric_scooter", "lon": -77.04570783333334, "is_disabled": 0, "fusion_lon": 0.0, "rental_uris": {"android": "https://dc.lft.to/lastmile_qr_scan", "ios": "https://dc.lft.to/lastmile_qr_scan"}, "is_reserved": 0}, {"bike_id": "d61790d2be05fc385a3ac197266eca35", "name": "d61790d2be05fc385a3ac197266eca35", "lat": 38.8860225, "fusion_lat": 0.0, "type": "electric_scooter", "lon": -77.0451025, "is_disabled": 0, "fusion_lon": 0.0, "rental_uris": {"android": "https://dc.lft.to/lastmile_qr_scan", "ios": "https://dc.lft.to/lastmile_qr_scan"}, "is_reserved": 0}, {"bike_id": "5532aa61caa059504425fc1b08b8d491", "name": "5532aa61caa059504425fc1b08b8d491", "lat": 38.88833566666667, "fusion_lat": 0.0, "type": "electric_bike", "lon": -76.95743683333333, "is_disabled": 0, "fusion_lon": 0.0, "rental_uris": {"android": "https://dc.lft.to/lastmile_qr_scan", "ios": "https://dc.lft.to/lastmile_qr_scan"}, "is_reserved": 0}, {"bike_id": "0047026acf8da97da134c9a447ddd510", "name": "0047026acf8da97da134c9a447ddd510", "lat": 38.91572933333333, "fusion_lat": 0.0, "type": "electric_scooter", "lon": -77.03212116666667, "is_disabled": 0, "fusion_lon": 0.0, "rental_uris": {"android": "https://dc.lft.to/lastmile_qr_scan", "ios": "https://dc.lft.to/lastmile_qr_scan"}, "is_reserved": 0}, {"bike_id": "147d1a397a29eb2ae51220240cb124e0", "name": "147d1a397a29eb2ae51220240cb124e0", "lat": 38.9154205, "fusion_lat": 0.0, "type": "electric_scooter", "lon": -77.02809033333334, "is_disabled": 0, "fusion_lon": 0.0, "rental_uris": {"android": "https://dc.lft.to/lastmile_qr_scan", "ios": "https://dc.lft.to/lastmile_qr_scan"}, "is_reserved": 0}, {"bike_id": "5761a7c606d2a41c509d54e9f8e1f4e2", "name": "5761a7c606d2a41c509d54e9f8e1f4e2", "lat": 38.93589683333333, "fusion_lat": 0.0, "type": "electric_scooter", "lon": -77.05861033333333, "is_disabled": 0, "fusion_lon": 0.0, "rental_uris": {"android": "https://dc.lft.to/lastmile_qr_scan", "ios": "https://dc.lft.to/lastmile_qr_scan"}, "is_reserved": 0}, {"bike_id": "52bc179e7850ce0b48085bb83713c41c", "name": "52bc179e7850ce0b48085bb83713c41c", "lat": 38.916925666666664, "fusion_lat": 0.0, "type": "electric_scooter", "lon": -77.03889766666667, "is_disabled": 0, "fusion_lon": 0.0, "rental_uris": {"android": "https://dc.lft.to/lastmile_qr_scan", "ios": "https://dc.lft.to/lastmile_qr_scan"}, "is_reserved": 0}, {"bike_id": "74ffee17668cc5610142cab7e0d2c03b", "name": "74ffee17668cc5610142cab7e0d2c03b", "lat": 38.92054516666666, "fusion_lat": 0.0, "type": "electric_bike", "lon": -76.970691, "is_disabled": 0, "fusion_lon": 0.0, "rental_uris": {"android": "https://dc.lft.to/lastmile_qr_scan", "ios": "https://dc.lft.to/lastmile_qr_scan"}, "is_reserved": 0}, {"bike_id": "69cd3c7a4496081c045a1c5dd39ae21e", "name": "69cd3c7a4496081c045a1c5dd39ae21e", "lat": 38.90166716666667, "fusion_lat": 0.0, "type": "electric_scooter", "lon": -76.93020783333333, "is_disabled": 0, "fusion_lon": 0.0, "rental_uris": {"android": "https://dc.lft.to/lastmile_qr_scan", "ios": "https://dc.lft.to/lastmile_qr_scan"}, "is_reserved": 0}, {"bike_id": "95dad4f9401a11384a759e4dcbf38150", "name": "95dad4f9401a11384a759e4dcbf38150", "lat": 38.8073095, "fusion_lat": 0.0, "type": "electric_bike", "lon": -76.992548, "is_disabled": 0, "fusion_lon": 0.0, "rental_uris": {"android": "https://dc.lft.to/lastmile_qr_scan", "ios": "https://dc.lft.to/lastmile_qr_scan"}, "is_reserved": 0}, {"bike_id": "17d6118c5ed5f23112c1ed030acbdb02", "name": "17d6118c5ed5f23112c1ed030acbdb02", "lat": 38.90112383333334, "fusion_lat": 0.0, "type": "electric_scooter", "lon": -77.03855183333333, "is_disabled": 0, "fusion_lon": 0.0, "rental_uris": {"android": "https://dc.lft.to/lastmile_qr_scan", "ios": "https://dc.lft.to/lastmile_qr_scan"}, "is_reserved": 0}, {"bike_id": "187143adf18b4c6a5515d55aaf99fd0a", "name": "187143adf18b4c6a5515d55aaf99fd0a", "lat": 38.90217233333333, "fusion_lat": 0.0, "type": "electric_scooter", "lon": -77.02433683333334, "is_disabled": 0, "fusion_lon": 0.0, "rental_uris": {"android": "https://dc.lft.to/lastmile_qr_scan", "ios": "https://dc.lft.to/lastmile_qr_scan"}, "is_reserved": 0}, {"bike_id": "7e7087fa7e02f4e6a05ab23c853052fb", "name": "7e7087fa7e02f4e6a05ab23c853052fb", "lat": 38.93978383333334, "fusion_lat": 0.0, "type": "electric_scooter", "lon": -77.03563816666667, "is_disabled": 0, "fusion_lon": 0.0, "rental_uris": {"android": "https://dc.lft.to/lastmile_qr_scan", "ios": "https://dc.lft.to/lastmile_qr_scan"}, "is_reserved": 0}, {"bike_id": "c3f9afa35c319195cb9b64d085abe29e", "name": "c3f9afa35c319195cb9b64d085abe29e", "lat": 38.793334, "fusion_lat": 0.0, "type": "electric_bike", "lon": -77.00051366666666, "is_disabled": 0, "fusion_lon": 0.0, "rental_uris": {"android": "https://dc.lft.to/lastmile_qr_scan", "ios": "https://dc.lft.to/lastmile_qr_scan"}, "is_reserved": 0}, {"bike_id": "cc327ffb609bbaa4afcfbcd4a42e4a4e", "name": "cc327ffb609bbaa4afcfbcd4a42e4a4e", "lat": 38.89319166666667, "fusion_lat": 0.0, "type": "electric_scooter", "lon": -76.921067, "is_disabled": 0, "fusion_lon": 0.0, "rental_uris": {"android": "https://dc.lft.to/lastmile_qr_scan", "ios": "https://dc.lft.to/lastmile_qr_scan"}, "is_reserved": 0}, {"bike_id": "6c167deee18519d40890173befdace4e", "name": "6c167deee18519d40890173befdace4e", "lat": 38.903796166666666, "fusion_lat": 0.0, "type": "electric_scooter", "lon": -76.99852966666667, "is_disabled": 0, "fusion_lon": 0.0, "rental_uris": {"android": "https://dc.lft.to/lastmile_qr_scan", "ios": "https://dc.lft.to/lastmile_qr_scan"}, "is_reserved": 0}, {"bike_id": "76047e4ac91454b5681bb4a065b7a130", "name": "76047e4ac91454b5681bb4a065b7a130", "lat": 38.929924666666665, "fusion_lat": 0.0, "type": "electric_scooter", "lon": -77.0379035, "is_disabled": 0, "fusion_lon": 0.0, "rental_uris": {"android": "https://dc.lft.to/lastmile_qr_scan", "ios": "https://dc.lft.to/lastmile_qr_scan"}, "is_reserved": 0}, {"bike_id": "172450d4e571f7dbe6ef82605c25af64", "name": "172450d4e571f7dbe6ef82605c25af64", "lat": 38.86445833333333, "fusion_lat": 0.0, "type": "electric_scooter", "lon": -76.9911095, "is_disabled": 0, "fusion_lon": 0.0, "rental_uris": {"android": "https://dc.lft.to/lastmile_qr_scan", "ios": "https://dc.lft.to/lastmile_qr_scan"}, "is_reserved": 0}, {"bike_id": "774b5daa3aa75ed03a38673edfdf319a", "name": "774b5daa3aa75ed03a38673edfdf319a", "lat": 38.89577666666667, "fusion_lat": 0.0, "type": "electric_scooter", "lon": -77.03024083333334, "is_disabled": 0, "fusion_lon": 0.0, "rental_uris": {"android": "https://dc.lft.to/lastmile_qr_scan", "ios": "https://dc.lft.to/lastmile_qr_scan"}, "is_reserved": 0}, {"bike_id": "bcd2e2dc3eb72135601b50779cb22c01", "name": "bcd2e2dc3eb72135601b50779cb22c01", "lat": 38.91689083333333, "fusion_lat": 0.0, "type": "electric_scooter", "lon": -77.03208283333333, "is_disabled": 0, "fusion_lon": 0.0, "rental_uris": {"android": "https://dc.lft.to/lastmile_qr_scan", "ios": "https://dc.lft.to/lastmile_qr_scan"}, "is_reserved": 0}, {"bike_id": "68ae71befce251fb82da89a5a71efc06", "name": "68ae71befce251fb82da89a5a71efc06", "lat": 38.9112105, "fusion_lat": 0.0, "type": "electric_scooter", "lon": -77.04366316666666, "is_disabled": 0, "fusion_lon": 0.0, "rental_uris": {"android": "https://dc.lft.to/lastmile_qr_scan", "ios": "https://dc.lft.to/lastmile_qr_scan"}, "is_reserved": 0}, {"bike_id": "e138050ab14c9c11fb8988b36f18dcfa", "name": "e138050ab14c9c11fb8988b36f18dcfa", "lat": 38.92670066666667, "fusion_lat": 0.0, "type": "electric_scooter", "lon": -77.02757966666667, "is_disabled": 0, "fusion_lon": 0.0, "rental_uris": {"android": "https://dc.lft.to/lastmile_qr_scan", "ios": "https://dc.lft.to/lastmile_qr_scan"}, "is_reserved": 0}, {"bike_id": "7d607b2617509b2000703bf4f4812482", "name": "7d607b2617509b2000703bf4f4812482", "lat": 38.915, "fusion_lat": 0.0, "type": "electric_scooter", "lon": -77.01995733333334, "is_disabled": 0, "fusion_lon": 0.0, "rental_uris": {"android": "https://dc.lft.to/lastmile_qr_scan", "ios": "https://dc.lft.to/lastmile_qr_scan"}, "is_reserved": 0}, {"bike_id": "817cae2f4d5a3f35ae1be4ca9d8ee142", "name": "817cae2f4d5a3f35ae1be4ca9d8ee142", "lat": 38.914235, "fusion_lat": 0.0, "type": "electric_scooter", "lon": -77.018026, "is_disabled": 0, "fusion_lon": 0.0, "rental_uris": {"android": "https://dc.lft.to/lastmile_qr_scan", "ios": "https://dc.lft.to/lastmile_qr_scan"}, "is_reserved": 0}, {"bike_id": "ea29d2cc7d160643a7e6d727aed24e45", "name": "ea29d2cc7d160643a7e6d727aed24e45", "lat": 38.923739833333336, "fusion_lat": 0.0, "type": "electric_scooter", "lon": -77.08051083333334, "is_disabled": 0, "fusion_lon": 0.0, "rental_uris": {"android": "https://dc.lft.to/lastmile_qr_scan", "ios": "https://dc.lft.to/lastmile_qr_scan"}, "is_reserved": 0}, {"bike_id": "62cc2fd3ac7802728a37098ecf60a68e", "name": "62cc2fd3ac7802728a37098ecf60a68e", "lat": 38.929118333333335, "fusion_lat": 0.0, "type": "electric_bike", "lon": -77.0208825, "is_disabled": 0, "fusion_lon": 0.0, "rental_uris": {"android": "https://dc.lft.to/lastmile_qr_scan", "ios": "https://dc.lft.to/lastmile_qr_scan"}, "is_reserved": 0}, {"bike_id": "2b7099fe59101033ef531d4b538b4b4e", "name": "2b7099fe59101033ef531d4b538b4b4e", "lat": 38.97484333333333, "fusion_lat": 0.0, "type": "electric_scooter", "lon": -77.01688516666667, "is_disabled": 0, "fusion_lon": 0.0, "rental_uris": {"android": "https://dc.lft.to/lastmile_qr_scan", "ios": "https://dc.lft.to/lastmile_qr_scan"}, "is_reserved": 0}, {"bike_id": "ec7fb721907ff4726a42f6a1006ca6f1", "name": "ec7fb721907ff4726a42f6a1006ca6f1", "lat": 38.903837333333335, "fusion_lat": 0.0, "type": "electric_scooter", "lon": -77.05021066666667, "is_disabled": 0, "fusion_lon": 0.0, "rental_uris": {"android": "https://dc.lft.to/lastmile_qr_scan", "ios": "https://dc.lft.to/lastmile_qr_scan"}, "is_reserved": 0}, {"bike_id": "abd71546e06eb6fb140b0e116dd5cea8", "name": "abd71546e06eb6fb140b0e116dd5cea8", "lat": 38.89706533333333, "fusion_lat": 0.0, "type": "electric_scooter", "lon": -76.99115466666666, "is_disabled": 0, "fusion_lon": 0.0, "rental_uris": {"android": "https://dc.lft.to/lastmile_qr_scan", "ios": "https://dc.lft.to/lastmile_qr_scan"}, "is_reserved": 0}, {"bike_id": "426a041e4051d6b1496fbde20444ae09", "name": "426a041e4051d6b1496fbde20444ae09", "lat": 39.09443683333333, "fusion_lat": 0.0, "type": "electric_bike", "lon": -77.13456283333333, "is_disabled": 0, "fusion_lon": 0.0, "rental_uris": {"android": "https://dc.lft.to/lastmile_qr_scan", "ios": "https://dc.lft.to/lastmile_qr_scan"}, "is_reserved": 0}, {"bike_id": "7ed9ef5005fed5f9b690a4796bf51dcf", "name": "7ed9ef5005fed5f9b690a4796bf51dcf", "lat": 38.936400166666665, "fusion_lat": 0.0, "type": "electric_scooter", "lon": -77.05992616666667, "is_disabled": 0, "fusion_lon": 0.0, "rental_uris": {"android": "https://dc.lft.to/lastmile_qr_scan", "ios": "https://dc.lft.to/lastmile_qr_scan"}, "is_reserved": 0}, {"bike_id": "f00a35ad70142b744f67e53c816337a8", "name": "f00a35ad70142b744f67e53c816337a8", "lat": 38.914353166666665, "fusion_lat": 0.0, "type": "electric_scooter", "lon": -77.0318115, "is_disabled": 0, "fusion_lon": 0.0, "rental_uris": {"android": "https://dc.lft.to/lastmile_qr_scan", "ios": "https://dc.lft.to/lastmile_qr_scan"}, "is_reserved": 0}, {"bike_id": "5c781cc0924de8d7cdb5155e14352b20", "name": "5c781cc0924de8d7cdb5155e14352b20", "lat": 38.9212605, "fusion_lat": 0.0, "type": "electric_scooter", "lon": -77.04575366666667, "is_disabled": 0, "fusion_lon": 0.0, "rental_uris": {"android": "https://dc.lft.to/lastmile_qr_scan", "ios": "https://dc.lft.to/lastmile_qr_scan"}, "is_reserved": 0}, {"bike_id": "6212256acee663686e10cdcf84bbe5dc", "name": "6212256acee663686e10cdcf84bbe5dc", "lat": 38.886042833333335, "fusion_lat": 0.0, "type": "electric_bike", "lon": -77.142296, "is_disabled": 0, "fusion_lon": 0.0, "rental_uris": {"android": "https://dc.lft.to/lastmile_qr_scan", "ios": "https://dc.lft.to/lastmile_qr_scan"}, "is_reserved": 0}, {"bike_id": "f09bdcc40c968562e28361dd86065676", "name": "f09bdcc40c968562e28361dd86065676", "lat": 38.90518433333333, "fusion_lat": 0.0, "type": "electric_scooter", "lon": -77.018851, "is_disabled": 0, "fusion_lon": 0.0, "rental_uris": {"android": "https://dc.lft.to/lastmile_qr_scan", "ios": "https://dc.lft.to/lastmile_qr_scan"}, "is_reserved": 0}, {"bike_id": "73dc06037d4a609862fd41d1e47abc10", "name": "73dc06037d4a609862fd41d1e47abc10", "lat": 38.920226, "fusion_lat": 0.0, "type": "electric_scooter", "lon": -77.031519, "is_disabled": 0, "fusion_lon": 0.0, "rental_uris": {"android": "https://dc.lft.to/lastmile_qr_scan", "ios": "https://dc.lft.to/lastmile_qr_scan"}, "is_reserved": 0}, {"bike_id": "9c98a47663ace2b2b38dd4ddf43d9cd0", "name": "9c98a47663ace2b2b38dd4ddf43d9cd0", "lat": 38.86619533333333, "fusion_lat": 0.0, "type": "electric_bike", "lon": -76.94573183333333, "is_disabled": 0, "fusion_lon": 0.0, "rental_uris": {"android": "https://dc.lft.to/lastmile_qr_scan", "ios": "https://dc.lft.to/lastmile_qr_scan"}, "is_reserved": 0}, {"bike_id": "d2bf6279e1482c2f16d3f48881896ae2", "name": "d2bf6279e1482c2f16d3f48881896ae2", "lat": 38.89365733333333, "fusion_lat": 0.0, "type": "electric_scooter", "lon": -77.0033155, "is_disabled": 0, "fusion_lon": 0.0, "rental_uris": {"android": "https://dc.lft.to/lastmile_qr_scan", "ios": "https://dc.lft.to/lastmile_qr_scan"}, "is_reserved": 0}, {"bike_id": "c4224aeb68264c18cbb06343f513d470", "name": "c4224aeb68264c18cbb06343f513d470", "lat": 38.912658, "fusion_lat": 0.0, "type": "electric_scooter", "lon": -77.02384116666667, "is_disabled": 0, "fusion_lon": 0.0, "rental_uris": {"android": "https://dc.lft.to/lastmile_qr_scan", "ios": "https://dc.lft.to/lastmile_qr_scan"}, "is_reserved": 0}, {"bike_id": "80f2bc19f6d1622928fa1895a7ba1f1a", "name": "80f2bc19f6d1622928fa1895a7ba1f1a", "lat": 38.93039666666667, "fusion_lat": 0.0, "type": "electric_scooter", "lon": -77.01219866666666, "is_disabled": 0, "fusion_lon": 0.0, "rental_uris": {"android": "https://dc.lft.to/lastmile_qr_scan", "ios": "https://dc.lft.to/lastmile_qr_scan"}, "is_reserved": 0}, {"bike_id": "389a130af4b847021aeb9957b6df4d72", "name": "389a130af4b847021aeb9957b6df4d72", "lat": 38.917974, "fusion_lat": 0.0, "type": "electric_scooter", "lon": -77.0344145, "is_disabled": 0, "fusion_lon": 0.0, "rental_uris": {"android": "https://dc.lft.to/lastmile_qr_scan", "ios": "https://dc.lft.to/lastmile_qr_scan"}, "is_reserved": 0}, {"bike_id": "c2523ec0a14bff51d8287ea552184279", "name": "c2523ec0a14bff51d8287ea552184279", "lat": 38.9000455, "fusion_lat": 0.0, "type": "electric_scooter", "lon": -77.023953, "is_disabled": 0, "fusion_lon": 0.0, "rental_uris": {"android": "https://dc.lft.to/lastmile_qr_scan", "ios": "https://dc.lft.to/lastmile_qr_scan"}, "is_reserved": 0}, {"bike_id": "4c6ca3be496d10d0684c83ab8d82e24c", "name": "4c6ca3be496d10d0684c83ab8d82e24c", "lat": 38.91196433333333, "fusion_lat": 0.0, "type": "electric_scooter", "lon": -77.03858033333333, "is_disabled": 0, "fusion_lon": 0.0, "rental_uris": {"android": "https://dc.lft.to/lastmile_qr_scan", "ios": "https://dc.lft.to/lastmile_qr_scan"}, "is_reserved": 0}, {"bike_id": "a2a07e01ebf636aeb1d7ed681c04aed1", "name": "a2a07e01ebf636aeb1d7ed681c04aed1", "lat": 38.90653066666667, "fusion_lat": 0.0, "type": "electric_scooter", "lon": -77.02959466666667, "is_disabled": 0, "fusion_lon": 0.0, "rental_uris": {"android": "https://dc.lft.to/lastmile_qr_scan", "ios": "https://dc.lft.to/lastmile_qr_scan"}, "is_reserved": 0}, {"bike_id": "e0cce0fb74f15565f1479626f001d579", "name": "e0cce0fb74f15565f1479626f001d579", "lat": 38.89454666666666, "fusion_lat": 0.0, "type": "electric_scooter", "lon": -77.0200095, "is_disabled": 0, "fusion_lon": 0.0, "rental_uris": {"android": "https://dc.lft.to/lastmile_qr_scan", "ios": "https://dc.lft.to/lastmile_qr_scan"}, "is_reserved": 0}, {"bike_id": "aae8e72c37fed5b2dcf7b197772a6e03", "name": "aae8e72c37fed5b2dcf7b197772a6e03", "lat": 38.88510516666667, "fusion_lat": 0.0, "type": "electric_scooter", "lon": -77.01115183333333, "is_disabled": 0, "fusion_lon": 0.0, "rental_uris": {"android": "https://dc.lft.to/lastmile_qr_scan", "ios": "https://dc.lft.to/lastmile_qr_scan"}, "is_reserved": 0}, {"bike_id": "4c85b4061371a7e14672c812c24b45f5", "name": "4c85b4061371a7e14672c812c24b45f5", "lat": 38.898326833333336, "fusion_lat": 0.0, "type": "electric_scooter", "lon": -77.02946733333333, "is_disabled": 0, "fusion_lon": 0.0, "rental_uris": {"android": "https://dc.lft.to/lastmile_qr_scan", "ios": "https://dc.lft.to/lastmile_qr_scan"}, "is_reserved": 0}, {"bike_id": "fafbf3d21338088125088d06fef86986", "name": "fafbf3d21338088125088d06fef86986", "lat": 38.94667066666667, "fusion_lat": 0.0, "type": "electric_bike", "lon": -76.99332383333333, "is_disabled": 0, "fusion_lon": 0.0, "rental_uris": {"android": "https://dc.lft.to/lastmile_qr_scan", "ios": "https://dc.lft.to/lastmile_qr_scan"}, "is_reserved": 0}, {"bike_id": "02eac1b820db6fe6ca1f52f349e0e029", "name": "02eac1b820db6fe6ca1f52f349e0e029", "lat": 38.86514316666667, "fusion_lat": 0.0, "type": "electric_scooter", "lon": -76.9690025, "is_disabled": 0, "fusion_lon": 0.0, "rental_uris": {"android": "https://dc.lft.to/lastmile_qr_scan", "ios": "https://dc.lft.to/lastmile_qr_scan"}, "is_reserved": 0}, {"bike_id": "16282cc7f46d4b7f9f0b513ce5d16a01", "name": "16282cc7f46d4b7f9f0b513ce5d16a01", "lat": 38.920067, "fusion_lat": 0.0, "type": "electric_scooter", "lon": -77.03174133333333, "is_disabled": 0, "fusion_lon": 0.0, "rental_uris": {"android": "https://dc.lft.to/lastmile_qr_scan", "ios": "https://dc.lft.to/lastmile_qr_scan"}, "is_reserved": 0}, {"bike_id": "e536f21e5ef56d71678386c472221bf3", "name": "e536f21e5ef56d71678386c472221bf3", "lat": 38.919096333333336, "fusion_lat": 0.0, "type": "electric_scooter", "lon": -77.02944566666666, "is_disabled": 0, "fusion_lon": 0.0, "rental_uris": {"android": "https://dc.lft.to/lastmile_qr_scan", "ios": "https://dc.lft.to/lastmile_qr_scan"}, "is_reserved": 0}, {"bike_id": "ca8080ce82230127a7f5ea61537d544e", "name": "ca8080ce82230127a7f5ea61537d544e", "lat": 38.92360566666667, "fusion_lat": 0.0, "type": "electric_scooter", "lon": -77.01917783333333, "is_disabled": 0, "fusion_lon": 0.0, "rental_uris": {"android": "https://dc.lft.to/lastmile_qr_scan", "ios": "https://dc.lft.to/lastmile_qr_scan"}, "is_reserved": 0}, {"bike_id": "484723b6913669e7679c447fdfda9ae1", "name": "484723b6913669e7679c447fdfda9ae1", "lat": 38.90802816666667, "fusion_lat": 0.0, "type": "electric_scooter", "lon": -77.044941, "is_disabled": 0, "fusion_lon": 0.0, "rental_uris": {"android": "https://dc.lft.to/lastmile_qr_scan", "ios": "https://dc.lft.to/lastmile_qr_scan"}, "is_reserved": 0}, {"bike_id": "10f6d1649a7eb6c4a35cdb9ff9a4230c", "name": "10f6d1649a7eb6c4a35cdb9ff9a4230c", "lat": 38.959324, "fusion_lat": 0.0, "type": "electric_scooter", "lon": -77.0311595, "is_disabled": 0, "fusion_lon": 0.0, "rental_uris": {"android": "https://dc.lft.to/lastmile_qr_scan", "ios": "https://dc.lft.to/lastmile_qr_scan"}, "is_reserved": 0}, {"bike_id": "cbbeb12b3453ae2ab810a6122fbdb2ca", "name": "cbbeb12b3453ae2ab810a6122fbdb2ca", "lat": 38.9227765, "fusion_lat": 0.0, "type": "electric_scooter", "lon": -77.02972883333334, "is_disabled": 0, "fusion_lon": 0.0, "rental_uris": {"android": "https://dc.lft.to/lastmile_qr_scan", "ios": "https://dc.lft.to/lastmile_qr_scan"}, "is_reserved": 0}, {"bike_id": "9b0d7cedee3b2087d337f52fb7ff01e2", "name": "9b0d7cedee3b2087d337f52fb7ff01e2", "lat": 38.926053833333334, "fusion_lat": 0.0, "type": "electric_scooter", "lon": -77.02152533333333, "is_disabled": 0, "fusion_lon": 0.0, "rental_uris": {"android": "https://dc.lft.to/lastmile_qr_scan", "ios": "https://dc.lft.to/lastmile_qr_scan"}, "is_reserved": 0}, {"bike_id": "b57ba74ec7ceae3c9618fbb4fbd212ca", "name": "b57ba74ec7ceae3c9618fbb4fbd212ca", "lat": 38.900514333333334, "fusion_lat": 0.0, "type": "electric_scooter", "lon": -77.04866983333334, "is_disabled": 0, "fusion_lon": 0.0, "rental_uris": {"android": "https://dc.lft.to/lastmile_qr_scan", "ios": "https://dc.lft.to/lastmile_qr_scan"}, "is_reserved": 0}, {"bike_id": "53e05c488699df05f8e06aa0e4f51caa", "name": "53e05c488699df05f8e06aa0e4f51caa", "lat": 38.91548516666667, "fusion_lat": 0.0, "type": "electric_scooter", "lon": -77.04170416666666, "is_disabled": 0, "fusion_lon": 0.0, "rental_uris": {"android": "https://dc.lft.to/lastmile_qr_scan", "ios": "https://dc.lft.to/lastmile_qr_scan"}, "is_reserved": 0}, {"bike_id": "d02fb314143492281581a92beb839427", "name": "d02fb314143492281581a92beb839427", "lat": 38.895719, "fusion_lat": 0.0, "type": "electric_scooter", "lon": -77.0218245, "is_disabled": 0, "fusion_lon": 0.0, "rental_uris": {"android": "https://dc.lft.to/lastmile_qr_scan", "ios": "https://dc.lft.to/lastmile_qr_scan"}, "is_reserved": 0}, {"bike_id": "5ba38a6f25ef7306daf29da362691aea", "name": "5ba38a6f25ef7306daf29da362691aea", "lat": 38.90714766666667, "fusion_lat": 0.0, "type": "electric_scooter", "lon": -77.05016833333333, "is_disabled": 0, "fusion_lon": 0.0, "rental_uris": {"android": "https://dc.lft.to/lastmile_qr_scan", "ios": "https://dc.lft.to/lastmile_qr_scan"}, "is_reserved": 0}, {"bike_id": "f6582f3297d1d3c27d833d7dd1134114", "name": "f6582f3297d1d3c27d833d7dd1134114", "lat": 38.8922105, "fusion_lat": 0.0, "type": "electric_scooter", "lon": -77.03337666666667, "is_disabled": 0, "fusion_lon": 0.0, "rental_uris": {"android": "https://dc.lft.to/lastmile_qr_scan", "ios": "https://dc.lft.to/lastmile_qr_scan"}, "is_reserved": 0}, {"bike_id": "1e2500e16653617a1c6755363606cba8", "name": "1e2500e16653617a1c6755363606cba8", "lat": 38.904234, "fusion_lat": 0.0, "type": "electric_scooter", "lon": -77.043393, "is_disabled": 0, "fusion_lon": 0.0, "rental_uris": {"android": "https://dc.lft.to/lastmile_qr_scan", "ios": "https://dc.lft.to/lastmile_qr_scan"}, "is_reserved": 0}, {"bike_id": "2717d183fb9e89587c731823bffacc6f", "name": "2717d183fb9e89587c731823bffacc6f", "lat": 38.91688116666667, "fusion_lat": 0.0, "type": "electric_scooter", "lon": -77.0375965, "is_disabled": 0, "fusion_lon": 0.0, "rental_uris": {"android": "https://dc.lft.to/lastmile_qr_scan", "ios": "https://dc.lft.to/lastmile_qr_scan"}, "is_reserved": 0}, {"bike_id": "b1d73e8e9c36957554381ad115fbdf88", "name": "b1d73e8e9c36957554381ad115fbdf88", "lat": 38.935598166666665, "fusion_lat": 0.0, "type": "electric_scooter", "lon": -77.032581, "is_disabled": 0, "fusion_lon": 0.0, "rental_uris": {"android": "https://dc.lft.to/lastmile_qr_scan", "ios": "https://dc.lft.to/lastmile_qr_scan"}, "is_reserved": 0}, {"bike_id": "c3b6c875150d80ef1d1f58354d1086bc", "name": "c3b6c875150d80ef1d1f58354d1086bc", "lat": 38.852222166666664, "fusion_lat": 0.0, "type": "electric_scooter", "lon": -76.9942345, "is_disabled": 0, "fusion_lon": 0.0, "rental_uris": {"android": "https://dc.lft.to/lastmile_qr_scan", "ios": "https://dc.lft.to/lastmile_qr_scan"}, "is_reserved": 0}, {"bike_id": "c715fd5b35cb633ba86f97e9bacb3d30", "name": "c715fd5b35cb633ba86f97e9bacb3d30", "lat": 38.899068, "fusion_lat": 0.0, "type": "electric_scooter", "lon": -76.98572383333334, "is_disabled": 0, "fusion_lon": 0.0, "rental_uris": {"android": "https://dc.lft.to/lastmile_qr_scan", "ios": "https://dc.lft.to/lastmile_qr_scan"}, "is_reserved": 0}, {"bike_id": "95d08f2dd263749e4b7238f9b7f38904", "name": "95d08f2dd263749e4b7238f9b7f38904", "lat": 38.892211, "fusion_lat": 0.0, "type": "electric_scooter", "lon": -77.03991716666667, "is_disabled": 0, "fusion_lon": 0.0, "rental_uris": {"android": "https://dc.lft.to/lastmile_qr_scan", "ios": "https://dc.lft.to/lastmile_qr_scan"}, "is_reserved": 0}, {"bike_id": "be9268f40d158e1063290f797087ac97", "name": "be9268f40d158e1063290f797087ac97", "lat": 38.9361, "fusion_lat": 0.0, "type": "electric_scooter", "lon": -77.0321085, "is_disabled": 0, "fusion_lon": 0.0, "rental_uris": {"android": "https://dc.lft.to/lastmile_qr_scan", "ios": "https://dc.lft.to/lastmile_qr_scan"}, "is_reserved": 0}, {"bike_id": "5f0b19d1edc03942c328ad00839a54e0", "name": "5f0b19d1edc03942c328ad00839a54e0", "lat": 38.924029833333336, "fusion_lat": 0.0, "type": "electric_scooter", "lon": -77.01957416666667, "is_disabled": 0, "fusion_lon": 0.0, "rental_uris": {"android": "https://dc.lft.to/lastmile_qr_scan", "ios": "https://dc.lft.to/lastmile_qr_scan"}, "is_reserved": 0}, {"bike_id": "afc7bf19837eaaf1f7e75f61af4ff7b4", "name": "afc7bf19837eaaf1f7e75f61af4ff7b4", "lat": 38.9159535, "fusion_lat": 0.0, "type": "electric_scooter", "lon": -77.02572333333333, "is_disabled": 0, "fusion_lon": 0.0, "rental_uris": {"android": "https://dc.lft.to/lastmile_qr_scan", "ios": "https://dc.lft.to/lastmile_qr_scan"}, "is_reserved": 0}, {"bike_id": "7c8406edc1d79e5630c0675e3bf6ede3", "name": "7c8406edc1d79e5630c0675e3bf6ede3", "lat": 38.900047, "fusion_lat": 0.0, "type": "electric_scooter", "lon": -77.03128033333333, "is_disabled": 0, "fusion_lon": 0.0, "rental_uris": {"android": "https://dc.lft.to/lastmile_qr_scan", "ios": "https://dc.lft.to/lastmile_qr_scan"}, "is_reserved": 0}, {"bike_id": "ca885eb52fcc6042b0503728a60c85d2", "name": "ca885eb52fcc6042b0503728a60c85d2", "lat": 38.88569, "fusion_lat": 0.0, "type": "electric_scooter", "lon": -76.99811233333334, "is_disabled": 0, "fusion_lon": 0.0, "rental_uris": {"android": "https://dc.lft.to/lastmile_qr_scan", "ios": "https://dc.lft.to/lastmile_qr_scan"}, "is_reserved": 0}, {"bike_id": "86e05e962798bcbfb1d2183e0c151509", "name": "86e05e962798bcbfb1d2183e0c151509", "lat": 38.92020633333333, "fusion_lat": 0.0, "type": "electric_scooter", "lon": -77.03079383333333, "is_disabled": 0, "fusion_lon": 0.0, "rental_uris": {"android": "https://dc.lft.to/lastmile_qr_scan", "ios": "https://dc.lft.to/lastmile_qr_scan"}, "is_reserved": 0}, {"bike_id": "b95151a8d2f9dff61bf2fdb236528b54", "name": "b95151a8d2f9dff61bf2fdb236528b54", "lat": 38.9193425, "fusion_lat": 0.0, "type": "electric_scooter", "lon": -77.04895866666666, "is_disabled": 0, "fusion_lon": 0.0, "rental_uris": {"android": "https://dc.lft.to/lastmile_qr_scan", "ios": "https://dc.lft.to/lastmile_qr_scan"}, "is_reserved": 0}, {"bike_id": "17c58b84a4f853ec1e0945eaae55f968", "name": "17c58b84a4f853ec1e0945eaae55f968", "lat": 38.984288666666664, "fusion_lat": 0.0, "type": "electric_scooter", "lon": -77.02672, "is_disabled": 0, "fusion_lon": 0.0, "rental_uris": {"android": "https://dc.lft.to/lastmile_qr_scan", "ios": "https://dc.lft.to/lastmile_qr_scan"}, "is_reserved": 0}, {"bike_id": "e30edcd2cd5cb8de0bea1433becbc9a3", "name": "e30edcd2cd5cb8de0bea1433becbc9a3", "lat": 38.884402333333334, "fusion_lat": 0.0, "type": "electric_scooter", "lon": -77.00345516666667, "is_disabled": 0, "fusion_lon": 0.0, "rental_uris": {"android": "https://dc.lft.to/lastmile_qr_scan", "ios": "https://dc.lft.to/lastmile_qr_scan"}, "is_reserved": 0}, {"bike_id": "2a96ab3f0e41ed9fc48593f3d413d37e", "name": "2a96ab3f0e41ed9fc48593f3d413d37e", "lat": 38.888743, "fusion_lat": 0.0, "type": "electric_scooter", "lon": -76.99026483333333, "is_disabled": 0, "fusion_lon": 0.0, "rental_uris": {"android": "https://dc.lft.to/lastmile_qr_scan", "ios": "https://dc.lft.to/lastmile_qr_scan"}, "is_reserved": 0}, {"bike_id": "f98f4765a23a38e266d41b68715b7587", "name": "f98f4765a23a38e266d41b68715b7587", "lat": 38.907589333333334, "fusion_lat": 0.0, "type": "electric_scooter", "lon": -77.0435485, "is_disabled": 0, "fusion_lon": 0.0, "rental_uris": {"android": "https://dc.lft.to/lastmile_qr_scan", "ios": "https://dc.lft.to/lastmile_qr_scan"}, "is_reserved": 0}, {"bike_id": "3d0505aaf511d7121578a85b4aeed388", "name": "3d0505aaf511d7121578a85b4aeed388", "lat": 38.9325255, "fusion_lat": 0.0, "type": "electric_scooter", "lon": -77.01960866666667, "is_disabled": 0, "fusion_lon": 0.0, "rental_uris": {"android": "https://dc.lft.to/lastmile_qr_scan", "ios": "https://dc.lft.to/lastmile_qr_scan"}, "is_reserved": 0}, {"bike_id": "eab5fc7304741b57d4b4e3448e7dd684", "name": "eab5fc7304741b57d4b4e3448e7dd684", "lat": 38.93021516666667, "fusion_lat": 0.0, "type": "electric_bike", "lon": -77.01226466666667, "is_disabled": 0, "fusion_lon": 0.0, "rental_uris": {"android": "https://dc.lft.to/lastmile_qr_scan", "ios": "https://dc.lft.to/lastmile_qr_scan"}, "is_reserved": 0}, {"bike_id": "995babf996211454529c36b9ed936983", "name": "995babf996211454529c36b9ed936983", "lat": 38.9157985, "fusion_lat": 0.0, "type": "electric_scooter", "lon": -77.0123905, "is_disabled": 0, "fusion_lon": 0.0, "rental_uris": {"android": "https://dc.lft.to/lastmile_qr_scan", "ios": "https://dc.lft.to/lastmile_qr_scan"}, "is_reserved": 0}, {"bike_id": "69cd76f412d6896a6f14f592ff9b1f29", "name": "69cd76f412d6896a6f14f592ff9b1f29", "lat": 38.913857166666666, "fusion_lat": 0.0, "type": "electric_scooter", "lon": -76.98407183333333, "is_disabled": 0, "fusion_lon": 0.0, "rental_uris": {"android": "https://dc.lft.to/lastmile_qr_scan", "ios": "https://dc.lft.to/lastmile_qr_scan"}, "is_reserved": 0}, {"bike_id": "60d6ea19b42ec415e05cb525fb931f6f", "name": "60d6ea19b42ec415e05cb525fb931f6f", "lat": 38.930370833333335, "fusion_lat": 0.0, "type": "electric_scooter", "lon": -77.0334525, "is_disabled": 0, "fusion_lon": 0.0, "rental_uris": {"android": "https://dc.lft.to/lastmile_qr_scan", "ios": "https://dc.lft.to/lastmile_qr_scan"}, "is_reserved": 0}, {"bike_id": "c6df4551675708666d2557db95f0f60d", "name": "c6df4551675708666d2557db95f0f60d", "lat": 38.927606833333336, "fusion_lat": 0.0, "type": "electric_scooter", "lon": -77.05262183333333, "is_disabled": 0, "fusion_lon": 0.0, "rental_uris": {"android": "https://dc.lft.to/lastmile_qr_scan", "ios": "https://dc.lft.to/lastmile_qr_scan"}, "is_reserved": 0}, {"bike_id": "1b192d0852d729ab4a3aab821873b8da", "name": "1b192d0852d729ab4a3aab821873b8da", "lat": 38.919634333333335, "fusion_lat": 0.0, "type": "electric_scooter", "lon": -77.043583, "is_disabled": 0, "fusion_lon": 0.0, "rental_uris": {"android": "https://dc.lft.to/lastmile_qr_scan", "ios": "https://dc.lft.to/lastmile_qr_scan"}, "is_reserved": 0}, {"bike_id": "def5f0e733093312a29e3f8c557794c2", "name": "def5f0e733093312a29e3f8c557794c2", "lat": 38.892206333333334, "fusion_lat": 0.0, "type": "electric_scooter", "lon": -77.02629083333333, "is_disabled": 0, "fusion_lon": 0.0, "rental_uris": {"android": "https://dc.lft.to/lastmile_qr_scan", "ios": "https://dc.lft.to/lastmile_qr_scan"}, "is_reserved": 0}, {"bike_id": "9891c0f6c7ae2832785cacde263c1b35", "name": "9891c0f6c7ae2832785cacde263c1b35", "lat": 38.886732, "fusion_lat": 0.0, "type": "electric_scooter", "lon": -77.001951, "is_disabled": 0, "fusion_lon": 0.0, "rental_uris": {"android": "https://dc.lft.to/lastmile_qr_scan", "ios": "https://dc.lft.to/lastmile_qr_scan"}, "is_reserved": 0}, {"bike_id": "152736cb587f925de59482bddde9497a", "name": "152736cb587f925de59482bddde9497a", "lat": 38.8852935, "fusion_lat": 0.0, "type": "electric_scooter", "lon": -76.98051916666667, "is_disabled": 0, "fusion_lon": 0.0, "rental_uris": {"android": "https://dc.lft.to/lastmile_qr_scan", "ios": "https://dc.lft.to/lastmile_qr_scan"}, "is_reserved": 0}, {"bike_id": "5c0c1a8817721721abbc27620ede8b12", "name": "5c0c1a8817721721abbc27620ede8b12", "lat": 38.86564883333333, "fusion_lat": 0.0, "type": "electric_scooter", "lon": -76.99030716666667, "is_disabled": 0, "fusion_lon": 0.0, "rental_uris": {"android": "https://dc.lft.to/lastmile_qr_scan", "ios": "https://dc.lft.to/lastmile_qr_scan"}, "is_reserved": 0}, {"bike_id": "42290c94df466e2a36881cbfad146c99", "name": "42290c94df466e2a36881cbfad146c99", "lat": 38.911734833333334, "fusion_lat": 0.0, "type": "electric_scooter", "lon": -77.03835483333333, "is_disabled": 0, "fusion_lon": 0.0, "rental_uris": {"android": "https://dc.lft.to/lastmile_qr_scan", "ios": "https://dc.lft.to/lastmile_qr_scan"}, "is_reserved": 0}, {"bike_id": "ad07a5bfc42de0e4e05702392adf8ed3", "name": "ad07a5bfc42de0e4e05702392adf8ed3", "lat": 38.86717, "fusion_lat": 0.0, "type": "electric_scooter", "lon": -76.980699, "is_disabled": 0, "fusion_lon": 0.0, "rental_uris": {"android": "https://dc.lft.to/lastmile_qr_scan", "ios": "https://dc.lft.to/lastmile_qr_scan"}, "is_reserved": 0}, {"bike_id": "064632b9e5c4664a2aeaae0a6810e956", "name": "064632b9e5c4664a2aeaae0a6810e956", "lat": 38.91810683333333, "fusion_lat": 0.0, "type": "electric_scooter", "lon": -77.03638283333333, "is_disabled": 0, "fusion_lon": 0.0, "rental_uris": {"android": "https://dc.lft.to/lastmile_qr_scan", "ios": "https://dc.lft.to/lastmile_qr_scan"}, "is_reserved": 0}, {"bike_id": "336f699a7ada292f9c9110819fc549b9", "name": "336f699a7ada292f9c9110819fc549b9", "lat": 38.936526, "fusion_lat": 0.0, "type": "electric_scooter", "lon": -77.0213075, "is_disabled": 0, "fusion_lon": 0.0, "rental_uris": {"android": "https://dc.lft.to/lastmile_qr_scan", "ios": "https://dc.lft.to/lastmile_qr_scan"}, "is_reserved": 0}, {"bike_id": "96cacb3e15bdadff83e55dea23fac606", "name": "96cacb3e15bdadff83e55dea23fac606", "lat": 38.8962615, "fusion_lat": 0.0, "type": "electric_scooter", "lon": -77.04012183333333, "is_disabled": 0, "fusion_lon": 0.0, "rental_uris": {"android": "https://dc.lft.to/lastmile_qr_scan", "ios": "https://dc.lft.to/lastmile_qr_scan"}, "is_reserved": 0}, {"bike_id": "6dad8598c4a6321d95a374bba43fc1fc", "name": "6dad8598c4a6321d95a374bba43fc1fc", "lat": 38.9004365, "fusion_lat": 0.0, "type": "electric_scooter", "lon": -76.9882575, "is_disabled": 0, "fusion_lon": 0.0, "rental_uris": {"android": "https://dc.lft.to/lastmile_qr_scan", "ios": "https://dc.lft.to/lastmile_qr_scan"}, "is_reserved": 0}, {"bike_id": "234cc367edb535f32454a81a30594998", "name": "234cc367edb535f32454a81a30594998", "lat": 38.901982333333336, "fusion_lat": 0.0, "type": "electric_scooter", "lon": -77.02090216666667, "is_disabled": 0, "fusion_lon": 0.0, "rental_uris": {"android": "https://dc.lft.to/lastmile_qr_scan", "ios": "https://dc.lft.to/lastmile_qr_scan"}, "is_reserved": 0}, {"bike_id": "a8f804ebee921c40def6042da906b104", "name": "a8f804ebee921c40def6042da906b104", "lat": 38.903274, "fusion_lat": 0.0, "type": "electric_scooter", "lon": -77.03860533333334, "is_disabled": 0, "fusion_lon": 0.0, "rental_uris": {"android": "https://dc.lft.to/lastmile_qr_scan", "ios": "https://dc.lft.to/lastmile_qr_scan"}, "is_reserved": 0}, {"bike_id": "3cb5e0090e9b18a7ced0702550f5e5df", "name": "3cb5e0090e9b18a7ced0702550f5e5df", "lat": 38.876592333333335, "fusion_lat": 0.0, "type": "electric_scooter", "lon": -77.02072316666667, "is_disabled": 0, "fusion_lon": 0.0, "rental_uris": {"android": "https://dc.lft.to/lastmile_qr_scan", "ios": "https://dc.lft.to/lastmile_qr_scan"}, "is_reserved": 0}, {"bike_id": "0dbf0abf0d307b2938f69d08fb3093f8", "name": "0dbf0abf0d307b2938f69d08fb3093f8", "lat": 38.916535833333334, "fusion_lat": 0.0, "type": "electric_scooter", "lon": -77.0247265, "is_disabled": 0, "fusion_lon": 0.0, "rental_uris": {"android": "https://dc.lft.to/lastmile_qr_scan", "ios": "https://dc.lft.to/lastmile_qr_scan"}, "is_reserved": 0}, {"bike_id": "d0c0b00a49a6fc40b49cbd8ef35986fe", "name": "d0c0b00a49a6fc40b49cbd8ef35986fe", "lat": 38.899025, "fusion_lat": 0.0, "type": "electric_scooter", "lon": -77.03993733333333, "is_disabled": 0, "fusion_lon": 0.0, "rental_uris": {"android": "https://dc.lft.to/lastmile_qr_scan", "ios": "https://dc.lft.to/lastmile_qr_scan"}, "is_reserved": 0}, {"bike_id": "85eded383c3f95117c97ece254ccc7ab", "name": "85eded383c3f95117c97ece254ccc7ab", "lat": 38.919868, "fusion_lat": 0.0, "type": "electric_scooter", "lon": -77.03310183333333, "is_disabled": 0, "fusion_lon": 0.0, "rental_uris": {"android": "https://dc.lft.to/lastmile_qr_scan", "ios": "https://dc.lft.to/lastmile_qr_scan"}, "is_reserved": 0}, {"bike_id": "a1cbf5e12b9a11721533911655aac9b8", "name": "a1cbf5e12b9a11721533911655aac9b8", "lat": 38.883609666666665, "fusion_lat": 0.0, "type": "electric_scooter", "lon": -76.98823316666666, "is_disabled": 0, "fusion_lon": 0.0, "rental_uris": {"android": "https://dc.lft.to/lastmile_qr_scan", "ios": "https://dc.lft.to/lastmile_qr_scan"}, "is_reserved": 0},