{"data": {"bikes": [{"is_reserved": 0, "type": "electric_bike", "bike_id": "155b5f075b249cd8cb5351fd31a59385", "lat": 38.9910055, "lon": -76.88151116666667, "rental_uris": {"android": "https://dc.lft.to/lastmile_qr_scan", "ios": "https://dc.lft.to/lastmile_qr_scan"}, "is_disabled": 0, "fusion_lat": 0.0, "name": "155b5f075b249cd8cb5351fd31a59385", "fusion_lon": 0.0}, {"is_reserved": 0, "type": "electric_scooter", "bike_id": "9b260380e8d3b089b63220dd5a9406f6", "lat": 38.924710833333336, "lon": -77.0291535, "rental_uris": {"android": "https://dc.lft.to/lastmile_qr_scan", "ios": "https://dc.lft.to/lastmile_qr_scan"}, "is_disabled": 0, "fusion_lat": 0.0, "name": "9b260380e8d3b089b63220dd5a9406f6", "fusion_lon": 0.0}, {"is_reserved": 0, "type": "electric_scooter", "bike_id": "e4a7ab975e5f76af877d76b3eb3b4a17", "lat": 38.94200566666667, "lon": -77.02513683333333, "rental_uris": {"android": "https://dc.lft.to/lastmile_qr_scan", "ios": "https://dc.lft.to/lastmile_qr_scan"}, "is_disabled": 0, "fusion_lat": 0.0, "name": "e4a7ab975e5f76af877d76b3eb3b4a17", "fusion_lon": 0.0}, {"is_reserved": 0, "type": "electric_scooter", "bike_id": "21a2f02a833a5eb1b302f01b60da06ee", "lat": 38.915821333333334, "lon": -77.01993266666666, "rental_uris": {"android": "https://dc.lft.to/lastmile_qr_scan", "ios": "https://dc.lft.to/lastmile_qr_scan"}, "is_disabled": 0, "fusion_lat": 0.0, "name": "21a2f02a833a5eb1b302f01b60da06ee", "fusion_lon": 0.0}, {"is_reserved": 0, "type": "electric_scooter", "bike_id": "d76926896258ce175aba1f39e9487866", "lat": 38.90832316666667, "lon": -76.9871955, "rental_uris": {"android": "https://dc.lft.to/lastmile_qr_scan", "ios": "https://dc.lft.to/lastmile_qr_scan"}, "is_disabled": 0, "fusion_lat": 0.0, "name": "d76926896258ce175aba1f39e9487866", "fusion_lon": 0.0}, {"is_reserved": 0, "type": "electric_scooter", "bike_id": "01f5647c2352e39c8c11d19e70724d21", "lat": 38.90819533333333, "lon": -77.03629383333333, "rental_uris": {"android": "https://dc.lft.to/lastmile_qr_scan", "ios": "https://dc.lft.to/lastmile_qr_scan"}, "is_disabled": 0, "fusion_lat": 0.0, "name": "01f5647c2352e39c8c11d19e70724d21", "fusion_lon": 0.0}, {"is_reserved": 0, "type": "electric_bike", "bike_id": "64d4107edd4ab78dac841df2ca63d941", "lat": 38.84335566666667, "lon": -76.99748633333333, "rental_uris": {"android": "https://dc.lft.to/lastmile_qr_scan", "ios": "https://dc.lft.to/lastmile_qr_scan"}, "is_disabled": 0, "fusion_lat": 0.0, "name": "64d4107edd4ab78dac841df2ca63d941", "fusion_lon": 0.0}, {"is_reserved": 0, "type": "electric_scooter", "bike_id": "52064b8cce0eda61e9a6d75cb5a7d316", "lat": 38.9057685, "lon": -77.00598766666667, "rental_uris": {"android": "https://dc.lft.to/lastmile_qr_scan", "ios": "https://dc.lft.to/lastmile_qr_scan"}, "is_disabled": 0, "fusion_lat": 0.0, "name": "52064b8cce0eda61e9a6d75cb5a7d316", "fusion_lon": 0.0}, {"is_reserved": 0, "type": "electric_scooter", "bike_id": "1181a2bb998e2ac4b27ddd8b9f805156", "lat": 38.886299666666666, "lon": -77.01535083333333, "rental_uris": {"android": "https://dc.lft.to/lastmile_qr_scan", "ios": "https://dc.lft.to/lastmile_qr_scan"}, "is_disabled": 0, "fusion_lat": 0.0, "name": "1181a2bb998e2ac4b27ddd8b9f805156", "fusion_lon": 0.0}, {"is_reserved": 0, "type": "electric_scooter", "bike_id": "fb4d3e8bff2b55bf8cec8eb10d7e3868", "lat": 38.918243833333335, "lon": -77.03163916666666, "rental_uris": {"android": "https://dc.lft.to/lastmile_qr_scan", "ios": "https://dc.lft.to/lastmile_qr_scan"}, "is_disabled": 0, "fusion_lat": 0.0, "name": "fb4d3e8bff2b55bf8cec8eb10d7e3868", "fusion_lon": 0.0}, {"is_reserved": 0, "type": "electric_scooter", "bike_id": "06a2dd894ee63a3cc457005aa2d7925b", "lat": 38.92073466666667, "lon": -77.0238775, "rental_uris": {"android": "https://dc.lft.to/lastmile_qr_scan", "ios": "https://dc.lft.to/lastmile_qr_scan"}, "is_disabled": 0, "fusion_lat": 0.0, "name": "06a2dd894ee63a3cc457005aa2d7925b", "fusion_lon": 0.0}, {"is_reserved": 0, "type": "electric_scooter", "bike_id": "6d697914799ed250fc6aac1762008aa1", "lat": 38.91304433333333, "lon": -76.98469233333333, "rental_uris": {"android": "https://dc.lft.to/lastmile_qr_scan", "ios": "https://dc.lft.to/lastmile_qr_scan"}, "is_disabled": 0, "fusion_lat": 0.0, "name": "6d697914799ed250fc6aac1762008aa1", "fusion_lon": 0.0}, {"is_reserved": 0, "type": "electric_scooter", "bike_id": "136380035722f5e24f3d561afcc07b4c", "lat": 38.926176, "lon": -77.05184316666667, "rental_uris": {"android": "https://dc.lft.to/lastmile_qr_scan", "ios": "https://dc.lft.to/lastmile_qr_scan"}, "is_disabled": 0, "fusion_lat": 0.0, "name": "136380035722f5e24f3d561afcc07b4c", "fusion_lon": 0.0}, {"is_reserved": 0, "type": "electric_scooter", "bike_id": "3a3481138d4c9f08e65d7faac7969951", "lat": 38.88511316666666, "lon": -77.011134, "rental_uris": {"android": "https://dc.lft.to/lastmile_qr_scan", "ios": "https://dc.lft.to/lastmile_qr_scan"}, "is_disabled": 0, "fusion_lat": 0.0, "name": "3a3481138d4c9f08e65d7faac7969951", "fusion_lon": 0.0}, {"is_reserved": 0, "type": "electric_scooter", "bike_id": "409361eb8ce34bddbfab095988914fbd", "lat": 38.886013166666665, "lon": -77.00409366666666, "rental_uris": {"android": "https://dc.lft.to/lastmile_qr_scan", "ios": "https://dc.lft.to/lastmile_qr_scan"}, "is_disabled": 0, "fusion_lat": 0.0, "name": "409361eb8ce34bddbfab095988914fbd", "fusion_lon": 0.0}, {"is_reserved": 0, "type": "electric_scooter", "bike_id": "f50d69f55ca8c648f701d57d08d90a4e", "lat": 38.932135833333334, "lon": -77.03660783333333, "rental_uris": {"android": "https://dc.lft.to/lastmile_qr_scan", "ios": "https://dc.lft.to/lastmile_qr_scan"}, "is_disabled": 0, "fusion_lat": 0.0, "name": "f50d69f55ca8c648f701d57d08d90a4e", "fusion_lon": 0.0}, {"is_reserved": 0, "type": "electric_scooter", "bike_id": "6ad15187c9f026a15da2bc97aca79df7", "lat": 38.92384083333334, "lon": -77.02954, "rental_uris": {"android": "https://dc.lft.to/lastmile_qr_scan", "ios": "https://dc.lft.to/lastmile_qr_scan"}, "is_disabled": 0, "fusion_lat": 0.0, "name": "6ad15187c9f026a15da2bc97aca79df7", "fusion_lon": 0.0}, {"is_reserved": 0, "type": "electric_scooter", "bike_id": "977315baad6af7f64c24b8b34a53b061", "lat": 38.923100166666664, "lon": -77.0301185, "rental_uris": {"android": "https://dc.lft.to/lastmile_qr_scan", "ios": "https://dc.lft.to/lastmile_qr_scan"}, "is_disabled": 0, "fusion_lat": 0.0, "name": "977315baad6af7f64c24b8b34a53b061", "fusion_lon": 0.0}, {"is_reserved": 0, "type": "electric_scooter", "bike_id": "48053451e6f4ac94514ab9d6d3c052ad", "lat": 38.9178445, "lon": -77.04683566666667, "rental_uris": {"android": "https://dc.lft.to/lastmile_qr_scan", "ios": "https://dc.lft.to/lastmile_qr_scan"}, "is_disabled": 0, "fusion_lat": 0.0, "name": "48053451e6f4ac94514ab9d6d3c052ad", "fusion_lon": 0.0}, {"is_reserved": 0, "type": "electric_scooter", "bike_id": "d2e0a3a4570b151f61431698cc2c5791", "lat": 38.922449, "lon": -77.018191, "rental_uris": {"android": "https://dc.lft.to/lastmile_qr_scan", "ios": "https://dc.lft.to/lastmile_qr_scan"}, "is_disabled": 0, "fusion_lat": 0.0, "name": "d2e0a3a4570b151f61431698cc2c5791", "fusion_lon": 0.0}, {"is_reserved": 0, "type": "electric_scooter", "bike_id": "ae6d3101473d4e83ebbe13374fcbd24d", "lat": 38.90082983333333, "lon": -77.04961733333333, "rental_uris": {"android": "https://dc.lft.to/lastmile_qr_scan", "ios": "https://dc.lft.to/lastmile_qr_scan"}, "is_disabled": 0, "fusion_lat": 0.0, "name": "ae6d3101473d4e83ebbe13374fcbd24d", "fusion_lon": 0.0}, {"is_reserved": 0, "type": "electric_scooter", "bike_id": "20036474dad7ca306260c71a463abf9a", "lat": 38.8999225, "lon": -77.02708933333334, "rental_uris": {"android": "https://dc.lft.to/lastmile_qr_scan", "ios": "https://dc.lft.to/lastmile_qr_scan"}, "is_disabled": 0, "fusion_lat": 0.0, "name": "20036474dad7ca306260c71a463abf9a", "fusion_lon": 0.0}, {"is_reserved": 0, "type": "electric_scooter", "bike_id": "e1b4cf19101e833ddcf5e0c04fd89022", "lat": 38.91405916666667, "lon": -77.0316885, "rental_uris": {"android": "https://dc.lft.to/lastmile_qr_scan", "ios": "https://dc.lft.to/lastmile_qr_scan"}, "is_disabled": 0, "fusion_lat": 0.0, "name": "e1b4cf19101e833ddcf5e0c04fd89022", "fusion_lon": 0.0}, {"is_reserved": 0, "type": "electric_bike", "bike_id": "11b570f93bfad476f27178b3c72331e6", "lat": 38.88345266666666, "lon": -76.93624883333334, "rental_uris": {"android": "https://dc.lft.to/lastmile_qr_scan", "ios": "https://dc.lft.to/lastmile_qr_scan"}, "is_disabled": 0, "fusion_lat": 0.0, "name": "11b570f93bfad476f27178b3c72331e6", "fusion_lon": 0.0}, {"is_reserved": 0, "type": "electric_scooter", "bike_id": "9e985e2787485927424273ae2efa0c8a", "lat": 38.93067833333333, "lon": -77.03818016666666, "rental_uris": {"android": "https://dc.lft.to/lastmile_qr_scan", "ios": "https://dc.lft.to/lastmile_qr_scan"}, "is_disabled": 0, "fusion_lat": 0.0, "name": "9e985e2787485927424273ae2efa0c8a", "fusion_lon": 0.0}, {"is_reserved": 0, "type": "electric_scooter", "bike_id": "97a813a44bebca4aed3a27b61b3c4f3e", "lat": 38.89249266666667, "lon": -77.033461, "rental_uris": {"android": "https://dc.lft.to/lastmile_qr_scan", "ios": "https://dc.lft.to/lastmile_qr_scan"}, "is_disabled": 0, "fusion_lat": 0.0, "name": "97a813a44bebca4aed3a27b61b3c4f3e", "fusion_lon": 0.0}, {"is_reserved": 0, "type": "electric_scooter", "bike_id": "8f983a8d649d1a73fbe6d0ab718fab5f", "lat": 38.9036545, "lon": -77.03780133333333, "rental_uris": {"android": "https://dc.lft.to/lastmile_qr_scan", "ios": "https://dc.lft.to/lastmile_qr_scan"}, "is_disabled": 0, "fusion_lat": 0.0, "name": "8f983a8d649d1a73fbe6d0ab718fab5f", "fusion_lon": 0.0}, {"is_reserved": 0, "type": "electric_scooter", "bike_id": "909fcde363f90d8da282af6cfc915180", "lat": 38.9191455, "lon": -77.0342825, "rental_uris": {"android": "https://dc.lft.to/lastmile_qr_scan", "ios": "https://dc.lft.to/lastmile_qr_scan"}, "is_disabled": 0, "fusion_lat": 0.0, "name": "909fcde363f90d8da282af6cfc915180", "fusion_lon": 0.0}, {"is_reserved": 0, "type": "electric_scooter", "bike_id": "0e58912a21cf267207513dde3d4a52f2", "lat": 38.93458116666667, "lon": -77.0295645, "rental_uris": {"android": "https://dc.lft.to/lastmile_qr_scan", "ios": "https://dc.lft.to/lastmile_qr_scan"}, "is_disabled": 0, "fusion_lat": 0.0, "name": "0e58912a21cf267207513dde3d4a52f2", "fusion_lon": 0.0}, {"is_reserved": 0, "type": "electric_scooter", "bike_id": "6561acea8552ceff4d31764fdc10a136", "lat": 38.9284295, "lon": -77.05511083333333, "rental_uris": {"android": "https://dc.lft.to/lastmile_qr_scan", "ios": "https://dc.lft.to/lastmile_qr_scan"}, "is_disabled": 0, "fusion_lat": 0.0, "name": "6561acea8552ceff4d31764fdc10a136", "fusion_lon": 0.0}, {"is_reserved": 0, "type": "electric_scooter", "bike_id": "1f5a295c6700664a4c312820553e110c", "lat": 38.924045166666666, "lon": -77.0504485, "rental_uris": {"android": "https://dc.lft.to/lastmile_qr_scan", "ios": "https://dc.lft.to/lastmile_qr_scan"}, "is_disabled": 0, "fusion_lat": 0.0, "name": "1f5a295c6700664a4c312820553e110c", "fusion_lon": 0.0}, {"is_reserved": 0, "type": "electric_scooter", "bike_id": "60759b1308e8c37f6d1d23e670022f43", "lat": 38.90035966666667, "lon": -76.98830466666666, "rental_uris": {"android": "https://dc.lft.to/lastmile_qr_scan", "ios": "https://dc.lft.to/lastmile_qr_scan"}, "is_disabled": 0, "fusion_lat": 0.0, "name": "60759b1308e8c37f6d1d23e670022f43", "fusion_lon": 0.0}, {"is_reserved": 0, "type": "electric_scooter", "bike_id": "5a8249d3f8c45afaac555be206a2f6a9", "lat": 38.91591583333334, "lon": -77.02077333333334, "rental_uris": {"android": "https://dc.lft.to/lastmile_qr_scan", "ios": "https://dc.lft.to/lastmile_qr_scan"}, "is_disabled": 0, "fusion_lat": 0.0, "name": "5a8249d3f8c45afaac555be206a2f6a9", "fusion_lon": 0.0}, {"is_reserved": 0, "type": "electric_scooter", "bike_id": "59722fbae49667721b006a78600dad86", "lat": 38.90803966666667, "lon": -77.001909, "rental_uris": {"android": "https://dc.lft.to/lastmile_qr_scan", "ios": "https://dc.lft.to/lastmile_qr_scan"}, "is_disabled": 0, "fusion_lat": 0.0, "name": "59722fbae49667721b006a78600dad86", "fusion_lon": 0.0}, {"is_reserved": 0, "type": "electric_scooter", "bike_id": "14e57e110196460a9353bbf4c38e6257", "lat": 38.91079533333333, "lon": -77.01616466666667, "rental_uris": {"android": "https://dc.lft.to/lastmile_qr_scan", "ios": "https://dc.lft.to/lastmile_qr_scan"}, "is_disabled": 0, "fusion_lat": 0.0, "name": "14e57e110196460a9353bbf4c38e6257", "fusion_lon": 0.0}, {"is_reserved": 0, "type": "electric_scooter", "bike_id": "e97acabbf49695676db1fa3d5fe2856d", "lat": 38.918188666666666, "lon": -77.03165316666667, "rental_uris": {"android": "https://dc.lft.to/lastmile_qr_scan", "ios": "https://dc.lft.to/lastmile_qr_scan"}, "is_disabled": 0, "fusion_lat": 0.0, "name": "e97acabbf49695676db1fa3d5fe2856d", "fusion_lon": 0.0}, {"is_reserved": 0, "type": "electric_bike", "bike_id": "954b786aa45d59c426bedcba658abcbc", "lat": 38.89461933333333, "lon": -77.10364366666667, "rental_uris": {"android": "https://dc.lft.to/lastmile_qr_scan", "ios": "https://dc.lft.to/lastmile_qr_scan"}, "is_disabled": 0, "fusion_lat": 0.0, "name": "954b786aa45d59c426bedcba658abcbc", "fusion_lon": 0.0}, {"is_reserved": 0, "type": "electric_scooter", "bike_id": "99ef7bf45b6a9201fc8abf122b19c747", "lat": 38.935046666666665, "lon": -77.042858, "rental_uris": {"android": "https://dc.lft.to/lastmile_qr_scan", "ios": "https://dc.lft.to/lastmile_qr_scan"}, "is_disabled": 0, "fusion_lat": 0.0, "name": "99ef7bf45b6a9201fc8abf122b19c747", "fusion_lon": 0.0}, {"is_reserved": 0, "type": "electric_scooter", "bike_id": "33e58ad57caf3d55f734d4d129ef0fa6", "lat": 38.915939, "lon": -77.02131883333334, "rental_uris": {"android": "https://dc.lft.to/lastmile_qr_scan", "ios": "https://dc.lft.to/lastmile_qr_scan"}, "is_disabled": 0, "fusion_lat": 0.0, "name": "33e58ad57caf3d55f734d4d129ef0fa6", "fusion_lon": 0.0}, {"is_reserved": 0, "type": "electric_scooter", "bike_id": "670399a54c7e67e3521617d0a541ebc3", "lat": 38.875095, "lon": -77.00029733333334, "rental_uris": {"android": "https://dc.lft.to/lastmile_qr_scan", "ios": "https://dc.lft.to/lastmile_qr_scan"}, "is_disabled": 0, "fusion_lat": 0.0, "name": "670399a54c7e67e3521617d0a541ebc3", "fusion_lon": 0.0}, {"is_reserved": 0, "type": "electric_scooter", "bike_id": "7ee3841dcf9f8c86e4fa55c077ca6a70", "lat": 38.87724033333333, "lon": -77.01837016666667, "rental_uris": {"android": "https://dc.lft.to/lastmile_qr_scan", "ios": "https://dc.lft.to/lastmile_qr_scan"}, "is_disabled": 0, "fusion_lat": 0.0, "name": "7ee3841dcf9f8c86e4fa55c077ca6a70", "fusion_lon": 0.0}, {"is_reserved": 0, "type": "electric_scooter", "bike_id": "ecf88fc90280216578ab4a07230588a3", "lat": 38.85658216666667, "lon": -76.99675, "rental_uris": {"android": "https://dc.lft.to/lastmile_qr_scan", "ios": "https://dc.lft.to/lastmile_qr_scan"}, "is_disabled": 0, "fusion_lat": 0.0, "name": "ecf88fc90280216578ab4a07230588a3", "fusion_lon": 0.0}, {"is_reserved": 0, "type": "electric_scooter", "bike_id": "5b09197864b4c6ea936ca206c21a1f79", "lat": 38.90454116666667, "lon": -76.99617083333334, "rental_uris": {"android": "https://dc.lft.to/lastmile_qr_scan", "ios": "https://dc.lft.to/lastmile_qr_scan"}, "is_disabled": 0, "fusion_lat": 0.0, "name": "5b09197864b4c6ea936ca206c21a1f79", "fusion_lon": 0.0}, {"is_reserved": 0, "type": "electric_scooter", "bike_id": "4a9a10ea2f770a1888e633dcaf7e7ad1", "lat": 38.918185333333334, "lon": -77.02477583333334, "rental_uris": {"android": "https://dc.lft.to/lastmile_qr_scan", "ios": "https://dc.lft.to/lastmile_qr_scan"}, "is_disabled": 0, "fusion_lat": 0.0, "name": "4a9a10ea2f770a1888e633dcaf7e7ad1", "fusion_lon": 0.0}, {"is_reserved": 0, "type": "electric_scooter", "bike_id": "2ceacf07bccc4a0ded77f0df3249e3ad", "lat": 38.90035233333333, "lon": -77.01757983333333, "rental_uris": {"android": "https://dc.lft.to/lastmile_qr_scan", "ios": "https://dc.lft.to/lastmile_qr_scan"}, "is_disabled": 0, "fusion_lat": 0.0, "name": "2ceacf07bccc4a0ded77f0df3249e3ad", "fusion_lon": 0.0}, {"is_reserved": 0, "type": "electric_scooter", "bike_id": "10cb0a5d4749439e8c6ebe1d4d88b5ed", "lat": 38.92282483333334, "lon": -77.0365845, "rental_uris": {"android": "https://dc.lft.to/lastmile_qr_scan", "ios": "https://dc.lft.to/lastmile_qr_scan"}, "is_disabled": 0, "fusion_lat": 0.0, "name": "10cb0a5d4749439e8c6ebe1d4d88b5ed", "fusion_lon": 0.0}, {"is_reserved": 0, "type": "electric_scooter", "bike_id": "ea86bde8bfbcf27dea7cd74d0e9a1754", "lat": 38.916962, "lon": -77.05296016666667, "rental_uris": {"android": "https://dc.lft.to/lastmile_qr_scan", "ios": "https://dc.lft.to/lastmile_qr_scan"}, "is_disabled": 0, "fusion_lat": 0.0, "name": "ea86bde8bfbcf27dea7cd74d0e9a1754", "fusion_lon": 0.0}, {"is_reserved": 0, "type": "electric_scooter", "bike_id": "1df3f2a575f6eaa39bb473075824ae57", "lat": 38.951535166666666, "lon": -77.01868683333333, "rental_uris": {"android": "https://dc.lft.to/lastmile_qr_scan", "ios": "https://dc.lft.to/lastmile_qr_scan"}, "is_disabled": 0, "fusion_lat": 0.0, "name": "1df3f2a575f6eaa39bb473075824ae57", "fusion_lon": 0.0}, {"is_reserved": 0, "type": "electric_scooter", "bike_id": "bf11184dc6526618dc202423f92eac0f", "lat": 38.943238666666666, "lon": -77.07578816666667, "rental_uris": {"android": "https://dc.lft.to/lastmile_qr_scan", "ios": "https://dc.lft.to/lastmile_qr_scan"}, "is_disabled": 0, "fusion_lat": 0.0, "name": "bf11184dc6526618dc202423f92eac0f", "fusion_lon": 0.0}, {"is_reserved": 0, "type": "electric_scooter", "bike_id": "6d5a3422295d7f20b8b4005135f4f946", "lat": 38.90396916666667, "lon": -77.02738483333333, "rental_uris": {"android": "https://dc.lft.to/lastmile_qr_scan", "ios": "https://dc.lft.to/lastmile_qr_scan"}, "is_disabled": 0, "fusion_lat": 0.0, "name": "6d5a3422295d7f20b8b4005135f4f946", "fusion_lon": 0.0}, {"is_reserved": 0, "type": "electric_scooter", "bike_id": "cd73b9bade64d92af77d144c7b0d4a02", "lat": 38.9020645, "lon": -77.01847666666667, "rental_uris": {"android": "https://dc.lft.to/lastmile_qr_scan", "ios": "https://dc.lft.to/lastmile_qr_scan"}, "is_disabled": 0, "fusion_lat": 0.0, "name": "cd73b9bade64d92af77d144c7b0d4a02", "fusion_lon": 0.0}, {"is_reserved": 0, "type": "electric_scooter", "bike_id": "79e3e0d451ab86ff5e82b42845175734", "lat": 38.907878, "lon": -77.00950783333333, "rental_uris": {"android": "https://dc.lft.to/lastmile_qr_scan", "ios": "https://dc.lft.to/lastmile_qr_scan"}, "is_disabled": 0, "fusion_lat": 0.0, "name": "79e3e0d451ab86ff5e82b42845175734", "fusion_lon": 0.0}, {"is_reserved": 0, "type": "electric_scooter", "bike_id": "a31b1571491bc270756736209b06d4df", "lat": 38.93381483333334, "lon": -77.0203465, "rental_uris": {"android": "https://dc.lft.to/lastmile_qr_scan", "ios": "https://dc.lft.to/lastmile_qr_scan"}, "is_disabled": 0, "fusion_lat": 0.0, "name": "a31b1571491bc270756736209b06d4df", "fusion_lon": 0.0}, {"is_reserved": 0, "type": "electric_scooter", "bike_id": "7c2326f249de8ea2e229adf4e3f90dc1", "lat": 38.92660883333333, "lon": -77.0362155, "rental_uris": {"android": "https://dc.lft.to/lastmile_qr_scan", "ios": "https://dc.lft.to/lastmile_qr_scan"}, "is_disabled": 0, "fusion_lat": 0.0, "name": "7c2326f249de8ea2e229adf4e3f90dc1", "fusion_lon": 0.0}, {"is_reserved": 0, "type": "electric_scooter", "bike_id": "83ad93774fd9cb6c63e24a16964d8a1a", "lat": 38.911295, "lon": -77.02192816666667, "rental_uris": {"android": "https://dc.lft.to/lastmile_qr_scan", "ios": "https://dc.lft.to/lastmile_qr_scan"}, "is_disabled": 0, "fusion_lat": 0.0, "name": "83ad93774fd9cb6c63e24a16964d8a1a", "fusion_lon": 0.0}, {"is_reserved": 0, "type": "electric_scooter", "bike_id": "9c6339aacaccd4216fcdb8ec1f853624", "lat": 38.93008, "lon": -77.0380135, "rental_uris": {"android": "https://dc.lft.to/lastmile_qr_scan", "ios": "https://dc.lft.to/lastmile_qr_scan"}, "is_disabled": 0, "fusion_lat": 0.0, "name": "9c6339aacaccd4216fcdb8ec1f853624", "fusion_lon": 0.0}, {"is_reserved": 0, "type": "electric_scooter", "bike_id": "400b5c64e992eea1b8221a08f42d502a", "lat": 38.88255383333333, "lon": -77.0062335, "rental_uris": {"android": "https://dc.lft.to/lastmile_qr_scan", "ios": "https://dc.lft.to/lastmile_qr_scan"}, "is_disabled": 0, "fusion_lat": 0.0, "name": "400b5c64e992eea1b8221a08f42d502a", "fusion_lon": 0.0}, {"is_reserved": 0, "type": "electric_scooter", "bike_id": "0abc87c65c2c2d72b7c57b9cd5197e7d", "lat": 38.91267783333333, "lon": -77.03870466666666, "rental_uris": {"android": "https://dc.lft.to/lastmile_qr_scan", "ios": "https://dc.lft.to/lastmile_qr_scan"}, "is_disabled": 0, "fusion_lat": 0.0, "name": "0abc87c65c2c2d72b7c57b9cd5197e7d", "fusion_lon": 0.0}, {"is_reserved": 0, "type": "electric_scooter", "bike_id": "444c2d98254f849c3c14027aefba3dfa", "lat": 38.89230833333333, "lon": -77.04873216666667, "rental_uris": {"android": "https://dc.lft.to/lastmile_qr_scan", "ios": "https://dc.lft.to/lastmile_qr_scan"}, "is_disabled": 0, "fusion_lat": 0.0, "name": "444c2d98254f849c3c14027aefba3dfa", "fusion_lon": 0.0}, {"is_reserved": 0, "type": "electric_bike", "bike_id": "e135fb7d01aa6f89de995e837386ec4e", "lat": 39.000303333333335, "lon": -77.04746066666667, "rental_uris": {"android": "https://dc.lft.to/lastmile_qr_scan", "ios": "https://dc.lft.to/lastmile_qr_scan"}, "is_disabled": 0, "fusion_lat": 0.0, "name": "e135fb7d01aa6f89de995e837386ec4e", "fusion_lon": 0.0}, {"is_reserved": 0, "type": "electric_scooter", "bike_id": "695cd6e0210ccda13bffbc32dbd8c25f", "lat": 38.921536, "lon": -77.03505766666666, "rental_uris": {"android": "https://dc.lft.to/lastmile_qr_scan", "ios": "https://dc.lft.to/lastmile_qr_scan"}, "is_disabled": 0, "fusion_lat": 0.0, "name": "695cd6e0210ccda13bffbc32dbd8c25f", "fusion_lon": 0.0}, {"is_reserved": 0, "type": "electric_scooter", "bike_id": "d1f7996ed0b06857b6b1cc6bd27122ff", "lat": 38.91235966666667, "lon": -77.038574, "rental_uris": {"android": "https://dc.lft.to/lastmile_qr_scan", "ios": "https://dc.lft.to/lastmile_qr_scan"}, "is_disabled": 0, "fusion_lat": 0.0, "name": "d1f7996ed0b06857b6b1cc6bd27122ff", "fusion_lon": 0.0}, {"is_reserved": 0, "type": "electric_scooter", "bike_id": "aaf221b03e1bd91c50f3e8149a658ff3", "lat": 38.932574833333334, "lon": -77.032335, "rental_uris": {"android": "https://dc.lft.to/lastmile_qr_scan", "ios": "https://dc.lft.to/lastmile_qr_scan"}, "is_disabled": 0, "fusion_lat": 0.0, "name": "aaf221b03e1bd91c50f3e8149a658ff3", "fusion_lon": 0.0}, {"is_reserved": 0, "type": "electric_bike", "bike_id": "49959bdfeef5d5903861a174b4a8bb60", "lat": 38.8929105, "lon": -76.97618633333333, "rental_uris": {"android": "https://dc.lft.to/lastmile_qr_scan", "ios": "https://dc.lft.to/lastmile_qr_scan"}, "is_disabled": 0, "fusion_lat": 0.0, "name": "49959bdfeef5d5903861a174b4a8bb60", "fusion_lon": 0.0}, {"is_reserved": 0, "type": "electric_scooter", "bike_id": "d1c8d87d11c3cb939542a8946b54d16e", "lat": 38.8959805, "lon": -77.02147683333334, "rental_uris": {"android": "https://dc.lft.to/lastmile_qr_scan", "ios": "https://dc.lft.to/lastmile_qr_scan"}, "is_disabled": 0, "fusion_lat": 0.0, "name": "d1c8d87d11c3cb939542a8946b54d16e", "fusion_lon": 0.0}, {"is_reserved": 0, "type": "electric_scooter", "bike_id": "19104bb31f7c330064c1a688d66f67e0", "lat": 38.8922655, "lon": -77.04335766666667, "rental_uris": {"android": "https://dc.lft.to/lastmile_qr_scan", "ios": "https://dc.lft.to/lastmile_qr_scan"}, "is_disabled": 0, "fusion_lat": 0.0, "name": "19104bb31f7c330064c1a688d66f67e0", "fusion_lon": 0.0}, {"is_reserved": 0, "type": "electric_scooter", "bike_id": "1a4c17cd52b9a97810d9962f4a71fa8b", "lat": 38.904864333333336, "lon": -77.00689033333333, "rental_uris": {"android": "https://dc.lft.to/lastmile_qr_scan", "ios": "https://dc.lft.to/lastmile_qr_scan"}, "is_disabled": 0, "fusion_lat": 0.0, "name": "1a4c17cd52b9a97810d9962f4a71fa8b", "fusion_lon": 0.0}, {"is_reserved": 0, "type": "electric_scooter", "bike_id": "c4c658010967770884e6cb51974c20ea", "lat": 38.91788583333334, "lon": -77.022864, "rental_uris": {"android": "https://dc.lft.to/lastmile_qr_scan", "ios": "https://dc.lft.to/lastmile_qr_scan"}, "is_disabled": 0, "fusion_lat": 0.0, "name": "c4c658010967770884e6cb51974c20ea", "fusion_lon": 0.0}, {"is_reserved": 0, "type": "electric_scooter", "bike_id": "680291f936e8a9545af2f996fdae9291", "lat": 38.956311166666666, "lon": -77.03563466666667, "rental_uris": {"android": "https://dc.lft.to/lastmile_qr_scan", "ios": "https://dc.lft.to/lastmile_qr_scan"}, "is_disabled": 0, "fusion_lat": 0.0, "name": "680291f936e8a9545af2f996fdae9291", "fusion_lon": 0.0}, {"is_reserved": 0, "type": "electric_scooter", "bike_id": "9e8b6850a5bb19d1f79568ef58ebf281", "lat": 38.91267, "lon": -77.0443605, "rental_uris": {"android": "https://dc.lft.to/lastmile_qr_scan", "ios": "https://dc.lft.to/lastmile_qr_scan"}, "is_disabled": 0, "fusion_lat": 0.0, "name": "9e8b6850a5bb19d1f79568ef58ebf281", "fusion_lon": 0.0}, {"is_reserved": 0, "type": "electric_scooter", "bike_id": "afddf48c70d7c96ccc09ecffab53f571", "lat": 38.91415333333333, "lon": -77.02211883333334, "rental_uris": {"android": "https://dc.lft.to/lastmile_qr_scan", "ios": "https://dc.lft.to/lastmile_qr_scan"}, "is_disabled": 0, "fusion_lat": 0.0, "name": "afddf48c70d7c96ccc09ecffab53f571", "fusion_lon": 0.0}, {"is_reserved": 0, "type": "electric_scooter", "bike_id": "42c3bf4596adfd9df039469768c7f8c8", "lat": 38.91998566666667, "lon": -77.0239645, "rental_uris": {"android": "https://dc.lft.to/lastmile_qr_scan", "ios": "https://dc.lft.to/lastmile_qr_scan"}, "is_disabled": 0, "fusion_lat": 0.0, "name": "42c3bf4596adfd9df039469768c7f8c8", "fusion_lon": 0.0}, {"is_reserved": 0, "type": "electric_scooter", "bike_id": "e3db2156a3e2fa500cb0bab59acf79e3", "lat": 38.92102033333333, "lon": -77.01768666666666, "rental_uris": {"android": "https://dc.lft.to/lastmile_qr_scan", "ios": "https://dc.lft.to/lastmile_qr_scan"}, "is_disabled": 0, "fusion_lat": 0.0, "name": "e3db2156a3e2fa500cb0bab59acf79e3", "fusion_lon": 0.0}, {"is_reserved": 0, "type": "electric_scooter", "bike_id": "ed6ee002317c5aa01fa7e29dbf145f1c", "lat": 38.933936333333335, "lon": -77.02383633333334, "rental_uris": {"android": "https://dc.lft.to/lastmile_qr_scan", "ios": "https://dc.lft.to/lastmile_qr_scan"}, "is_disabled": 0, "fusion_lat": 0.0, "name": "ed6ee002317c5aa01fa7e29dbf145f1c", "fusion_lon": 0.0}, {"is_reserved": 0, "type": "electric_scooter", "bike_id": "b768dbfaab36e6d2c38df7ff46238be5", "lat": 38.900063833333334, "lon": -77.02718366666667, "rental_uris": {"android": "https://dc.lft.to/lastmile_qr_scan", "ios": "https://dc.lft.to/lastmile_qr_scan"}, "is_disabled": 0, "fusion_lat": 0.0, "name": "b768dbfaab36e6d2c38df7ff46238be5", "fusion_lon": 0.0}, {"is_reserved": 0, "type": "electric_scooter", "bike_id": "99384a1dd64fefe1298a9770d824d6b2", "lat": 38.91985416666667, "lon": -77.0326945, "rental_uris": {"android": "https://dc.lft.to/lastmile_qr_scan", "ios": "https://dc.lft.to/lastmile_qr_scan"}, "is_disabled": 0, "fusion_lat": 0.0, "name": "99384a1dd64fefe1298a9770d824d6b2", "fusion_lon": 0.0}, {"is_reserved": 0, "type": "electric_scooter", "bike_id": "c8cb7c632f25bdb05ccef20814c74992", "lat": 38.896860833333335, "lon": -77.01196033333333, "rental_uris": {"android": "https://dc.lft.to/lastmile_qr_scan", "ios": "https://dc.lft.to/lastmile_qr_scan"}, "is_disabled": 0, "fusion_lat": 0.0, "name": "c8cb7c632f25bdb05ccef20814c74992", "fusion_lon": 0.0}, {"is_reserved": 0, "type": "electric_scooter", "bike_id": "11d62a0d6c6d7d534d85f09eaa162a3f", "lat": 38.90873416666667, "lon": -77.06409033333334, "rental_uris": {"android": "https://dc.lft.to/lastmile_qr_scan", "ios": "https://dc.lft.to/lastmile_qr_scan"}, "is_disabled": 0, "fusion_lat": 0.0, "name": "11d62a0d6c6d7d534d85f09eaa162a3f", "fusion_lon": 0.0}, {"is_reserved": 0, "type": "electric_scooter", "bike_id": "006c2f56b8bfc3fcaf4be181a5e21eaa", "lat": 38.89226133333333, "lon": -77.03147666666666, "rental_uris": {"android": "https://dc.lft.to/lastmile_qr_scan", "ios": "https://dc.lft.to/lastmile_qr_scan"}, "is_disabled": 0, "fusion_lat": 0.0, "name": "006c2f56b8bfc3fcaf4be181a5e21eaa", "fusion_lon": 0.0}, {"is_reserved": 0, "type": "electric_scooter", "bike_id": "bd3757506d0471686a3c4939fb98a2af", "lat": 38.92017166666667, "lon": -77.03182366666667, "rental_uris": {"android": "https://dc.lft.to/lastmile_qr_scan", "ios": "https://dc.lft.to/lastmile_qr_scan"}, "is_disabled": 0, "fusion_lat": 0.0, "name": "bd3757506d0471686a3c4939fb98a2af", "fusion_lon": 0.0}, {"is_reserved": 0, "type": "electric_scooter", "bike_id": "2715415738ac0835d5c5136ec24c3c33", "lat": 38.92549233333333, "lon": -76.99954083333333, "rental_uris": {"android": "https://dc.lft.to/lastmile_qr_scan", "ios": "https://dc.lft.to/lastmile_qr_scan"}, "is_disabled": 0, "fusion_lat": 0.0, "name": "2715415738ac0835d5c5136ec24c3c33", "fusion_lon": 0.0}, {"is_reserved": 0, "type": "electric_scooter", "bike_id": "f57242978dd76f92f480564210421c21", "lat": 38.9038715, "lon": -77.031481, "rental_uris": {"android": "https://dc.lft.to/lastmile_qr_scan", "ios": "https://dc.lft.to/lastmile_qr_scan"}, "is_disabled": 0, "fusion_lat": 0.0, "name": "f57242978dd76f92f480564210421c21", "fusion_lon": 0.0}, {"is_reserved": 0, "type": "electric_scooter", "bike_id": "a96517c5e11a22542e0810409a3a9328", "lat": 38.900937166666665, "lon": -77.01628466666666, "rental_uris": {"android": "https://dc.lft.to/lastmile_qr_scan", "ios": "https://dc.lft.to/lastmile_qr_scan"}, "is_disabled": 0, "fusion_lat": 0.0, "name": "a96517c5e11a22542e0810409a3a9328", "fusion_lon": 0.0}, {"is_reserved": 0, "type": "electric_scooter", "bike_id": "4bc4281505bc7ae09e5dfb5ec570f2a7", "lat": 38.89004683333334, "lon": -77.04893133333333, "rental_uris": {"android": "https://dc.lft.to/lastmile_qr_scan", "ios": "https://dc.lft.to/lastmile_qr_scan"}, "is_disabled": 0, "fusion_lat": 0.0, "name": "4bc4281505bc7ae09e5dfb5ec570f2a7", "fusion_lon": 0.0}, {"is_reserved": 0, "type": "electric_scooter", "bike_id": "f8bd5ef9d412824124a95e36aec38fe2", "lat": 38.919568, "lon": -77.04456933333333, "rental_uris": {"android": "https://dc.lft.to/lastmile_qr_scan", "ios": "https://dc.lft.to/lastmile_qr_scan"}, "is_disabled": 0, "fusion_lat": 0.0, "name": "f8bd5ef9d412824124a95e36aec38fe2", "fusion_lon": 0.0}, {"is_reserved": 0, "type": "electric_scooter", "bike_id": "081a9ad11815e5f48d52c4d55eb0c7c9", "lat": 38.90087833333333, "lon": -77.05737116666667, "rental_uris": {"android": "https://dc.lft.to/lastmile_qr_scan", "ios": "https://dc.lft.to/lastmile_qr_scan"}, "is_disabled": 0, "fusion_lat": 0.0, "name": "081a9ad11815e5f48d52c4d55eb0c7c9", "fusion_lon": 0.0}, {"is_reserved": 0, "type": "electric_scooter", "bike_id": "52c83f2da69bec5f7beb2f5a3a2a1faa", "lat": 38.87262033333333, "lon": -77.01706016666667, "rental_uris": {"android": "https://dc.lft.to/lastmile_qr_scan", "ios": "https://dc.lft.to/lastmile_qr_scan"}, "is_disabled": 0, "fusion_lat": 0.0, "name": "52c83f2da69bec5f7beb2f5a3a2a1faa", "fusion_lon": 0.0}, {"is_reserved": 0, "type": "electric_scooter", "bike_id": "4baea2ce36b54445576b0c5b469a00fb", "lat": 38.911216333333336, "lon": -77.043631, "rental_uris": {"android": "https://dc.lft.to/lastmile_qr_scan", "ios": "https://dc.lft.to/lastmile_qr_scan"}, "is_disabled": 0, "fusion_lat": 0.0, "name": "4baea2ce36b54445576b0c5b469a00fb", "fusion_lon": 0.0}, {"is_reserved": 0, "type": "electric_scooter", "bike_id": "865dc6ff3298465a96f8d321bf59b8a3", "lat": 38.87154816666666, "lon": -77.013194, "rental_uris": {"android": "https://dc.lft.to/lastmile_qr_scan", "ios": "https://dc.lft.to/lastmile_qr_scan"}, "is_disabled": 0, "fusion_lat": 0.0, "name": "865dc6ff3298465a96f8d321bf59b8a3", "fusion_lon": 0.0}, {"is_reserved": 0, "type": "electric_scooter", "bike_id": "f580e01943a7f832991a823e8819df80", "lat": 38.906891, "lon": -77.05621616666667, "rental_uris": {"android": "https://dc.lft.to/lastmile_qr_scan", "ios": "https://dc.lft.to/lastmile_qr_scan"}, "is_disabled": 0, "fusion_lat": 0.0, "name": "f580e01943a7f832991a823e8819df80", "fusion_lon": 0.0}, {"is_reserved": 0, "type": "electric_bike", "bike_id": "5884ff6918f97ad2cd8e546cc0486464", "lat": 38.90051833333333, "lon": -76.97790216666667, "rental_uris": {"android": "https://dc.lft.to/lastmile_qr_scan", "ios": "https://dc.lft.to/lastmile_qr_scan"}, "is_disabled": 0, "fusion_lat": 0.0, "name": "5884ff6918f97ad2cd8e546cc0486464", "fusion_lon": 0.0}, {"is_reserved": 0, "type": "electric_scooter", "bike_id": "43cbe9c8ba93eacfbd57d8fc898eb7ca", "lat": 38.906853, "lon": -77.062551, "rental_uris": {"android": "https://dc.lft.to/lastmile_qr_scan", "ios": "https://dc.lft.to/lastmile_qr_scan"}, "is_disabled": 0, "fusion_lat": 0.0, "name": "43cbe9c8ba93eacfbd57d8fc898eb7ca", "fusion_lon": 0.0}, {"is_reserved": 0, "type": "electric_bike", "bike_id": "fa3feb9a343ac4d3cf0a387a78ee0124", "lat": 38.808663, "lon": -77.11260083333333, "rental_uris": {"android": "https://dc.lft.to/lastmile_qr_scan", "ios": "https://dc.lft.to/lastmile_qr_scan"}, "is_disabled": 0, "fusion_lat": 0.0, "name": "fa3feb9a343ac4d3cf0a387a78ee0124", "fusion_lon": 0.0}, {"is_reserved": 0, "type": "electric_scooter", "bike_id": "97e79bdf5bef937d780f2b6ac0d2b95c", "lat": 38.903742, "lon": -77.01853216666666, "rental_uris": {"android": "https://dc.lft.to/lastmile_qr_scan", "ios": "https://dc.lft.to/lastmile_qr_scan"}, "is_disabled": 0, "fusion_lat": 0.0, "name": "97e79bdf5bef937d780f2b6ac0d2b95c", "fusion_lon": 0.0}, {"is_reserved": 0, "type": "electric_scooter", "bike_id": "09643cf61480bb22622d373a4c5f5e7f", "lat": 38.91391216666667, "lon": -77.03214366666667, "rental_uris": {"android": "https://dc.lft.to/lastmile_qr_scan", "ios": "https://dc.lft.to/lastmile_qr_scan"}, "is_disabled": 0, "fusion_lat": 0.0, "name": "09643cf61480bb22622d373a4c5f5e7f", "fusion_lon": 0.0}, {"is_reserved": 0, "type": "electric_scooter", "bike_id": "6d278b01e0e0aa5dbeaa462265ce3edb", "lat": 38.905169, "lon": -77.05667433333333, "rental_uris": {"android": "https://dc.lft.to/lastmile_qr_scan", "ios": "https://dc.lft.to/lastmile_qr_scan"}, "is_disabled": 0, "fusion_lat": 0.0, "name": "6d278b01e0e0aa5dbeaa462265ce3edb", "fusion_lon": 0.0}, {"is_reserved": 0, "type": "electric_bike", "bike_id": "739c3838e6593df002039ec1763bbc8c", "lat": 38.94966333333333, "lon": -76.96101083333333, "rental_uris": {"android": "https://dc.lft.to/lastmile_qr_scan", "ios": "https://dc.lft.to/lastmile_qr_scan"}, "is_disabled": 0, "fusion_lat": 0.0, "name": "739c3838e6593df002039ec1763bbc8c", "fusion_lon": 0.0}, {"is_reserved": 0, "type": "electric_scooter", "bike_id": "90685491d19018d9490436ffe39d8f35", "lat": 38.93252783333333, "lon": -77.03286933333334, "rental_uris": {"android": "https://dc.lft.to/lastmile_qr_scan", "ios": "https://dc.lft.to/lastmile_qr_scan"}, "is_disabled": 0, "fusion_lat": 0.0, "name": "90685491d19018d9490436ffe39d8f35", "fusion_lon": 0.0}, {"is_reserved": 0, "type": "electric_scooter", "bike_id": "f267fb1097d41d3038cfedf8e005a921", "lat": 38.90115433333333, "lon": -77.01618666666667, "rental_uris": {"android": "https://dc.lft.to/lastmile_qr_scan", "ios": "https://dc.lft.to/lastmile_qr_scan"}, "is_disabled": 0, "fusion_lat": 0.0, "name": "f267fb1097d41d3038cfedf8e005a921", "fusion_lon": 0.0}, {"is_reserved": 0, "type": "electric_scooter", "bike_id": "f92fce041a82d4de9aed75870ac14b11", "lat": 38.893701666666665, "lon": -77.02816466666667, "rental_uris": {"android": "https://dc.lft.to/lastmile_qr_scan", "ios": "https://dc.lft.to/lastmile_qr_scan"}, "is_disabled": 0, "fusion_lat": 0.0, "name": "f92fce041a82d4de9aed75870ac14b11", "fusion_lon": 0.0}, {"is_reserved": 0, "type": "electric_scooter", "bike_id": "9511149f16641bc22c32aee2743b6978", "lat": 38.8922255, "lon": -77.03148033333333, "rental_uris": {"android": "https://dc.lft.to/lastmile_qr_scan", "ios": "https://dc.lft.to/lastmile_qr_scan"}, "is_disabled": 0, "fusion_lat": 0.0, "name": "9511149f16641bc22c32aee2743b6978", "fusion_lon": 0.0}, {"is_reserved": 0, "type": "electric_scooter", "bike_id": "f639e16e990480aafda1e40fe6154529", "lat": 38.9054745, "lon": -77.05919016666667, "rental_uris": {"android": "https://dc.lft.to/lastmile_qr_scan", "ios": "https://dc.lft.to/lastmile_qr_scan"}, "is_disabled": 0, "fusion_lat": 0.0, "name": "f639e16e990480aafda1e40fe6154529", "fusion_lon": 0.0}, {"is_reserved": 0, "type": "electric_scooter", "bike_id": "7cdba25aa5866f586267a6e28d70fc70", "lat": 38.92752933333333, "lon": -77.03419083333333, "rental_uris": {"android": "https://dc.lft.to/lastmile_qr_scan", "ios": "https://dc.lft.to/lastmile_qr_scan"}, "is_disabled": 0, "fusion_lat": 0.0, "name": "7cdba25aa5866f586267a6e28d70fc70", "fusion_lon": 0.0}, {"is_reserved": 0, "type": "electric_scooter", "bike_id": "325ea9c9c49f23fb99da3170fb1648eb", "lat": 38.92083316666667, "lon": -77.02341, "rental_uris": {"android": "https://dc.lft.to/lastmile_qr_scan", "ios": "https://dc.lft.to/lastmile_qr_scan"}, "is_disabled": 0, "fusion_lat": 0.0, "name": "325ea9c9c49f23fb99da3170fb1648eb", "fusion_lon": 0.0}, {"is_reserved": 0, "type": "electric_scooter", "bike_id": "b5e5876dd1f132f0ddf5b1eed04fe99b", "lat": 38.908814166666666, "lon": -77.06392816666667, "rental_uris": {"android": "https://dc.lft.to/lastmile_qr_scan", "ios": "https://dc.lft.to/lastmile_qr_scan"}, "is_disabled": 0, "fusion_lat": 0.0, "name": "b5e5876dd1f132f0ddf5b1eed04fe99b", "fusion_lon": 0.0}, {"is_reserved": 0, "type": "electric_scooter", "bike_id": "b8cfea6456cdfbbfad93ffc29d35757d", "lat": 38.93643466666666, "lon": -77.08325183333334, "rental_uris": {"android": "https://dc.lft.to/lastmile_qr_scan", "ios": "https://dc.lft.to/lastmile_qr_scan"}, "is_disabled": 0, "fusion_lat": 0.0, "name": "b8cfea6456cdfbbfad93ffc29d35757d", "fusion_lon": 0.0}, {"is_reserved": 0, "type": "electric_scooter", "bike_id": "d63c843752c3a096042283e26063e45f", "lat": 38.90787916666667, "lon": -77.04794866666667, "rental_uris": {"android": "https://dc.lft.to/lastmile_qr_scan", "ios": "https://dc.lft.to/lastmile_qr_scan"}, "is_disabled": 0, "fusion_lat": 0.0, "name": "d63c843752c3a096042283e26063e45f", "fusion_lon": 0.0}, {"is_reserved": 0, "type": "electric_scooter", "bike_id": "42ab6ea60c30f699526da1f30014cfc5", "lat": 38.92866933333333, "lon": -77.053674, "rental_uris": {"android": "https://dc.lft.to/lastmile_qr_scan", "ios": "https://dc.lft.to/lastmile_qr_scan"}, "is_disabled": 0, "fusion_lat": 0.0, "name": "42ab6ea60c30f699526da1f30014cfc5", "fusion_lon": 0.0}, {"is_reserved": 0, "type": "electric_scooter", "bike_id": "5fb1cb83c53c041e8ce11f31b1670385", "lat": 38.911222, "lon": -77.04360683333333, "rental_uris": {"android": "https://dc.lft.to/lastmile_qr_scan", "ios": "https://dc.lft.to/lastmile_qr_scan"}, "is_disabled": 0, "fusion_lat": 0.0, "name": "5fb1cb83c53c041e8ce11f31b1670385", "fusion_lon": 0.0}, {"is_reserved": 0, "type": "electric_scooter", "bike_id": "865b8d203cabbf8871047092e709a4c4", "lat": 38.9054345, "lon": -77.058135, "rental_uris": {"android": "https://dc.lft.to/lastmile_qr_scan", "ios": "https://dc.lft.to/lastmile_qr_scan"}, "is_disabled": 0, "fusion_lat": 0.0, "name": "865b8d203cabbf8871047092e709a4c4", "fusion_lon": 0.0}, {"is_reserved": 0, "type": "electric_scooter", "bike_id": "2c4cce3469af85391764b65fb6f0af23", "lat": 38.912593666666666, "lon": -77.02665433333334, "rental_uris": {"android": "https://dc.lft.to/lastmile_qr_scan", "ios": "https://dc.lft.to/lastmile_qr_scan"}, "is_disabled": 0, "fusion_lat": 0.0, "name": "2c4cce3469af85391764b65fb6f0af23", "fusion_lon": 0.0}, {"is_reserved": 0, "type": "electric_scooter", "bike_id": "ce618ba7b4bfd2868fd8ec646e5d911d", "lat": 38.86581433333333, "lon": -76.99030616666667, "rental_uris": {"android": "https://dc.lft.to/lastmile_qr_scan", "ios": "https://dc.lft.to/lastmile_qr_scan"}, "is_disabled": 0, "fusion_lat": 0.0, "name": "ce618ba7b4bfd2868fd8ec646e5d911d", "fusion_lon": 0.0}, {"is_reserved": 0, "type": "electric_scooter", "bike_id": "f64f4c64160c7373aaf95cfcd5cf6b42", "lat": 38.8922475, "lon": -77.02229166666666, "rental_uris": {"android": "https://dc.lft.to/lastmile_qr_scan", "ios": "https://dc.lft.to/lastmile_qr_scan"}, "is_disabled": 0, "fusion_lat": 0.0, "name": "f64f4c64160c7373aaf95cfcd5cf6b42", "fusion_lon": 0.0}, {"is_reserved": 0, "type": "electric_scooter", "bike_id": "56a69931f34e52f82d4a08f097f4258a", "lat": 38.911821333333336, "lon": -77.02196066666667, "rental_uris": {"android": "https://dc.lft.to/lastmile_qr_scan", "ios": "https://dc.lft.to/lastmile_qr_scan"}, "is_disabled": 0, "fusion_lat": 0.0, "name": "56a69931f34e52f82d4a08f097f4258a", "fusion_lon": 0.0}, {"is_reserved": 0, "type": "electric_scooter", "bike_id": "8ecd7251d90cfbd6ef20c1decb4fc88a", "lat": 38.89794716666667, "lon": -77.027033, "rental_uris": {"android": "https://dc.lft.to/lastmile_qr_scan", "ios": "https://dc.lft.to/lastmile_qr_scan"}, "is_disabled": 0, "fusion_lat": 0.0, "name": "8ecd7251d90cfbd6ef20c1decb4fc88a", "fusion_lon": 0.0}, {"is_reserved": 0, "type": "electric_scooter", "bike_id": "6169cf751e78e1519106dccd0bcab1a9", "lat": 38.89981616666667, "lon": -77.0221725, "rental_uris": {"android": "https://dc.lft.to/lastmile_qr_scan", "ios": "https://dc.lft.to/lastmile_qr_scan"}, "is_disabled": 0, "fusion_lat": 0.0, "name": "6169cf751e78e1519106dccd0bcab1a9", "fusion_lon": 0.0}, {"is_reserved": 0, "type": "electric_scooter", "bike_id": "fbbe6a31beea631d9470f5122b27b592", "lat": 38.89734833333333, "lon": -77.02171966666667, "rental_uris": {"android": "https://dc.lft.to/lastmile_qr_scan", "ios": "https://dc.lft.to/lastmile_qr_scan"}, "is_disabled": 0, "fusion_lat": 0.0, "name": "fbbe6a31beea631d9470f5122b27b592", "fusion_lon": 0.0}, {"is_reserved": 0, "type": "electric_scooter", "bike_id": "d6acaafd8ed719e808efefefa0f16e4c", "lat": 38.950932, "lon": -77.02532, "rental_uris": {"android": "https://dc.lft.to/lastmile_qr_scan", "ios": "https://dc.lft.to/lastmile_qr_scan"}, "is_disabled": 0, "fusion_lat": 0.0, "name": "d6acaafd8ed719e808efefefa0f16e4c", "fusion_lon": 0.0}, {"is_reserved": 0, "type": "electric_scooter", "bike_id": "8ede8b109cff830f0fd6e3a89fe5cf08", "lat": 38.9303025, "lon": -77.03787116666666, "rental_uris": {"android": "https://dc.lft.to/lastmile_qr_scan", "ios": "https://dc.lft.to/lastmile_qr_scan"}, "is_disabled": 0, "fusion_lat": 0.0, "name": "8ede8b109cff830f0fd6e3a89fe5cf08", "fusion_lon": 0.0}, {"is_reserved": 0, "type": "electric_scooter", "bike_id": "f0d623c8cf0962f0610c4343e06f5122", "lat": 38.92584733333333, "lon": -77.029376, "rental_uris": {"android": "https://dc.lft.to/lastmile_qr_scan", "ios": "https://dc.lft.to/lastmile_qr_scan"}, "is_disabled": 0, "fusion_lat": 0.0, "name": "f0d623c8cf0962f0610c4343e06f5122", "fusion_lon": 0.0}, {"is_reserved": 0, "type": "electric_scooter", "bike_id": "5265639c6c4ae902b19cc0dbdc469cee", "lat": 38.91568733333333, "lon": -77.02966483333333, "rental_uris": {"android": "https://dc.lft.to/lastmile_qr_scan", "ios": "https://dc.lft.to/lastmile_qr_scan"}, "is_disabled": 0, "fusion_lat": 0.0, "name": "5265639c6c4ae902b19cc0dbdc469cee", "fusion_lon": 0.0}, {"is_reserved": 0, "type": "electric_scooter", "bike_id": "ca5f1b2d020e7b48f8428a5fba6fdcc1", "lat": 38.93464383333333, "lon": -77.02765933333333, "rental_uris": {"android": "https://dc.lft.to/lastmile_qr_scan", "ios": "https://dc.lft.to/lastmile_qr_scan"}, "is_disabled": 0, "fusion_lat": 0.0, "name": "ca5f1b2d020e7b48f8428a5fba6fdcc1", "fusion_lon": 0.0}, {"is_reserved": 0, "type": "electric_scooter", "bike_id": "5300ab385bbe16acca24c05243ac5a96", "lat": 38.918733333333336, "lon": -77.04485216666667, "rental_uris": {"android": "https://dc.lft.to/lastmile_qr_scan", "ios": "https://dc.lft.to/lastmile_qr_scan"}, "is_disabled": 0, "fusion_lat": 0.0, "name": "5300ab385bbe16acca24c05243ac5a96", "fusion_lon": 0.0}, {"is_reserved": 0, "type": "electric_scooter", "bike_id": "86d1b3158fb8a2aed473f2bfda55b5bb", "lat": 38.91918116666667, "lon": -77.04814366666666, "rental_uris": {"android": "https://dc.lft.to/lastmile_qr_scan", "ios": "https://dc.lft.to/lastmile_qr_scan"}, "is_disabled": 0, "fusion_lat": 0.0, "name": "86d1b3158fb8a2aed473f2bfda55b5bb", "fusion_lon": 0.0}, {"is_reserved": 0, "type": "electric_scooter", "bike_id": "7017fec8bd250dc20f99edd30a8d5a6a", "lat": 38.9039695, "lon": -77.0161325, "rental_uris": {"android": "https://dc.lft.to/lastmile_qr_scan", "ios": "https://dc.lft.to/lastmile_qr_scan"}, "is_disabled": 0, "fusion_lat": 0.0, "name": "7017fec8bd250dc20f99edd30a8d5a6a", "fusion_lon": 0.0}, {"is_reserved": 0, "type": "electric_bike", "bike_id": "5035ed31e9e9385a4ea106d7b8ae0ed2", "lat": 38.835473, "lon": -76.99995116666666, "rental_uris": {"android": "https://dc.lft.to/lastmile_qr_scan", "ios": "https://dc.lft.to/lastmile_qr_scan"}, "is_disabled": 0, "fusion_lat": 0.0, "name": "5035ed31e9e9385a4ea106d7b8ae0ed2", "fusion_lon": 0.0}, {"is_reserved": 0, "type": "electric_scooter", "bike_id": "2fdb9ed20aaae9a5e382d0802f5db9fd", "lat": 38.931317166666666, "lon": -77.02299083333334, "rental_uris": {"android": "https://dc.lft.to/lastmile_qr_scan", "ios": "https://dc.lft.to/lastmile_qr_scan"}, "is_disabled": 0, "fusion_lat": 0.0, "name": "2fdb9ed20aaae9a5e382d0802f5db9fd", "fusion_lon": 0.0}, {"is_reserved": 0, "type": "electric_scooter", "bike_id": "5b0d31bc3db08f77282959e65a3172f3", "lat": 38.96028533333333, "lon": -77.07157016666666, "rental_uris": {"android": "https://dc.lft.to/lastmile_qr_scan", "ios": "https://dc.lft.to/lastmile_qr_scan"}, "is_disabled": 0, "fusion_lat": 0.0, "name": "5b0d31bc3db08f77282959e65a3172f3", "fusion_lon": 0.0}, {"is_reserved": 0, "type": "electric_scooter", "bike_id": "53f0eaa30b71331edae7e56269dd4b52", "lat": 38.92576366666667, "lon": -76.99485366666667, "rental_uris": {"android": "https://dc.lft.to/lastmile_qr_scan", "ios": "https://dc.lft.to/lastmile_qr_scan"}, "is_disabled": 0, "fusion_lat": 0.0, "name": "53f0eaa30b71331edae7e56269dd4b52", "fusion_lon": 0.0}, {"is_reserved": 0, "type": "electric_scooter", "bike_id": "0c8f3f8ae7ddabb4459b7973818e0b0b", "lat": 38.89814916666667, "lon": -77.0238325, "rental_uris": {"android": "https://dc.lft.to/lastmile_qr_scan", "ios": "https://dc.lft.to/lastmile_qr_scan"}, "is_disabled": 0, "fusion_lat": 0.0, "name": "0c8f3f8ae7ddabb4459b7973818e0b0b", "fusion_lon": 0.0}, {"is_reserved": 0, "type": "electric_scooter", "bike_id": "70e35d73794e5eeec92d41332faad1b8", "lat": 38.93354316666667, "lon": -77.03425966666667, "rental_uris": {"android": "https://dc.lft.to/lastmile_qr_scan", "ios": "https://dc.lft.to/lastmile_qr_scan"}, "is_disabled": 0, "fusion_lat": 0.0, "name": "70e35d73794e5eeec92d41332faad1b8", "fusion_lon": 0.0}, {"is_reserved": 0, "type": "electric_bike", "bike_id": "49b1281dc66e3914c730236efd0f3981", "lat": 38.944742166666664, "lon": -76.98686483333333, "rental_uris": {"android": "https://dc.lft.to/lastmile_qr_scan", "ios": "https://dc.lft.to/lastmile_qr_scan"}, "is_disabled": 0, "fusion_lat": 0.0, "name": "49b1281dc66e3914c730236efd0f3981", "fusion_lon": 0.0}, {"is_reserved": 0, "type": "electric_bike", "bike_id": "b1e8e95b4a21fbfb953f327d583c1f77", "lat": 38.98188183333333, "lon": -76.98208016666666, "rental_uris": {"android": "https://dc.lft.to/lastmile_qr_scan", "ios": "https://dc.lft.to/lastmile_qr_scan"}, "is_disabled": 0, "fusion_lat": 0.0, "name": "b1e8e95b4a21fbfb953f327d583c1f77", "fusion_lon": 0.0}, {"is_reserved": 0, "type": "electric_scooter", "bike_id": "3542895be343cc93d4e6c5aa8b9aef69", "lat": 38.900897, "lon": -76.9833355, "rental_uris": {"android": "https://dc.lft.to/lastmile_qr_scan", "ios": "https://dc.lft.to/lastmile_qr_scan"}, "is_disabled": 0, "fusion_lat": 0.0, "name": "3542895be343cc93d4e6c5aa8b9aef69", "fusion_lon": 0.0}, {"is_reserved": 0, "type": "electric_scooter", "bike_id": "c68cef21a6f30ce749e7cacbae7e6994", "lat": 38.92927666666667, "lon": -77.0200785, "rental_uris": {"android": "https://dc.lft.to/lastmile_qr_scan", "ios": "https://dc.lft.to/lastmile_qr_scan"}, "is_disabled": 0, "fusion_lat": 0.0, "name": "c68cef21a6f30ce749e7cacbae7e6994", "fusion_lon": 0.0}, {"is_reserved": 0, "type": "electric_scooter", "bike_id": "787d455e26cf6757114f12932da05094", "lat": 38.89255983333334, "lon": -77.03344733333333, "rental_uris": {"android": "https://dc.lft.to/lastmile_qr_scan", "ios": "https://dc.lft.to/lastmile_qr_scan"}, "is_disabled": 0, "fusion_lat": 0.0, "name": "787d455e26cf6757114f12932da05094", "fusion_lon": 0.0}, {"is_reserved": 0, "type": "electric_scooter", "bike_id": "6d1684014a8b9e3dacbc7bb5f608cbb2", "lat": 38.91419533333333, "lon": -77.018781, "rental_uris": {"android": "https://dc.lft.to/lastmile_qr_scan", "ios": "https://dc.lft.to/lastmile_qr_scan"}, "is_disabled": 0, "fusion_lat": 0.0, "name": "6d1684014a8b9e3dacbc7bb5f608cbb2", "fusion_lon": 0.0}, {"is_reserved": 0, "type": "electric_scooter", "bike_id": "547d589aa83326a49d1d024fc797cd7a", "lat": 38.898538, "lon": -76.92750333333333, "rental_uris": {"android": "https://dc.lft.to/lastmile_qr_scan", "ios": "https://dc.lft.to/lastmile_qr_scan"}, "is_disabled": 0, "fusion_lat": 0.0, "name": "547d589aa83326a49d1d024fc797cd7a", "fusion_lon": 0.0}, {"is_reserved": 0, "type": "electric_scooter", "bike_id": "a8ff325b582b7cd4f0ff90e054d9341a", "lat": 38.931117666666665, "lon": -77.03026383333334, "rental_uris": {"android": "https://dc.lft.to/lastmile_qr_scan", "ios": "https://dc.lft.to/lastmile_qr_scan"}, "is_disabled": 0, "fusion_lat": 0.0, "name": "a8ff325b582b7cd4f0ff90e054d9341a", "fusion_lon": 0.0}, {"is_reserved": 0, "type": "electric_scooter", "bike_id": "bc54b31fae4312f340184100b35d512b", "lat": 38.871612999999996, "lon": -77.01350566666666, "rental_uris": {"android": "https://dc.lft.to/lastmile_qr_scan", "ios": "https://dc.lft.to/lastmile_qr_scan"}, "is_disabled": 0, "fusion_lat": 0.0, "name": "bc54b31fae4312f340184100b35d512b", "fusion_lon": 0.0}, {"is_reserved": 0, "type": "electric_scooter", "bike_id": "f421a9e61ffe649cb15d2b695d179622", "lat": 38.906225, "lon": -77.03442983333333, "rental_uris": {"android": "https://dc.lft.to/lastmile_qr_scan", "ios": "https://dc.lft.to/lastmile_qr_scan"}, "is_disabled": 0, "fusion_lat": 0.0, "name": "f421a9e61ffe649cb15d2b695d179622", "fusion_lon": 0.0}, {"is_reserved": 0, "type": "electric_scooter", "bike_id": "2ad75c85c7deea5e4fa9e4b7e7a80164", "lat": 38.90119683333333, "lon": -77.03379366666667, "rental_uris": {"android": "https://dc.lft.to/lastmile_qr_scan", "ios": "https://dc.lft.to/lastmile_qr_scan"}, "is_disabled": 0, "fusion_lat": 0.0, "name": "2ad75c85c7deea5e4fa9e4b7e7a80164", "fusion_lon": 0.0}, {"is_reserved": 0, "type": "electric_scooter", "bike_id": "40f5d01f21ddf6788748a3d94b4e9057", "lat": 38.936333, "lon": -77.03665466666666, "rental_uris": {"android": "https://dc.lft.to/lastmile_qr_scan", "ios": "https://dc.lft.to/lastmile_qr_scan"}, "is_disabled": 0, "fusion_lat": 0.0, "name": "40f5d01f21ddf6788748a3d94b4e9057", "fusion_lon": 0.0}, {"is_reserved": 0, "type": "electric_scooter", "bike_id": "79ab7b560200a2805e343ae55672fe49", "lat": 38.92566016666667, "lon": -76.9699905, "rental_uris": {"android": "https://dc.lft.to/lastmile_qr_scan", "ios": "https://dc.lft.to/lastmile_qr_scan"}, "is_disabled": 0, "fusion_lat": 0.0, "name": "79ab7b560200a2805e343ae55672fe49", "fusion_lon": 0.0}, {"is_reserved": 0, "type": "electric_scooter", "bike_id": "d8df24924a4ab4982144539c8112f9fd", "lat": 38.90039683333333, "lon": -76.9903415, "rental_uris": {"android": "https://dc.lft.to/lastmile_qr_scan", "ios": "https://dc.lft.to/lastmile_qr_scan"}, "is_disabled": 0, "fusion_lat": 0.0, "name": "d8df24924a4ab4982144539c8112f9fd", "fusion_lon": 0.0}, {"is_reserved": 0, "type": "electric_scooter", "bike_id": "cce5d259c85175dd5c09807c863f983c", "lat": 38.87088966666666, "lon": -77.013729, "rental_uris": {"android": "https://dc.lft.to/lastmile_qr_scan", "ios": "https://dc.lft.to/lastmile_qr_scan"}, "is_disabled": 0, "fusion_lat": 0.0, "name": "cce5d259c85175dd5c09807c863f983c", "fusion_lon": 0.0}, {"is_reserved": 0, "type": "electric_scooter", "bike_id": "7e13f9dfcbd1a0474c259dd3b5c0a397", "lat": 38.903768166666666, "lon": -77.02836083333334, "rental_uris": {"android": "https://dc.lft.to/lastmile_qr_scan", "ios": "https://dc.lft.to/lastmile_qr_scan"}, "is_disabled": 0, "fusion_lat": 0.0, "name": "7e13f9dfcbd1a0474c259dd3b5c0a397", "fusion_lon": 0.0}, {"is_reserved": 0, "type": "electric_scooter", "bike_id": "8f3fbb5831c3a161f4063fbc00e52bf2", "lat": 38.897377, "lon": -77.023727, "rental_uris": {"android": "https://dc.lft.to/lastmile_qr_scan", "ios": "https://dc.lft.to/lastmile_qr_scan"}, "is_disabled": 0, "fusion_lat": 0.0, "name": "8f3fbb5831c3a161f4063fbc00e52bf2", "fusion_lon": 0.0}, {"is_reserved": 0, "type": "electric_scooter", "bike_id": "82362196edabb1524fcea5c8bc10ed4e", "lat": 38.892266, "lon": -77.016025, "rental_uris": {"android": "https://dc.lft.to/lastmile_qr_scan", "ios": "https://dc.lft.to/lastmile_qr_scan"}, "is_disabled": 0, "fusion_lat": 0.0, "name": "82362196edabb1524fcea5c8bc10ed4e", "fusion_lon": 0.0}, {"is_reserved": 0, "type": "electric_scooter", "bike_id": "9aa3bf7d599af33fedcb70f6958c66e9", "lat": 38.924280833333334, "lon": -77.029838, "rental_uris": {"android": "https://dc.lft.to/lastmile_qr_scan", "ios": "https://dc.lft.to/lastmile_qr_scan"}, "is_disabled": 0, "fusion_lat": 0.0, "name": "9aa3bf7d599af33fedcb70f6958c66e9", "fusion_lon": 0.0}, {"is_reserved": 0, "type": "electric_scooter", "bike_id": "51ea1a12f9c0051923a4f3fd94f92be4", "lat": 38.912923, "lon": -77.02714116666667, "rental_uris": {"android": "https://dc.lft.to/lastmile_qr_scan", "ios": "https://dc.lft.to/lastmile_qr_scan"}, "is_disabled": 0, "fusion_lat": 0.0, "name": "51ea1a12f9c0051923a4f3fd94f92be4", "fusion_lon": 0.0}, {"is_reserved": 0, "type": "electric_scooter", "bike_id": "4f88886bafd929c86e2c6a18d7f461f1", "lat": 38.92812383333333, "lon": -77.03613766666666, "rental_uris": {"android": "https://dc.lft.to/lastmile_qr_scan", "ios": "https://dc.lft.to/lastmile_qr_scan"}, "is_disabled": 0, "fusion_lat": 0.0, "name": "4f88886bafd929c86e2c6a18d7f461f1", "fusion_lon": 0.0}, {"is_reserved": 0, "type": "electric_scooter", "bike_id": "56d81ef486bbcb33eaaac6626cbf8c0e", "lat": 38.898902, "lon": -77.04902683333333, "rental_uris": {"android": "https://dc.lft.to/lastmile_qr_scan", "ios": "https://dc.lft.to/lastmile_qr_scan"}, "is_disabled": 0, "fusion_lat": 0.0, "name": "56d81ef486bbcb33eaaac6626cbf8c0e", "fusion_lon": 0.0}, {"is_reserved": 0, "type": "electric_scooter", "bike_id": "a89fc3a0922c1d7d4f4f84dd469def36", "lat": 38.92400516666667, "lon": -76.95154566666666, "rental_uris": {"android": "https://dc.lft.to/lastmile_qr_scan", "ios": "https://dc.lft.to/lastmile_qr_scan"}, "is_disabled": 0, "fusion_lat": 0.0, "name": "a89fc3a0922c1d7d4f4f84dd469def36", "fusion_lon": 0.0}, {"is_reserved": 0, "type": "electric_scooter", "bike_id": "3685d830f8fb8d347a2913a65ba5ca3f", "lat": 38.900108333333336, "lon": -77.02891816666667, "rental_uris": {"android": "https://dc.lft.to/lastmile_qr_scan", "ios": "https://dc.lft.to/lastmile_qr_scan"}, "is_disabled": 0, "fusion_lat": 0.0, "name": "3685d830f8fb8d347a2913a65ba5ca3f", "fusion_lon": 0.0}, {"is_reserved": 0, "type": "electric_scooter", "bike_id": "4bf54f2210cdcdf87a9aee1f635d849f", "lat": 38.92242566666667, "lon": -77.02123733333333, "rental_uris": {"android": "https://dc.lft.to/lastmile_qr_scan", "ios": "https://dc.lft.to/lastmile_qr_scan"}, "is_disabled": 0, "fusion_lat": 0.0, "name": "4bf54f2210cdcdf87a9aee1f635d849f", "fusion_lon": 0.0}, {"is_reserved": 0, "type": "electric_scooter", "bike_id": "974632ab787459dad9497bc83faf6792", "lat": 38.92568683333333, "lon": -76.970015, "rental_uris": {"android": "https://dc.lft.to/lastmile_qr_scan", "ios": "https://dc.lft.to/lastmile_qr_scan"}, "is_disabled": 0, "fusion_lat": 0.0, "name": "974632ab787459dad9497bc83faf6792", "fusion_lon": 0.0}, {"is_reserved": 0, "type": "electric_scooter", "bike_id": "d80bcf6ea5dd6cbec900209b1af26c97", "lat": 38.92968533333333, "lon": -77.02340483333333, "rental_uris": {"android": "https://dc.lft.to/lastmile_qr_scan", "ios": "https://dc.lft.to/lastmile_qr_scan"}, "is_disabled": 0, "fusion_lat": 0.0, "name": "d80bcf6ea5dd6cbec900209b1af26c97", "fusion_lon": 0.0}, {"is_reserved": 0, "type": "electric_scooter", "bike_id": "2fbbb6897476a134763af305969f8e98", "lat": 38.923345, "lon": -77.03606716666667, "rental_uris": {"android": "https://dc.lft.to/lastmile_qr_scan", "ios": "https://dc.lft.to/lastmile_qr_scan"}, "is_disabled": 0, "fusion_lat": 0.0, "name": "2fbbb6897476a134763af305969f8e98", "fusion_lon": 0.0}, {"is_reserved": 0, "type": "electric_scooter", "bike_id": "5150f7afa6f2d4178c82c27e07adfc76", "lat": 38.900417, "lon": -76.99150816666666, "rental_uris": {"android": "https://dc.lft.to/lastmile_qr_scan", "ios": "https://dc.lft.to/lastmile_qr_scan"}, "is_disabled": 0, "fusion_lat": 0.0, "name": "5150f7afa6f2d4178c82c27e07adfc76", "fusion_lon": 0.0}, {"is_reserved": 0, "type": "electric_scooter", "bike_id": "bc160f438816b2db64e21a4e9974c658", "lat": 38.90860133333334, "lon": -76.99947383333334, "rental_uris": {"android": "https://dc.lft.to/lastmile_qr_scan", "ios": "https://dc.lft.to/lastmile_qr_scan"}, "is_disabled": 0, "fusion_lat": 0.0, "name": "bc160f438816b2db64e21a4e9974c658", "fusion_lon": 0.0}, {"is_reserved": 0, "type": "electric_scooter", "bike_id": "607c2b676c3f58baf072ce8edee10815", "lat": 38.899331833333335, "lon": -77.031919, "rental_uris": {"android": "https://dc.lft.to/lastmile_qr_scan", "ios": "https://dc.lft.to/lastmile_qr_scan"}, "is_disabled": 0, "fusion_lat": 0.0, "name": "607c2b676c3f58baf072ce8edee10815", "fusion_lon": 0.0}, {"is_reserved": 0, "type": "electric_scooter", "bike_id": "3b0c878a35829479b4194f2085cec3c1", "lat": 38.892230833333336, "lon": -77.02313433333333, "rental_uris": {"android": "https://dc.lft.to/lastmile_qr_scan", "ios": "https://dc.lft.to/lastmile_qr_scan"}, "is_disabled": 0, "fusion_lat": 0.0, "name": "3b0c878a35829479b4194f2085cec3c1", "fusion_lon": 0.0}, {"is_reserved": 0, "type": "electric_scooter", "bike_id": "5e00e4d12d8b7f5599cd08b7d58bf171", "lat": 38.899958166666664, "lon": -77.02300433333333, "rental_uris": {"android": "https://dc.lft.to/lastmile_qr_scan", "ios": "https://dc.lft.to/lastmile_qr_scan"}, "is_disabled": 0, "fusion_lat": 0.0, "name": "5e00e4d12d8b7f5599cd08b7d58bf171", "fusion_lon": 0.0}, {"is_reserved": 0, "type": "electric_scooter", "bike_id": "68e230aa47438610f8229fe11a65ddfc", "lat": 38.90529766666667, "lon": -77.059937, "rental_uris": {"android": "https://dc.lft.to/lastmile_qr_scan", "ios": "https://dc.lft.to/lastmile_qr_scan"}, "is_disabled": 0, "fusion_lat": 0.0, "name": "68e230aa47438610f8229fe11a65ddfc", "fusion_lon": 0.0}, {"is_reserved": 0, "type": "electric_scooter", "bike_id": "c1645e469f35b2981de8196a48258b82", "lat": 38.922933666666665, "lon": -76.99753916666667, "rental_uris": {"android": "https://dc.lft.to/lastmile_qr_scan", "ios": "https://dc.lft.to/lastmile_qr_scan"}, "is_disabled": 0, "fusion_lat": 0.0, "name": "c1645e469f35b2981de8196a48258b82", "fusion_lon": 0.0}, {"is_reserved": 0, "type": "electric_scooter", "bike_id": "c78ee7e505e5ffb4f0ffda74cbd9860e", "lat": 38.947327666666666, "lon": -77.024598, "rental_uris": {"android": "https://dc.lft.to/lastmile_qr_scan", "ios": "https://dc.lft.to/lastmile_qr_scan"}, "is_disabled": 0, "fusion_lat": 0.0, "name": "c78ee7e505e5ffb4f0ffda74cbd9860e", "fusion_lon": 0.0}, {"is_reserved": 0, "type": "electric_scooter", "bike_id": "1821ccd3fdc1ec1eac2d141712578118", "lat": 38.89364883333333, "lon": -76.94109916666666, "rental_uris": {"android": "https://dc.lft.to/lastmile_qr_scan", "ios": "https://dc.lft.to/lastmile_qr_scan"}, "is_disabled": 0, "fusion_lat": 0.0, "name": "1821ccd3fdc1ec1eac2d141712578118", "fusion_lon": 0.0}, {"is_reserved": 0, "type": "electric_bike", "bike_id": "8f93650a967f8bb6c7ba85094f051938", "lat": 38.951345833333335, "lon": -76.96594266666666, "rental_uris": {"android": "https://dc.lft.to/lastmile_qr_scan", "ios": "https://dc.lft.to/lastmile_qr_scan"}, "is_disabled": 0, "fusion_lat": 0.0, "name": "8f93650a967f8bb6c7ba85094f051938", "fusion_lon": 0.0}, {"is_reserved": 0, "type": "electric_scooter", "bike_id": "0960232e3a1e5658b72ff44e41e7867e", "lat": 38.93377483333333, "lon": -77.05718133333333, "rental_uris": {"android": "https://dc.lft.to/lastmile_qr_scan", "ios": "https://dc.lft.to/lastmile_qr_scan"}, "is_disabled": 0, "fusion_lat": 0.0, "name": "0960232e3a1e5658b72ff44e41e7867e", "fusion_lon": 0.0}, {"is_reserved": 0, "type": "electric_scooter", "bike_id": "4a00e953ba9494924a046f5f17b5b212", "lat": 38.896128, "lon": -77.02590766666667, "rental_uris": {"android": "https://dc.lft.to/lastmile_qr_scan", "ios": "https://dc.lft.to/lastmile_qr_scan"}, "is_disabled": 0, "fusion_lat": 0.0, "name": "4a00e953ba9494924a046f5f17b5b212", "fusion_lon": 0.0}, {"is_reserved": 0, "type": "electric_scooter", "bike_id": "04b8be7388c1d2c78ed5bd21f3c00362", "lat": 38.92017633333333, "lon": -77.029502, "rental_uris": {"android": "https://dc.lft.to/lastmile_qr_scan", "ios": "https://dc.lft.to/lastmile_qr_scan"}, "is_disabled": 0, "fusion_lat": 0.0, "name": "04b8be7388c1d2c78ed5bd21f3c00362", "fusion_lon": 0.0}, {"is_reserved": 0, "type": "electric_scooter", "bike_id": "e81dd0df1fe5ab501accd42450bb7065", "lat": 38.8960685, "lon": -77.04707533333334, "rental_uris": {"android": "https://dc.lft.to/lastmile_qr_scan", "ios": "https://dc.lft.to/lastmile_qr_scan"}, "is_disabled": 0, "fusion_lat": 0.0, "name": "e81dd0df1fe5ab501accd42450bb7065", "fusion_lon": 0.0}, {"is_reserved": 0, "type": "electric_scooter", "bike_id": "1c07f6dfafe9b1471130c34a8fbd1c97", "lat": 38.91990883333333, "lon": -77.03318033333333, "rental_uris": {"android": "https://dc.lft.to/lastmile_qr_scan", "ios": "https://dc.lft.to/lastmile_qr_scan"}, "is_disabled": 0, "fusion_lat": 0.0, "name": "1c07f6dfafe9b1471130c34a8fbd1c97", "fusion_lon": 0.0}, {"is_reserved": 0, "type": "electric_scooter", "bike_id": "36105fbbf5bd8807ca70026709169849", "lat": 38.89275283333333, "lon": -76.95255566666667, "rental_uris": {"android": "https://dc.lft.to/lastmile_qr_scan", "ios": "https://dc.lft.to/lastmile_qr_scan"}, "is_disabled": 0, "fusion_lat": 0.0, "name": "36105fbbf5bd8807ca70026709169849", "fusion_lon": 0.0}, {"is_reserved": 0, "type": "electric_scooter", "bike_id": "9f364163aa502c5ca2bef2f19d1be901", "lat": 38.91479416666667, "lon": -77.03187783333334, "rental_uris": {"android": "https://dc.lft.to/lastmile_qr_scan", "ios": "https://dc.lft.to/lastmile_qr_scan"}, "is_disabled": 0, "fusion_lat": 0.0, "name": "9f364163aa502c5ca2bef2f19d1be901", "fusion_lon": 0.0}, {"is_reserved": 0, "type": "electric_scooter", "bike_id": "a4c5eb22ee09f0a8d6921ebeb488d086", "lat": 38.874726, "lon": -77.00558966666667, "rental_uris": {"android": "https://dc.lft.to/lastmile_qr_scan", "ios": "https://dc.lft.to/lastmile_qr_scan"}, "is_disabled": 0, "fusion_lat": 0.0, "name": "a4c5eb22ee09f0a8d6921ebeb488d086", "fusion_lon": 0.0}, {"is_reserved": 0, "type": "electric_scooter", "bike_id": "fb7284abc1f9b8a62fd7b62b09504175", "lat": 38.911287, "lon": -77.0383145, "rental_uris": {"android": "https://dc.lft.to/lastmile_qr_scan", "ios": "https://dc.lft.to/lastmile_qr_scan"}, "is_disabled": 0, "fusion_lat": 0.0, "name": "fb7284abc1f9b8a62fd7b62b09504175", "fusion_lon": 0.0}, {"is_reserved": 0, "type": "electric_scooter", "bike_id": "708b292a77b4ef071a76661aec681c04", "lat": 38.916976, "lon": -77.03079516666666, "rental_uris": {"android": "https://dc.lft.to/lastmile_qr_scan", "ios": "https://dc.lft.to/lastmile_qr_scan"}, "is_disabled": 0, "fusion_lat": 0.0, "name": "708b292a77b4ef071a76661aec681c04", "fusion_lon": 0.0}, {"is_reserved": 0, "type": "electric_bike", "bike_id": "e6646b3393666a7c04996fe6c2dd669b", "lat": 38.92037933333334, "lon": -76.97959033333333, "rental_uris": {"android": "https://dc.lft.to/lastmile_qr_scan", "ios": "https://dc.lft.to/lastmile_qr_scan"}, "is_disabled": 0, "fusion_lat": 0.0, "name": "e6646b3393666a7c04996fe6c2dd669b", "fusion_lon": 0.0}, {"is_reserved": 0, "type": "electric_scooter", "bike_id": "0d2de8e5a0ca2e7522a074069b5e834e", "lat": 38.917673, "lon": -77.00452716666666, "rental_uris": {"android": "https://dc.lft.to/lastmile_qr_scan", "ios": "https://dc.lft.to/lastmile_qr_scan"}, "is_disabled": 0, "fusion_lat": 0.0, "name": "0d2de8e5a0ca2e7522a074069b5e834e", "fusion_lon": 0.0}, {"is_reserved": 0, "type": "electric_bike", "bike_id": "be27f8ad418c492a7689c14aaf9257ca", "lat": 38.92073766666667, "lon": -76.99584233333333, "rental_uris": {"android": "https://dc.lft.to/lastmile_qr_scan", "ios": "https://dc.lft.to/lastmile_qr_scan"}, "is_disabled": 0, "fusion_lat": 0.0, "name": "be27f8ad418c492a7689c14aaf9257ca", "fusion_lon": 0.0}, {"is_reserved": 0, "type": "electric_bike", "bike_id": "38a636c78100177150f7d2b925159464", "lat": 38.917079, "lon": -77.057193, "rental_uris": {"android": "https://dc.lft.to/lastmile_qr_scan", "ios": "https://dc.lft.to/lastmile_qr_scan"}, "is_disabled": 0, "fusion_lat": 0.0, "name": "38a636c78100177150f7d2b925159464", "fusion_lon": 0.0}, {"is_reserved": 0, "type": "electric_scooter", "bike_id": "983e852009f70f418ddbc38e21131cc1", "lat": 38.92692383333333, "lon": -77.0323895, "rental_uris": {"android": "https://dc.lft.to/lastmile_qr_scan", "ios": "https://dc.lft.to/lastmile_qr_scan"}, "is_disabled": 0, "fusion_lat": 0.0, "name": "983e852009f70f418ddbc38e21131cc1", "fusion_lon": 0.0}, {"is_reserved": 0, "type": "electric_scooter", "bike_id": "b09fbd93c1bd30f5ec76ebe207b909df", "lat": 38.883166, "lon": -77.02394283333334, "rental_uris": {"android": "https://dc.lft.to/lastmile_qr_scan", "ios": "https://dc.lft.to/lastmile_qr_scan"}, "is_disabled": 0, "fusion_lat": 0.0, "name": "b09fbd93c1bd30f5ec76ebe207b909df", "fusion_lon": 0.0}, {"is_reserved": 0, "type": "electric_scooter", "bike_id": "f1b9957f4b3748808cee4004de7ecd1d", "lat": 38.93198, "lon": -77.0195885, "rental_uris": {"android": "https://dc.lft.to/lastmile_qr_scan", "ios": "https://dc.lft.to/lastmile_qr_scan"}, "is_disabled": 0, "fusion_lat": 0.0, "name": "f1b9957f4b3748808cee4004de7ecd1d", "fusion_lon": 0.0}, {"is_reserved": 0, "type": "electric_bike", "bike_id": "406db5037163c33194ce1c5c81345c28", "lat": 38.925573166666666, "lon": -77.0012805, "rental_uris": {"android": "https://dc.lft.to/lastmile_qr_scan", "ios": "https://dc.lft.to/lastmile_qr_scan"}, "is_disabled": 0, "fusion_lat": 0.0, "name": "406db5037163c33194ce1c5c81345c28", "fusion_lon": 0.0}, {"is_reserved": 0, "type": "electric_scooter", "bike_id": "67e63a99722ed95959a4327e7c85a2ef", "lat": 38.893879166666665, "lon": -76.923068, "rental_uris": {"android": "https://dc.lft.to/lastmile_qr_scan", "ios": "https://dc.lft.to/lastmile_qr_scan"}, "is_disabled": 0, "fusion_lat": 0.0, "name": "67e63a99722ed95959a4327e7c85a2ef", "fusion_lon": 0.0}, {"is_reserved": 0, "type": "electric_scooter", "bike_id": "a8a9c109e36a82ad0bc5326d04d04ab8", "lat": 38.92390733333333, "lon": -77.02575683333333, "rental_uris": {"android": "https://dc.lft.to/lastmile_qr_scan", "ios": "https://dc.lft.to/lastmile_qr_scan"}, "is_disabled": 0, "fusion_lat": 0.0, "name": "a8a9c109e36a82ad0bc5326d04d04ab8", "fusion_lon": 0.0}, {"is_reserved": 0, "type": "electric_scooter", "bike_id": "ecc7ba951d1ef718d4e801454767d021", "lat": 38.88638233333333, "lon": -77.01965716666666, "rental_uris": {"android": "https://dc.lft.to/lastmile_qr_scan", "ios": "https://dc.lft.to/lastmile_qr_scan"}, "is_disabled": 0, "fusion_lat": 0.0, "name": "ecc7ba951d1ef718d4e801454767d021", "fusion_lon": 0.0}, {"is_reserved": 0, "type": "electric_scooter", "bike_id": "d016b858afaf94c1506d788c4dca1075", "lat": 38.91415, "lon": -77.031681, "rental_uris": {"android": "https://dc.lft.to/lastmile_qr_scan", "ios": "https://dc.lft.to/lastmile_qr_scan"}, "is_disabled": 0, "fusion_lat": 0.0, "name": "d016b858afaf94c1506d788c4dca1075", "fusion_lon": 0.0}, {"is_reserved": 0, "type": "electric_scooter", "bike_id": "05da811f0ce8d2fdadaabae82c36ca4d", "lat": 38.916901, "lon": -77.02525333333334, "rental_uris": {"android": "https://dc.lft.to/lastmile_qr_scan", "ios": "https://dc.lft.to/lastmile_qr_scan"}, "is_disabled": 0, "fusion_lat": 0.0, "name": "05da811f0ce8d2fdadaabae82c36ca4d", "fusion_lon": 0.0}, {"is_reserved": 0, "type": "electric_bike", "bike_id": "43ad2f42fedd6cc90b1d1e5840a1f5bf", "lat": 38.8541995, "lon": -77.08368583333333, "rental_uris": {"android": "https://dc.lft.to/lastmile_qr_scan", "ios": "https://dc.lft.to/lastmile_qr_scan"}, "is_disabled": 0, "fusion_lat": 0.0, "name": "43ad2f42fedd6cc90b1d1e5840a1f5bf", "fusion_lon": 0.0}, {"is_reserved": 0, "type": "electric_bike", "bike_id": "3aa1e91b2a784b3fe7b4017b5dcfe10d", "lat": 39.00445533333333, "lon": -76.90132083333333, "rental_uris": {"android": "https://dc.lft.to/lastmile_qr_scan", "ios": "https://dc.lft.to/lastmile_qr_scan"}, "is_disabled": 0, "fusion_lat": 0.0, "name": "3aa1e91b2a784b3fe7b4017b5dcfe10d", "fusion_lon": 0.0}, {"is_reserved": 0, "type": "electric_scooter", "bike_id": "8422a9359f664e907ffcd3eb3e76c8b8", "lat": 38.88534683333334, "lon": -76.998266, "rental_uris": {"android": "https://dc.lft.to/lastmile_qr_scan", "ios": "https://dc.lft.to/lastmile_qr_scan"}, "is_disabled": 0, "fusion_lat": 0.0, "name": "8422a9359f664e907ffcd3eb3e76c8b8", "fusion_lon": 0.0}, {"is_reserved": 0, "type": "electric_bike", "bike_id": "ada016a08b9d69a8e81434c76c474216", "lat": 38.91368716666667, "lon": -77.06617066666666, "rental_uris": {"android": "https://dc.lft.to/lastmile_qr_scan", "ios": "https://dc.lft.to/lastmile_qr_scan"}, "is_disabled": 0, "fusion_lat": 0.0, "name": "ada016a08b9d69a8e81434c76c474216", "fusion_lon": 0.0}, {"is_reserved": 0, "type": "electric_bike", "bike_id": "7884b19b16a5a1f19050c99ff25cb493", "lat": 38.8704175, "lon": -77.22913583333333, "rental_uris": {"android": "https://dc.lft.to/lastmile_qr_scan", "ios": "https://dc.lft.to/lastmile_qr_scan"}, "is_disabled": 0, "fusion_lat": 0.0, "name": "7884b19b16a5a1f19050c99ff25cb493", "fusion_lon": 0.0}, {"is_reserved": 0, "type": "electric_scooter", "bike_id": "9d2bd8c51cb5587d7be47da8813d6dbc", "lat": 38.92450783333334, "lon": -77.02035433333333, "rental_uris": {"android": "https://dc.lft.to/lastmile_qr_scan", "ios": "https://dc.lft.to/lastmile_qr_scan"}, "is_disabled": 0, "fusion_lat": 0.0, "name": "9d2bd8c51cb5587d7be47da8813d6dbc", "fusion_lon": 0.0}, {"is_reserved": 0, "type": "electric_scooter", "bike_id": "12f51e7330f67082a3152e909b1cad4d", "lat": 38.940441666666665, "lon": -77.02882733333334, "rental_uris": {"android": "https://dc.lft.to/lastmile_qr_scan", "ios": "https://dc.lft.to/lastmile_qr_scan"}, "is_disabled": 0, "fusion_lat": 0.0, "name": "12f51e7330f67082a3152e909b1cad4d", "fusion_lon": 0.0}, {"is_reserved": 0, "type": "electric_scooter", "bike_id": "193301b7b076cdf22e7ec688f8ba9227", "lat": 38.87504116666667, "lon": -77.00024816666667, "rental_uris": {"android": "https://dc.lft.to/lastmile_qr_scan", "ios": "https://dc.lft.to/lastmile_qr_scan"}, "is_disabled": 0, "fusion_lat": 0.0, "name": "193301b7b076cdf22e7ec688f8ba9227", "fusion_lon": 0.0}, {"is_reserved": 0, "type": "electric_scooter", "bike_id": "ca2bc0f17f1f4e7021981698cd0f7558", "lat": 38.91556966666667, "lon": -77.021154, "rental_uris": {"android": "https://dc.lft.to/lastmile_qr_scan", "ios": "https://dc.lft.to/lastmile_qr_scan"}, "is_disabled": 0, "fusion_lat": 0.0, "name": "ca2bc0f17f1f4e7021981698cd0f7558", "fusion_lon": 0.0}, {"is_reserved": 0, "type": "electric_scooter", "bike_id": "6da84ba69aa2c67b70e335520b69fa95", "lat": 38.897171, "lon": -77.00798933333333, "rental_uris": {"android": "https://dc.lft.to/lastmile_qr_scan", "ios": "https://dc.lft.to/lastmile_qr_scan"}, "is_disabled": 0, "fusion_lat": 0.0, "name": "6da84ba69aa2c67b70e335520b69fa95", "fusion_lon": 0.0}, {"is_reserved": 0, "type": "electric_scooter", "bike_id": "b969fc53a36af4af0ecea01a57ea8ccb", "lat": 38.922768, "lon": -77.040254, "rental_uris": {"android": "https://dc.lft.to/lastmile_qr_scan", "ios": "https://dc.lft.to/lastmile_qr_scan"}, "is_disabled": 0, "fusion_lat": 0.0, "name": "b969fc53a36af4af0ecea01a57ea8ccb", "fusion_lon": 0.0}, {"is_reserved": 0, "type": "electric_scooter", "bike_id": "4289d24b69c4fdf384b718ec1ea0f3a8", "lat": 38.90024533333333, "lon": -77.0400745, "rental_uris": {"android": "https://dc.lft.to/lastmile_qr_scan", "ios": "https://dc.lft.to/lastmile_qr_scan"}, "is_disabled": 0, "fusion_lat": 0.0, "name": "4289d24b69c4fdf384b718ec1ea0f3a8", "fusion_lon": 0.0}, {"is_reserved": 0, "type": "electric_scooter", "bike_id": "5bedb9c2edeeb167ab47c8ac5331086b", "lat": 38.93070566666667, "lon": -77.029637, "rental_uris": {"android": "https://dc.lft.to/lastmile_qr_scan", "ios": "https://dc.lft.to/lastmile_qr_scan"}, "is_disabled": 0, "fusion_lat": 0.0, "name": "5bedb9c2edeeb167ab47c8ac5331086b", "fusion_lon": 0.0}, {"is_reserved": 0, "type": "electric_scooter", "bike_id": "110f25d1c7112876e88585ba9ef796d1", "lat": 38.92737, "lon": -77.05253433333333, "rental_uris": {"android": "https://dc.lft.to/lastmile_qr_scan", "ios": "https://dc.lft.to/lastmile_qr_scan"}, "is_disabled": 0, "fusion_lat": 0.0, "name": "110f25d1c7112876e88585ba9ef796d1", "fusion_lon": 0.0}, {"is_reserved": 0, "type": "electric_scooter", "bike_id": "d129636fd88cf387a436caf39ee0a13d", "lat": 38.911191333333335, "lon": -77.04455633333333, "rental_uris": {"android": "https://dc.lft.to/lastmile_qr_scan", "ios": "https://dc.lft.to/lastmile_qr_scan"}, "is_disabled": 0, "fusion_lat": 0.0, "name": "d129636fd88cf387a436caf39ee0a13d", "fusion_lon": 0.0}, {"is_reserved": 0, "type": "electric_scooter", "bike_id": "097e1b63263dd5fd375f4707c10d5288", "lat": 38.92030783333333, "lon": -77.01877983333334, "rental_uris": {"android": "https://dc.lft.to/lastmile_qr_scan", "ios": "https://dc.lft.to/lastmile_qr_scan"}, "is_disabled": 0, "fusion_lat": 0.0, "name": "097e1b63263dd5fd375f4707c10d5288", "fusion_lon": 0.0}, {"is_reserved": 0, "type": "electric_scooter", "bike_id": "e0f3f9c7145b03bf38a589c99ee0ab96", "lat": 38.94520133333333, "lon": -77.02975133333334, "rental_uris": {"android": "https://dc.lft.to/lastmile_qr_scan", "ios": "https://dc.lft.to/lastmile_qr_scan"}, "is_disabled": 0, "fusion_lat": 0.0, "name": "e0f3f9c7145b03bf38a589c99ee0ab96", "fusion_lon": 0.0}, {"is_reserved": 0, "type": "electric_scooter", "bike_id": "6080c062c61fd679aead88c225325e95", "lat": 38.89774116666667, "lon": -77.00890616666666, "rental_uris": {"android": "https://dc.lft.to/lastmile_qr_scan", "ios": "https://dc.lft.to/lastmile_qr_scan"}, "is_disabled": 0, "fusion_lat": 0.0, "name": "6080c062c61fd679aead88c225325e95", "fusion_lon": 0.0}, {"is_reserved": 0, "type": "electric_scooter", "bike_id": "9aec495dc82c15cd2611ce8fbe6eaa31", "lat": 38.949810666666664, "lon": -77.02018316666667, "rental_uris": {"android": "https://dc.lft.to/lastmile_qr_scan", "ios": "https://dc.lft.to/lastmile_qr_scan"}, "is_disabled": 0, "fusion_lat": 0.0, "name": "9aec495dc82c15cd2611ce8fbe6eaa31", "fusion_lon": 0.0}, {"is_reserved": 0, "type": "electric_scooter", "bike_id": "da1bf8a553bc5b5e313455eda23ba800", "lat": 38.90775, "lon": -76.99997866666666, "rental_uris": {"android": "https://dc.lft.to/lastmile_qr_scan", "ios": "https://dc.lft.to/lastmile_qr_scan"}, "is_disabled": 0, "fusion_lat": 0.0, "name": "da1bf8a553bc5b5e313455eda23ba800", "fusion_lon": 0.0}, {"is_reserved": 0, "type": "electric_scooter", "bike_id": "38ea16d13fce2d5d06a14ef54f7653ec", "lat": 38.9207485, "lon": -77.02501483333333, "rental_uris": {"android": "https://dc.lft.to/lastmile_qr_scan", "ios": "https://dc.lft.to/lastmile_qr_scan"}, "is_disabled": 0, "fusion_lat": 0.0, "name": "38ea16d13fce2d5d06a14ef54f7653ec", "fusion_lon": 0.0}, {"is_reserved": 0, "type": "electric_scooter", "bike_id": "fa05045978fb31da8c6aedf7cad8b309", "lat": 38.93536133333333, "lon": -77.02838466666667, "rental_uris": {"android": "https://dc.lft.to/lastmile_qr_scan", "ios": "https://dc.lft.to/lastmile_qr_scan"}, "is_disabled": 0, "fusion_lat": 0.0, "name": "fa05045978fb31da8c6aedf7cad8b309", "fusion_lon": 0.0}, {"is_reserved": 0, "type": "electric_scooter", "bike_id": "17e1b1a3ef8522a9259741aba3d4d6a0", "lat": 38.89923983333333, "lon": -77.03381566666667, "rental_uris": {"android": "https://dc.lft.to/lastmile_qr_scan", "ios": "https://dc.lft.to/lastmile_qr_scan"}, "is_disabled": 0, "fusion_lat": 0.0, "name": "17e1b1a3ef8522a9259741aba3d4d6a0", "fusion_lon": 0.0}, {"is_reserved": 0, "type": "electric_scooter", "bike_id": "eaf07530fb2fe3f25b622c056c74e502", "lat": 38.92324216666667, "lon": -77.04500733333333, "rental_uris": {"android": "https://dc.lft.to/lastmile_qr_scan", "ios": "https://dc.lft.to/lastmile_qr_scan"}, "is_disabled": 0, "fusion_lat": 0.0, "name": "eaf07530fb2fe3f25b622c056c74e502", "fusion_lon": 0.0}, {"is_reserved": 0, "type": "electric_scooter", "bike_id": "9c1f6a6d9758c9fc5185f8c6f997376d", "lat": 38.889209666666666, "lon": -76.99381933333333, "rental_uris": {"android": "https://dc.lft.to/lastmile_qr_scan", "ios": "https://dc.lft.to/lastmile_qr_scan"}, "is_disabled": 0, "fusion_lat": 0.0, "name": "9c1f6a6d9758c9fc5185f8c6f997376d", "fusion_lon": 0.0}, {"is_reserved": 0, "type": "electric_scooter", "bike_id": "afbb3273e114fcf6860d414b5aebe30e", "lat": 38.88203033333333, "lon": -77.00605266666666, "rental_uris": {"android": "https://dc.lft.to/lastmile_qr_scan", "ios": "https://dc.lft.to/lastmile_qr_scan"}, "is_disabled": 0, "fusion_lat": 0.0, "name": "afbb3273e114fcf6860d414b5aebe30e", "fusion_lon": 0.0}, {"is_reserved": 0, "type": "electric_scooter", "bike_id": "5ea3b5f1df5a880f1f2b27778bfe3e36", "lat": 38.9192055, "lon": -76.99854633333334, "rental_uris": {"android": "https://dc.lft.to/lastmile_qr_scan", "ios": "https://dc.lft.to/lastmile_qr_scan"}, "is_disabled": 0, "fusion_lat": 0.0, "name": "5ea3b5f1df5a880f1f2b27778bfe3e36", "fusion_lon": 0.0}, {"is_reserved": 0, "type": "electric_scooter", "bike_id": "9dcbc53fe465b67b5a849133f1f80ab1", "lat": 38.9206985, "lon": -77.0319755, "rental_uris": {"android": "https://dc.lft.to/lastmile_qr_scan", "ios": "https://dc.lft.to/lastmile_qr_scan"}, "is_disabled": 0, "fusion_lat": 0.0, "name": "9dcbc53fe465b67b5a849133f1f80ab1", "fusion_lon": 0.0}, {"is_reserved": 0, "type": "electric_scooter", "bike_id": "3a9901ff1ae009fa4ac3d5af026fba9f", "lat": 38.900222166666666, "lon": -77.04087683333333, "rental_uris": {"android": "https://dc.lft.to/lastmile_qr_scan", "ios": "https://dc.lft.to/lastmile_qr_scan"}, "is_disabled": 0, "fusion_lat": 0.0, "name": "3a9901ff1ae009fa4ac3d5af026fba9f", "fusion_lon": 0.0}, {"is_reserved": 0, "type": "electric_scooter", "bike_id": "0121dd5f538bbb3514c81758cf89c02c", "lat": 38.921179, "lon": -77.039246, "rental_uris": {"android": "https://dc.lft.to/lastmile_qr_scan", "ios": "https://dc.lft.to/lastmile_qr_scan"}, "is_disabled": 0, "fusion_lat": 0.0, "name": "0121dd5f538bbb3514c81758cf89c02c", "fusion_lon": 0.0}, {"is_reserved": 0, "type": "electric_bike", "bike_id": "0c51eb376f379fa68ad9b1b135dca708", "lat": 38.9320945, "lon": -77.0224885, "rental_uris": {"android": "https://dc.lft.to/lastmile_qr_scan", "ios": "https://dc.lft.to/lastmile_qr_scan"}, "is_disabled": 0, "fusion_lat": 0.0, "name": "0c51eb376f379fa68ad9b1b135dca708", "fusion_lon": 0.0}, {"is_reserved": 0, "type": "electric_scooter", "bike_id": "a873c61a12eaca99ca312277ace14cbc", "lat": 38.896556833333335, "lon": -77.0330205, "rental_uris": {"android": "https://dc.lft.to/lastmile_qr_scan", "ios": "https://dc.lft.to/lastmile_qr_scan"}, "is_disabled": 0, "fusion_lat": 0.0, "name": "a873c61a12eaca99ca312277ace14cbc", "fusion_lon": 0.0}, {"is_reserved": 0, "type": "electric_scooter", "bike_id": "1687e316d582b8135ce58f300b3d84f0", "lat": 38.959609, "lon": -77.07262033333333, "rental_uris": {"android": "https://dc.lft.to/lastmile_qr_scan", "ios": "https://dc.lft.to/lastmile_qr_scan"}, "is_disabled": 0, "fusion_lat": 0.0, "name": "1687e316d582b8135ce58f300b3d84f0", "fusion_lon": 0.0}, {"is_reserved": 0, "type": "electric_scooter", "bike_id": "f4c7b10eac95fb59a10c10844eee0ae4", "lat": 38.93405333333333, "lon": -77.04120933333333, "rental_uris": {"android": "https://dc.lft.to/lastmile_qr_scan", "ios": "https://dc.lft.to/lastmile_qr_scan"}, "is_disabled": 0, "fusion_lat": 0.0, "name": "f4c7b10eac95fb59a10c10844eee0ae4", "fusion_lon": 0.0}, {"is_reserved": 0, "type": "electric_scooter", "bike_id": "9315d507c8d7584642cb8e885b98ddf4", "lat": 38.89859766666667, "lon": -76.9775995, "rental_uris": {"android": "https://dc.lft.to/lastmile_qr_scan", "ios": "https://dc.lft.to/lastmile_qr_scan"}, "is_disabled": 0, "fusion_lat": 0.0, "name": "9315d507c8d7584642cb8e885b98ddf4", "fusion_lon": 0.0}, {"is_reserved": 0, "type": "electric_scooter", "bike_id": "895e148ecc246cf80f047ebe8414331a", "lat": 38.885166166666664, "lon": -77.01755883333334, "rental_uris": {"android": "https://dc.lft.to/lastmile_qr_scan", "ios": "https://dc.lft.to/lastmile_qr_scan"}, "is_disabled": 0, "fusion_lat": 0.0, "name": "895e148ecc246cf80f047ebe8414331a", "fusion_lon": 0.0}, {"is_reserved": 0, "type": "electric_bike", "bike_id": "4846c368e63838d084d3a281e75a5e86", "lat": 38.94313183333333, "lon": -76.990114, "rental_uris": {"android": "https://dc.lft.to/lastmile_qr_scan", "ios": "https://dc.lft.to/lastmile_qr_scan"}, "is_disabled": 0, "fusion_lat": 0.0, "name": "4846c368e63838d084d3a281e75a5e86", "fusion_lon": 0.0}, {"is_reserved": 0, "type": "electric_scooter", "bike_id": "79b4debafed6d9fcc1ce6f84aac14622", "lat": 38.90398883333334, "lon": -76.98937933333333, "rental_uris": {"android": "https://dc.lft.to/lastmile_qr_scan", "ios": "https://dc.lft.to/lastmile_qr_scan"}, "is_disabled": 0, "fusion_lat": 0.0, "name": "79b4debafed6d9fcc1ce6f84aac14622", "fusion_lon": 0.0}, {"is_reserved": 0, "type": "electric_bike", "bike_id": "5dba2aaa246358c4c6830e01433a07b1", "lat": 38.85784816666666, "lon": -76.987551, "rental_uris": {"android": "https://dc.lft.to/lastmile_qr_scan", "ios": "https://dc.lft.to/lastmile_qr_scan"}, "is_disabled": 0, "fusion_lat": 0.0, "name": "5dba2aaa246358c4c6830e01433a07b1", "fusion_lon": 0.0}, {"is_reserved": 0, "type": "electric_scooter", "bike_id": "a8b719fde7dd87a7b1b74b35c478d154", "lat": 38.90011483333333, "lon": -77.01879083333333, "rental_uris": {"android": "https://dc.lft.to/lastmile_qr_scan", "ios": "https://dc.lft.to/lastmile_qr_scan"}, "is_disabled": 0, "fusion_lat": 0.0, "name": "a8b719fde7dd87a7b1b74b35c478d154", "fusion_lon": 0.0}, {"is_reserved": 0, "type": "electric_bike", "bike_id": "c7508149d637741e341f4767d7a1332a", "lat": 38.87209133333333, "lon": -77.1173905, "rental_uris": {"android": "https://dc.lft.to/lastmile_qr_scan", "ios": "https://dc.lft.to/lastmile_qr_scan"}, "is_disabled": 0, "fusion_lat": 0.0, "name": "c7508149d637741e341f4767d7a1332a", "fusion_lon": 0.0}, {"is_reserved": 0, "type": "electric_bike", "bike_id": "7c1b8150d0e6c72903f065a4294113b1", "lat": 38.864625, "lon": -76.977518, "rental_uris": {"android": "https://dc.lft.to/lastmile_qr_scan", "ios": "https://dc.lft.to/lastmile_qr_scan"}, "is_disabled": 0, "fusion_lat": 0.0, "name": "7c1b8150d0e6c72903f065a4294113b1", "fusion_lon": 0.0}, {"is_reserved": 0, "type": "electric_scooter", "bike_id": "72acb070324b3096d6723e208401ad01", "lat": 38.884286333333336, "lon": -76.99596033333333, "rental_uris": {"android": "https://dc.lft.to/lastmile_qr_scan", "ios": "https://dc.lft.to/lastmile_qr_scan"}, "is_disabled": 0, "fusion_lat": 0.0, "name": "72acb070324b3096d6723e208401ad01", "fusion_lon": 0.0}, {"is_reserved": 0, "type": "electric_scooter", "bike_id": "9497b00ed24fc797891999b79f4c4e1d", "lat": 38.90591233333333, "lon": -77.03630066666666, "rental_uris": {"android": "https://dc.lft.to/lastmile_qr_scan", "ios": "https://dc.lft.to/lastmile_qr_scan"}, "is_disabled": 0, "fusion_lat": 0.0, "name": "9497b00ed24fc797891999b79f4c4e1d", "fusion_lon": 0.0}, {"is_reserved": 0, "type": "electric_scooter", "bike_id": "69205eb315906b72dbb8f32bde371d54", "lat": 38.94696733333333, "lon": -77.022463, "rental_uris": {"android": "https://dc.lft.to/lastmile_qr_scan", "ios": "https://dc.lft.to/lastmile_qr_scan"}, "is_disabled": 0, "fusion_lat": 0.0, "name": "69205eb315906b72dbb8f32bde371d54", "fusion_lon": 0.0}, {"is_reserved": 0, "type": "electric_scooter", "bike_id": "4bc89559c8912610ecc86be3f3f7d1c7", "lat": 38.943271333333335, "lon": -77.01257466666667, "rental_uris": {"android": "https://dc.lft.to/lastmile_qr_scan", "ios": "https://dc.lft.to/lastmile_qr_scan"}, "is_disabled": 0, "fusion_lat": 0.0, "name": "4bc89559c8912610ecc86be3f3f7d1c7", "fusion_lon": 0.0}, {"is_reserved": 0, "type": "electric_scooter", "bike_id": "9d99a1b2ae7ad5ae29fd37a9cbf37bd0", "lat": 38.928527, "lon": -77.054251, "rental_uris": {"android": "https://dc.lft.to/lastmile_qr_scan", "ios": "https://dc.lft.to/lastmile_qr_scan"}, "is_disabled": 0, "fusion_lat": 0.0, "name": "9d99a1b2ae7ad5ae29fd37a9cbf37bd0", "fusion_lon": 0.0}, {"is_reserved": 0, "type": "electric_scooter", "bike_id": "a229cc1f0e6c657df1b9bd3770d2aa3c", "lat": 38.92637366666666, "lon": -77.04250616666667, "rental_uris": {"android": "https://dc.lft.to/lastmile_qr_scan", "ios": "https://dc.lft.to/lastmile_qr_scan"}, "is_disabled": 0, "fusion_lat": 0.0, "name": "a229cc1f0e6c657df1b9bd3770d2aa3c", "fusion_lon": 0.0}, {"is_reserved": 0, "type": "electric_scooter", "bike_id": "c1c1a4a09ef04e42b58d51b067fe840a", "lat": 38.89534483333333, "lon": -76.978884, "rental_uris": {"android": "https://dc.lft.to/lastmile_qr_scan", "ios": "https://dc.lft.to/lastmile_qr_scan"}, "is_disabled": 0, "fusion_lat": 0.0, "name": "c1c1a4a09ef04e42b58d51b067fe840a", "fusion_lon": 0.0}, {"is_reserved": 0, "type": "electric_scooter", "bike_id": "621c09980c084e15e9ebaac8f03d1061", "lat": 38.9168085, "lon": -77.029454, "rental_uris": {"android": "https://dc.lft.to/lastmile_qr_scan", "ios": "https://dc.lft.to/lastmile_qr_scan"}, "is_disabled": 0, "fusion_lat": 0.0, "name": "621c09980c084e15e9ebaac8f03d1061", "fusion_lon": 0.0}, {"is_reserved": 0, "type": "electric_scooter", "bike_id": "6b481ff63a627266ce1f320e68a7823c", "lat": 38.930447666666666, "lon": -77.05539616666667, "rental_uris": {"android": "https://dc.lft.to/lastmile_qr_scan", "ios": "https://dc.lft.to/lastmile_qr_scan"}, "is_disabled": 0, "fusion_lat": 0.0, "name": "6b481ff63a627266ce1f320e68a7823c", "fusion_lon": 0.0}, {"is_reserved": 0, "type": "electric_scooter", "bike_id": "7866e8cec7b11636c0f7f72276df6e54", "lat": 38.9216215, "lon": -77.04215733333334, "rental_uris": {"android": "https://dc.lft.to/lastmile_qr_scan", "ios": "https://dc.lft.to/lastmile_qr_scan"}, "is_disabled": 0, "fusion_lat": 0.0, "name": "7866e8cec7b11636c0f7f72276df6e54", "fusion_lon": 0.0}, {"is_reserved": 0, "type": "electric_scooter", "bike_id": "33d6a42d7fb6958603fa2aef49e69c98", "lat": 38.909052833333334, "lon": -76.99618933333333, "rental_uris": {"android": "https://dc.lft.to/lastmile_qr_scan", "ios": "https://dc.lft.to/lastmile_qr_scan"}, "is_disabled": 0, "fusion_lat": 0.0, "name": "33d6a42d7fb6958603fa2aef49e69c98", "fusion_lon": 0.0}, {"is_reserved": 0, "type": "electric_scooter", "bike_id": "b1bb833233bb45adafb89f03ef0354db", "lat": 38.9524485, "lon": -77.00915633333334, "rental_uris": {"android": "https://dc.lft.to/lastmile_qr_scan", "ios": "https://dc.lft.to/lastmile_qr_scan"}, "is_disabled": 0, "fusion_lat": 0.0, "name": "b1bb833233bb45adafb89f03ef0354db", "fusion_lon": 0.0}, {"is_reserved": 0, "type": "electric_scooter", "bike_id": "ae92b818eb4707f8a24789a63a7e7b96", "lat": 38.920983666666665, "lon": -77.04696066666666, "rental_uris": {"android": "https://dc.lft.to/lastmile_qr_scan", "ios": "https://dc.lft.to/lastmile_qr_scan"}, "is_disabled": 0, "fusion_lat": 0.0, "name": "ae92b818eb4707f8a24789a63a7e7b96", "fusion_lon": 0.0}, {"is_reserved": 0, "type": "electric_scooter", "bike_id": "a1373c4a4427f42ec7dc215f87e7d646", "lat": 38.902435, "lon": -77.03479483333334, "rental_uris": {"android": "https://dc.lft.to/lastmile_qr_scan", "ios": "https://dc.lft.to/lastmile_qr_scan"}, "is_disabled": 0, "fusion_lat": 0.0, "name": "a1373c4a4427f42ec7dc215f87e7d646", "fusion_lon": 0.0}, {"is_reserved": 0, "type": "electric_scooter", "bike_id": "6f19766343c2ff34450f4d47e80e775e", "lat": 38.920254, "lon": -77.03966283333334, "rental_uris": {"android": "https://dc.lft.to/lastmile_qr_scan", "ios": "https://dc.lft.to/lastmile_qr_scan"}, "is_disabled": 0, "fusion_lat": 0.0, "name": "6f19766343c2ff34450f4d47e80e775e", "fusion_lon": 0.0}, {"is_reserved": 0, "type": "electric_scooter", "bike_id": "419ddd61cd4c79f5fc5edd78585d60fe", "lat": 38.90719716666667, "lon": -77.04611783333333, "rental_uris": {"android": "https://dc.lft.to/lastmile_qr_scan", "ios": "https://dc.lft.to/lastmile_qr_scan"}, "is_disabled": 0, "fusion_lat": 0.0, "name": "419ddd61cd4c79f5fc5edd78585d60fe", "fusion_lon": 0.0}, {"is_reserved": 0, "type": "electric_scooter", "bike_id": "83fae093a975fe3663a17f8725112ecc", "lat": 38.85454683333333, "lon": -76.97230416666666, "rental_uris": {"android": "https://dc.lft.to/lastmile_qr_scan", "ios": "https://dc.lft.to/lastmile_qr_scan"}, "is_disabled": 0, "fusion_lat": 0.0, "name": "83fae093a975fe3663a17f8725112ecc", "fusion_lon": 0.0}, {"is_reserved": 0, "type": "electric_scooter", "bike_id": "b50ed303e65a3080d198b09a9c144642", "lat": 38.92754883333333, "lon": -77.0230685, "rental_uris": {"android": "https://dc.lft.to/lastmile_qr_scan", "ios": "https://dc.lft.to/lastmile_qr_scan"}, "is_disabled": 0, "fusion_lat": 0.0, "name": "b50ed303e65a3080d198b09a9c144642", "fusion_lon": 0.0}, {"is_reserved": 0, "type": "electric_scooter", "bike_id": "3ba3d7aa383d173d8c0ad25701b7a588", "lat": 38.908247, "lon": -77.00091083333334, "rental_uris": {"android": "https://dc.lft.to/lastmile_qr_scan", "ios": "https://dc.lft.to/lastmile_qr_scan"}, "is_disabled": 0, "fusion_lat": 0.0, "name": "3ba3d7aa383d173d8c0ad25701b7a588", "fusion_lon": 0.0}, {"is_reserved": 0, "type": "electric_scooter", "bike_id": "32f54fbd4269312dfa1733ce4f02db9d", "lat": 38.921602, "lon": -77.0338595, "rental_uris": {"android": "https://dc.lft.to/lastmile_qr_scan", "ios": "https://dc.lft.to/lastmile_qr_scan"}, "is_disabled": 0, "fusion_lat": 0.0, "name": "32f54fbd4269312dfa1733ce4f02db9d", "fusion_lon": 0.0}, {"is_reserved": 0, "type": "electric_scooter", "bike_id": "a290b674d0b1e131bae5a94cf234b5d0", "lat": 38.90147916666667, "lon": -77.05123783333333, "rental_uris": {"android": "https://dc.lft.to/lastmile_qr_scan", "ios": "https://dc.lft.to/lastmile_qr_scan"}, "is_disabled": 0, "fusion_lat": 0.0, "name": "a290b674d0b1e131bae5a94cf234b5d0", "fusion_lon": 0.0}, {"is_reserved": 0, "type": "electric_scooter", "bike_id": "1bc2064aae7500969a29318a1a491a66", "lat": 38.90625383333333, "lon": -77.03438266666667, "rental_uris": {"android": "https://dc.lft.to/lastmile_qr_scan", "ios": "https://dc.lft.to/lastmile_qr_scan"}, "is_disabled": 0, "fusion_lat": 0.0, "name": "1bc2064aae7500969a29318a1a491a66", "fusion_lon": 0.0}, {"is_reserved": 0, "type": "electric_scooter", "bike_id": "d6339eb6fbca16abe4b596b8b423aaec", "lat": 38.8974095, "lon": -77.02058333333333, "rental_uris": {"android": "https://dc.lft.to/lastmile_qr_scan", "ios": "https://dc.lft.to/lastmile_qr_scan"}, "is_disabled": 0, "fusion_lat": 0.0, "name": "d6339eb6fbca16abe4b596b8b423aaec", "fusion_lon": 0.0}, {"is_reserved": 0, "type": "electric_scooter", "bike_id": "625aa3b64151713465f87a17ca434dda", "lat": 38.90399516666667, "lon": -77.02740516666667, "rental_uris": {"android": "https://dc.lft.to/lastmile_qr_scan", "ios": "https://dc.lft.to/lastmile_qr_scan"}, "is_disabled": 0, "fusion_lat": 0.0, "name": "625aa3b64151713465f87a17ca434dda", "fusion_lon": 0.0}, {"is_reserved": 0, "type": "electric_bike", "bike_id": "0973c57c01fc96fa7ff3b5185c15be8e", "lat": 38.88934066666667, "lon": -76.91327866666667, "rental_uris": {"android": "https://dc.lft.to/lastmile_qr_scan", "ios": "https://dc.lft.to/lastmile_qr_scan"}, "is_disabled": 0, "fusion_lat": 0.0, "name": "0973c57c01fc96fa7ff3b5185c15be8e", "fusion_lon": 0.0}, {"is_reserved": 0, "type": "electric_scooter", "bike_id": "50f35e7f4cba361b6c5af42e1e407425", "lat": 38.87476316666667, "lon": -77.00335833333334, "rental_uris": {"android": "https://dc.lft.to/lastmile_qr_scan", "ios": "https://dc.lft.to/lastmile_qr_scan"}, "is_disabled": 0, "fusion_lat": 0.0, "name": "50f35e7f4cba361b6c5af42e1e407425", "fusion_lon": 0.0}, {"is_reserved": 0, "type": "electric_scooter", "bike_id": "85fd3354df2b414f5d7825d4dd7e9bab", "lat": 38.90005883333333, "lon": -77.02709733333333, "rental_uris": {"android": "https://dc.lft.to/lastmile_qr_scan", "ios": "https://dc.lft.to/lastmile_qr_scan"}, "is_disabled": 0, "fusion_lat": 0.0, "name": "85fd3354df2b414f5d7825d4dd7e9bab", "fusion_lon": 0.0}, {"is_reserved": 0, "type": "electric_scooter", "bike_id": "be2978efbca771a0b6ab38656c6ab83a", "lat": 38.89745166666667, "lon": -77.044191, "rental_uris": {"android": "https://dc.lft.to/lastmile_qr_scan", "ios": "https://dc.lft.to/lastmile_qr_scan"}, "is_disabled": 0, "fusion_lat": 0.0, "name": "be2978efbca771a0b6ab38656c6ab83a", "fusion_lon": 0.0}, {"is_reserved": 0, "type": "electric_scooter", "bike_id": "6aa20ef253bf0b2d5ad5cbbed4e99e0e", "lat": 38.91583333333333, "lon": -77.01235966666667, "rental_uris": {"android": "https://dc.lft.to/lastmile_qr_scan", "ios": "https://dc.lft.to/lastmile_qr_scan"}, "is_disabled": 0, "fusion_lat": 0.0, "name": "6aa20ef253bf0b2d5ad5cbbed4e99e0e", "fusion_lon": 0.0}, {"is_reserved": 0, "type": "electric_scooter", "bike_id": "444f808914f283055dc987747d31adc8", "lat": 38.917740333333334, "lon": -77.02306866666666, "rental_uris": {"android": "https://dc.lft.to/lastmile_qr_scan", "ios": "https://dc.lft.to/lastmile_qr_scan"}, "is_disabled": 0, "fusion_lat": 0.0, "name": "444f808914f283055dc987747d31adc8", "fusion_lon": 0.0}, {"is_reserved": 0, "type": "electric_scooter", "bike_id": "6e375f8792a5890d7e1fe5376131b487", "lat": 38.904231333333335, "lon": -77.02637533333333, "rental_uris": {"android": "https://dc.lft.to/lastmile_qr_scan", "ios": "https://dc.lft.to/lastmile_qr_scan"}, "is_disabled": 0, "fusion_lat": 0.0, "name": "6e375f8792a5890d7e1fe5376131b487", "fusion_lon": 0.0}, {"is_reserved": 0, "type": "electric_bike", "bike_id": "a4bb2f26dd2af5febc1581629391c35c", "lat": 38.9993765, "lon": -77.0513525, "rental_uris": {"android": "https://dc.lft.to/lastmile_qr_scan", "ios": "https://dc.lft.to/lastmile_qr_scan"}, "is_disabled": 0, "fusion_lat": 0.0, "name": "a4bb2f26dd2af5febc1581629391c35c", "fusion_lon": 0.0}, {"is_reserved": 0, "type": "electric_scooter", "bike_id": "e89cd973875cd37519c6022f2cf86a1b", "lat": 38.900393, "lon": -76.9915515, "rental_uris": {"android": "https://dc.lft.to/lastmile_qr_scan", "ios": "https://dc.lft.to/lastmile_qr_scan"}, "is_disabled": 0, "fusion_lat": 0.0, "name": "e89cd973875cd37519c6022f2cf86a1b", "fusion_lon": 0.0}, {"is_reserved": 0, "type": "electric_scooter", "bike_id": "9c5684d8a0714681f9701b0aeffba5cc", "lat": 38.923453333333335, "lon": -77.019032, "rental_uris": {"android": "https://dc.lft.to/lastmile_qr_scan", "ios": "https://dc.lft.to/lastmile_qr_scan"}, "is_disabled": 0, "fusion_lat": 0.0, "name": "9c5684d8a0714681f9701b0aeffba5cc", "fusion_lon": 0.0}, {"is_reserved": 0, "type": "electric_scooter", "bike_id": "d60d6870d451c551b08d84e3fa3682ee", "lat": 38.89846566666667, "lon": -77.01296066666667, "rental_uris": {"android": "https://dc.lft.to/lastmile_qr_scan", "ios": "https://dc.lft.to/lastmile_qr_scan"}, "is_disabled": 0, "fusion_lat": 0.0, "name": "d60d6870d451c551b08d84e3fa3682ee", "fusion_lon": 0.0}, {"is_reserved": 0, "type": "electric_bike", "bike_id": "8e0fc494da9a41e73ff628ddc30a5361", "lat": 38.9727035, "lon": -77.14966683333333, "rental_uris": {"android": "https://dc.lft.to/lastmile_qr_scan", "ios": "https://dc.lft.to/lastmile_qr_scan"}, "is_disabled": 0, "fusion_lat": 0.0, "name": "8e0fc494da9a41e73ff628ddc30a5361", "fusion_lon": 0.0}, {"is_reserved": 0, "type": "electric_scooter", "bike_id": "2e86b6d19f926b72f1931cbd71d2e493", "lat": 38.907233166666664, "lon": -77.03877, "rental_uris": {"android": "https://dc.lft.to/lastmile_qr_scan", "ios": "https://dc.lft.to/lastmile_qr_scan"}, "is_disabled": 0, "fusion_lat": 0.0, "name": "2e86b6d19f926b72f1931cbd71d2e493", "fusion_lon": 0.0}, {"is_reserved": 0, "type": "electric_scooter", "bike_id": "fb442d1b1eb617e6e6bc3524dd7b580d", "lat": 38.91889583333333, "lon": -77.03455083333333, "rental_uris": {"android": "https://dc.lft.to/lastmile_qr_scan", "ios": "https://dc.lft.to/lastmile_qr_scan"}, "is_disabled": 0, "fusion_lat": 0.0, "name": "fb442d1b1eb617e6e6bc3524dd7b580d", "fusion_lon": 0.0}, {"is_reserved": 0, "type": "electric_scooter", "bike_id": "7b58513fee2409d7ff484ec6d7d0c467", "lat": 38.9062875, "lon": -77.04343616666667, "rental_uris": {"android": "https://dc.lft.to/lastmile_qr_scan", "ios": "https://dc.lft.to/lastmile_qr_scan"}, "is_disabled": 0, "fusion_lat": 0.0, "name": "7b58513fee2409d7ff484ec6d7d0c467", "fusion_lon": 0.0}, {"is_reserved": 0, "type": "electric_scooter", "bike_id": "c73e0c2a9ccadc4e96e7fa8db05d0943", "lat": 38.921095, "lon": -77.03188366666667, "rental_uris": {"android": "https://dc.lft.to/lastmile_qr_scan", "ios": "https://dc.lft.to/lastmile_qr_scan"}, "is_disabled": 0, "fusion_lat": 0.0, "name": "c73e0c2a9ccadc4e96e7fa8db05d0943", "fusion_lon": 0.0}, {"is_reserved": 0, "type": "electric_bike", "bike_id": "6f0a9c96618981672f743063f06c29e1", "lat": 38.8056355, "lon": -77.1322825, "rental_uris": {"android": "https://dc.lft.to/lastmile_qr_scan", "ios": "https://dc.lft.to/lastmile_qr_scan"}, "is_disabled": 0, "fusion_lat": 0.0, "name": "6f0a9c96618981672f743063f06c29e1", "fusion_lon": 0.0}, {"is_reserved": 0, "type": "electric_scooter", "bike_id": "875801bec2a30817b19a5b9d14902883", "lat": 38.9141735, "lon": -77.0221325, "rental_uris": {"android": "https://dc.lft.to/lastmile_qr_scan", "ios": "https://dc.lft.to/lastmile_qr_scan"}, "is_disabled": 0, "fusion_lat": 0.0, "name": "875801bec2a30817b19a5b9d14902883", "fusion_lon": 0.0}, {"is_reserved": 0, "type": "electric_scooter", "bike_id": "71d7cff14e7abcd4ba945300c13ba8ce", "lat": 38.90241, "lon": -77.019778, "rental_uris": {"android": "https://dc.lft.to/lastmile_qr_scan", "ios": "https://dc.lft.to/lastmile_qr_scan"}, "is_disabled": 0, "fusion_lat": 0.0, "name": "71d7cff14e7abcd4ba945300c13ba8ce", "fusion_lon": 0.0}, {"is_reserved": 0, "type": "electric_bike", "bike_id": "5b6d98d6dd76d57815211cf77510556c", "lat": 38.987133166666666, "lon": -76.94587266666667, "rental_uris": {"android": "https://dc.lft.to/lastmile_qr_scan", "ios": "https://dc.lft.to/lastmile_qr_scan"}, "is_disabled": 0, "fusion_lat": 0.0, "name": "5b6d98d6dd76d57815211cf77510556c", "fusion_lon": 0.0}, {"is_reserved": 0, "type": "electric_scooter", "bike_id": "f648d6ec0f32408bd0c3a761fe4ae1d4", "lat": 38.8954465, "lon": -76.983367, "rental_uris": {"android": "https://dc.lft.to/lastmile_qr_scan", "ios": "https://dc.lft.to/lastmile_qr_scan"}, "is_disabled": 0, "fusion_lat": 0.0, "name": "f648d6ec0f32408bd0c3a761fe4ae1d4", "fusion_lon": 0.0}, {"is_reserved": 0, "type": "electric_scooter", "bike_id": "807cdd0ccca8a75681f349b1d41b6066", "lat": 38.88655266666667, "lon": -76.99608533333334, "rental_uris": {"android": "https://dc.lft.to/lastmile_qr_scan", "ios": "https://dc.lft.to/lastmile_qr_scan"}, "is_disabled": 0, "fusion_lat": 0.0, "name": "807cdd0ccca8a75681f349b1d41b6066", "fusion_lon": 0.0}, {"is_reserved": 0, "type": "electric_scooter", "bike_id": "638bddf8340984974039c3217e138baf", "lat": 38.9286335, "lon": -77.03710433333333, "rental_uris": {"android": "https://dc.lft.to/lastmile_qr_scan", "ios": "https://dc.lft.to/lastmile_qr_scan"}, "is_disabled": 0, "fusion_lat": 0.0, "name": "638bddf8340984974039c3217e138baf", "fusion_lon": 0.0}, {"is_reserved": 0, "type": "electric_scooter", "bike_id": "17bfe883800da31977440e1906c888b4", "lat": 38.93604716666667, "lon": -77.0816465, "rental_uris": {"android": "https://dc.lft.to/lastmile_qr_scan", "ios": "https://dc.lft.to/lastmile_qr_scan"}, "is_disabled": 0, "fusion_lat": 0.0, "name": "17bfe883800da31977440e1906c888b4", "fusion_lon": 0.0},