{"data": {"bikes": [{"rental_uris": {"android": "https://dc.lft.to/lastmile_qr_scan", "ios": "https://dc.lft.to/lastmile_qr_scan"}, "lon": -77.000638, "name": "d487116a65915502753d39a89f1de857", "lat": 38.874369333333334, "is_reserved": 0, "fusion_lat": 0.0, "bike_id": "d487116a65915502753d39a89f1de857", "type": "electric_scooter", "is_disabled": 0, "fusion_lon": 0.0}, {"rental_uris": {"android": "https://dc.lft.to/lastmile_qr_scan", "ios": "https://dc.lft.to/lastmile_qr_scan"}, "lon": -77.025826, "name": "6d2164ca35538667299e79d2ddd75e0a", "lat": 38.88736683333333, "is_reserved": 0, "fusion_lat": 0.0, "bike_id": "6d2164ca35538667299e79d2ddd75e0a", "type": "electric_scooter", "is_disabled": 0, "fusion_lon": 0.0}, {"rental_uris": {"android": "https://dc.lft.to/lastmile_qr_scan", "ios": "https://dc.lft.to/lastmile_qr_scan"}, "lon": -77.0136055, "name": "59ddcd9c8c57aad8a4f30be538deee3b", "lat": 38.91947916666667, "is_reserved": 0, "fusion_lat": 0.0, "bike_id": "59ddcd9c8c57aad8a4f30be538deee3b", "type": "electric_scooter", "is_disabled": 0, "fusion_lon": 0.0}, {"rental_uris": {"android": "https://dc.lft.to/lastmile_qr_scan", "ios": "https://dc.lft.to/lastmile_qr_scan"}, "lon": -76.984339, "name": "87607a04549ca5cc84bb42e74ad98abc", "lat": 38.90585816666667, "is_reserved": 0, "fusion_lat": 0.0, "bike_id": "87607a04549ca5cc84bb42e74ad98abc", "type": "electric_scooter", "is_disabled": 0, "fusion_lon": 0.0}, {"rental_uris": {"android": "https://dc.lft.to/lastmile_qr_scan", "ios": "https://dc.lft.to/lastmile_qr_scan"}, "lon": -76.9973455, "name": "ff3f97068f70761e3b62645e9e7ed575", "lat": 39.042344166666666, "is_reserved": 0, "fusion_lat": 0.0, "bike_id": "ff3f97068f70761e3b62645e9e7ed575", "type": "electric_bike", "is_disabled": 0, "fusion_lon": 0.0}, {"rental_uris": {"android": "https://dc.lft.to/lastmile_qr_scan", "ios": "https://dc.lft.to/lastmile_qr_scan"}, "lon": -77.03805183333333, "name": "960650ebd1a1d57ba3ae0e72a317d28c", "lat": 38.92501933333333, "is_reserved": 0, "fusion_lat": 0.0, "bike_id": "960650ebd1a1d57ba3ae0e72a317d28c", "type": "electric_scooter", "is_disabled": 0, "fusion_lon": 0.0}, {"rental_uris": {"android": "https://dc.lft.to/lastmile_qr_scan", "ios": "https://dc.lft.to/lastmile_qr_scan"}, "lon": -77.05672416666667, "name": "ab97eb52fe4759cf7807e9074ca855ca", "lat": 38.904893666666666, "is_reserved": 0, "fusion_lat": 0.0, "bike_id": "ab97eb52fe4759cf7807e9074ca855ca", "type": "electric_scooter", "is_disabled": 0, "fusion_lon": 0.0}, {"rental_uris": {"android": "https://dc.lft.to/lastmile_qr_scan", "ios": "https://dc.lft.to/lastmile_qr_scan"}, "lon": -77.0059445, "name": "e7e4d8d660c692f7dcd473d7c7820f44", "lat": 38.87785816666667, "is_reserved": 0, "fusion_lat": 0.0, "bike_id": "e7e4d8d660c692f7dcd473d7c7820f44", "type": "electric_scooter", "is_disabled": 0, "fusion_lon": 0.0}, {"rental_uris": {"android": "https://dc.lft.to/lastmile_qr_scan", "ios": "https://dc.lft.to/lastmile_qr_scan"}, "lon": -76.97340616666666, "name": "b19638514db5495a569f728c11a8fed3", "lat": 38.86508933333333, "is_reserved": 0, "fusion_lat": 0.0, "bike_id": "b19638514db5495a569f728c11a8fed3", "type": "electric_scooter", "is_disabled": 0, "fusion_lon": 0.0}, {"rental_uris": {"android": "https://dc.lft.to/lastmile_qr_scan", "ios": "https://dc.lft.to/lastmile_qr_scan"}, "lon": -77.04249783333333, "name": "74cbfa63d8e0485a2e31a6dd56161a1f", "lat": 38.92435583333334, "is_reserved": 0, "fusion_lat": 0.0, "bike_id": "74cbfa63d8e0485a2e31a6dd56161a1f", "type": "electric_scooter", "is_disabled": 0, "fusion_lon": 0.0}, {"rental_uris": {"android": "https://dc.lft.to/lastmile_qr_scan", "ios": "https://dc.lft.to/lastmile_qr_scan"}, "lon": -77.03126366666666, "name": "6504f0a6543fca6963895ec78776a8ab", "lat": 38.9051945, "is_reserved": 0, "fusion_lat": 0.0, "bike_id": "6504f0a6543fca6963895ec78776a8ab", "type": "electric_scooter", "is_disabled": 0, "fusion_lon": 0.0}, {"rental_uris": {"android": "https://dc.lft.to/lastmile_qr_scan", "ios": "https://dc.lft.to/lastmile_qr_scan"}, "lon": -77.02580433333334, "name": "bdcb1e2622de98ba372dd5cd94ac0606", "lat": 38.887341666666664, "is_reserved": 0, "fusion_lat": 0.0, "bike_id": "bdcb1e2622de98ba372dd5cd94ac0606", "type": "electric_scooter", "is_disabled": 0, "fusion_lon": 0.0}, {"rental_uris": {"android": "https://dc.lft.to/lastmile_qr_scan", "ios": "https://dc.lft.to/lastmile_qr_scan"}, "lon": -77.00302833333333, "name": "0d2a0014f431f2913c665f1397ae8990", "lat": 38.92031983333333, "is_reserved": 0, "fusion_lat": 0.0, "bike_id": "0d2a0014f431f2913c665f1397ae8990", "type": "electric_scooter", "is_disabled": 0, "fusion_lon": 0.0}, {"rental_uris": {"android": "https://dc.lft.to/lastmile_qr_scan", "ios": "https://dc.lft.to/lastmile_qr_scan"}, "lon": -77.02499816666666, "name": "b457cf14186d8fdb55d2aa0146527d66", "lat": 38.91958983333333, "is_reserved": 0, "fusion_lat": 0.0, "bike_id": "b457cf14186d8fdb55d2aa0146527d66", "type": "electric_scooter", "is_disabled": 0, "fusion_lon": 0.0}, {"rental_uris": {"android": "https://dc.lft.to/lastmile_qr_scan", "ios": "https://dc.lft.to/lastmile_qr_scan"}, "lon": -76.986979, "name": "604220ac6285924e2153f06817926756", "lat": 38.86721516666667, "is_reserved": 0, "fusion_lat": 0.0, "bike_id": "604220ac6285924e2153f06817926756", "type": "electric_scooter", "is_disabled": 0, "fusion_lon": 0.0}, {"rental_uris": {"android": "https://dc.lft.to/lastmile_qr_scan", "ios": "https://dc.lft.to/lastmile_qr_scan"}, "lon": -77.14058216666666, "name": "30666bf7ab6d167b7a0b2177de9bd9d9", "lat": 38.98770533333333, "is_reserved": 0, "fusion_lat": 0.0, "bike_id": "30666bf7ab6d167b7a0b2177de9bd9d9", "type": "electric_bike", "is_disabled": 0, "fusion_lon": 0.0}, {"rental_uris": {"android": "https://dc.lft.to/lastmile_qr_scan", "ios": "https://dc.lft.to/lastmile_qr_scan"}, "lon": -77.007135, "name": "d994f38b9966bcebb1487f472c6f8f08", "lat": 38.8848715, "is_reserved": 0, "fusion_lat": 0.0, "bike_id": "d994f38b9966bcebb1487f472c6f8f08", "type": "electric_scooter", "is_disabled": 0, "fusion_lon": 0.0}, {"rental_uris": {"android": "https://dc.lft.to/lastmile_qr_scan", "ios": "https://dc.lft.to/lastmile_qr_scan"}, "lon": -77.05130466666667, "name": "f525eb856b7f7d0c01fac78c813321fc", "lat": 38.9236545, "is_reserved": 0, "fusion_lat": 0.0, "bike_id": "f525eb856b7f7d0c01fac78c813321fc", "type": "electric_scooter", "is_disabled": 0, "fusion_lon": 0.0}, {"rental_uris": {"android": "https://dc.lft.to/lastmile_qr_scan", "ios": "https://dc.lft.to/lastmile_qr_scan"}, "lon": -77.04689533333334, "name": "282c946bce790bd13553e433b57af4b0", "lat": 38.921597, "is_reserved": 0, "fusion_lat": 0.0, "bike_id": "282c946bce790bd13553e433b57af4b0", "type": "electric_scooter", "is_disabled": 0, "fusion_lon": 0.0}, {"rental_uris": {"android": "https://dc.lft.to/lastmile_qr_scan", "ios": "https://dc.lft.to/lastmile_qr_scan"}, "lon": -77.0386655, "name": "b0a0b3a86f4c53f4d7229311f8f15cdf", "lat": 38.912543, "is_reserved": 0, "fusion_lat": 0.0, "bike_id": "b0a0b3a86f4c53f4d7229311f8f15cdf", "type": "electric_scooter", "is_disabled": 0, "fusion_lon": 0.0}, {"rental_uris": {"android": "https://dc.lft.to/lastmile_qr_scan", "ios": "https://dc.lft.to/lastmile_qr_scan"}, "lon": -77.02603783333333, "name": "70552c7aa2c29da3c1ce2cdedc6a9c7f", "lat": 38.9023385, "is_reserved": 0, "fusion_lat": 0.0, "bike_id": "70552c7aa2c29da3c1ce2cdedc6a9c7f", "type": "electric_scooter", "is_disabled": 0, "fusion_lon": 0.0}, {"rental_uris": {"android": "https://dc.lft.to/lastmile_qr_scan", "ios": "https://dc.lft.to/lastmile_qr_scan"}, "lon": -76.9856515, "name": "585d600aaac21e29d930e5552007cced", "lat": 38.866829833333334, "is_reserved": 0, "fusion_lat": 0.0, "bike_id": "585d600aaac21e29d930e5552007cced", "type": "electric_scooter", "is_disabled": 0, "fusion_lon": 0.0}, {"rental_uris": {"android": "https://dc.lft.to/lastmile_qr_scan", "ios": "https://dc.lft.to/lastmile_qr_scan"}, "lon": -77.00351766666667, "name": "a0315de12968acb6bf7a8c22e2a81eef", "lat": 38.8991385, "is_reserved": 0, "fusion_lat": 0.0, "bike_id": "a0315de12968acb6bf7a8c22e2a81eef", "type": "electric_scooter", "is_disabled": 0, "fusion_lon": 0.0}, {"rental_uris": {"android": "https://dc.lft.to/lastmile_qr_scan", "ios": "https://dc.lft.to/lastmile_qr_scan"}, "lon": -77.043866, "name": "da64010507bb0145657743cbe1cb9336", "lat": 38.923614666666666, "is_reserved": 0, "fusion_lat": 0.0, "bike_id": "da64010507bb0145657743cbe1cb9336", "type": "electric_scooter", "is_disabled": 0, "fusion_lon": 0.0}, {"rental_uris": {"android": "https://dc.lft.to/lastmile_qr_scan", "ios": "https://dc.lft.to/lastmile_qr_scan"}, "lon": -76.9755175, "name": "135c85e5a35a00858376047b0f128a2b", "lat": 38.9032345, "is_reserved": 0, "fusion_lat": 0.0, "bike_id": "135c85e5a35a00858376047b0f128a2b", "type": "electric_scooter", "is_disabled": 0, "fusion_lon": 0.0}, {"rental_uris": {"android": "https://dc.lft.to/lastmile_qr_scan", "ios": "https://dc.lft.to/lastmile_qr_scan"}, "lon": -77.02173283333333, "name": "671aa9abd7b2bafd96627eb07fb585d6", "lat": 38.90187683333333, "is_reserved": 0, "fusion_lat": 0.0, "bike_id": "671aa9abd7b2bafd96627eb07fb585d6", "type": "electric_scooter", "is_disabled": 0, "fusion_lon": 0.0}, {"rental_uris": {"android": "https://dc.lft.to/lastmile_qr_scan", "ios": "https://dc.lft.to/lastmile_qr_scan"}, "lon": -76.946396, "name": "2bb28c0f99c5c6810b9e6c073a0a48c1", "lat": 38.89859366666666, "is_reserved": 0, "fusion_lat": 0.0, "bike_id": "2bb28c0f99c5c6810b9e6c073a0a48c1", "type": "electric_scooter", "is_disabled": 0, "fusion_lon": 0.0}, {"rental_uris": {"android": "https://dc.lft.to/lastmile_qr_scan", "ios": "https://dc.lft.to/lastmile_qr_scan"}, "lon": -77.03142683333333, "name": "dcf3c7bd28190906dfc146198a096513", "lat": 38.9169895, "is_reserved": 0, "fusion_lat": 0.0, "bike_id": "dcf3c7bd28190906dfc146198a096513", "type": "electric_scooter", "is_disabled": 0, "fusion_lon": 0.0}, {"rental_uris": {"android": "https://dc.lft.to/lastmile_qr_scan", "ios": "https://dc.lft.to/lastmile_qr_scan"}, "lon": -76.99072783333334, "name": "76df07cbd1f7e534a99d49a01d6b7dd6", "lat": 38.94260333333333, "is_reserved": 0, "fusion_lat": 0.0, "bike_id": "76df07cbd1f7e534a99d49a01d6b7dd6", "type": "electric_bike", "is_disabled": 0, "fusion_lon": 0.0}, {"rental_uris": {"android": "https://dc.lft.to/lastmile_qr_scan", "ios": "https://dc.lft.to/lastmile_qr_scan"}, "lon": -77.036607, "name": "77e48c087cbe61ed54a0b01a41bc7938", "lat": 38.92981983333333, "is_reserved": 0, "fusion_lat": 0.0, "bike_id": "77e48c087cbe61ed54a0b01a41bc7938", "type": "electric_scooter", "is_disabled": 0, "fusion_lon": 0.0}, {"rental_uris": {"android": "https://dc.lft.to/lastmile_qr_scan", "ios": "https://dc.lft.to/lastmile_qr_scan"}, "lon": -77.01311483333333, "name": "4d396f47e6d0da169090e7c0df2807ad", "lat": 38.900545, "is_reserved": 0, "fusion_lat": 0.0, "bike_id": "4d396f47e6d0da169090e7c0df2807ad", "type": "electric_bike", "is_disabled": 0, "fusion_lon": 0.0}, {"rental_uris": {"android": "https://dc.lft.to/lastmile_qr_scan", "ios": "https://dc.lft.to/lastmile_qr_scan"}, "lon": -77.05108266666667, "name": "16eb4b819c389a5f39baba103d148ba6", "lat": 38.813351833333336, "is_reserved": 0, "fusion_lat": 0.0, "bike_id": "16eb4b819c389a5f39baba103d148ba6", "type": "electric_bike", "is_disabled": 0, "fusion_lon": 0.0}, {"rental_uris": {"android": "https://dc.lft.to/lastmile_qr_scan", "ios": "https://dc.lft.to/lastmile_qr_scan"}, "lon": -77.01225733333334, "name": "94827e79c2b47bb04f73f18af187a15c", "lat": 38.913386333333335, "is_reserved": 0, "fusion_lat": 0.0, "bike_id": "94827e79c2b47bb04f73f18af187a15c", "type": "electric_scooter", "is_disabled": 0, "fusion_lon": 0.0}, {"rental_uris": {"android": "https://dc.lft.to/lastmile_qr_scan", "ios": "https://dc.lft.to/lastmile_qr_scan"}, "lon": -77.0027905, "name": "0c0dc60b129eb6c6dedec0275d68ce4d", "lat": 38.877233833333335, "is_reserved": 0, "fusion_lat": 0.0, "bike_id": "0c0dc60b129eb6c6dedec0275d68ce4d", "type": "electric_scooter", "is_disabled": 0, "fusion_lon": 0.0}, {"rental_uris": {"android": "https://dc.lft.to/lastmile_qr_scan", "ios": "https://dc.lft.to/lastmile_qr_scan"}, "lon": -77.04475733333334, "name": "bc926c663f4addd769adf32fc836862a", "lat": 38.918787333333334, "is_reserved": 0, "fusion_lat": 0.0, "bike_id": "bc926c663f4addd769adf32fc836862a", "type": "electric_scooter", "is_disabled": 0, "fusion_lon": 0.0}, {"rental_uris": {"android": "https://dc.lft.to/lastmile_qr_scan", "ios": "https://dc.lft.to/lastmile_qr_scan"}, "lon": -76.989758, "name": "7bd0c5f55597df43612e5ace68f29018", "lat": 38.882267, "is_reserved": 0, "fusion_lat": 0.0, "bike_id": "7bd0c5f55597df43612e5ace68f29018", "type": "electric_scooter", "is_disabled": 0, "fusion_lon": 0.0}, {"rental_uris": {"android": "https://dc.lft.to/lastmile_qr_scan", "ios": "https://dc.lft.to/lastmile_qr_scan"}, "lon": -77.04680316666666, "name": "d5a4f71c0090cf9771c2b81347de09fb", "lat": 38.903139, "is_reserved": 0, "fusion_lat": 0.0, "bike_id": "d5a4f71c0090cf9771c2b81347de09fb", "type": "electric_scooter", "is_disabled": 0, "fusion_lon": 0.0}, {"rental_uris": {"android": "https://dc.lft.to/lastmile_qr_scan", "ios": "https://dc.lft.to/lastmile_qr_scan"}, "lon": -77.01464333333334, "name": "115f0b78639fd2cca4b7fd542ac0df78", "lat": 38.8793845, "is_reserved": 0, "fusion_lat": 0.0, "bike_id": "115f0b78639fd2cca4b7fd542ac0df78", "type": "electric_scooter", "is_disabled": 0, "fusion_lon": 0.0}, {"rental_uris": {"android": "https://dc.lft.to/lastmile_qr_scan", "ios": "https://dc.lft.to/lastmile_qr_scan"}, "lon": -76.962591, "name": "2a92dabc2cfd456abc7a13cbceae3ced", "lat": 38.882479333333336, "is_reserved": 0, "fusion_lat": 0.0, "bike_id": "2a92dabc2cfd456abc7a13cbceae3ced", "type": "electric_bike", "is_disabled": 0, "fusion_lon": 0.0}, {"rental_uris": {"android": "https://dc.lft.to/lastmile_qr_scan", "ios": "https://dc.lft.to/lastmile_qr_scan"}, "lon": -77.00933083333334, "name": "9f87a3707c9f7069056a326a7432c16e", "lat": 38.876223333333336, "is_reserved": 0, "fusion_lat": 0.0, "bike_id": "9f87a3707c9f7069056a326a7432c16e", "type": "electric_scooter", "is_disabled": 0, "fusion_lon": 0.0}, {"rental_uris": {"android": "https://dc.lft.to/lastmile_qr_scan", "ios": "https://dc.lft.to/lastmile_qr_scan"}, "lon": -77.02292, "name": "6a199d573fbce045d137081fe480efb2", "lat": 38.917063166666665, "is_reserved": 0, "fusion_lat": 0.0, "bike_id": "6a199d573fbce045d137081fe480efb2", "type": "electric_scooter", "is_disabled": 0, "fusion_lon": 0.0}, {"rental_uris": {"android": "https://dc.lft.to/lastmile_qr_scan", "ios": "https://dc.lft.to/lastmile_qr_scan"}, "lon": -77.0228235, "name": "d89f9ea51d06de2af87f135c6ec5de1d", "lat": 38.895200333333335, "is_reserved": 0, "fusion_lat": 0.0, "bike_id": "d89f9ea51d06de2af87f135c6ec5de1d", "type": "electric_scooter", "is_disabled": 0, "fusion_lon": 0.0}, {"rental_uris": {"android": "https://dc.lft.to/lastmile_qr_scan", "ios": "https://dc.lft.to/lastmile_qr_scan"}, "lon": -77.022833, "name": "0b70874f925a3dc04d212b44ae349416", "lat": 38.91655633333333, "is_reserved": 0, "fusion_lat": 0.0, "bike_id": "0b70874f925a3dc04d212b44ae349416", "type": "electric_scooter", "is_disabled": 0, "fusion_lon": 0.0}, {"rental_uris": {"android": "https://dc.lft.to/lastmile_qr_scan", "ios": "https://dc.lft.to/lastmile_qr_scan"}, "lon": -77.0444365, "name": "14df52f744524a78a02de044148b0da4", "lat": 38.91253916666667, "is_reserved": 0, "fusion_lat": 0.0, "bike_id": "14df52f744524a78a02de044148b0da4", "type": "electric_scooter", "is_disabled": 0, "fusion_lon": 0.0}, {"rental_uris": {"android": "https://dc.lft.to/lastmile_qr_scan", "ios": "https://dc.lft.to/lastmile_qr_scan"}, "lon": -77.0252015, "name": "c4dcf5097720988829cc5e9afb799e2e", "lat": 38.920654666666664, "is_reserved": 0, "fusion_lat": 0.0, "bike_id": "c4dcf5097720988829cc5e9afb799e2e", "type": "electric_scooter", "is_disabled": 0, "fusion_lon": 0.0}, {"rental_uris": {"android": "https://dc.lft.to/lastmile_qr_scan", "ios": "https://dc.lft.to/lastmile_qr_scan"}, "lon": -77.03865316666666, "name": "c3d7c9802aadf45668975dd16a0d4227", "lat": 38.90768533333333, "is_reserved": 0, "fusion_lat": 0.0, "bike_id": "c3d7c9802aadf45668975dd16a0d4227", "type": "electric_scooter", "is_disabled": 0, "fusion_lon": 0.0}, {"rental_uris": {"android": "https://dc.lft.to/lastmile_qr_scan", "ios": "https://dc.lft.to/lastmile_qr_scan"}, "lon": -77.01864433333333, "name": "a452f8f8a22a9bdae689aaa3726e6090", "lat": 38.898966, "is_reserved": 0, "fusion_lat": 0.0, "bike_id": "a452f8f8a22a9bdae689aaa3726e6090", "type": "electric_scooter", "is_disabled": 0, "fusion_lon": 0.0}, {"rental_uris": {"android": "https://dc.lft.to/lastmile_qr_scan", "ios": "https://dc.lft.to/lastmile_qr_scan"}, "lon": -76.97629983333333, "name": "e13863d9204563a53e7e6c65fe54cc16", "lat": 38.901567666666665, "is_reserved": 0, "fusion_lat": 0.0, "bike_id": "e13863d9204563a53e7e6c65fe54cc16", "type": "electric_scooter", "is_disabled": 0, "fusion_lon": 0.0}, {"rental_uris": {"android": "https://dc.lft.to/lastmile_qr_scan", "ios": "https://dc.lft.to/lastmile_qr_scan"}, "lon": -77.02281966666666, "name": "e6b7bc67b4c28d5663ae29719536e032", "lat": 38.9165455, "is_reserved": 0, "fusion_lat": 0.0, "bike_id": "e6b7bc67b4c28d5663ae29719536e032", "type": "electric_scooter", "is_disabled": 0, "fusion_lon": 0.0}, {"rental_uris": {"android": "https://dc.lft.to/lastmile_qr_scan", "ios": "https://dc.lft.to/lastmile_qr_scan"}, "lon": -77.02710366666666, "name": "7a4118f83b83b88adc183445d0b19c80", "lat": 38.90672633333333, "is_reserved": 0, "fusion_lat": 0.0, "bike_id": "7a4118f83b83b88adc183445d0b19c80", "type": "electric_scooter", "is_disabled": 0, "fusion_lon": 0.0}, {"rental_uris": {"android": "https://dc.lft.to/lastmile_qr_scan", "ios": "https://dc.lft.to/lastmile_qr_scan"}, "lon": -77.03635816666667, "name": "12b709a938a921273d53aad53930da73", "lat": 38.9273765, "is_reserved": 0, "fusion_lat": 0.0, "bike_id": "12b709a938a921273d53aad53930da73", "type": "electric_scooter", "is_disabled": 0, "fusion_lon": 0.0}, {"rental_uris": {"android": "https://dc.lft.to/lastmile_qr_scan", "ios": "https://dc.lft.to/lastmile_qr_scan"}, "lon": -77.01680183333333, "name": "c77e76ce231092eabe79fae5c5d1186c", "lat": 38.901351, "is_reserved": 0, "fusion_lat": 0.0, "bike_id": "c77e76ce231092eabe79fae5c5d1186c", "type": "electric_scooter", "is_disabled": 0, "fusion_lon": 0.0}, {"rental_uris": {"android": "https://dc.lft.to/lastmile_qr_scan", "ios": "https://dc.lft.to/lastmile_qr_scan"}, "lon": -77.01160466666667, "name": "0220be1d0ab94ffb51d6352a6a14552e", "lat": 38.920264333333336, "is_reserved": 0, "fusion_lat": 0.0, "bike_id": "0220be1d0ab94ffb51d6352a6a14552e", "type": "electric_scooter", "is_disabled": 0, "fusion_lon": 0.0}, {"rental_uris": {"android": "https://dc.lft.to/lastmile_qr_scan", "ios": "https://dc.lft.to/lastmile_qr_scan"}, "lon": -77.02099483333333, "name": "85942f3767f53d2b09238378fc269054", "lat": 38.9211945, "is_reserved": 0, "fusion_lat": 0.0, "bike_id": "85942f3767f53d2b09238378fc269054", "type": "electric_scooter", "is_disabled": 0, "fusion_lon": 0.0}, {"rental_uris": {"android": "https://dc.lft.to/lastmile_qr_scan", "ios": "https://dc.lft.to/lastmile_qr_scan"}, "lon": -77.03445816666667, "name": "2b9f132f76812cc27e89ec3552275102", "lat": 38.90947033333333, "is_reserved": 0, "fusion_lat": 0.0, "bike_id": "2b9f132f76812cc27e89ec3552275102", "type": "electric_scooter", "is_disabled": 0, "fusion_lon": 0.0}, {"rental_uris": {"android": "https://dc.lft.to/lastmile_qr_scan", "ios": "https://dc.lft.to/lastmile_qr_scan"}, "lon": -77.057529, "name": "02063a563850346e19852c6ada0598c0", "lat": 38.924163666666665, "is_reserved": 0, "fusion_lat": 0.0, "bike_id": "02063a563850346e19852c6ada0598c0", "type": "electric_scooter", "is_disabled": 0, "fusion_lon": 0.0}, {"rental_uris": {"android": "https://dc.lft.to/lastmile_qr_scan", "ios": "https://dc.lft.to/lastmile_qr_scan"}, "lon": -77.05034483333333, "name": "3c1c60bcbf59215d799a6e5cf746bbfe", "lat": 38.92363666666667, "is_reserved": 0, "fusion_lat": 0.0, "bike_id": "3c1c60bcbf59215d799a6e5cf746bbfe", "type": "electric_scooter", "is_disabled": 0, "fusion_lon": 0.0}, {"rental_uris": {"android": "https://dc.lft.to/lastmile_qr_scan", "ios": "https://dc.lft.to/lastmile_qr_scan"}, "lon": -77.0221095, "name": "dd2c6d70ebe15a39d3b08deed0c137be", "lat": 38.905762333333335, "is_reserved": 0, "fusion_lat": 0.0, "bike_id": "dd2c6d70ebe15a39d3b08deed0c137be", "type": "electric_scooter", "is_disabled": 0, "fusion_lon": 0.0}, {"rental_uris": {"android": "https://dc.lft.to/lastmile_qr_scan", "ios": "https://dc.lft.to/lastmile_qr_scan"}, "lon": -77.01851733333334, "name": "cac418dd819dbb283b27fca62534833f", "lat": 38.97367283333333, "is_reserved": 0, "fusion_lat": 0.0, "bike_id": "cac418dd819dbb283b27fca62534833f", "type": "electric_scooter", "is_disabled": 0, "fusion_lon": 0.0}, {"rental_uris": {"android": "https://dc.lft.to/lastmile_qr_scan", "ios": "https://dc.lft.to/lastmile_qr_scan"}, "lon": -77.026035, "name": "cb63c6f8c0891efb20ef3e9796fa952f", "lat": 38.896505166666664, "is_reserved": 0, "fusion_lat": 0.0, "bike_id": "cb63c6f8c0891efb20ef3e9796fa952f", "type": "electric_scooter", "is_disabled": 0, "fusion_lon": 0.0}, {"rental_uris": {"android": "https://dc.lft.to/lastmile_qr_scan", "ios": "https://dc.lft.to/lastmile_qr_scan"}, "lon": -77.02696316666666, "name": "ffb89ba31e43a17d3d82cca628d14264", "lat": 38.90235366666667, "is_reserved": 0, "fusion_lat": 0.0, "bike_id": "ffb89ba31e43a17d3d82cca628d14264", "type": "electric_scooter", "is_disabled": 0, "fusion_lon": 0.0}, {"rental_uris": {"android": "https://dc.lft.to/lastmile_qr_scan", "ios": "https://dc.lft.to/lastmile_qr_scan"}, "lon": -77.04307933333334, "name": "aab9e05547cc13216f20fe5c5ee434a2", "lat": 38.931832666666665, "is_reserved": 0, "fusion_lat": 0.0, "bike_id": "aab9e05547cc13216f20fe5c5ee434a2", "type": "electric_scooter", "is_disabled": 0, "fusion_lon": 0.0}, {"rental_uris": {"android": "https://dc.lft.to/lastmile_qr_scan", "ios": "https://dc.lft.to/lastmile_qr_scan"}, "lon": -76.98205666666667, "name": "f9f6cdac61472da9a8ef23c783481b36", "lat": 38.9020265, "is_reserved": 0, "fusion_lat": 0.0, "bike_id": "f9f6cdac61472da9a8ef23c783481b36", "type": "electric_scooter", "is_disabled": 0, "fusion_lon": 0.0}, {"rental_uris": {"android": "https://dc.lft.to/lastmile_qr_scan", "ios": "https://dc.lft.to/lastmile_qr_scan"}, "lon": -77.01546066666667, "name": "be569e4db59a0afcb21e40b3a41aa046", "lat": 38.94123533333333, "is_reserved": 0, "fusion_lat": 0.0, "bike_id": "be569e4db59a0afcb21e40b3a41aa046", "type": "electric_scooter", "is_disabled": 0, "fusion_lon": 0.0}, {"rental_uris": {"android": "https://dc.lft.to/lastmile_qr_scan", "ios": "https://dc.lft.to/lastmile_qr_scan"}, "lon": -77.0238095, "name": "d04d2871e804ca7309b46e066ab977c1", "lat": 38.9114355, "is_reserved": 0, "fusion_lat": 0.0, "bike_id": "d04d2871e804ca7309b46e066ab977c1", "type": "electric_scooter", "is_disabled": 0, "fusion_lon": 0.0}, {"rental_uris": {"android": "https://dc.lft.to/lastmile_qr_scan", "ios": "https://dc.lft.to/lastmile_qr_scan"}, "lon": -76.95099483333334, "name": "c198e132ac43618b5975be7d62b2170e", "lat": 38.88451416666667, "is_reserved": 0, "fusion_lat": 0.0, "bike_id": "c198e132ac43618b5975be7d62b2170e", "type": "electric_scooter", "is_disabled": 0, "fusion_lon": 0.0}, {"rental_uris": {"android": "https://dc.lft.to/lastmile_qr_scan", "ios": "https://dc.lft.to/lastmile_qr_scan"}, "lon": -77.02797916666667, "name": "4cbdfb3ec202ca7677803eb045d5a975", "lat": 38.960405, "is_reserved": 0, "fusion_lat": 0.0, "bike_id": "4cbdfb3ec202ca7677803eb045d5a975", "type": "electric_scooter", "is_disabled": 0, "fusion_lon": 0.0}, {"rental_uris": {"android": "https://dc.lft.to/lastmile_qr_scan", "ios": "https://dc.lft.to/lastmile_qr_scan"}, "lon": -77.0186175, "name": "ac627a9dd32889bece330f88a56eddb5", "lat": 38.896565333333335, "is_reserved": 0, "fusion_lat": 0.0, "bike_id": "ac627a9dd32889bece330f88a56eddb5", "type": "electric_scooter", "is_disabled": 0, "fusion_lon": 0.0}, {"rental_uris": {"android": "https://dc.lft.to/lastmile_qr_scan", "ios": "https://dc.lft.to/lastmile_qr_scan"}, "lon": -77.04872933333333, "name": "a8c53f318a4017f61e2ba5dbed4fa6ca", "lat": 38.91299866666667, "is_reserved": 0, "fusion_lat": 0.0, "bike_id": "a8c53f318a4017f61e2ba5dbed4fa6ca", "type": "electric_scooter", "is_disabled": 0, "fusion_lon": 0.0}, {"rental_uris": {"android": "https://dc.lft.to/lastmile_qr_scan", "ios": "https://dc.lft.to/lastmile_qr_scan"}, "lon": -76.9900265, "name": "ef066c1a9eca74a3b5d9103e62ba35d2", "lat": 38.865056, "is_reserved": 0, "fusion_lat": 0.0, "bike_id": "ef066c1a9eca74a3b5d9103e62ba35d2", "type": "electric_scooter", "is_disabled": 0, "fusion_lon": 0.0}, {"rental_uris": {"android": "https://dc.lft.to/lastmile_qr_scan", "ios": "https://dc.lft.to/lastmile_qr_scan"}, "lon": -77.01560916666666, "name": "54f14254fc5edd991229fa8225ae150c", "lat": 38.91407566666667, "is_reserved": 0, "fusion_lat": 0.0, "bike_id": "54f14254fc5edd991229fa8225ae150c", "type": "electric_scooter", "is_disabled": 0, "fusion_lon": 0.0}, {"rental_uris": {"android": "https://dc.lft.to/lastmile_qr_scan", "ios": "https://dc.lft.to/lastmile_qr_scan"}, "lon": -77.0327355, "name": "561d3d590c42d823a6081e95ae90b416", "lat": 38.898703833333336, "is_reserved": 0, "fusion_lat": 0.0, "bike_id": "561d3d590c42d823a6081e95ae90b416", "type": "electric_scooter", "is_disabled": 0, "fusion_lon": 0.0}, {"rental_uris": {"android": "https://dc.lft.to/lastmile_qr_scan", "ios": "https://dc.lft.to/lastmile_qr_scan"}, "lon": -77.07599266666666, "name": "d04bbbc4de8bed03d14246f7f5634545", "lat": 38.941068333333334, "is_reserved": 0, "fusion_lat": 0.0, "bike_id": "d04bbbc4de8bed03d14246f7f5634545", "type": "electric_scooter", "is_disabled": 0, "fusion_lon": 0.0}, {"rental_uris": {"android": "https://dc.lft.to/lastmile_qr_scan", "ios": "https://dc.lft.to/lastmile_qr_scan"}, "lon": -77.04669083333333, "name": "87d8bf7d13ee283ed1f9ab94f1a1e8b5", "lat": 38.90783533333333, "is_reserved": 0, "fusion_lat": 0.0, "bike_id": "87d8bf7d13ee283ed1f9ab94f1a1e8b5", "type": "electric_scooter", "is_disabled": 0, "fusion_lon": 0.0}, {"rental_uris": {"android": "https://dc.lft.to/lastmile_qr_scan", "ios": "https://dc.lft.to/lastmile_qr_scan"}, "lon": -77.03758983333333, "name": "a0863dcd50219db9e394eb2229ae7841", "lat": 38.90765916666667, "is_reserved": 0, "fusion_lat": 0.0, "bike_id": "a0863dcd50219db9e394eb2229ae7841", "type": "electric_scooter", "is_disabled": 0, "fusion_lon": 0.0}, {"rental_uris": {"android": "https://dc.lft.to/lastmile_qr_scan", "ios": "https://dc.lft.to/lastmile_qr_scan"}, "lon": -77.03964933333333, "name": "280081739bfaaa54d0398f8dbfa1f54e", "lat": 38.926136166666666, "is_reserved": 0, "fusion_lat": 0.0, "bike_id": "280081739bfaaa54d0398f8dbfa1f54e", "type": "electric_scooter", "is_disabled": 0, "fusion_lon": 0.0}, {"rental_uris": {"android": "https://dc.lft.to/lastmile_qr_scan", "ios": "https://dc.lft.to/lastmile_qr_scan"}, "lon": -76.9882675, "name": "5bc6e894db6017bf80c9839bd7c6d035", "lat": 38.89076516666667, "is_reserved": 0, "fusion_lat": 0.0, "bike_id": "5bc6e894db6017bf80c9839bd7c6d035", "type": "electric_scooter", "is_disabled": 0, "fusion_lon": 0.0}, {"rental_uris": {"android": "https://dc.lft.to/lastmile_qr_scan", "ios": "https://dc.lft.to/lastmile_qr_scan"}, "lon": -77.0433725, "name": "7b3b441e189d6be148eef687486af3e9", "lat": 38.904477166666666, "is_reserved": 0, "fusion_lat": 0.0, "bike_id": "7b3b441e189d6be148eef687486af3e9", "type": "electric_scooter", "is_disabled": 0, "fusion_lon": 0.0}, {"rental_uris": {"android": "https://dc.lft.to/lastmile_qr_scan", "ios": "https://dc.lft.to/lastmile_qr_scan"}, "lon": -77.03286966666667, "name": "fc9794abd05a446dcd5cc89cda199902", "lat": 38.948151, "is_reserved": 0, "fusion_lat": 0.0, "bike_id": "fc9794abd05a446dcd5cc89cda199902", "type": "electric_scooter", "is_disabled": 0, "fusion_lon": 0.0}, {"rental_uris": {"android": "https://dc.lft.to/lastmile_qr_scan", "ios": "https://dc.lft.to/lastmile_qr_scan"}, "lon": -76.998024, "name": "9a410a82b2803fa8b666abac5caeb8c2", "lat": 38.901433833333336, "is_reserved": 0, "fusion_lat": 0.0, "bike_id": "9a410a82b2803fa8b666abac5caeb8c2", "type": "electric_scooter", "is_disabled": 0, "fusion_lon": 0.0}, {"rental_uris": {"android": "https://dc.lft.to/lastmile_qr_scan", "ios": "https://dc.lft.to/lastmile_qr_scan"}, "lon": -76.955883, "name": "e70f3e13ba753b0d04d78050e38f5503", "lat": 38.886089, "is_reserved": 0, "fusion_lat": 0.0, "bike_id": "e70f3e13ba753b0d04d78050e38f5503", "type": "electric_scooter", "is_disabled": 0, "fusion_lon": 0.0}, {"rental_uris": {"android": "https://dc.lft.to/lastmile_qr_scan", "ios": "https://dc.lft.to/lastmile_qr_scan"}, "lon": -76.95889333333334, "name": "835abe7d1422a87a694640abc8e322cf", "lat": 38.88188916666667, "is_reserved": 0, "fusion_lat": 0.0, "bike_id": "835abe7d1422a87a694640abc8e322cf", "type": "electric_scooter", "is_disabled": 0, "fusion_lon": 0.0}, {"rental_uris": {"android": "https://dc.lft.to/lastmile_qr_scan", "ios": "https://dc.lft.to/lastmile_qr_scan"}, "lon": -77.00121183333333, "name": "86d0f42c3dfb7150e2ed46a3de9dfc24", "lat": 38.90560833333333, "is_reserved": 0, "fusion_lat": 0.0, "bike_id": "86d0f42c3dfb7150e2ed46a3de9dfc24", "type": "electric_scooter", "is_disabled": 0, "fusion_lon": 0.0}, {"rental_uris": {"android": "https://dc.lft.to/lastmile_qr_scan", "ios": "https://dc.lft.to/lastmile_qr_scan"}, "lon": -77.024025, "name": "3b9b85b9960bcaa5f6c3fa4a0f1fce14", "lat": 38.92091516666667, "is_reserved": 0, "fusion_lat": 0.0, "bike_id": "3b9b85b9960bcaa5f6c3fa4a0f1fce14", "type": "electric_scooter", "is_disabled": 0, "fusion_lon": 0.0}, {"rental_uris": {"android": "https://dc.lft.to/lastmile_qr_scan", "ios": "https://dc.lft.to/lastmile_qr_scan"}, "lon": -77.05003216666667, "name": "b6a3869284b5fca6fcc1f146e8889efb", "lat": 38.892313333333334, "is_reserved": 0, "fusion_lat": 0.0, "bike_id": "b6a3869284b5fca6fcc1f146e8889efb", "type": "electric_scooter", "is_disabled": 0, "fusion_lon": 0.0}, {"rental_uris": {"android": "https://dc.lft.to/lastmile_qr_scan", "ios": "https://dc.lft.to/lastmile_qr_scan"}, "lon": -77.00071283333334, "name": "77b4b8f4de5c9ec90054a7d6b9ce238b", "lat": 38.90139666666666, "is_reserved": 0, "fusion_lat": 0.0, "bike_id": "77b4b8f4de5c9ec90054a7d6b9ce238b", "type": "electric_scooter", "is_disabled": 0, "fusion_lon": 0.0}, {"rental_uris": {"android": "https://dc.lft.to/lastmile_qr_scan", "ios": "https://dc.lft.to/lastmile_qr_scan"}, "lon": -77.026763, "name": "9644ee05dca95504fb2ff38f5bac8d38", "lat": 38.897325, "is_reserved": 0, "fusion_lat": 0.0, "bike_id": "9644ee05dca95504fb2ff38f5bac8d38", "type": "electric_scooter", "is_disabled": 0, "fusion_lon": 0.0}, {"rental_uris": {"android": "https://dc.lft.to/lastmile_qr_scan", "ios": "https://dc.lft.to/lastmile_qr_scan"}, "lon": -76.99769116666667, "name": "d7be46528ff7197875a1d08859343108", "lat": 38.92274166666667, "is_reserved": 0, "fusion_lat": 0.0, "bike_id": "d7be46528ff7197875a1d08859343108", "type": "electric_scooter", "is_disabled": 0, "fusion_lon": 0.0}, {"rental_uris": {"android": "https://dc.lft.to/lastmile_qr_scan", "ios": "https://dc.lft.to/lastmile_qr_scan"}, "lon": -77.04481533333333, "name": "32bb2959143ed17771c76401ddb5172d", "lat": 38.895242833333334, "is_reserved": 0, "fusion_lat": 0.0, "bike_id": "32bb2959143ed17771c76401ddb5172d", "type": "electric_scooter", "is_disabled": 0, "fusion_lon": 0.0}, {"rental_uris": {"android": "https://dc.lft.to/lastmile_qr_scan", "ios": "https://dc.lft.to/lastmile_qr_scan"}, "lon": -77.04693266666666, "name": "19e10739a596e4257ee4a7376fb50566", "lat": 38.89219383333333, "is_reserved": 0, "fusion_lat": 0.0, "bike_id": "19e10739a596e4257ee4a7376fb50566", "type": "electric_scooter", "is_disabled": 0, "fusion_lon": 0.0}, {"rental_uris": {"android": "https://dc.lft.to/lastmile_qr_scan", "ios": "https://dc.lft.to/lastmile_qr_scan"}, "lon": -77.03643516666666, "name": "217904253f3c9b278b8a4d0c4f7eba05", "lat": 38.917323833333334, "is_reserved": 0, "fusion_lat": 0.0, "bike_id": "217904253f3c9b278b8a4d0c4f7eba05", "type": "electric_scooter", "is_disabled": 0, "fusion_lon": 0.0}, {"rental_uris": {"android": "https://dc.lft.to/lastmile_qr_scan", "ios": "https://dc.lft.to/lastmile_qr_scan"}, "lon": -77.01924333333334, "name": "0299a55878a99aa570ad3123a6e5a264", "lat": 38.92134516666667, "is_reserved": 0, "fusion_lat": 0.0, "bike_id": "0299a55878a99aa570ad3123a6e5a264", "type": "electric_scooter", "is_disabled": 0, "fusion_lon": 0.0}, {"rental_uris": {"android": "https://dc.lft.to/lastmile_qr_scan", "ios": "https://dc.lft.to/lastmile_qr_scan"}, "lon": -77.01823416666667, "name": "122bd7a7a3a9cbb92e252894376c178d", "lat": 38.922725166666666, "is_reserved": 0, "fusion_lat": 0.0, "bike_id": "122bd7a7a3a9cbb92e252894376c178d", "type": "electric_scooter", "is_disabled": 0, "fusion_lon": 0.0}, {"rental_uris": {"android": "https://dc.lft.to/lastmile_qr_scan", "ios": "https://dc.lft.to/lastmile_qr_scan"}, "lon": -77.04304333333333, "name": "eaab982f6404c98aad764cff2f02ec19", "lat": 38.931824, "is_reserved": 0, "fusion_lat": 0.0, "bike_id": "eaab982f6404c98aad764cff2f02ec19", "type": "electric_scooter", "is_disabled": 0, "fusion_lon": 0.0}, {"rental_uris": {"android": "https://dc.lft.to/lastmile_qr_scan", "ios": "https://dc.lft.to/lastmile_qr_scan"}, "lon": -77.0377225, "name": "e395477bfc760ec510edbe2b2b38904e", "lat": 38.936162333333336, "is_reserved": 0, "fusion_lat": 0.0, "bike_id": "e395477bfc760ec510edbe2b2b38904e", "type": "electric_scooter", "is_disabled": 0, "fusion_lon": 0.0}, {"rental_uris": {"android": "https://dc.lft.to/lastmile_qr_scan", "ios": "https://dc.lft.to/lastmile_qr_scan"}, "lon": -76.9886545, "name": "bc528d99b88cbf619418698df7bb9d73", "lat": 38.85778066666666, "is_reserved": 0, "fusion_lat": 0.0, "bike_id": "bc528d99b88cbf619418698df7bb9d73", "type": "electric_scooter", "is_disabled": 0, "fusion_lon": 0.0}, {"rental_uris": {"android": "https://dc.lft.to/lastmile_qr_scan", "ios": "https://dc.lft.to/lastmile_qr_scan"}, "lon": -77.03375, "name": "1c69637bee3f9d3325d61d44706f045e", "lat": 38.924402, "is_reserved": 0, "fusion_lat": 0.0, "bike_id": "1c69637bee3f9d3325d61d44706f045e", "type": "electric_scooter", "is_disabled": 0, "fusion_lon": 0.0}, {"rental_uris": {"android": "https://dc.lft.to/lastmile_qr_scan", "ios": "https://dc.lft.to/lastmile_qr_scan"}, "lon": -77.00182683333334, "name": "51f56307273b1ca423b94a1b66106158", "lat": 38.822214333333335, "is_reserved": 0, "fusion_lat": 0.0, "bike_id": "51f56307273b1ca423b94a1b66106158", "type": "electric_scooter", "is_disabled": 0, "fusion_lon": 0.0}, {"rental_uris": {"android": "https://dc.lft.to/lastmile_qr_scan", "ios": "https://dc.lft.to/lastmile_qr_scan"}, "lon": -76.986982, "name": "a26b5af9695993776eae743b8300f425", "lat": 38.9001835, "is_reserved": 0, "fusion_lat": 0.0, "bike_id": "a26b5af9695993776eae743b8300f425", "type": "electric_scooter", "is_disabled": 0, "fusion_lon": 0.0}, {"rental_uris": {"android": "https://dc.lft.to/lastmile_qr_scan", "ios": "https://dc.lft.to/lastmile_qr_scan"}, "lon": -77.02031733333334, "name": "d82ef5bb65acbfaeea59a038eb130a8c", "lat": 38.884931333333334, "is_reserved": 0, "fusion_lat": 0.0, "bike_id": "d82ef5bb65acbfaeea59a038eb130a8c", "type": "electric_scooter", "is_disabled": 0, "fusion_lon": 0.0}, {"rental_uris": {"android": "https://dc.lft.to/lastmile_qr_scan", "ios": "https://dc.lft.to/lastmile_qr_scan"}, "lon": -77.0240895, "name": "de655340662d5f63e86d180ffcb7834f", "lat": 38.93704133333333, "is_reserved": 0, "fusion_lat": 0.0, "bike_id": "de655340662d5f63e86d180ffcb7834f", "type": "electric_scooter", "is_disabled": 0, "fusion_lon": 0.0}, {"rental_uris": {"android": "https://dc.lft.to/lastmile_qr_scan", "ios": "https://dc.lft.to/lastmile_qr_scan"}, "lon": -77.03157566666667, "name": "c5e75e716bccd94bf09b2dee06b9b6e1", "lat": 38.917032166666665, "is_reserved": 0, "fusion_lat": 0.0, "bike_id": "c5e75e716bccd94bf09b2dee06b9b6e1", "type": "electric_scooter", "is_disabled": 0, "fusion_lon": 0.0}, {"rental_uris": {"android": "https://dc.lft.to/lastmile_qr_scan", "ios": "https://dc.lft.to/lastmile_qr_scan"}, "lon": -77.03172416666666, "name": "42c85b07c0b431bf6bced610dfd70152", "lat": 38.91628, "is_reserved": 0, "fusion_lat": 0.0, "bike_id": "42c85b07c0b431bf6bced610dfd70152", "type": "electric_scooter", "is_disabled": 0, "fusion_lon": 0.0}, {"rental_uris": {"android": "https://dc.lft.to/lastmile_qr_scan", "ios": "https://dc.lft.to/lastmile_qr_scan"}, "lon": -77.05686166666666, "name": "7c57cb4649ea509c3bb1a7b4e8955834", "lat": 38.9333005, "is_reserved": 0, "fusion_lat": 0.0, "bike_id": "7c57cb4649ea509c3bb1a7b4e8955834", "type": "electric_scooter", "is_disabled": 0, "fusion_lon": 0.0}, {"rental_uris": {"android": "https://dc.lft.to/lastmile_qr_scan", "ios": "https://dc.lft.to/lastmile_qr_scan"}, "lon": -77.02968116666666, "name": "c839f890bd4c09c6cdd1b94d321f1209", "lat": 38.91722166666667, "is_reserved": 0, "fusion_lat": 0.0, "bike_id": "c839f890bd4c09c6cdd1b94d321f1209", "type": "electric_scooter", "is_disabled": 0, "fusion_lon": 0.0}, {"rental_uris": {"android": "https://dc.lft.to/lastmile_qr_scan", "ios": "https://dc.lft.to/lastmile_qr_scan"}, "lon": -77.03471516666667, "name": "266873bd9d04bb0421efd0ae24e3f2fc", "lat": 38.90558383333333, "is_reserved": 0, "fusion_lat": 0.0, "bike_id": "266873bd9d04bb0421efd0ae24e3f2fc", "type": "electric_scooter", "is_disabled": 0, "fusion_lon": 0.0}, {"rental_uris": {"android": "https://dc.lft.to/lastmile_qr_scan", "ios": "https://dc.lft.to/lastmile_qr_scan"}, "lon": -76.93407033333334, "name": "d11d19200b892b774dc63a5d2ef3a947", "lat": 38.898959833333336, "is_reserved": 0, "fusion_lat": 0.0, "bike_id": "d11d19200b892b774dc63a5d2ef3a947", "type": "electric_scooter", "is_disabled": 0, "fusion_lon": 0.0}, {"rental_uris": {"android": "https://dc.lft.to/lastmile_qr_scan", "ios": "https://dc.lft.to/lastmile_qr_scan"}, "lon": -77.07697316666666, "name": "eff919cda25386a04309f351af47881a", "lat": 38.994248666666664, "is_reserved": 0, "fusion_lat": 0.0, "bike_id": "eff919cda25386a04309f351af47881a", "type": "electric_bike", "is_disabled": 0, "fusion_lon": 0.0}, {"rental_uris": {"android": "https://dc.lft.to/lastmile_qr_scan", "ios": "https://dc.lft.to/lastmile_qr_scan"}, "lon": -77.0224445, "name": "eeb4babbe14ea9cecf8d14b751f9c549", "lat": 38.92267583333334, "is_reserved": 0, "fusion_lat": 0.0, "bike_id": "eeb4babbe14ea9cecf8d14b751f9c549", "type": "electric_scooter", "is_disabled": 0, "fusion_lon": 0.0}, {"rental_uris": {"android": "https://dc.lft.to/lastmile_qr_scan", "ios": "https://dc.lft.to/lastmile_qr_scan"}, "lon": -77.0284425, "name": "35781154bbf12116c32c1fd35de24975", "lat": 38.942670666666665, "is_reserved": 0, "fusion_lat": 0.0, "bike_id": "35781154bbf12116c32c1fd35de24975", "type": "electric_bike", "is_disabled": 0, "fusion_lon": 0.0}, {"rental_uris": {"android": "https://dc.lft.to/lastmile_qr_scan", "ios": "https://dc.lft.to/lastmile_qr_scan"}, "lon": -77.038514, "name": "3f1114eea25d8daabc7c96aa199ce588", "lat": 38.9024955, "is_reserved": 0, "fusion_lat": 0.0, "bike_id": "3f1114eea25d8daabc7c96aa199ce588", "type": "electric_scooter", "is_disabled": 0, "fusion_lon": 0.0}, {"rental_uris": {"android": "https://dc.lft.to/lastmile_qr_scan", "ios": "https://dc.lft.to/lastmile_qr_scan"}, "lon": -77.06471466666666, "name": "a5d18a17801d74a33e5814f86bea950f", "lat": 38.973786, "is_reserved": 0, "fusion_lat": 0.0, "bike_id": "a5d18a17801d74a33e5814f86bea950f", "type": "electric_bike", "is_disabled": 0, "fusion_lon": 0.0}, {"rental_uris": {"android": "https://dc.lft.to/lastmile_qr_scan", "ios": "https://dc.lft.to/lastmile_qr_scan"}, "lon": -77.02225033333333, "name": "86420e35244a616183f1aeb293629aa2", "lat": 38.91255016666667, "is_reserved": 0, "fusion_lat": 0.0, "bike_id": "86420e35244a616183f1aeb293629aa2", "type": "electric_scooter", "is_disabled": 0, "fusion_lon": 0.0}, {"rental_uris": {"android": "https://dc.lft.to/lastmile_qr_scan", "ios": "https://dc.lft.to/lastmile_qr_scan"}, "lon": -77.03163516666666, "name": "55f2afd92272f447d8f4d02b0ae599b5", "lat": 38.92091766666667, "is_reserved": 0, "fusion_lat": 0.0, "bike_id": "55f2afd92272f447d8f4d02b0ae599b5", "type": "electric_scooter", "is_disabled": 0, "fusion_lon": 0.0}, {"rental_uris": {"android": "https://dc.lft.to/lastmile_qr_scan", "ios": "https://dc.lft.to/lastmile_qr_scan"}, "lon": -76.98043166666666, "name": "e9e454abe67fd900c0214f3939b20e5b", "lat": 38.8881555, "is_reserved": 0, "fusion_lat": 0.0, "bike_id": "e9e454abe67fd900c0214f3939b20e5b", "type": "electric_scooter", "is_disabled": 0, "fusion_lon": 0.0}, {"rental_uris": {"android": "https://dc.lft.to/lastmile_qr_scan", "ios": "https://dc.lft.to/lastmile_qr_scan"}, "lon": -77.0434195, "name": "946c505e6e6b606cb0b92eb2bdb082e6", "lat": 38.902597, "is_reserved": 0, "fusion_lat": 0.0, "bike_id": "946c505e6e6b606cb0b92eb2bdb082e6", "type": "electric_scooter", "is_disabled": 0, "fusion_lon": 0.0}, {"rental_uris": {"android": "https://dc.lft.to/lastmile_qr_scan", "ios": "https://dc.lft.to/lastmile_qr_scan"}, "lon": -76.946333, "name": "1d5094cfb3d5e01502bff66464a94a11", "lat": 38.898634, "is_reserved": 0, "fusion_lat": 0.0, "bike_id": "1d5094cfb3d5e01502bff66464a94a11", "type": "electric_scooter", "is_disabled": 0, "fusion_lon": 0.0}, {"rental_uris": {"android": "https://dc.lft.to/lastmile_qr_scan", "ios": "https://dc.lft.to/lastmile_qr_scan"}, "lon": -77.0269425, "name": "c2283fab0a58828125cbfe8f4101a540", "lat": 38.91629283333333, "is_reserved": 0, "fusion_lat": 0.0, "bike_id": "c2283fab0a58828125cbfe8f4101a540", "type": "electric_scooter", "is_disabled": 0, "fusion_lon": 0.0}, {"rental_uris": {"android": "https://dc.lft.to/lastmile_qr_scan", "ios": "https://dc.lft.to/lastmile_qr_scan"}, "lon": -76.97781766666667, "name": "e8091403357a3cd66588f2d33479bead", "lat": 38.89187716666667, "is_reserved": 0, "fusion_lat": 0.0, "bike_id": "e8091403357a3cd66588f2d33479bead", "type": "electric_bike", "is_disabled": 0, "fusion_lon": 0.0}, {"rental_uris": {"android": "https://dc.lft.to/lastmile_qr_scan", "ios": "https://dc.lft.to/lastmile_qr_scan"}, "lon": -77.045802, "name": "c6e33b766f3651bd2cd61e48ad916ba8", "lat": 38.89881033333333, "is_reserved": 0, "fusion_lat": 0.0, "bike_id": "c6e33b766f3651bd2cd61e48ad916ba8", "type": "electric_scooter", "is_disabled": 0, "fusion_lon": 0.0}, {"rental_uris": {"android": "https://dc.lft.to/lastmile_qr_scan", "ios": "https://dc.lft.to/lastmile_qr_scan"}, "lon": -77.03432933333333, "name": "c7193da4def0bad05aaa498c2102eb94", "lat": 38.965341333333335, "is_reserved": 0, "fusion_lat": 0.0, "bike_id": "c7193da4def0bad05aaa498c2102eb94", "type": "electric_bike", "is_disabled": 0, "fusion_lon": 0.0}, {"rental_uris": {"android": "https://dc.lft.to/lastmile_qr_scan", "ios": "https://dc.lft.to/lastmile_qr_scan"}, "lon": -77.04348766666666, "name": "1e94460945a795661b017bb6653c6502", "lat": 38.9234975, "is_reserved": 0, "fusion_lat": 0.0, "bike_id": "1e94460945a795661b017bb6653c6502", "type": "electric_scooter", "is_disabled": 0, "fusion_lon": 0.0}, {"rental_uris": {"android": "https://dc.lft.to/lastmile_qr_scan", "ios": "https://dc.lft.to/lastmile_qr_scan"}, "lon": -77.0310795, "name": "e95a2207a8d9402479285b0ba04b8a91", "lat": 38.91913733333333, "is_reserved": 0, "fusion_lat": 0.0, "bike_id": "e95a2207a8d9402479285b0ba04b8a91", "type": "electric_scooter", "is_disabled": 0, "fusion_lon": 0.0}, {"rental_uris": {"android": "https://dc.lft.to/lastmile_qr_scan", "ios": "https://dc.lft.to/lastmile_qr_scan"}, "lon": -77.05524583333333, "name": "2dbb197fc952b91591e7064b8a78e5db", "lat": 38.897295666666665, "is_reserved": 0, "fusion_lat": 0.0, "bike_id": "2dbb197fc952b91591e7064b8a78e5db", "type": "electric_scooter", "is_disabled": 0, "fusion_lon": 0.0}, {"rental_uris": {"android": "https://dc.lft.to/lastmile_qr_scan", "ios": "https://dc.lft.to/lastmile_qr_scan"}, "lon": -77.03205066666666, "name": "1000334e35768a4699dc07f8b1f52acd", "lat": 38.9164025, "is_reserved": 0, "fusion_lat": 0.0, "bike_id": "1000334e35768a4699dc07f8b1f52acd", "type": "electric_scooter", "is_disabled": 0, "fusion_lon": 0.0}, {"rental_uris": {"android": "https://dc.lft.to/lastmile_qr_scan", "ios": "https://dc.lft.to/lastmile_qr_scan"}, "lon": -77.02662833333333, "name": "79c4c2c5766c4d4990517bd2fb3e6ae2", "lat": 38.93097233333334, "is_reserved": 0, "fusion_lat": 0.0, "bike_id": "79c4c2c5766c4d4990517bd2fb3e6ae2", "type": "electric_scooter", "is_disabled": 0, "fusion_lon": 0.0}, {"rental_uris": {"android": "https://dc.lft.to/lastmile_qr_scan", "ios": "https://dc.lft.to/lastmile_qr_scan"}, "lon": -77.02788966666667, "name": "a07757d46a2f9f7f78c0dfef03cbf62e", "lat": 38.93867933333333, "is_reserved": 0, "fusion_lat": 0.0, "bike_id": "a07757d46a2f9f7f78c0dfef03cbf62e", "type": "electric_scooter", "is_disabled": 0, "fusion_lon": 0.0}, {"rental_uris": {"android": "https://dc.lft.to/lastmile_qr_scan", "ios": "https://dc.lft.to/lastmile_qr_scan"}, "lon": -77.01467216666667, "name": "51d705106df4cd82b916c9343f795929", "lat": 38.975073333333334, "is_reserved": 0, "fusion_lat": 0.0, "bike_id": "51d705106df4cd82b916c9343f795929", "type": "electric_scooter", "is_disabled": 0, "fusion_lon": 0.0}, {"rental_uris": {"android": "https://dc.lft.to/lastmile_qr_scan", "ios": "https://dc.lft.to/lastmile_qr_scan"}, "lon": -77.01720816666666, "name": "9ec1c93a286eebb37b500e4b5c6f4bd2", "lat": 38.900780833333336, "is_reserved": 0, "fusion_lat": 0.0, "bike_id": "9ec1c93a286eebb37b500e4b5c6f4bd2", "type": "electric_scooter", "is_disabled": 0, "fusion_lon": 0.0}, {"rental_uris": {"android": "https://dc.lft.to/lastmile_qr_scan", "ios": "https://dc.lft.to/lastmile_qr_scan"}, "lon": -76.98195266666667, "name": "db2ce4cebe357eb09d763fd7c60c1a20", "lat": 38.9205995, "is_reserved": 0, "fusion_lat": 0.0, "bike_id": "db2ce4cebe357eb09d763fd7c60c1a20", "type": "electric_scooter", "is_disabled": 0, "fusion_lon": 0.0}, {"rental_uris": {"android": "https://dc.lft.to/lastmile_qr_scan", "ios": "https://dc.lft.to/lastmile_qr_scan"}, "lon": -77.02483766666667, "name": "d43d9a8b1719caf59a720a7331965ade", "lat": 38.9387775, "is_reserved": 0, "fusion_lat": 0.0, "bike_id": "d43d9a8b1719caf59a720a7331965ade", "type": "electric_scooter", "is_disabled": 0, "fusion_lon": 0.0}, {"rental_uris": {"android": "https://dc.lft.to/lastmile_qr_scan", "ios": "https://dc.lft.to/lastmile_qr_scan"}, "lon": -77.00049, "name": "343945ee8ecc007d8d1ac6ac8feaa29f", "lat": 38.89435433333333, "is_reserved": 0, "fusion_lat": 0.0, "bike_id": "343945ee8ecc007d8d1ac6ac8feaa29f", "type": "electric_scooter", "is_disabled": 0, "fusion_lon": 0.0}, {"rental_uris": {"android": "https://dc.lft.to/lastmile_qr_scan", "ios": "https://dc.lft.to/lastmile_qr_scan"}, "lon": -77.03631566666667, "name": "5d5d7611800cd809f9b74f639764932b", "lat": 38.93286066666667, "is_reserved": 0, "fusion_lat": 0.0, "bike_id": "5d5d7611800cd809f9b74f639764932b", "type": "electric_bike", "is_disabled": 0, "fusion_lon": 0.0}, {"rental_uris": {"android": "https://dc.lft.to/lastmile_qr_scan", "ios": "https://dc.lft.to/lastmile_qr_scan"}, "lon": -76.98564166666667, "name": "25867e714b2a647195345777482b1135", "lat": 38.86683583333333, "is_reserved": 0, "fusion_lat": 0.0, "bike_id": "25867e714b2a647195345777482b1135", "type": "electric_scooter", "is_disabled": 0, "fusion_lon": 0.0}, {"rental_uris": {"android": "https://dc.lft.to/lastmile_qr_scan", "ios": "https://dc.lft.to/lastmile_qr_scan"}, "lon": -77.0220555, "name": "dd3fafa33d0f2ad5f656ef79d59625bc", "lat": 38.89231083333333, "is_reserved": 0, "fusion_lat": 0.0, "bike_id": "dd3fafa33d0f2ad5f656ef79d59625bc", "type": "electric_scooter", "is_disabled": 0, "fusion_lon": 0.0}, {"rental_uris": {"android": "https://dc.lft.to/lastmile_qr_scan", "ios": "https://dc.lft.to/lastmile_qr_scan"}, "lon": -77.05026883333333, "name": "c5970fe81e7bd54e92e3c4aa8ab93b4b", "lat": 38.92365233333334, "is_reserved": 0, "fusion_lat": 0.0, "bike_id": "c5970fe81e7bd54e92e3c4aa8ab93b4b", "type": "electric_scooter", "is_disabled": 0, "fusion_lon": 0.0}, {"rental_uris": {"android": "https://dc.lft.to/lastmile_qr_scan", "ios": "https://dc.lft.to/lastmile_qr_scan"}, "lon": -77.01880216666666, "name": "c5e2a9e41b6a1719f6e1f58482752b5b", "lat": 38.900582166666666, "is_reserved": 0, "fusion_lat": 0.0, "bike_id": "c5e2a9e41b6a1719f6e1f58482752b5b", "type": "electric_scooter", "is_disabled": 0, "fusion_lon": 0.0}, {"rental_uris": {"android": "https://dc.lft.to/lastmile_qr_scan", "ios": "https://dc.lft.to/lastmile_qr_scan"}, "lon": -77.00410416666666, "name": "9e5ecdf58985291e0f8c85c268f2b5d6", "lat": 38.877057, "is_reserved": 0, "fusion_lat": 0.0, "bike_id": "9e5ecdf58985291e0f8c85c268f2b5d6", "type": "electric_scooter", "is_disabled": 0, "fusion_lon": 0.0}, {"rental_uris": {"android": "https://dc.lft.to/lastmile_qr_scan", "ios": "https://dc.lft.to/lastmile_qr_scan"}, "lon": -76.99377683333333, "name": "d5be058125c4f12bcf3132bf44e2fed8", "lat": 38.99094316666667, "is_reserved": 0, "fusion_lat": 0.0, "bike_id": "d5be058125c4f12bcf3132bf44e2fed8", "type": "electric_bike", "is_disabled": 0, "fusion_lon": 0.0}, {"rental_uris": {"android": "https://dc.lft.to/lastmile_qr_scan", "ios": "https://dc.lft.to/lastmile_qr_scan"}, "lon": -77.03627483333334, "name": "633a3c54e677a71fdd72eb3937f7f39a", "lat": 38.916561333333334, "is_reserved": 0, "fusion_lat": 0.0, "bike_id": "633a3c54e677a71fdd72eb3937f7f39a", "type": "electric_scooter", "is_disabled": 0, "fusion_lon": 0.0}, {"rental_uris": {"android": "https://dc.lft.to/lastmile_qr_scan", "ios": "https://dc.lft.to/lastmile_qr_scan"}, "lon": -77.01718783333334, "name": "3a766fb800163c206b98e56b83da432c", "lat": 38.87936783333333, "is_reserved": 0, "fusion_lat": 0.0, "bike_id": "3a766fb800163c206b98e56b83da432c", "type": "electric_scooter", "is_disabled": 0, "fusion_lon": 0.0}, {"rental_uris": {"android": "https://dc.lft.to/lastmile_qr_scan", "ios": "https://dc.lft.to/lastmile_qr_scan"}, "lon": -77.02414933333333, "name": "d7a95a08bb76a66d628f099b68c7e1a3", "lat": 38.8968735, "is_reserved": 0, "fusion_lat": 0.0, "bike_id": "d7a95a08bb76a66d628f099b68c7e1a3", "type": "electric_bike", "is_disabled": 0, "fusion_lon": 0.0}, {"rental_uris": {"android": "https://dc.lft.to/lastmile_qr_scan", "ios": "https://dc.lft.to/lastmile_qr_scan"}, "lon": -77.0241405, "name": "800d3f14c1865214220c8a093056fc8b", "lat": 38.892284, "is_reserved": 0, "fusion_lat": 0.0, "bike_id": "800d3f14c1865214220c8a093056fc8b", "type": "electric_scooter", "is_disabled": 0, "fusion_lon": 0.0}, {"rental_uris": {"android": "https://dc.lft.to/lastmile_qr_scan", "ios": "https://dc.lft.to/lastmile_qr_scan"}, "lon": -76.90427183333334, "name": "a9fef18f8a87d2085ea949eb6e5607b2", "lat": 38.940583833333335, "is_reserved": 0, "fusion_lat": 0.0, "bike_id": "a9fef18f8a87d2085ea949eb6e5607b2", "type": "electric_bike", "is_disabled": 0, "fusion_lon": 0.0}, {"rental_uris": {"android": "https://dc.lft.to/lastmile_qr_scan", "ios": "https://dc.lft.to/lastmile_qr_scan"}, "lon": -77.0458445, "name": "9991ae0c6b0759d0356075c05e983608", "lat": 38.921497333333335, "is_reserved": 0, "fusion_lat": 0.0, "bike_id": "9991ae0c6b0759d0356075c05e983608", "type": "electric_scooter", "is_disabled": 0, "fusion_lon": 0.0}, {"rental_uris": {"android": "https://dc.lft.to/lastmile_qr_scan", "ios": "https://dc.lft.to/lastmile_qr_scan"}, "lon": -77.03673016666667, "name": "28e39c880c1c202d061686279ce570f2", "lat": 38.939265666666664, "is_reserved": 0, "fusion_lat": 0.0, "bike_id": "28e39c880c1c202d061686279ce570f2", "type": "electric_scooter", "is_disabled": 0, "fusion_lon": 0.0}, {"rental_uris": {"android": "https://dc.lft.to/lastmile_qr_scan", "ios": "https://dc.lft.to/lastmile_qr_scan"}, "lon": -77.02283816666667, "name": "5e0b10d049b7e20e97993914481eff3d", "lat": 38.927139333333336, "is_reserved": 0, "fusion_lat": 0.0, "bike_id": "5e0b10d049b7e20e97993914481eff3d", "type": "electric_scooter", "is_disabled": 0, "fusion_lon": 0.0}, {"rental_uris": {"android": "https://dc.lft.to/lastmile_qr_scan", "ios": "https://dc.lft.to/lastmile_qr_scan"}, "lon": -77.0439545, "name": "fc9112df0c40e478a22d95bbbb4efc3a", "lat": 38.897321, "is_reserved": 0, "fusion_lat": 0.0, "bike_id": "fc9112df0c40e478a22d95bbbb4efc3a", "type": "electric_scooter", "is_disabled": 0, "fusion_lon": 0.0}, {"rental_uris": {"android": "https://dc.lft.to/lastmile_qr_scan", "ios": "https://dc.lft.to/lastmile_qr_scan"}, "lon": -77.040816, "name": "bdfff4dea17ea0d0db385e4ee8c1af99", "lat": 38.9148955, "is_reserved": 0, "fusion_lat": 0.0, "bike_id": "bdfff4dea17ea0d0db385e4ee8c1af99", "type": "electric_scooter", "is_disabled": 0, "fusion_lon": 0.0}, {"rental_uris": {"android": "https://dc.lft.to/lastmile_qr_scan", "ios": "https://dc.lft.to/lastmile_qr_scan"}, "lon": -77.01620183333333, "name": "2f9315d253c63edcd909107a38fcc5ff", "lat": 38.9035735, "is_reserved": 0, "fusion_lat": 0.0, "bike_id": "2f9315d253c63edcd909107a38fcc5ff", "type": "electric_scooter", "is_disabled": 0, "fusion_lon": 0.0}, {"rental_uris": {"android": "https://dc.lft.to/lastmile_qr_scan", "ios": "https://dc.lft.to/lastmile_qr_scan"}, "lon": -77.02508016666667, "name": "3df54719cc401228fa165db22e7d35e9", "lat": 38.91807266666667, "is_reserved": 0, "fusion_lat": 0.0, "bike_id": "3df54719cc401228fa165db22e7d35e9", "type": "electric_scooter", "is_disabled": 0, "fusion_lon": 0.0}, {"rental_uris": {"android": "https://dc.lft.to/lastmile_qr_scan", "ios": "https://dc.lft.to/lastmile_qr_scan"}, "lon": -77.03956883333333, "name": "39c81cd537fe3e1f416152b8fcfa36dc", "lat": 38.892422, "is_reserved": 0, "fusion_lat": 0.0, "bike_id": "39c81cd537fe3e1f416152b8fcfa36dc", "type": "electric_scooter", "is_disabled": 0, "fusion_lon": 0.0}, {"rental_uris": {"android": "https://dc.lft.to/lastmile_qr_scan", "ios": "https://dc.lft.to/lastmile_qr_scan"}, "lon": -77.02425316666667, "name": "dc2c4694a1d7c9959a5a7ff38a718f78", "lat": 38.92064383333334, "is_reserved": 0, "fusion_lat": 0.0, "bike_id": "dc2c4694a1d7c9959a5a7ff38a718f78", "type": "electric_scooter", "is_disabled": 0, "fusion_lon": 0.0}, {"rental_uris": {"android": "https://dc.lft.to/lastmile_qr_scan", "ios": "https://dc.lft.to/lastmile_qr_scan"}, "lon": -77.03852333333333, "name": "c27ba0858e03ba105808bf59bf68ca68", "lat": 38.903241666666666, "is_reserved": 0, "fusion_lat": 0.0, "bike_id": "c27ba0858e03ba105808bf59bf68ca68", "type": "electric_scooter", "is_disabled": 0, "fusion_lon": 0.0}, {"rental_uris": {"android": "https://dc.lft.to/lastmile_qr_scan", "ios": "https://dc.lft.to/lastmile_qr_scan"}, "lon": -77.044879, "name": "453accb4b26033c9513bd7f9beec0289", "lat": 38.897486, "is_reserved": 0, "fusion_lat": 0.0, "bike_id": "453accb4b26033c9513bd7f9beec0289", "type": "electric_scooter", "is_disabled": 0, "fusion_lon": 0.0}, {"rental_uris": {"android": "https://dc.lft.to/lastmile_qr_scan", "ios": "https://dc.lft.to/lastmile_qr_scan"}, "lon": -77.11749966666666, "name": "f8cadf34ce47343b026d3adcdde30269", "lat": 39.05104883333333, "is_reserved": 0, "fusion_lat": 0.0, "bike_id": "f8cadf34ce47343b026d3adcdde30269", "type": "electric_bike", "is_disabled": 0, "fusion_lon": 0.0}, {"rental_uris": {"android": "https://dc.lft.to/lastmile_qr_scan", "ios": "https://dc.lft.to/lastmile_qr_scan"}, "lon": -76.990416, "name": "97ca6aedcfcb329433b2700c229e0410", "lat": 38.86392583333333, "is_reserved": 0, "fusion_lat": 0.0, "bike_id": "97ca6aedcfcb329433b2700c229e0410", "type": "electric_scooter", "is_disabled": 0, "fusion_lon": 0.0}, {"rental_uris": {"android": "https://dc.lft.to/lastmile_qr_scan", "ios": "https://dc.lft.to/lastmile_qr_scan"}, "lon": -76.99234216666666, "name": "d9799a31ebabebd7cd8ca1855a31f9a0", "lat": 38.90795633333333, "is_reserved": 0, "fusion_lat": 0.0, "bike_id": "d9799a31ebabebd7cd8ca1855a31f9a0", "type": "electric_scooter", "is_disabled": 0, "fusion_lon": 0.0}, {"rental_uris": {"android": "https://dc.lft.to/lastmile_qr_scan", "ios": "https://dc.lft.to/lastmile_qr_scan"}, "lon": -76.96055716666666, "name": "dc875dc3c9825717d719af421a8822d8", "lat": 38.88398566666667, "is_reserved": 0, "fusion_lat": 0.0, "bike_id": "dc875dc3c9825717d719af421a8822d8", "type": "electric_bike", "is_disabled": 0, "fusion_lon": 0.0}, {"rental_uris": {"android": "https://dc.lft.to/lastmile_qr_scan", "ios": "https://dc.lft.to/lastmile_qr_scan"}, "lon": -77.02796233333333, "name": "ee8f5ec8e64ba8ae6f1e091bf553f056", "lat": 38.9035885, "is_reserved": 0, "fusion_lat": 0.0, "bike_id": "ee8f5ec8e64ba8ae6f1e091bf553f056", "type": "electric_scooter", "is_disabled": 0, "fusion_lon": 0.0}, {"rental_uris": {"android": "https://dc.lft.to/lastmile_qr_scan", "ios": "https://dc.lft.to/lastmile_qr_scan"}, "lon": -77.03849033333333, "name": "e93b7794199a3a8c4fb8d35015cae73c", "lat": 38.90254316666667, "is_reserved": 0, "fusion_lat": 0.0, "bike_id": "e93b7794199a3a8c4fb8d35015cae73c", "type": "electric_scooter", "is_disabled": 0, "fusion_lon": 0.0}, {"rental_uris": {"android": "https://dc.lft.to/lastmile_qr_scan", "ios": "https://dc.lft.to/lastmile_qr_scan"}, "lon": -77.03497966666667, "name": "0a4836de43c3b893851974d9878e09ad", "lat": 38.928636833333336, "is_reserved": 0, "fusion_lat": 0.0, "bike_id": "0a4836de43c3b893851974d9878e09ad", "type": "electric_scooter", "is_disabled": 0, "fusion_lon": 0.0}, {"rental_uris": {"android": "https://dc.lft.to/lastmile_qr_scan", "ios": "https://dc.lft.to/lastmile_qr_scan"}, "lon": -77.01198233333334, "name": "2a96046295b001f4c9774ac6faf81d6a", "lat": 38.9156605, "is_reserved": 0, "fusion_lat": 0.0, "bike_id": "2a96046295b001f4c9774ac6faf81d6a", "type": "electric_scooter", "is_disabled": 0, "fusion_lon": 0.0}, {"rental_uris": {"android": "https://dc.lft.to/lastmile_qr_scan", "ios": "https://dc.lft.to/lastmile_qr_scan"}, "lon": -76.98376366666666, "name": "7f379811516f995418d46cde1577fe08", "lat": 38.86032183333333, "is_reserved": 0, "fusion_lat": 0.0, "bike_id": "7f379811516f995418d46cde1577fe08", "type": "electric_scooter", "is_disabled": 0, "fusion_lon": 0.0}, {"rental_uris": {"android": "https://dc.lft.to/lastmile_qr_scan", "ios": "https://dc.lft.to/lastmile_qr_scan"}, "lon": -76.9470415, "name": "bc409cda5a3f093865da94a786548cf0", "lat": 38.89731316666666, "is_reserved": 0, "fusion_lat": 0.0, "bike_id": "bc409cda5a3f093865da94a786548cf0", "type": "electric_scooter", "is_disabled": 0, "fusion_lon": 0.0}, {"rental_uris": {"android": "https://dc.lft.to/lastmile_qr_scan", "ios": "https://dc.lft.to/lastmile_qr_scan"}, "lon": -77.02934816666667, "name": "9a682b290000c7571d5f4235bf55e133", "lat": 38.898306833333336, "is_reserved": 0, "fusion_lat": 0.0, "bike_id": "9a682b290000c7571d5f4235bf55e133", "type": "electric_scooter", "is_disabled": 0, "fusion_lon": 0.0}, {"rental_uris": {"android": "https://dc.lft.to/lastmile_qr_scan", "ios": "https://dc.lft.to/lastmile_qr_scan"}, "lon": -77.02183633333334, "name": "278604a084607af5a9b1514d8e8298c5", "lat": 38.898967999999996, "is_reserved": 0, "fusion_lat": 0.0, "bike_id": "278604a084607af5a9b1514d8e8298c5", "type": "electric_scooter", "is_disabled": 0, "fusion_lon": 0.0}, {"rental_uris": {"android": "https://dc.lft.to/lastmile_qr_scan", "ios": "https://dc.lft.to/lastmile_qr_scan"}, "lon": -77.0366095, "name": "e15e19b3f3cd40f1977be2c3ae5b4666", "lat": 38.92245916666667, "is_reserved": 0, "fusion_lat": 0.0, "bike_id": "e15e19b3f3cd40f1977be2c3ae5b4666", "type": "electric_scooter", "is_disabled": 0, "fusion_lon": 0.0}, {"rental_uris": {"android": "https://dc.lft.to/lastmile_qr_scan", "ios": "https://dc.lft.to/lastmile_qr_scan"}, "lon": -77.02481216666666, "name": "76ede59e9874e2883d56853344b84d1c", "lat": 38.938847833333334, "is_reserved": 0, "fusion_lat": 0.0, "bike_id": "76ede59e9874e2883d56853344b84d1c", "type": "electric_scooter", "is_disabled": 0, "fusion_lon": 0.0}, {"rental_uris": {"android": "https://dc.lft.to/lastmile_qr_scan", "ios": "https://dc.lft.to/lastmile_qr_scan"}, "lon": -77.02488583333333, "name": "946161b4c00710c2645b50a9dd5441ce", "lat": 38.94189016666667, "is_reserved": 0, "fusion_lat": 0.0, "bike_id": "946161b4c00710c2645b50a9dd5441ce", "type": "electric_scooter", "is_disabled": 0, "fusion_lon": 0.0}, {"rental_uris": {"android": "https://dc.lft.to/lastmile_qr_scan", "ios": "https://dc.lft.to/lastmile_qr_scan"}, "lon": -76.99031466666666, "name": "6e66da34489a1cf17ae9a924ce8e5c12", "lat": 38.93880016666667, "is_reserved": 0, "fusion_lat": 0.0, "bike_id": "6e66da34489a1cf17ae9a924ce8e5c12", "type": "electric_bike", "is_disabled": 0, "fusion_lon": 0.0}, {"rental_uris": {"android": "https://dc.lft.to/lastmile_qr_scan", "ios": "https://dc.lft.to/lastmile_qr_scan"}, "lon": -77.022872, "name": "1595c50f6a2eaf0c50a6aa0c47af255f", "lat": 38.91657383333333, "is_reserved": 0, "fusion_lat": 0.0, "bike_id": "1595c50f6a2eaf0c50a6aa0c47af255f", "type": "electric_scooter", "is_disabled": 0, "fusion_lon": 0.0}, {"rental_uris": {"android": "https://dc.lft.to/lastmile_qr_scan", "ios": "https://dc.lft.to/lastmile_qr_scan"}, "lon": -77.032616, "name": "0b8da7a8030bc4b74d34eb03789b9826", "lat": 38.935719666666664, "is_reserved": 0, "fusion_lat": 0.0, "bike_id": "0b8da7a8030bc4b74d34eb03789b9826", "type": "electric_scooter", "is_disabled": 0, "fusion_lon": 0.0}, {"rental_uris": {"android": "https://dc.lft.to/lastmile_qr_scan", "ios": "https://dc.lft.to/lastmile_qr_scan"}, "lon": -76.97543016666667, "name": "3758c9b21e106a3aeb2b7ec05536fe78", "lat": 38.903281666666665, "is_reserved": 0, "fusion_lat": 0.0, "bike_id": "3758c9b21e106a3aeb2b7ec05536fe78", "type": "electric_scooter", "is_disabled": 0, "fusion_lon": 0.0}, {"rental_uris": {"android": "https://dc.lft.to/lastmile_qr_scan", "ios": "https://dc.lft.to/lastmile_qr_scan"}, "lon": -77.0404075, "name": "2183b2ad9b82eb5407903a86720271a0", "lat": 38.9246495, "is_reserved": 0, "fusion_lat": 0.0, "bike_id": "2183b2ad9b82eb5407903a86720271a0", "type": "electric_scooter", "is_disabled": 0, "fusion_lon": 0.0}, {"rental_uris": {"android": "https://dc.lft.to/lastmile_qr_scan", "ios": "https://dc.lft.to/lastmile_qr_scan"}, "lon": -76.92885366666667, "name": "f7a7336af1e6eba22471f88935fd315c", "lat": 38.883721333333334, "is_reserved": 0, "fusion_lat": 0.0, "bike_id": "f7a7336af1e6eba22471f88935fd315c", "type": "electric_scooter", "is_disabled": 0, "fusion_lon": 0.0}, {"rental_uris": {"android": "https://dc.lft.to/lastmile_qr_scan", "ios": "https://dc.lft.to/lastmile_qr_scan"}, "lon": -77.06401966666667, "name": "62df53244519f9730df2ff4d2f26249f", "lat": 38.84348283333333, "is_reserved": 0, "fusion_lat": 0.0, "bike_id": "62df53244519f9730df2ff4d2f26249f", "type": "electric_bike", "is_disabled": 0, "fusion_lon": 0.0}, {"rental_uris": {"android": "https://dc.lft.to/lastmile_qr_scan", "ios": "https://dc.lft.to/lastmile_qr_scan"}, "lon": -77.014125, "name": "5cfd94474463856c4323988e2b47cd11", "lat": 38.928040333333335, "is_reserved": 0, "fusion_lat": 0.0, "bike_id": "5cfd94474463856c4323988e2b47cd11", "type": "electric_scooter", "is_disabled": 0, "fusion_lon": 0.0}, {"rental_uris": {"android": "https://dc.lft.to/lastmile_qr_scan", "ios": "https://dc.lft.to/lastmile_qr_scan"}, "lon": -77.03178283333334, "name": "866da1bb8bd6c0c759c24e2614378505", "lat": 38.89860266666667, "is_reserved": 0, "fusion_lat": 0.0, "bike_id": "866da1bb8bd6c0c759c24e2614378505", "type": "electric_scooter", "is_disabled": 0, "fusion_lon": 0.0}, {"rental_uris": {"android": "https://dc.lft.to/lastmile_qr_scan", "ios": "https://dc.lft.to/lastmile_qr_scan"}, "lon": -77.04334133333333, "name": "8a2a192d862951b150ad68c33b5216f0", "lat": 38.931346833333336, "is_reserved": 0, "fusion_lat": 0.0, "bike_id": "8a2a192d862951b150ad68c33b5216f0", "type": "electric_scooter", "is_disabled": 0, "fusion_lon": 0.0}, {"rental_uris": {"android": "https://dc.lft.to/lastmile_qr_scan", "ios": "https://dc.lft.to/lastmile_qr_scan"}, "lon": -77.02740483333334, "name": "aea809074bba8d3533c324ebcea1da76", "lat": 38.927711333333335, "is_reserved": 0, "fusion_lat": 0.0, "bike_id": "aea809074bba8d3533c324ebcea1da76", "type": "electric_scooter", "is_disabled": 0, "fusion_lon": 0.0}, {"rental_uris": {"android": "https://dc.lft.to/lastmile_qr_scan", "ios": "https://dc.lft.to/lastmile_qr_scan"}, "lon": -77.0099165, "name": "4f7f4a64041202c023c65c2b7436ca16", "lat": 38.87298216666667, "is_reserved": 0, "fusion_lat": 0.0, "bike_id": "4f7f4a64041202c023c65c2b7436ca16", "type": "electric_scooter", "is_disabled": 0, "fusion_lon": 0.0}, {"rental_uris": {"android": "https://dc.lft.to/lastmile_qr_scan", "ios": "https://dc.lft.to/lastmile_qr_scan"}, "lon": -77.00110283333333, "name": "a9efa8661835bb1c64d7de29ba48fd07", "lat": 38.9000845, "is_reserved": 0, "fusion_lat": 0.0, "bike_id": "a9efa8661835bb1c64d7de29ba48fd07", "type": "electric_scooter", "is_disabled": 0, "fusion_lon": 0.0}, {"rental_uris": {"android": "https://dc.lft.to/lastmile_qr_scan", "ios": "https://dc.lft.to/lastmile_qr_scan"}, "lon": -77.02935083333334, "name": "769fa152f6a1b2acd28cdb48494cef9d", "lat": 38.91708216666667, "is_reserved": 0, "fusion_lat": 0.0, "bike_id": "769fa152f6a1b2acd28cdb48494cef9d", "type": "electric_scooter", "is_disabled": 0, "fusion_lon": 0.0}, {"rental_uris": {"android": "https://dc.lft.to/lastmile_qr_scan", "ios": "https://dc.lft.to/lastmile_qr_scan"}, "lon": -77.03968033333334, "name": "7eab05b6476045470d590bd5482d9f56", "lat": 38.90260033333333, "is_reserved": 0, "fusion_lat": 0.0, "bike_id": "7eab05b6476045470d590bd5482d9f56", "type": "electric_scooter", "is_disabled": 0, "fusion_lon": 0.0}, {"rental_uris": {"android": "https://dc.lft.to/lastmile_qr_scan", "ios": "https://dc.lft.to/lastmile_qr_scan"}, "lon": -77.13305283333334, "name": "21a40bcd204dc72638d1092eaf9c92fa", "lat": 38.8871445, "is_reserved": 0, "fusion_lat": 0.0, "bike_id": "21a40bcd204dc72638d1092eaf9c92fa", "type": "electric_bike", "is_disabled": 0, "fusion_lon": 0.0}, {"rental_uris": {"android": "https://dc.lft.to/lastmile_qr_scan", "ios": "https://dc.lft.to/lastmile_qr_scan"}, "lon": -76.98245416666667, "name": "618cf6a1eb2c21f4b4dc90ec711f550c", "lat": 38.89984166666667, "is_reserved": 0, "fusion_lat": 0.0, "bike_id": "618cf6a1eb2c21f4b4dc90ec711f550c", "type": "electric_scooter", "is_disabled": 0, "fusion_lon": 0.0}, {"rental_uris": {"android": "https://dc.lft.to/lastmile_qr_scan", "ios": "https://dc.lft.to/lastmile_qr_scan"}, "lon": -77.06821433333333, "name": "566f384ade7d9a3fd96bf3e8fe871fb2", "lat": 38.91797066666667, "is_reserved": 0, "fusion_lat": 0.0, "bike_id": "566f384ade7d9a3fd96bf3e8fe871fb2", "type": "electric_scooter", "is_disabled": 0, "fusion_lon": 0.0}, {"rental_uris": {"android": "https://dc.lft.to/lastmile_qr_scan", "ios": "https://dc.lft.to/lastmile_qr_scan"}, "lon": -77.0272235, "name": "dc6882d8920f1517f28ad91e382b8f86", "lat": 38.911045666666666, "is_reserved": 0, "fusion_lat": 0.0, "bike_id": "dc6882d8920f1517f28ad91e382b8f86", "type": "electric_scooter", "is_disabled": 0, "fusion_lon": 0.0}, {"rental_uris": {"android": "https://dc.lft.to/lastmile_qr_scan", "ios": "https://dc.lft.to/lastmile_qr_scan"}, "lon": -77.00003933333333, "name": "cd59db4982000af08a058f79b06d915d", "lat": 38.87472483333333, "is_reserved": 0, "fusion_lat": 0.0, "bike_id": "cd59db4982000af08a058f79b06d915d", "type": "electric_scooter", "is_disabled": 0, "fusion_lon": 0.0}, {"rental_uris": {"android": "https://dc.lft.to/lastmile_qr_scan", "ios": "https://dc.lft.to/lastmile_qr_scan"}, "lon": -77.044766, "name": "b92debb5db659b028bdb981c5d598fb7", "lat": 38.91285583333333, "is_reserved": 0, "fusion_lat": 0.0, "bike_id": "b92debb5db659b028bdb981c5d598fb7", "type": "electric_scooter", "is_disabled": 0, "fusion_lon": 0.0}, {"rental_uris": {"android": "https://dc.lft.to/lastmile_qr_scan", "ios": "https://dc.lft.to/lastmile_qr_scan"}, "lon": -77.02752366666667, "name": "3e8f52c3814c5fc7f85d4daab5f734ba", "lat": 38.9439095, "is_reserved": 0, "fusion_lat": 0.0, "bike_id": "3e8f52c3814c5fc7f85d4daab5f734ba", "type": "electric_scooter", "is_disabled": 0, "fusion_lon": 0.0}, {"rental_uris": {"android": "https://dc.lft.to/lastmile_qr_scan", "ios": "https://dc.lft.to/lastmile_qr_scan"}, "lon": -77.02958716666667, "name": "88dbf0fcfbdd5c02d2711cc9b77505d6", "lat": 38.9225155, "is_reserved": 0, "fusion_lat": 0.0, "bike_id": "88dbf0fcfbdd5c02d2711cc9b77505d6", "type": "electric_scooter", "is_disabled": 0, "fusion_lon": 0.0}, {"rental_uris": {"android": "https://dc.lft.to/lastmile_qr_scan", "ios": "https://dc.lft.to/lastmile_qr_scan"}, "lon": -76.996032, "name": "85b06963655807d43ee93174481f7e1e", "lat": 38.928501, "is_reserved": 0, "fusion_lat": 0.0, "bike_id": "85b06963655807d43ee93174481f7e1e", "type": "electric_scooter", "is_disabled": 0, "fusion_lon": 0.0}, {"rental_uris": {"android": "https://dc.lft.to/lastmile_qr_scan", "ios": "https://dc.lft.to/lastmile_qr_scan"}, "lon": -77.040194, "name": "9f12f5a72d7b55d8e5fe1ef9a4f91a24", "lat": 38.8966575, "is_reserved": 0, "fusion_lat": 0.0, "bike_id": "9f12f5a72d7b55d8e5fe1ef9a4f91a24", "type": "electric_scooter", "is_disabled": 0, "fusion_lon": 0.0}, {"rental_uris": {"android": "https://dc.lft.to/lastmile_qr_scan", "ios": "https://dc.lft.to/lastmile_qr_scan"}, "lon": -77.03863683333333, "name": "4434076a6040a93bec0136749670c1b9", "lat": 38.90257233333333, "is_reserved": 0, "fusion_lat": 0.0, "bike_id": "4434076a6040a93bec0136749670c1b9", "type": "electric_scooter", "is_disabled": 0, "fusion_lon": 0.0}, {"rental_uris": {"android": "https://dc.lft.to/lastmile_qr_scan", "ios": "https://dc.lft.to/lastmile_qr_scan"}, "lon": -77.034917, "name": "1d758e3e23dce5d746aab5ab2faf812f", "lat": 38.909724, "is_reserved": 0, "fusion_lat": 0.0, "bike_id": "1d758e3e23dce5d746aab5ab2faf812f", "type": "electric_scooter", "is_disabled": 0, "fusion_lon": 0.0}, {"rental_uris": {"android": "https://dc.lft.to/lastmile_qr_scan", "ios": "https://dc.lft.to/lastmile_qr_scan"}, "lon": -76.9904035, "name": "b0aa7c8868ec73db948134f899ae3043", "lat": 38.86390766666667, "is_reserved": 0, "fusion_lat": 0.0, "bike_id": "b0aa7c8868ec73db948134f899ae3043", "type": "electric_scooter", "is_disabled": 0, "fusion_lon": 0.0}, {"rental_uris": {"android": "https://dc.lft.to/lastmile_qr_scan", "ios": "https://dc.lft.to/lastmile_qr_scan"}, "lon": -77.004176, "name": "f78ad92d476207679cc6529649ea60a2", "lat": 38.8758275, "is_reserved": 0, "fusion_lat": 0.0, "bike_id": "f78ad92d476207679cc6529649ea60a2", "type": "electric_scooter", "is_disabled": 0, "fusion_lon": 0.0}, {"rental_uris": {"android": "https://dc.lft.to/lastmile_qr_scan", "ios": "https://dc.lft.to/lastmile_qr_scan"}, "lon": -77.0141475, "name": "1a58c8321c4d78a3af4797bdbf55b1a4", "lat": 38.906548666666666, "is_reserved": 0, "fusion_lat": 0.0, "bike_id": "1a58c8321c4d78a3af4797bdbf55b1a4", "type": "electric_scooter", "is_disabled": 0, "fusion_lon": 0.0}, {"rental_uris": {"android": "https://dc.lft.to/lastmile_qr_scan", "ios": "https://dc.lft.to/lastmile_qr_scan"}, "lon": -77.04649833333333, "name": "95281ec75e197d8a53dd59100486f4f7", "lat": 38.909566833333336, "is_reserved": 0, "fusion_lat": 0.0, "bike_id": "95281ec75e197d8a53dd59100486f4f7", "type": "electric_scooter", "is_disabled": 0, "fusion_lon": 0.0}, {"rental_uris": {"android": "https://dc.lft.to/lastmile_qr_scan", "ios": "https://dc.lft.to/lastmile_qr_scan"}, "lon": -76.98000566666667, "name": "a400c339886985045514270aa593c593", "lat": 38.86425533333333, "is_reserved": 0, "fusion_lat": 0.0, "bike_id": "a400c339886985045514270aa593c593", "type": "electric_scooter", "is_disabled": 0, "fusion_lon": 0.0}, {"rental_uris": {"android": "https://dc.lft.to/lastmile_qr_scan", "ios": "https://dc.lft.to/lastmile_qr_scan"}, "lon": -77.04706583333333, "name": "a77ffb7e18101628bd50c3b150f10dd8", "lat": 38.921731333333334, "is_reserved": 0, "fusion_lat": 0.0, "bike_id": "a77ffb7e18101628bd50c3b150f10dd8", "type": "electric_scooter", "is_disabled": 0, "fusion_lon": 0.0}, {"rental_uris": {"android": "https://dc.lft.to/lastmile_qr_scan", "ios": "https://dc.lft.to/lastmile_qr_scan"}, "lon": -77.02373216666666, "name": "ae6a2eda412aa7f843490ec24afc0e20", "lat": 38.9072035, "is_reserved": 0, "fusion_lat": 0.0, "bike_id": "ae6a2eda412aa7f843490ec24afc0e20", "type": "electric_scooter", "is_disabled": 0, "fusion_lon": 0.0}, {"rental_uris": {"android": "https://dc.lft.to/lastmile_qr_scan", "ios": "https://dc.lft.to/lastmile_qr_scan"}, "lon": -77.03060866666667, "name": "b210dc9489bd797b00a730e3206e9c7d", "lat": 38.902485666666664, "is_reserved": 0, "fusion_lat": 0.0, "bike_id": "b210dc9489bd797b00a730e3206e9c7d", "type": "electric_scooter", "is_disabled": 0, "fusion_lon": 0.0}, {"rental_uris": {"android": "https://dc.lft.to/lastmile_qr_scan", "ios": "https://dc.lft.to/lastmile_qr_scan"}, "lon": -77.03769966666667, "name": "957d5bbe692aaefc952c0bd14d3dbec4", "lat": 38.996923, "is_reserved": 0, "fusion_lat": 0.0, "bike_id": "957d5bbe692aaefc952c0bd14d3dbec4", "type": "electric_bike", "is_disabled": 0, "fusion_lon": 0.0}, {"rental_uris": {"android": "https://dc.lft.to/lastmile_qr_scan", "ios": "https://dc.lft.to/lastmile_qr_scan"}, "lon": -77.02690666666666, "name": "267972e4bc469841a2b2e9c5f8608348", "lat": 38.89759733333333, "is_reserved": 0, "fusion_lat": 0.0, "bike_id": "267972e4bc469841a2b2e9c5f8608348", "type": "electric_scooter", "is_disabled": 0, "fusion_lon": 0.0}, {"rental_uris": {"android": "https://dc.lft.to/lastmile_qr_scan", "ios": "https://dc.lft.to/lastmile_qr_scan"}, "lon": -77.01391633333333, "name": "173c91157a973979dcbfff6bca1e1958", "lat": 38.94229833333333, "is_reserved": 0, "fusion_lat": 0.0, "bike_id": "173c91157a973979dcbfff6bca1e1958", "type": "electric_scooter", "is_disabled": 0, "fusion_lon": 0.0}, {"rental_uris": {"android": "https://dc.lft.to/lastmile_qr_scan", "ios": "https://dc.lft.to/lastmile_qr_scan"}, "lon": -77.04869266666667, "name": "6e357b70ff09c6cc05bc88cbdb0c6a07", "lat": 38.91237866666667, "is_reserved": 0, "fusion_lat": 0.0, "bike_id": "6e357b70ff09c6cc05bc88cbdb0c6a07", "type": "electric_scooter", "is_disabled": 0, "fusion_lon": 0.0}, {"rental_uris": {"android": "https://dc.lft.to/lastmile_qr_scan", "ios": "https://dc.lft.to/lastmile_qr_scan"}, "lon": -76.963688, "name": "3eea674cf770d2d9e4b0f52ffb76ecf5", "lat": 38.94901766666667, "is_reserved": 0, "fusion_lat": 0.0, "bike_id": "3eea674cf770d2d9e4b0f52ffb76ecf5", "type": "electric_bike", "is_disabled": 0, "fusion_lon": 0.0}, {"rental_uris": {"android": "https://dc.lft.to/lastmile_qr_scan", "ios": "https://dc.lft.to/lastmile_qr_scan"}, "lon": -76.9541975, "name": "72dec109a61da350eebd659013903b80", "lat": 38.88997333333333, "is_reserved": 0, "fusion_lat": 0.0, "bike_id": "72dec109a61da350eebd659013903b80", "type": "electric_scooter", "is_disabled": 0, "fusion_lon": 0.0}, {"rental_uris": {"android": "https://dc.lft.to/lastmile_qr_scan", "ios": "https://dc.lft.to/lastmile_qr_scan"}, "lon": -77.01069166666667, "name": "cc1dd0d8b9a08b27f76891b1d27d8ba6", "lat": 38.92033933333333, "is_reserved": 0, "fusion_lat": 0.0, "bike_id": "cc1dd0d8b9a08b27f76891b1d27d8ba6", "type": "electric_scooter", "is_disabled": 0, "fusion_lon": 0.0}, {"rental_uris": {"android": "https://dc.lft.to/lastmile_qr_scan", "ios": "https://dc.lft.to/lastmile_qr_scan"}, "lon": -77.011688, "name": "1db3e2dc5e7f33b4d2822708488f28b8", "lat": 38.9133955, "is_reserved": 0, "fusion_lat": 0.0, "bike_id": "1db3e2dc5e7f33b4d2822708488f28b8", "type": "electric_scooter", "is_disabled": 0, "fusion_lon": 0.0}, {"rental_uris": {"android": "https://dc.lft.to/lastmile_qr_scan", "ios": "https://dc.lft.to/lastmile_qr_scan"}, "lon": -77.04677, "name": "538e278446ad82df454ac6cc342ac135", "lat": 38.89561533333333, "is_reserved": 0, "fusion_lat": 0.0, "bike_id": "538e278446ad82df454ac6cc342ac135", "type": "electric_scooter", "is_disabled": 0, "fusion_lon": 0.0}, {"rental_uris": {"android": "https://dc.lft.to/lastmile_qr_scan", "ios": "https://dc.lft.to/lastmile_qr_scan"}, "lon": -77.04230166666666, "name": "abc076e01c5f299c91e80a20b32ce9bc", "lat": 38.911061, "is_reserved": 0, "fusion_lat": 0.0, "bike_id": "abc076e01c5f299c91e80a20b32ce9bc", "type": "electric_scooter", "is_disabled": 0, "fusion_lon": 0.0}, {"rental_uris": {"android": "https://dc.lft.to/lastmile_qr_scan", "ios": "https://dc.lft.to/lastmile_qr_scan"}, "lon": -77.0234575, "name": "07a171c59ac911efa1e91ad63bd1f337", "lat": 38.935359166666665, "is_reserved": 0, "fusion_lat": 0.0, "bike_id": "07a171c59ac911efa1e91ad63bd1f337", "type": "electric_scooter", "is_disabled": 0, "fusion_lon": 0.0}, {"rental_uris": {"android": "https://dc.lft.to/lastmile_qr_scan", "ios": "https://dc.lft.to/lastmile_qr_scan"}, "lon": -77.0347645, "name": "285682cf379032479266228675afa066", "lat": 38.905558, "is_reserved": 0, "fusion_lat": 0.0, "bike_id": "285682cf379032479266228675afa066", "type": "electric_scooter", "is_disabled": 0, "fusion_lon": 0.0}, {"rental_uris": {"android": "https://dc.lft.to/lastmile_qr_scan", "ios": "https://dc.lft.to/lastmile_qr_scan"}, "lon": -77.02304966666667, "name": "9df2e9d3fde776f9e71e349856a44d7f", "lat": 38.92660583333333, "is_reserved": 0, "fusion_lat": 0.0, "bike_id": "9df2e9d3fde776f9e71e349856a44d7f", "type": "electric_scooter", "is_disabled": 0, "fusion_lon": 0.0}, {"rental_uris": {"android": "https://dc.lft.to/lastmile_qr_scan", "ios": "https://dc.lft.to/lastmile_qr_scan"}, "lon": -77.04360183333333, "name": "94c79aee6d8537a071c5a128ab70d694", "lat": 38.90393816666667, "is_reserved": 0, "fusion_lat": 0.0, "bike_id": "94c79aee6d8537a071c5a128ab70d694", "type": "electric_scooter", "is_disabled": 0, "fusion_lon": 0.0}, {"rental_uris": {"android": "https://dc.lft.to/lastmile_qr_scan", "ios": "https://dc.lft.to/lastmile_qr_scan"}, "lon": -77.04194116666666, "name": "8eef50784d09f53093117750d63bed3f", "lat": 38.90636766666667, "is_reserved": 0, "fusion_lat": 0.0, "bike_id": "8eef50784d09f53093117750d63bed3f", "type": "electric_scooter", "is_disabled": 0, "fusion_lon": 0.0}, {"rental_uris": {"android": "https://dc.lft.to/lastmile_qr_scan", "ios": "https://dc.lft.to/lastmile_qr_scan"}, "lon": -77.03301883333333, "name": "931dfb3a0185fe98899d7ec52b34905a", "lat": 38.92452466666667, "is_reserved": 0, "fusion_lat": 0.0, "bike_id": "931dfb3a0185fe98899d7ec52b34905a", "type": "electric_scooter", "is_disabled": 0, "fusion_lon": 0.0}, {"rental_uris": {"android": "https://dc.lft.to/lastmile_qr_scan", "ios": "https://dc.lft.to/lastmile_qr_scan"}, "lon": -76.9801935, "name": "cc993da3c4f98b245b81a82b2e64e950", "lat": 38.900972833333334, "is_reserved": 0, "fusion_lat": 0.0, "bike_id": "cc993da3c4f98b245b81a82b2e64e950", "type": "electric_scooter", "is_disabled": 0, "fusion_lon": 0.0}, {"rental_uris": {"android": "https://dc.lft.to/lastmile_qr_scan", "ios": "https://dc.lft.to/lastmile_qr_scan"}, "lon": -77.04234083333333, "name": "726c9d2ea6d8af2c7fb902174b4120b6", "lat": 38.911099, "is_reserved": 0, "fusion_lat": 0.0, "bike_id": "726c9d2ea6d8af2c7fb902174b4120b6", "type": "electric_scooter", "is_disabled": 0, "fusion_lon": 0.0}, {"rental_uris": {"android": "https://dc.lft.to/lastmile_qr_scan", "ios": "https://dc.lft.to/lastmile_qr_scan"}, "lon": -77.0419935, "name": "779c617a5bb96ce8441a7ee300d5e03c", "lat": 38.89225183333333, "is_reserved": 0, "fusion_lat": 0.0, "bike_id": "779c617a5bb96ce8441a7ee300d5e03c", "type": "electric_scooter", "is_disabled": 0, "fusion_lon": 0.0}, {"rental_uris": {"android": "https://dc.lft.to/lastmile_qr_scan", "ios": "https://dc.lft.to/lastmile_qr_scan"}, "lon": -77.02358, "name": "97492ec5ff53aa42983e0b59caebf4f5", "lat": 38.925131, "is_reserved": 0, "fusion_lat": 0.0, "bike_id": "97492ec5ff53aa42983e0b59caebf4f5", "type": "electric_scooter", "is_disabled": 0, "fusion_lon": 0.0}, {"rental_uris": {"android": "https://dc.lft.to/lastmile_qr_scan", "ios": "https://dc.lft.to/lastmile_qr_scan"}, "lon": -77.029773, "name": "1148c65a43e18456d9fda1f8bb8411e0", "lat": 38.907169833333334, "is_reserved": 0, "fusion_lat": 0.0, "bike_id": "1148c65a43e18456d9fda1f8bb8411e0", "type": "electric_scooter", "is_disabled": 0, "fusion_lon": 0.0}, {"rental_uris": {"android": "https://dc.lft.to/lastmile_qr_scan", "ios": "https://dc.lft.to/lastmile_qr_scan"}, "lon": -77.04614566666666, "name": "731d9d38ba3e50964a35bf70422ae537", "lat": 38.9066255, "is_reserved": 0, "fusion_lat": 0.0, "bike_id": "731d9d38ba3e50964a35bf70422ae537", "type": "electric_scooter", "is_disabled": 0, "fusion_lon": 0.0}, {"rental_uris": {"android": "https://dc.lft.to/lastmile_qr_scan", "ios": "https://dc.lft.to/lastmile_qr_scan"}, "lon": -77.017515, "name": "6b189584da593a4d3784860127516361", "lat": 38.88296116666667, "is_reserved": 0, "fusion_lat": 0.0, "bike_id": "6b189584da593a4d3784860127516361", "type": "electric_scooter", "is_disabled": 0, "fusion_lon": 0.0}, {"rental_uris": {"android": "https://dc.lft.to/lastmile_qr_scan", "ios": "https://dc.lft.to/lastmile_qr_scan"}, "lon": -77.02003466666666, "name": "4591f7da916324cd311dd9f40699115a", "lat": 38.89249216666666, "is_reserved": 0, "fusion_lat": 0.0, "bike_id": "4591f7da916324cd311dd9f40699115a", "type": "electric_scooter", "is_disabled": 0, "fusion_lon": 0.0}, {"rental_uris": {"android": "https://dc.lft.to/lastmile_qr_scan", "ios": "https://dc.lft.to/lastmile_qr_scan"}, "lon": -77.02242766666667, "name": "e269e91cd173490066b86673fa023794", "lat": 38.922164333333335, "is_reserved": 0, "fusion_lat": 0.0, "bike_id": "e269e91cd173490066b86673fa023794", "type": "electric_scooter", "is_disabled": 0, "fusion_lon": 0.0}, {"rental_uris": {"android": "https://dc.lft.to/lastmile_qr_scan", "ios": "https://dc.lft.to/lastmile_qr_scan"}, "lon": -77.0174035, "name": "15fc572a79d7f2a4023fc14718650543", "lat": 38.9399525, "is_reserved": 0, "fusion_lat": 0.0, "bike_id": "15fc572a79d7f2a4023fc14718650543", "type": "electric_scooter", "is_disabled": 0, "fusion_lon": 0.0}, {"rental_uris": {"android": "https://dc.lft.to/lastmile_qr_scan", "ios": "https://dc.lft.to/lastmile_qr_scan"}, "lon": -76.99032716666666, "name": "a0d418bf5f59ced19a54a4016ad1501b", "lat": 38.89848466666667, "is_reserved": 0, "fusion_lat": 0.0, "bike_id": "a0d418bf5f59ced19a54a4016ad1501b", "type": "electric_scooter", "is_disabled": 0, "fusion_lon": 0.0}, {"rental_uris": {"android": "https://dc.lft.to/lastmile_qr_scan", "ios": "https://dc.lft.to/lastmile_qr_scan"}, "lon": -77.01411, "name": "5c4c4585f35d8473c01b090271c94d74", "lat": 38.9140185, "is_reserved": 0, "fusion_lat": 0.0, "bike_id": "5c4c4585f35d8473c01b090271c94d74", "type": "electric_scooter", "is_disabled": 0, "fusion_lon": 0.0}, {"rental_uris": {"android": "https://dc.lft.to/lastmile_qr_scan", "ios": "https://dc.lft.to/lastmile_qr_scan"}, "lon": -77.04421766666667, "name": "d530909825dd31d2e5cdbedee58d2673", "lat": 38.894042, "is_reserved": 0, "fusion_lat": 0.0, "bike_id": "d530909825dd31d2e5cdbedee58d2673", "type": "electric_scooter", "is_disabled": 0, "fusion_lon": 0.0}, {"rental_uris": {"android": "https://dc.lft.to/lastmile_qr_scan", "ios": "https://dc.lft.to/lastmile_qr_scan"}, "lon": -76.9837145, "name": "e6ca664be57992b33d216a69ad9de069", "lat": 38.9148255, "is_reserved": 0, "fusion_lat": 0.0, "bike_id": "e6ca664be57992b33d216a69ad9de069", "type": "electric_scooter", "is_disabled": 0, "fusion_lon": 0.0}, {"rental_uris": {"android": "https://dc.lft.to/lastmile_qr_scan", "ios": "https://dc.lft.to/lastmile_qr_scan"}, "lon": -77.03221433333333, "name": "49cebd92a30f375ecab53e84db6f61d8", "lat": 38.936196833333334, "is_reserved": 0, "fusion_lat": 0.0, "bike_id": "49cebd92a30f375ecab53e84db6f61d8", "type": "electric_scooter", "is_disabled": 0, "fusion_lon": 0.0}, {"rental_uris": {"android": "https://dc.lft.to/lastmile_qr_scan", "ios": "https://dc.lft.to/lastmile_qr_scan"}, "lon": -77.007687, "name": "fcf9ce2315a07efb624dbd1ff712b95d", "lat": 38.9269935, "is_reserved": 0, "fusion_lat": 0.0, "bike_id": "fcf9ce2315a07efb624dbd1ff712b95d", "type": "electric_scooter", "is_disabled": 0, "fusion_lon": 0.0}, {"rental_uris": {"android": "https://dc.lft.to/lastmile_qr_scan", "ios": "https://dc.lft.to/lastmile_qr_scan"}, "lon": -77.02085983333333, "name": "44d9b17e9760b29909743ddc7edef01d", "lat": 38.93013666666667, "is_reserved": 0, "fusion_lat": 0.0, "bike_id": "44d9b17e9760b29909743ddc7edef01d", "type": "electric_scooter", "is_disabled": 0, "fusion_lon": 0.0}, {"rental_uris": {"android": "https://dc.lft.to/lastmile_qr_scan", "ios": "https://dc.lft.to/lastmile_qr_scan"}, "lon": -77.02201466666666, "name": "d4077e93a9757dd42acacf73b628d844", "lat": 38.91993083333333, "is_reserved": 0, "fusion_lat": 0.0, "bike_id": "d4077e93a9757dd42acacf73b628d844", "type": "electric_scooter", "is_disabled": 0, "fusion_lon": 0.0}, {"rental_uris": {"android": "https://dc.lft.to/lastmile_qr_scan", "ios": "https://dc.lft.to/lastmile_qr_scan"}, "lon": -77.02412683333333, "name": "c76837481ca9992f0c295ac7b5c0e771", "lat": 38.9351815, "is_reserved": 0, "fusion_lat": 0.0, "bike_id": "c76837481ca9992f0c295ac7b5c0e771", "type": "electric_scooter", "is_disabled": 0, "fusion_lon": 0.0}, {"rental_uris": {"android": "https://dc.lft.to/lastmile_qr_scan", "ios": "https://dc.lft.to/lastmile_qr_scan"}, "lon": -76.98000333333333, "name": "b294eb9e06a86f3d1348a11352b03b5a", "lat": 38.90680566666666, "is_reserved": 0, "fusion_lat": 0.0, "bike_id": "b294eb9e06a86f3d1348a11352b03b5a", "type": "electric_scooter", "is_disabled": 0, "fusion_lon": 0.0}, {"rental_uris": {"android": "https://dc.lft.to/lastmile_qr_scan", "ios": "https://dc.lft.to/lastmile_qr_scan"}, "lon": -76.956648, "name": "f2f4baa8fe11aeae945445addc91341e", "lat": 38.884889, "is_reserved": 0, "fusion_lat": 0.0, "bike_id": "f2f4baa8fe11aeae945445addc91341e", "type": "electric_bike", "is_disabled": 0, "fusion_lon": 0.0}, {"rental_uris": {"android": "https://dc.lft.to/lastmile_qr_scan", "ios": "https://dc.lft.to/lastmile_qr_scan"}, "lon": -77.00198616666667, "name": "301a073e3d0a1d512c150d61dcba4add", "lat": 38.96614916666667, "is_reserved": 0, "fusion_lat": 0.0, "bike_id": "301a073e3d0a1d512c150d61dcba4add", "type": "electric_scooter", "is_disabled": 0, "fusion_lon": 0.0}, {"rental_uris": {"android": "https://dc.lft.to/lastmile_qr_scan", "ios": "https://dc.lft.to/lastmile_qr_scan"}, "lon": -76.94531716666667, "name": "d009f5191921546404722443da0f0751", "lat": 38.867537, "is_reserved": 0, "fusion_lat": 0.0, "bike_id": "d009f5191921546404722443da0f0751", "type": "electric_bike", "is_disabled": 0, "fusion_lon": 0.0}, {"rental_uris": {"android": "https://dc.lft.to/lastmile_qr_scan", "ios": "https://dc.lft.to/lastmile_qr_scan"}, "lon": -77.00562533333333, "name": "44c1e05f3ad13efe1f88e5f06f86c43c", "lat": 38.905505, "is_reserved": 0, "fusion_lat": 0.0, "bike_id": "44c1e05f3ad13efe1f88e5f06f86c43c", "type": "electric_scooter", "is_disabled": 0, "fusion_lon": 0.0}, {"rental_uris": {"android": "https://dc.lft.to/lastmile_qr_scan", "ios": "https://dc.lft.to/lastmile_qr_scan"}, "lon": -76.9808275, "name": "fff75cdccf8c5d1cfe07cfd481bd2da7", "lat": 38.92249066666667, "is_reserved": 0, "fusion_lat": 0.0, "bike_id": "fff75cdccf8c5d1cfe07cfd481bd2da7", "type": "electric_scooter", "is_disabled": 0, "fusion_lon": 0.0}, {"rental_uris": {"android": "https://dc.lft.to/lastmile_qr_scan", "ios": "https://dc.lft.to/lastmile_qr_scan"}, "lon": -77.0513225, "name": "3a2de384db9a775747c37bbdcd47700d", "lat": 38.90518983333333, "is_reserved": 0, "fusion_lat": 0.0, "bike_id": "3a2de384db9a775747c37bbdcd47700d", "type": "electric_scooter", "is_disabled": 0, "fusion_lon": 0.0}, {"rental_uris": {"android": "https://dc.lft.to/lastmile_qr_scan", "ios": "https://dc.lft.to/lastmile_qr_scan"}, "lon": -77.04145116666666, "name": "5722a0328e572e1dcf4c38a8f1536681", "lat": 38.916376, "is_reserved": 0, "fusion_lat": 0.0, "bike_id": "5722a0328e572e1dcf4c38a8f1536681", "type": "electric_scooter", "is_disabled": 0, "fusion_lon": 0.0}, {"rental_uris": {"android": "https://dc.lft.to/lastmile_qr_scan", "ios": "https://dc.lft.to/lastmile_qr_scan"}, "lon": -77.00790533333333, "name": "df271dd569c95ac2e8b493f2c087fcf6", "lat": 38.907135833333335, "is_reserved": 0, "fusion_lat": 0.0, "bike_id": "df271dd569c95ac2e8b493f2c087fcf6", "type": "electric_scooter", "is_disabled": 0, "fusion_lon": 0.0}, {"rental_uris": {"android": "https://dc.lft.to/lastmile_qr_scan", "ios": "https://dc.lft.to/lastmile_qr_scan"}, "lon": -77.0326525, "name": "c4a856a27b0736551ecd055e881242de", "lat": 38.9192725, "is_reserved": 0, "fusion_lat": 0.0, "bike_id": "c4a856a27b0736551ecd055e881242de", "type": "electric_scooter", "is_disabled": 0, "fusion_lon": 0.0}, {"rental_uris": {"android": "https://dc.lft.to/lastmile_qr_scan", "ios": "https://dc.lft.to/lastmile_qr_scan"}, "lon": -77.002095, "name": "180c8697776604afa5798e48ada1e527", "lat": 38.90032766666667, "is_reserved": 0, "fusion_lat": 0.0, "bike_id": "180c8697776604afa5798e48ada1e527", "type": "electric_scooter", "is_disabled": 0, "fusion_lon": 0.0}, {"rental_uris": {"android": "https://dc.lft.to/lastmile_qr_scan", "ios": "https://dc.lft.to/lastmile_qr_scan"}, "lon": -76.99600466666666, "name": "088438232aeb7be4a8c5789bc08e99b5", "lat": 38.8569025, "is_reserved": 0, "fusion_lat": 0.0, "bike_id": "088438232aeb7be4a8c5789bc08e99b5", "type": "electric_scooter", "is_disabled": 0, "fusion_lon": 0.0}, {"rental_uris": {"android": "https://dc.lft.to/lastmile_qr_scan", "ios": "https://dc.lft.to/lastmile_qr_scan"}, "lon": -76.9949815, "name": "103d1591a0795e31b1adf31000c89673", "lat": 38.90985416666667, "is_reserved": 0, "fusion_lat": 0.0, "bike_id": "103d1591a0795e31b1adf31000c89673", "type": "electric_scooter", "is_disabled": 0, "fusion_lon": 0.0}, {"rental_uris": {"android": "https://dc.lft.to/lastmile_qr_scan", "ios": "https://dc.lft.to/lastmile_qr_scan"}, "lon": -77.028542, "name": "5d465ec2e57dc7915f7323bc5a5f9a36", "lat": 38.92770083333333, "is_reserved": 0, "fusion_lat": 0.0, "bike_id": "5d465ec2e57dc7915f7323bc5a5f9a36", "type": "electric_scooter", "is_disabled": 0, "fusion_lon": 0.0}, {"rental_uris": {"android": "https://dc.lft.to/lastmile_qr_scan", "ios": "https://dc.lft.to/lastmile_qr_scan"}, "lon": -76.985622, "name": "1691c95aa62a048bde90cd2eceed3495", "lat": 38.866885833333335, "is_reserved": 0, "fusion_lat": 0.0, "bike_id": "1691c95aa62a048bde90cd2eceed3495", "type": "electric_scooter", "is_disabled": 0, "fusion_lon": 0.0}, {"rental_uris": {"android": "https://dc.lft.to/lastmile_qr_scan", "ios": "https://dc.lft.to/lastmile_qr_scan"}, "lon": -77.01715766666666, "name": "1906cf55bd48e00517048f1560a9d7f2", "lat": 38.902339, "is_reserved": 0, "fusion_lat": 0.0, "bike_id": "1906cf55bd48e00517048f1560a9d7f2", "type": "electric_scooter", "is_disabled": 0, "fusion_lon": 0.0}, {"rental_uris": {"android": "https://dc.lft.to/lastmile_qr_scan", "ios": "https://dc.lft.to/lastmile_qr_scan"}, "lon": -77.07321666666667, "name": "24ba6002dc970f37e74482ca9e6e7c50", "lat": 38.92728533333333, "is_reserved": 0, "fusion_lat": 0.0, "bike_id": "24ba6002dc970f37e74482ca9e6e7c50", "type": "electric_bike", "is_disabled": 0, "fusion_lon": 0.0}, {"rental_uris": {"android": "https://dc.lft.to/lastmile_qr_scan", "ios": "https://dc.lft.to/lastmile_qr_scan"}, "lon": -77.04480916666667, "name": "9dce91aa2b3747e257723cde84a3b83c", "lat": 38.90360366666667, "is_reserved": 0, "fusion_lat": 0.0, "bike_id": "9dce91aa2b3747e257723cde84a3b83c", "type": "electric_scooter", "is_disabled": 0, "fusion_lon": 0.0}, {"rental_uris": {"android": "https://dc.lft.to/lastmile_qr_scan", "ios": "https://dc.lft.to/lastmile_qr_scan"}, "lon": -77.02179333333333, "name": "bec52604ae768eaf03ad5b9e18974d68", "lat": 38.91605783333333, "is_reserved": 0, "fusion_lat": 0.0, "bike_id": "bec52604ae768eaf03ad5b9e18974d68", "type": "electric_scooter", "is_disabled": 0, "fusion_lon": 0.0}, {"rental_uris": {"android": "https://dc.lft.to/lastmile_qr_scan", "ios": "https://dc.lft.to/lastmile_qr_scan"}, "lon": -76.979212, "name": "f7ce39a5c2b82fada9ac8a5980b33874", "lat": 38.92458383333334, "is_reserved": 0, "fusion_lat": 0.0, "bike_id": "f7ce39a5c2b82fada9ac8a5980b33874", "type": "electric_scooter", "is_disabled": 0, "fusion_lon": 0.0}, {"rental_uris": {"android": "https://dc.lft.to/lastmile_qr_scan", "ios": "https://dc.lft.to/lastmile_qr_scan"}, "lon": -77.0279255, "name": "10c5c74c0acfa32e6721f378a4fba34f", "lat": 38.930601833333334, "is_reserved": 0, "fusion_lat": 0.0, "bike_id": "10c5c74c0acfa32e6721f378a4fba34f", "type": "electric_scooter", "is_disabled": 0, "fusion_lon": 0.0}, {"rental_uris": {"android": "https://dc.lft.to/lastmile_qr_scan", "ios": "https://dc.lft.to/lastmile_qr_scan"}, "lon": -77.03710383333333, "name": "20f4d36f0c78f2bbcc9a32f29de3fb85", "lat": 38.926406, "is_reserved": 0, "fusion_lat": 0.0, "bike_id": "20f4d36f0c78f2bbcc9a32f29de3fb85", "type": "electric_scooter", "is_disabled": 0, "fusion_lon": 0.0}, {"rental_uris": {"android": "https://dc.lft.to/lastmile_qr_scan", "ios": "https://dc.lft.to/lastmile_qr_scan"}, "lon": -77.0212445, "name": "d671a6b448175d5fc2838ac45eafbd8f", "lat": 38.931095, "is_reserved": 0, "fusion_lat": 0.0, "bike_id": "d671a6b448175d5fc2838ac45eafbd8f", "type": "electric_scooter", "is_disabled": 0, "fusion_lon": 0.0}, {"rental_uris": {"android": "https://dc.lft.to/lastmile_qr_scan", "ios": "https://dc.lft.to/lastmile_qr_scan"}, "lon": -77.0093715, "name": "3c956aeebb73d7ddb9ccdc5033ad0691", "lat": 38.87603, "is_reserved": 0, "fusion_lat": 0.0, "bike_id": "3c956aeebb73d7ddb9ccdc5033ad0691", "type": "electric_scooter", "is_disabled": 0, "fusion_lon": 0.0}, {"rental_uris": {"android": "https://dc.lft.to/lastmile_qr_scan", "ios": "https://dc.lft.to/lastmile_qr_scan"}, "lon": -77.00751766666667, "name": "190ccf107a3938b488609f46d3034854", "lat": 38.8983595, "is_reserved": 0, "fusion_lat": 0.0, "bike_id": "190ccf107a3938b488609f46d3034854", "type": "electric_scooter", "is_disabled": 0, "fusion_lon": 0.0}, {"rental_uris": {"android": "https://dc.lft.to/lastmile_qr_scan", "ios": "https://dc.lft.to/lastmile_qr_scan"}, "lon": -77.01370466666667, "name": "06af9a8584134516c1b0a23a4c2e4d2c", "lat": 38.928781, "is_reserved": 0, "fusion_lat": 0.0, "bike_id": "06af9a8584134516c1b0a23a4c2e4d2c", "type": "electric_scooter", "is_disabled": 0, "fusion_lon": 0.0}, {"rental_uris": {"android": "https://dc.lft.to/lastmile_qr_scan", "ios": "https://dc.lft.to/lastmile_qr_scan"}, "lon": -77.00297983333333, "name": "61180a8844f0ea9943859b1881b4e06f", "lat": 38.833763833333336, "is_reserved": 0, "fusion_lat": 0.0, "bike_id": "61180a8844f0ea9943859b1881b4e06f", "type": "electric_bike", "is_disabled": 0, "fusion_lon": 0.0}, {"rental_uris": {"android": "https://dc.lft.to/lastmile_qr_scan", "ios": "https://dc.lft.to/lastmile_qr_scan"}, "lon": -77.03477533333333, "name": "5e20ba49beaa621f6c6890684c06da87", "lat": 38.92641166666667, "is_reserved": 0, "fusion_lat": 0.0, "bike_id": "5e20ba49beaa621f6c6890684c06da87", "type": "electric_scooter", "is_disabled": 0, "fusion_lon": 0.0}, {"rental_uris": {"android": "https://dc.lft.to/lastmile_qr_scan", "ios": "https://dc.lft.to/lastmile_qr_scan"}, "lon": -77.05513383333333, "name": "daac9b08ef279766e71f4090c3b72191", "lat": 38.929531833333336, "is_reserved": 0, "fusion_lat": 0.0, "bike_id": "daac9b08ef279766e71f4090c3b72191", "type": "electric_scooter", "is_disabled": 0, "fusion_lon": 0.0}, {"rental_uris": {"android": "https://dc.lft.to/lastmile_qr_scan", "ios": "https://dc.lft.to/lastmile_qr_scan"}, "lon": -77.02958166666667, "name": "008995ae2f55ee83df255dbd3b8f6dcf", "lat": 38.922505666666666, "is_reserved": 0, "fusion_lat": 0.0, "bike_id": "008995ae2f55ee83df255dbd3b8f6dcf", "type": "electric_scooter", "is_disabled": 0, "fusion_lon": 0.0}, {"rental_uris": {"android": "https://dc.lft.to/lastmile_qr_scan", "ios": "https://dc.lft.to/lastmile_qr_scan"}, "lon": -77.027946, "name": "25a240e0383714c66fedd9f0683fcc6a", "lat": 38.917698333333334, "is_reserved": 0, "fusion_lat": 0.0, "bike_id": "25a240e0383714c66fedd9f0683fcc6a", "type": "electric_scooter", "is_disabled": 0, "fusion_lon": 0.0}, {"rental_uris": {"android": "https://dc.lft.to/lastmile_qr_scan", "ios": "https://dc.lft.to/lastmile_qr_scan"}, "lon": -77.03327233333333, "name": "a57372591d7b88d72430d1c725f789f5", "lat": 38.913149833333335, "is_reserved": 0, "fusion_lat": 0.0, "bike_id": "a57372591d7b88d72430d1c725f789f5", "type": "electric_scooter", "is_disabled": 0, "fusion_lon": 0.0}, {"rental_uris": {"android": "https://dc.lft.to/lastmile_qr_scan", "ios": "https://dc.lft.to/lastmile_qr_scan"}, "lon": -77.07168816666666, "name": "33aa43df8e8dc88713fcdf3eb64be83a", "lat": 38.9077145, "is_reserved": 0, "fusion_lat": 0.0, "bike_id": "33aa43df8e8dc88713fcdf3eb64be83a", "type": "electric_scooter", "is_disabled": 0, "fusion_lon": 0.0}, {"rental_uris": {"android": "https://dc.lft.to/lastmile_qr_scan", "ios": "https://dc.lft.to/lastmile_qr_scan"}, "lon": -77.0361215, "name": "1dc2c4f6d54974e9cae978f863e8b8b7", "lat": 38.931562666666665, "is_reserved": 0, "fusion_lat": 0.0, "bike_id": "1dc2c4f6d54974e9cae978f863e8b8b7", "type": "electric_scooter", "is_disabled": 0, "fusion_lon": 0.0}, {"rental_uris": {"android": "https://dc.lft.to/lastmile_qr_scan", "ios": "https://dc.lft.to/lastmile_qr_scan"}, "lon": -77.02411783333334, "name": "ace83dda55975519cd0c173e2a7652d4", "lat": 38.89685766666667, "is_reserved": 0, "fusion_lat": 0.0, "bike_id": "ace83dda55975519cd0c173e2a7652d4", "type": "electric_scooter", "is_disabled": 0, "fusion_lon": 0.0}, {"rental_uris": {"android": "https://dc.lft.to/lastmile_qr_scan", "ios": "https://dc.lft.to/lastmile_qr_scan"}, "lon": -77.03409266666667, "name": "de747a64c9faa6a9004bdda95357d18f", "lat": 38.928658166666665, "is_reserved": 0, "fusion_lat": 0.0, "bike_id": "de747a64c9faa6a9004bdda95357d18f", "type": "electric_scooter", "is_disabled": 0, "fusion_lon": 0.0}, {"rental_uris": {"android": "https://dc.lft.to/lastmile_qr_scan", "ios": "https://dc.lft.to/lastmile_qr_scan"}, "lon": -76.99006366666667, "name": "aa21e8378ccf38a57a742d4ce1527081", "lat": 38.86507783333333, "is_reserved": 0, "fusion_lat": 0.0, "bike_id": "aa21e8378ccf38a57a742d4ce1527081", "type": "electric_scooter", "is_disabled": 0, "fusion_lon": 0.0}, {"rental_uris": {"android": "https://dc.lft.to/lastmile_qr_scan", "ios": "https://dc.lft.to/lastmile_qr_scan"}, "lon": -77.03223766666666, "name": "4e6ab597acc6204fe14536bd77c9056c", "lat": 38.89625216666666, "is_reserved": 0, "fusion_lat": 0.0, "bike_id": "4e6ab597acc6204fe14536bd77c9056c", "type": "electric_scooter", "is_disabled": 0, "fusion_lon": 0.0}, {"rental_uris": {"android": "https://dc.lft.to/lastmile_qr_scan", "ios": "https://dc.lft.to/lastmile_qr_scan"}, "lon": -77.187444, "name": "1132e6c0d4356907d4377195bf66c1e8", "lat": 38.89352783333333, "is_reserved": 0, "fusion_lat": 0.0, "bike_id": "1132e6c0d4356907d4377195bf66c1e8", "type": "electric_bike", "is_disabled": 0, "fusion_lon": 0.0}, {"rental_uris": {"android": "https://dc.lft.to/lastmile_qr_scan", "ios": "https://dc.lft.to/lastmile_qr_scan"}, "lon": -77.011122, "name": "ca6ad048f964c1b68395bd0452403309", "lat": 38.96295033333333, "is_reserved": 0, "fusion_lat": 0.0, "bike_id": "ca6ad048f964c1b68395bd0452403309", "type": "electric_bike", "is_disabled": 0, "fusion_lon": 0.0}, {"rental_uris": {"android": "https://dc.lft.to/lastmile_qr_scan", "ios": "https://dc.lft.to/lastmile_qr_scan"}, "lon": -77.01835033333333, "name": "e92ad965bf7b1d7cc7d0a13c62746073", "lat": 38.90953183333333, "is_reserved": 0, "fusion_lat": 0.0, "bike_id": "e92ad965bf7b1d7cc7d0a13c62746073", "type": "electric_bike", "is_disabled": 0, "fusion_lon": 0.0}, {"rental_uris": {"android": "https://dc.lft.to/lastmile_qr_scan", "ios": "https://dc.lft.to/lastmile_qr_scan"}, "lon": -77.03717866666666, "name": "a9e9916d99b6100e71e1f6d79b4aff45", "lat": 38.9264135, "is_reserved": 0, "fusion_lat": 0.0, "bike_id": "a9e9916d99b6100e71e1f6d79b4aff45", "type": "electric_scooter", "is_disabled": 0, "fusion_lon": 0.0}, {"rental_uris": {"android": "https://dc.lft.to/lastmile_qr_scan", "ios": "https://dc.lft.to/lastmile_qr_scan"},