{"data": {"bikes": [{"rental_uris": {"ios": "https://dc.lft.to/lastmile_qr_scan", "android": "https://dc.lft.to/lastmile_qr_scan"}, "lon": -76.96557516666667, "type": "electric_bike", "fusion_lat": 0.0, "lat": 38.95096933333333, "name": "29ac96c1f5e78e51b566a0a96cf2db8c", "fusion_lon": 0.0, "bike_id": "29ac96c1f5e78e51b566a0a96cf2db8c", "is_disabled": 0, "is_reserved": 0}, {"rental_uris": {"ios": "https://dc.lft.to/lastmile_qr_scan", "android": "https://dc.lft.to/lastmile_qr_scan"}, "lon": -77.00074683333334, "type": "electric_scooter", "fusion_lat": 0.0, "lat": 38.90046, "name": "daa01289ad8a022466a0e9bc9d9c34a5", "fusion_lon": 0.0, "bike_id": "daa01289ad8a022466a0e9bc9d9c34a5", "is_disabled": 0, "is_reserved": 0}, {"rental_uris": {"ios": "https://dc.lft.to/lastmile_qr_scan", "android": "https://dc.lft.to/lastmile_qr_scan"}, "lon": -77.0321585, "type": "electric_scooter", "fusion_lat": 0.0, "lat": 38.8974175, "name": "0f7ae0d77957bbefe64b3df1810643f6", "fusion_lon": 0.0, "bike_id": "0f7ae0d77957bbefe64b3df1810643f6", "is_disabled": 0, "is_reserved": 0}, {"rental_uris": {"ios": "https://dc.lft.to/lastmile_qr_scan", "android": "https://dc.lft.to/lastmile_qr_scan"}, "lon": -76.995455, "type": "electric_scooter", "fusion_lat": 0.0, "lat": 38.885948, "name": "9a6171499b22b52a552854ad710fa64e", "fusion_lon": 0.0, "bike_id": "9a6171499b22b52a552854ad710fa64e", "is_disabled": 0, "is_reserved": 0}, {"rental_uris": {"ios": "https://dc.lft.to/lastmile_qr_scan", "android": "https://dc.lft.to/lastmile_qr_scan"}, "lon": -77.051642, "type": "electric_scooter", "fusion_lat": 0.0, "lat": 38.897729166666664, "name": "3fb84c74d7ba639bd15159c79da2c2ba", "fusion_lon": 0.0, "bike_id": "3fb84c74d7ba639bd15159c79da2c2ba", "is_disabled": 0, "is_reserved": 0}, {"rental_uris": {"ios": "https://dc.lft.to/lastmile_qr_scan", "android": "https://dc.lft.to/lastmile_qr_scan"}, "lon": -77.0177565, "type": "electric_scooter", "fusion_lat": 0.0, "lat": 38.877230833333336, "name": "453c96574699ab11978ce2d12d70d59d", "fusion_lon": 0.0, "bike_id": "453c96574699ab11978ce2d12d70d59d", "is_disabled": 0, "is_reserved": 0}, {"rental_uris": {"ios": "https://dc.lft.to/lastmile_qr_scan", "android": "https://dc.lft.to/lastmile_qr_scan"}, "lon": -77.01434966666666, "type": "electric_scooter", "fusion_lat": 0.0, "lat": 38.92990016666667, "name": "6415c56397d214db9a81a256ba5254a8", "fusion_lon": 0.0, "bike_id": "6415c56397d214db9a81a256ba5254a8", "is_disabled": 0, "is_reserved": 0}, {"rental_uris": {"ios": "https://dc.lft.to/lastmile_qr_scan", "android": "https://dc.lft.to/lastmile_qr_scan"}, "lon": -77.050105, "type": "electric_scooter", "fusion_lat": 0.0, "lat": 38.90425, "name": "df6cf9f08f5c5a71db65b4c5d3fb9656", "fusion_lon": 0.0, "bike_id": "df6cf9f08f5c5a71db65b4c5d3fb9656", "is_disabled": 0, "is_reserved": 0}, {"rental_uris": {"ios": "https://dc.lft.to/lastmile_qr_scan", "android": "https://dc.lft.to/lastmile_qr_scan"}, "lon": -77.01628483333333, "type": "electric_scooter", "fusion_lat": 0.0, "lat": 38.907090833333335, "name": "4c61752eb1176befa479ebffce8871ef", "fusion_lon": 0.0, "bike_id": "4c61752eb1176befa479ebffce8871ef", "is_disabled": 0, "is_reserved": 0}, {"rental_uris": {"ios": "https://dc.lft.to/lastmile_qr_scan", "android": "https://dc.lft.to/lastmile_qr_scan"}, "lon": -77.04370483333334, "type": "electric_scooter", "fusion_lat": 0.0, "lat": 38.91779916666667, "name": "185fa00a77a4cf4772467bf94565e87e", "fusion_lon": 0.0, "bike_id": "185fa00a77a4cf4772467bf94565e87e", "is_disabled": 0, "is_reserved": 0}, {"rental_uris": {"ios": "https://dc.lft.to/lastmile_qr_scan", "android": "https://dc.lft.to/lastmile_qr_scan"}, "lon": -77.060232, "type": "electric_bike", "fusion_lat": 0.0, "lat": 38.904096, "name": "0d6963fa128a21454cf2a6052c60fc26", "fusion_lon": 0.0, "bike_id": "0d6963fa128a21454cf2a6052c60fc26", "is_disabled": 0, "is_reserved": 0}, {"rental_uris": {"ios": "https://dc.lft.to/lastmile_qr_scan", "android": "https://dc.lft.to/lastmile_qr_scan"}, "lon": -76.98511333333333, "type": "electric_scooter", "fusion_lat": 0.0, "lat": 38.90607583333333, "name": "597af5975ac919620335f77d2d25a49f", "fusion_lon": 0.0, "bike_id": "597af5975ac919620335f77d2d25a49f", "is_disabled": 0, "is_reserved": 0}, {"rental_uris": {"ios": "https://dc.lft.to/lastmile_qr_scan", "android": "https://dc.lft.to/lastmile_qr_scan"}, "lon": -76.99965983333334, "type": "electric_scooter", "fusion_lat": 0.0, "lat": 38.90917266666666, "name": "a082e380e04f20829af0ba64e077a179", "fusion_lon": 0.0, "bike_id": "a082e380e04f20829af0ba64e077a179", "is_disabled": 0, "is_reserved": 0}, {"rental_uris": {"ios": "https://dc.lft.to/lastmile_qr_scan", "android": "https://dc.lft.to/lastmile_qr_scan"}, "lon": -77.02430133333333, "type": "electric_scooter", "fusion_lat": 0.0, "lat": 38.90100866666667, "name": "5a1ba349247ccfc776c2902798b3c63b", "fusion_lon": 0.0, "bike_id": "5a1ba349247ccfc776c2902798b3c63b", "is_disabled": 0, "is_reserved": 0}, {"rental_uris": {"ios": "https://dc.lft.to/lastmile_qr_scan", "android": "https://dc.lft.to/lastmile_qr_scan"}, "lon": -77.03563616666666, "type": "electric_bike", "fusion_lat": 0.0, "lat": 38.964675166666666, "name": "6616b15054db4a3537ea4c9409860689", "fusion_lon": 0.0, "bike_id": "6616b15054db4a3537ea4c9409860689", "is_disabled": 0, "is_reserved": 0}, {"rental_uris": {"ios": "https://dc.lft.to/lastmile_qr_scan", "android": "https://dc.lft.to/lastmile_qr_scan"}, "lon": -77.0417055, "type": "electric_scooter", "fusion_lat": 0.0, "lat": 38.919370666666666, "name": "f93a69a80831f035fc9a4c0b1747a5d7", "fusion_lon": 0.0, "bike_id": "f93a69a80831f035fc9a4c0b1747a5d7", "is_disabled": 0, "is_reserved": 0}, {"rental_uris": {"ios": "https://dc.lft.to/lastmile_qr_scan", "android": "https://dc.lft.to/lastmile_qr_scan"}, "lon": -77.04180283333334, "type": "electric_scooter", "fusion_lat": 0.0, "lat": 38.908396833333335, "name": "430b4c061439c00a890862848939ae9d", "fusion_lon": 0.0, "bike_id": "430b4c061439c00a890862848939ae9d", "is_disabled": 0, "is_reserved": 0}, {"rental_uris": {"ios": "https://dc.lft.to/lastmile_qr_scan", "android": "https://dc.lft.to/lastmile_qr_scan"}, "lon": -77.01824633333334, "type": "electric_scooter", "fusion_lat": 0.0, "lat": 38.89983183333333, "name": "056b4147417d9db18190ffdd51c46ad8", "fusion_lon": 0.0, "bike_id": "056b4147417d9db18190ffdd51c46ad8", "is_disabled": 0, "is_reserved": 0}, {"rental_uris": {"ios": "https://dc.lft.to/lastmile_qr_scan", "android": "https://dc.lft.to/lastmile_qr_scan"}, "lon": -77.03515166666666, "type": "electric_scooter", "fusion_lat": 0.0, "lat": 38.922204, "name": "77877902bc65e4b9380a8746244d2c7b", "fusion_lon": 0.0, "bike_id": "77877902bc65e4b9380a8746244d2c7b", "is_disabled": 0, "is_reserved": 0}, {"rental_uris": {"ios": "https://dc.lft.to/lastmile_qr_scan", "android": "https://dc.lft.to/lastmile_qr_scan"}, "lon": -77.04350133333334, "type": "electric_scooter", "fusion_lat": 0.0, "lat": 38.905539166666664, "name": "d4f31c20f5e71f0736264367126ac700", "fusion_lon": 0.0, "bike_id": "d4f31c20f5e71f0736264367126ac700", "is_disabled": 0, "is_reserved": 0}, {"rental_uris": {"ios": "https://dc.lft.to/lastmile_qr_scan", "android": "https://dc.lft.to/lastmile_qr_scan"}, "lon": -77.03305883333333, "type": "electric_scooter", "fusion_lat": 0.0, "lat": 38.90417516666667, "name": "3d072cd1f8ddbcb5692c9e19ab9b8ca6", "fusion_lon": 0.0, "bike_id": "3d072cd1f8ddbcb5692c9e19ab9b8ca6", "is_disabled": 0, "is_reserved": 0}, {"rental_uris": {"ios": "https://dc.lft.to/lastmile_qr_scan", "android": "https://dc.lft.to/lastmile_qr_scan"}, "lon": -76.99819016666666, "type": "electric_scooter", "fusion_lat": 0.0, "lat": 38.88869666666667, "name": "a7a634e6d2abcfb2b691514ae22d29bd", "fusion_lon": 0.0, "bike_id": "a7a634e6d2abcfb2b691514ae22d29bd", "is_disabled": 0, "is_reserved": 0}, {"rental_uris": {"ios": "https://dc.lft.to/lastmile_qr_scan", "android": "https://dc.lft.to/lastmile_qr_scan"}, "lon": -77.0007675, "type": "electric_scooter", "fusion_lat": 0.0, "lat": 38.90142216666667, "name": "1253263e45614db32905c60df1fab90e", "fusion_lon": 0.0, "bike_id": "1253263e45614db32905c60df1fab90e", "is_disabled": 0, "is_reserved": 0}, {"rental_uris": {"ios": "https://dc.lft.to/lastmile_qr_scan", "android": "https://dc.lft.to/lastmile_qr_scan"}, "lon": -77.02390933333334, "type": "electric_scooter", "fusion_lat": 0.0, "lat": 38.899293166666666, "name": "2ce1d09094b7d5b7328bf2045ead269e", "fusion_lon": 0.0, "bike_id": "2ce1d09094b7d5b7328bf2045ead269e", "is_disabled": 0, "is_reserved": 0}, {"rental_uris": {"ios": "https://dc.lft.to/lastmile_qr_scan", "android": "https://dc.lft.to/lastmile_qr_scan"}, "lon": -77.043531, "type": "electric_scooter", "fusion_lat": 0.0, "lat": 38.8964715, "name": "469662d2a276225bb96dd8ff6a5b290e", "fusion_lon": 0.0, "bike_id": "469662d2a276225bb96dd8ff6a5b290e", "is_disabled": 0, "is_reserved": 0}, {"rental_uris": {"ios": "https://dc.lft.to/lastmile_qr_scan", "android": "https://dc.lft.to/lastmile_qr_scan"}, "lon": -77.04039666666667, "type": "electric_scooter", "fusion_lat": 0.0, "lat": 38.924675, "name": "f0b1d5a8c46bfa1945b89644417d5341", "fusion_lon": 0.0, "bike_id": "f0b1d5a8c46bfa1945b89644417d5341", "is_disabled": 0, "is_reserved": 0}, {"rental_uris": {"ios": "https://dc.lft.to/lastmile_qr_scan", "android": "https://dc.lft.to/lastmile_qr_scan"}, "lon": -77.03182083333333, "type": "electric_scooter", "fusion_lat": 0.0, "lat": 38.91348766666667, "name": "7a1003584f1fe45f7e400427cf2385e0", "fusion_lon": 0.0, "bike_id": "7a1003584f1fe45f7e400427cf2385e0", "is_disabled": 0, "is_reserved": 0}, {"rental_uris": {"ios": "https://dc.lft.to/lastmile_qr_scan", "android": "https://dc.lft.to/lastmile_qr_scan"}, "lon": -77.046208, "type": "electric_scooter", "fusion_lat": 0.0, "lat": 38.916330333333335, "name": "0cf2a32a8ed4d108cbb6cb628219e28c", "fusion_lon": 0.0, "bike_id": "0cf2a32a8ed4d108cbb6cb628219e28c", "is_disabled": 0, "is_reserved": 0}, {"rental_uris": {"ios": "https://dc.lft.to/lastmile_qr_scan", "android": "https://dc.lft.to/lastmile_qr_scan"}, "lon": -77.07213766666666, "type": "electric_scooter", "fusion_lat": 0.0, "lat": 38.934665333333335, "name": "b312fbba9345d8c6970d55ff4067db60", "fusion_lon": 0.0, "bike_id": "b312fbba9345d8c6970d55ff4067db60", "is_disabled": 0, "is_reserved": 0}, {"rental_uris": {"ios": "https://dc.lft.to/lastmile_qr_scan", "android": "https://dc.lft.to/lastmile_qr_scan"}, "lon": -77.026075, "type": "electric_scooter", "fusion_lat": 0.0, "lat": 38.916735333333335, "name": "c79237a5be2d08b1be9e10ad7992ab78", "fusion_lon": 0.0, "bike_id": "c79237a5be2d08b1be9e10ad7992ab78", "is_disabled": 0, "is_reserved": 0}, {"rental_uris": {"ios": "https://dc.lft.to/lastmile_qr_scan", "android": "https://dc.lft.to/lastmile_qr_scan"}, "lon": -77.0257565, "type": "electric_scooter", "fusion_lat": 0.0, "lat": 38.88741533333334, "name": "d3fb39a37da45f01949e179340aa751d", "fusion_lon": 0.0, "bike_id": "d3fb39a37da45f01949e179340aa751d", "is_disabled": 0, "is_reserved": 0}, {"rental_uris": {"ios": "https://dc.lft.to/lastmile_qr_scan", "android": "https://dc.lft.to/lastmile_qr_scan"}, "lon": -77.05918166666666, "type": "electric_scooter", "fusion_lat": 0.0, "lat": 38.904490333333335, "name": "3d38248d107896bfdd7a39a455a06c7c", "fusion_lon": 0.0, "bike_id": "3d38248d107896bfdd7a39a455a06c7c", "is_disabled": 0, "is_reserved": 0}, {"rental_uris": {"ios": "https://dc.lft.to/lastmile_qr_scan", "android": "https://dc.lft.to/lastmile_qr_scan"}, "lon": -77.03518033333333, "type": "electric_scooter", "fusion_lat": 0.0, "lat": 38.923449, "name": "d63ef38cb63f77c3d5b3d7968138e8e0", "fusion_lon": 0.0, "bike_id": "d63ef38cb63f77c3d5b3d7968138e8e0", "is_disabled": 0, "is_reserved": 0}, {"rental_uris": {"ios": "https://dc.lft.to/lastmile_qr_scan", "android": "https://dc.lft.to/lastmile_qr_scan"}, "lon": -77.02151866666667, "type": "electric_scooter", "fusion_lat": 0.0, "lat": 38.89736583333333, "name": "d59f86df30dea84b5e85457e2218565c", "fusion_lon": 0.0, "bike_id": "d59f86df30dea84b5e85457e2218565c", "is_disabled": 0, "is_reserved": 0}, {"rental_uris": {"ios": "https://dc.lft.to/lastmile_qr_scan", "android": "https://dc.lft.to/lastmile_qr_scan"}, "lon": -77.00958216666666, "type": "electric_scooter", "fusion_lat": 0.0, "lat": 38.906984666666666, "name": "6be21fa7f3528b3ab3993f43415b0777", "fusion_lon": 0.0, "bike_id": "6be21fa7f3528b3ab3993f43415b0777", "is_disabled": 0, "is_reserved": 0}, {"rental_uris": {"ios": "https://dc.lft.to/lastmile_qr_scan", "android": "https://dc.lft.to/lastmile_qr_scan"}, "lon": -77.05756016666666, "type": "electric_scooter", "fusion_lat": 0.0, "lat": 38.9341165, "name": "b486d4561c5ff01b91d9863056564bd0", "fusion_lon": 0.0, "bike_id": "b486d4561c5ff01b91d9863056564bd0", "is_disabled": 0, "is_reserved": 0}, {"rental_uris": {"ios": "https://dc.lft.to/lastmile_qr_scan", "android": "https://dc.lft.to/lastmile_qr_scan"}, "lon": -76.98027466666667, "type": "electric_scooter", "fusion_lat": 0.0, "lat": 38.88766, "name": "0cc3566001ac33806faf2abf5b3b813c", "fusion_lon": 0.0, "bike_id": "0cc3566001ac33806faf2abf5b3b813c", "is_disabled": 0, "is_reserved": 0}, {"rental_uris": {"ios": "https://dc.lft.to/lastmile_qr_scan", "android": "https://dc.lft.to/lastmile_qr_scan"}, "lon": -77.03965716666667, "type": "electric_scooter", "fusion_lat": 0.0, "lat": 38.8985915, "name": "7a972fd1b603b9be6ffdbc72c75a525f", "fusion_lon": 0.0, "bike_id": "7a972fd1b603b9be6ffdbc72c75a525f", "is_disabled": 0, "is_reserved": 0}, {"rental_uris": {"ios": "https://dc.lft.to/lastmile_qr_scan", "android": "https://dc.lft.to/lastmile_qr_scan"}, "lon": -76.9839275, "type": "electric_bike", "fusion_lat": 0.0, "lat": 38.921988999999996, "name": "c0956e8ee1b4ad70f96c562df122f2ba", "fusion_lon": 0.0, "bike_id": "c0956e8ee1b4ad70f96c562df122f2ba", "is_disabled": 0, "is_reserved": 0}, {"rental_uris": {"ios": "https://dc.lft.to/lastmile_qr_scan", "android": "https://dc.lft.to/lastmile_qr_scan"}, "lon": -77.0269415, "type": "electric_scooter", "fusion_lat": 0.0, "lat": 38.90623016666667, "name": "73a877454b9a97895bea496d167e280d", "fusion_lon": 0.0, "bike_id": "73a877454b9a97895bea496d167e280d", "is_disabled": 0, "is_reserved": 0}, {"rental_uris": {"ios": "https://dc.lft.to/lastmile_qr_scan", "android": "https://dc.lft.to/lastmile_qr_scan"}, "lon": -77.00042333333333, "type": "electric_scooter", "fusion_lat": 0.0, "lat": 38.87442383333333, "name": "8865daa8b3beac6634d8bd46ee19d8fa", "fusion_lon": 0.0, "bike_id": "8865daa8b3beac6634d8bd46ee19d8fa", "is_disabled": 0, "is_reserved": 0}, {"rental_uris": {"ios": "https://dc.lft.to/lastmile_qr_scan", "android": "https://dc.lft.to/lastmile_qr_scan"}, "lon": -77.06168383333333, "type": "electric_scooter", "fusion_lat": 0.0, "lat": 38.90264066666667, "name": "1cd04b55eb3f8a1e6a774946e9b2a1af", "fusion_lon": 0.0, "bike_id": "1cd04b55eb3f8a1e6a774946e9b2a1af", "is_disabled": 0, "is_reserved": 0}, {"rental_uris": {"ios": "https://dc.lft.to/lastmile_qr_scan", "android": "https://dc.lft.to/lastmile_qr_scan"}, "lon": -77.04227616666667, "type": "electric_scooter", "fusion_lat": 0.0, "lat": 38.914144666666665, "name": "149425732e19325349173ebbac340931", "fusion_lon": 0.0, "bike_id": "149425732e19325349173ebbac340931", "is_disabled": 0, "is_reserved": 0}, {"rental_uris": {"ios": "https://dc.lft.to/lastmile_qr_scan", "android": "https://dc.lft.to/lastmile_qr_scan"}, "lon": -77.03422266666666, "type": "electric_scooter", "fusion_lat": 0.0, "lat": 38.935408333333335, "name": "f54ce95d7c9a37eeefc98e33636aafd3", "fusion_lon": 0.0, "bike_id": "f54ce95d7c9a37eeefc98e33636aafd3", "is_disabled": 0, "is_reserved": 0}, {"rental_uris": {"ios": "https://dc.lft.to/lastmile_qr_scan", "android": "https://dc.lft.to/lastmile_qr_scan"}, "lon": -76.97831166666667, "type": "electric_bike", "fusion_lat": 0.0, "lat": 38.846069166666666, "name": "6e2fc9c6904ca49f66844f1816812753", "fusion_lon": 0.0, "bike_id": "6e2fc9c6904ca49f66844f1816812753", "is_disabled": 0, "is_reserved": 0}, {"rental_uris": {"ios": "https://dc.lft.to/lastmile_qr_scan", "android": "https://dc.lft.to/lastmile_qr_scan"}, "lon": -77.02959866666667, "type": "electric_scooter", "fusion_lat": 0.0, "lat": 38.8921485, "name": "58bdb2eb6247c4bc4672867900210a1b", "fusion_lon": 0.0, "bike_id": "58bdb2eb6247c4bc4672867900210a1b", "is_disabled": 0, "is_reserved": 0}, {"rental_uris": {"ios": "https://dc.lft.to/lastmile_qr_scan", "android": "https://dc.lft.to/lastmile_qr_scan"}, "lon": -77.031334, "type": "electric_scooter", "fusion_lat": 0.0, "lat": 38.91029616666667, "name": "5f7cce8389770768a26f3e6a1eb8793d", "fusion_lon": 0.0, "bike_id": "5f7cce8389770768a26f3e6a1eb8793d", "is_disabled": 0, "is_reserved": 0}, {"rental_uris": {"ios": "https://dc.lft.to/lastmile_qr_scan", "android": "https://dc.lft.to/lastmile_qr_scan"}, "lon": -77.12625683333333, "type": "electric_bike", "fusion_lat": 0.0, "lat": 39.058104, "name": "2a7e52fc781ea5a5045ac3c6ac62c4b5", "fusion_lon": 0.0, "bike_id": "2a7e52fc781ea5a5045ac3c6ac62c4b5", "is_disabled": 0, "is_reserved": 0}, {"rental_uris": {"ios": "https://dc.lft.to/lastmile_qr_scan", "android": "https://dc.lft.to/lastmile_qr_scan"}, "lon": -77.0385345, "type": "electric_scooter", "fusion_lat": 0.0, "lat": 38.9313045, "name": "e52a196d5a3252850abd93cd933a1e57", "fusion_lon": 0.0, "bike_id": "e52a196d5a3252850abd93cd933a1e57", "is_disabled": 0, "is_reserved": 0}, {"rental_uris": {"ios": "https://dc.lft.to/lastmile_qr_scan", "android": "https://dc.lft.to/lastmile_qr_scan"}, "lon": -77.02575266666666, "type": "electric_scooter", "fusion_lat": 0.0, "lat": 38.91817266666666, "name": "715f3038244d2411ba74ed53c87fbdf7", "fusion_lon": 0.0, "bike_id": "715f3038244d2411ba74ed53c87fbdf7", "is_disabled": 0, "is_reserved": 0}, {"rental_uris": {"ios": "https://dc.lft.to/lastmile_qr_scan", "android": "https://dc.lft.to/lastmile_qr_scan"}, "lon": -77.02614116666666, "type": "electric_scooter", "fusion_lat": 0.0, "lat": 38.9517915, "name": "36f7c5277b65b68dd3a9cdadb3ed6bb0", "fusion_lon": 0.0, "bike_id": "36f7c5277b65b68dd3a9cdadb3ed6bb0", "is_disabled": 0, "is_reserved": 0}, {"rental_uris": {"ios": "https://dc.lft.to/lastmile_qr_scan", "android": "https://dc.lft.to/lastmile_qr_scan"}, "lon": -77.03955466666666, "type": "electric_scooter", "fusion_lat": 0.0, "lat": 38.926126, "name": "2d0755c6ace91061e938493a0d0c5cac", "fusion_lon": 0.0, "bike_id": "2d0755c6ace91061e938493a0d0c5cac", "is_disabled": 0, "is_reserved": 0}, {"rental_uris": {"ios": "https://dc.lft.to/lastmile_qr_scan", "android": "https://dc.lft.to/lastmile_qr_scan"}, "lon": -77.03206233333333, "type": "electric_scooter", "fusion_lat": 0.0, "lat": 38.91276333333333, "name": "7cc6018e35209ae31f61fe0176553efc", "fusion_lon": 0.0, "bike_id": "7cc6018e35209ae31f61fe0176553efc", "is_disabled": 0, "is_reserved": 0}, {"rental_uris": {"ios": "https://dc.lft.to/lastmile_qr_scan", "android": "https://dc.lft.to/lastmile_qr_scan"}, "lon": -77.029807, "type": "electric_scooter", "fusion_lat": 0.0, "lat": 38.9583375, "name": "051ccf6ff8f6d6b8e1807a243e499749", "fusion_lon": 0.0, "bike_id": "051ccf6ff8f6d6b8e1807a243e499749", "is_disabled": 0, "is_reserved": 0}, {"rental_uris": {"ios": "https://dc.lft.to/lastmile_qr_scan", "android": "https://dc.lft.to/lastmile_qr_scan"}, "lon": -77.04074433333334, "type": "electric_bike", "fusion_lat": 0.0, "lat": 38.81235316666667, "name": "97ea20fac452bb5fa777244bf10ba60e", "fusion_lon": 0.0, "bike_id": "97ea20fac452bb5fa777244bf10ba60e", "is_disabled": 0, "is_reserved": 0}, {"rental_uris": {"ios": "https://dc.lft.to/lastmile_qr_scan", "android": "https://dc.lft.to/lastmile_qr_scan"}, "lon": -76.938942, "type": "electric_bike", "fusion_lat": 0.0, "lat": 38.883255, "name": "12cc86b531191872b96a6c3071b4e7c6", "fusion_lon": 0.0, "bike_id": "12cc86b531191872b96a6c3071b4e7c6", "is_disabled": 0, "is_reserved": 0}, {"rental_uris": {"ios": "https://dc.lft.to/lastmile_qr_scan", "android": "https://dc.lft.to/lastmile_qr_scan"}, "lon": -77.02357383333333, "type": "electric_scooter", "fusion_lat": 0.0, "lat": 38.93197833333333, "name": "775c67d98faf693969d0757665a493c4", "fusion_lon": 0.0, "bike_id": "775c67d98faf693969d0757665a493c4", "is_disabled": 0, "is_reserved": 0}, {"rental_uris": {"ios": "https://dc.lft.to/lastmile_qr_scan", "android": "https://dc.lft.to/lastmile_qr_scan"}, "lon": -77.036495, "type": "electric_scooter", "fusion_lat": 0.0, "lat": 38.91616033333333, "name": "0fe1cfec06871729f1edc3a2f755dbce", "fusion_lon": 0.0, "bike_id": "0fe1cfec06871729f1edc3a2f755dbce", "is_disabled": 0, "is_reserved": 0}, {"rental_uris": {"ios": "https://dc.lft.to/lastmile_qr_scan", "android": "https://dc.lft.to/lastmile_qr_scan"}, "lon": -77.02987516666667, "type": "electric_scooter", "fusion_lat": 0.0, "lat": 38.9562985, "name": "86dc8ea6ea292134a14d8145c1e17631", "fusion_lon": 0.0, "bike_id": "86dc8ea6ea292134a14d8145c1e17631", "is_disabled": 0, "is_reserved": 0}, {"rental_uris": {"ios": "https://dc.lft.to/lastmile_qr_scan", "android": "https://dc.lft.to/lastmile_qr_scan"}, "lon": -77.05503466666667, "type": "electric_scooter", "fusion_lat": 0.0, "lat": 38.929683833333335, "name": "a17f5cff1eb31b757d3633ce4746800b", "fusion_lon": 0.0, "bike_id": "a17f5cff1eb31b757d3633ce4746800b", "is_disabled": 0, "is_reserved": 0}, {"rental_uris": {"ios": "https://dc.lft.to/lastmile_qr_scan", "android": "https://dc.lft.to/lastmile_qr_scan"}, "lon": -77.0258125, "type": "electric_scooter", "fusion_lat": 0.0, "lat": 38.972407, "name": "168ca812491988d328feb9a31f3a98cd", "fusion_lon": 0.0, "bike_id": "168ca812491988d328feb9a31f3a98cd", "is_disabled": 0, "is_reserved": 0}, {"rental_uris": {"ios": "https://dc.lft.to/lastmile_qr_scan", "android": "https://dc.lft.to/lastmile_qr_scan"}, "lon": -77.03180966666666, "type": "electric_scooter", "fusion_lat": 0.0, "lat": 38.91822916666667, "name": "21c36f1da1665539daf86c6191400e58", "fusion_lon": 0.0, "bike_id": "21c36f1da1665539daf86c6191400e58", "is_disabled": 0, "is_reserved": 0}, {"rental_uris": {"ios": "https://dc.lft.to/lastmile_qr_scan", "android": "https://dc.lft.to/lastmile_qr_scan"}, "lon": -77.03666483333333, "type": "electric_scooter", "fusion_lat": 0.0, "lat": 38.922393166666666, "name": "3fb7b8971ef509662ce2cb0b865aefba", "fusion_lon": 0.0, "bike_id": "3fb7b8971ef509662ce2cb0b865aefba", "is_disabled": 0, "is_reserved": 0}, {"rental_uris": {"ios": "https://dc.lft.to/lastmile_qr_scan", "android": "https://dc.lft.to/lastmile_qr_scan"}, "lon": -77.08938533333334, "type": "electric_bike", "fusion_lat": 0.0, "lat": 38.84101233333333, "name": "e308ed5746393065ded3dde559a3638d", "fusion_lon": 0.0, "bike_id": "e308ed5746393065ded3dde559a3638d", "is_disabled": 0, "is_reserved": 0}, {"rental_uris": {"ios": "https://dc.lft.to/lastmile_qr_scan", "android": "https://dc.lft.to/lastmile_qr_scan"}, "lon": -77.04997766666666, "type": "electric_scooter", "fusion_lat": 0.0, "lat": 38.8922965, "name": "c4acfa3b5d61d9d4fd2deee34e069ea9", "fusion_lon": 0.0, "bike_id": "c4acfa3b5d61d9d4fd2deee34e069ea9", "is_disabled": 0, "is_reserved": 0}, {"rental_uris": {"ios": "https://dc.lft.to/lastmile_qr_scan", "android": "https://dc.lft.to/lastmile_qr_scan"}, "lon": -77.03957966666667, "type": "electric_scooter", "fusion_lat": 0.0, "lat": 38.898552, "name": "89b80a8c6485d6e8f8d688baed5cb32b", "fusion_lon": 0.0, "bike_id": "89b80a8c6485d6e8f8d688baed5cb32b", "is_disabled": 0, "is_reserved": 0}, {"rental_uris": {"ios": "https://dc.lft.to/lastmile_qr_scan", "android": "https://dc.lft.to/lastmile_qr_scan"}, "lon": -77.0329895, "type": "electric_scooter", "fusion_lat": 0.0, "lat": 38.92210133333333, "name": "566eff5f0af751dda58b6defd2d91d1b", "fusion_lon": 0.0, "bike_id": "566eff5f0af751dda58b6defd2d91d1b", "is_disabled": 0, "is_reserved": 0}, {"rental_uris": {"ios": "https://dc.lft.to/lastmile_qr_scan", "android": "https://dc.lft.to/lastmile_qr_scan"}, "lon": -77.0324445, "type": "electric_scooter", "fusion_lat": 0.0, "lat": 38.89722866666666, "name": "86af38b472dde900060a787cb51b9d9a", "fusion_lon": 0.0, "bike_id": "86af38b472dde900060a787cb51b9d9a", "is_disabled": 0, "is_reserved": 0}, {"rental_uris": {"ios": "https://dc.lft.to/lastmile_qr_scan", "android": "https://dc.lft.to/lastmile_qr_scan"}, "lon": -77.02212616666667, "type": "electric_scooter", "fusion_lat": 0.0, "lat": 38.89264083333333, "name": "13e7580e368be32ee306b689b355bb84", "fusion_lon": 0.0, "bike_id": "13e7580e368be32ee306b689b355bb84", "is_disabled": 0, "is_reserved": 0}, {"rental_uris": {"ios": "https://dc.lft.to/lastmile_qr_scan", "android": "https://dc.lft.to/lastmile_qr_scan"}, "lon": -77.02102883333333, "type": "electric_scooter", "fusion_lat": 0.0, "lat": 38.910090333333336, "name": "295ef1412505454676fbbe08fbb36f78", "fusion_lon": 0.0, "bike_id": "295ef1412505454676fbbe08fbb36f78", "is_disabled": 0, "is_reserved": 0}, {"rental_uris": {"ios": "https://dc.lft.to/lastmile_qr_scan", "android": "https://dc.lft.to/lastmile_qr_scan"}, "lon": -77.030038, "type": "electric_scooter", "fusion_lat": 0.0, "lat": 38.924761, "name": "5727d5dbaaf02b9a0cd4e477f82e6c2b", "fusion_lon": 0.0, "bike_id": "5727d5dbaaf02b9a0cd4e477f82e6c2b", "is_disabled": 0, "is_reserved": 0}, {"rental_uris": {"ios": "https://dc.lft.to/lastmile_qr_scan", "android": "https://dc.lft.to/lastmile_qr_scan"}, "lon": -77.03181716666667, "type": "electric_scooter", "fusion_lat": 0.0, "lat": 38.88701866666667, "name": "448ce547c7baf161e719caecba917fb9", "fusion_lon": 0.0, "bike_id": "448ce547c7baf161e719caecba917fb9", "is_disabled": 0, "is_reserved": 0}, {"rental_uris": {"ios": "https://dc.lft.to/lastmile_qr_scan", "android": "https://dc.lft.to/lastmile_qr_scan"}, "lon": -77.36099116666666, "type": "electric_bike", "fusion_lat": 0.0, "lat": 38.93952633333333, "name": "fdb07233d20d1400bc21a6909cb643ae", "fusion_lon": 0.0, "bike_id": "fdb07233d20d1400bc21a6909cb643ae", "is_disabled": 0, "is_reserved": 0}, {"rental_uris": {"ios": "https://dc.lft.to/lastmile_qr_scan", "android": "https://dc.lft.to/lastmile_qr_scan"}, "lon": -77.04078183333333, "type": "electric_scooter", "fusion_lat": 0.0, "lat": 38.907344333333334, "name": "ab9176ce1a1c32db59511613d6f011be", "fusion_lon": 0.0, "bike_id": "ab9176ce1a1c32db59511613d6f011be", "is_disabled": 0, "is_reserved": 0}, {"rental_uris": {"ios": "https://dc.lft.to/lastmile_qr_scan", "android": "https://dc.lft.to/lastmile_qr_scan"}, "lon": -77.01096216666667, "type": "electric_scooter", "fusion_lat": 0.0, "lat": 38.9181585, "name": "ee313779a46302eaecec08f7bebfc4de", "fusion_lon": 0.0, "bike_id": "ee313779a46302eaecec08f7bebfc4de", "is_disabled": 0, "is_reserved": 0}, {"rental_uris": {"ios": "https://dc.lft.to/lastmile_qr_scan", "android": "https://dc.lft.to/lastmile_qr_scan"}, "lon": -76.97990283333333, "type": "electric_bike", "fusion_lat": 0.0, "lat": 38.87750966666667, "name": "bb1c02de0cf6dd808b9c2d7230c8709e", "fusion_lon": 0.0, "bike_id": "bb1c02de0cf6dd808b9c2d7230c8709e", "is_disabled": 0, "is_reserved": 0}, {"rental_uris": {"ios": "https://dc.lft.to/lastmile_qr_scan", "android": "https://dc.lft.to/lastmile_qr_scan"}, "lon": -77.04107733333333, "type": "electric_scooter", "fusion_lat": 0.0, "lat": 38.918534, "name": "c21dc02101907ff2c8026ebc606f668c", "fusion_lon": 0.0, "bike_id": "c21dc02101907ff2c8026ebc606f668c", "is_disabled": 0, "is_reserved": 0}, {"rental_uris": {"ios": "https://dc.lft.to/lastmile_qr_scan", "android": "https://dc.lft.to/lastmile_qr_scan"}, "lon": -77.178562, "type": "electric_bike", "fusion_lat": 0.0, "lat": 39.08896383333333, "name": "1894eefc8ff4b5f0df8baf25aa47e5bd", "fusion_lon": 0.0, "bike_id": "1894eefc8ff4b5f0df8baf25aa47e5bd", "is_disabled": 0, "is_reserved": 0}, {"rental_uris": {"ios": "https://dc.lft.to/lastmile_qr_scan", "android": "https://dc.lft.to/lastmile_qr_scan"}, "lon": -77.02891766666667, "type": "electric_scooter", "fusion_lat": 0.0, "lat": 38.9237825, "name": "72f8031a978ba9059e7867395d39cbc0", "fusion_lon": 0.0, "bike_id": "72f8031a978ba9059e7867395d39cbc0", "is_disabled": 0, "is_reserved": 0}, {"rental_uris": {"ios": "https://dc.lft.to/lastmile_qr_scan", "android": "https://dc.lft.to/lastmile_qr_scan"}, "lon": -76.9954825, "type": "electric_scooter", "fusion_lat": 0.0, "lat": 38.90030483333334, "name": "c9d21eb83cbff88e9c25c3f4496e518b", "fusion_lon": 0.0, "bike_id": "c9d21eb83cbff88e9c25c3f4496e518b", "is_disabled": 0, "is_reserved": 0}, {"rental_uris": {"ios": "https://dc.lft.to/lastmile_qr_scan", "android": "https://dc.lft.to/lastmile_qr_scan"}, "lon": -77.0346635, "type": "electric_scooter", "fusion_lat": 0.0, "lat": 38.934499833333334, "name": "92d8c3a3e42d7326559a5134c6d3bcec", "fusion_lon": 0.0, "bike_id": "92d8c3a3e42d7326559a5134c6d3bcec", "is_disabled": 0, "is_reserved": 0}, {"rental_uris": {"ios": "https://dc.lft.to/lastmile_qr_scan", "android": "https://dc.lft.to/lastmile_qr_scan"}, "lon": -77.0265605, "type": "electric_scooter", "fusion_lat": 0.0, "lat": 38.8921575, "name": "2cbe637a04d18bac8b76b8cd3ca375f5", "fusion_lon": 0.0, "bike_id": "2cbe637a04d18bac8b76b8cd3ca375f5", "is_disabled": 0, "is_reserved": 0}, {"rental_uris": {"ios": "https://dc.lft.to/lastmile_qr_scan", "android": "https://dc.lft.to/lastmile_qr_scan"}, "lon": -77.085423, "type": "electric_bike", "fusion_lat": 0.0, "lat": 38.856181666666664, "name": "78ee0cfebb906a443a51581e2f9fc482", "fusion_lon": 0.0, "bike_id": "78ee0cfebb906a443a51581e2f9fc482", "is_disabled": 0, "is_reserved": 0}, {"rental_uris": {"ios": "https://dc.lft.to/lastmile_qr_scan", "android": "https://dc.lft.to/lastmile_qr_scan"}, "lon": -77.0066825, "type": "electric_scooter", "fusion_lat": 0.0, "lat": 38.874638833333336, "name": "2880b39377da19d61567a24cafd765c8", "fusion_lon": 0.0, "bike_id": "2880b39377da19d61567a24cafd765c8", "is_disabled": 0, "is_reserved": 0}, {"rental_uris": {"ios": "https://dc.lft.to/lastmile_qr_scan", "android": "https://dc.lft.to/lastmile_qr_scan"}, "lon": -77.0317875, "type": "electric_scooter", "fusion_lat": 0.0, "lat": 38.91824533333333, "name": "cd9185e37e25eae54ae4069b1bfa3dc6", "fusion_lon": 0.0, "bike_id": "cd9185e37e25eae54ae4069b1bfa3dc6", "is_disabled": 0, "is_reserved": 0}, {"rental_uris": {"ios": "https://dc.lft.to/lastmile_qr_scan", "android": "https://dc.lft.to/lastmile_qr_scan"}, "lon": -77.02980533333333, "type": "electric_scooter", "fusion_lat": 0.0, "lat": 38.962274, "name": "899629234fdf69b52d6ffe9cd361359f", "fusion_lon": 0.0, "bike_id": "899629234fdf69b52d6ffe9cd361359f", "is_disabled": 0, "is_reserved": 0}, {"rental_uris": {"ios": "https://dc.lft.to/lastmile_qr_scan", "android": "https://dc.lft.to/lastmile_qr_scan"}, "lon": -77.04419783333333, "type": "electric_scooter", "fusion_lat": 0.0, "lat": 38.8921755, "name": "2bfc53eeab3b2c1f49ea3a5cc4abc3fb", "fusion_lon": 0.0, "bike_id": "2bfc53eeab3b2c1f49ea3a5cc4abc3fb", "is_disabled": 0, "is_reserved": 0}, {"rental_uris": {"ios": "https://dc.lft.to/lastmile_qr_scan", "android": "https://dc.lft.to/lastmile_qr_scan"}, "lon": -77.007281, "type": "electric_scooter", "fusion_lat": 0.0, "lat": 38.88495966666667, "name": "64283ccf23466f569e8056daa2f6c34a", "fusion_lon": 0.0, "bike_id": "64283ccf23466f569e8056daa2f6c34a", "is_disabled": 0, "is_reserved": 0}, {"rental_uris": {"ios": "https://dc.lft.to/lastmile_qr_scan", "android": "https://dc.lft.to/lastmile_qr_scan"}, "lon": -77.03209883333334, "type": "electric_scooter", "fusion_lat": 0.0, "lat": 38.917144666666665, "name": "15a747bc647277c4909f7247b32c6ebd", "fusion_lon": 0.0, "bike_id": "15a747bc647277c4909f7247b32c6ebd", "is_disabled": 0, "is_reserved": 0}, {"rental_uris": {"ios": "https://dc.lft.to/lastmile_qr_scan", "android": "https://dc.lft.to/lastmile_qr_scan"}, "lon": -77.03464016666666, "type": "electric_scooter", "fusion_lat": 0.0, "lat": 38.923492333333336, "name": "0991d3e2b0932694d9d4a93e2bea812b", "fusion_lon": 0.0, "bike_id": "0991d3e2b0932694d9d4a93e2bea812b", "is_disabled": 0, "is_reserved": 0}, {"rental_uris": {"ios": "https://dc.lft.to/lastmile_qr_scan", "android": "https://dc.lft.to/lastmile_qr_scan"}, "lon": -77.01184383333333, "type": "electric_bike", "fusion_lat": 0.0, "lat": 38.87227033333333, "name": "0eede38c2f57f2cfc24db1255b12c2e6", "fusion_lon": 0.0, "bike_id": "0eede38c2f57f2cfc24db1255b12c2e6", "is_disabled": 0, "is_reserved": 0}, {"rental_uris": {"ios": "https://dc.lft.to/lastmile_qr_scan", "android": "https://dc.lft.to/lastmile_qr_scan"}, "lon": -77.04792616666667, "type": "electric_scooter", "fusion_lat": 0.0, "lat": 38.8994985, "name": "789abb58ee4ca0af2af0a59d2ea2f5ea", "fusion_lon": 0.0, "bike_id": "789abb58ee4ca0af2af0a59d2ea2f5ea", "is_disabled": 0, "is_reserved": 0}, {"rental_uris": {"ios": "https://dc.lft.to/lastmile_qr_scan", "android": "https://dc.lft.to/lastmile_qr_scan"}, "lon": -77.0318375, "type": "electric_scooter", "fusion_lat": 0.0, "lat": 38.92060683333333, "name": "dadf03f2c211b3972b8fab075e227829", "fusion_lon": 0.0, "bike_id": "dadf03f2c211b3972b8fab075e227829", "is_disabled": 0, "is_reserved": 0}, {"rental_uris": {"ios": "https://dc.lft.to/lastmile_qr_scan", "android": "https://dc.lft.to/lastmile_qr_scan"}, "lon": -77.025061, "type": "electric_bike", "fusion_lat": 0.0, "lat": 38.9340965, "name": "9dc1090f96dfa7a70e7744ebfc03a12d", "fusion_lon": 0.0, "bike_id": "9dc1090f96dfa7a70e7744ebfc03a12d", "is_disabled": 0, "is_reserved": 0}, {"rental_uris": {"ios": "https://dc.lft.to/lastmile_qr_scan", "android": "https://dc.lft.to/lastmile_qr_scan"}, "lon": -77.0217995, "type": "electric_scooter", "fusion_lat": 0.0, "lat": 38.88031333333333, "name": "42fe8d7c03d76813caef37a1bfb9e459", "fusion_lon": 0.0, "bike_id": "42fe8d7c03d76813caef37a1bfb9e459", "is_disabled": 0, "is_reserved": 0}, {"rental_uris": {"ios": "https://dc.lft.to/lastmile_qr_scan", "android": "https://dc.lft.to/lastmile_qr_scan"}, "lon": -77.04176366666667, "type": "electric_scooter", "fusion_lat": 0.0, "lat": 38.9185695, "name": "816290f406c07a4dc11a1b75b0ed62bb", "fusion_lon": 0.0, "bike_id": "816290f406c07a4dc11a1b75b0ed62bb", "is_disabled": 0, "is_reserved": 0}, {"rental_uris": {"ios": "https://dc.lft.to/lastmile_qr_scan", "android": "https://dc.lft.to/lastmile_qr_scan"}, "lon": -77.024943, "type": "electric_scooter", "fusion_lat": 0.0, "lat": 38.93896983333333, "name": "af5fbc4a7789cdca5a814e8761fc2965", "fusion_lon": 0.0, "bike_id": "af5fbc4a7789cdca5a814e8761fc2965", "is_disabled": 0, "is_reserved": 0}, {"rental_uris": {"ios": "https://dc.lft.to/lastmile_qr_scan", "android": "https://dc.lft.to/lastmile_qr_scan"}, "lon": -76.98391083333334, "type": "electric_scooter", "fusion_lat": 0.0, "lat": 38.8783485, "name": "5605ab6c58b4f3db3e745689dcbe0370", "fusion_lon": 0.0, "bike_id": "5605ab6c58b4f3db3e745689dcbe0370", "is_disabled": 0, "is_reserved": 0}, {"rental_uris": {"ios": "https://dc.lft.to/lastmile_qr_scan", "android": "https://dc.lft.to/lastmile_qr_scan"}, "lon": -76.980978, "type": "electric_bike", "fusion_lat": 0.0, "lat": 38.881308, "name": "e9a0a25588c91f7ba49a1e4963dbebe7", "fusion_lon": 0.0, "bike_id": "e9a0a25588c91f7ba49a1e4963dbebe7", "is_disabled": 0, "is_reserved": 0}, {"rental_uris": {"ios": "https://dc.lft.to/lastmile_qr_scan", "android": "https://dc.lft.to/lastmile_qr_scan"}, "lon": -77.0710395, "type": "electric_bike", "fusion_lat": 0.0, "lat": 38.91446166666667, "name": "8162409f0f967bf4931acb1b5463e61b", "fusion_lon": 0.0, "bike_id": "8162409f0f967bf4931acb1b5463e61b", "is_disabled": 0, "is_reserved": 0}, {"rental_uris": {"ios": "https://dc.lft.to/lastmile_qr_scan", "android": "https://dc.lft.to/lastmile_qr_scan"}, "lon": -77.0376755, "type": "electric_scooter", "fusion_lat": 0.0, "lat": 38.91689983333333, "name": "d5332a0876b16c7aba6a60a49ef43a4b", "fusion_lon": 0.0, "bike_id": "d5332a0876b16c7aba6a60a49ef43a4b", "is_disabled": 0, "is_reserved": 0}, {"rental_uris": {"ios": "https://dc.lft.to/lastmile_qr_scan", "android": "https://dc.lft.to/lastmile_qr_scan"}, "lon": -77.07725283333333, "type": "electric_scooter", "fusion_lat": 0.0, "lat": 38.947000333333335, "name": "e4e612f9898e6f0c97ba7749f384bf5f", "fusion_lon": 0.0, "bike_id": "e4e612f9898e6f0c97ba7749f384bf5f", "is_disabled": 0, "is_reserved": 0}, {"rental_uris": {"ios": "https://dc.lft.to/lastmile_qr_scan", "android": "https://dc.lft.to/lastmile_qr_scan"}, "lon": -77.032132, "type": "electric_scooter", "fusion_lat": 0.0, "lat": 38.92673666666666, "name": "12c2086daa9a49ff8edf4483b538644f", "fusion_lon": 0.0, "bike_id": "12c2086daa9a49ff8edf4483b538644f", "is_disabled": 0, "is_reserved": 0}, {"rental_uris": {"ios": "https://dc.lft.to/lastmile_qr_scan", "android": "https://dc.lft.to/lastmile_qr_scan"}, "lon": -77.02220916666667, "type": "electric_scooter", "fusion_lat": 0.0, "lat": 38.89628616666667, "name": "2a0b62014f769d18f92b05e296abe417", "fusion_lon": 0.0, "bike_id": "2a0b62014f769d18f92b05e296abe417", "is_disabled": 0, "is_reserved": 0}, {"rental_uris": {"ios": "https://dc.lft.to/lastmile_qr_scan", "android": "https://dc.lft.to/lastmile_qr_scan"}, "lon": -77.04169883333333, "type": "electric_scooter", "fusion_lat": 0.0, "lat": 38.90981633333333, "name": "18a48e791990a20ba0529dc2c42cefc3", "fusion_lon": 0.0, "bike_id": "18a48e791990a20ba0529dc2c42cefc3", "is_disabled": 0, "is_reserved": 0}, {"rental_uris": {"ios": "https://dc.lft.to/lastmile_qr_scan", "android": "https://dc.lft.to/lastmile_qr_scan"}, "lon": -77.03210166666666, "type": "electric_scooter", "fusion_lat": 0.0, "lat": 38.89358283333333, "name": "b8fe3d8b97fe68bec5ca4342eec1dfe4", "fusion_lon": 0.0, "bike_id": "b8fe3d8b97fe68bec5ca4342eec1dfe4", "is_disabled": 0, "is_reserved": 0}, {"rental_uris": {"ios": "https://dc.lft.to/lastmile_qr_scan", "android": "https://dc.lft.to/lastmile_qr_scan"}, "lon": -77.05118933333334, "type": "electric_bike", "fusion_lat": 0.0, "lat": 38.999648, "name": "8e62fa73544b4a2a0f7d7e8d8bc77b34", "fusion_lon": 0.0, "bike_id": "8e62fa73544b4a2a0f7d7e8d8bc77b34", "is_disabled": 0, "is_reserved": 0}, {"rental_uris": {"ios": "https://dc.lft.to/lastmile_qr_scan", "android": "https://dc.lft.to/lastmile_qr_scan"}, "lon": -76.98889833333334, "type": "electric_scooter", "fusion_lat": 0.0, "lat": 38.8665275, "name": "86f96a3ba9ef49132923e7fe250090eb", "fusion_lon": 0.0, "bike_id": "86f96a3ba9ef49132923e7fe250090eb", "is_disabled": 0, "is_reserved": 0}, {"rental_uris": {"ios": "https://dc.lft.to/lastmile_qr_scan", "android": "https://dc.lft.to/lastmile_qr_scan"}, "lon": -76.990405, "type": "electric_bike", "fusion_lat": 0.0, "lat": 38.89882333333333, "name": "cdb9053c726fef5b3566c5b10c79cd07", "fusion_lon": 0.0, "bike_id": "cdb9053c726fef5b3566c5b10c79cd07", "is_disabled": 0, "is_reserved": 0}, {"rental_uris": {"ios": "https://dc.lft.to/lastmile_qr_scan", "android": "https://dc.lft.to/lastmile_qr_scan"}, "lon": -77.00113483333334, "type": "electric_scooter", "fusion_lat": 0.0, "lat": 38.894359666666666, "name": "1307b97445c3373635c44c815f408e83", "fusion_lon": 0.0, "bike_id": "1307b97445c3373635c44c815f408e83", "is_disabled": 0, "is_reserved": 0}, {"rental_uris": {"ios": "https://dc.lft.to/lastmile_qr_scan", "android": "https://dc.lft.to/lastmile_qr_scan"}, "lon": -76.93827683333333, "type": "electric_scooter", "fusion_lat": 0.0, "lat": 38.89762183333333, "name": "83f2592a6bf78e6d750a6da760abc127", "fusion_lon": 0.0, "bike_id": "83f2592a6bf78e6d750a6da760abc127", "is_disabled": 0, "is_reserved": 0}, {"rental_uris": {"ios": "https://dc.lft.to/lastmile_qr_scan", "android": "https://dc.lft.to/lastmile_qr_scan"}, "lon": -77.0264255, "type": "electric_scooter", "fusion_lat": 0.0, "lat": 38.89213133333333, "name": "175854b2b301253edb08d46a7fa2ab48", "fusion_lon": 0.0, "bike_id": "175854b2b301253edb08d46a7fa2ab48", "is_disabled": 0, "is_reserved": 0}, {"rental_uris": {"ios": "https://dc.lft.to/lastmile_qr_scan", "android": "https://dc.lft.to/lastmile_qr_scan"}, "lon": -76.96508866666667, "type": "electric_scooter", "fusion_lat": 0.0, "lat": 38.876411166666664, "name": "b96217472dd0bd9696ec963ad6ca0617", "fusion_lon": 0.0, "bike_id": "b96217472dd0bd9696ec963ad6ca0617", "is_disabled": 0, "is_reserved": 0}, {"rental_uris": {"ios": "https://dc.lft.to/lastmile_qr_scan", "android": "https://dc.lft.to/lastmile_qr_scan"}, "lon": -77.02977, "type": "electric_scooter", "fusion_lat": 0.0, "lat": 38.9103785, "name": "d91716e525139a88f4e42052e26709ec", "fusion_lon": 0.0, "bike_id": "d91716e525139a88f4e42052e26709ec", "is_disabled": 0, "is_reserved": 0}, {"rental_uris": {"ios": "https://dc.lft.to/lastmile_qr_scan", "android": "https://dc.lft.to/lastmile_qr_scan"}, "lon": -77.023276, "type": "electric_scooter", "fusion_lat": 0.0, "lat": 38.91672883333333, "name": "f1efb4c9dfe7b22f7ce65c2f4f3a4fda", "fusion_lon": 0.0, "bike_id": "f1efb4c9dfe7b22f7ce65c2f4f3a4fda", "is_disabled": 0, "is_reserved": 0}, {"rental_uris": {"ios": "https://dc.lft.to/lastmile_qr_scan", "android": "https://dc.lft.to/lastmile_qr_scan"}, "lon": -77.033358, "type": "electric_scooter", "fusion_lat": 0.0, "lat": 38.9191375, "name": "49bccf90f9a9e710bba4f911b6153841", "fusion_lon": 0.0, "bike_id": "49bccf90f9a9e710bba4f911b6153841", "is_disabled": 0, "is_reserved": 0}, {"rental_uris": {"ios": "https://dc.lft.to/lastmile_qr_scan", "android": "https://dc.lft.to/lastmile_qr_scan"}, "lon": -77.03417233333333, "type": "electric_scooter", "fusion_lat": 0.0, "lat": 38.9191665, "name": "bfb4fd6bed8f3e6bae6d4f16fd584a32", "fusion_lon": 0.0, "bike_id": "bfb4fd6bed8f3e6bae6d4f16fd584a32", "is_disabled": 0, "is_reserved": 0}, {"rental_uris": {"ios": "https://dc.lft.to/lastmile_qr_scan", "android": "https://dc.lft.to/lastmile_qr_scan"}, "lon": -77.04427816666667, "type": "electric_scooter", "fusion_lat": 0.0, "lat": 38.921227333333334, "name": "0149de4a7ac0aeb67fbf5968d6c71acb", "fusion_lon": 0.0, "bike_id": "0149de4a7ac0aeb67fbf5968d6c71acb", "is_disabled": 0, "is_reserved": 0}, {"rental_uris": {"ios": "https://dc.lft.to/lastmile_qr_scan", "android": "https://dc.lft.to/lastmile_qr_scan"}, "lon": -77.02056433333334, "type": "electric_scooter", "fusion_lat": 0.0, "lat": 38.91554766666667, "name": "e97368f52714d4fbe61ecf76a409b6c2", "fusion_lon": 0.0, "bike_id": "e97368f52714d4fbe61ecf76a409b6c2", "is_disabled": 0, "is_reserved": 0}, {"rental_uris": {"ios": "https://dc.lft.to/lastmile_qr_scan", "android": "https://dc.lft.to/lastmile_qr_scan"}, "lon": -76.99489383333334, "type": "electric_scooter", "fusion_lat": 0.0, "lat": 38.9319945, "name": "936be5e188d64a4db89ec4c55b9fb1b3", "fusion_lon": 0.0, "bike_id": "936be5e188d64a4db89ec4c55b9fb1b3", "is_disabled": 0, "is_reserved": 0}, {"rental_uris": {"ios": "https://dc.lft.to/lastmile_qr_scan", "android": "https://dc.lft.to/lastmile_qr_scan"}, "lon": -77.05006266666666, "type": "electric_scooter", "fusion_lat": 0.0, "lat": 38.8922865, "name": "408f4dce568814b4373c6fe121d9febd", "fusion_lon": 0.0, "bike_id": "408f4dce568814b4373c6fe121d9febd", "is_disabled": 0, "is_reserved": 0}, {"rental_uris": {"ios": "https://dc.lft.to/lastmile_qr_scan", "android": "https://dc.lft.to/lastmile_qr_scan"}, "lon": -77.03018483333334, "type": "electric_scooter", "fusion_lat": 0.0, "lat": 38.8974725, "name": "9c9b0c53c0be7d9d8fe473927f2ed20f", "fusion_lon": 0.0, "bike_id": "9c9b0c53c0be7d9d8fe473927f2ed20f", "is_disabled": 0, "is_reserved": 0}, {"rental_uris": {"ios": "https://dc.lft.to/lastmile_qr_scan", "android": "https://dc.lft.to/lastmile_qr_scan"}, "lon": -77.046693, "type": "electric_scooter", "fusion_lat": 0.0, "lat": 38.919067166666665, "name": "75e08553764e0fa0cf5675b848cfedf4", "fusion_lon": 0.0, "bike_id": "75e08553764e0fa0cf5675b848cfedf4", "is_disabled": 0, "is_reserved": 0}, {"rental_uris": {"ios": "https://dc.lft.to/lastmile_qr_scan", "android": "https://dc.lft.to/lastmile_qr_scan"}, "lon": -76.98713533333333, "type": "electric_scooter", "fusion_lat": 0.0, "lat": 38.86260766666667, "name": "837523d1d47d355dd043f0aa9201fd44", "fusion_lon": 0.0, "bike_id": "837523d1d47d355dd043f0aa9201fd44", "is_disabled": 0, "is_reserved": 0}, {"rental_uris": {"ios": "https://dc.lft.to/lastmile_qr_scan", "android": "https://dc.lft.to/lastmile_qr_scan"}, "lon": -76.947265, "type": "electric_scooter", "fusion_lat": 0.0, "lat": 38.897344833333335, "name": "5b0fc8a343d35e829e6485e934e69d44", "fusion_lon": 0.0, "bike_id": "5b0fc8a343d35e829e6485e934e69d44", "is_disabled": 0, "is_reserved": 0}, {"rental_uris": {"ios": "https://dc.lft.to/lastmile_qr_scan", "android": "https://dc.lft.to/lastmile_qr_scan"}, "lon": -76.94180516666667, "type": "electric_scooter", "fusion_lat": 0.0, "lat": 38.88216, "name": "d534067f4ea89c0969cc023855889a18", "fusion_lon": 0.0, "bike_id": "d534067f4ea89c0969cc023855889a18", "is_disabled": 0, "is_reserved": 0}, {"rental_uris": {"ios": "https://dc.lft.to/lastmile_qr_scan", "android": "https://dc.lft.to/lastmile_qr_scan"}, "lon": -77.02018166666667, "type": "electric_scooter", "fusion_lat": 0.0, "lat": 38.9497665, "name": "3e14f4fb7cff18b130ee9fe8bc832e12", "fusion_lon": 0.0, "bike_id": "3e14f4fb7cff18b130ee9fe8bc832e12", "is_disabled": 0, "is_reserved": 0}, {"rental_uris": {"ios": "https://dc.lft.to/lastmile_qr_scan", "android": "https://dc.lft.to/lastmile_qr_scan"}, "lon": -77.05934066666667, "type": "electric_scooter", "fusion_lat": 0.0, "lat": 38.90953833333333, "name": "43da60d33c55f4de7c0cf9c8d5642188", "fusion_lon": 0.0, "bike_id": "43da60d33c55f4de7c0cf9c8d5642188", "is_disabled": 0, "is_reserved": 0}, {"rental_uris": {"ios": "https://dc.lft.to/lastmile_qr_scan", "android": "https://dc.lft.to/lastmile_qr_scan"}, "lon": -77.05003033333334, "type": "electric_scooter", "fusion_lat": 0.0, "lat": 38.8922485, "name": "86b1a3ea9af44ac4e7b7d1c82627b2b8", "fusion_lon": 0.0, "bike_id": "86b1a3ea9af44ac4e7b7d1c82627b2b8", "is_disabled": 0, "is_reserved": 0}, {"rental_uris": {"ios": "https://dc.lft.to/lastmile_qr_scan", "android": "https://dc.lft.to/lastmile_qr_scan"}, "lon": -76.94998183333334, "type": "electric_scooter", "fusion_lat": 0.0, "lat": 38.89371883333333, "name": "4b928a4f572ae5f1fb6fce5b429834ed", "fusion_lon": 0.0, "bike_id": "4b928a4f572ae5f1fb6fce5b429834ed", "is_disabled": 0, "is_reserved": 0}, {"rental_uris": {"ios": "https://dc.lft.to/lastmile_qr_scan", "android": "https://dc.lft.to/lastmile_qr_scan"}, "lon": -76.98886116666667, "type": "electric_scooter", "fusion_lat": 0.0, "lat": 38.866593333333334, "name": "8a627a0969854602eb4df5b46348b804", "fusion_lon": 0.0, "bike_id": "8a627a0969854602eb4df5b46348b804", "is_disabled": 0, "is_reserved": 0}, {"rental_uris": {"ios": "https://dc.lft.to/lastmile_qr_scan", "android": "https://dc.lft.to/lastmile_qr_scan"}, "lon": -77.02008383333333, "type": "electric_scooter", "fusion_lat": 0.0, "lat": 38.919168, "name": "68610de1e088896dc946a7ed41724a79", "fusion_lon": 0.0, "bike_id": "68610de1e088896dc946a7ed41724a79", "is_disabled": 0, "is_reserved": 0}, {"rental_uris": {"ios": "https://dc.lft.to/lastmile_qr_scan", "android": "https://dc.lft.to/lastmile_qr_scan"}, "lon": -77.03221316666666, "type": "electric_scooter", "fusion_lat": 0.0, "lat": 38.920068666666666, "name": "e0bcee8dd0cd3c852a8798fc723d0a2e", "fusion_lon": 0.0, "bike_id": "e0bcee8dd0cd3c852a8798fc723d0a2e", "is_disabled": 0, "is_reserved": 0}, {"rental_uris": {"ios": "https://dc.lft.to/lastmile_qr_scan", "android": "https://dc.lft.to/lastmile_qr_scan"}, "lon": -77.03193183333333, "type": "electric_scooter", "fusion_lat": 0.0, "lat": 38.918501166666665, "name": "ce79891f251a5791d6556552958517a5", "fusion_lon": 0.0, "bike_id": "ce79891f251a5791d6556552958517a5", "is_disabled": 0, "is_reserved": 0}, {"rental_uris": {"ios": "https://dc.lft.to/lastmile_qr_scan", "android": "https://dc.lft.to/lastmile_qr_scan"}, "lon": -77.0238615, "type": "electric_scooter", "fusion_lat": 0.0, "lat": 38.899267, "name": "cb23c817648feadb7c6739dcb400f6e4", "fusion_lon": 0.0, "bike_id": "cb23c817648feadb7c6739dcb400f6e4", "is_disabled": 0, "is_reserved": 0}, {"rental_uris": {"ios": "https://dc.lft.to/lastmile_qr_scan", "android": "https://dc.lft.to/lastmile_qr_scan"}, "lon": -77.0321045, "type": "electric_scooter", "fusion_lat": 0.0, "lat": 38.91262783333333, "name": "1832a8d5255feeaaf79ecb63c1b37381", "fusion_lon": 0.0, "bike_id": "1832a8d5255feeaaf79ecb63c1b37381", "is_disabled": 0, "is_reserved": 0}, {"rental_uris": {"ios": "https://dc.lft.to/lastmile_qr_scan", "android": "https://dc.lft.to/lastmile_qr_scan"}, "lon": -77.00211616666667, "type": "electric_scooter", "fusion_lat": 0.0, "lat": 38.90030616666667, "name": "3e14ec9242b4d0ad2cfe6ea34de8f714", "fusion_lon": 0.0, "bike_id": "3e14ec9242b4d0ad2cfe6ea34de8f714", "is_disabled": 0, "is_reserved": 0}, {"rental_uris": {"ios": "https://dc.lft.to/lastmile_qr_scan", "android": "https://dc.lft.to/lastmile_qr_scan"}, "lon": -77.0412505, "type": "electric_scooter", "fusion_lat": 0.0, "lat": 38.91888733333333, "name": "2337047ed1ee2ebaf267b9145d9d3857", "fusion_lon": 0.0, "bike_id": "2337047ed1ee2ebaf267b9145d9d3857", "is_disabled": 0, "is_reserved": 0}, {"rental_uris": {"ios": "https://dc.lft.to/lastmile_qr_scan", "android": "https://dc.lft.to/lastmile_qr_scan"}, "lon": -77.00778383333333, "type": "electric_scooter", "fusion_lat": 0.0, "lat": 38.906536, "name": "0b6c8b5332457995d137110206c46f2e", "fusion_lon": 0.0, "bike_id": "0b6c8b5332457995d137110206c46f2e", "is_disabled": 0, "is_reserved": 0}, {"rental_uris": {"ios": "https://dc.lft.to/lastmile_qr_scan", "android": "https://dc.lft.to/lastmile_qr_scan"}, "lon": -77.01605, "type": "electric_scooter", "fusion_lat": 0.0, "lat": 38.9113055, "name": "a8cbd4e6c8554974817cc83b5aed69d0", "fusion_lon": 0.0, "bike_id": "a8cbd4e6c8554974817cc83b5aed69d0", "is_disabled": 0, "is_reserved": 0}, {"rental_uris": {"ios": "https://dc.lft.to/lastmile_qr_scan", "android": "https://dc.lft.to/lastmile_qr_scan"}, "lon": -76.937375, "type": "electric_scooter", "fusion_lat": 0.0, "lat": 38.890139, "name": "5bed4216c140c51d4c95bcb4e3a0487d", "fusion_lon": 0.0, "bike_id": "5bed4216c140c51d4c95bcb4e3a0487d", "is_disabled": 0, "is_reserved": 0}, {"rental_uris": {"ios": "https://dc.lft.to/lastmile_qr_scan", "android": "https://dc.lft.to/lastmile_qr_scan"}, "lon": -77.04647866666667, "type": "electric_scooter", "fusion_lat": 0.0, "lat": 38.915776, "name": "9b0cada9c3ecbac095b35ef65cf94270", "fusion_lon": 0.0, "bike_id": "9b0cada9c3ecbac095b35ef65cf94270", "is_disabled": 0, "is_reserved": 0}, {"rental_uris": {"ios": "https://dc.lft.to/lastmile_qr_scan", "android": "https://dc.lft.to/lastmile_qr_scan"}, "lon": -77.03783183333333, "type": "electric_scooter", "fusion_lat": 0.0, "lat": 38.930213, "name": "b5e01c63ca60be73c79935bc012f65f6", "fusion_lon": 0.0, "bike_id": "b5e01c63ca60be73c79935bc012f65f6", "is_disabled": 0, "is_reserved": 0}, {"rental_uris": {"ios": "https://dc.lft.to/lastmile_qr_scan", "android": "https://dc.lft.to/lastmile_qr_scan"}, "lon": -76.9318215, "type": "electric_scooter", "fusion_lat": 0.0, "lat": 38.898853333333335, "name": "9f37e0129df700895ab6c72d8a11d1d9", "fusion_lon": 0.0, "bike_id": "9f37e0129df700895ab6c72d8a11d1d9", "is_disabled": 0, "is_reserved": 0}, {"rental_uris": {"ios": "https://dc.lft.to/lastmile_qr_scan", "android": "https://dc.lft.to/lastmile_qr_scan"}, "lon": -76.99799466666667, "type": "electric_scooter", "fusion_lat": 0.0, "lat": 38.908601833333336, "name": "d76454bee14304d8649fda9a91d552d8", "fusion_lon": 0.0, "bike_id": "d76454bee14304d8649fda9a91d552d8", "is_disabled": 0, "is_reserved": 0}, {"rental_uris": {"ios": "https://dc.lft.to/lastmile_qr_scan", "android": "https://dc.lft.to/lastmile_qr_scan"}, "lon": -77.04554266666666, "type": "electric_scooter", "fusion_lat": 0.0, "lat": 38.91254166666667, "name": "02d4b7bee13b677f0a13ba11e01e1689", "fusion_lon": 0.0, "bike_id": "02d4b7bee13b677f0a13ba11e01e1689", "is_disabled": 0, "is_reserved": 0}, {"rental_uris": {"ios": "https://dc.lft.to/lastmile_qr_scan", "android": "https://dc.lft.to/lastmile_qr_scan"}, "lon": -77.025899, "type": "electric_scooter", "fusion_lat": 0.0, "lat": 38.89590583333333, "name": "f5c2bc0eae6c63e495af18450264fc59", "fusion_lon": 0.0, "bike_id": "f5c2bc0eae6c63e495af18450264fc59", "is_disabled": 0, "is_reserved": 0}, {"rental_uris": {"ios": "https://dc.lft.to/lastmile_qr_scan", "android": "https://dc.lft.to/lastmile_qr_scan"}, "lon": -77.045505, "type": "electric_scooter", "fusion_lat": 0.0, "lat": 38.91947416666667, "name": "a18a1f1714774d2a278e39264dc2bd65", "fusion_lon": 0.0, "bike_id": "a18a1f1714774d2a278e39264dc2bd65", "is_disabled": 0, "is_reserved": 0}, {"rental_uris": {"ios": "https://dc.lft.to/lastmile_qr_scan", "android": "https://dc.lft.to/lastmile_qr_scan"}, "lon": -77.03754966666666, "type": "electric_scooter", "fusion_lat": 0.0, "lat": 38.92914183333333, "name": "e58c68523c50a166f1547034519cccde", "fusion_lon": 0.0, "bike_id": "e58c68523c50a166f1547034519cccde", "is_disabled": 0, "is_reserved": 0}, {"rental_uris": {"ios": "https://dc.lft.to/lastmile_qr_scan", "android": "https://dc.lft.to/lastmile_qr_scan"}, "lon": -77.0294705, "type": "electric_bike", "fusion_lat": 0.0, "lat": 38.89937366666667, "name": "48ef3d0f56939f113b285dbb71e85a23", "fusion_lon": 0.0, "bike_id": "48ef3d0f56939f113b285dbb71e85a23", "is_disabled": 0, "is_reserved": 0}, {"rental_uris": {"ios": "https://dc.lft.to/lastmile_qr_scan", "android": "https://dc.lft.to/lastmile_qr_scan"}, "lon": -77.03630233333334, "type": "electric_scooter", "fusion_lat": 0.0, "lat": 38.956398666666665, "name": "d98f82cc650be07f8fd9a3c8346903a2", "fusion_lon": 0.0, "bike_id": "d98f82cc650be07f8fd9a3c8346903a2", "is_disabled": 0, "is_reserved": 0}, {"rental_uris": {"ios": "https://dc.lft.to/lastmile_qr_scan", "android": "https://dc.lft.to/lastmile_qr_scan"}, "lon": -76.99556466666667, "type": "electric_scooter", "fusion_lat": 0.0, "lat": 38.923069166666664, "name": "158fb6b410c358d62c094fa9fa879f65", "fusion_lon": 0.0, "bike_id": "158fb6b410c358d62c094fa9fa879f65", "is_disabled": 0, "is_reserved": 0}, {"rental_uris": {"ios": "https://dc.lft.to/lastmile_qr_scan", "android": "https://dc.lft.to/lastmile_qr_scan"}, "lon": -77.0527665, "type": "electric_scooter", "fusion_lat": 0.0, "lat": 38.91017683333333, "name": "8ce181575a253c9c23c0cd22e86f2e7c", "fusion_lon": 0.0, "bike_id": "8ce181575a253c9c23c0cd22e86f2e7c", "is_disabled": 0, "is_reserved": 0}, {"rental_uris": {"ios": "https://dc.lft.to/lastmile_qr_scan", "android": "https://dc.lft.to/lastmile_qr_scan"}, "lon": -77.03970483333333, "type": "electric_scooter", "fusion_lat": 0.0, "lat": 38.90242933333333, "name": "4f61fb7213c1af2d71bb30ab826fa4b8", "fusion_lon": 0.0, "bike_id": "4f61fb7213c1af2d71bb30ab826fa4b8", "is_disabled": 0, "is_reserved": 0}, {"rental_uris": {"ios": "https://dc.lft.to/lastmile_qr_scan", "android": "https://dc.lft.to/lastmile_qr_scan"}, "lon": -77.06100933333333, "type": "electric_scooter", "fusion_lat": 0.0, "lat": 38.91217133333333, "name": "25384253ef8dc3c7db07b14af279084a", "fusion_lon": 0.0, "bike_id": "25384253ef8dc3c7db07b14af279084a", "is_disabled": 0, "is_reserved": 0}, {"rental_uris": {"ios": "https://dc.lft.to/lastmile_qr_scan", "android": "https://dc.lft.to/lastmile_qr_scan"}, "lon": -77.02730316666667, "type": "electric_scooter", "fusion_lat": 0.0, "lat": 38.924747833333335, "name": "b9fa1a2690d3320fbfca731f1ef7138e", "fusion_lon": 0.0, "bike_id": "b9fa1a2690d3320fbfca731f1ef7138e", "is_disabled": 0, "is_reserved": 0}, {"rental_uris": {"ios": "https://dc.lft.to/lastmile_qr_scan", "android": "https://dc.lft.to/lastmile_qr_scan"}, "lon": -77.03229533333334, "type": "electric_scooter", "fusion_lat": 0.0, "lat": 38.927489, "name": "be293c6c81c5060a9f6f01612542310c", "fusion_lon": 0.0, "bike_id": "be293c6c81c5060a9f6f01612542310c", "is_disabled": 0, "is_reserved": 0}, {"rental_uris": {"ios": "https://dc.lft.to/lastmile_qr_scan", "android": "https://dc.lft.to/lastmile_qr_scan"}, "lon": -77.0173705, "type": "electric_scooter", "fusion_lat": 0.0, "lat": 38.974680666666664, "name": "c16a316c4fc8d82a3cafa2cf487f3b45", "fusion_lon": 0.0, "bike_id": "c16a316c4fc8d82a3cafa2cf487f3b45", "is_disabled": 0, "is_reserved": 0}, {"rental_uris": {"ios": "https://dc.lft.to/lastmile_qr_scan", "android": "https://dc.lft.to/lastmile_qr_scan"}, "lon": -76.9733395, "type": "electric_bike", "fusion_lat": 0.0, "lat": 38.85057883333333, "name": "a1e3c9b1a5fbfc3802ec471f096d852d", "fusion_lon": 0.0, "bike_id": "a1e3c9b1a5fbfc3802ec471f096d852d", "is_disabled": 0, "is_reserved": 0}, {"rental_uris": {"ios": "https://dc.lft.to/lastmile_qr_scan", "android": "https://dc.lft.to/lastmile_qr_scan"}, "lon": -77.0089795, "type": "electric_scooter", "fusion_lat": 0.0, "lat": 38.924143666666666, "name": "2bf24ee420e919da98977150da04483b", "fusion_lon": 0.0, "bike_id": "2bf24ee420e919da98977150da04483b", "is_disabled": 0, "is_reserved": 0}, {"rental_uris": {"ios": "https://dc.lft.to/lastmile_qr_scan", "android": "https://dc.lft.to/lastmile_qr_scan"}, "lon": -77.00368416666667, "type": "electric_scooter", "fusion_lat": 0.0, "lat": 38.8380555, "name": "04f3331d4969128ab9bacfe7d89cf4f3", "fusion_lon": 0.0, "bike_id": "04f3331d4969128ab9bacfe7d89cf4f3", "is_disabled": 0, "is_reserved": 0}, {"rental_uris": {"ios": "https://dc.lft.to/lastmile_qr_scan", "android": "https://dc.lft.to/lastmile_qr_scan"}, "lon": -77.09550466666667, "type": "electric_bike", "fusion_lat": 0.0, "lat": 38.837295166666664, "name": "5d21b7150a42563d7d502e84e385108f", "fusion_lon": 0.0, "bike_id": "5d21b7150a42563d7d502e84e385108f", "is_disabled": 0, "is_reserved": 0}, {"rental_uris": {"ios": "https://dc.lft.to/lastmile_qr_scan", "android": "https://dc.lft.to/lastmile_qr_scan"}, "lon": -77.05200366666666, "type": "electric_scooter", "fusion_lat": 0.0, "lat": 38.9240335, "name": "c788434a03b5aeceb6f2889b3b3b4c35", "fusion_lon": 0.0, "bike_id": "c788434a03b5aeceb6f2889b3b3b4c35", "is_disabled": 0, "is_reserved": 0}, {"rental_uris": {"ios": "https://dc.lft.to/lastmile_qr_scan", "android": "https://dc.lft.to/lastmile_qr_scan"}, "lon": -77.0276165, "type": "electric_scooter", "fusion_lat": 0.0, "lat": 38.956089166666665, "name": "1efd02a6d9498816b8a2249566819643", "fusion_lon": 0.0, "bike_id": "1efd02a6d9498816b8a2249566819643", "is_disabled": 0, "is_reserved": 0}, {"rental_uris": {"ios": "https://dc.lft.to/lastmile_qr_scan", "android": "https://dc.lft.to/lastmile_qr_scan"}, "lon": -77.00377983333334, "type": "electric_bike", "fusion_lat": 0.0, "lat": 38.8360295, "name": "b0c7c0609d84a16972ca549c9fa6da18", "fusion_lon": 0.0, "bike_id": "b0c7c0609d84a16972ca549c9fa6da18", "is_disabled": 0, "is_reserved": 0}, {"rental_uris": {"ios": "https://dc.lft.to/lastmile_qr_scan", "android": "https://dc.lft.to/lastmile_qr_scan"}, "lon": -77.03161516666667, "type": "electric_scooter", "fusion_lat": 0.0, "lat": 38.9035955, "name": "d8e6c1e530121793792a7d9a92e1f264", "fusion_lon": 0.0, "bike_id": "d8e6c1e530121793792a7d9a92e1f264", "is_disabled": 0, "is_reserved": 0}, {"rental_uris": {"ios": "https://dc.lft.to/lastmile_qr_scan", "android": "https://dc.lft.to/lastmile_qr_scan"}, "lon": -76.94635333333333, "type": "electric_scooter", "fusion_lat": 0.0, "lat": 38.8983415, "name": "fb5f24dba21748cf19f41942fcd57c50", "fusion_lon": 0.0, "bike_id": "fb5f24dba21748cf19f41942fcd57c50", "is_disabled": 0, "is_reserved": 0}, {"rental_uris": {"ios": "https://dc.lft.to/lastmile_qr_scan", "android": "https://dc.lft.to/lastmile_qr_scan"}, "lon": -77.03999816666666, "type": "electric_scooter", "fusion_lat": 0.0, "lat": 38.914119666666664, "name": "6e594fee5da5052731162d51986bf1cf", "fusion_lon": 0.0, "bike_id": "6e594fee5da5052731162d51986bf1cf", "is_disabled": 0, "is_reserved": 0}, {"rental_uris": {"ios": "https://dc.lft.to/lastmile_qr_scan", "android": "https://dc.lft.to/lastmile_qr_scan"}, "lon": -76.94947816666667, "type": "electric_scooter", "fusion_lat": 0.0, "lat": 38.883767166666665, "name": "034ef1cbcd4c8babe4daaa86eff4c9bd", "fusion_lon": 0.0, "bike_id": "034ef1cbcd4c8babe4daaa86eff4c9bd", "is_disabled": 0, "is_reserved": 0}, {"rental_uris": {"ios": "https://dc.lft.to/lastmile_qr_scan", "android": "https://dc.lft.to/lastmile_qr_scan"}, "lon": -77.03147266666667, "type": "electric_scooter", "fusion_lat": 0.0, "lat": 38.912698, "name": "018e38c3c58da63cd13b8ef78b326495", "fusion_lon": 0.0, "bike_id": "018e38c3c58da63cd13b8ef78b326495", "is_disabled": 0, "is_reserved": 0}, {"rental_uris": {"ios": "https://dc.lft.to/lastmile_qr_scan", "android": "https://dc.lft.to/lastmile_qr_scan"}, "lon": -77.03790166666667, "type": "electric_bike", "fusion_lat": 0.0, "lat": 38.99675933333333, "name": "cac9e262498b9ce3758060f51ab1c0f1", "fusion_lon": 0.0, "bike_id": "cac9e262498b9ce3758060f51ab1c0f1", "is_disabled": 0, "is_reserved": 0}, {"rental_uris": {"ios": "https://dc.lft.to/lastmile_qr_scan", "android": "https://dc.lft.to/lastmile_qr_scan"}, "lon": -77.0394065, "type": "electric_scooter", "fusion_lat": 0.0, "lat": 38.931489666666664, "name": "70c02a1349996d677bde0623b37a2972", "fusion_lon": 0.0, "bike_id": "70c02a1349996d677bde0623b37a2972", "is_disabled": 0, "is_reserved": 0}, {"rental_uris": {"ios": "https://dc.lft.to/lastmile_qr_scan", "android": "https://dc.lft.to/lastmile_qr_scan"}, "lon": -77.01536516666667, "type": "electric_scooter", "fusion_lat": 0.0, "lat": 38.8982065, "name": "ebe7e80e78e98449cde389f7a7df8b66", "fusion_lon": 0.0, "bike_id": "ebe7e80e78e98449cde389f7a7df8b66", "is_disabled": 0, "is_reserved": 0}, {"rental_uris": {"ios": "https://dc.lft.to/lastmile_qr_scan", "android": "https://dc.lft.to/lastmile_qr_scan"}, "lon": -77.02260766666667, "type": "electric_scooter", "fusion_lat": 0.0, "lat": 38.916433, "name": "dc6a2a3d99939befa154ae45a43aeac0", "fusion_lon": 0.0, "bike_id": "dc6a2a3d99939befa154ae45a43aeac0", "is_disabled": 0, "is_reserved": 0}, {"rental_uris": {"ios": "https://dc.lft.to/lastmile_qr_scan", "android": "https://dc.lft.to/lastmile_qr_scan"}, "lon": -76.9773635, "type": "electric_scooter", "fusion_lat": 0.0, "lat": 38.87283566666667, "name": "fb4453884d09ffc7668cab08a1b873d2", "fusion_lon": 0.0, "bike_id": "fb4453884d09ffc7668cab08a1b873d2", "is_disabled": 0, "is_reserved": 0}, {"rental_uris": {"ios": "https://dc.lft.to/lastmile_qr_scan", "android": "https://dc.lft.to/lastmile_qr_scan"}, "lon": -76.997771, "type": "electric_scooter", "fusion_lat": 0.0, "lat": 38.8442275, "name": "7cdd0848a830bd75bb93bb52678fca1e", "fusion_lon": 0.0, "bike_id": "7cdd0848a830bd75bb93bb52678fca1e", "is_disabled": 0, "is_reserved": 0}, {"rental_uris": {"ios": "https://dc.lft.to/lastmile_qr_scan", "android": "https://dc.lft.to/lastmile_qr_scan"}, "lon": -77.0612565, "type": "electric_scooter", "fusion_lat": 0.0, "lat": 38.902256666666666, "name": "2f2e937a64f85b4eec7e5143c6ef4d2c", "fusion_lon": 0.0, "bike_id": "2f2e937a64f85b4eec7e5143c6ef4d2c", "is_disabled": 0, "is_reserved": 0}, {"rental_uris": {"ios": "https://dc.lft.to/lastmile_qr_scan", "android": "https://dc.lft.to/lastmile_qr_scan"}, "lon": -77.04273033333334, "type": "electric_scooter", "fusion_lat": 0.0, "lat": 38.907398, "name": "7630fef7edcd9fc9eb0d6fb2fe6bb11f", "fusion_lon": 0.0, "bike_id": "7630fef7edcd9fc9eb0d6fb2fe6bb11f", "is_disabled": 0, "is_reserved": 0}, {"rental_uris": {"ios": "https://dc.lft.to/lastmile_qr_scan", "android": "https://dc.lft.to/lastmile_qr_scan"}, "lon": -77.02507516666667, "type": "electric_scooter", "fusion_lat": 0.0, "lat": 38.880295, "name": "bbe421c7b4e5ccb2884a68e982b4a8b1", "fusion_lon": 0.0, "bike_id": "bbe421c7b4e5ccb2884a68e982b4a8b1", "is_disabled": 0, "is_reserved": 0}, {"rental_uris": {"ios": "https://dc.lft.to/lastmile_qr_scan", "android": "https://dc.lft.to/lastmile_qr_scan"}, "lon": -76.95734483333334, "type": "electric_scooter", "fusion_lat": 0.0, "lat": 38.892223666666666, "name": "3acf3f57f93d2ee1c64092f6e47ec1cb", "fusion_lon": 0.0, "bike_id": "3acf3f57f93d2ee1c64092f6e47ec1cb", "is_disabled": 0, "is_reserved": 0}, {"rental_uris": {"ios": "https://dc.lft.to/lastmile_qr_scan", "android": "https://dc.lft.to/lastmile_qr_scan"}, "lon": -77.13180216666666, "type": "electric_bike", "fusion_lat": 0.0, "lat": 38.869040166666665, "name": "da3f579fba0be4e9281e03df9d30b974", "fusion_lon": 0.0, "bike_id": "da3f579fba0be4e9281e03df9d30b974", "is_disabled": 0, "is_reserved": 0}, {"rental_uris": {"ios": "https://dc.lft.to/lastmile_qr_scan", "android": "https://dc.lft.to/lastmile_qr_scan"}, "lon": -76.97436016666667, "type": "electric_bike", "fusion_lat": 0.0, "lat": 38.86422183333333, "name": "8db4c7685714d86aad84b73720b9f9a9", "fusion_lon": 0.0, "bike_id": "8db4c7685714d86aad84b73720b9f9a9", "is_disabled": 0, "is_reserved": 0}, {"rental_uris": {"ios": "https://dc.lft.to/lastmile_qr_scan", "android": "https://dc.lft.to/lastmile_qr_scan"}, "lon": -77.048029, "type": "electric_scooter", "fusion_lat": 0.0, "lat": 38.916381333333334, "name": "1f89a2174af6fbdf56a50a6eabb6950e", "fusion_lon": 0.0, "bike_id": "1f89a2174af6fbdf56a50a6eabb6950e", "is_disabled": 0, "is_reserved": 0}, {"rental_uris": {"ios": "https://dc.lft.to/lastmile_qr_scan", "android": "https://dc.lft.to/lastmile_qr_scan"}, "lon": -77.02965366666666, "type": "electric_scooter", "fusion_lat": 0.0, "lat": 38.900459833333336, "name": "1ec5112f96aab743adcc24c924df0574", "fusion_lon": 0.0, "bike_id": "1ec5112f96aab743adcc24c924df0574", "is_disabled": 0, "is_reserved": 0}, {"rental_uris": {"ios": "https://dc.lft.to/lastmile_qr_scan", "android": "https://dc.lft.to/lastmile_qr_scan"}, "lon": -77.02752066666666, "type": "electric_scooter", "fusion_lat": 0.0, "lat": 38.892214333333335, "name": "18e2411499b0f20e63bc28d703290134", "fusion_lon": 0.0, "bike_id": "18e2411499b0f20e63bc28d703290134", "is_disabled": 0, "is_reserved": 0}, {"rental_uris": {"ios": "https://dc.lft.to/lastmile_qr_scan", "android": "https://dc.lft.to/lastmile_qr_scan"}, "lon": -77.02993183333334, "type": "electric_bike", "fusion_lat": 0.0, "lat": 38.900312, "name": "eeaff72ba61717fcb0a07bf3a9d05ec6", "fusion_lon": 0.0, "bike_id": "eeaff72ba61717fcb0a07bf3a9d05ec6", "is_disabled": 0, "is_reserved": 0}, {"rental_uris": {"ios": "https://dc.lft.to/lastmile_qr_scan", "android": "https://dc.lft.to/lastmile_qr_scan"}, "lon": -77.03206966666667, "type": "electric_scooter", "fusion_lat": 0.0, "lat": 38.9164925, "name": "8f56e86bc096a07fa1dd27d86bbfeb66", "fusion_lon": 0.0, "bike_id": "8f56e86bc096a07fa1dd27d86bbfeb66", "is_disabled": 0, "is_reserved": 0}, {"rental_uris": {"ios": "https://dc.lft.to/lastmile_qr_scan", "android": "https://dc.lft.to/lastmile_qr_scan"}, "lon": -77.03837416666667, "type": "electric_scooter", "fusion_lat": 0.0, "lat": 38.921729166666665, "name": "0feac0b08703921fe502dbbe9d9a6e2c", "fusion_lon": 0.0, "bike_id": "0feac0b08703921fe502dbbe9d9a6e2c", "is_disabled": 0, "is_reserved": 0}, {"rental_uris": {"ios": "https://dc.lft.to/lastmile_qr_scan", "android": "https://dc.lft.to/lastmile_qr_scan"}, "lon": -77.02212833333333, "type": "electric_scooter", "fusion_lat": 0.0, "lat": 38.914122166666665, "name": "0924b102f67771e3c0c85e86764580c9", "fusion_lon": 0.0, "bike_id": "0924b102f67771e3c0c85e86764580c9", "is_disabled": 0, "is_reserved": 0}, {"rental_uris": {"ios": "https://dc.lft.to/lastmile_qr_scan", "android": "https://dc.lft.to/lastmile_qr_scan"}, "lon": -77.01505033333333, "type": "electric_scooter", "fusion_lat": 0.0, "lat": 38.887739833333335, "name": "6a65d2f0ae6bf34ea7fbdbd939cc26c8", "fusion_lon": 0.0, "bike_id": "6a65d2f0ae6bf34ea7fbdbd939cc26c8", "is_disabled": 0, "is_reserved": 0}, {"rental_uris": {"ios": "https://dc.lft.to/lastmile_qr_scan", "android": "https://dc.lft.to/lastmile_qr_scan"}, "lon": -77.05725416666667, "type": "electric_scooter", "fusion_lat": 0.0, "lat": 38.9052955, "name": "6d0b48447e9812e4754c3f5d84ac10c7", "fusion_lon": 0.0, "bike_id": "6d0b48447e9812e4754c3f5d84ac10c7", "is_disabled": 0, "is_reserved": 0}, {"rental_uris": {"ios": "https://dc.lft.to/lastmile_qr_scan", "android": "https://dc.lft.to/lastmile_qr_scan"}, "lon": -77.00614483333334, "type": "electric_scooter", "fusion_lat": 0.0, "lat": 38.871800666666665, "name": "c20280c73e34d4d807356409fbcebf4b", "fusion_lon": 0.0, "bike_id": "c20280c73e34d4d807356409fbcebf4b", "is_disabled": 0, "is_reserved": 0}, {"rental_uris": {"ios": "https://dc.lft.to/lastmile_qr_scan", "android": "https://dc.lft.to/lastmile_qr_scan"}, "lon": -76.93167633333333, "type": "electric_scooter", "fusion_lat": 0.0, "lat": 38.89870466666667, "name": "c9411d87c75dc1a4b94d45a1d757fbbe", "fusion_lon": 0.0, "bike_id": "c9411d87c75dc1a4b94d45a1d757fbbe", "is_disabled": 0, "is_reserved": 0}, {"rental_uris": {"ios": "https://dc.lft.to/lastmile_qr_scan", "android": "https://dc.lft.to/lastmile_qr_scan"}, "lon": -76.96301766666667, "type": "electric_bike", "fusion_lat": 0.0, "lat": 38.927065, "name": "bfbaa5c0588f4a8b05d83bc18a073feb", "fusion_lon": 0.0, "bike_id": "bfbaa5c0588f4a8b05d83bc18a073feb", "is_disabled": 0, "is_reserved": 0}, {"rental_uris": {"ios": "https://dc.lft.to/lastmile_qr_scan", "android": "https://dc.lft.to/lastmile_qr_scan"}, "lon": -77.01939933333334, "type": "electric_scooter", "fusion_lat": 0.0, "lat": 38.90860966666666, "name": "e1ef64a52a1a269c2f48e3212b2baf83", "fusion_lon": 0.0, "bike_id": "e1ef64a52a1a269c2f48e3212b2baf83", "is_disabled": 0, "is_reserved": 0}, {"rental_uris": {"ios": "https://dc.lft.to/lastmile_qr_scan", "android": "https://dc.lft.to/lastmile_qr_scan"}, "lon": -77.01185966666667, "type": "electric_scooter", "fusion_lat": 0.0, "lat": 38.90025583333333, "name": "1283824fb61e19d9cdd0269362062a4f", "fusion_lon": 0.0, "bike_id": "1283824fb61e19d9cdd0269362062a4f", "is_disabled": 0, "is_reserved": 0}, {"rental_uris": {"ios": "https://dc.lft.to/lastmile_qr_scan", "android": "https://dc.lft.to/lastmile_qr_scan"}, "lon": -77.00215333333334, "type": "electric_scooter", "fusion_lat": 0.0, "lat": 38.900256, "name": "4b58fb4a476f5ce1f155c11eec6e768d", "fusion_lon": 0.0, "bike_id": "4b58fb4a476f5ce1f155c11eec6e768d", "is_disabled": 0, "is_reserved": 0}, {"rental_uris": {"ios": "https://dc.lft.to/lastmile_qr_scan", "android": "https://dc.lft.to/lastmile_qr_scan"}, "lon": -77.05004883333334, "type": "electric_scooter", "fusion_lat": 0.0, "lat": 38.892271666666666, "name": "0283560ef1f27595781c8f95d832ab67", "fusion_lon": 0.0, "bike_id": "0283560ef1f27595781c8f95d832ab67", "is_disabled": 0, "is_reserved": 0}, {"rental_uris": {"ios": "https://dc.lft.to/lastmile_qr_scan", "android": "https://dc.lft.to/lastmile_qr_scan"}, "lon": -77.053514, "type": "electric_scooter", "fusion_lat": 0.0, "lat": 38.9027125, "name": "93a624ae23476d801bdaa1069cbf225e", "fusion_lon": 0.0, "bike_id": "93a624ae23476d801bdaa1069cbf225e", "is_disabled": 0, "is_reserved": 0}, {"rental_uris": {"ios": "https://dc.lft.to/lastmile_qr_scan", "android": "https://dc.lft.to/lastmile_qr_scan"}, "lon": -76.98162316666667, "type": "electric_scooter", "fusion_lat": 0.0, "lat": 38.90020333333333, "name": "731006e48ce3b1b9e7308fa6c17f40cf", "fusion_lon": 0.0, "bike_id": "731006e48ce3b1b9e7308fa6c17f40cf", "is_disabled": 0, "is_reserved": 0}, {"rental_uris": {"ios": "https://dc.lft.to/lastmile_qr_scan", "android": "https://dc.lft.to/lastmile_qr_scan"}, "lon": -76.99802116666666, "type": "electric_scooter", "fusion_lat": 0.0, "lat": 38.90846483333333, "name": "cc5795fe8892f556e2bf66926d82358b", "fusion_lon": 0.0, "bike_id": "cc5795fe8892f556e2bf66926d82358b", "is_disabled": 0, "is_reserved": 0}, {"rental_uris": {"ios": "https://dc.lft.to/lastmile_qr_scan", "android": "https://dc.lft.to/lastmile_qr_scan"}, "lon": -77.01109783333334, "type": "electric_scooter", "fusion_lat": 0.0, "lat": 38.903611, "name": "3e2f0a456dc931682f506735ab6e3520", "fusion_lon": 0.0, "bike_id": "3e2f0a456dc931682f506735ab6e3520", "is_disabled": 0, "is_reserved": 0}, {"rental_uris": {"ios": "https://dc.lft.to/lastmile_qr_scan", "android": "https://dc.lft.to/lastmile_qr_scan"}, "lon": -77.01603033333333, "type": "electric_scooter", "fusion_lat": 0.0, "lat": 38.899694333333336, "name": "e7e632851bab08fcf820276b68dba5fc", "fusion_lon": 0.0, "bike_id": "e7e632851bab08fcf820276b68dba5fc", "is_disabled": 0, "is_reserved": 0}, {"rental_uris": {"ios": "https://dc.lft.to/lastmile_qr_scan", "android": "https://dc.lft.to/lastmile_qr_scan"}, "lon": -76.9652945, "type": "electric_scooter", "fusion_lat": 0.0, "lat": 38.87625216666667, "name": "4bebccd3f7cefc0ce9f26f7272b7ebef", "fusion_lon": 0.0, "bike_id": "4bebccd3f7cefc0ce9f26f7272b7ebef", "is_disabled": 0, "is_reserved": 0}, {"rental_uris": {"ios": "https://dc.lft.to/lastmile_qr_scan", "android": "https://dc.lft.to/lastmile_qr_scan"}, "lon": -77.0437495, "type": "electric_bike", "fusion_lat": 0.0, "lat": 38.927991666666664, "name": "c96202e6e71e57e428fb11eaf9542077", "fusion_lon": 0.0, "bike_id": "c96202e6e71e57e428fb11eaf9542077", "is_disabled": 0, "is_reserved": 0}, {"rental_uris": {"ios": "https://dc.lft.to/lastmile_qr_scan", "android": "https://dc.lft.to/lastmile_qr_scan"}, "lon": -77.03298266666667, "type": "electric_scooter", "fusion_lat": 0.0, "lat": 38.911110666666666, "name": "6e7a5d264f9ee44a59a72541b80f82d4", "fusion_lon": 0.0, "bike_id": "6e7a5d264f9ee44a59a72541b80f82d4", "is_disabled": 0, "is_reserved": 0}, {"rental_uris": {"ios": "https://dc.lft.to/lastmile_qr_scan", "android": "https://dc.lft.to/lastmile_qr_scan"}, "lon": -77.04353383333333, "type": "electric_scooter", "fusion_lat": 0.0, "lat": 38.90662833333333, "name": "00ded60e14971efc46effdde7395e940", "fusion_lon": 0.0, "bike_id": "00ded60e14971efc46effdde7395e940", "is_disabled": 0, "is_reserved": 0}, {"rental_uris": {"ios": "https://dc.lft.to/lastmile_qr_scan", "android": "https://dc.lft.to/lastmile_qr_scan"}, "lon": -77.04556, "type": "electric_scooter", "fusion_lat": 0.0, "lat": 38.91360733333333, "name": "5ba2c407ec49167571e1b90912686bb8", "fusion_lon": 0.0, "bike_id": "5ba2c407ec49167571e1b90912686bb8", "is_disabled": 0, "is_reserved": 0}, {"rental_uris": {"ios": "https://dc.lft.to/lastmile_qr_scan", "android": "https://dc.lft.to/lastmile_qr_scan"}, "lon": -76.9884485, "type": "electric_scooter", "fusion_lat": 0.0, "lat": 38.89464566666667, "name": "b7d2f779f63e55442ff40a2acb7918a6", "fusion_lon": 0.0, "bike_id": "b7d2f779f63e55442ff40a2acb7918a6", "is_disabled": 0, "is_reserved": 0}, {"rental_uris": {"ios": "https://dc.lft.to/lastmile_qr_scan", "android": "https://dc.lft.to/lastmile_qr_scan"}, "lon": -77.045418, "type": "electric_scooter", "fusion_lat": 0.0, "lat": 38.91790916666667, "name": "39342ceecaca29812bc133e0efe4fd11", "fusion_lon": 0.0, "bike_id": "39342ceecaca29812bc133e0efe4fd11", "is_disabled": 0, "is_reserved": 0}, {"rental_uris": {"ios": "https://dc.lft.to/lastmile_qr_scan", "android": "https://dc.lft.to/lastmile_qr_scan"}, "lon": -77.0264015, "type": "electric_scooter", "fusion_lat": 0.0, "lat": 38.897147, "name": "6ad4e83df4c8404dbcc575112519e841", "fusion_lon": 0.0, "bike_id": "6ad4e83df4c8404dbcc575112519e841", "is_disabled": 0, "is_reserved": 0}, {"rental_uris": {"ios": "https://dc.lft.to/lastmile_qr_scan", "android": "https://dc.lft.to/lastmile_qr_scan"}, "lon": -77.017157, "type": "electric_scooter", "fusion_lat": 0.0, "lat": 38.892236833333335, "name": "8e617b2fee843ef201e6f5021f4168f9", "fusion_lon": 0.0, "bike_id": "8e617b2fee843ef201e6f5021f4168f9", "is_disabled": 0, "is_reserved": 0}, {"rental_uris": {"ios": "https://dc.lft.to/lastmile_qr_scan", "android": "https://dc.lft.to/lastmile_qr_scan"}, "lon": -77.03441933333333, "type": "electric_scooter", "fusion_lat": 0.0, "lat": 38.917744166666665, "name": "0f4d8e2ae5e0ddb13bf777c2976141ba", "fusion_lon": 0.0, "bike_id": "0f4d8e2ae5e0ddb13bf777c2976141ba", "is_disabled": 0, "is_reserved": 0}, {"rental_uris": {"ios": "https://dc.lft.to/lastmile_qr_scan", "android": "https://dc.lft.to/lastmile_qr_scan"}, "lon": -77.01704883333333, "type": "electric_scooter", "fusion_lat": 0.0, "lat": 38.9204275, "name": "086cda9f0c53a0e14f99b6125da12cc3", "fusion_lon": 0.0, "bike_id": "086cda9f0c53a0e14f99b6125da12cc3", "is_disabled": 0, "is_reserved": 0}, {"rental_uris": {"ios": "https://dc.lft.to/lastmile_qr_scan", "android": "https://dc.lft.to/lastmile_qr_scan"}, "lon": -77.031882, "type": "electric_scooter", "fusion_lat": 0.0, "lat": 38.917636, "name": "de1166601b24af39181abbaba4ba0f25", "fusion_lon": 0.0, "bike_id": "de1166601b24af39181abbaba4ba0f25", "is_disabled": 0, "is_reserved": 0}, {"rental_uris": {"ios": "https://dc.lft.to/lastmile_qr_scan", "android": "https://dc.lft.to/lastmile_qr_scan"}, "lon": -77.01305216666667, "type": "electric_scooter", "fusion_lat": 0.0, "lat": 38.900513, "name": "efd17926276bcd72dcbcad57ce4ecd98", "fusion_lon": 0.0, "bike_id": "efd17926276bcd72dcbcad57ce4ecd98", "is_disabled": 0, "is_reserved": 0}, {"rental_uris": {"ios": "https://dc.lft.to/lastmile_qr_scan", "android": "https://dc.lft.to/lastmile_qr_scan"}, "lon": -77.03550583333333, "type": "electric_scooter", "fusion_lat": 0.0, "lat": 38.9242, "name": "292409d5e448a4b8d9dfd58c622eb866", "fusion_lon": 0.0, "bike_id": "292409d5e448a4b8d9dfd58c622eb866", "is_disabled": 0, "is_reserved": 0}, {"rental_uris": {"ios": "https://dc.lft.to/lastmile_qr_scan", "android": "https://dc.lft.to/lastmile_qr_scan"}, "lon": -77.03186216666667, "type": "electric_scooter", "fusion_lat": 0.0, "lat": 38.91393983333333, "name": "e19e798f6a33ec2791a83d8f1b384f5f", "fusion_lon": 0.0, "bike_id": "e19e798f6a33ec2791a83d8f1b384f5f", "is_disabled": 0, "is_reserved": 0}, {"rental_uris": {"ios": "https://dc.lft.to/lastmile_qr_scan", "android": "https://dc.lft.to/lastmile_qr_scan"}, "lon": -77.04307783333333, "type": "electric_scooter", "fusion_lat": 0.0, "lat": 38.923237, "name": "8aefa0fe2bf0c560244d926db567171b", "fusion_lon": 0.0, "bike_id": "8aefa0fe2bf0c560244d926db567171b", "is_disabled": 0, "is_reserved": 0}, {"rental_uris": {"ios": "https://dc.lft.to/lastmile_qr_scan", "android": "https://dc.lft.to/lastmile_qr_scan"}, "lon": -77.00593883333333, "type": "electric_scooter", "fusion_lat": 0.0, "lat": 38.9063195, "name": "88fadfc72f70ac560fd6278bb0b22d2a", "fusion_lon": 0.0, "bike_id": "88fadfc72f70ac560fd6278bb0b22d2a", "is_disabled": 0, "is_reserved": 0}, {"rental_uris": {"ios": "https://dc.lft.to/lastmile_qr_scan", "android": "https://dc.lft.to/lastmile_qr_scan"}, "lon": -76.93195466666667, "type": "electric_scooter", "fusion_lat": 0.0, "lat": 38.88992733333333, "name": "bc0ab08cea9e3ff2ca37f0453b36d10b", "fusion_lon": 0.0, "bike_id": "bc0ab08cea9e3ff2ca37f0453b36d10b", "is_disabled": 0, "is_reserved": 0}, {"rental_uris": {"ios": "https://dc.lft.to/lastmile_qr_scan", "android": "https://dc.lft.to/lastmile_qr_scan"}, "lon": -77.032129, "type": "electric_scooter", "fusion_lat": 0.0, "lat": 38.916759666666664, "name": "f4fde06a8677162f9f85f8094c020d57", "fusion_lon": 0.0, "bike_id": "f4fde06a8677162f9f85f8094c020d57", "is_disabled": 0, "is_reserved": 0}, {"rental_uris": {"ios": "https://dc.lft.to/lastmile_qr_scan", "android": "https://dc.lft.to/lastmile_qr_scan"}, "lon": -77.00597083333334, "type": "electric_scooter", "fusion_lat": 0.0, "lat": 38.906336, "name": "4b50fbe2d6e7f2df18af8221750ff089", "fusion_lon": 0.0, "bike_id": "4b50fbe2d6e7f2df18af8221750ff089", "is_disabled": 0, "is_reserved": 0}, {"rental_uris": {"ios": "https://dc.lft.to/lastmile_qr_scan", "android": "https://dc.lft.to/lastmile_qr_scan"}, "lon": -77.0447885, "type": "electric_scooter", "fusion_lat": 0.0, "lat": 38.900295666666665, "name": "9cee9ceebe688cbe00f4e28477776ee2", "fusion_lon": 0.0, "bike_id": "9cee9ceebe688cbe00f4e28477776ee2", "is_disabled": 0, "is_reserved": 0}, {"rental_uris": {"ios": "https://dc.lft.to/lastmile_qr_scan", "android": "https://dc.lft.to/lastmile_qr_scan"}, "lon": -77.0179095, "type": "electric_scooter", "fusion_lat": 0.0, "lat": 38.904203833333334, "name": "a4ad632a5dff2f9e60fc3d0fbf5b90c2", "fusion_lon": 0.0, "bike_id": "a4ad632a5dff2f9e60fc3d0fbf5b90c2", "is_disabled": 0, "is_reserved": 0}, {"rental_uris": {"ios": "https://dc.lft.to/lastmile_qr_scan", "android": "https://dc.lft.to/lastmile_qr_scan"}, "lon": -77.02469516666666, "type": "electric_scooter", "fusion_lat": 0.0, "lat": 38.916962166666664, "name": "9f6174904e3dfe75edf802d531eca424", "fusion_lon": 0.0, "bike_id": "9f6174904e3dfe75edf802d531eca424", "is_disabled": 0, "is_reserved": 0}, {"rental_uris": {"ios": "https://dc.lft.to/lastmile_qr_scan", "android": "https://dc.lft.to/lastmile_qr_scan"}, "lon": -76.93363316666667, "type": "electric_scooter", "fusion_lat": 0.0, "lat": 38.89918466666666, "name": "0ac2f2f7c869c6f7474610caff029efe", "fusion_lon": 0.0, "bike_id": "0ac2f2f7c869c6f7474610caff029efe", "is_disabled": 0, "is_reserved": 0}, {"rental_uris": {"ios": "https://dc.lft.to/lastmile_qr_scan", "android": "https://dc.lft.to/lastmile_qr_scan"}, "lon": -77.01640566666667, "type": "electric_scooter", "fusion_lat": 0.0, "lat": 38.901149333333336, "name": "6a17a1deef52640ceb4b9da4eb65948d", "fusion_lon": 0.0, "bike_id": "6a17a1deef52640ceb4b9da4eb65948d", "is_disabled": 0, "is_reserved": 0}, {"rental_uris": {"ios": "https://dc.lft.to/lastmile_qr_scan", "android": "https://dc.lft.to/lastmile_qr_scan"}, "lon": -77.0752595, "type": "electric_scooter", "fusion_lat": 0.0, "lat": 38.90877783333333, "name": "4580d9d901a5f581cf284a564656761e", "fusion_lon": 0.0, "bike_id": "4580d9d901a5f581cf284a564656761e", "is_disabled": 0, "is_reserved": 0}, {"rental_uris": {"ios": "https://dc.lft.to/lastmile_qr_scan", "android": "https://dc.lft.to/lastmile_qr_scan"}, "lon": -76.974414, "type": "electric_scooter", "fusion_lat": 0.0, "lat": 38.86415, "name": "544efe7ee9bbb801c65c2d9709a1e472", "fusion_lon": 0.0, "bike_id": "544efe7ee9bbb801c65c2d9709a1e472", "is_disabled": 0, "is_reserved": 0}, {"rental_uris": {"ios": "https://dc.lft.to/lastmile_qr_scan", "android": "https://dc.lft.to/lastmile_qr_scan"}, "lon": -77.06366933333334, "type": "electric_scooter", "fusion_lat": 0.0, "lat": 38.90929833333333, "name": "eaa94c941e6ec714dae014028ae24f4b", "fusion_lon": 0.0, "bike_id": "eaa94c941e6ec714dae014028ae24f4b", "is_disabled": 0, "is_reserved": 0}, {"rental_uris": {"ios": "https://dc.lft.to/lastmile_qr_scan", "android": "https://dc.lft.to/lastmile_qr_scan"}, "lon": -77.14989816666667, "type": "electric_bike", "fusion_lat": 0.0, "lat": 39.09457466666667, "name": "5475c51f63271f19415bd411927a6283", "fusion_lon": 0.0, "bike_id": "5475c51f63271f19415bd411927a6283", "is_disabled": 0, "is_reserved": 0}, {"rental_uris": {"ios": "https://dc.lft.to/lastmile_qr_scan", "android": "https://dc.lft.to/lastmile_qr_scan"}, "lon": -77.1990665, "type": "electric_bike", "fusion_lat": 0.0, "lat": 38.875286, "name": "98f59c6ef0de745c6aff25bd925097ab", "fusion_lon": 0.0, "bike_id": "98f59c6ef0de745c6aff25bd925097ab", "is_disabled": 0, "is_reserved": 0}, {"rental_uris": {"ios": "https://dc.lft.to/lastmile_qr_scan", "android": "https://dc.lft.to/lastmile_qr_scan"}, "lon": -76.96851733333334, "type": "electric_scooter", "fusion_lat": 0.0, "lat": 38.874647, "name": "f0b4813561cae41ad93ff36469fced05", "fusion_lon": 0.0, "bike_id": "f0b4813561cae41ad93ff36469fced05", "is_disabled": 0, "is_reserved": 0}, {"rental_uris": {"ios": "https://dc.lft.to/lastmile_qr_scan", "android": "https://dc.lft.to/lastmile_qr_scan"}, "lon": -77.00655666666667, "type": "electric_scooter", "fusion_lat": 0.0, "lat": 38.908564166666665, "name": "8071638f7ff1e46ae4e60d45fe70289f", "fusion_lon": 0.0, "bike_id": "8071638f7ff1e46ae4e60d45fe70289f", "is_disabled": 0, "is_reserved": 0}, {"rental_uris": {"ios": "https://dc.lft.to/lastmile_qr_scan", "android": "https://dc.lft.to/lastmile_qr_scan"}, "lon": -77.03568966666667, "type": "electric_scooter", "fusion_lat": 0.0, "lat": 38.91628566666667, "name": "29d626b61892fe5f6e9309be788673af", "fusion_lon": 0.0, "bike_id": "29d626b61892fe5f6e9309be788673af", "is_disabled": 0, "is_reserved": 0}, {"rental_uris": {"ios": "https://dc.lft.to/lastmile_qr_scan", "android": "https://dc.lft.to/lastmile_qr_scan"}, "lon": -77.02041533333333, "type": "electric_scooter", "fusion_lat": 0.0, "lat": 38.924228166666666, "name": "f4357e7721fcd9f3be424f74723e99c0", "fusion_lon": 0.0, "bike_id": "f4357e7721fcd9f3be424f74723e99c0", "is_disabled": 0, "is_reserved": 0}, {"rental_uris": {"ios": "https://dc.lft.to/lastmile_qr_scan", "android": "https://dc.lft.to/lastmile_qr_scan"}, "lon": -77.04181866666667, "type": "electric_scooter", "fusion_lat": 0.0, "lat": 38.90299733333333, "name": "d8b0dff3c3db44511f24835e3a61f543", "fusion_lon": 0.0, "bike_id": "d8b0dff3c3db44511f24835e3a61f543", "is_disabled": 0, "is_reserved": 0}, {"rental_uris": {"ios": "https://dc.lft.to/lastmile_qr_scan", "android": "https://dc.lft.to/lastmile_qr_scan"}, "lon": -76.933666, "type": "electric_scooter", "fusion_lat": 0.0, "lat": 38.899131833333335, "name": "d76fabb0a40ceede68bbe74ba05b2469", "fusion_lon": 0.0, "bike_id": "d76fabb0a40ceede68bbe74ba05b2469", "is_disabled": 0, "is_reserved": 0}, {"rental_uris": {"ios": "https://dc.lft.to/lastmile_qr_scan", "android": "https://dc.lft.to/lastmile_qr_scan"}, "lon": -76.99800666666667, "type": "electric_bike", "fusion_lat": 0.0, "lat": 38.90858033333333, "name": "835a3d480030c24ebff2ac496d9acc53", "fusion_lon": 0.0, "bike_id": "835a3d480030c24ebff2ac496d9acc53", "is_disabled": 0, "is_reserved": 0}, {"rental_uris": {"ios": "https://dc.lft.to/lastmile_qr_scan", "android": "https://dc.lft.to/lastmile_qr_scan"}, "lon": -77.02938133333333, "type": "electric_scooter", "fusion_lat": 0.0, "lat": 38.90400233333333, "name": "56c62629da4cb1565324b2a09673d33d", "fusion_lon": 0.0, "bike_id": "56c62629da4cb1565324b2a09673d33d", "is_disabled": 0, "is_reserved": 0}, {"rental_uris": {"ios": "https://dc.lft.to/lastmile_qr_scan", "android": "https://dc.lft.to/lastmile_qr_scan"}, "lon": -77.03991533333334, "type": "electric_scooter", "fusion_lat": 0.0, "lat": 38.898816333333336, "name": "aef4bf52ea6b6e82184c8aabaef7bd65", "fusion_lon": 0.0, "bike_id": "aef4bf52ea6b6e82184c8aabaef7bd65", "is_disabled": 0, "is_reserved": 0}, {"rental_uris": {"ios": "https://dc.lft.to/lastmile_qr_scan", "android": "https://dc.lft.to/lastmile_qr_scan"}, "lon": -77.063641, "type": "electric_bike", "fusion_lat": 0.0, "lat": 38.862786666666665, "name": "4d63810ca51a368192cd8bbadb976f89", "fusion_lon": 0.0, "bike_id": "4d63810ca51a368192cd8bbadb976f89", "is_disabled": 0, "is_reserved": 0}, {"rental_uris": {"ios": "https://dc.lft.to/lastmile_qr_scan", "android": "https://dc.lft.to/lastmile_qr_scan"}, "lon": -77.0335285, "type": "electric_scooter", "fusion_lat": 0.0, "lat": 38.895284333333336, "name": "c12dbf1ae063d90363049dffd89ced78", "fusion_lon": 0.0, "bike_id": "c12dbf1ae063d90363049dffd89ced78", "is_disabled": 0, "is_reserved": 0}, {"rental_uris": {"ios": "https://dc.lft.to/lastmile_qr_scan", "android": "https://dc.lft.to/lastmile_qr_scan"}, "lon": -76.996205, "type": "electric_scooter", "fusion_lat": 0.0, "lat": 38.885515166666664, "name": "b257de80b71e54322168273f4586a9cf", "fusion_lon": 0.0, "bike_id": "b257de80b71e54322168273f4586a9cf", "is_disabled": 0, "is_reserved": 0}, {"rental_uris": {"ios": "https://dc.lft.to/lastmile_qr_scan", "android": "https://dc.lft.to/lastmile_qr_scan"}, "lon": -77.04481616666666, "type": "electric_scooter", "fusion_lat": 0.0, "lat": 38.90939816666667, "name": "ac9cd0be849b37c6d357b7d2b4cfee29", "fusion_lon": 0.0, "bike_id": "ac9cd0be849b37c6d357b7d2b4cfee29", "is_disabled": 0, "is_reserved": 0}, {"rental_uris": {"ios": "https://dc.lft.to/lastmile_qr_scan", "android": "https://dc.lft.to/lastmile_qr_scan"}, "lon": -77.02280966666666, "type": "electric_scooter", "fusion_lat": 0.0, "lat": 38.8783695, "name": "e8facd2037d4a18a768581ae7047888c", "fusion_lon": 0.0, "bike_id": "e8facd2037d4a18a768581ae7047888c", "is_disabled": 0, "is_reserved": 0}, {"rental_uris": {"ios": "https://dc.lft.to/lastmile_qr_scan", "android": "https://dc.lft.to/lastmile_qr_scan"}, "lon": -77.00581233333334, "type": "electric_scooter", "fusion_lat": 0.0, "lat": 38.84494133333333, "name": "e4943eb5a623f3c9e720eb4c41646afc", "fusion_lon": 0.0, "bike_id": "e4943eb5a623f3c9e720eb4c41646afc", "is_disabled": 0, "is_reserved": 0}, {"rental_uris": {"ios": "https://dc.lft.to/lastmile_qr_scan", "android": "https://dc.lft.to/lastmile_qr_scan"}, "lon": -76.97332833333333, "type": "electric_scooter", "fusion_lat": 0.0, "lat": 38.91774633333333, "name": "f0bf1b19d4e3888a64e15b693478141d", "fusion_lon": 0.0, "bike_id": "f0bf1b19d4e3888a64e15b693478141d", "is_disabled": 0, "is_reserved": 0}, {"rental_uris": {"ios": "https://dc.lft.to/lastmile_qr_scan", "android": "https://dc.lft.to/lastmile_qr_scan"}, "lon": -77.02600916666667, "type": "electric_scooter", "fusion_lat": 0.0, "lat": 38.91690966666667, "name": "9f76bc9cedcecf9cba1dd24c97df65a3", "fusion_lon": 0.0, "bike_id": "9f76bc9cedcecf9cba1dd24c97df65a3", "is_disabled": 0, "is_reserved": 0}, {"rental_uris": {"ios": "https://dc.lft.to/lastmile_qr_scan", "android": "https://dc.lft.to/lastmile_qr_scan"}, "lon": -77.02190133333333, "type": "electric_scooter", "fusion_lat": 0.0, "lat": 38.87991266666667, "name": "5d06b94e03e74251cfed87919ec9d13d", "fusion_lon": 0.0, "bike_id": "5d06b94e03e74251cfed87919ec9d13d", "is_disabled": 0, "is_reserved": 0}, {"rental_uris": {"ios": "https://dc.lft.to/lastmile_qr_scan", "android": "https://dc.lft.to/lastmile_qr_scan"}, "lon": -77.05518216666667, "type": "electric_scooter", "fusion_lat": 0.0, "lat": 38.92996016666667, "name": "89c2868aec55515abfb6ce96dbd55b7a", "fusion_lon": 0.0, "bike_id": "89c2868aec55515abfb6ce96dbd55b7a", "is_disabled": 0, "is_reserved": 0}, {"rental_uris": {"ios": "https://dc.lft.to/lastmile_qr_scan", "android": "https://dc.lft.to/lastmile_qr_scan"}, "lon": -77.022281, "type": "electric_scooter", "fusion_lat": 0.0, "lat": 38.920993, "name": "35812e9a0fb1545378453a4e128a615b", "fusion_lon": 0.0, "bike_id": "35812e9a0fb1545378453a4e128a615b", "is_disabled": 0, "is_reserved": 0}, {"rental_uris": {"ios": "https://dc.lft.to/lastmile_qr_scan", "android": "https://dc.lft.to/lastmile_qr_scan"}, "lon": -77.02952216666667, "type": "electric_scooter", "fusion_lat": 0.0, "lat": 38.91718066666667, "name": "f2b247c9d82eb23e93442371ccacedc1", "fusion_lon": 0.0, "bike_id": "f2b247c9d82eb23e93442371ccacedc1", "is_disabled": 0, "is_reserved": 0}, {"rental_uris": {"ios": "https://dc.lft.to/lastmile_qr_scan", "android": "https://dc.lft.to/lastmile_qr_scan"}, "lon": -77.07566583333333, "type": "electric_bike", "fusion_lat": 0.0, "lat": 38.906895666666664, "name": "d0624b5a047ffc4900d3192a3ec9437f", "fusion_lon": 0.0, "bike_id": "d0624b5a047ffc4900d3192a3ec9437f", "is_disabled": 0, "is_reserved": 0}, {"rental_uris": {"ios": "https://dc.lft.to/lastmile_qr_scan", "android": "https://dc.lft.to/lastmile_qr_scan"}, "lon": -77.03153716666667, "type": "electric_scooter", "fusion_lat": 0.0, "lat": 38.94533, "name": "0dd9863004629b26efe168ffcf173e37", "fusion_lon": 0.0, "bike_id": "0dd9863004629b26efe168ffcf173e37", "is_disabled": 0, "is_reserved": 0}, {"rental_uris": {"ios": "https://dc.lft.to/lastmile_qr_scan", "android": "https://dc.lft.to/lastmile_qr_scan"}, "lon": -77.0756305, "type": "electric_scooter", "fusion_lat": 0.0, "lat": 38.91426583333333, "name": "2a935f57839419597dc1f50d3c822e63", "fusion_lon": 0.0, "bike_id": "2a935f57839419597dc1f50d3c822e63", "is_disabled": 0, "is_reserved": 0}, {"rental_uris": {"ios": "https://dc.lft.to/lastmile_qr_scan", "android": "https://dc.lft.to/lastmile_qr_scan"}, "lon": -77.04338783333333, "type": "electric_scooter", "fusion_lat": 0.0, "lat": 38.89669516666667, "name": "8c89aba595a5d44bc20a054bbc1bcfac", "fusion_lon": 0.0, "bike_id": "8c89aba595a5d44bc20a054bbc1bcfac", "is_disabled": 0, "is_reserved": 0}, {"rental_uris": {"ios": "https://dc.lft.to/lastmile_qr_scan", "android": "https://dc.lft.to/lastmile_qr_scan"}, "lon": -77.022101, "type": "electric_scooter", "fusion_lat": 0.0, "lat": 38.89264216666667, "name": "dd84d3e18e190fbb0f27ad42ef5383a8", "fusion_lon": 0.0, "bike_id": "dd84d3e18e190fbb0f27ad42ef5383a8", "is_disabled": 0, "is_reserved": 0}, {"rental_uris": {"ios": "https://dc.lft.to/lastmile_qr_scan", "android": "https://dc.lft.to/lastmile_qr_scan"}, "lon": -77.03335933333334, "type": "electric_scooter", "fusion_lat": 0.0, "lat": 38.928803333333335, "name": "0d262eb6fe9e69c155a2ca8dec35c31b", "fusion_lon": 0.0, "bike_id": "0d262eb6fe9e69c155a2ca8dec35c31b", "is_disabled": 0, "is_reserved": 0}, {"rental_uris": {"ios": "https://dc.lft.to/lastmile_qr_scan", "android": "https://dc.lft.to/lastmile_qr_scan"}, "lon": -77.01211616666667, "type": "electric_scooter", "fusion_lat": 0.0, "lat": 38.9211835, "name": "2161d0a619ab177e39880b35f48c0ca7", "fusion_lon": 0.0, "bike_id": "2161d0a619ab177e39880b35f48c0ca7", "is_disabled": 0, "is_reserved": 0}, {"rental_uris": {"ios": "https://dc.lft.to/lastmile_qr_scan", "android": "https://dc.lft.to/lastmile_qr_scan"}, "lon": -77.027615, "type": "electric_scooter", "fusion_lat": 0.0, "lat": 38.892107833333334, "name": "d9c00e64809c1403fc5ff160d1d99e56", "fusion_lon": 0.0, "bike_id": "d9c00e64809c1403fc5ff160d1d99e56", "is_disabled": 0, "is_reserved": 0}, {"rental_uris": {"ios": "https://dc.lft.to/lastmile_qr_scan", "android": "https://dc.lft.to/lastmile_qr_scan"}, "lon": -77.0022015, "type": "electric_scooter", "fusion_lat": 0.0, "lat": 38.900489, "name": "a5a626175d4d837911c59fb86f6bcc73", "fusion_lon": 0.0, "bike_id": "a5a626175d4d837911c59fb86f6bcc73", "is_disabled": 0, "is_reserved": 0}, {"rental_uris": {"ios": "https://dc.lft.to/lastmile_qr_scan", "android": "https://dc.lft.to/lastmile_qr_scan"}, "lon": -77.03958116666666, "type": "electric_scooter", "fusion_lat": 0.0, "lat": 38.892483, "name": "9d6fe2483d1c6c48481b0e1bdae8906f", "fusion_lon": 0.0, "bike_id": "9d6fe2483d1c6c48481b0e1bdae8906f", "is_disabled": 0, "is_reserved": 0}, {"rental_uris": {"ios": "https://dc.lft.to/lastmile_qr_scan", "android": "https://dc.lft.to/lastmile_qr_scan"}, "lon": -77.05726066666666, "type": "electric_scooter", "fusion_lat": 0.0, "lat": 38.905272833333335, "name": "f396b80456de2657d6ae7230e92a8bf5", "fusion_lon": 0.0, "bike_id": "f396b80456de2657d6ae7230e92a8bf5", "is_disabled": 0, "is_reserved": 0}, {"rental_uris": {"ios": "https://dc.lft.to/lastmile_qr_scan", "android": "https://dc.lft.to/lastmile_qr_scan"}, "lon": -77.03808833333333, "type": "electric_scooter", "fusion_lat": 0.0, "lat": 38.912296, "name": "f5c1c91ca46f43411b8b904952d056bf", "fusion_lon": 0.0, "bike_id": "f5c1c91ca46f43411b8b904952d056bf", "is_disabled": 0, "is_reserved": 0}, {"rental_uris": {"ios": "https://dc.lft.to/lastmile_qr_scan", "android": "https://dc.lft.to/lastmile_qr_scan"}, "lon": -77.01937016666666, "type": "electric_scooter", "fusion_lat": 0.0, "lat": 38.949263, "name": "76c355a4003f17dce00167b667bacd67", "fusion_lon": 0.0, "bike_id": "76c355a4003f17dce00167b667bacd67", "is_disabled": 0, "is_reserved": 0}, {"rental_uris": {"ios": "https://dc.lft.to/lastmile_qr_scan", "android": "https://dc.lft.to/lastmile_qr_scan"}, "lon": -77.0246925, "type": "electric_scooter", "fusion_lat": 0.0, "lat": 38.93297466666667, "name": "d0d645c150d214184251971348f559fa", "fusion_lon": 0.0, "bike_id": "d0d645c150d214184251971348f559fa", "is_disabled": 0, "is_reserved": 0}, {"rental_uris": {"ios": "https://dc.lft.to/lastmile_qr_scan", "android": "https://dc.lft.to/lastmile_qr_scan"}, "lon": -77.03085233333333, "type": "electric_scooter", "fusion_lat": 0.0, "lat": 38.90991116666667, "name": "329bd79df4e6354d9d305d9a578ad082", "fusion_lon": 0.0, "bike_id": "329bd79df4e6354d9d305d9a578ad082", "is_disabled": 0, "is_reserved": 0}, {"rental_uris": {"ios": "https://dc.lft.to/lastmile_qr_scan", "android": "https://dc.lft.to/lastmile_qr_scan"}, "lon": -77.0121125, "type": "electric_scooter", "fusion_lat": 0.0, "lat": 38.91520283333333, "name": "f36d3dcfdc89a7e3fe806548a80e516e", "fusion_lon": 0.0, "bike_id": "f36d3dcfdc89a7e3fe806548a80e516e", "is_disabled": 0, "is_reserved": 0}, {"rental_uris": {"ios": "https://dc.lft.to/lastmile_qr_scan", "android": "https://dc.lft.to/lastmile_qr_scan"}, "lon": -77.0058125, "type": "electric_scooter", "fusion_lat": 0.0, "lat": 38.8859855, "name": "8a2835d12a4f0435713d95397d72200f", "fusion_lon": 0.0, "bike_id": "8a2835d12a4f0435713d95397d72200f", "is_disabled": 0, "is_reserved": 0}, {"rental_uris": {"ios": "https://dc.lft.to/lastmile_qr_scan", "android": "https://dc.lft.to/lastmile_qr_scan"}, "lon": -77.03229, "type": "electric_scooter", "fusion_lat": 0.0, "lat": 38.903865333333336, "name": "3bd712def86fbc3c382c5b45bfe878eb", "fusion_lon": 0.0, "bike_id": "3bd712def86fbc3c382c5b45bfe878eb", "is_disabled": 0, "is_reserved": 0}, {"rental_uris": {"ios": "https://dc.lft.to/lastmile_qr_scan", "android": "https://dc.lft.to/lastmile_qr_scan"}, "lon": -77.04616866666667, "type": "electric_scooter", "fusion_lat": 0.0, "lat": 38.913816833333335, "name": "0d6a338343df97158cb0a0700ad9f8f2", "fusion_lon": 0.0, "bike_id": "0d6a338343df97158cb0a0700ad9f8f2", "is_disabled": 0, "is_reserved": 0}, {"rental_uris": {"ios": "https://dc.lft.to/lastmile_qr_scan", "android": "https://dc.lft.to/lastmile_qr_scan"}, "lon": -77.0251505, "type": "electric_scooter", "fusion_lat": 0.0, "lat": 38.9363795, "name": "6ad78c21bd5b1dffc7b9dde7192c0381", "fusion_lon": 0.0, "bike_id": "6ad78c21bd5b1dffc7b9dde7192c0381", "is_disabled": 0, "is_reserved": 0}, {"rental_uris": {"ios": "https://dc.lft.to/lastmile_qr_scan", "android": "https://dc.lft.to/lastmile_qr_scan"}, "lon": -77.02605333333334, "type": "electric_scooter", "fusion_lat": 0.0, "lat": 38.91992466666667, "name": "16a107fa8f2867605dc2035a20355760", "fusion_lon": 0.0, "bike_id": "16a107fa8f2867605dc2035a20355760", "is_disabled": 0, "is_reserved": 0}, {"rental_uris": {"ios": "https://dc.lft.to/lastmile_qr_scan", "android": "https://dc.lft.to/lastmile_qr_scan"}, "lon": -77.02642483333334, "type": "electric_scooter", "fusion_lat": 0.0, "lat": 38.892155333333335, "name": "9e71b02ce77e4dd890fe208759fa634d", "fusion_lon": 0.0, "bike_id": "9e71b02ce77e4dd890fe208759fa634d", "is_disabled": 0, "is_reserved": 0}, {"rental_uris": {"ios": "https://dc.lft.to/lastmile_qr_scan", "android": "https://dc.lft.to/lastmile_qr_scan"}, "lon": -76.9043915, "type": "electric_bike", "fusion_lat": 0.0, "lat": 38.897686, "name": "aaf2b4bc612b01d1f8d1f7ce1885dd89", "fusion_lon": 0.0, "bike_id": "aaf2b4bc612b01d1f8d1f7ce1885dd89", "is_disabled": 0, "is_reserved": 0}, {"rental_uris": {"ios": "https://dc.lft.to/lastmile_qr_scan", "android": "https://dc.lft.to/lastmile_qr_scan"}, "lon": -77.0228165, "type": "electric_scooter", "fusion_lat": 0.0, "lat": 38.9086465, "name": "fb99c980902f1c6936d6b4176fe47f1a", "fusion_lon": 0.0, "bike_id": "fb99c980902f1c6936d6b4176fe47f1a", "is_disabled": 0, "is_reserved": 0}, {"rental_uris": {"ios": "https://dc.lft.to/lastmile_qr_scan", "android": "https://dc.lft.to/lastmile_qr_scan"}, "lon": -77.04876016666667, "type": "electric_scooter", "fusion_lat": 0.0, "lat": 38.91231166666667, "name": "13f6242e2bc1efa72e20846b350358d3", "fusion_lon": 0.0, "bike_id": "13f6242e2bc1efa72e20846b350358d3", "is_disabled": 0, "is_reserved": 0}, {"rental_uris": {"ios": "https://dc.lft.to/lastmile_qr_scan", "android": "https://dc.lft.to/lastmile_qr_scan"}, "lon": -77.03585216666667, "type": "electric_scooter", "fusion_lat": 0.0, "lat": 38.902520833333334, "name": "f903d20fe2331d8528ce996bf5b62c37", "fusion_lon": 0.0, "bike_id": "f903d20fe2331d8528ce996bf5b62c37", "is_disabled": 0, "is_reserved": 0}, {"rental_uris": {"ios": "https://dc.lft.to/lastmile_qr_scan", "android": "https://dc.lft.to/lastmile_qr_scan"}, "lon": -77.02394066666666, "type": "electric_scooter", "fusion_lat": 0.0, "lat": 38.95288683333333, "name": "812b252d68f9badce2912c0403f03d94", "fusion_lon": 0.0, "bike_id": "812b252d68f9badce2912c0403f03d94", "is_disabled": 0, "is_reserved": 0}, {"rental_uris": {"ios": "https://dc.lft.to/lastmile_qr_scan", "android": "https://dc.lft.to/lastmile_qr_scan"}, "lon": -77.009901, "type": "electric_scooter", "fusion_lat": 0.0, "lat": 38.914823, "name": "d6234ff3b59a6bd280921d39bedad9ab", "fusion_lon": 0.0, "bike_id": "d6234ff3b59a6bd280921d39bedad9ab", "is_disabled": 0, "is_reserved": 0}, {"rental_uris": {"ios": "https://dc.lft.to/lastmile_qr_scan", "android": "https://dc.lft.to/lastmile_qr_scan"},