{"data": {"bikes": [{"fusion_lat": 0.0, "name": "12c8fc830afacea06c62b3c52c3fcd46", "is_disabled": 0, "rental_uris": {"android": "https://dc.lft.to/lastmile_qr_scan", "ios": "https://dc.lft.to/lastmile_qr_scan"}, "fusion_lon": 0.0, "lat": 38.92112066666667, "bike_id": "12c8fc830afacea06c62b3c52c3fcd46", "type": "electric_scooter", "is_reserved": 0, "lon": -77.04436516666667}, {"fusion_lat": 0.0, "name": "4a1effa4dacfcd237e14cd30f05c0659", "is_disabled": 0, "rental_uris": {"android": "https://dc.lft.to/lastmile_qr_scan", "ios": "https://dc.lft.to/lastmile_qr_scan"}, "fusion_lon": 0.0, "lat": 38.80019333333333, "bike_id": "4a1effa4dacfcd237e14cd30f05c0659", "type": "electric_bike", "is_reserved": 0, "lon": -77.05482216666667}, {"fusion_lat": 0.0, "name": "ad72a56e8b6e7fad21a246b49aa2c98b", "is_disabled": 0, "rental_uris": {"android": "https://dc.lft.to/lastmile_qr_scan", "ios": "https://dc.lft.to/lastmile_qr_scan"}, "fusion_lon": 0.0, "lat": 38.933002, "bike_id": "ad72a56e8b6e7fad21a246b49aa2c98b", "type": "electric_scooter", "is_reserved": 0, "lon": -77.03279933333333}, {"fusion_lat": 0.0, "name": "b6de3ffaa74e9fb6593e1f78d685a522", "is_disabled": 0, "rental_uris": {"android": "https://dc.lft.to/lastmile_qr_scan", "ios": "https://dc.lft.to/lastmile_qr_scan"}, "fusion_lon": 0.0, "lat": 38.91716183333333, "bike_id": "b6de3ffaa74e9fb6593e1f78d685a522", "type": "electric_scooter", "is_reserved": 0, "lon": -77.03350333333333}, {"fusion_lat": 0.0, "name": "69fe3d309423a577fb032349fdad5849", "is_disabled": 0, "rental_uris": {"android": "https://dc.lft.to/lastmile_qr_scan", "ios": "https://dc.lft.to/lastmile_qr_scan"}, "fusion_lon": 0.0, "lat": 38.9048205, "bike_id": "69fe3d309423a577fb032349fdad5849", "type": "electric_scooter", "is_reserved": 0, "lon": -77.04356166666666}, {"fusion_lat": 0.0, "name": "a9ca695c6ade14034370376f25e5ec4f", "is_disabled": 0, "rental_uris": {"android": "https://dc.lft.to/lastmile_qr_scan", "ios": "https://dc.lft.to/lastmile_qr_scan"}, "fusion_lon": 0.0, "lat": 38.90613233333333, "bike_id": "a9ca695c6ade14034370376f25e5ec4f", "type": "electric_scooter", "is_reserved": 0, "lon": -77.0240745}, {"fusion_lat": 0.0, "name": "a6528ca57ff99547fd9e52a3359ffcc1", "is_disabled": 0, "rental_uris": {"android": "https://dc.lft.to/lastmile_qr_scan", "ios": "https://dc.lft.to/lastmile_qr_scan"}, "fusion_lon": 0.0, "lat": 38.87334416666667, "bike_id": "a6528ca57ff99547fd9e52a3359ffcc1", "type": "electric_bike", "is_reserved": 0, "lon": -77.08213083333334}, {"fusion_lat": 0.0, "name": "a3c37528caee80cdc01b964f0228f795", "is_disabled": 0, "rental_uris": {"android": "https://dc.lft.to/lastmile_qr_scan", "ios": "https://dc.lft.to/lastmile_qr_scan"}, "fusion_lon": 0.0, "lat": 38.91916066666667, "bike_id": "a3c37528caee80cdc01b964f0228f795", "type": "electric_scooter", "is_reserved": 0, "lon": -77.07087}, {"fusion_lat": 0.0, "name": "9f2a6d115700068a949e25b0f36ef0a0", "is_disabled": 0, "rental_uris": {"android": "https://dc.lft.to/lastmile_qr_scan", "ios": "https://dc.lft.to/lastmile_qr_scan"}, "fusion_lon": 0.0, "lat": 38.92894183333333, "bike_id": "9f2a6d115700068a949e25b0f36ef0a0", "type": "electric_bike", "is_reserved": 0, "lon": -77.23177433333333}, {"fusion_lat": 0.0, "name": "9dd4383decb6fd60dc840a560a4474de", "is_disabled": 0, "rental_uris": {"android": "https://dc.lft.to/lastmile_qr_scan", "ios": "https://dc.lft.to/lastmile_qr_scan"}, "fusion_lon": 0.0, "lat": 38.95279133333333, "bike_id": "9dd4383decb6fd60dc840a560a4474de", "type": "electric_scooter", "is_reserved": 0, "lon": -77.0683975}, {"fusion_lat": 0.0, "name": "77ab6d21c1466eb0a649f86eb303de5e", "is_disabled": 0, "rental_uris": {"android": "https://dc.lft.to/lastmile_qr_scan", "ios": "https://dc.lft.to/lastmile_qr_scan"}, "fusion_lon": 0.0, "lat": 38.92332016666667, "bike_id": "77ab6d21c1466eb0a649f86eb303de5e", "type": "electric_scooter", "is_reserved": 0, "lon": -77.04297116666666}, {"fusion_lat": 0.0, "name": "a5c9811656295df65c3a72885d104110", "is_disabled": 0, "rental_uris": {"android": "https://dc.lft.to/lastmile_qr_scan", "ios": "https://dc.lft.to/lastmile_qr_scan"}, "fusion_lon": 0.0, "lat": 38.90362433333333, "bike_id": "a5c9811656295df65c3a72885d104110", "type": "electric_scooter", "is_reserved": 0, "lon": -77.01768883333334}, {"fusion_lat": 0.0, "name": "f2346bfd7eea37cb93bb01f49974a7b8", "is_disabled": 0, "rental_uris": {"android": "https://dc.lft.to/lastmile_qr_scan", "ios": "https://dc.lft.to/lastmile_qr_scan"}, "fusion_lon": 0.0, "lat": 38.897908, "bike_id": "f2346bfd7eea37cb93bb01f49974a7b8", "type": "electric_scooter", "is_reserved": 0, "lon": -77.011903}, {"fusion_lat": 0.0, "name": "c51d7423b6cc5b7c34c27b95abdbce63", "is_disabled": 0, "rental_uris": {"android": "https://dc.lft.to/lastmile_qr_scan", "ios": "https://dc.lft.to/lastmile_qr_scan"}, "fusion_lon": 0.0, "lat": 38.87178883333333, "bike_id": "c51d7423b6cc5b7c34c27b95abdbce63", "type": "electric_scooter", "is_reserved": 0, "lon": -77.006161}, {"fusion_lat": 0.0, "name": "70798b1c22c10d466e910d7ce1e41095", "is_disabled": 0, "rental_uris": {"android": "https://dc.lft.to/lastmile_qr_scan", "ios": "https://dc.lft.to/lastmile_qr_scan"}, "fusion_lon": 0.0, "lat": 38.92701616666667, "bike_id": "70798b1c22c10d466e910d7ce1e41095", "type": "electric_scooter", "is_reserved": 0, "lon": -77.02065883333333}, {"fusion_lat": 0.0, "name": "1658c3ed1202089de9dddcd410f9c366", "is_disabled": 0, "rental_uris": {"android": "https://dc.lft.to/lastmile_qr_scan", "ios": "https://dc.lft.to/lastmile_qr_scan"}, "fusion_lon": 0.0, "lat": 38.91521316666667, "bike_id": "1658c3ed1202089de9dddcd410f9c366", "type": "electric_scooter", "is_reserved": 0, "lon": -77.07273816666667}, {"fusion_lat": 0.0, "name": "2b1bfecdd0f0be300a521138ec5b3c23", "is_disabled": 0, "rental_uris": {"android": "https://dc.lft.to/lastmile_qr_scan", "ios": "https://dc.lft.to/lastmile_qr_scan"}, "fusion_lon": 0.0, "lat": 38.92344933333333, "bike_id": "2b1bfecdd0f0be300a521138ec5b3c23", "type": "electric_scooter", "is_reserved": 0, "lon": -77.02016233333333}, {"fusion_lat": 0.0, "name": "b3ea8b2b8f740921528f48fc2d6fc152", "is_disabled": 0, "rental_uris": {"android": "https://dc.lft.to/lastmile_qr_scan", "ios": "https://dc.lft.to/lastmile_qr_scan"}, "fusion_lon": 0.0, "lat": 38.908027833333335, "bike_id": "b3ea8b2b8f740921528f48fc2d6fc152", "type": "electric_scooter", "is_reserved": 0, "lon": -76.99695766666666}, {"fusion_lat": 0.0, "name": "818f2e8a692a0e0f374d3fdbea776b11", "is_disabled": 0, "rental_uris": {"android": "https://dc.lft.to/lastmile_qr_scan", "ios": "https://dc.lft.to/lastmile_qr_scan"}, "fusion_lon": 0.0, "lat": 38.91357566666667, "bike_id": "818f2e8a692a0e0f374d3fdbea776b11", "type": "electric_scooter", "is_reserved": 0, "lon": -77.04349316666666}, {"fusion_lat": 0.0, "name": "293b56fbab44227e3d075866a5ee738a", "is_disabled": 0, "rental_uris": {"android": "https://dc.lft.to/lastmile_qr_scan", "ios": "https://dc.lft.to/lastmile_qr_scan"}, "fusion_lon": 0.0, "lat": 38.90273666666667, "bike_id": "293b56fbab44227e3d075866a5ee738a", "type": "electric_scooter", "is_reserved": 0, "lon": -76.9767305}, {"fusion_lat": 0.0, "name": "b6742c286d2aa2b4e56310878763c311", "is_disabled": 0, "rental_uris": {"android": "https://dc.lft.to/lastmile_qr_scan", "ios": "https://dc.lft.to/lastmile_qr_scan"}, "fusion_lon": 0.0, "lat": 38.89877716666667, "bike_id": "b6742c286d2aa2b4e56310878763c311", "type": "electric_scooter", "is_reserved": 0, "lon": -77.04017666666667}, {"fusion_lat": 0.0, "name": "3bb820113d2d3fb783e537793b41754b", "is_disabled": 0, "rental_uris": {"android": "https://dc.lft.to/lastmile_qr_scan", "ios": "https://dc.lft.to/lastmile_qr_scan"}, "fusion_lon": 0.0, "lat": 38.901785333333336, "bike_id": "3bb820113d2d3fb783e537793b41754b", "type": "electric_scooter", "is_reserved": 0, "lon": -77.0246455}, {"fusion_lat": 0.0, "name": "ab2a0ba5a95e008fcb1b934408c67bfa", "is_disabled": 0, "rental_uris": {"android": "https://dc.lft.to/lastmile_qr_scan", "ios": "https://dc.lft.to/lastmile_qr_scan"}, "fusion_lon": 0.0, "lat": 38.934888, "bike_id": "ab2a0ba5a95e008fcb1b934408c67bfa", "type": "electric_scooter", "is_reserved": 0, "lon": -77.04534833333334}, {"fusion_lat": 0.0, "name": "6945cafe5c5964b6ecb765781ce79c74", "is_disabled": 0, "rental_uris": {"android": "https://dc.lft.to/lastmile_qr_scan", "ios": "https://dc.lft.to/lastmile_qr_scan"}, "fusion_lon": 0.0, "lat": 38.896711833333335, "bike_id": "6945cafe5c5964b6ecb765781ce79c74", "type": "electric_scooter", "is_reserved": 0, "lon": -76.93208866666667}, {"fusion_lat": 0.0, "name": "c206ca08f970102ca87fdf4a45c025ab", "is_disabled": 0, "rental_uris": {"android": "https://dc.lft.to/lastmile_qr_scan", "ios": "https://dc.lft.to/lastmile_qr_scan"}, "fusion_lon": 0.0, "lat": 38.9076665, "bike_id": "c206ca08f970102ca87fdf4a45c025ab", "type": "electric_scooter", "is_reserved": 0, "lon": -77.03184366666666}, {"fusion_lat": 0.0, "name": "6b3ef6053f17ce693a880c7a1181dd75", "is_disabled": 0, "rental_uris": {"android": "https://dc.lft.to/lastmile_qr_scan", "ios": "https://dc.lft.to/lastmile_qr_scan"}, "fusion_lon": 0.0, "lat": 38.92456216666667, "bike_id": "6b3ef6053f17ce693a880c7a1181dd75", "type": "electric_scooter", "is_reserved": 0, "lon": -77.02401166666667}, {"fusion_lat": 0.0, "name": "94939e5656b0a96ecfa9296c8f4d9119", "is_disabled": 0, "rental_uris": {"android": "https://dc.lft.to/lastmile_qr_scan", "ios": "https://dc.lft.to/lastmile_qr_scan"}, "fusion_lon": 0.0, "lat": 38.89729033333333, "bike_id": "94939e5656b0a96ecfa9296c8f4d9119", "type": "electric_scooter", "is_reserved": 0, "lon": -77.04627533333333}, {"fusion_lat": 0.0, "name": "06301affb1c62178d94aaceff1aaa8c5", "is_disabled": 0, "rental_uris": {"android": "https://dc.lft.to/lastmile_qr_scan", "ios": "https://dc.lft.to/lastmile_qr_scan"}, "fusion_lon": 0.0, "lat": 38.91818133333334, "bike_id": "06301affb1c62178d94aaceff1aaa8c5", "type": "electric_scooter", "is_reserved": 0, "lon": -77.00256483333334}, {"fusion_lat": 0.0, "name": "9f8add6f319180446fef653e839f77cd", "is_disabled": 0, "rental_uris": {"android": "https://dc.lft.to/lastmile_qr_scan", "ios": "https://dc.lft.to/lastmile_qr_scan"}, "fusion_lon": 0.0, "lat": 38.88760766666667, "bike_id": "9f8add6f319180446fef653e839f77cd", "type": "electric_scooter", "is_reserved": 0, "lon": -76.9947065}, {"fusion_lat": 0.0, "name": "0980f577d5b2c5bd94b5a8ef66d6f679", "is_disabled": 0, "rental_uris": {"android": "https://dc.lft.to/lastmile_qr_scan", "ios": "https://dc.lft.to/lastmile_qr_scan"}, "fusion_lon": 0.0, "lat": 38.98476433333333, "bike_id": "0980f577d5b2c5bd94b5a8ef66d6f679", "type": "electric_scooter", "is_reserved": 0, "lon": -77.026434}, {"fusion_lat": 0.0, "name": "058b5d96691eefc839b2809fbf6fa2b7", "is_disabled": 0, "rental_uris": {"android": "https://dc.lft.to/lastmile_qr_scan", "ios": "https://dc.lft.to/lastmile_qr_scan"}, "fusion_lon": 0.0, "lat": 38.92160116666667, "bike_id": "058b5d96691eefc839b2809fbf6fa2b7", "type": "electric_scooter", "is_reserved": 0, "lon": -77.03662516666667}, {"fusion_lat": 0.0, "name": "296d5bcc89a93790709ac4d025f4695b", "is_disabled": 0, "rental_uris": {"android": "https://dc.lft.to/lastmile_qr_scan", "ios": "https://dc.lft.to/lastmile_qr_scan"}, "fusion_lon": 0.0, "lat": 38.9583055, "bike_id": "296d5bcc89a93790709ac4d025f4695b", "type": "electric_bike", "is_reserved": 0, "lon": -77.01511233333333}, {"fusion_lat": 0.0, "name": "d23feb51ff226ec2d04d27c016a9416d", "is_disabled": 0, "rental_uris": {"android": "https://dc.lft.to/lastmile_qr_scan", "ios": "https://dc.lft.to/lastmile_qr_scan"}, "fusion_lon": 0.0, "lat": 38.918453166666666, "bike_id": "d23feb51ff226ec2d04d27c016a9416d", "type": "electric_scooter", "is_reserved": 0, "lon": -76.96539183333333}, {"fusion_lat": 0.0, "name": "fa4f37aa35803cc4e32551e65028d277", "is_disabled": 0, "rental_uris": {"android": "https://dc.lft.to/lastmile_qr_scan", "ios": "https://dc.lft.to/lastmile_qr_scan"}, "fusion_lon": 0.0, "lat": 38.91717633333333, "bike_id": "fa4f37aa35803cc4e32551e65028d277", "type": "electric_scooter", "is_reserved": 0, "lon": -77.02738766666667}, {"fusion_lat": 0.0, "name": "af6d0df1774ad28b8bec1708dbd14f3c", "is_disabled": 0, "rental_uris": {"android": "https://dc.lft.to/lastmile_qr_scan", "ios": "https://dc.lft.to/lastmile_qr_scan"}, "fusion_lon": 0.0, "lat": 38.916574, "bike_id": "af6d0df1774ad28b8bec1708dbd14f3c", "type": "electric_scooter", "is_reserved": 0, "lon": -77.0279645}, {"fusion_lat": 0.0, "name": "5e49a3a216fcd3681fe1fb0bf0736d6a", "is_disabled": 0, "rental_uris": {"android": "https://dc.lft.to/lastmile_qr_scan", "ios": "https://dc.lft.to/lastmile_qr_scan"}, "fusion_lon": 0.0, "lat": 38.91702166666666, "bike_id": "5e49a3a216fcd3681fe1fb0bf0736d6a", "type": "electric_scooter", "is_reserved": 0, "lon": -77.02867333333333}, {"fusion_lat": 0.0, "name": "050e59aebdf34a5fcbb151e95de61128", "is_disabled": 0, "rental_uris": {"android": "https://dc.lft.to/lastmile_qr_scan", "ios": "https://dc.lft.to/lastmile_qr_scan"}, "fusion_lon": 0.0, "lat": 38.9058505, "bike_id": "050e59aebdf34a5fcbb151e95de61128", "type": "electric_scooter", "is_reserved": 0, "lon": -77.03831883333334}, {"fusion_lat": 0.0, "name": "6210c75af2338b1ad002cfcd4da4a913", "is_disabled": 0, "rental_uris": {"android": "https://dc.lft.to/lastmile_qr_scan", "ios": "https://dc.lft.to/lastmile_qr_scan"}, "fusion_lon": 0.0, "lat": 38.897757, "bike_id": "6210c75af2338b1ad002cfcd4da4a913", "type": "electric_scooter", "is_reserved": 0, "lon": -77.03368166666667}, {"fusion_lat": 0.0, "name": "bcf5ae5ddb45357589a6527c81e47072", "is_disabled": 0, "rental_uris": {"android": "https://dc.lft.to/lastmile_qr_scan", "ios": "https://dc.lft.to/lastmile_qr_scan"}, "fusion_lon": 0.0, "lat": 38.91595383333333, "bike_id": "bcf5ae5ddb45357589a6527c81e47072", "type": "electric_scooter", "is_reserved": 0, "lon": -77.03213583333333}, {"fusion_lat": 0.0, "name": "f50dcd1f91795015a345c534ad59a6d4", "is_disabled": 0, "rental_uris": {"android": "https://dc.lft.to/lastmile_qr_scan", "ios": "https://dc.lft.to/lastmile_qr_scan"}, "fusion_lon": 0.0, "lat": 38.915521166666664, "bike_id": "f50dcd1f91795015a345c534ad59a6d4", "type": "electric_scooter", "is_reserved": 0, "lon": -77.01199966666667}, {"fusion_lat": 0.0, "name": "906161c74bcbeee4398840ea83c92734", "is_disabled": 0, "rental_uris": {"android": "https://dc.lft.to/lastmile_qr_scan", "ios": "https://dc.lft.to/lastmile_qr_scan"}, "fusion_lon": 0.0, "lat": 38.9241905, "bike_id": "906161c74bcbeee4398840ea83c92734", "type": "electric_scooter", "is_reserved": 0, "lon": -76.99622616666667}, {"fusion_lat": 0.0, "name": "4e1e921d373091830e1ca211416cfbf7", "is_disabled": 0, "rental_uris": {"android": "https://dc.lft.to/lastmile_qr_scan", "ios": "https://dc.lft.to/lastmile_qr_scan"}, "fusion_lon": 0.0, "lat": 38.89842633333333, "bike_id": "4e1e921d373091830e1ca211416cfbf7", "type": "electric_scooter", "is_reserved": 0, "lon": -77.01335116666667}, {"fusion_lat": 0.0, "name": "790116494fbb0b808239946f567943c5", "is_disabled": 0, "rental_uris": {"android": "https://dc.lft.to/lastmile_qr_scan", "ios": "https://dc.lft.to/lastmile_qr_scan"}, "fusion_lon": 0.0, "lat": 38.90943633333333, "bike_id": "790116494fbb0b808239946f567943c5", "type": "electric_scooter", "is_reserved": 0, "lon": -77.0448785}, {"fusion_lat": 0.0, "name": "9cb3a9ba54eb561983215d42b3c092fa", "is_disabled": 0, "rental_uris": {"android": "https://dc.lft.to/lastmile_qr_scan", "ios": "https://dc.lft.to/lastmile_qr_scan"}, "fusion_lon": 0.0, "lat": 38.884280833333335, "bike_id": "9cb3a9ba54eb561983215d42b3c092fa", "type": "electric_scooter", "is_reserved": 0, "lon": -76.95750933333333}, {"fusion_lat": 0.0, "name": "a6635d250257d93c68ca5a39eace533e", "is_disabled": 0, "rental_uris": {"android": "https://dc.lft.to/lastmile_qr_scan", "ios": "https://dc.lft.to/lastmile_qr_scan"}, "fusion_lon": 0.0, "lat": 38.9160325, "bike_id": "a6635d250257d93c68ca5a39eace533e", "type": "electric_scooter", "is_reserved": 0, "lon": -77.0321715}, {"fusion_lat": 0.0, "name": "f3b5b3ab5d4afbe402adf53fa1bd546a", "is_disabled": 0, "rental_uris": {"android": "https://dc.lft.to/lastmile_qr_scan", "ios": "https://dc.lft.to/lastmile_qr_scan"}, "fusion_lon": 0.0, "lat": 38.925127, "bike_id": "f3b5b3ab5d4afbe402adf53fa1bd546a", "type": "electric_scooter", "is_reserved": 0, "lon": -77.02286866666667}, {"fusion_lat": 0.0, "name": "4d61378a1cad80d66b29af984c2a5c05", "is_disabled": 0, "rental_uris": {"android": "https://dc.lft.to/lastmile_qr_scan", "ios": "https://dc.lft.to/lastmile_qr_scan"}, "fusion_lon": 0.0, "lat": 38.8837985, "bike_id": "4d61378a1cad80d66b29af984c2a5c05", "type": "electric_scooter", "is_reserved": 0, "lon": -77.04609216666667}, {"fusion_lat": 0.0, "name": "95b544542088e840f9803271dc0170dc", "is_disabled": 0, "rental_uris": {"android": "https://dc.lft.to/lastmile_qr_scan", "ios": "https://dc.lft.to/lastmile_qr_scan"}, "fusion_lon": 0.0, "lat": 38.9358305, "bike_id": "95b544542088e840f9803271dc0170dc", "type": "electric_scooter", "is_reserved": 0, "lon": -77.02842816666667}, {"fusion_lat": 0.0, "name": "c3dc7084f698f28572ba88b30d7e41d1", "is_disabled": 0, "rental_uris": {"android": "https://dc.lft.to/lastmile_qr_scan", "ios": "https://dc.lft.to/lastmile_qr_scan"}, "fusion_lon": 0.0, "lat": 38.952212333333335, "bike_id": "c3dc7084f698f28572ba88b30d7e41d1", "type": "electric_scooter", "is_reserved": 0, "lon": -77.0821395}, {"fusion_lat": 0.0, "name": "19aaa04dea0ce2244a25e8aae1a1202d", "is_disabled": 0, "rental_uris": {"android": "https://dc.lft.to/lastmile_qr_scan", "ios": "https://dc.lft.to/lastmile_qr_scan"}, "fusion_lon": 0.0, "lat": 38.92081966666667, "bike_id": "19aaa04dea0ce2244a25e8aae1a1202d", "type": "electric_scooter", "is_reserved": 0, "lon": -76.994477}, {"fusion_lat": 0.0, "name": "740416cc8d17d637e12589e30a6daf0a", "is_disabled": 0, "rental_uris": {"android": "https://dc.lft.to/lastmile_qr_scan", "ios": "https://dc.lft.to/lastmile_qr_scan"}, "fusion_lon": 0.0, "lat": 38.90127433333333, "bike_id": "740416cc8d17d637e12589e30a6daf0a", "type": "electric_scooter", "is_reserved": 0, "lon": -77.044781}, {"fusion_lat": 0.0, "name": "c201e922b224cfd7b8f40407512d1556", "is_disabled": 0, "rental_uris": {"android": "https://dc.lft.to/lastmile_qr_scan", "ios": "https://dc.lft.to/lastmile_qr_scan"}, "fusion_lon": 0.0, "lat": 38.89339016666667, "bike_id": "c201e922b224cfd7b8f40407512d1556", "type": "electric_scooter", "is_reserved": 0, "lon": -77.04677033333333}, {"fusion_lat": 0.0, "name": "b7cf84f0620e8f87ecd12c2a7fe8480c", "is_disabled": 0, "rental_uris": {"android": "https://dc.lft.to/lastmile_qr_scan", "ios": "https://dc.lft.to/lastmile_qr_scan"}, "fusion_lon": 0.0, "lat": 38.924743166666666, "bike_id": "b7cf84f0620e8f87ecd12c2a7fe8480c", "type": "electric_scooter", "is_reserved": 0, "lon": -77.0446265}, {"fusion_lat": 0.0, "name": "b1104dc16c0c3d14056e3ea69878bef5", "is_disabled": 0, "rental_uris": {"android": "https://dc.lft.to/lastmile_qr_scan", "ios": "https://dc.lft.to/lastmile_qr_scan"}, "fusion_lon": 0.0, "lat": 38.8540765, "bike_id": "b1104dc16c0c3d14056e3ea69878bef5", "type": "electric_bike", "is_reserved": 0, "lon": -77.12069466666667}, {"fusion_lat": 0.0, "name": "5e792764f12f3c443a891d7dab285b26", "is_disabled": 0, "rental_uris": {"android": "https://dc.lft.to/lastmile_qr_scan", "ios": "https://dc.lft.to/lastmile_qr_scan"}, "fusion_lon": 0.0, "lat": 38.98546116666667, "bike_id": "5e792764f12f3c443a891d7dab285b26", "type": "electric_bike", "is_reserved": 0, "lon": -77.00398566666667}, {"fusion_lat": 0.0, "name": "788dfb8905bdcd3843bfdf0480681d10", "is_disabled": 0, "rental_uris": {"android": "https://dc.lft.to/lastmile_qr_scan", "ios": "https://dc.lft.to/lastmile_qr_scan"}, "fusion_lon": 0.0, "lat": 38.9199385, "bike_id": "788dfb8905bdcd3843bfdf0480681d10", "type": "electric_scooter", "is_reserved": 0, "lon": -77.07189566666666}, {"fusion_lat": 0.0, "name": "450137d18df8ba753bc8cc7f1075e139", "is_disabled": 0, "rental_uris": {"android": "https://dc.lft.to/lastmile_qr_scan", "ios": "https://dc.lft.to/lastmile_qr_scan"}, "fusion_lon": 0.0, "lat": 38.94293966666667, "bike_id": "450137d18df8ba753bc8cc7f1075e139", "type": "electric_scooter", "is_reserved": 0, "lon": -77.021682}, {"fusion_lat": 0.0, "name": "2eb2a768b2c2343d25f2b58d16606469", "is_disabled": 0, "rental_uris": {"android": "https://dc.lft.to/lastmile_qr_scan", "ios": "https://dc.lft.to/lastmile_qr_scan"}, "fusion_lon": 0.0, "lat": 38.882986, "bike_id": "2eb2a768b2c2343d25f2b58d16606469", "type": "electric_scooter", "is_reserved": 0, "lon": -76.94854033333333}, {"fusion_lat": 0.0, "name": "8ba7c6f9ca327014446a68237a3b93f5", "is_disabled": 0, "rental_uris": {"android": "https://dc.lft.to/lastmile_qr_scan", "ios": "https://dc.lft.to/lastmile_qr_scan"}, "fusion_lon": 0.0, "lat": 38.915685, "bike_id": "8ba7c6f9ca327014446a68237a3b93f5", "type": "electric_scooter", "is_reserved": 0, "lon": -77.03154983333333}, {"fusion_lat": 0.0, "name": "5f508f49c562a5c64b0827c2a695abc9", "is_disabled": 0, "rental_uris": {"android": "https://dc.lft.to/lastmile_qr_scan", "ios": "https://dc.lft.to/lastmile_qr_scan"}, "fusion_lon": 0.0, "lat": 38.939439, "bike_id": "5f508f49c562a5c64b0827c2a695abc9", "type": "electric_scooter", "is_reserved": 0, "lon": -77.03322716666666}, {"fusion_lat": 0.0, "name": "6769ca33a4bad0b7e7eada7356fd9c3a", "is_disabled": 0, "rental_uris": {"android": "https://dc.lft.to/lastmile_qr_scan", "ios": "https://dc.lft.to/lastmile_qr_scan"}, "fusion_lon": 0.0, "lat": 38.893897333333335, "bike_id": "6769ca33a4bad0b7e7eada7356fd9c3a", "type": "electric_scooter", "is_reserved": 0, "lon": -76.948113}, {"fusion_lat": 0.0, "name": "cf50fd7a1a4ca67fe11f71fc781a1f8d", "is_disabled": 0, "rental_uris": {"android": "https://dc.lft.to/lastmile_qr_scan", "ios": "https://dc.lft.to/lastmile_qr_scan"}, "fusion_lon": 0.0, "lat": 38.90935416666667, "bike_id": "cf50fd7a1a4ca67fe11f71fc781a1f8d", "type": "electric_scooter", "is_reserved": 0, "lon": -77.02126833333334}, {"fusion_lat": 0.0, "name": "b7798e382f4e8e55398ea77d909daa29", "is_disabled": 0, "rental_uris": {"android": "https://dc.lft.to/lastmile_qr_scan", "ios": "https://dc.lft.to/lastmile_qr_scan"}, "fusion_lon": 0.0, "lat": 38.9225365, "bike_id": "b7798e382f4e8e55398ea77d909daa29", "type": "electric_scooter", "is_reserved": 0, "lon": -77.0195155}, {"fusion_lat": 0.0, "name": "e59a1d00f6f60042226318782fdd4d0c", "is_disabled": 0, "rental_uris": {"android": "https://dc.lft.to/lastmile_qr_scan", "ios": "https://dc.lft.to/lastmile_qr_scan"}, "fusion_lon": 0.0, "lat": 38.875359, "bike_id": "e59a1d00f6f60042226318782fdd4d0c", "type": "electric_scooter", "is_reserved": 0, "lon": -77.0008065}, {"fusion_lat": 0.0, "name": "2259f0a82a2ce51bf6bd2e2ae98e94f8", "is_disabled": 0, "rental_uris": {"android": "https://dc.lft.to/lastmile_qr_scan", "ios": "https://dc.lft.to/lastmile_qr_scan"}, "fusion_lon": 0.0, "lat": 38.905661, "bike_id": "2259f0a82a2ce51bf6bd2e2ae98e94f8", "type": "electric_scooter", "is_reserved": 0, "lon": -77.0222225}, {"fusion_lat": 0.0, "name": "da0efe65ab860b3df074ddf2166457fa", "is_disabled": 0, "rental_uris": {"android": "https://dc.lft.to/lastmile_qr_scan", "ios": "https://dc.lft.to/lastmile_qr_scan"}, "fusion_lon": 0.0, "lat": 38.88985783333333, "bike_id": "da0efe65ab860b3df074ddf2166457fa", "type": "electric_scooter", "is_reserved": 0, "lon": -76.98734383333333}, {"fusion_lat": 0.0, "name": "6da9bdd760a7ccefbe6cc3889083991f", "is_disabled": 0, "rental_uris": {"android": "https://dc.lft.to/lastmile_qr_scan", "ios": "https://dc.lft.to/lastmile_qr_scan"}, "fusion_lon": 0.0, "lat": 38.918024333333335, "bike_id": "6da9bdd760a7ccefbe6cc3889083991f", "type": "electric_scooter", "is_reserved": 0, "lon": -77.03660116666667}, {"fusion_lat": 0.0, "name": "36b751276bf2a29f9481c33d842e47d5", "is_disabled": 0, "rental_uris": {"android": "https://dc.lft.to/lastmile_qr_scan", "ios": "https://dc.lft.to/lastmile_qr_scan"}, "fusion_lon": 0.0, "lat": 38.89743683333333, "bike_id": "36b751276bf2a29f9481c33d842e47d5", "type": "electric_scooter", "is_reserved": 0, "lon": -77.003296}, {"fusion_lat": 0.0, "name": "33ba1e556b05feda5111471a37efc34f", "is_disabled": 0, "rental_uris": {"android": "https://dc.lft.to/lastmile_qr_scan", "ios": "https://dc.lft.to/lastmile_qr_scan"}, "fusion_lon": 0.0, "lat": 38.885326, "bike_id": "33ba1e556b05feda5111471a37efc34f", "type": "electric_scooter", "is_reserved": 0, "lon": -77.01511566666667}, {"fusion_lat": 0.0, "name": "f875365f0e48a46c16f8738fee7b1710", "is_disabled": 0, "rental_uris": {"android": "https://dc.lft.to/lastmile_qr_scan", "ios": "https://dc.lft.to/lastmile_qr_scan"}, "fusion_lon": 0.0, "lat": 38.893298, "bike_id": "f875365f0e48a46c16f8738fee7b1710", "type": "electric_scooter", "is_reserved": 0, "lon": -77.0224165}, {"fusion_lat": 0.0, "name": "fb23bf1106a8c015c6a2921773c487c6", "is_disabled": 0, "rental_uris": {"android": "https://dc.lft.to/lastmile_qr_scan", "ios": "https://dc.lft.to/lastmile_qr_scan"}, "fusion_lon": 0.0, "lat": 38.936498, "bike_id": "fb23bf1106a8c015c6a2921773c487c6", "type": "electric_scooter", "is_reserved": 0, "lon": -77.0304525}, {"fusion_lat": 0.0, "name": "5b79aca097a38f2b1c9ab1da3bdeb44f", "is_disabled": 0, "rental_uris": {"android": "https://dc.lft.to/lastmile_qr_scan", "ios": "https://dc.lft.to/lastmile_qr_scan"}, "fusion_lon": 0.0, "lat": 38.887242, "bike_id": "5b79aca097a38f2b1c9ab1da3bdeb44f", "type": "electric_scooter", "is_reserved": 0, "lon": -76.98355316666667}, {"fusion_lat": 0.0, "name": "0889e38d38632b50ea2cfa4ae3cf1cc9", "is_disabled": 0, "rental_uris": {"android": "https://dc.lft.to/lastmile_qr_scan", "ios": "https://dc.lft.to/lastmile_qr_scan"}, "fusion_lon": 0.0, "lat": 38.94227266666667, "bike_id": "0889e38d38632b50ea2cfa4ae3cf1cc9", "type": "electric_scooter", "is_reserved": 0, "lon": -77.013831}, {"fusion_lat": 0.0, "name": "11464885ee654c3f51ee20bb20d889b4", "is_disabled": 0, "rental_uris": {"android": "https://dc.lft.to/lastmile_qr_scan", "ios": "https://dc.lft.to/lastmile_qr_scan"}, "fusion_lon": 0.0, "lat": 38.901140833333336, "bike_id": "11464885ee654c3f51ee20bb20d889b4", "type": "electric_scooter", "is_reserved": 0, "lon": -77.05164733333334}, {"fusion_lat": 0.0, "name": "06c2bffb102be4dfbdc0ead2c2ae8f3f", "is_disabled": 0, "rental_uris": {"android": "https://dc.lft.to/lastmile_qr_scan", "ios": "https://dc.lft.to/lastmile_qr_scan"}, "fusion_lon": 0.0, "lat": 38.90230666666667, "bike_id": "06c2bffb102be4dfbdc0ead2c2ae8f3f", "type": "electric_scooter", "is_reserved": 0, "lon": -77.05942816666666}, {"fusion_lat": 0.0, "name": "4d801b37e89ec2e1f09ad7fed277a07d", "is_disabled": 0, "rental_uris": {"android": "https://dc.lft.to/lastmile_qr_scan", "ios": "https://dc.lft.to/lastmile_qr_scan"}, "fusion_lon": 0.0, "lat": 38.91331733333333, "bike_id": "4d801b37e89ec2e1f09ad7fed277a07d", "type": "electric_scooter", "is_reserved": 0, "lon": -77.031819}, {"fusion_lat": 0.0, "name": "f8561689048fd0c44786e55f9a4d65a6", "is_disabled": 0, "rental_uris": {"android": "https://dc.lft.to/lastmile_qr_scan", "ios": "https://dc.lft.to/lastmile_qr_scan"}, "fusion_lon": 0.0, "lat": 38.92080516666667, "bike_id": "f8561689048fd0c44786e55f9a4d65a6", "type": "electric_bike", "is_reserved": 0, "lon": -76.98943583333333}, {"fusion_lat": 0.0, "name": "9f663e22dbe524ede817158c6df3e920", "is_disabled": 0, "rental_uris": {"android": "https://dc.lft.to/lastmile_qr_scan", "ios": "https://dc.lft.to/lastmile_qr_scan"}, "fusion_lon": 0.0, "lat": 38.912641666666666, "bike_id": "9f663e22dbe524ede817158c6df3e920", "type": "electric_scooter", "is_reserved": 0, "lon": -77.03881283333334}, {"fusion_lat": 0.0, "name": "95aef20e3fdc2ff04ea70690eca6ade9", "is_disabled": 0, "rental_uris": {"android": "https://dc.lft.to/lastmile_qr_scan", "ios": "https://dc.lft.to/lastmile_qr_scan"}, "fusion_lon": 0.0, "lat": 38.909596, "bike_id": "95aef20e3fdc2ff04ea70690eca6ade9", "type": "electric_scooter", "is_reserved": 0, "lon": -77.03171866666666}, {"fusion_lat": 0.0, "name": "9dc88c384ba56d4df889a124195a994b", "is_disabled": 0, "rental_uris": {"android": "https://dc.lft.to/lastmile_qr_scan", "ios": "https://dc.lft.to/lastmile_qr_scan"}, "fusion_lon": 0.0, "lat": 38.957333166666665, "bike_id": "9dc88c384ba56d4df889a124195a994b", "type": "electric_scooter", "is_reserved": 0, "lon": -77.02402233333333}, {"fusion_lat": 0.0, "name": "d8eb9885f747b663f4d99d3b62deea10", "is_disabled": 0, "rental_uris": {"android": "https://dc.lft.to/lastmile_qr_scan", "ios": "https://dc.lft.to/lastmile_qr_scan"}, "fusion_lon": 0.0, "lat": 38.93523883333334, "bike_id": "d8eb9885f747b663f4d99d3b62deea10", "type": "electric_scooter", "is_reserved": 0, "lon": -77.087038}, {"fusion_lat": 0.0, "name": "a7f7b89f7f697f81d3225fa2917cf0a4", "is_disabled": 0, "rental_uris": {"android": "https://dc.lft.to/lastmile_qr_scan", "ios": "https://dc.lft.to/lastmile_qr_scan"}, "fusion_lon": 0.0, "lat": 38.94515716666667, "bike_id": "a7f7b89f7f697f81d3225fa2917cf0a4", "type": "electric_bike", "is_reserved": 0, "lon": -77.00669116666667}, {"fusion_lat": 0.0, "name": "e5e8089d84d76c6d3c3c8498ad6a0ce2", "is_disabled": 0, "rental_uris": {"android": "https://dc.lft.to/lastmile_qr_scan", "ios": "https://dc.lft.to/lastmile_qr_scan"}, "fusion_lon": 0.0, "lat": 38.900299833333335, "bike_id": "e5e8089d84d76c6d3c3c8498ad6a0ce2", "type": "electric_scooter", "is_reserved": 0, "lon": -77.01183166666667}, {"fusion_lat": 0.0, "name": "6da6c9c10b145720f52a76f375b7b64d", "is_disabled": 0, "rental_uris": {"android": "https://dc.lft.to/lastmile_qr_scan", "ios": "https://dc.lft.to/lastmile_qr_scan"}, "fusion_lon": 0.0, "lat": 38.91825216666667, "bike_id": "6da6c9c10b145720f52a76f375b7b64d", "type": "electric_scooter", "is_reserved": 0, "lon": -77.02391616666667}, {"fusion_lat": 0.0, "name": "a630694cea3944466158ba12238f76f6", "is_disabled": 0, "rental_uris": {"android": "https://dc.lft.to/lastmile_qr_scan", "ios": "https://dc.lft.to/lastmile_qr_scan"}, "fusion_lon": 0.0, "lat": 38.87659583333333, "bike_id": "a630694cea3944466158ba12238f76f6", "type": "electric_scooter", "is_reserved": 0, "lon": -77.0011615}, {"fusion_lat": 0.0, "name": "821fe21a56a5d3c0c72231405c4c4a77", "is_disabled": 0, "rental_uris": {"android": "https://dc.lft.to/lastmile_qr_scan", "ios": "https://dc.lft.to/lastmile_qr_scan"}, "fusion_lon": 0.0, "lat": 38.90719583333333, "bike_id": "821fe21a56a5d3c0c72231405c4c4a77", "type": "electric_scooter", "is_reserved": 0, "lon": -77.04282716666667}, {"fusion_lat": 0.0, "name": "b6ad2a59c1af8d64b1621f843792ae5d", "is_disabled": 0, "rental_uris": {"android": "https://dc.lft.to/lastmile_qr_scan", "ios": "https://dc.lft.to/lastmile_qr_scan"}, "fusion_lon": 0.0, "lat": 38.93060033333333, "bike_id": "b6ad2a59c1af8d64b1621f843792ae5d", "type": "electric_scooter", "is_reserved": 0, "lon": -77.0394325}, {"fusion_lat": 0.0, "name": "b1b1f1560aa81109ac749bfea74a3124", "is_disabled": 0, "rental_uris": {"android": "https://dc.lft.to/lastmile_qr_scan", "ios": "https://dc.lft.to/lastmile_qr_scan"}, "fusion_lon": 0.0, "lat": 38.905236, "bike_id": "b1b1f1560aa81109ac749bfea74a3124", "type": "electric_scooter", "is_reserved": 0, "lon": -77.03491166666667}, {"fusion_lat": 0.0, "name": "e51c968dd5003a88513f708eb3d831e3", "is_disabled": 0, "rental_uris": {"android": "https://dc.lft.to/lastmile_qr_scan", "ios": "https://dc.lft.to/lastmile_qr_scan"}, "fusion_lon": 0.0, "lat": 38.88126583333333, "bike_id": "e51c968dd5003a88513f708eb3d831e3", "type": "electric_scooter", "is_reserved": 0, "lon": -76.992832}, {"fusion_lat": 0.0, "name": "0aa3d864ccc0d5cf5033a8ac9aff2f45", "is_disabled": 0, "rental_uris": {"android": "https://dc.lft.to/lastmile_qr_scan", "ios": "https://dc.lft.to/lastmile_qr_scan"}, "fusion_lon": 0.0, "lat": 38.9017635, "bike_id": "0aa3d864ccc0d5cf5033a8ac9aff2f45", "type": "electric_scooter", "is_reserved": 0, "lon": -76.94146883333333}, {"fusion_lat": 0.0, "name": "66b15fef91655b52cdadc8b17290cdf4", "is_disabled": 0, "rental_uris": {"android": "https://dc.lft.to/lastmile_qr_scan", "ios": "https://dc.lft.to/lastmile_qr_scan"}, "fusion_lon": 0.0, "lat": 38.89518866666667, "bike_id": "66b15fef91655b52cdadc8b17290cdf4", "type": "electric_scooter", "is_reserved": 0, "lon": -76.980803}, {"fusion_lat": 0.0, "name": "7ad75317edf42cad7fe6787e9ca2d6ea", "is_disabled": 0, "rental_uris": {"android": "https://dc.lft.to/lastmile_qr_scan", "ios": "https://dc.lft.to/lastmile_qr_scan"}, "fusion_lon": 0.0, "lat": 38.90041816666667, "bike_id": "7ad75317edf42cad7fe6787e9ca2d6ea", "type": "electric_scooter", "is_reserved": 0, "lon": -76.992531}, {"fusion_lat": 0.0, "name": "896b8ed225d1176b046532735ccc515c", "is_disabled": 0, "rental_uris": {"android": "https://dc.lft.to/lastmile_qr_scan", "ios": "https://dc.lft.to/lastmile_qr_scan"}, "fusion_lon": 0.0, "lat": 38.92657033333333, "bike_id": "896b8ed225d1176b046532735ccc515c", "type": "electric_scooter", "is_reserved": 0, "lon": -77.02424566666667}, {"fusion_lat": 0.0, "name": "76cc36c8d8d98d63f8a7de9f73b5b5b2", "is_disabled": 0, "rental_uris": {"android": "https://dc.lft.to/lastmile_qr_scan", "ios": "https://dc.lft.to/lastmile_qr_scan"}, "fusion_lon": 0.0, "lat": 38.91176733333333, "bike_id": "76cc36c8d8d98d63f8a7de9f73b5b5b2", "type": "electric_scooter", "is_reserved": 0, "lon": -77.06865683333334}, {"fusion_lat": 0.0, "name": "348c9dadb8e6978cdf2a2b258b24a912", "is_disabled": 0, "rental_uris": {"android": "https://dc.lft.to/lastmile_qr_scan", "ios": "https://dc.lft.to/lastmile_qr_scan"}, "fusion_lon": 0.0, "lat": 38.908150166666665, "bike_id": "348c9dadb8e6978cdf2a2b258b24a912", "type": "electric_scooter", "is_reserved": 0, "lon": -77.03424283333334}, {"fusion_lat": 0.0, "name": "36c6cb9eb0fe78a23948ca587eeb8679", "is_disabled": 0, "rental_uris": {"android": "https://dc.lft.to/lastmile_qr_scan", "ios": "https://dc.lft.to/lastmile_qr_scan"}, "fusion_lon": 0.0, "lat": 38.89899483333333, "bike_id": "36c6cb9eb0fe78a23948ca587eeb8679", "type": "electric_scooter", "is_reserved": 0, "lon": -76.97609983333334}, {"fusion_lat": 0.0, "name": "b3a0c109f2c9023c3d42371d90ccd9b6", "is_disabled": 0, "rental_uris": {"android": "https://dc.lft.to/lastmile_qr_scan", "ios": "https://dc.lft.to/lastmile_qr_scan"}, "fusion_lon": 0.0, "lat": 38.9372925, "bike_id": "b3a0c109f2c9023c3d42371d90ccd9b6", "type": "electric_scooter", "is_reserved": 0, "lon": -77.01916833333334}, {"fusion_lat": 0.0, "name": "573ab014f2d8575d7e0853d1cfd43c64", "is_disabled": 0, "rental_uris": {"android": "https://dc.lft.to/lastmile_qr_scan", "ios": "https://dc.lft.to/lastmile_qr_scan"}, "fusion_lon": 0.0, "lat": 38.935189666666666, "bike_id": "573ab014f2d8575d7e0853d1cfd43c64", "type": "electric_scooter", "is_reserved": 0, "lon": -77.07294483333334}, {"fusion_lat": 0.0, "name": "0b35fe97d88099f32b7c85472c29839d", "is_disabled": 0, "rental_uris": {"android": "https://dc.lft.to/lastmile_qr_scan", "ios": "https://dc.lft.to/lastmile_qr_scan"}, "fusion_lon": 0.0, "lat": 38.9226125, "bike_id": "0b35fe97d88099f32b7c85472c29839d", "type": "electric_scooter", "is_reserved": 0, "lon": -77.01842616666667}, {"fusion_lat": 0.0, "name": "d7d2f30a662f8e8aaacb5abd2c814d7d", "is_disabled": 0, "rental_uris": {"android": "https://dc.lft.to/lastmile_qr_scan", "ios": "https://dc.lft.to/lastmile_qr_scan"}, "fusion_lon": 0.0, "lat": 38.86138483333333, "bike_id": "d7d2f30a662f8e8aaacb5abd2c814d7d", "type": "electric_bike", "is_reserved": 0, "lon": -76.97169066666666}, {"fusion_lat": 0.0, "name": "e7c6c9a4e76276f28ae0b28f5859e74d", "is_disabled": 0, "rental_uris": {"android": "https://dc.lft.to/lastmile_qr_scan", "ios": "https://dc.lft.to/lastmile_qr_scan"}, "fusion_lon": 0.0, "lat": 38.9429535, "bike_id": "e7c6c9a4e76276f28ae0b28f5859e74d", "type": "electric_scooter", "is_reserved": 0, "lon": -77.02166766666667}, {"fusion_lat": 0.0, "name": "f5a0b4294387b154da50c39202299ab3", "is_disabled": 0, "rental_uris": {"android": "https://dc.lft.to/lastmile_qr_scan", "ios": "https://dc.lft.to/lastmile_qr_scan"}, "fusion_lon": 0.0, "lat": 38.9050335, "bike_id": "f5a0b4294387b154da50c39202299ab3", "type": "electric_scooter", "is_reserved": 0, "lon": -76.97956083333334}, {"fusion_lat": 0.0, "name": "dd2b7a836e12558ed5492cff33e5cdb6", "is_disabled": 0, "rental_uris": {"android": "https://dc.lft.to/lastmile_qr_scan", "ios": "https://dc.lft.to/lastmile_qr_scan"}, "fusion_lon": 0.0, "lat": 38.92404883333333, "bike_id": "dd2b7a836e12558ed5492cff33e5cdb6", "type": "electric_scooter", "is_reserved": 0, "lon": -77.0201955}, {"fusion_lat": 0.0, "name": "077709f2d7f48c6190e3060c7ee18994", "is_disabled": 0, "rental_uris": {"android": "https://dc.lft.to/lastmile_qr_scan", "ios": "https://dc.lft.to/lastmile_qr_scan"}, "fusion_lon": 0.0, "lat": 38.91416783333333, "bike_id": "077709f2d7f48c6190e3060c7ee18994", "type": "electric_scooter", "is_reserved": 0, "lon": -77.03170033333333}, {"fusion_lat": 0.0, "name": "b24f050f069509d6bb9c6fe7b9f25d6a", "is_disabled": 0, "rental_uris": {"android": "https://dc.lft.to/lastmile_qr_scan", "ios": "https://dc.lft.to/lastmile_qr_scan"}, "fusion_lon": 0.0, "lat": 38.90156733333333, "bike_id": "b24f050f069509d6bb9c6fe7b9f25d6a", "type": "electric_scooter", "is_reserved": 0, "lon": -77.039432}, {"fusion_lat": 0.0, "name": "458abd5686110faab89dd67a8417e595", "is_disabled": 0, "rental_uris": {"android": "https://dc.lft.to/lastmile_qr_scan", "ios": "https://dc.lft.to/lastmile_qr_scan"}, "fusion_lon": 0.0, "lat": 38.918208, "bike_id": "458abd5686110faab89dd67a8417e595", "type": "electric_scooter", "is_reserved": 0, "lon": -77.03270116666667}, {"fusion_lat": 0.0, "name": "0f3f5e3f15d352ca4ec99fb9355cd053", "is_disabled": 0, "rental_uris": {"android": "https://dc.lft.to/lastmile_qr_scan", "ios": "https://dc.lft.to/lastmile_qr_scan"}, "fusion_lon": 0.0, "lat": 38.920685166666665, "bike_id": "0f3f5e3f15d352ca4ec99fb9355cd053", "type": "electric_scooter", "is_reserved": 0, "lon": -77.02851416666667}, {"fusion_lat": 0.0, "name": "5a84366dbff04e8d3b333f00413430b0", "is_disabled": 0, "rental_uris": {"android": "https://dc.lft.to/lastmile_qr_scan", "ios": "https://dc.lft.to/lastmile_qr_scan"}, "fusion_lon": 0.0, "lat": 38.93462566666667, "bike_id": "5a84366dbff04e8d3b333f00413430b0", "type": "electric_scooter", "is_reserved": 0, "lon": -77.05784466666667}, {"fusion_lat": 0.0, "name": "6e88c42f65f2253c469f9dfb345dd111", "is_disabled": 0, "rental_uris": {"android": "https://dc.lft.to/lastmile_qr_scan", "ios": "https://dc.lft.to/lastmile_qr_scan"}, "fusion_lon": 0.0, "lat": 38.9026625, "bike_id": "6e88c42f65f2253c469f9dfb345dd111", "type": "electric_bike", "is_reserved": 0, "lon": -77.06170133333333}, {"fusion_lat": 0.0, "name": "789f83ab9acd2e9edb55a41dcfdcc12a", "is_disabled": 0, "rental_uris": {"android": "https://dc.lft.to/lastmile_qr_scan", "ios": "https://dc.lft.to/lastmile_qr_scan"}, "fusion_lon": 0.0, "lat": 38.887295, "bike_id": "789f83ab9acd2e9edb55a41dcfdcc12a", "type": "electric_scooter", "is_reserved": 0, "lon": -77.02204566666667}, {"fusion_lat": 0.0, "name": "29138e14c6145aeb26c15900561d7ca4", "is_disabled": 0, "rental_uris": {"android": "https://dc.lft.to/lastmile_qr_scan", "ios": "https://dc.lft.to/lastmile_qr_scan"}, "fusion_lon": 0.0, "lat": 38.922615, "bike_id": "29138e14c6145aeb26c15900561d7ca4", "type": "electric_bike", "is_reserved": 0, "lon": -77.07027566666666}, {"fusion_lat": 0.0, "name": "a7beeb29ff09b9816395dcd87de49315", "is_disabled": 0, "rental_uris": {"android": "https://dc.lft.to/lastmile_qr_scan", "ios": "https://dc.lft.to/lastmile_qr_scan"}, "fusion_lon": 0.0, "lat": 38.90960166666667, "bike_id": "a7beeb29ff09b9816395dcd87de49315", "type": "electric_scooter", "is_reserved": 0, "lon": -77.03928433333333}, {"fusion_lat": 0.0, "name": "3eed874c1a1a0f51cf3f8eecee0312bc", "is_disabled": 0, "rental_uris": {"android": "https://dc.lft.to/lastmile_qr_scan", "ios": "https://dc.lft.to/lastmile_qr_scan"}, "fusion_lon": 0.0, "lat": 38.890131333333336, "bike_id": "3eed874c1a1a0f51cf3f8eecee0312bc", "type": "electric_scooter", "is_reserved": 0, "lon": -76.93739766666667}, {"fusion_lat": 0.0, "name": "98041b6694833a715700428b50b88813", "is_disabled": 0, "rental_uris": {"android": "https://dc.lft.to/lastmile_qr_scan", "ios": "https://dc.lft.to/lastmile_qr_scan"}, "fusion_lon": 0.0, "lat": 38.924587833333334, "bike_id": "98041b6694833a715700428b50b88813", "type": "electric_scooter", "is_reserved": 0, "lon": -77.02406666666667}, {"fusion_lat": 0.0, "name": "abd202e330b0decd6972c88c8d9d9f5e", "is_disabled": 0, "rental_uris": {"android": "https://dc.lft.to/lastmile_qr_scan", "ios": "https://dc.lft.to/lastmile_qr_scan"}, "fusion_lon": 0.0, "lat": 38.91234983333333, "bike_id": "abd202e330b0decd6972c88c8d9d9f5e", "type": "electric_scooter", "is_reserved": 0, "lon": -77.0487835}, {"fusion_lat": 0.0, "name": "5ed226516a8898092584004ffbe40953", "is_disabled": 0, "rental_uris": {"android": "https://dc.lft.to/lastmile_qr_scan", "ios": "https://dc.lft.to/lastmile_qr_scan"}, "fusion_lon": 0.0, "lat": 38.920087333333335, "bike_id": "5ed226516a8898092584004ffbe40953", "type": "electric_scooter", "is_reserved": 0, "lon": -77.03142883333334}, {"fusion_lat": 0.0, "name": "2d79bfe66ca16c8f7ff106b65556c757", "is_disabled": 0, "rental_uris": {"android": "https://dc.lft.to/lastmile_qr_scan", "ios": "https://dc.lft.to/lastmile_qr_scan"}, "fusion_lon": 0.0, "lat": 38.920345, "bike_id": "2d79bfe66ca16c8f7ff106b65556c757", "type": "electric_scooter", "is_reserved": 0, "lon": -77.03072433333334}, {"fusion_lat": 0.0, "name": "017a4f2043e9b0074990e6823646d056", "is_disabled": 0, "rental_uris": {"android": "https://dc.lft.to/lastmile_qr_scan", "ios": "https://dc.lft.to/lastmile_qr_scan"}, "fusion_lon": 0.0, "lat": 38.92104333333333, "bike_id": "017a4f2043e9b0074990e6823646d056", "type": "electric_scooter", "is_reserved": 0, "lon": -77.04678383333334}, {"fusion_lat": 0.0, "name": "6aabac35589a27a18f9f2f3ea56cb068", "is_disabled": 0, "rental_uris": {"android": "https://dc.lft.to/lastmile_qr_scan", "ios": "https://dc.lft.to/lastmile_qr_scan"}, "fusion_lon": 0.0, "lat": 38.923489833333335, "bike_id": "6aabac35589a27a18f9f2f3ea56cb068", "type": "electric_scooter", "is_reserved": 0, "lon": -77.0244275}, {"fusion_lat": 0.0, "name": "a6a6768737f8b31678ba56dd4f02887c", "is_disabled": 0, "rental_uris": {"android": "https://dc.lft.to/lastmile_qr_scan", "ios": "https://dc.lft.to/lastmile_qr_scan"}, "fusion_lon": 0.0, "lat": 38.90059866666667, "bike_id": "a6a6768737f8b31678ba56dd4f02887c", "type": "electric_scooter", "is_reserved": 0, "lon": -76.98715483333334}, {"fusion_lat": 0.0, "name": "f1b03216a367af0adc1537eb0ce29269", "is_disabled": 0, "rental_uris": {"android": "https://dc.lft.to/lastmile_qr_scan", "ios": "https://dc.lft.to/lastmile_qr_scan"}, "fusion_lon": 0.0, "lat": 38.88503216666667, "bike_id": "f1b03216a367af0adc1537eb0ce29269", "type": "electric_scooter", "is_reserved": 0, "lon": -76.9975225}, {"fusion_lat": 0.0, "name": "5d73e6eca18b1a0150e42183c996c6a7", "is_disabled": 0, "rental_uris": {"android": "https://dc.lft.to/lastmile_qr_scan", "ios": "https://dc.lft.to/lastmile_qr_scan"}, "fusion_lon": 0.0, "lat": 38.90952733333334, "bike_id": "5d73e6eca18b1a0150e42183c996c6a7", "type": "electric_scooter", "is_reserved": 0, "lon": -77.03331366666667}, {"fusion_lat": 0.0, "name": "ed3df606e626992cc4c237e74d7a2b58", "is_disabled": 0, "rental_uris": {"android": "https://dc.lft.to/lastmile_qr_scan", "ios": "https://dc.lft.to/lastmile_qr_scan"}, "fusion_lon": 0.0, "lat": 38.84917383333333, "bike_id": "ed3df606e626992cc4c237e74d7a2b58", "type": "electric_bike", "is_reserved": 0, "lon": -77.0792815}, {"fusion_lat": 0.0, "name": "d12d4c2606cf1c8130793a87927e307a", "is_disabled": 0, "rental_uris": {"android": "https://dc.lft.to/lastmile_qr_scan", "ios": "https://dc.lft.to/lastmile_qr_scan"}, "fusion_lon": 0.0, "lat": 38.90377516666667, "bike_id": "d12d4c2606cf1c8130793a87927e307a", "type": "electric_bike", "is_reserved": 0, "lon": -77.04022633333334}, {"fusion_lat": 0.0, "name": "53045d79889ee67a815edda4160459e7", "is_disabled": 0, "rental_uris": {"android": "https://dc.lft.to/lastmile_qr_scan", "ios": "https://dc.lft.to/lastmile_qr_scan"}, "fusion_lon": 0.0, "lat": 38.887305166666664, "bike_id": "53045d79889ee67a815edda4160459e7", "type": "electric_scooter", "is_reserved": 0, "lon": -77.02211566666666}, {"fusion_lat": 0.0, "name": "72ece681225d2f0d374549b95f7b2c4a", "is_disabled": 0, "rental_uris": {"android": "https://dc.lft.to/lastmile_qr_scan", "ios": "https://dc.lft.to/lastmile_qr_scan"}, "fusion_lon": 0.0, "lat": 38.906050666666665, "bike_id": "72ece681225d2f0d374549b95f7b2c4a", "type": "electric_scooter", "is_reserved": 0, "lon": -77.04483583333334}, {"fusion_lat": 0.0, "name": "2acac968346a7ede8b9f36abe9f89551", "is_disabled": 0, "rental_uris": {"android": "https://dc.lft.to/lastmile_qr_scan", "ios": "https://dc.lft.to/lastmile_qr_scan"}, "fusion_lon": 0.0, "lat": 38.93181166666667, "bike_id": "2acac968346a7ede8b9f36abe9f89551", "type": "electric_scooter", "is_reserved": 0, "lon": -77.02961516666667}, {"fusion_lat": 0.0, "name": "ac0b0165ed9a40d89113d87856291377", "is_disabled": 0, "rental_uris": {"android": "https://dc.lft.to/lastmile_qr_scan", "ios": "https://dc.lft.to/lastmile_qr_scan"}, "fusion_lon": 0.0, "lat": 39.014186333333335, "bike_id": "ac0b0165ed9a40d89113d87856291377", "type": "electric_bike", "is_reserved": 0, "lon": -77.04499016666666}, {"fusion_lat": 0.0, "name": "d07f8aae4d11c9297219f86e776c8d23", "is_disabled": 0, "rental_uris": {"android": "https://dc.lft.to/lastmile_qr_scan", "ios": "https://dc.lft.to/lastmile_qr_scan"}, "fusion_lon": 0.0, "lat": 38.927025, "bike_id": "d07f8aae4d11c9297219f86e776c8d23", "type": "electric_scooter", "is_reserved": 0, "lon": -77.02086883333334}, {"fusion_lat": 0.0, "name": "43663594ec2392e7293e6d0374e9137c", "is_disabled": 0, "rental_uris": {"android": "https://dc.lft.to/lastmile_qr_scan", "ios": "https://dc.lft.to/lastmile_qr_scan"}, "fusion_lon": 0.0, "lat": 38.81608116666666, "bike_id": "43663594ec2392e7293e6d0374e9137c", "type": "electric_bike", "is_reserved": 0, "lon": -76.99657033333334}, {"fusion_lat": 0.0, "name": "85abe164d7e8b8df288c1a474213864b", "is_disabled": 0, "rental_uris": {"android": "https://dc.lft.to/lastmile_qr_scan", "ios": "https://dc.lft.to/lastmile_qr_scan"}, "fusion_lon": 0.0, "lat": 38.89835866666667, "bike_id": "85abe164d7e8b8df288c1a474213864b", "type": "electric_scooter", "is_reserved": 0, "lon": -77.050036}, {"fusion_lat": 0.0, "name": "2bb4aeb4cd52fdde1efbbaa5ea8085bd", "is_disabled": 0, "rental_uris": {"android": "https://dc.lft.to/lastmile_qr_scan", "ios": "https://dc.lft.to/lastmile_qr_scan"}, "fusion_lon": 0.0, "lat": 38.933975333333336, "bike_id": "2bb4aeb4cd52fdde1efbbaa5ea8085bd", "type": "electric_scooter", "is_reserved": 0, "lon": -77.0284015}, {"fusion_lat": 0.0, "name": "6d45388f736ab9475696a532be79b658", "is_disabled": 0, "rental_uris": {"android": "https://dc.lft.to/lastmile_qr_scan", "ios": "https://dc.lft.to/lastmile_qr_scan"}, "fusion_lon": 0.0, "lat": 38.900648333333336, "bike_id": "6d45388f736ab9475696a532be79b658", "type": "electric_scooter", "is_reserved": 0, "lon": -77.045226}, {"fusion_lat": 0.0, "name": "e6eb1f6852966bf7ecea0bea5d169770", "is_disabled": 0, "rental_uris": {"android": "https://dc.lft.to/lastmile_qr_scan", "ios": "https://dc.lft.to/lastmile_qr_scan"}, "fusion_lon": 0.0, "lat": 38.923958, "bike_id": "e6eb1f6852966bf7ecea0bea5d169770", "type": "electric_scooter", "is_reserved": 0, "lon": -77.04293083333333}, {"fusion_lat": 0.0, "name": "cc3b4207127630cf86e26b2a77a354ed", "is_disabled": 0, "rental_uris": {"android": "https://dc.lft.to/lastmile_qr_scan", "ios": "https://dc.lft.to/lastmile_qr_scan"}, "fusion_lon": 0.0, "lat": 38.89966033333333, "bike_id": "cc3b4207127630cf86e26b2a77a354ed", "type": "electric_scooter", "is_reserved": 0, "lon": -76.98162433333333}, {"fusion_lat": 0.0, "name": "82da4070077bb24a6e590228c710d46c", "is_disabled": 0, "rental_uris": {"android": "https://dc.lft.to/lastmile_qr_scan", "ios": "https://dc.lft.to/lastmile_qr_scan"}, "fusion_lon": 0.0, "lat": 38.896634666666664, "bike_id": "82da4070077bb24a6e590228c710d46c", "type": "electric_scooter", "is_reserved": 0, "lon": -77.0248085}, {"fusion_lat": 0.0, "name": "6c5cf67042b2dbc5f643489b7abc902a", "is_disabled": 0, "rental_uris": {"android": "https://dc.lft.to/lastmile_qr_scan", "ios": "https://dc.lft.to/lastmile_qr_scan"}, "fusion_lon": 0.0, "lat": 38.878960166666666, "bike_id": "6c5cf67042b2dbc5f643489b7abc902a", "type": "electric_scooter", "is_reserved": 0, "lon": -77.02220216666667}, {"fusion_lat": 0.0, "name": "472e0ad7015aaa3da9505b5423368129", "is_disabled": 0, "rental_uris": {"android": "https://dc.lft.to/lastmile_qr_scan", "ios": "https://dc.lft.to/lastmile_qr_scan"}, "fusion_lon": 0.0, "lat": 38.81940916666667, "bike_id": "472e0ad7015aaa3da9505b5423368129", "type": "electric_bike", "is_reserved": 0, "lon": -77.00202166666666}, {"fusion_lat": 0.0, "name": "eb5555df36f40ad58ca0284953ae16e1", "is_disabled": 0, "rental_uris": {"android": "https://dc.lft.to/lastmile_qr_scan", "ios": "https://dc.lft.to/lastmile_qr_scan"}, "fusion_lon": 0.0, "lat": 38.936759333333335, "bike_id": "eb5555df36f40ad58ca0284953ae16e1", "type": "electric_scooter", "is_reserved": 0, "lon": -77.03589616666666}, {"fusion_lat": 0.0, "name": "1beca3f2ebe24d5fc2cb4353664168e5", "is_disabled": 0, "rental_uris": {"android": "https://dc.lft.to/lastmile_qr_scan", "ios": "https://dc.lft.to/lastmile_qr_scan"}, "fusion_lon": 0.0, "lat": 38.9095645, "bike_id": "1beca3f2ebe24d5fc2cb4353664168e5", "type": "electric_scooter", "is_reserved": 0, "lon": -76.98538283333333}, {"fusion_lat": 0.0, "name": "abb05f3efdedd440755ddc30d7912e78", "is_disabled": 0, "rental_uris": {"android": "https://dc.lft.to/lastmile_qr_scan", "ios": "https://dc.lft.to/lastmile_qr_scan"}, "fusion_lon": 0.0, "lat": 38.922957833333335, "bike_id": "abb05f3efdedd440755ddc30d7912e78", "type": "electric_scooter", "is_reserved": 0, "lon": -77.04149083333333}, {"fusion_lat": 0.0, "name": "db7e1b14d85e4571283f34fe04fe2f07", "is_disabled": 0, "rental_uris": {"android": "https://dc.lft.to/lastmile_qr_scan", "ios": "https://dc.lft.to/lastmile_qr_scan"}, "fusion_lon": 0.0, "lat": 38.9429165, "bike_id": "db7e1b14d85e4571283f34fe04fe2f07", "type": "electric_scooter", "is_reserved": 0, "lon": -77.0217485}, {"fusion_lat": 0.0, "name": "ff71c483613ade6c11c8279401a8bf6a", "is_disabled": 0, "rental_uris": {"android": "https://dc.lft.to/lastmile_qr_scan", "ios": "https://dc.lft.to/lastmile_qr_scan"}, "fusion_lon": 0.0, "lat": 38.952818, "bike_id": "ff71c483613ade6c11c8279401a8bf6a", "type": "electric_bike", "is_reserved": 0, "lon": -76.99991116666666}, {"fusion_lat": 0.0, "name": "f2bbf43d8b7ce907add5a1da44639c88", "is_disabled": 0, "rental_uris": {"android": "https://dc.lft.to/lastmile_qr_scan", "ios": "https://dc.lft.to/lastmile_qr_scan"}, "fusion_lon": 0.0, "lat": 38.89489916666667, "bike_id": "f2bbf43d8b7ce907add5a1da44639c88", "type": "electric_scooter", "is_reserved": 0, "lon": -77.00254983333333}, {"fusion_lat": 0.0, "name": "b33b710153560e53f7f8c0a2c5741194", "is_disabled": 0, "rental_uris": {"android": "https://dc.lft.to/lastmile_qr_scan", "ios": "https://dc.lft.to/lastmile_qr_scan"}, "fusion_lon": 0.0, "lat": 38.88133466666667, "bike_id": "b33b710153560e53f7f8c0a2c5741194", "type": "electric_scooter", "is_reserved": 0, "lon": -77.02708416666667}, {"fusion_lat": 0.0, "name": "652518983150346f79fffc3cf309be4b", "is_disabled": 0, "rental_uris": {"android": "https://dc.lft.to/lastmile_qr_scan", "ios": "https://dc.lft.to/lastmile_qr_scan"}, "fusion_lon": 0.0, "lat": 38.8412995, "bike_id": "652518983150346f79fffc3cf309be4b", "type": "electric_bike", "is_reserved": 0, "lon": -77.063088}, {"fusion_lat": 0.0, "name": "f03cd59b885c5fbaba5bd39fbdd82e2d", "is_disabled": 0, "rental_uris": {"android": "https://dc.lft.to/lastmile_qr_scan", "ios": "https://dc.lft.to/lastmile_qr_scan"}, "fusion_lon": 0.0, "lat": 38.93534616666667, "bike_id": "f03cd59b885c5fbaba5bd39fbdd82e2d", "type": "electric_scooter", "is_reserved": 0, "lon": -77.0235105}, {"fusion_lat": 0.0, "name": "db22591bdff1da30594a868dcd5e994f", "is_disabled": 0, "rental_uris": {"android": "https://dc.lft.to/lastmile_qr_scan", "ios": "https://dc.lft.to/lastmile_qr_scan"}, "fusion_lon": 0.0, "lat": 38.87919983333333, "bike_id": "db22591bdff1da30594a868dcd5e994f", "type": "electric_scooter", "is_reserved": 0, "lon": -76.94483333333334}, {"fusion_lat": 0.0, "name": "4de78ebb644c7553cc2c43b09a5eaf7a", "is_disabled": 0, "rental_uris": {"android": "https://dc.lft.to/lastmile_qr_scan", "ios": "https://dc.lft.to/lastmile_qr_scan"}, "fusion_lon": 0.0, "lat": 38.893568333333334, "bike_id": "4de78ebb644c7553cc2c43b09a5eaf7a", "type": "electric_bike", "is_reserved": 0, "lon": -77.18738366666666}, {"fusion_lat": 0.0, "name": "f874822b6992fcf1a197117b7a83e3f9", "is_disabled": 0, "rental_uris": {"android": "https://dc.lft.to/lastmile_qr_scan", "ios": "https://dc.lft.to/lastmile_qr_scan"}, "fusion_lon": 0.0, "lat": 38.92613816666667, "bike_id": "f874822b6992fcf1a197117b7a83e3f9", "type": "electric_scooter", "is_reserved": 0, "lon": -77.02158216666666}, {"fusion_lat": 0.0, "name": "41c9403aa0e5ead434b02716b27a1262", "is_disabled": 0, "rental_uris": {"android": "https://dc.lft.to/lastmile_qr_scan", "ios": "https://dc.lft.to/lastmile_qr_scan"}, "fusion_lon": 0.0, "lat": 38.949510333333336, "bike_id": "41c9403aa0e5ead434b02716b27a1262", "type": "electric_scooter", "is_reserved": 0, "lon": -77.02313766666667}, {"fusion_lat": 0.0, "name": "bb6040a9203e055f2b10b6b36e781b02", "is_disabled": 0, "rental_uris": {"android": "https://dc.lft.to/lastmile_qr_scan", "ios": "https://dc.lft.to/lastmile_qr_scan"}, "fusion_lon": 0.0, "lat": 38.91959766666667, "bike_id": "bb6040a9203e055f2b10b6b36e781b02", "type": "electric_scooter", "is_reserved": 0, "lon": -77.02514116666667}, {"fusion_lat": 0.0, "name": "7aec10f7014d17885cf4903520081e61", "is_disabled": 0, "rental_uris": {"android": "https://dc.lft.to/lastmile_qr_scan", "ios": "https://dc.lft.to/lastmile_qr_scan"}, "fusion_lon": 0.0, "lat": 38.8922315, "bike_id": "7aec10f7014d17885cf4903520081e61", "type": "electric_scooter", "is_reserved": 0, "lon": -77.032212}, {"fusion_lat": 0.0, "name": "76a91045f450992e9625744b056ad043", "is_disabled": 0, "rental_uris": {"android": "https://dc.lft.to/lastmile_qr_scan", "ios": "https://dc.lft.to/lastmile_qr_scan"}, "fusion_lon": 0.0, "lat": 38.924788, "bike_id": "76a91045f450992e9625744b056ad043", "type": "electric_scooter", "is_reserved": 0, "lon": -77.02832066666667}, {"fusion_lat": 0.0, "name": "63dc546c2e22b5d05aaa315919e74dfc", "is_disabled": 0, "rental_uris": {"android": "https://dc.lft.to/lastmile_qr_scan", "ios": "https://dc.lft.to/lastmile_qr_scan"}, "fusion_lon": 0.0, "lat": 38.911148, "bike_id": "63dc546c2e22b5d05aaa315919e74dfc", "type": "electric_scooter", "is_reserved": 0, "lon": -77.00665566666666}, {"fusion_lat": 0.0, "name": "c0938cb8186dfdf7fcf1d54779efa47b", "is_disabled": 0, "rental_uris": {"android": "https://dc.lft.to/lastmile_qr_scan", "ios": "https://dc.lft.to/lastmile_qr_scan"}, "fusion_lon": 0.0, "lat": 38.96235333333333, "bike_id": "c0938cb8186dfdf7fcf1d54779efa47b", "type": "electric_bike", "is_reserved": 0, "lon": -76.92759483333333}, {"fusion_lat": 0.0, "name": "0167e6f53efb96ebda5827c813ed0e29", "is_disabled": 0, "rental_uris": {"android": "https://dc.lft.to/lastmile_qr_scan", "ios": "https://dc.lft.to/lastmile_qr_scan"}, "fusion_lon": 0.0, "lat": 38.90218383333333, "bike_id": "0167e6f53efb96ebda5827c813ed0e29", "type": "electric_bike", "is_reserved": 0, "lon": -76.98341883333333}, {"fusion_lat": 0.0, "name": "7a57d22c65512bf8220ee3bf913056a2", "is_disabled": 0, "rental_uris": {"android": "https://dc.lft.to/lastmile_qr_scan", "ios": "https://dc.lft.to/lastmile_qr_scan"}, "fusion_lon": 0.0, "lat": 38.915626833333334, "bike_id": "7a57d22c65512bf8220ee3bf913056a2", "type": "electric_scooter", "is_reserved": 0, "lon": -77.03152233333333}, {"fusion_lat": 0.0, "name": "3297f3d652fd9e3627df72ec4ddb1eaa", "is_disabled": 0, "rental_uris": {"android": "https://dc.lft.to/lastmile_qr_scan", "ios": "https://dc.lft.to/lastmile_qr_scan"}, "fusion_lon": 0.0, "lat": 38.88126166666667, "bike_id": "3297f3d652fd9e3627df72ec4ddb1eaa", "type": "electric_scooter", "is_reserved": 0, "lon": -76.995129}, {"fusion_lat": 0.0, "name": "8131b4b7c2d835ed53170176be550b20", "is_disabled": 0, "rental_uris": {"android": "https://dc.lft.to/lastmile_qr_scan", "ios": "https://dc.lft.to/lastmile_qr_scan"}, "fusion_lon": 0.0, "lat": 38.91693733333334, "bike_id": "8131b4b7c2d835ed53170176be550b20", "type": "electric_scooter", "is_reserved": 0, "lon": -77.03770766666666}, {"fusion_lat": 0.0, "name": "cef3b198fdb6bf45a4305e13abf4c6b3", "is_disabled": 0, "rental_uris": {"android": "https://dc.lft.to/lastmile_qr_scan", "ios": "https://dc.lft.to/lastmile_qr_scan"}, "fusion_lon": 0.0, "lat": 38.956852, "bike_id": "cef3b198fdb6bf45a4305e13abf4c6b3", "type": "electric_scooter", "is_reserved": 0, "lon": -77.03255233333333}, {"fusion_lat": 0.0, "name": "58af68e5225c04de9c10b3acfd365f75", "is_disabled": 0, "rental_uris": {"android": "https://dc.lft.to/lastmile_qr_scan", "ios": "https://dc.lft.to/lastmile_qr_scan"}, "fusion_lon": 0.0, "lat": 38.889010666666664, "bike_id": "58af68e5225c04de9c10b3acfd365f75", "type": "electric_scooter", "is_reserved": 0, "lon": -76.992007}, {"fusion_lat": 0.0, "name": "4d61d28197cb1004f1a299e640da33f6", "is_disabled": 0, "rental_uris": {"android": "https://dc.lft.to/lastmile_qr_scan", "ios": "https://dc.lft.to/lastmile_qr_scan"}, "fusion_lon": 0.0, "lat": 38.92949, "bike_id": "4d61d28197cb1004f1a299e640da33f6", "type": "electric_scooter", "is_reserved": 0, "lon": -77.05508916666666}, {"fusion_lat": 0.0, "name": "1a4f31b19e668b0d27953951ca2d7762", "is_disabled": 0, "rental_uris": {"android": "https://dc.lft.to/lastmile_qr_scan", "ios": "https://dc.lft.to/lastmile_qr_scan"}, "fusion_lon": 0.0, "lat": 38.89426783333333, "bike_id": "1a4f31b19e668b0d27953951ca2d7762", "type": "electric_scooter", "is_reserved": 0, "lon": -77.00103216666666}, {"fusion_lat": 0.0, "name": "71d9adb627730179436a0ae0493cfdc5", "is_disabled": 0, "rental_uris": {"android": "https://dc.lft.to/lastmile_qr_scan", "ios": "https://dc.lft.to/lastmile_qr_scan"}, "fusion_lon": 0.0, "lat": 38.910313, "bike_id": "71d9adb627730179436a0ae0493cfdc5", "type": "electric_scooter", "is_reserved": 0, "lon": -77.01513783333333}, {"fusion_lat": 0.0, "name": "8da8aaadb3f4f3e9848b1ff0a55f8a1a", "is_disabled": 0, "rental_uris": {"android": "https://dc.lft.to/lastmile_qr_scan", "ios": "https://dc.lft.to/lastmile_qr_scan"}, "fusion_lon": 0.0, "lat": 38.9247915, "bike_id": "8da8aaadb3f4f3e9848b1ff0a55f8a1a", "type": "electric_scooter", "is_reserved": 0, "lon": -77.0262815}, {"fusion_lat": 0.0, "name": "b7854a54b327b6c704db0d32115ef0c5", "is_disabled": 0, "rental_uris": {"android": "https://dc.lft.to/lastmile_qr_scan", "ios": "https://dc.lft.to/lastmile_qr_scan"}, "fusion_lon": 0.0, "lat": 38.931945166666665, "bike_id": "b7854a54b327b6c704db0d32115ef0c5", "type": "electric_bike", "is_reserved": 0, "lon": -77.22926583333333}, {"fusion_lat": 0.0, "name": "e1ed85d614e116bf925199f78d16d0d6", "is_disabled": 0, "rental_uris": {"android": "https://dc.lft.to/lastmile_qr_scan", "ios": "https://dc.lft.to/lastmile_qr_scan"}, "fusion_lon": 0.0, "lat": 38.92247233333333, "bike_id": "e1ed85d614e116bf925199f78d16d0d6", "type": "electric_scooter", "is_reserved": 0, "lon": -77.07474216666667}, {"fusion_lat": 0.0, "name": "6719b810e682e3e04102e0fbf4ec31c2", "is_disabled": 0, "rental_uris": {"android": "https://dc.lft.to/lastmile_qr_scan", "ios": "https://dc.lft.to/lastmile_qr_scan"}, "fusion_lon": 0.0, "lat": 38.920625, "bike_id": "6719b810e682e3e04102e0fbf4ec31c2", "type": "electric_scooter", "is_reserved": 0, "lon": -77.04260166666667}, {"fusion_lat": 0.0, "name": "014fb9c5dfecadb6c1fbabc9fc4743b0", "is_disabled": 0, "rental_uris": {"android": "https://dc.lft.to/lastmile_qr_scan", "ios": "https://dc.lft.to/lastmile_qr_scan"}, "fusion_lon": 0.0, "lat": 38.902731, "bike_id": "014fb9c5dfecadb6c1fbabc9fc4743b0", "type": "electric_scooter", "is_reserved": 0, "lon": -77.01884}, {"fusion_lat": 0.0, "name": "98d46241cc812334970531beb2cb33ca", "is_disabled": 0, "rental_uris": {"android": "https://dc.lft.to/lastmile_qr_scan", "ios": "https://dc.lft.to/lastmile_qr_scan"}, "fusion_lon": 0.0, "lat": 38.93515416666666, "bike_id": "98d46241cc812334970531beb2cb33ca", "type": "electric_scooter", "is_reserved": 0, "lon": -77.033492}, {"fusion_lat": 0.0, "name": "fab3e9e21c4e3a6a2641fdd7fc5d1b6e", "is_disabled": 0, "rental_uris": {"android": "https://dc.lft.to/lastmile_qr_scan", "ios": "https://dc.lft.to/lastmile_qr_scan"}, "fusion_lon": 0.0, "lat": 38.878839166666666, "bike_id": "fab3e9e21c4e3a6a2641fdd7fc5d1b6e", "type": "electric_scooter", "is_reserved": 0, "lon": -77.023086}, {"fusion_lat": 0.0, "name": "77ad593f61120d1f5d29e49e0f079f88", "is_disabled": 0, "rental_uris": {"android": "https://dc.lft.to/lastmile_qr_scan", "ios": "https://dc.lft.to/lastmile_qr_scan"}, "fusion_lon": 0.0, "lat": 38.908653, "bike_id": "77ad593f61120d1f5d29e49e0f079f88", "type": "electric_scooter", "is_reserved": 0, "lon": -77.0093265}, {"fusion_lat": 0.0, "name": "cfe6dd1221c95786690a176118fb113c", "is_disabled": 0, "rental_uris": {"android": "https://dc.lft.to/lastmile_qr_scan", "ios": "https://dc.lft.to/lastmile_qr_scan"}, "fusion_lon": 0.0, "lat": 38.87663216666667, "bike_id": "cfe6dd1221c95786690a176118fb113c", "type": "electric_scooter", "is_reserved": 0, "lon": -77.00119316666667}, {"fusion_lat": 0.0, "name": "78c44a7a7fcbea18b772d460462af5f0", "is_disabled": 0, "rental_uris": {"android": "https://dc.lft.to/lastmile_qr_scan", "ios": "https://dc.lft.to/lastmile_qr_scan"}, "fusion_lon": 0.0, "lat": 38.91958616666667, "bike_id": "78c44a7a7fcbea18b772d460462af5f0", "type": "electric_bike", "is_reserved": 0, "lon": -77.10107833333333}, {"fusion_lat": 0.0, "name": "66678ce79a57f1098f499d39c3503c22", "is_disabled": 0, "rental_uris": {"android": "https://dc.lft.to/lastmile_qr_scan", "ios": "https://dc.lft.to/lastmile_qr_scan"}, "fusion_lon": 0.0, "lat": 38.906462833333336, "bike_id": "66678ce79a57f1098f499d39c3503c22", "type": "electric_scooter", "is_reserved": 0, "lon": -77.0141595}, {"fusion_lat": 0.0, "name": "1ca22861899773db4cfc0e648b34fc25", "is_disabled": 0, "rental_uris": {"android": "https://dc.lft.to/lastmile_qr_scan", "ios": "https://dc.lft.to/lastmile_qr_scan"}, "fusion_lon": 0.0, "lat": 38.90641333333333, "bike_id": "1ca22861899773db4cfc0e648b34fc25", "type": "electric_scooter", "is_reserved": 0, "lon": -77.05025316666666}, {"fusion_lat": 0.0, "name": "3cdd52798561c2d8e172c6c0dd5b99f8", "is_disabled": 0, "rental_uris": {"android": "https://dc.lft.to/lastmile_qr_scan", "ios": "https://dc.lft.to/lastmile_qr_scan"}, "fusion_lon": 0.0, "lat": 38.92220716666667, "bike_id": "3cdd52798561c2d8e172c6c0dd5b99f8", "type": "electric_scooter", "is_reserved": 0, "lon": -76.98375233333333}, {"fusion_lat": 0.0, "name": "95d70d407b643b3312165cd7a750687c", "is_disabled": 0, "rental_uris": {"android": "https://dc.lft.to/lastmile_qr_scan", "ios": "https://dc.lft.to/lastmile_qr_scan"}, "fusion_lon": 0.0, "lat": 38.935806666666664, "bike_id": "95d70d407b643b3312165cd7a750687c", "type": "electric_scooter", "is_reserved": 0, "lon": -77.02446716666667}, {"fusion_lat": 0.0, "name": "ab622ec872bfac9d1b289ad8981a1bec", "is_disabled": 0, "rental_uris": {"android": "https://dc.lft.to/lastmile_qr_scan", "ios": "https://dc.lft.to/lastmile_qr_scan"}, "fusion_lon": 0.0, "lat": 38.907325666666665, "bike_id": "ab622ec872bfac9d1b289ad8981a1bec", "type": "electric_scooter", "is_reserved": 0, "lon": -77.063223}, {"fusion_lat": 0.0, "name": "26231997d96539f83828d99f2c0a58ed", "is_disabled": 0, "rental_uris": {"android": "https://dc.lft.to/lastmile_qr_scan", "ios": "https://dc.lft.to/lastmile_qr_scan"}, "fusion_lon": 0.0, "lat": 38.90054166666667, "bike_id": "26231997d96539f83828d99f2c0a58ed", "type": "electric_scooter", "is_reserved": 0, "lon": -77.05616066666667}, {"fusion_lat": 0.0, "name": "297276eb7ba8ebe24b12bb20024c1b16", "is_disabled": 0, "rental_uris": {"android": "https://dc.lft.to/lastmile_qr_scan", "ios": "https://dc.lft.to/lastmile_qr_scan"}, "fusion_lon": 0.0, "lat": 38.902857, "bike_id": "297276eb7ba8ebe24b12bb20024c1b16", "type": "electric_scooter", "is_reserved": 0, "lon": -77.0345695}, {"fusion_lat": 0.0, "name": "8df4e3b22640ee9da9da834b680a87ab", "is_disabled": 0, "rental_uris": {"android": "https://dc.lft.to/lastmile_qr_scan", "ios": "https://dc.lft.to/lastmile_qr_scan"}, "fusion_lon": 0.0, "lat": 38.919010166666666, "bike_id": "8df4e3b22640ee9da9da834b680a87ab", "type": "electric_scooter", "is_reserved": 0, "lon": -77.0275715}, {"fusion_lat": 0.0, "name": "2793d5331b80b29dab802aa2989478c8", "is_disabled": 0, "rental_uris": {"android": "https://dc.lft.to/lastmile_qr_scan", "ios": "https://dc.lft.to/lastmile_qr_scan"}, "fusion_lon": 0.0, "lat": 38.917587833333336, "bike_id": "2793d5331b80b29dab802aa2989478c8", "type": "electric_scooter", "is_reserved": 0, "lon": -77.0269905}, {"fusion_lat": 0.0, "name": "a7ffbeb9b1b49066f2455be3261d2394", "is_disabled": 0, "rental_uris": {"android": "https://dc.lft.to/lastmile_qr_scan", "ios": "https://dc.lft.to/lastmile_qr_scan"}, "fusion_lon": 0.0, "lat": 38.900344833333335, "bike_id": "a7ffbeb9b1b49066f2455be3261d2394", "type": "electric_scooter", "is_reserved": 0, "lon": -77.0582395}, {"fusion_lat": 0.0, "name": "74f22151bdd0f7d0f5f7d194de656344", "is_disabled": 0, "rental_uris": {"android": "https://dc.lft.to/lastmile_qr_scan", "ios": "https://dc.lft.to/lastmile_qr_scan"}, "fusion_lon": 0.0, "lat": 38.898967666666664, "bike_id": "74f22151bdd0f7d0f5f7d194de656344", "type": "electric_scooter", "is_reserved": 0, "lon": -76.9336625}, {"fusion_lat": 0.0, "name": "30fb46b3d0a461cd66f4fea0d7d1cd81", "is_disabled": 0, "rental_uris": {"android": "https://dc.lft.to/lastmile_qr_scan", "ios": "https://dc.lft.to/lastmile_qr_scan"}, "fusion_lon": 0.0, "lat": 38.90523566666667, "bike_id": "30fb46b3d0a461cd66f4fea0d7d1cd81", "type": "electric_scooter", "is_reserved": 0, "lon": -77.05768183333333}, {"fusion_lat": 0.0, "name": "aa5d4f318a730fb9f620584de3ef918a", "is_disabled": 0, "rental_uris": {"android": "https://dc.lft.to/lastmile_qr_scan", "ios": "https://dc.lft.to/lastmile_qr_scan"}, "fusion_lon": 0.0, "lat": 38.794685333333334, "bike_id": "aa5d4f318a730fb9f620584de3ef918a", "type": "electric_bike", "is_reserved": 0, "lon": -76.99247016666666}, {"fusion_lat": 0.0, "name": "80878f7a833adb7ee4c65cfdb6aaf93d", "is_disabled": 0, "rental_uris": {"android": "https://dc.lft.to/lastmile_qr_scan", "ios": "https://dc.lft.to/lastmile_qr_scan"}, "fusion_lon": 0.0, "lat": 38.96810983333334, "bike_id": "80878f7a833adb7ee4c65cfdb6aaf93d", "type": "electric_bike", "is_reserved": 0, "lon": -76.9552135}, {"fusion_lat": 0.0, "name": "69e4caa92ab4ef0fceb50afe0d548781", "is_disabled": 0, "rental_uris": {"android": "https://dc.lft.to/lastmile_qr_scan", "ios": "https://dc.lft.to/lastmile_qr_scan"}, "fusion_lon": 0.0, "lat": 38.911212166666665, "bike_id": "69e4caa92ab4ef0fceb50afe0d548781", "type": "electric_scooter", "is_reserved": 0, "lon": -77.03644966666667}, {"fusion_lat": 0.0, "name": "cd20c99dd6ac8d308e05d4f349181d64", "is_disabled": 0, "rental_uris": {"android": "https://dc.lft.to/lastmile_qr_scan", "ios": "https://dc.lft.to/lastmile_qr_scan"}, "fusion_lon": 0.0, "lat": 38.9250795, "bike_id": "cd20c99dd6ac8d308e05d4f349181d64", "type": "electric_scooter", "is_reserved": 0, "lon": -77.00252766666667}, {"fusion_lat": 0.0, "name": "34f5c5e02dc64f80ea6418b1cdc5937a", "is_disabled": 0, "rental_uris": {"android": "https://dc.lft.to/lastmile_qr_scan", "ios": "https://dc.lft.to/lastmile_qr_scan"}, "fusion_lon": 0.0, "lat": 38.931152833333336, "bike_id": "34f5c5e02dc64f80ea6418b1cdc5937a", "type": "electric_scooter", "is_reserved": 0, "lon": -77.02099183333333}, {"fusion_lat": 0.0, "name": "b5986f8a11d2ba3e49f55e77cbbbee68", "is_disabled": 0, "rental_uris": {"android": "https://dc.lft.to/lastmile_qr_scan", "ios": "https://dc.lft.to/lastmile_qr_scan"}, "fusion_lon": 0.0, "lat": 38.906088833333335, "bike_id": "b5986f8a11d2ba3e49f55e77cbbbee68", "type": "electric_scooter", "is_reserved": 0, "lon": -77.0569075}, {"fusion_lat": 0.0, "name": "826c19849b1012b8221e7a0dce40dc47", "is_disabled": 0, "rental_uris": {"android": "https://dc.lft.to/lastmile_qr_scan", "ios": "https://dc.lft.to/lastmile_qr_scan"}, "fusion_lon": 0.0, "lat": 38.9200435, "bike_id": "826c19849b1012b8221e7a0dce40dc47", "type": "electric_scooter", "is_reserved": 0, "lon": -77.07131883333334}, {"fusion_lat": 0.0, "name": "07e81f36646f0eb441fb040e77758674", "is_disabled": 0, "rental_uris": {"android": "https://dc.lft.to/lastmile_qr_scan", "ios": "https://dc.lft.to/lastmile_qr_scan"}, "fusion_lon": 0.0, "lat": 38.91692716666667, "bike_id": "07e81f36646f0eb441fb040e77758674", "type": "electric_scooter", "is_reserved": 0, "lon": -77.04043083333333}, {"fusion_lat": 0.0, "name": "c3f8578d49c49edf87d77c683a3867f3", "is_disabled": 0, "rental_uris": {"android": "https://dc.lft.to/lastmile_qr_scan", "ios": "https://dc.lft.to/lastmile_qr_scan"}, "fusion_lon": 0.0, "lat": 38.906437833333335, "bike_id": "c3f8578d49c49edf87d77c683a3867f3", "type": "electric_scooter", "is_reserved": 0, "lon": -77.0114335}, {"fusion_lat": 0.0, "name": "605be8bf0514f713ddf62fdd7c12e82e", "is_disabled": 0, "rental_uris": {"android": "https://dc.lft.to/lastmile_qr_scan", "ios": "https://dc.lft.to/lastmile_qr_scan"}, "fusion_lon": 0.0, "lat": 38.93845316666667, "bike_id": "605be8bf0514f713ddf62fdd7c12e82e", "type": "electric_scooter", "is_reserved": 0, "lon": -77.06248233333334}, {"fusion_lat": 0.0, "name": "71db915923f84e3c72a9e7a89b5292b2", "is_disabled": 0, "rental_uris": {"android": "https://dc.lft.to/lastmile_qr_scan", "ios": "https://dc.lft.to/lastmile_qr_scan"}, "fusion_lon": 0.0, "lat": 38.9552935, "bike_id": "71db915923f84e3c72a9e7a89b5292b2", "type": "electric_bike", "is_reserved": 0, "lon": -76.9681805}, {"fusion_lat": 0.0, "name": "d42217b50903bcbfd4a1ec6a3e806e33", "is_disabled": 0, "rental_uris": {"android": "https://dc.lft.to/lastmile_qr_scan", "ios": "https://dc.lft.to/lastmile_qr_scan"}, "fusion_lon": 0.0, "lat": 38.903232333333335, "bike_id": "d42217b50903bcbfd4a1ec6a3e806e33", "type": "electric_scooter", "is_reserved": 0, "lon": -77.04484983333333}, {"fusion_lat": 0.0, "name": "c87b9214590c07bd944a6588db85d29b", "is_disabled": 0, "rental_uris": {"android": "https://dc.lft.to/lastmile_qr_scan", "ios": "https://dc.lft.to/lastmile_qr_scan"}, "fusion_lon": 0.0, "lat": 38.84084416666666, "bike_id": "c87b9214590c07bd944a6588db85d29b", "type": "electric_bike", "is_reserved": 0, "lon": -76.97027666666666}, {"fusion_lat": 0.0, "name": "320758f746ced7190fee97d213253df5", "is_disabled": 0, "rental_uris": {"android": "https://dc.lft.to/lastmile_qr_scan", "ios": "https://dc.lft.to/lastmile_qr_scan"}, "fusion_lon": 0.0, "lat": 38.900223833333335, "bike_id": "320758f746ced7190fee97d213253df5", "type": "electric_scooter", "is_reserved": 0, "lon": -77.00038433333333}, {"fusion_lat": 0.0, "name": "939d450d7eb77d7949c18521a7052e87", "is_disabled": 0, "rental_uris": {"android": "https://dc.lft.to/lastmile_qr_scan", "ios": "https://dc.lft.to/lastmile_qr_scan"}, "fusion_lon": 0.0, "lat": 38.8972085, "bike_id": "939d450d7eb77d7949c18521a7052e87", "type": "electric_scooter", "is_reserved": 0, "lon": -77.02333733333333}, {"fusion_lat": 0.0, "name": "4224c46642e3895369a76312d191cb97", "is_disabled": 0, "rental_uris": {"android": "https://dc.lft.to/lastmile_qr_scan", "ios": "https://dc.lft.to/lastmile_qr_scan"}, "fusion_lon": 0.0, "lat": 38.89718583333333, "bike_id": "4224c46642e3895369a76312d191cb97", "type": "electric_scooter", "is_reserved": 0, "lon": -77.02346216666666}, {"fusion_lat": 0.0, "name": "3d522c9c8c8a96009843a456bcdc0eaf", "is_disabled": 0, "rental_uris": {"android": "https://dc.lft.to/lastmile_qr_scan", "ios": "https://dc.lft.to/lastmile_qr_scan"}, "fusion_lon": 0.0, "lat": 38.909502, "bike_id": "3d522c9c8c8a96009843a456bcdc0eaf", "type": "electric_bike", "is_reserved": 0, "lon": -76.98449}, {"fusion_lat": 0.0, "name": "aa72c0f5229cde0d41ade14a340b4022", "is_disabled": 0, "rental_uris": {"android": "https://dc.lft.to/lastmile_qr_scan", "ios": "https://dc.lft.to/lastmile_qr_scan"}, "fusion_lon": 0.0, "lat": 38.92515616666667, "bike_id": "aa72c0f5229cde0d41ade14a340b4022", "type": "electric_scooter", "is_reserved": 0, "lon": -77.02361916666666}, {"fusion_lat": 0.0, "name": "5204ece5030ba96c8c6676e95a0e95b1", "is_disabled": 0, "rental_uris": {"android": "https://dc.lft.to/lastmile_qr_scan", "ios": "https://dc.lft.to/lastmile_qr_scan"}, "fusion_lon": 0.0, "lat": 38.91111816666667, "bike_id": "5204ece5030ba96c8c6676e95a0e95b1", "type": "electric_scooter", "is_reserved": 0, "lon": -77.08130266666667}, {"fusion_lat": 0.0, "name": "0bbd7b4f54c737c59e2e69e1909ea37a", "is_disabled": 0, "rental_uris": {"android": "https://dc.lft.to/lastmile_qr_scan", "ios": "https://dc.lft.to/lastmile_qr_scan"}, "fusion_lon": 0.0, "lat": 38.907644833333336, "bike_id": "0bbd7b4f54c737c59e2e69e1909ea37a", "type": "electric_scooter", "is_reserved": 0, "lon": -77.05692216666667}, {"fusion_lat": 0.0, "name": "0e53187a0da1c0eebeee67c16b550aea", "is_disabled": 0, "rental_uris": {"android": "https://dc.lft.to/lastmile_qr_scan", "ios": "https://dc.lft.to/lastmile_qr_scan"}, "fusion_lon": 0.0, "lat": 38.9201005, "bike_id": "0e53187a0da1c0eebeee67c16b550aea", "type": "electric_scooter", "is_reserved": 0, "lon": -77.03137216666667}, {"fusion_lat": 0.0, "name": "0e915819bf4a570d2da08265c6f0fb5b", "is_disabled": 0, "rental_uris": {"android": "https://dc.lft.to/lastmile_qr_scan", "ios": "https://dc.lft.to/lastmile_qr_scan"}, "fusion_lon": 0.0, "lat": 38.88539, "bike_id": "0e915819bf4a570d2da08265c6f0fb5b", "type": "electric_scooter", "is_reserved": 0, "lon": -77.00052133333334}, {"fusion_lat": 0.0, "name": "da8b715cd2bdec806ee32d984a1805c8", "is_disabled": 0, "rental_uris": {"android": "https://dc.lft.to/lastmile_qr_scan", "ios": "https://dc.lft.to/lastmile_qr_scan"}, "fusion_lon": 0.0, "lat": 38.936974666666664, "bike_id": "da8b715cd2bdec806ee32d984a1805c8", "type": "electric_scooter", "is_reserved": 0, "lon": -77.05600116666666}, {"fusion_lat": 0.0, "name": "37c744095828b9027092d3efef8d1303", "is_disabled": 0, "rental_uris": {"android": "https://dc.lft.to/lastmile_qr_scan", "ios": "https://dc.lft.to/lastmile_qr_scan"}, "fusion_lon": 0.0, "lat": 38.9051855, "bike_id": "37c744095828b9027092d3efef8d1303", "type": "electric_scooter", "is_reserved": 0, "lon": -77.0642365}, {"fusion_lat": 0.0, "name": "2294f7e874d4c113cbfece71adcfe35e", "is_disabled": 0, "rental_uris": {"android": "https://dc.lft.to/lastmile_qr_scan", "ios": "https://dc.lft.to/lastmile_qr_scan"}, "fusion_lon": 0.0, "lat": 38.91756183333333, "bike_id": "2294f7e874d4c113cbfece71adcfe35e", "type": "electric_scooter", "is_reserved": 0, "lon": -77.03069133333334}, {"fusion_lat": 0.0, "name": "51cfb944611452af6c3889649324e4b5", "is_disabled": 0, "rental_uris": {"android": "https://dc.lft.to/lastmile_qr_scan", "ios": "https://dc.lft.to/lastmile_qr_scan"}, "fusion_lon": 0.0, "lat": 38.92128983333333, "bike_id": "51cfb944611452af6c3889649324e4b5", "type": "electric_scooter", "is_reserved": 0, "lon": -77.01801266666666}, {"fusion_lat": 0.0, "name": "e6de0b5ed20f428e63c08561f14e9810", "is_disabled": 0, "rental_uris": {"android": "https://dc.lft.to/lastmile_qr_scan", "ios": "https://dc.lft.to/lastmile_qr_scan"}, "fusion_lon": 0.0, "lat": 38.9308255, "bike_id": "e6de0b5ed20f428e63c08561f14e9810", "type": "electric_scooter", "is_reserved": 0, "lon": -77.02793366666667}, {"fusion_lat": 0.0, "name": "437004049351e43d1dc474dccbc0a04d", "is_disabled": 0, "rental_uris": {"android": "https://dc.lft.to/lastmile_qr_scan", "ios": "https://dc.lft.to/lastmile_qr_scan"}, "fusion_lon": 0.0, "lat": 38.915901166666664, "bike_id": "437004049351e43d1dc474dccbc0a04d", "type": "electric_scooter", "is_reserved": 0, "lon": -77.02298833333333}, {"fusion_lat": 0.0, "name": "d271b718c4b32e0497ca7e559c36f712", "is_disabled": 0, "rental_uris": {"android": "https://dc.lft.to/lastmile_qr_scan", "ios": "https://dc.lft.to/lastmile_qr_scan"}, "fusion_lon": 0.0, "lat": 38.896081833333334, "bike_id": "d271b718c4b32e0497ca7e559c36f712", "type": "electric_scooter", "is_reserved": 0, "lon": -77.02395833333334}, {"fusion_lat": 0.0, "name": "bbc7dd04b4aa19a72e9f079aece54681", "is_disabled": 0, "rental_uris": {"android": "https://dc.lft.to/lastmile_qr_scan", "ios": "https://dc.lft.to/lastmile_qr_scan"}, "fusion_lon": 0.0, "lat": 38.9257485, "bike_id": "bbc7dd04b4aa19a72e9f079aece54681", "type": "electric_scooter", "is_reserved": 0, "lon": -77.04422516666666}, {"fusion_lat": 0.0, "name": "ea16a6a0cc7a87b0e20229b06d472577", "is_disabled": 0, "rental_uris": {"android": "https://dc.lft.to/lastmile_qr_scan", "ios": "https://dc.lft.to/lastmile_qr_scan"}, "fusion_lon": 0.0, "lat": 38.91265666666666, "bike_id": "ea16a6a0cc7a87b0e20229b06d472577", "type": "electric_scooter", "is_reserved": 0, "lon": -77.0388815}, {"fusion_lat": 0.0, "name": "24466c1d61e9d04f5b6255a8b7598a91", "is_disabled": 0, "rental_uris": {"android": "https://dc.lft.to/lastmile_qr_scan", "ios": "https://dc.lft.to/lastmile_qr_scan"}, "fusion_lon": 0.0, "lat": 39.041834, "bike_id": "24466c1d61e9d04f5b6255a8b7598a91", "type": "electric_bike", "is_reserved": 0, "lon": -77.05241566666666}, {"fusion_lat": 0.0, "name": "440b112cc1a6c7e27a14f7c328380202", "is_disabled": 0, "rental_uris": {"android": "https://dc.lft.to/lastmile_qr_scan", "ios": "https://dc.lft.to/lastmile_qr_scan"}, "fusion_lon": 0.0, "lat": 38.922883, "bike_id": "440b112cc1a6c7e27a14f7c328380202", "type": "electric_scooter", "is_reserved": 0, "lon": -77.04248533333333}, {"fusion_lat": 0.0, "name": "6be5163f888dac5b634f8d5cc036f448", "is_disabled": 0, "rental_uris": {"android": "https://dc.lft.to/lastmile_qr_scan", "ios": "https://dc.lft.to/lastmile_qr_scan"}, "fusion_lon": 0.0, "lat": 38.88398766666667, "bike_id": "6be5163f888dac5b634f8d5cc036f448", "type": "electric_scooter", "is_reserved": 0, "lon": -77.03047416666666}, {"fusion_lat": 0.0, "name": "28faaa61e85315d29e87b639f3fb0a94", "is_disabled": 0, "rental_uris": {"android": "https://dc.lft.to/lastmile_qr_scan", "ios": "https://dc.lft.to/lastmile_qr_scan"}, "fusion_lon": 0.0, "lat": 38.915657833333334, "bike_id": "28faaa61e85315d29e87b639f3fb0a94", "type": "electric_scooter", "is_reserved": 0, "lon": -77.03152}, {"fusion_lat": 0.0, "name": "7a6b8e1e4730a3e3499a8aed86f011a0", "is_disabled": 0, "rental_uris": {"android": "https://dc.lft.to/lastmile_qr_scan", "ios": "https://dc.lft.to/lastmile_qr_scan"}, "fusion_lon": 0.0, "lat": 38.87817316666667, "bike_id": "7a6b8e1e4730a3e3499a8aed86f011a0", "type": "electric_scooter", "is_reserved": 0, "lon": -76.99007316666666}, {"fusion_lat": 0.0, "name": "3c73f0365ef7ebb22c9c2d187f0f1032", "is_disabled": 0, "rental_uris": {"android": "https://dc.lft.to/lastmile_qr_scan", "ios": "https://dc.lft.to/lastmile_qr_scan"}, "fusion_lon": 0.0, "lat": 38.924271833333336, "bike_id": "3c73f0365ef7ebb22c9c2d187f0f1032", "type": "electric_scooter", "is_reserved": 0, "lon": -77.051815}, {"fusion_lat": 0.0, "name": "199b26fb0cc70e71537056e04a7ceff5", "is_disabled": 0, "rental_uris": {"android": "https://dc.lft.to/lastmile_qr_scan", "ios": "https://dc.lft.to/lastmile_qr_scan"}, "fusion_lon": 0.0, "lat": 38.92904033333333, "bike_id": "199b26fb0cc70e71537056e04a7ceff5", "type": "electric_scooter", "is_reserved": 0, "lon": -77.03254166666666}, {"fusion_lat": 0.0, "name": "a30d23b654737883cad3ea9673d30000", "is_disabled": 0, "rental_uris": {"android": "https://dc.lft.to/lastmile_qr_scan", "ios": "https://dc.lft.to/lastmile_qr_scan"}, "fusion_lon": 0.0, "lat": 38.920149, "bike_id": "a30d23b654737883cad3ea9673d30000", "type": "electric_scooter", "is_reserved": 0, "lon": -77.031428}, {"fusion_lat": 0.0, "name": "999854e1df30291f6e5c9f857c6c4f14", "is_disabled": 0, "rental_uris": {"android": "https://dc.lft.to/lastmile_qr_scan", "ios": "https://dc.lft.to/lastmile_qr_scan"}, "fusion_lon": 0.0, "lat": 38.912676, "bike_id": "999854e1df30291f6e5c9f857c6c4f14", "type": "electric_scooter", "is_reserved": 0, "lon": -77.03142566666666}, {"fusion_lat": 0.0, "name": "fc06dfcd95f50ca566b3840d5b7b7b94", "is_disabled": 0, "rental_uris": {"android": "https://dc.lft.to/lastmile_qr_scan", "ios": "https://dc.lft.to/lastmile_qr_scan"}, "fusion_lon": 0.0, "lat": 38.93192783333333, "bike_id": "fc06dfcd95f50ca566b3840d5b7b7b94", "type": "electric_scooter", "is_reserved": 0, "lon": -77.025059}, {"fusion_lat": 0.0, "name": "a64e473a64bc8d2a32872e7276584c39", "is_disabled": 0, "rental_uris": {"android": "https://dc.lft.to/lastmile_qr_scan", "ios": "https://dc.lft.to/lastmile_qr_scan"}, "fusion_lon": 0.0, "lat": 38.92336383333333, "bike_id": "a64e473a64bc8d2a32872e7276584c39", "type": "electric_scooter", "is_reserved": 0, "lon": -77.03777316666667}, {"fusion_lat": 0.0, "name": "239ad55bdfeccab5882b048505800d0f", "is_disabled": 0, "rental_uris": {"android": "https://dc.lft.to/lastmile_qr_scan", "ios": "https://dc.lft.to/lastmile_qr_scan"}, "fusion_lon": 0.0, "lat": 38.83865616666667, "bike_id": "239ad55bdfeccab5882b048505800d0f", "type": "electric_scooter", "is_reserved": 0, "lon": -76.9969805}, {"fusion_lat": 0.0, "name": "2dfa9babeb1dd12344e2b948b7bb2663", "is_disabled": 0, "rental_uris": {"android": "https://dc.lft.to/lastmile_qr_scan", "ios": "https://dc.lft.to/lastmile_qr_scan"}, "fusion_lon": 0.0, "lat": 38.923543, "bike_id": "2dfa9babeb1dd12344e2b948b7bb2663", "type": "electric_scooter", "is_reserved": 0, "lon": -77.01954316666667}, {"fusion_lat": 0.0, "name": "546aa74feb43d84925e03414a9c23d77", "is_disabled": 0, "rental_uris": {"android": "https://dc.lft.to/lastmile_qr_scan", "ios": "https://dc.lft.to/lastmile_qr_scan"}, "fusion_lon": 0.0, "lat": 38.898391, "bike_id": "546aa74feb43d84925e03414a9c23d77", "type": "electric_scooter", "is_reserved": 0, "lon": -77.0284935}, {"fusion_lat": 0.0, "name": "2fdd603ab1ec794bdc65980dddfad0ac", "is_disabled": 0, "rental_uris": {"android": "https://dc.lft.to/lastmile_qr_scan", "ios": "https://dc.lft.to/lastmile_qr_scan"}, "fusion_lon": 0.0, "lat": 38.90752633333334, "bike_id": "2fdd603ab1ec794bdc65980dddfad0ac", "type": "electric_scooter", "is_reserved": 0, "lon": -77.0322635}, {"fusion_lat": 0.0, "name": "15089cc7eda4d1b64b09aebc2a04598a", "is_disabled": 0, "rental_uris": {"android": "https://dc.lft.to/lastmile_qr_scan", "ios": "https://dc.lft.to/lastmile_qr_scan"}, "fusion_lon": 0.0, "lat": 38.942326, "bike_id": "15089cc7eda4d1b64b09aebc2a04598a", "type": "electric_scooter", "is_reserved": 0, "lon": -77.02329716666667}, {"fusion_lat": 0.0, "name": "f6df83eb1ce8f2808e53abccda67cbd5", "is_disabled": 0, "rental_uris": {"android": "https://dc.lft.to/lastmile_qr_scan", "ios": "https://dc.lft.to/lastmile_qr_scan"}, "fusion_lon": 0.0, "lat": 38.937998666666665, "bike_id": "f6df83eb1ce8f2808e53abccda67cbd5", "type": "electric_scooter", "is_reserved": 0, "lon": -77.06860866666666}, {"fusion_lat": 0.0, "name": "3a0e45d525ff106e9501cd55537dc057", "is_disabled": 0, "rental_uris": {"android": "https://dc.lft.to/lastmile_qr_scan", "ios": "https://dc.lft.to/lastmile_qr_scan"}, "fusion_lon": 0.0, "lat": 38.9014555, "bike_id": "3a0e45d525ff106e9501cd55537dc057", "type": "electric_scooter", "is_reserved": 0, "lon": -77.03314616666667}, {"fusion_lat": 0.0, "name": "0b4e4f02cbad42f712cd5880140b6479", "is_disabled": 0, "rental_uris": {"android": "https://dc.lft.to/lastmile_qr_scan", "ios": "https://dc.lft.to/lastmile_qr_scan"}, "fusion_lon": 0.0, "lat": 39.01078116666667, "bike_id": "0b4e4f02cbad42f712cd5880140b6479", "type": "electric_bike", "is_reserved": 0, "lon": -76.91063966666667}, {"fusion_lat": 0.0, "name": "a66c1b5bfef75a260880f56237d57692", "is_disabled": 0, "rental_uris": {"android": "https://dc.lft.to/lastmile_qr_scan", "ios": "https://dc.lft.to/lastmile_qr_scan"}, "fusion_lon": 0.0, "lat": 38.922021, "bike_id": "a66c1b5bfef75a260880f56237d57692", "type": "electric_scooter", "is_reserved": 0, "lon": -77.04127916666667}, {"fusion_lat": 0.0, "name": "38f9af241b201720a1799762350249e4", "is_disabled": 0, "rental_uris": {"android": "https://dc.lft.to/lastmile_qr_scan", "ios": "https://dc.lft.to/lastmile_qr_scan"}, "fusion_lon": 0.0, "lat": 38.89822483333333, "bike_id": "38f9af241b201720a1799762350249e4", "type": "electric_scooter", "is_reserved": 0, "lon": -77.02485616666667}, {"fusion_lat": 0.0, "name": "9cf019c2c3c48440810593227c14dc4e", "is_disabled": 0, "rental_uris": {"android": "https://dc.lft.to/lastmile_qr_scan", "ios": "https://dc.lft.to/lastmile_qr_scan"}, "fusion_lon": 0.0, "lat": 38.894716, "bike_id": "9cf019c2c3c48440810593227c14dc4e", "type": "electric_bike", "is_reserved": 0, "lon": -77.02324766666666}, {"fusion_lat": 0.0, "name": "49102796a90e5f4637e50d73cd41c520", "is_disabled": 0, "rental_uris": {"android": "https://dc.lft.to/lastmile_qr_scan", "ios": "https://dc.lft.to/lastmile_qr_scan"}, "fusion_lon": 0.0, "lat": 38.9241075, "bike_id": "49102796a90e5f4637e50d73cd41c520", "type": "electric_scooter", "is_reserved": 0, "lon": -77.02007783333333}, {"fusion_lat": 0.0, "name": "9f3d6e59909c83637eda0315acaa57ca", "is_disabled": 0, "rental_uris": {"android": "https://dc.lft.to/lastmile_qr_scan", "ios": "https://dc.lft.to/lastmile_qr_scan"}, "fusion_lon": 0.0, "lat": 38.916793, "bike_id": "9f3d6e59909c83637eda0315acaa57ca", "type": "electric_scooter", "is_reserved": 0, "lon": -77.02967216666667}, {"fusion_lat": 0.0, "name": "db573780a0180402df18e0047c600378", "is_disabled": 0, "rental_uris": {"android": "https://dc.lft.to/lastmile_qr_scan", "ios": "https://dc.lft.to/lastmile_qr_scan"}, "fusion_lon": 0.0, "lat": 38.9291815, "bike_id": "db573780a0180402df18e0047c600378", "type": "electric_scooter", "is_reserved": 0, "lon": -77.0262765}, {"fusion_lat": 0.0, "name": "478c03db128f9e87d7c52d395b240be8", "is_disabled": 0, "rental_uris": {"android": "https://dc.lft.to/lastmile_qr_scan", "ios": "https://dc.lft.to/lastmile_qr_scan"}, "fusion_lon": 0.0, "lat": 38.92844816666667, "bike_id": "478c03db128f9e87d7c52d395b240be8", "type": "electric_scooter", "is_reserved": 0, "lon": -76.9977235}, {"fusion_lat": 0.0, "name": "09900eadc7ae6e45a89f55234bf6face", "is_disabled": 0, "rental_uris": {"android": "https://dc.lft.to/lastmile_qr_scan", "ios": "https://dc.lft.to/lastmile_qr_scan"}, "fusion_lon": 0.0, "lat": 38.89971633333333, "bike_id": "09900eadc7ae6e45a89f55234bf6face", "type": "electric_scooter", "is_reserved": 0, "lon": -77.02923333333334}, {"fusion_lat": 0.0, "name": "e64144eab3bfe48ab3d5de919fad877b", "is_disabled": 0, "rental_uris": {"android": "https://dc.lft.to/lastmile_qr_scan", "ios": "https://dc.lft.to/lastmile_qr_scan"}, "fusion_lon": 0.0, "lat": 38.929153, "bike_id": "e64144eab3bfe48ab3d5de919fad877b", "type": "electric_scooter", "is_reserved": 0, "lon": -77.03747933333334}, {"fusion_lat": 0.0, "name": "ad798929a0cc528c475e4d92be080cc4", "is_disabled": 0, "rental_uris": {"android": "https://dc.lft.to/lastmile_qr_scan", "ios": "https://dc.lft.to/lastmile_qr_scan"}, "fusion_lon": 0.0, "lat": 38.918001333333336, "bike_id": "ad798929a0cc528c475e4d92be080cc4", "type": "electric_scooter", "is_reserved": 0, "lon": -77.032116}, {"fusion_lat": 0.0, "name": "3a3d1adf320d5c62f030c87f06acf152", "is_disabled": 0, "rental_uris": {"android": "https://dc.lft.to/lastmile_qr_scan", "ios": "https://dc.lft.to/lastmile_qr_scan"}, "fusion_lon": 0.0, "lat": 38.907211, "bike_id": "3a3d1adf320d5c62f030c87f06acf152", "type": "electric_scooter", "is_reserved": 0, "lon": -77.03378266666667}, {"fusion_lat": 0.0, "name": "5fdf83c66911d541a9e02a5dc84f4b5f", "is_disabled": 0, "rental_uris": {"android": "https://dc.lft.to/lastmile_qr_scan", "ios": "https://dc.lft.to/lastmile_qr_scan"}, "fusion_lon": 0.0, "lat": 38.9239705, "bike_id": "5fdf83c66911d541a9e02a5dc84f4b5f", "type": "electric_scooter", "is_reserved": 0, "lon": -77.02486033333334}, {"fusion_lat": 0.0, "name": "db5bc7998581da46a999490b36c9e84d", "is_disabled": 0, "rental_uris": {"android": "https://dc.lft.to/lastmile_qr_scan", "ios": "https://dc.lft.to/lastmile_qr_scan"}, "fusion_lon": 0.0, "lat": 38.909702333333335, "bike_id": "db5bc7998581da46a999490b36c9e84d", "type": "electric_scooter", "is_reserved": 0, "lon": -77.045444}, {"fusion_lat": 0.0, "name": "8bca050e2082ea07f5015975e77b7f86", "is_disabled": 0, "rental_uris": {"android": "https://dc.lft.to/lastmile_qr_scan", "ios": "https://dc.lft.to/lastmile_qr_scan"}, "fusion_lon": 0.0, "lat": 38.8644945, "bike_id": "8bca050e2082ea07f5015975e77b7f86", "type": "electric_bike", "is_reserved": 0, "lon": -77.10684933333333}, {"fusion_lat": 0.0, "name": "f077590c5d7149af0640b037b5558775", "is_disabled": 0, "rental_uris": {"android": "https://dc.lft.to/lastmile_qr_scan", "ios": "https://dc.lft.to/lastmile_qr_scan"}, "fusion_lon": 0.0, "lat": 38.9075435, "bike_id": "f077590c5d7149af0640b037b5558775", "type": "electric_scooter", "is_reserved": 0, "lon": -76.99871966666667}, {"fusion_lat": 0.0, "name": "59bc7fba18bc8d56dffcf30909ba1628", "is_disabled": 0, "rental_uris": {"android": "https://dc.lft.to/lastmile_qr_scan", "ios": "https://dc.lft.to/lastmile_qr_scan"}, "fusion_lon": 0.0, "lat": 38.91925633333334, "bike_id": "59bc7fba18bc8d56dffcf30909ba1628", "type": "electric_scooter", "is_reserved": 0, "lon": -77.0098495}, {"fusion_lat": 0.0, "name": "837b5b99aaf5a289fbc56914edd69c33", "is_disabled": 0, "rental_uris": {"android": "https://dc.lft.to/lastmile_qr_scan", "ios": "https://dc.lft.to/lastmile_qr_scan"}, "fusion_lon": 0.0, "lat": 38.902148, "bike_id": "837b5b99aaf5a289fbc56914edd69c33", "type": "electric_scooter", "is_reserved": 0, "lon": -77.0236705}, {"fusion_lat": 0.0, "name": "50872af66ca61dd34c64ccc2cb44c052", "is_disabled": 0, "rental_uris": {"android": "https://dc.lft.to/lastmile_qr_scan", "ios": "https://dc.lft.to/lastmile_qr_scan"}, "fusion_lon": 0.0, "lat": 38.88728533333333, "bike_id": "50872af66ca61dd34c64ccc2cb44c052", "type": "electric_scooter", "is_reserved": 0, "lon": -77.01766783333333}, {"fusion_lat": 0.0, "name": "1a3fc75144e68bfffa48d13940004cee", "is_disabled": 0, "rental_uris": {"android": "https://dc.lft.to/lastmile_qr_scan", "ios": "https://dc.lft.to/lastmile_qr_scan"}, "fusion_lon": 0.0, "lat": 38.917989166666665, "bike_id": "1a3fc75144e68bfffa48d13940004cee", "type": "electric_scooter", "is_reserved": 0, "lon": -77.03212366666666}, {"fusion_lat": 0.0, "name": "49ff159cade39a9a08882b2d3b19be86", "is_disabled": 0, "rental_uris": {"android": "https://dc.lft.to/lastmile_qr_scan", "ios": "https://dc.lft.to/lastmile_qr_scan"}, "fusion_lon": 0.0, "lat": 38.8730455, "bike_id": "49ff159cade39a9a08882b2d3b19be86", "type": "electric_scooter", "is_reserved": 0, "lon": -77.00050583333334}, {"fusion_lat": 0.0, "name": "03f3d65bea7cb1b7febfdf9d417de134", "is_disabled": 0, "rental_uris": {"android": "https://dc.lft.to/lastmile_qr_scan", "ios": "https://dc.lft.to/lastmile_qr_scan"}, "fusion_lon": 0.0, "lat": 38.8971455, "bike_id": "03f3d65bea7cb1b7febfdf9d417de134", "type": "electric_scooter", "is_reserved": 0, "lon": -77.023345}, {"fusion_lat": 0.0, "name": "4c95268bc74d262eb1c3a0dfbcbe3174", "is_disabled": 0, "rental_uris": {"android": "https://dc.lft.to/lastmile_qr_scan", "ios": "https://dc.lft.to/lastmile_qr_scan"}, "fusion_lon": 0.0, "lat": 38.88665683333333, "bike_id": "4c95268bc74d262eb1c3a0dfbcbe3174", "type": "electric_scooter", "is_reserved": 0, "lon": -77.02825}, {"fusion_lat": 0.0, "name": "5610be02f859f2dae0fc1b5439d9cb46", "is_disabled": 0, "rental_uris": {"android": "https://dc.lft.to/lastmile_qr_scan", "ios": "https://dc.lft.to/lastmile_qr_scan"}, "fusion_lon": 0.0, "lat": 38.876406833333334, "bike_id": "5610be02f859f2dae0fc1b5439d9cb46", "type": "electric_scooter", "is_reserved": 0, "lon": -77.00630433333333}, {"fusion_lat": 0.0, "name": "d1baf934cf7228c8aa5100a7361d9fcc", "is_disabled": 0, "rental_uris": {"android": "https://dc.lft.to/lastmile_qr_scan", "ios": "https://dc.lft.to/lastmile_qr_scan"}, "fusion_lon": 0.0, "lat": 38.920189, "bike_id": "d1baf934cf7228c8aa5100a7361d9fcc", "type": "electric_scooter", "is_reserved": 0, "lon": -77.03124816666667}, {"fusion_lat": 0.0, "name": "d1f8772a74e0db6826f1a7e1de185714", "is_disabled": 0, "rental_uris": {"android": "https://dc.lft.to/lastmile_qr_scan", "ios": "https://dc.lft.to/lastmile_qr_scan"}, "fusion_lon": 0.0, "lat": 38.9003735, "bike_id": "d1f8772a74e0db6826f1a7e1de185714", "type": "electric_bike", "is_reserved": 0, "lon": -76.99146016666667}, {"fusion_lat": 0.0, "name": "1d8bcec177d22a538f5e1084b4d667d7", "is_disabled": 0, "rental_uris": {"android": "https://dc.lft.to/lastmile_qr_scan", "ios": "https://dc.lft.to/lastmile_qr_scan"}, "fusion_lon": 0.0, "lat": 38.92152633333333, "bike_id": "1d8bcec177d22a538f5e1084b4d667d7", "type": "electric_scooter", "is_reserved": 0, "lon": -77.03871983333333}, {"fusion_lat": 0.0, "name": "da62925ad441ea071f44e7781cd65a3b", "is_disabled": 0, "rental_uris": {"android": "https://dc.lft.to/lastmile_qr_scan", "ios": "https://dc.lft.to/lastmile_qr_scan"}, "fusion_lon": 0.0, "lat": 38.86626666666667, "bike_id": "da62925ad441ea071f44e7781cd65a3b", "type": "electric_scooter", "is_reserved": 0, "lon": -76.98719333333334}, {"fusion_lat": 0.0, "name": "f34cc9be0cfc7dcb19dde38615272a4e", "is_disabled": 0, "rental_uris": {"android": "https://dc.lft.to/lastmile_qr_scan", "ios": "https://dc.lft.to/lastmile_qr_scan"}, "fusion_lon": 0.0, "lat": 38.904267, "bike_id": "f34cc9be0cfc7dcb19dde38615272a4e", "type": "electric_scooter", "is_reserved": 0, "lon": -77.05005383333334}, {"fusion_lat": 0.0, "name": "f19aa8409d4a83852233ac1847c215ca", "is_disabled": 0, "rental_uris": {"android": "https://dc.lft.to/lastmile_qr_scan", "ios": "https://dc.lft.to/lastmile_qr_scan"}, "fusion_lon": 0.0, "lat": 38.94958033333333, "bike_id": "f19aa8409d4a83852233ac1847c215ca", "type": "electric_scooter", "is_reserved": 0, "lon": -77.066511}, {"fusion_lat": 0.0, "name": "761fbd8a9f20d60890974fc32c98934c", "is_disabled": 0, "rental_uris": {"android": "https://dc.lft.to/lastmile_qr_scan", "ios": "https://dc.lft.to/lastmile_qr_scan"}, "fusion_lon": 0.0, "lat": 38.95627133333333, "bike_id": "761fbd8a9f20d60890974fc32c98934c", "type": "electric_scooter", "is_reserved": 0, "lon": -77.03279683333334}, {"fusion_lat": 0.0, "name": "15b620e5b6f764690bd1ed50ec4d3964", "is_disabled": 0, "rental_uris": {"android": "https://dc.lft.to/lastmile_qr_scan", "ios": "https://dc.lft.to/lastmile_qr_scan"}, "fusion_lon": 0.0, "lat": 38.907176666666665, "bike_id": "15b620e5b6f764690bd1ed50ec4d3964", "type": "electric_scooter", "is_reserved": 0, "lon": -77.068977}, {"fusion_lat": 0.0, "name": "24108c277164d6c816e0b1af3c3d137d", "is_disabled": 0, "rental_uris": {"android": "https://dc.lft.to/lastmile_qr_scan", "ios": "https://dc.lft.to/lastmile_qr_scan"}, "fusion_lon": 0.0, "lat": 38.81991766666667, "bike_id": "24108c277164d6c816e0b1af3c3d137d", "type": "electric_bike", "is_reserved": 0, "lon": -76.9976475}, {"fusion_lat": 0.0, "name": "6f1372a5a357e98c69ca897ebad1b416", "is_disabled": 0, "rental_uris": {"android": "https://dc.lft.to/lastmile_qr_scan", "ios": "https://dc.lft.to/lastmile_qr_scan"}, "fusion_lon": 0.0, "lat": 38.950608333333335, "bike_id": "6f1372a5a357e98c69ca897ebad1b416", "type": "electric_scooter", "is_reserved": 0, "lon": -77.0802785}, {"fusion_lat": 0.0, "name": "327e0d6303a6a77724ca7ddf3e712af3", "is_disabled": 0, "rental_uris": {"android": "https://dc.lft.to/lastmile_qr_scan", "ios": "https://dc.lft.to/lastmile_qr_scan"}, "fusion_lon": 0.0, "lat": 38.915525, "bike_id": "327e0d6303a6a77724ca7ddf3e712af3", "type": "electric_scooter", "is_reserved": 0, "lon": -77.034763}, {"fusion_lat": 0.0, "name": "c4a8998526c65c6cf1e59785130b43f1", "is_disabled": 0, "rental_uris": {"android": "https://dc.lft.to/lastmile_qr_scan", "ios": "https://dc.lft.to/lastmile_qr_scan"}, "fusion_lon": 0.0, "lat": 38.8881115, "bike_id": "c4a8998526c65c6cf1e59785130b43f1", "type": "electric_scooter", "is_reserved": 0, "lon": -76.98354883333333}, {"fusion_lat": 0.0, "name": "5f3e6ea64e3ed3aa747baa7cc913145c", "is_disabled": 0, "rental_uris": {"android": "https://dc.lft.to/lastmile_qr_scan", "ios": "https://dc.lft.to/lastmile_qr_scan"}, "fusion_lon": 0.0, "lat": 38.925483166666666, "bike_id": "5f3e6ea64e3ed3aa747baa7cc913145c", "type": "electric_scooter", "is_reserved": 0, "lon": -76.98305}, {"fusion_lat": 0.0, "name": "217c5dfe61c770973652a2fdb5badad1", "is_disabled": 0, "rental_uris": {"android": "https://dc.lft.to/lastmile_qr_scan", "ios": "https://dc.lft.to/lastmile_qr_scan"}, "fusion_lon": 0.0, "lat": 38.91267916666666, "bike_id": "217c5dfe61c770973652a2fdb5badad1", "type": "electric_scooter", "is_reserved": 0, "lon": -77.0314215}, {"fusion_lat": 0.0, "name": "826244a5b7f5c9d941b26970f78a04e6", "is_disabled": 0, "rental_uris": {"android": "https://dc.lft.to/lastmile_qr_scan", "ios": "https://dc.lft.to/lastmile_qr_scan"}, "fusion_lon": 0.0, "lat": 38.9134445, "bike_id": "826244a5b7f5c9d941b26970f78a04e6", "type": "electric_bike", "is_reserved": 0, "lon": -76.98891266666666}, {"fusion_lat": 0.0, "name": "7c0332f9adf05f039ac888d92dfe485a", "is_disabled": 0, "rental_uris": {"android": "https://dc.lft.to/lastmile_qr_scan", "ios": "https://dc.lft.to/lastmile_qr_scan"}, "fusion_lon": 0.0, "lat": 38.919827, "bike_id": "7c0332f9adf05f039ac888d92dfe485a", "type": "electric_scooter", "is_reserved": 0, "lon": -77.02323183333333}, {"fusion_lat": 0.0, "name": "4b176cba216ec60d8fb2b241f68c0d96", "is_disabled": 0, "rental_uris": {"android": "https://dc.lft.to/lastmile_qr_scan", "ios": "https://dc.lft.to/lastmile_qr_scan"}, "fusion_lon": 0.0, "lat": 38.91555916666667, "bike_id": "4b176cba216ec60d8fb2b241f68c0d96", "type": "electric_scooter", "is_reserved": 0, "lon": -77.02042916666667}, {"fusion_lat": 0.0, "name": "caae4c681208e3548d4d4317e96677d0", "is_disabled": 0, "rental_uris": {"android": "https://dc.lft.to/lastmile_qr_scan", "ios": "https://dc.lft.to/lastmile_qr_scan"}, "fusion_lon": 0.0, "lat": 38.9268065, "bike_id": "caae4c681208e3548d4d4317e96677d0", "type": "electric_scooter", "is_reserved": 0, "lon": -77.03142816666667}, {"fusion_lat": 0.0, "name": "98ea83c0ca328a0a153aa48a53e16a0e", "is_disabled": 0, "rental_uris": {"android": "https://dc.lft.to/lastmile_qr_scan", "ios": "https://dc.lft.to/lastmile_qr_scan"}, "fusion_lon": 0.0, "lat": 38.904178, "bike_id": "98ea83c0ca328a0a153aa48a53e16a0e", "type": "electric_scooter", "is_reserved": 0, "lon": -77.03846833333333}, {"fusion_lat": 0.0, "name": "3c3af5d34fdf5aa63bc8c9a74c903141", "is_disabled": 0, "rental_uris": {"android": "https://dc.lft.to/lastmile_qr_scan", "ios": "https://dc.lft.to/lastmile_qr_scan"}, "fusion_lon": 0.0, "lat": 38.91663966666667, "bike_id": "3c3af5d34fdf5aa63bc8c9a74c903141", "type": "electric_scooter", "is_reserved": 0, "lon": -77.03846}, {"fusion_lat": 0.0, "name": "844a43bdf9fa353a5ab771b5e6ad5cdf", "is_disabled": 0, "rental_uris": {"android": "https://dc.lft.to/lastmile_qr_scan", "ios": "https://dc.lft.to/lastmile_qr_scan"}, "fusion_lon": 0.0, "lat": 38.901103666666664, "bike_id": "844a43bdf9fa353a5ab771b5e6ad5cdf", "type": "electric_scooter", "is_reserved": 0, "lon": -77.03850883333334}, {"fusion_lat": 0.0, "name": "93e7d23354ef341f76dbd14a6719ec5f", "is_disabled": 0, "rental_uris": {"android": "https://dc.lft.to/lastmile_qr_scan", "ios": "https://dc.lft.to/lastmile_qr_scan"}, "fusion_lon": 0.0, "lat": 38.866365333333334, "bike_id": "93e7d23354ef341f76dbd14a6719ec5f", "type": "electric_scooter", "is_reserved": 0, "lon": -76.98303683333333},