{"data": {"bikes": [{"is_disabled": 0, "is_reserved": 0, "type": "electric_scooter", "lon": -77.02160866666667, "fusion_lon": 0.0, "lat": 38.926126833333335, "rental_uris": {"android": "https://dc.lft.to/lastmile_qr_scan", "ios": "https://dc.lft.to/lastmile_qr_scan"}, "fusion_lat": 0.0, "name": "841b4f558ff4e7befd69824f0b5394eb", "bike_id": "841b4f558ff4e7befd69824f0b5394eb"}, {"is_disabled": 0, "is_reserved": 0, "type": "electric_scooter", "lon": -77.00589533333333, "fusion_lon": 0.0, "lat": 38.927555, "rental_uris": {"android": "https://dc.lft.to/lastmile_qr_scan", "ios": "https://dc.lft.to/lastmile_qr_scan"}, "fusion_lat": 0.0, "name": "22b3ced08d567c0d20c6ea9f7232b3bc", "bike_id": "22b3ced08d567c0d20c6ea9f7232b3bc"}, {"is_disabled": 0, "is_reserved": 0, "type": "electric_scooter", "lon": -77.03441966666666, "fusion_lon": 0.0, "lat": 38.918066833333334, "rental_uris": {"android": "https://dc.lft.to/lastmile_qr_scan", "ios": "https://dc.lft.to/lastmile_qr_scan"}, "fusion_lat": 0.0, "name": "1404b6eb88133fc02dffacb5b1ff2771", "bike_id": "1404b6eb88133fc02dffacb5b1ff2771"}, {"is_disabled": 0, "is_reserved": 0, "type": "electric_scooter", "lon": -76.980736, "fusion_lon": 0.0, "lat": 38.919367, "rental_uris": {"android": "https://dc.lft.to/lastmile_qr_scan", "ios": "https://dc.lft.to/lastmile_qr_scan"}, "fusion_lat": 0.0, "name": "e99707b080054e5feb14b76e18979a50", "bike_id": "e99707b080054e5feb14b76e18979a50"}, {"is_disabled": 0, "is_reserved": 0, "type": "electric_scooter", "lon": -76.9912105, "fusion_lon": 0.0, "lat": 38.901397, "rental_uris": {"android": "https://dc.lft.to/lastmile_qr_scan", "ios": "https://dc.lft.to/lastmile_qr_scan"}, "fusion_lat": 0.0, "name": "9faea1f36f9b7f82eba271f0746335db", "bike_id": "9faea1f36f9b7f82eba271f0746335db"}, {"is_disabled": 0, "is_reserved": 0, "type": "electric_scooter", "lon": -77.0074355, "fusion_lon": 0.0, "lat": 38.87656066666667, "rental_uris": {"android": "https://dc.lft.to/lastmile_qr_scan", "ios": "https://dc.lft.to/lastmile_qr_scan"}, "fusion_lat": 0.0, "name": "caebca397f2f9fa27255a8ac02dab00b", "bike_id": "caebca397f2f9fa27255a8ac02dab00b"}, {"is_disabled": 0, "is_reserved": 0, "type": "electric_scooter", "lon": -77.03769283333334, "fusion_lon": 0.0, "lat": 38.91689566666667, "rental_uris": {"android": "https://dc.lft.to/lastmile_qr_scan", "ios": "https://dc.lft.to/lastmile_qr_scan"}, "fusion_lat": 0.0, "name": "eb1bbbd928a75e0f72f560c1795b69af", "bike_id": "eb1bbbd928a75e0f72f560c1795b69af"}, {"is_disabled": 0, "is_reserved": 0, "type": "electric_scooter", "lon": -77.04359633333333, "fusion_lon": 0.0, "lat": 38.911195166666666, "rental_uris": {"android": "https://dc.lft.to/lastmile_qr_scan", "ios": "https://dc.lft.to/lastmile_qr_scan"}, "fusion_lat": 0.0, "name": "1271d01d0cb5c9c99648b63609cfc5f0", "bike_id": "1271d01d0cb5c9c99648b63609cfc5f0"}, {"is_disabled": 0, "is_reserved": 0, "type": "electric_scooter", "lon": -77.01876483333334, "fusion_lon": 0.0, "lat": 38.914838833333334, "rental_uris": {"android": "https://dc.lft.to/lastmile_qr_scan", "ios": "https://dc.lft.to/lastmile_qr_scan"}, "fusion_lat": 0.0, "name": "b7cce4d22fdabcb314e61aded199e5cc", "bike_id": "b7cce4d22fdabcb314e61aded199e5cc"}, {"is_disabled": 0, "is_reserved": 0, "type": "electric_scooter", "lon": -77.0411615, "fusion_lon": 0.0, "lat": 38.905801833333335, "rental_uris": {"android": "https://dc.lft.to/lastmile_qr_scan", "ios": "https://dc.lft.to/lastmile_qr_scan"}, "fusion_lat": 0.0, "name": "29c3dadbaeedde36e00a5f3365c0f411", "bike_id": "29c3dadbaeedde36e00a5f3365c0f411"}, {"is_disabled": 0, "is_reserved": 0, "type": "electric_scooter", "lon": -77.03248616666667, "fusion_lon": 0.0, "lat": 38.9209745, "rental_uris": {"android": "https://dc.lft.to/lastmile_qr_scan", "ios": "https://dc.lft.to/lastmile_qr_scan"}, "fusion_lat": 0.0, "name": "854ae8f7a09afe05e2af5c219edcfffc", "bike_id": "854ae8f7a09afe05e2af5c219edcfffc"}, {"is_disabled": 0, "is_reserved": 0, "type": "electric_scooter", "lon": -77.02650116666666, "fusion_lon": 0.0, "lat": 38.938629, "rental_uris": {"android": "https://dc.lft.to/lastmile_qr_scan", "ios": "https://dc.lft.to/lastmile_qr_scan"}, "fusion_lat": 0.0, "name": "b633d93971306785c73e775c21aa7692", "bike_id": "b633d93971306785c73e775c21aa7692"}, {"is_disabled": 0, "is_reserved": 0, "type": "electric_scooter", "lon": -76.97221516666667, "fusion_lon": 0.0, "lat": 38.89800283333334, "rental_uris": {"android": "https://dc.lft.to/lastmile_qr_scan", "ios": "https://dc.lft.to/lastmile_qr_scan"}, "fusion_lat": 0.0, "name": "c89ebd95959f7d3084f0b9f2c37a3cd7", "bike_id": "c89ebd95959f7d3084f0b9f2c37a3cd7"}, {"is_disabled": 0, "is_reserved": 0, "type": "electric_scooter", "lon": -77.01379916666667, "fusion_lon": 0.0, "lat": 38.8708225, "rental_uris": {"android": "https://dc.lft.to/lastmile_qr_scan", "ios": "https://dc.lft.to/lastmile_qr_scan"}, "fusion_lat": 0.0, "name": "d83653f9b071778091232afedc651d58", "bike_id": "d83653f9b071778091232afedc651d58"}, {"is_disabled": 0, "is_reserved": 0, "type": "electric_bike", "lon": -76.93206816666667, "fusion_lon": 0.0, "lat": 38.87237233333333, "rental_uris": {"android": "https://dc.lft.to/lastmile_qr_scan", "ios": "https://dc.lft.to/lastmile_qr_scan"}, "fusion_lat": 0.0, "name": "f708213e0023869aca53b387135cbb31", "bike_id": "f708213e0023869aca53b387135cbb31"}, {"is_disabled": 0, "is_reserved": 0, "type": "electric_scooter", "lon": -77.09444033333334, "fusion_lon": 0.0, "lat": 38.91783483333333, "rental_uris": {"android": "https://dc.lft.to/lastmile_qr_scan", "ios": "https://dc.lft.to/lastmile_qr_scan"}, "fusion_lat": 0.0, "name": "2fd32cd27eb3c0a47a350a50ac60b4f3", "bike_id": "2fd32cd27eb3c0a47a350a50ac60b4f3"}, {"is_disabled": 0, "is_reserved": 0, "type": "electric_scooter", "lon": -77.00308133333333, "fusion_lon": 0.0, "lat": 38.892225333333336, "rental_uris": {"android": "https://dc.lft.to/lastmile_qr_scan", "ios": "https://dc.lft.to/lastmile_qr_scan"}, "fusion_lat": 0.0, "name": "827858210b4fda5c0d5c9f96e6d9ebee", "bike_id": "827858210b4fda5c0d5c9f96e6d9ebee"}, {"is_disabled": 0, "is_reserved": 0, "type": "electric_scooter", "lon": -77.04160566666667, "fusion_lon": 0.0, "lat": 38.92327433333333, "rental_uris": {"android": "https://dc.lft.to/lastmile_qr_scan", "ios": "https://dc.lft.to/lastmile_qr_scan"}, "fusion_lat": 0.0, "name": "9a34f8557ebb98d4527f2a1a3b479a83", "bike_id": "9a34f8557ebb98d4527f2a1a3b479a83"}, {"is_disabled": 0, "is_reserved": 0, "type": "electric_scooter", "lon": -77.00443416666667, "fusion_lon": 0.0, "lat": 38.907288, "rental_uris": {"android": "https://dc.lft.to/lastmile_qr_scan", "ios": "https://dc.lft.to/lastmile_qr_scan"}, "fusion_lat": 0.0, "name": "a5eb1b0dae7b046590980d622fe5e946", "bike_id": "a5eb1b0dae7b046590980d622fe5e946"}, {"is_disabled": 0, "is_reserved": 0, "type": "electric_scooter", "lon": -76.9830985, "fusion_lon": 0.0, "lat": 38.90376916666666, "rental_uris": {"android": "https://dc.lft.to/lastmile_qr_scan", "ios": "https://dc.lft.to/lastmile_qr_scan"}, "fusion_lat": 0.0, "name": "6a9ba7c83ef3d7a614b305cabe3c67ba", "bike_id": "6a9ba7c83ef3d7a614b305cabe3c67ba"}, {"is_disabled": 0, "is_reserved": 0, "type": "electric_scooter", "lon": -76.94943166666667, "fusion_lon": 0.0, "lat": 38.883217333333334, "rental_uris": {"android": "https://dc.lft.to/lastmile_qr_scan", "ios": "https://dc.lft.to/lastmile_qr_scan"}, "fusion_lat": 0.0, "name": "3a214622a2a6e3a99cb309f39f9efc15", "bike_id": "3a214622a2a6e3a99cb309f39f9efc15"}, {"is_disabled": 0, "is_reserved": 0, "type": "electric_scooter", "lon": -77.039117, "fusion_lon": 0.0, "lat": 38.922568166666665, "rental_uris": {"android": "https://dc.lft.to/lastmile_qr_scan", "ios": "https://dc.lft.to/lastmile_qr_scan"}, "fusion_lat": 0.0, "name": "f49c24a23346b38560ae7b7c62185e4b", "bike_id": "f49c24a23346b38560ae7b7c62185e4b"}, {"is_disabled": 0, "is_reserved": 0, "type": "electric_scooter", "lon": -77.03223066666666, "fusion_lon": 0.0, "lat": 38.90745366666667, "rental_uris": {"android": "https://dc.lft.to/lastmile_qr_scan", "ios": "https://dc.lft.to/lastmile_qr_scan"}, "fusion_lat": 0.0, "name": "d85b64ee4ed2b0247cfd1df767f7ca0a", "bike_id": "d85b64ee4ed2b0247cfd1df767f7ca0a"}, {"is_disabled": 0, "is_reserved": 0, "type": "electric_scooter", "lon": -77.04044783333333, "fusion_lon": 0.0, "lat": 38.904563333333336, "rental_uris": {"android": "https://dc.lft.to/lastmile_qr_scan", "ios": "https://dc.lft.to/lastmile_qr_scan"}, "fusion_lat": 0.0, "name": "9774aee6e5902b5a7b8cb7b9bf20d721", "bike_id": "9774aee6e5902b5a7b8cb7b9bf20d721"}, {"is_disabled": 0, "is_reserved": 0, "type": "electric_scooter", "lon": -77.02419866666666, "fusion_lon": 0.0, "lat": 38.893593333333335, "rental_uris": {"android": "https://dc.lft.to/lastmile_qr_scan", "ios": "https://dc.lft.to/lastmile_qr_scan"}, "fusion_lat": 0.0, "name": "d471fe151abedeba41d98159af1fe35e", "bike_id": "d471fe151abedeba41d98159af1fe35e"}, {"is_disabled": 0, "is_reserved": 0, "type": "electric_scooter", "lon": -77.0395005, "fusion_lon": 0.0, "lat": 38.900756333333334, "rental_uris": {"android": "https://dc.lft.to/lastmile_qr_scan", "ios": "https://dc.lft.to/lastmile_qr_scan"}, "fusion_lat": 0.0, "name": "d451879eef3c4797be0763a91607928b", "bike_id": "d451879eef3c4797be0763a91607928b"}, {"is_disabled": 0, "is_reserved": 0, "type": "electric_scooter", "lon": -76.93753466666666, "fusion_lon": 0.0, "lat": 38.890338, "rental_uris": {"android": "https://dc.lft.to/lastmile_qr_scan", "ios": "https://dc.lft.to/lastmile_qr_scan"}, "fusion_lat": 0.0, "name": "74270e1062db7764b25f793b2c3b96ab", "bike_id": "74270e1062db7764b25f793b2c3b96ab"}, {"is_disabled": 0, "is_reserved": 0, "type": "electric_scooter", "lon": -77.02758583333333, "fusion_lon": 0.0, "lat": 38.901428333333335, "rental_uris": {"android": "https://dc.lft.to/lastmile_qr_scan", "ios": "https://dc.lft.to/lastmile_qr_scan"}, "fusion_lat": 0.0, "name": "33a2da41ba6e80c12f25391457a022b0", "bike_id": "33a2da41ba6e80c12f25391457a022b0"}, {"is_disabled": 0, "is_reserved": 0, "type": "electric_scooter", "lon": -77.04598766666666, "fusion_lon": 0.0, "lat": 38.89612916666667, "rental_uris": {"android": "https://dc.lft.to/lastmile_qr_scan", "ios": "https://dc.lft.to/lastmile_qr_scan"}, "fusion_lat": 0.0, "name": "59394888c7f95564fb8bb464066d9f8a", "bike_id": "59394888c7f95564fb8bb464066d9f8a"}, {"is_disabled": 0, "is_reserved": 0, "type": "electric_scooter", "lon": -77.03149933333333, "fusion_lon": 0.0, "lat": 38.906283, "rental_uris": {"android": "https://dc.lft.to/lastmile_qr_scan", "ios": "https://dc.lft.to/lastmile_qr_scan"}, "fusion_lat": 0.0, "name": "f32823c481ba7cecb36d16630b097b8e", "bike_id": "f32823c481ba7cecb36d16630b097b8e"}, {"is_disabled": 0, "is_reserved": 0, "type": "electric_bike", "lon": -77.11219416666667, "fusion_lon": 0.0, "lat": 38.82876516666666, "rental_uris": {"android": "https://dc.lft.to/lastmile_qr_scan", "ios": "https://dc.lft.to/lastmile_qr_scan"}, "fusion_lat": 0.0, "name": "5894dbe23b5faec209cc0466b55f5b49", "bike_id": "5894dbe23b5faec209cc0466b55f5b49"}, {"is_disabled": 0, "is_reserved": 0, "type": "electric_scooter", "lon": -77.02792533333333, "fusion_lon": 0.0, "lat": 38.8971755, "rental_uris": {"android": "https://dc.lft.to/lastmile_qr_scan", "ios": "https://dc.lft.to/lastmile_qr_scan"}, "fusion_lat": 0.0, "name": "e51adc4ddae49a5d96d0f31c91e88193", "bike_id": "e51adc4ddae49a5d96d0f31c91e88193"}, {"is_disabled": 0, "is_reserved": 0, "type": "electric_scooter", "lon": -77.04334283333333, "fusion_lon": 0.0, "lat": 38.903492, "rental_uris": {"android": "https://dc.lft.to/lastmile_qr_scan", "ios": "https://dc.lft.to/lastmile_qr_scan"}, "fusion_lat": 0.0, "name": "300b421c12fe7c22f83d7716e4c47219", "bike_id": "300b421c12fe7c22f83d7716e4c47219"}, {"is_disabled": 0, "is_reserved": 0, "type": "electric_scooter", "lon": -77.03189416666666, "fusion_lon": 0.0, "lat": 38.907698833333335, "rental_uris": {"android": "https://dc.lft.to/lastmile_qr_scan", "ios": "https://dc.lft.to/lastmile_qr_scan"}, "fusion_lat": 0.0, "name": "ae606c61d015067b26e5d32c23a3ac84", "bike_id": "ae606c61d015067b26e5d32c23a3ac84"}, {"is_disabled": 0, "is_reserved": 0, "type": "electric_scooter", "lon": -77.02472, "fusion_lon": 0.0, "lat": 38.920481833333334, "rental_uris": {"android": "https://dc.lft.to/lastmile_qr_scan", "ios": "https://dc.lft.to/lastmile_qr_scan"}, "fusion_lat": 0.0, "name": "8a5822f393bdf2cc73d070b441e0ff42", "bike_id": "8a5822f393bdf2cc73d070b441e0ff42"}, {"is_disabled": 0, "is_reserved": 0, "type": "electric_bike", "lon": -76.87496066666667, "fusion_lon": 0.0, "lat": 38.9909035, "rental_uris": {"android": "https://dc.lft.to/lastmile_qr_scan", "ios": "https://dc.lft.to/lastmile_qr_scan"}, "fusion_lat": 0.0, "name": "d2c5a94fe8a7d9c3a4eea8d0b2f31437", "bike_id": "d2c5a94fe8a7d9c3a4eea8d0b2f31437"}, {"is_disabled": 0, "is_reserved": 0, "type": "electric_scooter", "lon": -77.02856066666666, "fusion_lon": 0.0, "lat": 38.9013655, "rental_uris": {"android": "https://dc.lft.to/lastmile_qr_scan", "ios": "https://dc.lft.to/lastmile_qr_scan"}, "fusion_lat": 0.0, "name": "fd7483172f7ac74bd72473542e5efed0", "bike_id": "fd7483172f7ac74bd72473542e5efed0"}, {"is_disabled": 0, "is_reserved": 0, "type": "electric_scooter", "lon": -77.0010075, "fusion_lon": 0.0, "lat": 38.900234166666664, "rental_uris": {"android": "https://dc.lft.to/lastmile_qr_scan", "ios": "https://dc.lft.to/lastmile_qr_scan"}, "fusion_lat": 0.0, "name": "ae93567f1f15181a5f705f23c5bc4f3a", "bike_id": "ae93567f1f15181a5f705f23c5bc4f3a"}, {"is_disabled": 0, "is_reserved": 0, "type": "electric_scooter", "lon": -77.0339795, "fusion_lon": 0.0, "lat": 38.91963416666667, "rental_uris": {"android": "https://dc.lft.to/lastmile_qr_scan", "ios": "https://dc.lft.to/lastmile_qr_scan"}, "fusion_lat": 0.0, "name": "938b5152957e5807f3b623829fc69afc", "bike_id": "938b5152957e5807f3b623829fc69afc"}, {"is_disabled": 0, "is_reserved": 0, "type": "electric_scooter", "lon": -77.02403166666667, "fusion_lon": 0.0, "lat": 38.916820666666666, "rental_uris": {"android": "https://dc.lft.to/lastmile_qr_scan", "ios": "https://dc.lft.to/lastmile_qr_scan"}, "fusion_lat": 0.0, "name": "a31fc8b968de54ffee6aa2fa2d765c3d", "bike_id": "a31fc8b968de54ffee6aa2fa2d765c3d"}, {"is_disabled": 0, "is_reserved": 0, "type": "electric_scooter", "lon": -77.02961483333333, "fusion_lon": 0.0, "lat": 38.89840433333333, "rental_uris": {"android": "https://dc.lft.to/lastmile_qr_scan", "ios": "https://dc.lft.to/lastmile_qr_scan"}, "fusion_lat": 0.0, "name": "9234062314dbf98ec28b67a1773114b3", "bike_id": "9234062314dbf98ec28b67a1773114b3"}, {"is_disabled": 0, "is_reserved": 0, "type": "electric_scooter", "lon": -77.010138, "fusion_lon": 0.0, "lat": 38.879642, "rental_uris": {"android": "https://dc.lft.to/lastmile_qr_scan", "ios": "https://dc.lft.to/lastmile_qr_scan"}, "fusion_lat": 0.0, "name": "037d9dc69d090a82f9f299bbdd3d548e", "bike_id": "037d9dc69d090a82f9f299bbdd3d548e"}, {"is_disabled": 0, "is_reserved": 0, "type": "electric_bike", "lon": -77.07901533333333, "fusion_lon": 0.0, "lat": 38.83937816666667, "rental_uris": {"android": "https://dc.lft.to/lastmile_qr_scan", "ios": "https://dc.lft.to/lastmile_qr_scan"}, "fusion_lat": 0.0, "name": "ba2fbcf7e865429a7565bc593a9226ab", "bike_id": "ba2fbcf7e865429a7565bc593a9226ab"}, {"is_disabled": 0, "is_reserved": 0, "type": "electric_scooter", "lon": -77.07253883333334, "fusion_lon": 0.0, "lat": 38.939454, "rental_uris": {"android": "https://dc.lft.to/lastmile_qr_scan", "ios": "https://dc.lft.to/lastmile_qr_scan"}, "fusion_lat": 0.0, "name": "ddee93a8540be82a1d414e30127e2c54", "bike_id": "ddee93a8540be82a1d414e30127e2c54"}, {"is_disabled": 0, "is_reserved": 0, "type": "electric_bike", "lon": -77.06173233333334, "fusion_lon": 0.0, "lat": 38.812713333333335, "rental_uris": {"android": "https://dc.lft.to/lastmile_qr_scan", "ios": "https://dc.lft.to/lastmile_qr_scan"}, "fusion_lat": 0.0, "name": "eba500cc9ffc0c67ad84e1589155fcb1", "bike_id": "eba500cc9ffc0c67ad84e1589155fcb1"}, {"is_disabled": 0, "is_reserved": 0, "type": "electric_scooter", "lon": -77.0467615, "fusion_lon": 0.0, "lat": 38.90742483333333, "rental_uris": {"android": "https://dc.lft.to/lastmile_qr_scan", "ios": "https://dc.lft.to/lastmile_qr_scan"}, "fusion_lat": 0.0, "name": "7c420612c7ee90e997b85723b0c3be34", "bike_id": "7c420612c7ee90e997b85723b0c3be34"}, {"is_disabled": 0, "is_reserved": 0, "type": "electric_scooter", "lon": -77.04855816666667, "fusion_lon": 0.0, "lat": 38.900744333333336, "rental_uris": {"android": "https://dc.lft.to/lastmile_qr_scan", "ios": "https://dc.lft.to/lastmile_qr_scan"}, "fusion_lat": 0.0, "name": "866b8a6c76705256f446cc536474f444", "bike_id": "866b8a6c76705256f446cc536474f444"}, {"is_disabled": 0, "is_reserved": 0, "type": "electric_scooter", "lon": -77.033486, "fusion_lon": 0.0, "lat": 38.8957405, "rental_uris": {"android": "https://dc.lft.to/lastmile_qr_scan", "ios": "https://dc.lft.to/lastmile_qr_scan"}, "fusion_lat": 0.0, "name": "870383f8477691b8fdd9790d7f6284a4", "bike_id": "870383f8477691b8fdd9790d7f6284a4"}, {"is_disabled": 0, "is_reserved": 0, "type": "electric_scooter", "lon": -77.03498633333334, "fusion_lon": 0.0, "lat": 38.923446166666665, "rental_uris": {"android": "https://dc.lft.to/lastmile_qr_scan", "ios": "https://dc.lft.to/lastmile_qr_scan"}, "fusion_lat": 0.0, "name": "616739aca863f23cf35d4e471aa874b6", "bike_id": "616739aca863f23cf35d4e471aa874b6"}, {"is_disabled": 0, "is_reserved": 0, "type": "electric_scooter", "lon": -76.995216, "fusion_lon": 0.0, "lat": 38.89485583333333, "rental_uris": {"android": "https://dc.lft.to/lastmile_qr_scan", "ios": "https://dc.lft.to/lastmile_qr_scan"}, "fusion_lat": 0.0, "name": "e094abf84a2fd78364a1d47e2aa6b581", "bike_id": "e094abf84a2fd78364a1d47e2aa6b581"}, {"is_disabled": 0, "is_reserved": 0, "type": "electric_scooter", "lon": -77.00049016666667, "fusion_lon": 0.0, "lat": 38.918996666666665, "rental_uris": {"android": "https://dc.lft.to/lastmile_qr_scan", "ios": "https://dc.lft.to/lastmile_qr_scan"}, "fusion_lat": 0.0, "name": "169129342e31fdab77ad57cd0e574eed", "bike_id": "169129342e31fdab77ad57cd0e574eed"}, {"is_disabled": 0, "is_reserved": 0, "type": "electric_scooter", "lon": -77.0319015, "fusion_lon": 0.0, "lat": 38.89915833333333, "rental_uris": {"android": "https://dc.lft.to/lastmile_qr_scan", "ios": "https://dc.lft.to/lastmile_qr_scan"}, "fusion_lat": 0.0, "name": "c73ea2ccb7ef0ae387aaae7669df0ead", "bike_id": "c73ea2ccb7ef0ae387aaae7669df0ead"}, {"is_disabled": 0, "is_reserved": 0, "type": "electric_scooter", "lon": -77.0420645, "fusion_lon": 0.0, "lat": 38.92316533333333, "rental_uris": {"android": "https://dc.lft.to/lastmile_qr_scan", "ios": "https://dc.lft.to/lastmile_qr_scan"}, "fusion_lat": 0.0, "name": "b5bde24a35e13e83d2b1a3a501454f6f", "bike_id": "b5bde24a35e13e83d2b1a3a501454f6f"}, {"is_disabled": 0, "is_reserved": 0, "type": "electric_scooter", "lon": -77.04602783333333, "fusion_lon": 0.0, "lat": 38.902551333333335, "rental_uris": {"android": "https://dc.lft.to/lastmile_qr_scan", "ios": "https://dc.lft.to/lastmile_qr_scan"}, "fusion_lat": 0.0, "name": "d64175a6f265a7544b07b0e93b57ca88", "bike_id": "d64175a6f265a7544b07b0e93b57ca88"}, {"is_disabled": 0, "is_reserved": 0, "type": "electric_scooter", "lon": -77.0072935, "fusion_lon": 0.0, "lat": 38.884929666666665, "rental_uris": {"android": "https://dc.lft.to/lastmile_qr_scan", "ios": "https://dc.lft.to/lastmile_qr_scan"}, "fusion_lat": 0.0, "name": "d2e97a134e4cb71585d5e4bc7386c508", "bike_id": "d2e97a134e4cb71585d5e4bc7386c508"}, {"is_disabled": 0, "is_reserved": 0, "type": "electric_scooter", "lon": -77.05699266666667, "fusion_lon": 0.0, "lat": 38.910573666666664, "rental_uris": {"android": "https://dc.lft.to/lastmile_qr_scan", "ios": "https://dc.lft.to/lastmile_qr_scan"}, "fusion_lat": 0.0, "name": "5b500315ca36d5422480fb33e67d0761", "bike_id": "5b500315ca36d5422480fb33e67d0761"}, {"is_disabled": 0, "is_reserved": 0, "type": "electric_scooter", "lon": -77.01138783333333, "fusion_lon": 0.0, "lat": 38.9064415, "rental_uris": {"android": "https://dc.lft.to/lastmile_qr_scan", "ios": "https://dc.lft.to/lastmile_qr_scan"}, "fusion_lat": 0.0, "name": "d6d656a132c99d57b4300bc24ba9d6b9", "bike_id": "d6d656a132c99d57b4300bc24ba9d6b9"}, {"is_disabled": 0, "is_reserved": 0, "type": "electric_scooter", "lon": -77.03853716666667, "fusion_lon": 0.0, "lat": 38.91837316666667, "rental_uris": {"android": "https://dc.lft.to/lastmile_qr_scan", "ios": "https://dc.lft.to/lastmile_qr_scan"}, "fusion_lat": 0.0, "name": "591410143da069ec05677836d2688381", "bike_id": "591410143da069ec05677836d2688381"}, {"is_disabled": 0, "is_reserved": 0, "type": "electric_bike", "lon": -76.97898266666667, "fusion_lon": 0.0, "lat": 38.85495783333333, "rental_uris": {"android": "https://dc.lft.to/lastmile_qr_scan", "ios": "https://dc.lft.to/lastmile_qr_scan"}, "fusion_lat": 0.0, "name": "c452a155335c4ab07267bb75377ba3ab", "bike_id": "c452a155335c4ab07267bb75377ba3ab"}, {"is_disabled": 0, "is_reserved": 0, "type": "electric_scooter", "lon": -77.00341833333333, "fusion_lon": 0.0, "lat": 38.88318866666667, "rental_uris": {"android": "https://dc.lft.to/lastmile_qr_scan", "ios": "https://dc.lft.to/lastmile_qr_scan"}, "fusion_lat": 0.0, "name": "ca0b1a49b5840cfdbff184efebc00536", "bike_id": "ca0b1a49b5840cfdbff184efebc00536"}, {"is_disabled": 0, "is_reserved": 0, "type": "electric_scooter", "lon": -76.99864216666667, "fusion_lon": 0.0, "lat": 38.900125333333335, "rental_uris": {"android": "https://dc.lft.to/lastmile_qr_scan", "ios": "https://dc.lft.to/lastmile_qr_scan"}, "fusion_lat": 0.0, "name": "7eebfd679adb7c07d9710b2927237adf", "bike_id": "7eebfd679adb7c07d9710b2927237adf"}, {"is_disabled": 0, "is_reserved": 0, "type": "electric_scooter", "lon": -77.04886866666666, "fusion_lon": 0.0, "lat": 38.901169, "rental_uris": {"android": "https://dc.lft.to/lastmile_qr_scan", "ios": "https://dc.lft.to/lastmile_qr_scan"}, "fusion_lat": 0.0, "name": "102612471165c3ae3260d63d2ff0efd7", "bike_id": "102612471165c3ae3260d63d2ff0efd7"}, {"is_disabled": 0, "is_reserved": 0, "type": "electric_scooter", "lon": -77.0293405, "fusion_lon": 0.0, "lat": 38.89525016666666, "rental_uris": {"android": "https://dc.lft.to/lastmile_qr_scan", "ios": "https://dc.lft.to/lastmile_qr_scan"}, "fusion_lat": 0.0, "name": "2944861ba3f1743209c909c4ea20edee", "bike_id": "2944861ba3f1743209c909c4ea20edee"}, {"is_disabled": 0, "is_reserved": 0, "type": "electric_scooter", "lon": -77.03746683333334, "fusion_lon": 0.0, "lat": 38.91195866666666, "rental_uris": {"android": "https://dc.lft.to/lastmile_qr_scan", "ios": "https://dc.lft.to/lastmile_qr_scan"}, "fusion_lat": 0.0, "name": "5ffad139c4884a59e43e0b16763abd1a", "bike_id": "5ffad139c4884a59e43e0b16763abd1a"}, {"is_disabled": 0, "is_reserved": 0, "type": "electric_scooter", "lon": -76.9953565, "fusion_lon": 0.0, "lat": 38.862488666666664, "rental_uris": {"android": "https://dc.lft.to/lastmile_qr_scan", "ios": "https://dc.lft.to/lastmile_qr_scan"}, "fusion_lat": 0.0, "name": "b4c7741d90cffa69a808abea5a3642ac", "bike_id": "b4c7741d90cffa69a808abea5a3642ac"}, {"is_disabled": 0, "is_reserved": 0, "type": "electric_bike", "lon": -76.91597716666666, "fusion_lon": 0.0, "lat": 38.88009066666667, "rental_uris": {"android": "https://dc.lft.to/lastmile_qr_scan", "ios": "https://dc.lft.to/lastmile_qr_scan"}, "fusion_lat": 0.0, "name": "6492781c437255a0ed166aee2e32c419", "bike_id": "6492781c437255a0ed166aee2e32c419"}, {"is_disabled": 0, "is_reserved": 0, "type": "electric_scooter", "lon": -76.98339083333333, "fusion_lon": 0.0, "lat": 38.91271716666667, "rental_uris": {"android": "https://dc.lft.to/lastmile_qr_scan", "ios": "https://dc.lft.to/lastmile_qr_scan"}, "fusion_lat": 0.0, "name": "6ba364f53d5355a9136782c9cbdd62d8", "bike_id": "6ba364f53d5355a9136782c9cbdd62d8"}, {"is_disabled": 0, "is_reserved": 0, "type": "electric_scooter", "lon": -77.02790416666667, "fusion_lon": 0.0, "lat": 38.93082, "rental_uris": {"android": "https://dc.lft.to/lastmile_qr_scan", "ios": "https://dc.lft.to/lastmile_qr_scan"}, "fusion_lat": 0.0, "name": "b33b67dbdee989bec3e56a83b187ad44", "bike_id": "b33b67dbdee989bec3e56a83b187ad44"}, {"is_disabled": 0, "is_reserved": 0, "type": "electric_scooter", "lon": -77.05907133333334, "fusion_lon": 0.0, "lat": 38.90081683333333, "rental_uris": {"android": "https://dc.lft.to/lastmile_qr_scan", "ios": "https://dc.lft.to/lastmile_qr_scan"}, "fusion_lat": 0.0, "name": "b9386fbff8bde83a5482b9fe4aaebf84", "bike_id": "b9386fbff8bde83a5482b9fe4aaebf84"}, {"is_disabled": 0, "is_reserved": 0, "type": "electric_scooter", "lon": -77.01642816666667, "fusion_lon": 0.0, "lat": 38.8834845, "rental_uris": {"android": "https://dc.lft.to/lastmile_qr_scan", "ios": "https://dc.lft.to/lastmile_qr_scan"}, "fusion_lat": 0.0, "name": "e6933347d970df0d2b74c41830a05263", "bike_id": "e6933347d970df0d2b74c41830a05263"}, {"is_disabled": 0, "is_reserved": 0, "type": "electric_scooter", "lon": -77.028137, "fusion_lon": 0.0, "lat": 38.96179733333334, "rental_uris": {"android": "https://dc.lft.to/lastmile_qr_scan", "ios": "https://dc.lft.to/lastmile_qr_scan"}, "fusion_lat": 0.0, "name": "ce27c9429949fab22af88241855785c1", "bike_id": "ce27c9429949fab22af88241855785c1"}, {"is_disabled": 0, "is_reserved": 0, "type": "electric_scooter", "lon": -77.00843633333334, "fusion_lon": 0.0, "lat": 38.87648333333333, "rental_uris": {"android": "https://dc.lft.to/lastmile_qr_scan", "ios": "https://dc.lft.to/lastmile_qr_scan"}, "fusion_lat": 0.0, "name": "a2eb14b0463c2389075cec3af926aa69", "bike_id": "a2eb14b0463c2389075cec3af926aa69"}, {"is_disabled": 0, "is_reserved": 0, "type": "electric_bike", "lon": -76.90818066666667, "fusion_lon": 0.0, "lat": 38.99455533333333, "rental_uris": {"android": "https://dc.lft.to/lastmile_qr_scan", "ios": "https://dc.lft.to/lastmile_qr_scan"}, "fusion_lat": 0.0, "name": "99e6add1371b004991376b7c895f6e8e", "bike_id": "99e6add1371b004991376b7c895f6e8e"}, {"is_disabled": 0, "is_reserved": 0, "type": "electric_scooter", "lon": -77.05093983333333, "fusion_lon": 0.0, "lat": 38.923434666666665, "rental_uris": {"android": "https://dc.lft.to/lastmile_qr_scan", "ios": "https://dc.lft.to/lastmile_qr_scan"}, "fusion_lat": 0.0, "name": "f22b66559dfb351478e8dae410172f4d", "bike_id": "f22b66559dfb351478e8dae410172f4d"}, {"is_disabled": 0, "is_reserved": 0, "type": "electric_scooter", "lon": -76.94893966666666, "fusion_lon": 0.0, "lat": 38.895308666666665, "rental_uris": {"android": "https://dc.lft.to/lastmile_qr_scan", "ios": "https://dc.lft.to/lastmile_qr_scan"}, "fusion_lat": 0.0, "name": "23cab62028c3badc8bc8710686b812ab", "bike_id": "23cab62028c3badc8bc8710686b812ab"}, {"is_disabled": 0, "is_reserved": 0, "type": "electric_bike", "lon": -77.09163733333334, "fusion_lon": 0.0, "lat": 38.967583833333336, "rental_uris": {"android": "https://dc.lft.to/lastmile_qr_scan", "ios": "https://dc.lft.to/lastmile_qr_scan"}, "fusion_lat": 0.0, "name": "8f3a5ec54912ab11e978e651a85db741", "bike_id": "8f3a5ec54912ab11e978e651a85db741"}, {"is_disabled": 0, "is_reserved": 0, "type": "electric_scooter", "lon": -77.036294, "fusion_lon": 0.0, "lat": 38.956029, "rental_uris": {"android": "https://dc.lft.to/lastmile_qr_scan", "ios": "https://dc.lft.to/lastmile_qr_scan"}, "fusion_lat": 0.0, "name": "c73101219a528000ff7e1f69cd032e27", "bike_id": "c73101219a528000ff7e1f69cd032e27"}, {"is_disabled": 0, "is_reserved": 0, "type": "electric_scooter", "lon": -76.996991, "fusion_lon": 0.0, "lat": 38.8386625, "rental_uris": {"android": "https://dc.lft.to/lastmile_qr_scan", "ios": "https://dc.lft.to/lastmile_qr_scan"}, "fusion_lat": 0.0, "name": "e5180dd35b60098c750101fb51fe15c4", "bike_id": "e5180dd35b60098c750101fb51fe15c4"}, {"is_disabled": 0, "is_reserved": 0, "type": "electric_scooter", "lon": -77.045151, "fusion_lon": 0.0, "lat": 38.9038605, "rental_uris": {"android": "https://dc.lft.to/lastmile_qr_scan", "ios": "https://dc.lft.to/lastmile_qr_scan"}, "fusion_lat": 0.0, "name": "f74ff4cc4997be8b45ed1ed7ebce3bad", "bike_id": "f74ff4cc4997be8b45ed1ed7ebce3bad"}, {"is_disabled": 0, "is_reserved": 0, "type": "electric_bike", "lon": -77.03389816666666, "fusion_lon": 0.0, "lat": 38.960264333333335, "rental_uris": {"android": "https://dc.lft.to/lastmile_qr_scan", "ios": "https://dc.lft.to/lastmile_qr_scan"}, "fusion_lat": 0.0, "name": "72643ddaacd8be0da03e8bba4ae0558a", "bike_id": "72643ddaacd8be0da03e8bba4ae0558a"}, {"is_disabled": 0, "is_reserved": 0, "type": "electric_scooter", "lon": -77.04031683333334, "fusion_lon": 0.0, "lat": 38.904779, "rental_uris": {"android": "https://dc.lft.to/lastmile_qr_scan", "ios": "https://dc.lft.to/lastmile_qr_scan"}, "fusion_lat": 0.0, "name": "607e3bf77078027a9cce575c9158c548", "bike_id": "607e3bf77078027a9cce575c9158c548"}, {"is_disabled": 0, "is_reserved": 0, "type": "electric_scooter", "lon": -77.024513, "fusion_lon": 0.0, "lat": 38.93712683333333, "rental_uris": {"android": "https://dc.lft.to/lastmile_qr_scan", "ios": "https://dc.lft.to/lastmile_qr_scan"}, "fusion_lat": 0.0, "name": "8b54d204f447c01bad0f8ece8e7d3fe4", "bike_id": "8b54d204f447c01bad0f8ece8e7d3fe4"}, {"is_disabled": 0, "is_reserved": 0, "type": "electric_scooter", "lon": -77.02419133333333, "fusion_lon": 0.0, "lat": 38.89635883333333, "rental_uris": {"android": "https://dc.lft.to/lastmile_qr_scan", "ios": "https://dc.lft.to/lastmile_qr_scan"}, "fusion_lat": 0.0, "name": "eb2b4ba180c16c48a1b56148d4347a22", "bike_id": "eb2b4ba180c16c48a1b56148d4347a22"}, {"is_disabled": 0, "is_reserved": 0, "type": "electric_bike", "lon": -77.00903716666667, "fusion_lon": 0.0, "lat": 38.8744905, "rental_uris": {"android": "https://dc.lft.to/lastmile_qr_scan", "ios": "https://dc.lft.to/lastmile_qr_scan"}, "fusion_lat": 0.0, "name": "7b27bd2ca32de9257999e28eafa6305e", "bike_id": "7b27bd2ca32de9257999e28eafa6305e"}, {"is_disabled": 0, "is_reserved": 0, "type": "electric_scooter", "lon": -76.995157, "fusion_lon": 0.0, "lat": 38.894847666666664, "rental_uris": {"android": "https://dc.lft.to/lastmile_qr_scan", "ios": "https://dc.lft.to/lastmile_qr_scan"}, "fusion_lat": 0.0, "name": "907025b63102e7cd55753c949b8adba6", "bike_id": "907025b63102e7cd55753c949b8adba6"}, {"is_disabled": 0, "is_reserved": 0, "type": "electric_scooter", "lon": -77.04599116666667, "fusion_lon": 0.0, "lat": 38.902472333333336, "rental_uris": {"android": "https://dc.lft.to/lastmile_qr_scan", "ios": "https://dc.lft.to/lastmile_qr_scan"}, "fusion_lat": 0.0, "name": "8d0a9b72a05508117f48b5c7368b0181", "bike_id": "8d0a9b72a05508117f48b5c7368b0181"}, {"is_disabled": 0, "is_reserved": 0, "type": "electric_scooter", "lon": -77.03291116666666, "fusion_lon": 0.0, "lat": 38.923346, "rental_uris": {"android": "https://dc.lft.to/lastmile_qr_scan", "ios": "https://dc.lft.to/lastmile_qr_scan"}, "fusion_lat": 0.0, "name": "ba988ea48693df1af9f37ba93676d651", "bike_id": "ba988ea48693df1af9f37ba93676d651"}, {"is_disabled": 0, "is_reserved": 0, "type": "electric_scooter", "lon": -76.9858405, "fusion_lon": 0.0, "lat": 38.8544935, "rental_uris": {"android": "https://dc.lft.to/lastmile_qr_scan", "ios": "https://dc.lft.to/lastmile_qr_scan"}, "fusion_lat": 0.0, "name": "e531f4002f42f691325f09e1daaea52c", "bike_id": "e531f4002f42f691325f09e1daaea52c"}, {"is_disabled": 0, "is_reserved": 0, "type": "electric_scooter", "lon": -77.04659133333334, "fusion_lon": 0.0, "lat": 38.892995166666665, "rental_uris": {"android": "https://dc.lft.to/lastmile_qr_scan", "ios": "https://dc.lft.to/lastmile_qr_scan"}, "fusion_lat": 0.0, "name": "0eab0461cffa667f6bf978605cbc7482", "bike_id": "0eab0461cffa667f6bf978605cbc7482"}, {"is_disabled": 0, "is_reserved": 0, "type": "electric_scooter", "lon": -77.05229683333333, "fusion_lon": 0.0, "lat": 38.92463466666667, "rental_uris": {"android": "https://dc.lft.to/lastmile_qr_scan", "ios": "https://dc.lft.to/lastmile_qr_scan"}, "fusion_lat": 0.0, "name": "a78093038de446a6a780b51ef50ed967", "bike_id": "a78093038de446a6a780b51ef50ed967"}, {"is_disabled": 0, "is_reserved": 0, "type": "electric_scooter", "lon": -76.98682016666666, "fusion_lon": 0.0, "lat": 38.858155333333336, "rental_uris": {"android": "https://dc.lft.to/lastmile_qr_scan", "ios": "https://dc.lft.to/lastmile_qr_scan"}, "fusion_lat": 0.0, "name": "4ca9318373a84627fdc7d2aa05e46cbb", "bike_id": "4ca9318373a84627fdc7d2aa05e46cbb"}, {"is_disabled": 0, "is_reserved": 0, "type": "electric_scooter", "lon": -77.00563966666667, "fusion_lon": 0.0, "lat": 38.88503983333333, "rental_uris": {"android": "https://dc.lft.to/lastmile_qr_scan", "ios": "https://dc.lft.to/lastmile_qr_scan"}, "fusion_lat": 0.0, "name": "caa4cf6ebe429ea49d7acdc38b18978e", "bike_id": "caa4cf6ebe429ea49d7acdc38b18978e"}, {"is_disabled": 0, "is_reserved": 0, "type": "electric_scooter", "lon": -77.0346215, "fusion_lon": 0.0, "lat": 38.9215855, "rental_uris": {"android": "https://dc.lft.to/lastmile_qr_scan", "ios": "https://dc.lft.to/lastmile_qr_scan"}, "fusion_lat": 0.0, "name": "15293c5f6683263a1f534d1e3fd496d8", "bike_id": "15293c5f6683263a1f534d1e3fd496d8"}, {"is_disabled": 0, "is_reserved": 0, "type": "electric_scooter", "lon": -77.021164, "fusion_lon": 0.0, "lat": 38.9173655, "rental_uris": {"android": "https://dc.lft.to/lastmile_qr_scan", "ios": "https://dc.lft.to/lastmile_qr_scan"}, "fusion_lat": 0.0, "name": "cb46808bdc1fef21d11e842c035edcae", "bike_id": "cb46808bdc1fef21d11e842c035edcae"}, {"is_disabled": 0, "is_reserved": 0, "type": "electric_scooter", "lon": -77.0682245, "fusion_lon": 0.0, "lat": 38.95207883333333, "rental_uris": {"android": "https://dc.lft.to/lastmile_qr_scan", "ios": "https://dc.lft.to/lastmile_qr_scan"}, "fusion_lat": 0.0, "name": "ecc03b10037fefad663e9166d2d5e9b2", "bike_id": "ecc03b10037fefad663e9166d2d5e9b2"}, {"is_disabled": 0, "is_reserved": 0, "type": "electric_scooter", "lon": -77.03835333333333, "fusion_lon": 0.0, "lat": 38.921737666666665, "rental_uris": {"android": "https://dc.lft.to/lastmile_qr_scan", "ios": "https://dc.lft.to/lastmile_qr_scan"}, "fusion_lat": 0.0, "name": "63a12dd36efc92408b2937ebcbe35539", "bike_id": "63a12dd36efc92408b2937ebcbe35539"}, {"is_disabled": 0, "is_reserved": 0, "type": "electric_scooter", "lon": -77.045066, "fusion_lon": 0.0, "lat": 38.90780433333333, "rental_uris": {"android": "https://dc.lft.to/lastmile_qr_scan", "ios": "https://dc.lft.to/lastmile_qr_scan"}, "fusion_lat": 0.0, "name": "a5f3f3e403fdfd418259d040b7bae112", "bike_id": "a5f3f3e403fdfd418259d040b7bae112"}, {"is_disabled": 0, "is_reserved": 0, "type": "electric_scooter", "lon": -77.043735, "fusion_lon": 0.0, "lat": 38.910573166666666, "rental_uris": {"android": "https://dc.lft.to/lastmile_qr_scan", "ios": "https://dc.lft.to/lastmile_qr_scan"}, "fusion_lat": 0.0, "name": "0343f1f0b8b7bea2dfaf2d322ab0595b", "bike_id": "0343f1f0b8b7bea2dfaf2d322ab0595b"}, {"is_disabled": 0, "is_reserved": 0, "type": "electric_scooter", "lon": -77.02713616666666, "fusion_lon": 0.0, "lat": 38.90076916666666, "rental_uris": {"android": "https://dc.lft.to/lastmile_qr_scan", "ios": "https://dc.lft.to/lastmile_qr_scan"}, "fusion_lat": 0.0, "name": "584974a06fd3d125d8ff1dd62d0e14ac", "bike_id": "584974a06fd3d125d8ff1dd62d0e14ac"}, {"is_disabled": 0, "is_reserved": 0, "type": "electric_scooter", "lon": -77.02993216666667, "fusion_lon": 0.0, "lat": 38.922407166666666, "rental_uris": {"android": "https://dc.lft.to/lastmile_qr_scan", "ios": "https://dc.lft.to/lastmile_qr_scan"}, "fusion_lat": 0.0, "name": "3c593ec100557358bef1ac4767b54ab0", "bike_id": "3c593ec100557358bef1ac4767b54ab0"}, {"is_disabled": 0, "is_reserved": 0, "type": "electric_scooter", "lon": -77.0147265, "fusion_lon": 0.0, "lat": 38.87625366666666, "rental_uris": {"android": "https://dc.lft.to/lastmile_qr_scan", "ios": "https://dc.lft.to/lastmile_qr_scan"}, "fusion_lat": 0.0, "name": "e1dceee28ba433cae827e747b3172788", "bike_id": "e1dceee28ba433cae827e747b3172788"}, {"is_disabled": 0, "is_reserved": 0, "type": "electric_scooter", "lon": -76.94717033333333, "fusion_lon": 0.0, "lat": 38.89722316666667, "rental_uris": {"android": "https://dc.lft.to/lastmile_qr_scan", "ios": "https://dc.lft.to/lastmile_qr_scan"}, "fusion_lat": 0.0, "name": "2825ec5d3521bea8c3ce73a6faec8328", "bike_id": "2825ec5d3521bea8c3ce73a6faec8328"}, {"is_disabled": 0, "is_reserved": 0, "type": "electric_scooter", "lon": -77.04110816666666, "fusion_lon": 0.0, "lat": 38.92356083333333, "rental_uris": {"android": "https://dc.lft.to/lastmile_qr_scan", "ios": "https://dc.lft.to/lastmile_qr_scan"}, "fusion_lat": 0.0, "name": "81c0c40b1221a89a0145f59611562d60", "bike_id": "81c0c40b1221a89a0145f59611562d60"}, {"is_disabled": 0, "is_reserved": 0, "type": "electric_scooter", "lon": -76.97978433333333, "fusion_lon": 0.0, "lat": 38.88771783333333, "rental_uris": {"android": "https://dc.lft.to/lastmile_qr_scan", "ios": "https://dc.lft.to/lastmile_qr_scan"}, "fusion_lat": 0.0, "name": "3bf34c941d7c94445b587a6572cbbdd1", "bike_id": "3bf34c941d7c94445b587a6572cbbdd1"}, {"is_disabled": 0, "is_reserved": 0, "type": "electric_scooter", "lon": -77.03407116666666, "fusion_lon": 0.0, "lat": 38.90220683333333, "rental_uris": {"android": "https://dc.lft.to/lastmile_qr_scan", "ios": "https://dc.lft.to/lastmile_qr_scan"}, "fusion_lat": 0.0, "name": "6f31e6b27a4c7901dc7a18004599df26", "bike_id": "6f31e6b27a4c7901dc7a18004599df26"}, {"is_disabled": 0, "is_reserved": 0, "type": "electric_bike", "lon": -77.1003255, "fusion_lon": 0.0, "lat": 38.99063233333333, "rental_uris": {"android": "https://dc.lft.to/lastmile_qr_scan", "ios": "https://dc.lft.to/lastmile_qr_scan"}, "fusion_lat": 0.0, "name": "8c041f56fc268c36d479c5b8f198ac55", "bike_id": "8c041f56fc268c36d479c5b8f198ac55"}, {"is_disabled": 0, "is_reserved": 0, "type": "electric_scooter", "lon": -77.03526383333333, "fusion_lon": 0.0, "lat": 38.9214925, "rental_uris": {"android": "https://dc.lft.to/lastmile_qr_scan", "ios": "https://dc.lft.to/lastmile_qr_scan"}, "fusion_lat": 0.0, "name": "c0649e792d2ce619e2b95f65a7c0f155", "bike_id": "c0649e792d2ce619e2b95f65a7c0f155"}, {"is_disabled": 0, "is_reserved": 0, "type": "electric_scooter", "lon": -77.02931066666666, "fusion_lon": 0.0, "lat": 38.914176166666664, "rental_uris": {"android": "https://dc.lft.to/lastmile_qr_scan", "ios": "https://dc.lft.to/lastmile_qr_scan"}, "fusion_lat": 0.0, "name": "a4d897b1a30362ebe7bfb58dd21b7b56", "bike_id": "a4d897b1a30362ebe7bfb58dd21b7b56"}, {"is_disabled": 0, "is_reserved": 0, "type": "electric_scooter", "lon": -77.03493666666667, "fusion_lon": 0.0, "lat": 38.923422, "rental_uris": {"android": "https://dc.lft.to/lastmile_qr_scan", "ios": "https://dc.lft.to/lastmile_qr_scan"}, "fusion_lat": 0.0, "name": "3ca2c6030a94cd853eff3d4467ee2fdf", "bike_id": "3ca2c6030a94cd853eff3d4467ee2fdf"}, {"is_disabled": 0, "is_reserved": 0, "type": "electric_scooter", "lon": -77.04336016666667, "fusion_lon": 0.0, "lat": 38.89226133333333, "rental_uris": {"android": "https://dc.lft.to/lastmile_qr_scan", "ios": "https://dc.lft.to/lastmile_qr_scan"}, "fusion_lat": 0.0, "name": "0fa8834f25b3bb611b33fbb592553827", "bike_id": "0fa8834f25b3bb611b33fbb592553827"}, {"is_disabled": 0, "is_reserved": 0, "type": "electric_scooter", "lon": -77.01388783333333, "fusion_lon": 0.0, "lat": 38.928180833333336, "rental_uris": {"android": "https://dc.lft.to/lastmile_qr_scan", "ios": "https://dc.lft.to/lastmile_qr_scan"}, "fusion_lat": 0.0, "name": "0d0407c7443c023d0bee616bd442e0a5", "bike_id": "0d0407c7443c023d0bee616bd442e0a5"}, {"is_disabled": 0, "is_reserved": 0, "type": "electric_scooter", "lon": -77.0423415, "fusion_lon": 0.0, "lat": 38.9097185, "rental_uris": {"android": "https://dc.lft.to/lastmile_qr_scan", "ios": "https://dc.lft.to/lastmile_qr_scan"}, "fusion_lat": 0.0, "name": "6cec32a49e044188dc0b9513c2f1aa59", "bike_id": "6cec32a49e044188dc0b9513c2f1aa59"}, {"is_disabled": 0, "is_reserved": 0, "type": "electric_scooter", "lon": -77.02156733333334, "fusion_lon": 0.0, "lat": 38.92602633333333, "rental_uris": {"android": "https://dc.lft.to/lastmile_qr_scan", "ios": "https://dc.lft.to/lastmile_qr_scan"}, "fusion_lat": 0.0, "name": "e0b5fb5cf332d5e3810b21954f521815", "bike_id": "e0b5fb5cf332d5e3810b21954f521815"}, {"is_disabled": 0, "is_reserved": 0, "type": "electric_scooter", "lon": -77.00581166666667, "fusion_lon": 0.0, "lat": 38.875173333333336, "rental_uris": {"android": "https://dc.lft.to/lastmile_qr_scan", "ios": "https://dc.lft.to/lastmile_qr_scan"}, "fusion_lat": 0.0, "name": "568017a22e24ceccff689251129a0d2b", "bike_id": "568017a22e24ceccff689251129a0d2b"}, {"is_disabled": 0, "is_reserved": 0, "type": "electric_scooter", "lon": -77.0334095, "fusion_lon": 0.0, "lat": 38.96802516666666, "rental_uris": {"android": "https://dc.lft.to/lastmile_qr_scan", "ios": "https://dc.lft.to/lastmile_qr_scan"}, "fusion_lat": 0.0, "name": "59e8ce83ba3681f826b037ad5e90164b", "bike_id": "59e8ce83ba3681f826b037ad5e90164b"}, {"is_disabled": 0, "is_reserved": 0, "type": "electric_bike", "lon": -76.87494616666666, "fusion_lon": 0.0, "lat": 38.99091216666667, "rental_uris": {"android": "https://dc.lft.to/lastmile_qr_scan", "ios": "https://dc.lft.to/lastmile_qr_scan"}, "fusion_lat": 0.0, "name": "9bfbcd20fd4dea9d82ff6af74ff4500b", "bike_id": "9bfbcd20fd4dea9d82ff6af74ff4500b"}, {"is_disabled": 0, "is_reserved": 0, "type": "electric_scooter", "lon": -77.0178995, "fusion_lon": 0.0, "lat": 38.941176, "rental_uris": {"android": "https://dc.lft.to/lastmile_qr_scan", "ios": "https://dc.lft.to/lastmile_qr_scan"}, "fusion_lat": 0.0, "name": "228d91118d92c26582db900cad01e22b", "bike_id": "228d91118d92c26582db900cad01e22b"}, {"is_disabled": 0, "is_reserved": 0, "type": "electric_bike", "lon": -77.04901583333333, "fusion_lon": 0.0, "lat": 38.87492316666667, "rental_uris": {"android": "https://dc.lft.to/lastmile_qr_scan", "ios": "https://dc.lft.to/lastmile_qr_scan"}, "fusion_lat": 0.0, "name": "38635eb74ddbb7360fd8372c1fba9857", "bike_id": "38635eb74ddbb7360fd8372c1fba9857"}, {"is_disabled": 0, "is_reserved": 0, "type": "electric_scooter", "lon": -77.02820266666667, "fusion_lon": 0.0, "lat": 38.885842333333336, "rental_uris": {"android": "https://dc.lft.to/lastmile_qr_scan", "ios": "https://dc.lft.to/lastmile_qr_scan"}, "fusion_lat": 0.0, "name": "2bd7b3639917eeee09577a161e9b6811", "bike_id": "2bd7b3639917eeee09577a161e9b6811"}, {"is_disabled": 0, "is_reserved": 0, "type": "electric_scooter", "lon": -77.03828883333334, "fusion_lon": 0.0, "lat": 38.9148515, "rental_uris": {"android": "https://dc.lft.to/lastmile_qr_scan", "ios": "https://dc.lft.to/lastmile_qr_scan"}, "fusion_lat": 0.0, "name": "fe73ad1e0896d0f9293bfca15d6708d2", "bike_id": "fe73ad1e0896d0f9293bfca15d6708d2"}, {"is_disabled": 0, "is_reserved": 0, "type": "electric_scooter", "lon": -77.00336966666667, "fusion_lon": 0.0, "lat": 38.90698416666667, "rental_uris": {"android": "https://dc.lft.to/lastmile_qr_scan", "ios": "https://dc.lft.to/lastmile_qr_scan"}, "fusion_lat": 0.0, "name": "62fdd903e91bf1179795e6e4c805e597", "bike_id": "62fdd903e91bf1179795e6e4c805e597"}, {"is_disabled": 0, "is_reserved": 0, "type": "electric_scooter", "lon": -77.00760983333333, "fusion_lon": 0.0, "lat": 38.8766515, "rental_uris": {"android": "https://dc.lft.to/lastmile_qr_scan", "ios": "https://dc.lft.to/lastmile_qr_scan"}, "fusion_lat": 0.0, "name": "5362217211d08801c75e6d179ecaeb8e", "bike_id": "5362217211d08801c75e6d179ecaeb8e"}, {"is_disabled": 0, "is_reserved": 0, "type": "electric_scooter", "lon": -77.034704, "fusion_lon": 0.0, "lat": 38.91803433333333, "rental_uris": {"android": "https://dc.lft.to/lastmile_qr_scan", "ios": "https://dc.lft.to/lastmile_qr_scan"}, "fusion_lat": 0.0, "name": "175b755f3a410bee25657a76d522bba2", "bike_id": "175b755f3a410bee25657a76d522bba2"}, {"is_disabled": 0, "is_reserved": 0, "type": "electric_scooter", "lon": -77.00922266666667, "fusion_lon": 0.0, "lat": 38.89551433333333, "rental_uris": {"android": "https://dc.lft.to/lastmile_qr_scan", "ios": "https://dc.lft.to/lastmile_qr_scan"}, "fusion_lat": 0.0, "name": "f5a577edcc3a2534022fc407b79d7308", "bike_id": "f5a577edcc3a2534022fc407b79d7308"}, {"is_disabled": 0, "is_reserved": 0, "type": "electric_scooter", "lon": -76.94898466666666, "fusion_lon": 0.0, "lat": 38.895347, "rental_uris": {"android": "https://dc.lft.to/lastmile_qr_scan", "ios": "https://dc.lft.to/lastmile_qr_scan"}, "fusion_lat": 0.0, "name": "7a05badc2d211301961a6a68f3b0c5d8", "bike_id": "7a05badc2d211301961a6a68f3b0c5d8"}, {"is_disabled": 0, "is_reserved": 0, "type": "electric_scooter", "lon": -77.02978766666666, "fusion_lon": 0.0, "lat": 38.947388333333336, "rental_uris": {"android": "https://dc.lft.to/lastmile_qr_scan", "ios": "https://dc.lft.to/lastmile_qr_scan"}, "fusion_lat": 0.0, "name": "6b252f2912433eff394e7adb9b9e286a", "bike_id": "6b252f2912433eff394e7adb9b9e286a"}, {"is_disabled": 0, "is_reserved": 0, "type": "electric_scooter", "lon": -76.98657816666666, "fusion_lon": 0.0, "lat": 38.91314366666667, "rental_uris": {"android": "https://dc.lft.to/lastmile_qr_scan", "ios": "https://dc.lft.to/lastmile_qr_scan"}, "fusion_lat": 0.0, "name": "5c4baac43c315f7b62bb7f33de254b38", "bike_id": "5c4baac43c315f7b62bb7f33de254b38"}, {"is_disabled": 0, "is_reserved": 0, "type": "electric_scooter", "lon": -77.03396966666666, "fusion_lon": 0.0, "lat": 38.909728, "rental_uris": {"android": "https://dc.lft.to/lastmile_qr_scan", "ios": "https://dc.lft.to/lastmile_qr_scan"}, "fusion_lat": 0.0, "name": "850be40fdb4af6f5f47a00186d6efce5", "bike_id": "850be40fdb4af6f5f47a00186d6efce5"}, {"is_disabled": 0, "is_reserved": 0, "type": "electric_scooter", "lon": -77.08620533333334, "fusion_lon": 0.0, "lat": 38.958825, "rental_uris": {"android": "https://dc.lft.to/lastmile_qr_scan", "ios": "https://dc.lft.to/lastmile_qr_scan"}, "fusion_lat": 0.0, "name": "c52fa02af7b7bffa86979d2e20167659", "bike_id": "c52fa02af7b7bffa86979d2e20167659"}, {"is_disabled": 0, "is_reserved": 0, "type": "electric_scooter", "lon": -77.03178716666666, "fusion_lon": 0.0, "lat": 38.92119666666667, "rental_uris": {"android": "https://dc.lft.to/lastmile_qr_scan", "ios": "https://dc.lft.to/lastmile_qr_scan"}, "fusion_lat": 0.0, "name": "35f7c922294fadaca2fca8fe66cbc07d", "bike_id": "35f7c922294fadaca2fca8fe66cbc07d"}, {"is_disabled": 0, "is_reserved": 0, "type": "electric_scooter", "lon": -77.04412833333333, "fusion_lon": 0.0, "lat": 38.8960245, "rental_uris": {"android": "https://dc.lft.to/lastmile_qr_scan", "ios": "https://dc.lft.to/lastmile_qr_scan"}, "fusion_lat": 0.0, "name": "9e6bf8a15d37c48c7aa2b8258c22c4c9", "bike_id": "9e6bf8a15d37c48c7aa2b8258c22c4c9"}, {"is_disabled": 0, "is_reserved": 0, "type": "electric_scooter", "lon": -77.030927, "fusion_lon": 0.0, "lat": 38.909608666666664, "rental_uris": {"android": "https://dc.lft.to/lastmile_qr_scan", "ios": "https://dc.lft.to/lastmile_qr_scan"}, "fusion_lat": 0.0, "name": "b05068a10652cd991eaea4e012e3913c", "bike_id": "b05068a10652cd991eaea4e012e3913c"}, {"is_disabled": 0, "is_reserved": 0, "type": "electric_scooter", "lon": -77.04337783333334, "fusion_lon": 0.0, "lat": 38.903478, "rental_uris": {"android": "https://dc.lft.to/lastmile_qr_scan", "ios": "https://dc.lft.to/lastmile_qr_scan"}, "fusion_lat": 0.0, "name": "980c5f95a4a47701183515a41a6805b9", "bike_id": "980c5f95a4a47701183515a41a6805b9"}, {"is_disabled": 0, "is_reserved": 0, "type": "electric_scooter", "lon": -77.03238233333333, "fusion_lon": 0.0, "lat": 38.912632333333335, "rental_uris": {"android": "https://dc.lft.to/lastmile_qr_scan", "ios": "https://dc.lft.to/lastmile_qr_scan"}, "fusion_lat": 0.0, "name": "977ac8cf28661d57a73ee16510d9a9cc", "bike_id": "977ac8cf28661d57a73ee16510d9a9cc"}, {"is_disabled": 0, "is_reserved": 0, "type": "electric_scooter", "lon": -76.9948675, "fusion_lon": 0.0, "lat": 38.899781, "rental_uris": {"android": "https://dc.lft.to/lastmile_qr_scan", "ios": "https://dc.lft.to/lastmile_qr_scan"}, "fusion_lat": 0.0, "name": "a091de23a9317f2116828d67eab665d4", "bike_id": "a091de23a9317f2116828d67eab665d4"}, {"is_disabled": 0, "is_reserved": 0, "type": "electric_scooter", "lon": -77.03426233333333, "fusion_lon": 0.0, "lat": 38.9040035, "rental_uris": {"android": "https://dc.lft.to/lastmile_qr_scan", "ios": "https://dc.lft.to/lastmile_qr_scan"}, "fusion_lat": 0.0, "name": "c970053e04147cab5f6dbba7a3769610", "bike_id": "c970053e04147cab5f6dbba7a3769610"}, {"is_disabled": 0, "is_reserved": 0, "type": "electric_scooter", "lon": -77.03171366666666, "fusion_lon": 0.0, "lat": 38.8833575, "rental_uris": {"android": "https://dc.lft.to/lastmile_qr_scan", "ios": "https://dc.lft.to/lastmile_qr_scan"}, "fusion_lat": 0.0, "name": "ef455cef7ca1a1cdf0b632751f2a9aa2", "bike_id": "ef455cef7ca1a1cdf0b632751f2a9aa2"}, {"is_disabled": 0, "is_reserved": 0, "type": "electric_scooter", "lon": -77.0343185, "fusion_lon": 0.0, "lat": 38.902674166666664, "rental_uris": {"android": "https://dc.lft.to/lastmile_qr_scan", "ios": "https://dc.lft.to/lastmile_qr_scan"}, "fusion_lat": 0.0, "name": "0af3f344b1f8141a5f6d619738e5909f", "bike_id": "0af3f344b1f8141a5f6d619738e5909f"}, {"is_disabled": 0, "is_reserved": 0, "type": "electric_scooter", "lon": -77.04304883333333, "fusion_lon": 0.0, "lat": 38.911092, "rental_uris": {"android": "https://dc.lft.to/lastmile_qr_scan", "ios": "https://dc.lft.to/lastmile_qr_scan"}, "fusion_lat": 0.0, "name": "a2c036151ceaf3b2898b368dcc94a0f1", "bike_id": "a2c036151ceaf3b2898b368dcc94a0f1"}, {"is_disabled": 0, "is_reserved": 0, "type": "electric_scooter", "lon": -77.02648083333334, "fusion_lon": 0.0, "lat": 38.8921815, "rental_uris": {"android": "https://dc.lft.to/lastmile_qr_scan", "ios": "https://dc.lft.to/lastmile_qr_scan"}, "fusion_lat": 0.0, "name": "58bdc8bfbbc05f04a3a0ba036c389252", "bike_id": "58bdc8bfbbc05f04a3a0ba036c389252"}, {"is_disabled": 0, "is_reserved": 0, "type": "electric_scooter", "lon": -77.04013783333333, "fusion_lon": 0.0, "lat": 38.91033933333333, "rental_uris": {"android": "https://dc.lft.to/lastmile_qr_scan", "ios": "https://dc.lft.to/lastmile_qr_scan"}, "fusion_lat": 0.0, "name": "50bb4c511d954147956e898f9f77609c", "bike_id": "50bb4c511d954147956e898f9f77609c"}, {"is_disabled": 0, "is_reserved": 0, "type": "electric_bike", "lon": -76.9803085, "fusion_lon": 0.0, "lat": 38.88754183333333, "rental_uris": {"android": "https://dc.lft.to/lastmile_qr_scan", "ios": "https://dc.lft.to/lastmile_qr_scan"}, "fusion_lat": 0.0, "name": "fd31748d857e08d9123c592f4b3259fe", "bike_id": "fd31748d857e08d9123c592f4b3259fe"}, {"is_disabled": 0, "is_reserved": 0, "type": "electric_scooter", "lon": -76.99904983333333, "fusion_lon": 0.0, "lat": 38.956519, "rental_uris": {"android": "https://dc.lft.to/lastmile_qr_scan", "ios": "https://dc.lft.to/lastmile_qr_scan"}, "fusion_lat": 0.0, "name": "3f709083961764e3cd5500d8290f30ff", "bike_id": "3f709083961764e3cd5500d8290f30ff"}, {"is_disabled": 0, "is_reserved": 0, "type": "electric_scooter", "lon": -77.019804, "fusion_lon": 0.0, "lat": 38.8951505, "rental_uris": {"android": "https://dc.lft.to/lastmile_qr_scan", "ios": "https://dc.lft.to/lastmile_qr_scan"}, "fusion_lat": 0.0, "name": "1ec6f5049d5fc15ae51123767a434c99", "bike_id": "1ec6f5049d5fc15ae51123767a434c99"}, {"is_disabled": 0, "is_reserved": 0, "type": "electric_scooter", "lon": -77.0445865, "fusion_lon": 0.0, "lat": 38.914045, "rental_uris": {"android": "https://dc.lft.to/lastmile_qr_scan", "ios": "https://dc.lft.to/lastmile_qr_scan"}, "fusion_lat": 0.0, "name": "3052060a853d9eb33c8c1e1f0b884fc3", "bike_id": "3052060a853d9eb33c8c1e1f0b884fc3"}, {"is_disabled": 0, "is_reserved": 0, "type": "electric_scooter", "lon": -77.0294685, "fusion_lon": 0.0, "lat": 38.8962215, "rental_uris": {"android": "https://dc.lft.to/lastmile_qr_scan", "ios": "https://dc.lft.to/lastmile_qr_scan"}, "fusion_lat": 0.0, "name": "8a731e3bd22005ed6d210023544c9e6c", "bike_id": "8a731e3bd22005ed6d210023544c9e6c"}, {"is_disabled": 0, "is_reserved": 0, "type": "electric_scooter", "lon": -77.01691716666667, "fusion_lon": 0.0, "lat": 38.90256333333333, "rental_uris": {"android": "https://dc.lft.to/lastmile_qr_scan", "ios": "https://dc.lft.to/lastmile_qr_scan"}, "fusion_lat": 0.0, "name": "7f731327bb510e235a9173f46a2af940", "bike_id": "7f731327bb510e235a9173f46a2af940"}, {"is_disabled": 0, "is_reserved": 0, "type": "electric_scooter", "lon": -77.06755666666666, "fusion_lon": 0.0, "lat": 38.90505366666667, "rental_uris": {"android": "https://dc.lft.to/lastmile_qr_scan", "ios": "https://dc.lft.to/lastmile_qr_scan"}, "fusion_lat": 0.0, "name": "eab8628104d5dd27243edab5e1815e79", "bike_id": "eab8628104d5dd27243edab5e1815e79"}, {"is_disabled": 0, "is_reserved": 0, "type": "electric_scooter", "lon": -77.0570355, "fusion_lon": 0.0, "lat": 38.9048375, "rental_uris": {"android": "https://dc.lft.to/lastmile_qr_scan", "ios": "https://dc.lft.to/lastmile_qr_scan"}, "fusion_lat": 0.0, "name": "3a1fc86925344b222d79aced749ea9b7", "bike_id": "3a1fc86925344b222d79aced749ea9b7"}, {"is_disabled": 0, "is_reserved": 0, "type": "electric_scooter", "lon": -77.029841, "fusion_lon": 0.0, "lat": 38.92728983333333, "rental_uris": {"android": "https://dc.lft.to/lastmile_qr_scan", "ios": "https://dc.lft.to/lastmile_qr_scan"}, "fusion_lat": 0.0, "name": "333a5da1b34bbdd4ed4adaac1334d8c3", "bike_id": "333a5da1b34bbdd4ed4adaac1334d8c3"}, {"is_disabled": 0, "is_reserved": 0, "type": "electric_scooter", "lon": -77.02853583333334, "fusion_lon": 0.0, "lat": 38.902603166666665, "rental_uris": {"android": "https://dc.lft.to/lastmile_qr_scan", "ios": "https://dc.lft.to/lastmile_qr_scan"}, "fusion_lat": 0.0, "name": "5a2814bfbb121f800d3e698b4ff4ccbe", "bike_id": "5a2814bfbb121f800d3e698b4ff4ccbe"}, {"is_disabled": 0, "is_reserved": 0, "type": "electric_scooter", "lon": -77.01862016666666, "fusion_lon": 0.0, "lat": 38.949201, "rental_uris": {"android": "https://dc.lft.to/lastmile_qr_scan", "ios": "https://dc.lft.to/lastmile_qr_scan"}, "fusion_lat": 0.0, "name": "5a3c5d44cafb766f702b22e2c8ace44d", "bike_id": "5a3c5d44cafb766f702b22e2c8ace44d"}, {"is_disabled": 0, "is_reserved": 0, "type": "electric_scooter", "lon": -76.9805105, "fusion_lon": 0.0, "lat": 38.92036483333333, "rental_uris": {"android": "https://dc.lft.to/lastmile_qr_scan", "ios": "https://dc.lft.to/lastmile_qr_scan"}, "fusion_lat": 0.0, "name": "bd272373f6cc3404f5953139bffd0912", "bike_id": "bd272373f6cc3404f5953139bffd0912"}, {"is_disabled": 0, "is_reserved": 0, "type": "electric_scooter", "lon": -76.94886666666666, "fusion_lon": 0.0, "lat": 38.89510883333333, "rental_uris": {"android": "https://dc.lft.to/lastmile_qr_scan", "ios": "https://dc.lft.to/lastmile_qr_scan"}, "fusion_lat": 0.0, "name": "f13648589f42ba032c9ae4426bc95646", "bike_id": "f13648589f42ba032c9ae4426bc95646"}, {"is_disabled": 0, "is_reserved": 0, "type": "electric_scooter", "lon": -77.04163133333333, "fusion_lon": 0.0, "lat": 38.90147366666667, "rental_uris": {"android": "https://dc.lft.to/lastmile_qr_scan", "ios": "https://dc.lft.to/lastmile_qr_scan"}, "fusion_lat": 0.0, "name": "b85c010191a20423f3f78f7962818ba5", "bike_id": "b85c010191a20423f3f78f7962818ba5"}, {"is_disabled": 0, "is_reserved": 0, "type": "electric_scooter", "lon": -77.02211033333333, "fusion_lon": 0.0, "lat": 38.89710516666667, "rental_uris": {"android": "https://dc.lft.to/lastmile_qr_scan", "ios": "https://dc.lft.to/lastmile_qr_scan"}, "fusion_lat": 0.0, "name": "d8cc6e847974ef0950f94b389115708f", "bike_id": "d8cc6e847974ef0950f94b389115708f"}, {"is_disabled": 0, "is_reserved": 0, "type": "electric_scooter", "lon": -77.041876, "fusion_lon": 0.0, "lat": 38.916706166666664, "rental_uris": {"android": "https://dc.lft.to/lastmile_qr_scan", "ios": "https://dc.lft.to/lastmile_qr_scan"}, "fusion_lat": 0.0, "name": "856afaf57b6348d700d54da4bc29c64c", "bike_id": "856afaf57b6348d700d54da4bc29c64c"}, {"is_disabled": 0, "is_reserved": 0, "type": "electric_scooter", "lon": -77.02990733333333, "fusion_lon": 0.0, "lat": 38.89844566666667, "rental_uris": {"android": "https://dc.lft.to/lastmile_qr_scan", "ios": "https://dc.lft.to/lastmile_qr_scan"}, "fusion_lat": 0.0, "name": "23688f9a463ab30f328418c67492ef18", "bike_id": "23688f9a463ab30f328418c67492ef18"}, {"is_disabled": 0, "is_reserved": 0, "type": "electric_bike", "lon": -77.00865566666667, "fusion_lon": 0.0, "lat": 38.827263, "rental_uris": {"android": "https://dc.lft.to/lastmile_qr_scan", "ios": "https://dc.lft.to/lastmile_qr_scan"}, "fusion_lat": 0.0, "name": "63e32a324b261671464d9a8f4fbd85c4", "bike_id": "63e32a324b261671464d9a8f4fbd85c4"}, {"is_disabled": 0, "is_reserved": 0, "type": "electric_scooter", "lon": -77.0292915, "fusion_lon": 0.0, "lat": 38.88219333333333, "rental_uris": {"android": "https://dc.lft.to/lastmile_qr_scan", "ios": "https://dc.lft.to/lastmile_qr_scan"}, "fusion_lat": 0.0, "name": "8e82103d475940dfbbd508f9313eaf59", "bike_id": "8e82103d475940dfbbd508f9313eaf59"}, {"is_disabled": 0, "is_reserved": 0, "type": "electric_scooter", "lon": -77.03860816666666, "fusion_lon": 0.0, "lat": 38.91167683333333, "rental_uris": {"android": "https://dc.lft.to/lastmile_qr_scan", "ios": "https://dc.lft.to/lastmile_qr_scan"}, "fusion_lat": 0.0, "name": "0f30c7255328b33fb447c017dae81868", "bike_id": "0f30c7255328b33fb447c017dae81868"}, {"is_disabled": 0, "is_reserved": 0, "type": "electric_scooter", "lon": -77.02574666666666, "fusion_lon": 0.0, "lat": 38.884694833333334, "rental_uris": {"android": "https://dc.lft.to/lastmile_qr_scan", "ios": "https://dc.lft.to/lastmile_qr_scan"}, "fusion_lat": 0.0, "name": "3d559e476821fd557ab57829209ea2ce", "bike_id": "3d559e476821fd557ab57829209ea2ce"}, {"is_disabled": 0, "is_reserved": 0, "type": "electric_scooter", "lon": -77.03229166666667, "fusion_lon": 0.0, "lat": 38.90524283333333, "rental_uris": {"android": "https://dc.lft.to/lastmile_qr_scan", "ios": "https://dc.lft.to/lastmile_qr_scan"}, "fusion_lat": 0.0, "name": "819e4ec59242f9edd7c6527c9e70913a", "bike_id": "819e4ec59242f9edd7c6527c9e70913a"}, {"is_disabled": 0, "is_reserved": 0, "type": "electric_scooter", "lon": -77.03998916666667, "fusion_lon": 0.0, "lat": 38.918110666666664, "rental_uris": {"android": "https://dc.lft.to/lastmile_qr_scan", "ios": "https://dc.lft.to/lastmile_qr_scan"}, "fusion_lat": 0.0, "name": "62cbba7dd78d14d7181e080df9eac631", "bike_id": "62cbba7dd78d14d7181e080df9eac631"}, {"is_disabled": 0, "is_reserved": 0, "type": "electric_scooter", "lon": -77.0533085, "fusion_lon": 0.0, "lat": 38.923158, "rental_uris": {"android": "https://dc.lft.to/lastmile_qr_scan", "ios": "https://dc.lft.to/lastmile_qr_scan"}, "fusion_lat": 0.0, "name": "58a30a39403432737fca7a2d660b47d9", "bike_id": "58a30a39403432737fca7a2d660b47d9"}, {"is_disabled": 0, "is_reserved": 0, "type": "electric_scooter", "lon": -77.00747083333333, "fusion_lon": 0.0, "lat": 38.91186533333333, "rental_uris": {"android": "https://dc.lft.to/lastmile_qr_scan", "ios": "https://dc.lft.to/lastmile_qr_scan"}, "fusion_lat": 0.0, "name": "1bf6e74ac8eb44732df2b379eeafa6a2", "bike_id": "1bf6e74ac8eb44732df2b379eeafa6a2"}, {"is_disabled": 0, "is_reserved": 0, "type": "electric_scooter", "lon": -77.0419325, "fusion_lon": 0.0, "lat": 38.89871183333333, "rental_uris": {"android": "https://dc.lft.to/lastmile_qr_scan", "ios": "https://dc.lft.to/lastmile_qr_scan"}, "fusion_lat": 0.0, "name": "7e06a62dc0292d14fb03caccf3e5c469", "bike_id": "7e06a62dc0292d14fb03caccf3e5c469"}, {"is_disabled": 0, "is_reserved": 0, "type": "electric_bike", "lon": -77.04320966666667, "fusion_lon": 0.0, "lat": 38.83123116666667, "rental_uris": {"android": "https://dc.lft.to/lastmile_qr_scan", "ios": "https://dc.lft.to/lastmile_qr_scan"}, "fusion_lat": 0.0, "name": "0868d0a23a1c1d56358e6e5b1e63ced6", "bike_id": "0868d0a23a1c1d56358e6e5b1e63ced6"}, {"is_disabled": 0, "is_reserved": 0, "type": "electric_scooter", "lon": -77.02547266666667, "fusion_lon": 0.0, "lat": 38.900830666666664, "rental_uris": {"android": "https://dc.lft.to/lastmile_qr_scan", "ios": "https://dc.lft.to/lastmile_qr_scan"}, "fusion_lat": 0.0, "name": "131501bac2114d3a68a3ccfd3c988e20", "bike_id": "131501bac2114d3a68a3ccfd3c988e20"}, {"is_disabled": 0, "is_reserved": 0, "type": "electric_scooter", "lon": -76.98567116666666, "fusion_lon": 0.0, "lat": 38.855850333333336, "rental_uris": {"android": "https://dc.lft.to/lastmile_qr_scan", "ios": "https://dc.lft.to/lastmile_qr_scan"}, "fusion_lat": 0.0, "name": "4721d18f9591f4bda07a4da866c8161e", "bike_id": "4721d18f9591f4bda07a4da866c8161e"}, {"is_disabled": 0, "is_reserved": 0, "type": "electric_scooter", "lon": -77.03080133333333, "fusion_lon": 0.0, "lat": 38.905652, "rental_uris": {"android": "https://dc.lft.to/lastmile_qr_scan", "ios": "https://dc.lft.to/lastmile_qr_scan"}, "fusion_lat": 0.0, "name": "94bdb0b73278b211f7d22b66de1c0ef6", "bike_id": "94bdb0b73278b211f7d22b66de1c0ef6"}, {"is_disabled": 0, "is_reserved": 0, "type": "electric_scooter", "lon": -77.0467325, "fusion_lon": 0.0, "lat": 38.89555983333333, "rental_uris": {"android": "https://dc.lft.to/lastmile_qr_scan", "ios": "https://dc.lft.to/lastmile_qr_scan"}, "fusion_lat": 0.0, "name": "2d6bfb02e4f0b26bfb0987619c4d8494", "bike_id": "2d6bfb02e4f0b26bfb0987619c4d8494"}, {"is_disabled": 0, "is_reserved": 0, "type": "electric_bike", "lon": -77.07047116666666, "fusion_lon": 0.0, "lat": 38.824493833333335, "rental_uris": {"android": "https://dc.lft.to/lastmile_qr_scan", "ios": "https://dc.lft.to/lastmile_qr_scan"}, "fusion_lat": 0.0, "name": "f63a757c696ceb58d3237a8fe54f7581", "bike_id": "f63a757c696ceb58d3237a8fe54f7581"}, {"is_disabled": 0, "is_reserved": 0, "type": "electric_scooter", "lon": -77.04480416666667, "fusion_lon": 0.0, "lat": 38.90411016666667, "rental_uris": {"android": "https://dc.lft.to/lastmile_qr_scan", "ios": "https://dc.lft.to/lastmile_qr_scan"}, "fusion_lat": 0.0, "name": "54fe749a453b6bb7041362bbc7be0bfc", "bike_id": "54fe749a453b6bb7041362bbc7be0bfc"}, {"is_disabled": 0, "is_reserved": 0, "type": "electric_scooter", "lon": -77.040157, "fusion_lon": 0.0, "lat": 38.90351783333333, "rental_uris": {"android": "https://dc.lft.to/lastmile_qr_scan", "ios": "https://dc.lft.to/lastmile_qr_scan"}, "fusion_lat": 0.0, "name": "d4f7bb2b4fe25e1640ed65350b763558", "bike_id": "d4f7bb2b4fe25e1640ed65350b763558"}, {"is_disabled": 0, "is_reserved": 0, "type": "electric_scooter", "lon": -77.03849216666667, "fusion_lon": 0.0, "lat": 38.92645516666666, "rental_uris": {"android": "https://dc.lft.to/lastmile_qr_scan", "ios": "https://dc.lft.to/lastmile_qr_scan"}, "fusion_lat": 0.0, "name": "84ce060de8faa326df40becc11e98639", "bike_id": "84ce060de8faa326df40becc11e98639"}, {"is_disabled": 0, "is_reserved": 0, "type": "electric_bike", "lon": -77.12824866666666, "fusion_lon": 0.0, "lat": 38.8652895, "rental_uris": {"android": "https://dc.lft.to/lastmile_qr_scan", "ios": "https://dc.lft.to/lastmile_qr_scan"}, "fusion_lat": 0.0, "name": "2d8679652d40243dc4eb788450701b43", "bike_id": "2d8679652d40243dc4eb788450701b43"}, {"is_disabled": 0, "is_reserved": 0, "type": "electric_scooter", "lon": -77.04161833333333, "fusion_lon": 0.0, "lat": 38.91570566666667, "rental_uris": {"android": "https://dc.lft.to/lastmile_qr_scan", "ios": "https://dc.lft.to/lastmile_qr_scan"}, "fusion_lat": 0.0, "name": "3c38dcf76d4e1bbe1bec0dffbb288813", "bike_id": "3c38dcf76d4e1bbe1bec0dffbb288813"}, {"is_disabled": 0, "is_reserved": 0, "type": "electric_scooter", "lon": -76.98707883333333, "fusion_lon": 0.0, "lat": 38.8653545, "rental_uris": {"android": "https://dc.lft.to/lastmile_qr_scan", "ios": "https://dc.lft.to/lastmile_qr_scan"}, "fusion_lat": 0.0, "name": "1f3f9619272c44af84d600f3ac70aabc", "bike_id": "1f3f9619272c44af84d600f3ac70aabc"}, {"is_disabled": 0, "is_reserved": 0, "type": "electric_scooter", "lon": -77.03826966666666, "fusion_lon": 0.0, "lat": 38.903365, "rental_uris": {"android": "https://dc.lft.to/lastmile_qr_scan", "ios": "https://dc.lft.to/lastmile_qr_scan"}, "fusion_lat": 0.0, "name": "d7627fea8676f6c4d3061e7a9c23be0b", "bike_id": "d7627fea8676f6c4d3061e7a9c23be0b"}, {"is_disabled": 0, "is_reserved": 0, "type": "electric_scooter", "lon": -77.04359383333333, "fusion_lon": 0.0, "lat": 38.89810933333333, "rental_uris": {"android": "https://dc.lft.to/lastmile_qr_scan", "ios": "https://dc.lft.to/lastmile_qr_scan"}, "fusion_lat": 0.0, "name": "ea17b566871373a7c360d01e241271fe", "bike_id": "ea17b566871373a7c360d01e241271fe"}, {"is_disabled": 0, "is_reserved": 0, "type": "electric_scooter", "lon": -77.0234835, "fusion_lon": 0.0, "lat": 38.91599166666666, "rental_uris": {"android": "https://dc.lft.to/lastmile_qr_scan", "ios": "https://dc.lft.to/lastmile_qr_scan"}, "fusion_lat": 0.0, "name": "729753717e830e4b2ea04ef02b60d7bb", "bike_id": "729753717e830e4b2ea04ef02b60d7bb"}, {"is_disabled": 0, "is_reserved": 0, "type": "electric_scooter", "lon": -77.01953033333334, "fusion_lon": 0.0, "lat": 38.92251916666667, "rental_uris": {"android": "https://dc.lft.to/lastmile_qr_scan", "ios": "https://dc.lft.to/lastmile_qr_scan"}, "fusion_lat": 0.0, "name": "d0ff1af48228bb0c05c661b7f7e46407", "bike_id": "d0ff1af48228bb0c05c661b7f7e46407"}, {"is_disabled": 0, "is_reserved": 0, "type": "electric_scooter", "lon": -77.04568183333333, "fusion_lon": 0.0, "lat": 38.91778733333334, "rental_uris": {"android": "https://dc.lft.to/lastmile_qr_scan", "ios": "https://dc.lft.to/lastmile_qr_scan"}, "fusion_lat": 0.0, "name": "cb120a84ce6458be134d69acf58dec51", "bike_id": "cb120a84ce6458be134d69acf58dec51"}, {"is_disabled": 0, "is_reserved": 0, "type": "electric_scooter", "lon": -77.04347933333334, "fusion_lon": 0.0, "lat": 38.90099933333333, "rental_uris": {"android": "https://dc.lft.to/lastmile_qr_scan", "ios": "https://dc.lft.to/lastmile_qr_scan"}, "fusion_lat": 0.0, "name": "657bc82a4b6a6e393a688e8ade3490bf", "bike_id": "657bc82a4b6a6e393a688e8ade3490bf"}, {"is_disabled": 0, "is_reserved": 0, "type": "electric_scooter", "lon": -77.04060583333333, "fusion_lon": 0.0, "lat": 38.898470833333334, "rental_uris": {"android": "https://dc.lft.to/lastmile_qr_scan", "ios": "https://dc.lft.to/lastmile_qr_scan"}, "fusion_lat": 0.0, "name": "cee8e9705807ba1f13e1bf47b7339c13", "bike_id": "cee8e9705807ba1f13e1bf47b7339c13"}, {"is_disabled": 0, "is_reserved": 0, "type": "electric_bike", "lon": -77.00957716666667, "fusion_lon": 0.0, "lat": 38.90704483333333, "rental_uris": {"android": "https://dc.lft.to/lastmile_qr_scan", "ios": "https://dc.lft.to/lastmile_qr_scan"}, "fusion_lat": 0.0, "name": "1e00197980d6a54e680121276e5b4ff5", "bike_id": "1e00197980d6a54e680121276e5b4ff5"}, {"is_disabled": 0, "is_reserved": 0, "type": "electric_scooter", "lon": -77.03307983333333, "fusion_lon": 0.0, "lat": 38.89834583333333, "rental_uris": {"android": "https://dc.lft.to/lastmile_qr_scan", "ios": "https://dc.lft.to/lastmile_qr_scan"}, "fusion_lat": 0.0, "name": "e4d6d43355806da53566ee468c529414", "bike_id": "e4d6d43355806da53566ee468c529414"}, {"is_disabled": 0, "is_reserved": 0, "type": "electric_scooter", "lon": -77.01224166666667, "fusion_lon": 0.0, "lat": 38.88581766666667, "rental_uris": {"android": "https://dc.lft.to/lastmile_qr_scan", "ios": "https://dc.lft.to/lastmile_qr_scan"}, "fusion_lat": 0.0, "name": "7191b1d93a7cd7a6bba736b2c8fbe433", "bike_id": "7191b1d93a7cd7a6bba736b2c8fbe433"}, {"is_disabled": 0, "is_reserved": 0, "type": "electric_scooter", "lon": -77.02307766666667, "fusion_lon": 0.0, "lat": 38.91665416666667, "rental_uris": {"android": "https://dc.lft.to/lastmile_qr_scan", "ios": "https://dc.lft.to/lastmile_qr_scan"}, "fusion_lat": 0.0, "name": "e75ce2ba593bc298c17a1115080a8799", "bike_id": "e75ce2ba593bc298c17a1115080a8799"}, {"is_disabled": 0, "is_reserved": 0, "type": "electric_scooter", "lon": -76.97880483333333, "fusion_lon": 0.0, "lat": 38.927253666666665, "rental_uris": {"android": "https://dc.lft.to/lastmile_qr_scan", "ios": "https://dc.lft.to/lastmile_qr_scan"}, "fusion_lat": 0.0, "name": "2a2ad672977cd64ab01d8f6b11956820", "bike_id": "2a2ad672977cd64ab01d8f6b11956820"}, {"is_disabled": 0, "is_reserved": 0, "type": "electric_scooter", "lon": -76.948247, "fusion_lon": 0.0, "lat": 38.88514633333333, "rental_uris": {"android": "https://dc.lft.to/lastmile_qr_scan", "ios": "https://dc.lft.to/lastmile_qr_scan"}, "fusion_lat": 0.0, "name": "e61b2658f9aecd93ef2cd817537ce794", "bike_id": "e61b2658f9aecd93ef2cd817537ce794"}, {"is_disabled": 0, "is_reserved": 0, "type": "electric_scooter", "lon": -77.008564, "fusion_lon": 0.0, "lat": 38.90668566666667, "rental_uris": {"android": "https://dc.lft.to/lastmile_qr_scan", "ios": "https://dc.lft.to/lastmile_qr_scan"}, "fusion_lat": 0.0, "name": "f0db03eea91cbafb65e88f0c17003b21", "bike_id": "f0db03eea91cbafb65e88f0c17003b21"}, {"is_disabled": 0, "is_reserved": 0, "type": "electric_scooter", "lon": -77.037674, "fusion_lon": 0.0, "lat": 38.916926333333336, "rental_uris": {"android": "https://dc.lft.to/lastmile_qr_scan", "ios": "https://dc.lft.to/lastmile_qr_scan"}, "fusion_lat": 0.0, "name": "c3d3d7267c01cce7f67045eff84e5b65", "bike_id": "c3d3d7267c01cce7f67045eff84e5b65"}, {"is_disabled": 0, "is_reserved": 0, "type": "electric_scooter", "lon": -77.05438466666666, "fusion_lon": 0.0, "lat": 38.89602333333333, "rental_uris": {"android": "https://dc.lft.to/lastmile_qr_scan", "ios": "https://dc.lft.to/lastmile_qr_scan"}, "fusion_lat": 0.0, "name": "9f2eccd3c82205853a66757d2ec22284", "bike_id": "9f2eccd3c82205853a66757d2ec22284"}, {"is_disabled": 0, "is_reserved": 0, "type": "electric_bike", "lon": -76.9656245, "fusion_lon": 0.0, "lat": 38.950893666666666, "rental_uris": {"android": "https://dc.lft.to/lastmile_qr_scan", "ios": "https://dc.lft.to/lastmile_qr_scan"}, "fusion_lat": 0.0, "name": "8b0c30dcf8b84fa0065dc7b03c5694dc", "bike_id": "8b0c30dcf8b84fa0065dc7b03c5694dc"}, {"is_disabled": 0, "is_reserved": 0, "type": "electric_scooter", "lon": -77.04083883333334, "fusion_lon": 0.0, "lat": 38.9078315, "rental_uris": {"android": "https://dc.lft.to/lastmile_qr_scan", "ios": "https://dc.lft.to/lastmile_qr_scan"}, "fusion_lat": 0.0, "name": "4b33002eb3b608c0d8b032deae1b676b", "bike_id": "4b33002eb3b608c0d8b032deae1b676b"}, {"is_disabled": 0, "is_reserved": 0, "type": "electric_scooter", "lon": -77.01894983333334, "fusion_lon": 0.0, "lat": 38.90644566666667, "rental_uris": {"android": "https://dc.lft.to/lastmile_qr_scan", "ios": "https://dc.lft.to/lastmile_qr_scan"}, "fusion_lat": 0.0, "name": "76960f7d1262c2b956ee405f1b5b40ed", "bike_id": "76960f7d1262c2b956ee405f1b5b40ed"}, {"is_disabled": 0, "is_reserved": 0, "type": "electric_scooter", "lon": -76.9652815, "fusion_lon": 0.0, "lat": 38.87628733333333, "rental_uris": {"android": "https://dc.lft.to/lastmile_qr_scan", "ios": "https://dc.lft.to/lastmile_qr_scan"}, "fusion_lat": 0.0, "name": "05180cf7a1bbcfe1bd6e34a8c2bc2d95", "bike_id": "05180cf7a1bbcfe1bd6e34a8c2bc2d95"}, {"is_disabled": 0, "is_reserved": 0, "type": "electric_scooter", "lon": -77.02509416666666, "fusion_lon": 0.0, "lat": 38.919258, "rental_uris": {"android": "https://dc.lft.to/lastmile_qr_scan", "ios": "https://dc.lft.to/lastmile_qr_scan"}, "fusion_lat": 0.0, "name": "da13d414146e22c74794a38733886027", "bike_id": "da13d414146e22c74794a38733886027"}, {"is_disabled": 0, "is_reserved": 0, "type": "electric_scooter", "lon": -77.03835833333333, "fusion_lon": 0.0, "lat": 38.9027445, "rental_uris": {"android": "https://dc.lft.to/lastmile_qr_scan", "ios": "https://dc.lft.to/lastmile_qr_scan"}, "fusion_lat": 0.0, "name": "48dc9be56281c2f03dbec9414c4c1f21", "bike_id": "48dc9be56281c2f03dbec9414c4c1f21"}, {"is_disabled": 0, "is_reserved": 0, "type": "electric_scooter", "lon": -77.01953483333334, "fusion_lon": 0.0, "lat": 38.928519666666666, "rental_uris": {"android": "https://dc.lft.to/lastmile_qr_scan", "ios": "https://dc.lft.to/lastmile_qr_scan"}, "fusion_lat": 0.0, "name": "8db9ea752dc0de12ce2ea29c46964eb5", "bike_id": "8db9ea752dc0de12ce2ea29c46964eb5"}, {"is_disabled": 0, "is_reserved": 0, "type": "electric_scooter", "lon": -77.03497416666667, "fusion_lon": 0.0, "lat": 38.91705433333333, "rental_uris": {"android": "https://dc.lft.to/lastmile_qr_scan", "ios": "https://dc.lft.to/lastmile_qr_scan"}, "fusion_lat": 0.0, "name": "d84c693b38667e678599ccf4ea3f9631", "bike_id": "d84c693b38667e678599ccf4ea3f9631"}, {"is_disabled": 0, "is_reserved": 0, "type": "electric_scooter", "lon": -77.04672083333334, "fusion_lon": 0.0, "lat": 38.895040333333334, "rental_uris": {"android": "https://dc.lft.to/lastmile_qr_scan", "ios": "https://dc.lft.to/lastmile_qr_scan"}, "fusion_lat": 0.0, "name": "71640b87af5d5e8a8c427d585859a565", "bike_id": "71640b87af5d5e8a8c427d585859a565"}, {"is_disabled": 0, "is_reserved": 0, "type": "electric_scooter", "lon": -77.04624, "fusion_lon": 0.0, "lat": 38.923147666666665, "rental_uris": {"android": "https://dc.lft.to/lastmile_qr_scan", "ios": "https://dc.lft.to/lastmile_qr_scan"}, "fusion_lat": 0.0, "name": "f28a6fa2ba7fd5e1f3e2a480621171be", "bike_id": "f28a6fa2ba7fd5e1f3e2a480621171be"}, {"is_disabled": 0, "is_reserved": 0, "type": "electric_scooter", "lon": -76.99061783333333, "fusion_lon": 0.0, "lat": 38.84409983333333, "rental_uris": {"android": "https://dc.lft.to/lastmile_qr_scan", "ios": "https://dc.lft.to/lastmile_qr_scan"}, "fusion_lat": 0.0, "name": "257ee9950adc178f7bb6e3d6de2e270b", "bike_id": "257ee9950adc178f7bb6e3d6de2e270b"}, {"is_disabled": 0, "is_reserved": 0, "type": "electric_scooter", "lon": -76.94121983333334, "fusion_lon": 0.0, "lat": 38.88448783333333, "rental_uris": {"android": "https://dc.lft.to/lastmile_qr_scan", "ios": "https://dc.lft.to/lastmile_qr_scan"}, "fusion_lat": 0.0, "name": "50842caf7b63c801db92a1aa56c3e83e", "bike_id": "50842caf7b63c801db92a1aa56c3e83e"}, {"is_disabled": 0, "is_reserved": 0, "type": "electric_scooter", "lon": -77.03466983333334, "fusion_lon": 0.0, "lat": 38.90264366666667, "rental_uris": {"android": "https://dc.lft.to/lastmile_qr_scan", "ios": "https://dc.lft.to/lastmile_qr_scan"}, "fusion_lat": 0.0, "name": "6f479bb05509918330131b53c04b0458", "bike_id": "6f479bb05509918330131b53c04b0458"}, {"is_disabled": 0, "is_reserved": 0, "type": "electric_scooter", "lon": -77.0426555, "fusion_lon": 0.0, "lat": 38.910473, "rental_uris": {"android": "https://dc.lft.to/lastmile_qr_scan", "ios": "https://dc.lft.to/lastmile_qr_scan"}, "fusion_lat": 0.0, "name": "1beae878d11765d36378125b2550921d", "bike_id": "1beae878d11765d36378125b2550921d"}, {"is_disabled": 0, "is_reserved": 0, "type": "electric_scooter", "lon": -77.03861166666667, "fusion_lon": 0.0, "lat": 38.90386266666667, "rental_uris": {"android": "https://dc.lft.to/lastmile_qr_scan", "ios": "https://dc.lft.to/lastmile_qr_scan"}, "fusion_lat": 0.0, "name": "e75ae141ad97ada1a0c43e2ec4eecbce", "bike_id": "e75ae141ad97ada1a0c43e2ec4eecbce"}, {"is_disabled": 0, "is_reserved": 0, "type": "electric_scooter", "lon": -77.0298705, "fusion_lon": 0.0, "lat": 38.93233216666667, "rental_uris": {"android": "https://dc.lft.to/lastmile_qr_scan", "ios": "https://dc.lft.to/lastmile_qr_scan"}, "fusion_lat": 0.0, "name": "78e5a8f2de25f70dbe3e8eb182b034dc", "bike_id": "78e5a8f2de25f70dbe3e8eb182b034dc"}, {"is_disabled": 0, "is_reserved": 0, "type": "electric_scooter", "lon": -77.03896416666667, "fusion_lon": 0.0, "lat": 38.92497633333333, "rental_uris": {"android": "https://dc.lft.to/lastmile_qr_scan", "ios": "https://dc.lft.to/lastmile_qr_scan"}, "fusion_lat": 0.0, "name": "25b55f86f6080a8e78cac91fd637bb53", "bike_id": "25b55f86f6080a8e78cac91fd637bb53"}, {"is_disabled": 0, "is_reserved": 0, "type": "electric_scooter", "lon": -77.04696833333334, "fusion_lon": 0.0, "lat": 38.8974355, "rental_uris": {"android": "https://dc.lft.to/lastmile_qr_scan", "ios": "https://dc.lft.to/lastmile_qr_scan"}, "fusion_lat": 0.0, "name": "68645bc79c9e27461adff8178793d11f", "bike_id": "68645bc79c9e27461adff8178793d11f"}, {"is_disabled": 0, "is_reserved": 0, "type": "electric_scooter", "lon": -77.02654566666666, "fusion_lon": 0.0, "lat": 38.93271933333333, "rental_uris": {"android": "https://dc.lft.to/lastmile_qr_scan", "ios": "https://dc.lft.to/lastmile_qr_scan"}, "fusion_lat": 0.0, "name": "b6f40b9b6e330e3dbcd8e8d03bed1bef", "bike_id": "b6f40b9b6e330e3dbcd8e8d03bed1bef"}, {"is_disabled": 0, "is_reserved": 0, "type": "electric_bike", "lon": -76.988292, "fusion_lon": 0.0, "lat": 38.985611666666664, "rental_uris": {"android": "https://dc.lft.to/lastmile_qr_scan", "ios": "https://dc.lft.to/lastmile_qr_scan"}, "fusion_lat": 0.0, "name": "8f0bbfc0e8e5b4dcb66982d6227b5f5f", "bike_id": "8f0bbfc0e8e5b4dcb66982d6227b5f5f"}, {"is_disabled": 0, "is_reserved": 0, "type": "electric_scooter", "lon": -76.99033466666667, "fusion_lon": 0.0, "lat": 38.8985215, "rental_uris": {"android": "https://dc.lft.to/lastmile_qr_scan", "ios": "https://dc.lft.to/lastmile_qr_scan"}, "fusion_lat": 0.0, "name": "69127a2bcfc7d0a38f62ef2b868fdb28", "bike_id": "69127a2bcfc7d0a38f62ef2b868fdb28"}, {"is_disabled": 0, "is_reserved": 0, "type": "electric_scooter", "lon": -77.05086716666666, "fusion_lon": 0.0, "lat": 38.9053165, "rental_uris": {"android": "https://dc.lft.to/lastmile_qr_scan", "ios": "https://dc.lft.to/lastmile_qr_scan"}, "fusion_lat": 0.0, "name": "98af50d951a0b5015488e8fcb429de44", "bike_id": "98af50d951a0b5015488e8fcb429de44"}, {"is_disabled": 0, "is_reserved": 0, "type": "electric_scooter", "lon": -77.02631366666667, "fusion_lon": 0.0, "lat": 38.979425, "rental_uris": {"android": "https://dc.lft.to/lastmile_qr_scan", "ios": "https://dc.lft.to/lastmile_qr_scan"}, "fusion_lat": 0.0, "name": "7d60b5fc4a814138600a88ab106792d8", "bike_id": "7d60b5fc4a814138600a88ab106792d8"}, {"is_disabled": 0, "is_reserved": 0, "type": "electric_scooter", "lon": -77.0274145, "fusion_lon": 0.0, "lat": 38.94306, "rental_uris": {"android": "https://dc.lft.to/lastmile_qr_scan", "ios": "https://dc.lft.to/lastmile_qr_scan"}, "fusion_lat": 0.0, "name": "4bb8c040c52453e11215f8683d0e32b7", "bike_id": "4bb8c040c52453e11215f8683d0e32b7"}, {"is_disabled": 0, "is_reserved": 0, "type": "electric_scooter", "lon": -77.0402115, "fusion_lon": 0.0, "lat": 38.917971333333334, "rental_uris": {"android": "https://dc.lft.to/lastmile_qr_scan", "ios": "https://dc.lft.to/lastmile_qr_scan"}, "fusion_lat": 0.0, "name": "b809d56e2d7a9e13f34cbcb95c7e10e6", "bike_id": "b809d56e2d7a9e13f34cbcb95c7e10e6"}, {"is_disabled": 0, "is_reserved": 0, "type": "electric_scooter", "lon": -77.02184733333333, "fusion_lon": 0.0, "lat": 38.91319383333333, "rental_uris": {"android": "https://dc.lft.to/lastmile_qr_scan", "ios": "https://dc.lft.to/lastmile_qr_scan"}, "fusion_lat": 0.0, "name": "7ab990096601a8c72a08296033390a69", "bike_id": "7ab990096601a8c72a08296033390a69"}, {"is_disabled": 0, "is_reserved": 0, "type": "electric_scooter", "lon": -76.96548266666667, "fusion_lon": 0.0, "lat": 38.918734, "rental_uris": {"android": "https://dc.lft.to/lastmile_qr_scan", "ios": "https://dc.lft.to/lastmile_qr_scan"}, "fusion_lat": 0.0, "name": "a0ce02b61d1891e10d930cd83b47a8ab", "bike_id": "a0ce02b61d1891e10d930cd83b47a8ab"}, {"is_disabled": 0, "is_reserved": 0, "type": "electric_scooter", "lon": -77.01580566666667, "fusion_lon": 0.0, "lat": 38.876600333333336, "rental_uris": {"android": "https://dc.lft.to/lastmile_qr_scan", "ios": "https://dc.lft.to/lastmile_qr_scan"}, "fusion_lat": 0.0, "name": "4351ff71afd0413d4fd03c6626168491", "bike_id": "4351ff71afd0413d4fd03c6626168491"}, {"is_disabled": 0, "is_reserved": 0, "type": "electric_scooter", "lon": -77.04413966666667, "fusion_lon": 0.0, "lat": 38.90137283333333, "rental_uris": {"android": "https://dc.lft.to/lastmile_qr_scan", "ios": "https://dc.lft.to/lastmile_qr_scan"}, "fusion_lat": 0.0, "name": "c6e3bf5edaf710d072331829e02b1103", "bike_id": "c6e3bf5edaf710d072331829e02b1103"}, {"is_disabled": 0, "is_reserved": 0, "type": "electric_scooter", "lon": -77.05971383333333, "fusion_lon": 0.0, "lat": 38.9052685, "rental_uris": {"android": "https://dc.lft.to/lastmile_qr_scan", "ios": "https://dc.lft.to/lastmile_qr_scan"}, "fusion_lat": 0.0, "name": "5c1effb35223366b0bad83335c6787e6", "bike_id": "5c1effb35223366b0bad83335c6787e6"}, {"is_disabled": 0, "is_reserved": 0, "type": "electric_scooter", "lon": -77.01258233333333, "fusion_lon": 0.0, "lat": 38.876315166666664, "rental_uris": {"android": "https://dc.lft.to/lastmile_qr_scan", "ios": "https://dc.lft.to/lastmile_qr_scan"}, "fusion_lat": 0.0, "name": "0305cf74432ef42f7596cd84705e837b", "bike_id": "0305cf74432ef42f7596cd84705e837b"}, {"is_disabled": 0, "is_reserved": 0, "type": "electric_scooter", "lon": -77.02847283333334, "fusion_lon": 0.0, "lat": 38.934181333333335, "rental_uris": {"android": "https://dc.lft.to/lastmile_qr_scan", "ios": "https://dc.lft.to/lastmile_qr_scan"}, "fusion_lat": 0.0, "name": "39fc7f17a7d2577815aad787c66003b7", "bike_id": "39fc7f17a7d2577815aad787c66003b7"}, {"is_disabled": 0, "is_reserved": 0, "type": "electric_scooter", "lon": -77.035147, "fusion_lon": 0.0, "lat": 38.93588066666667, "rental_uris": {"android": "https://dc.lft.to/lastmile_qr_scan", "ios": "https://dc.lft.to/lastmile_qr_scan"}, "fusion_lat": 0.0, "name": "74c98fc40e320df036e5fd8640b81402", "bike_id": "74c98fc40e320df036e5fd8640b81402"}, {"is_disabled": 0, "is_reserved": 0, "type": "electric_scooter", "lon": -77.023686, "fusion_lon": 0.0, "lat": 38.887689333333334, "rental_uris": {"android": "https://dc.lft.to/lastmile_qr_scan", "ios": "https://dc.lft.to/lastmile_qr_scan"}, "fusion_lat": 0.0, "name": "d5ad81f7f0a164b521af38719116731f", "bike_id": "d5ad81f7f0a164b521af38719116731f"}, {"is_disabled": 0, "is_reserved": 0, "type": "electric_scooter", "lon": -77.0212305, "fusion_lon": 0.0, "lat": 38.88743566666667, "rental_uris": {"android": "https://dc.lft.to/lastmile_qr_scan", "ios": "https://dc.lft.to/lastmile_qr_scan"}, "fusion_lat": 0.0, "name": "bb2e0d2460316075ae11d3882b72bc8e", "bike_id": "bb2e0d2460316075ae11d3882b72bc8e"}, {"is_disabled": 0, "is_reserved": 0, "type": "electric_scooter", "lon": -77.02302183333333, "fusion_lon": 0.0, "lat": 38.90171766666667, "rental_uris": {"android": "https://dc.lft.to/lastmile_qr_scan", "ios": "https://dc.lft.to/lastmile_qr_scan"}, "fusion_lat": 0.0, "name": "5c056b0afc629c5b8a384b1d8be32764", "bike_id": "5c056b0afc629c5b8a384b1d8be32764"}, {"is_disabled": 0, "is_reserved": 0, "type": "electric_bike", "lon": -76.9341335, "fusion_lon": 0.0, "lat": 38.946231833333336, "rental_uris": {"android": "https://dc.lft.to/lastmile_qr_scan", "ios": "https://dc.lft.to/lastmile_qr_scan"}, "fusion_lat": 0.0, "name": "c29eea6d6d5417612cddb921dae5188e", "bike_id": "c29eea6d6d5417612cddb921dae5188e"}, {"is_disabled": 0, "is_reserved": 0, "type": "electric_scooter", "lon": -77.01756116666667, "fusion_lon": 0.0, "lat": 38.87686766666667, "rental_uris": {"android": "https://dc.lft.to/lastmile_qr_scan", "ios": "https://dc.lft.to/lastmile_qr_scan"}, "fusion_lat": 0.0, "name": "03fcef1dad0a09b87d311dd7c89ea087", "bike_id": "03fcef1dad0a09b87d311dd7c89ea087"}, {"is_disabled": 0, "is_reserved": 0, "type": "electric_scooter", "lon": -76.9576065, "fusion_lon": 0.0, "lat": 38.884263833333335, "rental_uris": {"android": "https://dc.lft.to/lastmile_qr_scan", "ios": "https://dc.lft.to/lastmile_qr_scan"}, "fusion_lat": 0.0, "name": "9a12308c699098cdda3f409552b7a4f9", "bike_id": "9a12308c699098cdda3f409552b7a4f9"}, {"is_disabled": 0, "is_reserved": 0, "type": "electric_scooter", "lon": -77.024934, "fusion_lon": 0.0, "lat": 38.941867, "rental_uris": {"android": "https://dc.lft.to/lastmile_qr_scan", "ios": "https://dc.lft.to/lastmile_qr_scan"}, "fusion_lat": 0.0, "name": "90740b4a85a0fd0a29b78cbe3710b98e", "bike_id": "90740b4a85a0fd0a29b78cbe3710b98e"}, {"is_disabled": 0, "is_reserved": 0, "type": "electric_scooter", "lon": -77.01688916666667, "fusion_lon": 0.0, "lat": 38.902595, "rental_uris": {"android": "https://dc.lft.to/lastmile_qr_scan", "ios": "https://dc.lft.to/lastmile_qr_scan"}, "fusion_lat": 0.0, "name": "37e42dc5406fe402d375183113821251", "bike_id": "37e42dc5406fe402d375183113821251"}, {"is_disabled": 0, "is_reserved": 0, "type": "electric_scooter", "lon": -77.05041633333333, "fusion_lon": 0.0, "lat": 38.92357, "rental_uris": {"android": "https://dc.lft.to/lastmile_qr_scan", "ios": "https://dc.lft.to/lastmile_qr_scan"}, "fusion_lat": 0.0, "name": "1843a0900983e978866f905d86ec4f07", "bike_id": "1843a0900983e978866f905d86ec4f07"}, {"is_disabled": 0, "is_reserved": 0, "type": "electric_scooter", "lon": -77.02594316666666, "fusion_lon": 0.0, "lat": 38.904322666666665, "rental_uris": {"android": "https://dc.lft.to/lastmile_qr_scan", "ios": "https://dc.lft.to/lastmile_qr_scan"}, "fusion_lat": 0.0, "name": "c66b893a9339378843dc4ae48e32e70a", "bike_id": "c66b893a9339378843dc4ae48e32e70a"}, {"is_disabled": 0, "is_reserved": 0, "type": "electric_scooter", "lon": -77.04673683333333, "fusion_lon": 0.0, "lat": 38.90009666666667, "rental_uris": {"android": "https://dc.lft.to/lastmile_qr_scan", "ios": "https://dc.lft.to/lastmile_qr_scan"}, "fusion_lat": 0.0, "name": "c9198eefaba06a6837b13f002bdcf001", "bike_id": "c9198eefaba06a6837b13f002bdcf001"}, {"is_disabled": 0, "is_reserved": 0, "type": "electric_scooter", "lon": -76.99391133333333, "fusion_lon": 0.0, "lat": 38.884505833333336, "rental_uris": {"android": "https://dc.lft.to/lastmile_qr_scan", "ios": "https://dc.lft.to/lastmile_qr_scan"}, "fusion_lat": 0.0, "name": "8ca4f03984f585dd3250684ea0e9f472", "bike_id": "8ca4f03984f585dd3250684ea0e9f472"}, {"is_disabled": 0, "is_reserved": 0, "type": "electric_scooter", "lon": -77.02302433333334, "fusion_lon": 0.0, "lat": 38.9170375, "rental_uris": {"android": "https://dc.lft.to/lastmile_qr_scan", "ios": "https://dc.lft.to/lastmile_qr_scan"}, "fusion_lat": 0.0, "name": "be5178593ffb7350058d79b0a79bd145", "bike_id": "be5178593ffb7350058d79b0a79bd145"}, {"is_disabled": 0, "is_reserved": 0, "type": "electric_bike", "lon": -77.02488783333334, "fusion_lon": 0.0, "lat": 38.97369883333333, "rental_uris": {"android": "https://dc.lft.to/lastmile_qr_scan", "ios": "https://dc.lft.to/lastmile_qr_scan"}, "fusion_lat": 0.0, "name": "de2ee1ea193bbb1558733cd5c049782b", "bike_id": "de2ee1ea193bbb1558733cd5c049782b"}, {"is_disabled": 0, "is_reserved": 0, "type": "electric_scooter", "lon": -77.0235705, "fusion_lon": 0.0, "lat": 38.9306625, "rental_uris": {"android": "https://dc.lft.to/lastmile_qr_scan", "ios": "https://dc.lft.to/lastmile_qr_scan"}, "fusion_lat": 0.0, "name": "97efd44415e3c049a5ad859c92855217", "bike_id": "97efd44415e3c049a5ad859c92855217"}, {"is_disabled": 0, "is_reserved": 0, "type": "electric_scooter", "lon": -77.0451415, "fusion_lon": 0.0, "lat": 38.90776916666667, "rental_uris": {"android": "https://dc.lft.to/lastmile_qr_scan", "ios": "https://dc.lft.to/lastmile_qr_scan"}, "fusion_lat": 0.0, "name": "3f439dbd00322792fc633df13a9812ac", "bike_id": "3f439dbd00322792fc633df13a9812ac"}, {"is_disabled": 0, "is_reserved": 0, "type": "electric_bike", "lon": -76.971334, "fusion_lon": 0.0, "lat": 38.91960533333334, "rental_uris": {"android": "https://dc.lft.to/lastmile_qr_scan", "ios": "https://dc.lft.to/lastmile_qr_scan"}, "fusion_lat": 0.0, "name": "9928438bb3ecc2804f5f2fbba5f08f45", "bike_id": "9928438bb3ecc2804f5f2fbba5f08f45"}, {"is_disabled": 0, "is_reserved": 0, "type": "electric_scooter", "lon": -76.99631716666667, "fusion_lon": 0.0, "lat": 38.8462125, "rental_uris": {"android": "https://dc.lft.to/lastmile_qr_scan", "ios": "https://dc.lft.to/lastmile_qr_scan"}, "fusion_lat": 0.0, "name": "0289ffbce49bc860b23925337fb20a1c", "bike_id": "0289ffbce49bc860b23925337fb20a1c"}, {"is_disabled": 0, "is_reserved": 0, "type": "electric_scooter", "lon": -77.04490333333334, "fusion_lon": 0.0, "lat": 38.919237333333335, "rental_uris": {"android": "https://dc.lft.to/lastmile_qr_scan", "ios": "https://dc.lft.to/lastmile_qr_scan"}, "fusion_lat": 0.0, "name": "7b45f40f8db9afae69e0608205d281c4", "bike_id": "7b45f40f8db9afae69e0608205d281c4"}, {"is_disabled": 0, "is_reserved": 0, "type": "electric_scooter", "lon": -76.99015483333334, "fusion_lon": 0.0, "lat": 38.861073, "rental_uris": {"android": "https://dc.lft.to/lastmile_qr_scan", "ios": "https://dc.lft.to/lastmile_qr_scan"}, "fusion_lat": 0.0, "name": "f7eea520d4bb3309e30f1290225815b8", "bike_id": "f7eea520d4bb3309e30f1290225815b8"}, {"is_disabled": 0, "is_reserved": 0, "type": "electric_scooter", "lon": -77.03342916666666, "fusion_lon": 0.0, "lat": 38.918002, "rental_uris": {"android": "https://dc.lft.to/lastmile_qr_scan", "ios": "https://dc.lft.to/lastmile_qr_scan"}, "fusion_lat": 0.0, "name": "3bd1d1570b6391dc6cf868ba1c80be07", "bike_id": "3bd1d1570b6391dc6cf868ba1c80be07"}, {"is_disabled": 0, "is_reserved": 0, "type": "electric_scooter", "lon": -77.02219983333333, "fusion_lon": 0.0, "lat": 38.935529333333335, "rental_uris": {"android": "https://dc.lft.to/lastmile_qr_scan", "ios": "https://dc.lft.to/lastmile_qr_scan"}, "fusion_lat": 0.0, "name": "1885fff29b01ee465fac87f658be1974", "bike_id": "1885fff29b01ee465fac87f658be1974"}, {"is_disabled": 0, "is_reserved": 0, "type": "electric_scooter", "lon": -77.021605, "fusion_lon": 0.0, "lat": 38.92612066666667, "rental_uris": {"android": "https://dc.lft.to/lastmile_qr_scan", "ios": "https://dc.lft.to/lastmile_qr_scan"}, "fusion_lat": 0.0, "name": "53987e0bf404b0a5bd1504a4ffdc7e14", "bike_id": "53987e0bf404b0a5bd1504a4ffdc7e14"}, {"is_disabled": 0, "is_reserved": 0, "type": "electric_scooter", "lon": -76.93054416666666, "fusion_lon": 0.0, "lat": 38.897983333333336, "rental_uris": {"android": "https://dc.lft.to/lastmile_qr_scan", "ios": "https://dc.lft.to/lastmile_qr_scan"}, "fusion_lat": 0.0, "name": "32c07bec6678d5d816efc7bfcf85a0de", "bike_id": "32c07bec6678d5d816efc7bfcf85a0de"}, {"is_disabled": 0, "is_reserved": 0, "type": "electric_scooter", "lon": -77.04154416666667, "fusion_lon": 0.0, "lat": 38.91417966666667, "rental_uris": {"android": "https://dc.lft.to/lastmile_qr_scan", "ios": "https://dc.lft.to/lastmile_qr_scan"}, "fusion_lat": 0.0, "name": "d33f8e9246e025276dd9369d315d17a3", "bike_id": "d33f8e9246e025276dd9369d315d17a3"}, {"is_disabled": 0, "is_reserved": 0, "type": "electric_bike", "lon": -77.12403516666667, "fusion_lon": 0.0, "lat": 38.893362, "rental_uris": {"android": "https://dc.lft.to/lastmile_qr_scan", "ios": "https://dc.lft.to/lastmile_qr_scan"}, "fusion_lat": 0.0, "name": "016caef86512b3251cd126d81e24a1c5", "bike_id": "016caef86512b3251cd126d81e24a1c5"}, {"is_disabled": 0, "is_reserved": 0, "type": "electric_scooter", "lon": -77.00578283333333, "fusion_lon": 0.0, "lat": 38.875292333333334, "rental_uris": {"android": "https://dc.lft.to/lastmile_qr_scan", "ios": "https://dc.lft.to/lastmile_qr_scan"}, "fusion_lat": 0.0, "name": "88c84587bda9a7df19484355d7177e01", "bike_id": "88c84587bda9a7df19484355d7177e01"}, {"is_disabled": 0, "is_reserved": 0, "type": "electric_scooter", "lon": -76.996317, "fusion_lon": 0.0, "lat": 38.84621083333333, "rental_uris": {"android": "https://dc.lft.to/lastmile_qr_scan", "ios": "https://dc.lft.to/lastmile_qr_scan"}, "fusion_lat": 0.0, "name": "e97e3d661270d0f9b47d3bad829f6547", "bike_id": "e97e3d661270d0f9b47d3bad829f6547"}, {"is_disabled": 0, "is_reserved": 0, "type": "electric_scooter", "lon": -77.03845133333333, "fusion_lon": 0.0, "lat": 38.92164416666667, "rental_uris": {"android": "https://dc.lft.to/lastmile_qr_scan", "ios": "https://dc.lft.to/lastmile_qr_scan"}, "fusion_lat": 0.0, "name": "860b97880b2a836ec8b3b6ea53956126", "bike_id": "860b97880b2a836ec8b3b6ea53956126"}, {"is_disabled": 0, "is_reserved": 0, "type": "electric_scooter", "lon": -77.0337935, "fusion_lon": 0.0, "lat": 38.89841466666667, "rental_uris": {"android": "https://dc.lft.to/lastmile_qr_scan", "ios": "https://dc.lft.to/lastmile_qr_scan"}, "fusion_lat": 0.0, "name": "bad95b1a74405293532474914d38c757", "bike_id": "bad95b1a74405293532474914d38c757"}, {"is_disabled": 0, "is_reserved": 0, "type": "electric_scooter", "lon": -77.036431, "fusion_lon": 0.0, "lat": 38.90302783333333, "rental_uris": {"android": "https://dc.lft.to/lastmile_qr_scan", "ios": "https://dc.lft.to/lastmile_qr_scan"}, "fusion_lat": 0.0, "name": "e40469b8b8177fa2ef39e23195d93c7e", "bike_id": "e40469b8b8177fa2ef39e23195d93c7e"}, {"is_disabled": 0, "is_reserved": 0, "type": "electric_scooter", "lon": -77.03926783333333, "fusion_lon": 0.0, "lat": 38.919124, "rental_uris": {"android": "https://dc.lft.to/lastmile_qr_scan", "ios": "https://dc.lft.to/lastmile_qr_scan"}, "fusion_lat": 0.0, "name": "40810687f85690373a552bb89e8407f1", "bike_id": "40810687f85690373a552bb89e8407f1"}, {"is_disabled": 0, "is_reserved": 0, "type": "electric_bike", "lon": -77.033433, "fusion_lon": 0.0, "lat": 38.89829366666667, "rental_uris": {"android": "https://dc.lft.to/lastmile_qr_scan", "ios": "https://dc.lft.to/lastmile_qr_scan"}, "fusion_lat": 0.0, "name": "d4e5ac46b54461f73e20edc56da59383", "bike_id": "d4e5ac46b54461f73e20edc56da59383"}, {"is_disabled": 0, "is_reserved": 0, "type": "electric_scooter", "lon": -77.03177083333334, "fusion_lon": 0.0, "lat": 38.9141405, "rental_uris": {"android": "https://dc.lft.to/lastmile_qr_scan", "ios": "https://dc.lft.to/lastmile_qr_scan"}, "fusion_lat": 0.0, "name": "a9f03d3c60aa89f4bf1af6060d7cfb65", "bike_id": "a9f03d3c60aa89f4bf1af6060d7cfb65"}, {"is_disabled": 0, "is_reserved": 0, "type": "electric_scooter", "lon": -77.03427916666666, "fusion_lon": 0.0, "lat": 38.92732383333333, "rental_uris": {"android": "https://dc.lft.to/lastmile_qr_scan", "ios": "https://dc.lft.to/lastmile_qr_scan"}, "fusion_lat": 0.0, "name": "4d39b240e3fa1cc73f794dd51c4505a9", "bike_id": "4d39b240e3fa1cc73f794dd51c4505a9"}, {"is_disabled": 0, "is_reserved": 0, "type": "electric_scooter", "lon": -77.02956083333333, "fusion_lon": 0.0, "lat": 38.89635766666667, "rental_uris": {"android": "https://dc.lft.to/lastmile_qr_scan", "ios": "https://dc.lft.to/lastmile_qr_scan"}, "fusion_lat": 0.0, "name": "eff44c8faf4d1b7031ff2e047cd3a1ae", "bike_id": "eff44c8faf4d1b7031ff2e047cd3a1ae"}, {"is_disabled": 0, "is_reserved": 0, "type": "electric_scooter", "lon": -77.00793316666666, "fusion_lon": 0.0, "lat": 38.907211, "rental_uris": {"android": "https://dc.lft.to/lastmile_qr_scan", "ios": "https://dc.lft.to/lastmile_qr_scan"}, "fusion_lat": 0.0, "name": "c2c764416c12b4daeeaaa5a058afdc6a", "bike_id": "c2c764416c12b4daeeaaa5a058afdc6a"}, {"is_disabled": 0, "is_reserved": 0, "type": "electric_scooter", "lon": -77.04159933333334, "fusion_lon": 0.0, "lat": 38.916051, "rental_uris": {"android": "https://dc.lft.to/lastmile_qr_scan", "ios": "https://dc.lft.to/lastmile_qr_scan"}, "fusion_lat": 0.0, "name": "98c0a9070899751d0b033095b479038c", "bike_id": "98c0a9070899751d0b033095b479038c"}, {"is_disabled": 0, "is_reserved": 0, "type": "electric_scooter", "lon": -77.03052966666667, "fusion_lon": 0.0, "lat": 38.964232, "rental_uris": {"android": "https://dc.lft.to/lastmile_qr_scan", "ios": "https://dc.lft.to/lastmile_qr_scan"}, "fusion_lat": 0.0, "name": "c490200242b6c5f3642202484bf896d7", "bike_id": "c490200242b6c5f3642202484bf896d7"}, {"is_disabled": 0, "is_reserved": 0, "type": "electric_scooter", "lon": -77.02609683333333, "fusion_lon": 0.0, "lat": 38.92439266666667, "rental_uris": {"android": "https://dc.lft.to/lastmile_qr_scan", "ios": "https://dc.lft.to/lastmile_qr_scan"}, "fusion_lat": 0.0, "name": "efd59a6e39ba1c248536218b6ee41e45", "bike_id": "efd59a6e39ba1c248536218b6ee41e45"}, {"is_disabled": 0, "is_reserved": 0, "type": "electric_scooter", "lon": -76.99030716666667, "fusion_lon": 0.0, "lat": 38.900359, "rental_uris": {"android": "https://dc.lft.to/lastmile_qr_scan", "ios": "https://dc.lft.to/lastmile_qr_scan"}, "fusion_lat": 0.0, "name": "b8fb770f84491aed9059184e9e6cc0ae", "bike_id": "b8fb770f84491aed9059184e9e6cc0ae"}, {"is_disabled": 0, "is_reserved": 0, "type": "electric_scooter", "lon": -77.040957, "fusion_lon": 0.0, "lat": 38.90892433333333, "rental_uris": {"android": "https://dc.lft.to/lastmile_qr_scan", "ios": "https://dc.lft.to/lastmile_qr_scan"}, "fusion_lat": 0.0, "name": "8133a985b34c6d4af474f9a7a8ad16ee", "bike_id": "8133a985b34c6d4af474f9a7a8ad16ee"}, {"is_disabled": 0, "is_reserved": 0, "type": "electric_scooter", "lon": -76.96528033333334, "fusion_lon": 0.0, "lat": 38.87626866666667, "rental_uris": {"android": "https://dc.lft.to/lastmile_qr_scan", "ios": "https://dc.lft.to/lastmile_qr_scan"}, "fusion_lat": 0.0, "name": "31bf65a5ea3dc79aa981eabbae17f303", "bike_id": "31bf65a5ea3dc79aa981eabbae17f303"}, {"is_disabled": 0, "is_reserved": 0, "type": "electric_scooter", "lon": -77.06806566666667, "fusion_lon": 0.0, "lat": 38.904961, "rental_uris": {"android": "https://dc.lft.to/lastmile_qr_scan", "ios": "https://dc.lft.to/lastmile_qr_scan"}, "fusion_lat": 0.0, "name": "27d3abd49484f2ac9c67c207b4684404", "bike_id": "27d3abd49484f2ac9c67c207b4684404"}, {"is_disabled": 0, "is_reserved": 0, "type": "electric_scooter", "lon": -77.0414555, "fusion_lon": 0.0, "lat": 38.92293333333333, "rental_uris": {"android": "https://dc.lft.to/lastmile_qr_scan", "ios": "https://dc.lft.to/lastmile_qr_scan"}, "fusion_lat": 0.0, "name": "758151adb9622b23903768f3bbe4b8e5", "bike_id": "758151adb9622b23903768f3bbe4b8e5"}, {"is_disabled": 0, "is_reserved": 0, "type": "electric_scooter", "lon": -77.0414315, "fusion_lon": 0.0, "lat": 38.90026533333333, "rental_uris": {"android": "https://dc.lft.to/lastmile_qr_scan", "ios": "https://dc.lft.to/lastmile_qr_scan"}, "fusion_lat": 0.0, "name": "a88cb0afe2f999ae44a3c24b47afc4e3", "bike_id": "a88cb0afe2f999ae44a3c24b47afc4e3"}, {"is_disabled": 0, "is_reserved": 0, "type": "electric_scooter", "lon": -77.0238405, "fusion_lon": 0.0, "lat": 38.88723383333333, "rental_uris": {"android": "https://dc.lft.to/lastmile_qr_scan", "ios": "https://dc.lft.to/lastmile_qr_scan"}, "fusion_lat": 0.0, "name": "c42ad5070550c87b3cf9c557d2cbd4c3", "bike_id": "c42ad5070550c87b3cf9c557d2cbd4c3"}, {"is_disabled": 0, "is_reserved": 0, "type": "electric_scooter", "lon": -77.03938633333334, "fusion_lon": 0.0, "lat": 38.90961316666667, "rental_uris": {"android": "https://dc.lft.to/lastmile_qr_scan", "ios": "https://dc.lft.to/lastmile_qr_scan"}, "fusion_lat": 0.0, "name": "3e6026d5631467882e1e18e98f2fc1d1", "bike_id": "3e6026d5631467882e1e18e98f2fc1d1"}, {"is_disabled": 0, "is_reserved": 0, "type": "electric_scooter", "lon": -77.05006833333333, "fusion_lon": 0.0, "lat": 38.893616, "rental_uris": {"android": "https://dc.lft.to/lastmile_qr_scan", "ios": "https://dc.lft.to/lastmile_qr_scan"}, "fusion_lat": 0.0, "name": "166efce5c1846a5b0deae6233416a7fe", "bike_id": "166efce5c1846a5b0deae6233416a7fe"}, {"is_disabled": 0, "is_reserved": 0, "type": "electric_scooter", "lon": -76.99376916666667, "fusion_lon": 0.0, "lat": 38.9239995, "rental_uris": {"android": "https://dc.lft.to/lastmile_qr_scan", "ios": "https://dc.lft.to/lastmile_qr_scan"}, "fusion_lat": 0.0, "name": "9474f4f30321a4dde3aba05056c2bea2", "bike_id": "9474f4f30321a4dde3aba05056c2bea2"}, {"is_disabled": 0, "is_reserved": 0, "type": "electric_scooter", "lon": -77.04162766666667, "fusion_lon": 0.0, "lat": 38.91756683333333, "rental_uris": {"android": "https://dc.lft.to/lastmile_qr_scan", "ios": "https://dc.lft.to/lastmile_qr_scan"}, "fusion_lat": 0.0, "name": "daff7662467807b00e5c75e6649525f2", "bike_id": "daff7662467807b00e5c75e6649525f2"}, {"is_disabled": 0, "is_reserved": 0, "type": "electric_scooter", "lon": -77.02412883333334, "fusion_lon": 0.0, "lat": 38.912571166666666, "rental_uris": {"android": "https://dc.lft.to/lastmile_qr_scan", "ios": "https://dc.lft.to/lastmile_qr_scan"}, "fusion_lat": 0.0, "name": "b6038e0dfb7d9a04262579d7df4d2881", "bike_id": "b6038e0dfb7d9a04262579d7df4d2881"}, {"is_disabled": 0, "is_reserved": 0, "type": "electric_scooter", "lon": -77.0471955, "fusion_lon": 0.0, "lat": 38.90585983333333, "rental_uris": {"android": "https://dc.lft.to/lastmile_qr_scan", "ios": "https://dc.lft.to/lastmile_qr_scan"}, "fusion_lat": 0.0, "name": "e84bfe0ac82feadd007a02760852eb0a", "bike_id": "e84bfe0ac82feadd007a02760852eb0a"}, {"is_disabled": 0, "is_reserved": 0, "type": "electric_scooter", "lon": -77.0383225, "fusion_lon": 0.0, "lat": 38.911130666666665, "rental_uris": {"android": "https://dc.lft.to/lastmile_qr_scan", "ios": "https://dc.lft.to/lastmile_qr_scan"}, "fusion_lat": 0.0, "name": "0c23472f0afc6f6cb263ad8370ffba7a", "bike_id": "0c23472f0afc6f6cb263ad8370ffba7a"},