{"data": {"bikes": [{"is_reserved": 0, "type": "electric_scooter", "bike_id": "fb1a379a94e7bf29c611b5695510b5b8", "lat": 38.92144366666667, "lon": -77.045851, "rental_uris": {"android": "https://dc.lft.to/lastmile_qr_scan", "ios": "https://dc.lft.to/lastmile_qr_scan"}, "is_disabled": 0, "fusion_lat": 0.0, "name": "fb1a379a94e7bf29c611b5695510b5b8", "fusion_lon": 0.0}, {"is_reserved": 0, "type": "electric_scooter", "bike_id": "19af00d652a621015edb963dfebd233f", "lat": 38.957397666666665, "lon": -77.0301785, "rental_uris": {"android": "https://dc.lft.to/lastmile_qr_scan", "ios": "https://dc.lft.to/lastmile_qr_scan"}, "is_disabled": 0, "fusion_lat": 0.0, "name": "19af00d652a621015edb963dfebd233f", "fusion_lon": 0.0}, {"is_reserved": 0, "type": "electric_bike", "bike_id": "2cd0d7351e0cf8d2994120a6e78d3f57", "lat": 39.08492566666666, "lon": -76.95059166666667, "rental_uris": {"android": "https://dc.lft.to/lastmile_qr_scan", "ios": "https://dc.lft.to/lastmile_qr_scan"}, "is_disabled": 0, "fusion_lat": 0.0, "name": "2cd0d7351e0cf8d2994120a6e78d3f57", "fusion_lon": 0.0}, {"is_reserved": 0, "type": "electric_scooter", "bike_id": "b5b714bfe7983a3647682dd9cf4ae35e", "lat": 38.89526633333333, "lon": -77.044709, "rental_uris": {"android": "https://dc.lft.to/lastmile_qr_scan", "ios": "https://dc.lft.to/lastmile_qr_scan"}, "is_disabled": 0, "fusion_lat": 0.0, "name": "b5b714bfe7983a3647682dd9cf4ae35e", "fusion_lon": 0.0}, {"is_reserved": 0, "type": "electric_scooter", "bike_id": "709f67a6ec3b19be870482d994dd82ac", "lat": 38.920523333333335, "lon": -77.01689016666667, "rental_uris": {"android": "https://dc.lft.to/lastmile_qr_scan", "ios": "https://dc.lft.to/lastmile_qr_scan"}, "is_disabled": 0, "fusion_lat": 0.0, "name": "709f67a6ec3b19be870482d994dd82ac", "fusion_lon": 0.0}, {"is_reserved": 0, "type": "electric_scooter", "bike_id": "cbb41535703300bd733653c7c8eb3d1f", "lat": 38.906418, "lon": -76.99386716666666, "rental_uris": {"android": "https://dc.lft.to/lastmile_qr_scan", "ios": "https://dc.lft.to/lastmile_qr_scan"}, "is_disabled": 0, "fusion_lat": 0.0, "name": "cbb41535703300bd733653c7c8eb3d1f", "fusion_lon": 0.0}, {"is_reserved": 0, "type": "electric_scooter", "bike_id": "3d7b60ac104a2c456d8d615566462b89", "lat": 38.90899616666667, "lon": -77.04403616666667, "rental_uris": {"android": "https://dc.lft.to/lastmile_qr_scan", "ios": "https://dc.lft.to/lastmile_qr_scan"}, "is_disabled": 0, "fusion_lat": 0.0, "name": "3d7b60ac104a2c456d8d615566462b89", "fusion_lon": 0.0}, {"is_reserved": 0, "type": "electric_bike", "bike_id": "e9c4b36e27dc50cadc27143ddc88296f", "lat": 38.8720195, "lon": -77.22959383333334, "rental_uris": {"android": "https://dc.lft.to/lastmile_qr_scan", "ios": "https://dc.lft.to/lastmile_qr_scan"}, "is_disabled": 0, "fusion_lat": 0.0, "name": "e9c4b36e27dc50cadc27143ddc88296f", "fusion_lon": 0.0}, {"is_reserved": 0, "type": "electric_scooter", "bike_id": "f9443f93247ba0d665da2fa33fe28621", "lat": 38.9562025, "lon": -77.0032425, "rental_uris": {"android": "https://dc.lft.to/lastmile_qr_scan", "ios": "https://dc.lft.to/lastmile_qr_scan"}, "is_disabled": 0, "fusion_lat": 0.0, "name": "f9443f93247ba0d665da2fa33fe28621", "fusion_lon": 0.0}, {"is_reserved": 0, "type": "electric_scooter", "bike_id": "03c4d107045a6e852d43a69399c50ce8", "lat": 38.91483916666667, "lon": -77.0323765, "rental_uris": {"android": "https://dc.lft.to/lastmile_qr_scan", "ios": "https://dc.lft.to/lastmile_qr_scan"}, "is_disabled": 0, "fusion_lat": 0.0, "name": "03c4d107045a6e852d43a69399c50ce8", "fusion_lon": 0.0}, {"is_reserved": 0, "type": "electric_scooter", "bike_id": "586860d1d54a1531ebf3283c10c7c1ba", "lat": 38.90649466666667, "lon": -77.01201483333334, "rental_uris": {"android": "https://dc.lft.to/lastmile_qr_scan", "ios": "https://dc.lft.to/lastmile_qr_scan"}, "is_disabled": 0, "fusion_lat": 0.0, "name": "586860d1d54a1531ebf3283c10c7c1ba", "fusion_lon": 0.0}, {"is_reserved": 0, "type": "electric_scooter", "bike_id": "8fbbd33fc52ff3e83be8ed7b36d64dc4", "lat": 38.89430266666667, "lon": -77.05591066666666, "rental_uris": {"android": "https://dc.lft.to/lastmile_qr_scan", "ios": "https://dc.lft.to/lastmile_qr_scan"}, "is_disabled": 0, "fusion_lat": 0.0, "name": "8fbbd33fc52ff3e83be8ed7b36d64dc4", "fusion_lon": 0.0}, {"is_reserved": 0, "type": "electric_scooter", "bike_id": "f3280ad1b298455e1da3d1f70249ee61", "lat": 38.8950625, "lon": -76.934771, "rental_uris": {"android": "https://dc.lft.to/lastmile_qr_scan", "ios": "https://dc.lft.to/lastmile_qr_scan"}, "is_disabled": 0, "fusion_lat": 0.0, "name": "f3280ad1b298455e1da3d1f70249ee61", "fusion_lon": 0.0}, {"is_reserved": 0, "type": "electric_scooter", "bike_id": "2a5b24cc1dc3f5a02858b6b316d1c551", "lat": 38.88933516666667, "lon": -76.99371566666667, "rental_uris": {"android": "https://dc.lft.to/lastmile_qr_scan", "ios": "https://dc.lft.to/lastmile_qr_scan"}, "is_disabled": 0, "fusion_lat": 0.0, "name": "2a5b24cc1dc3f5a02858b6b316d1c551", "fusion_lon": 0.0}, {"is_reserved": 0, "type": "electric_scooter", "bike_id": "8df98e2677e6a2509b2efdb531905553", "lat": 38.894595333333335, "lon": -77.01897383333333, "rental_uris": {"android": "https://dc.lft.to/lastmile_qr_scan", "ios": "https://dc.lft.to/lastmile_qr_scan"}, "is_disabled": 0, "fusion_lat": 0.0, "name": "8df98e2677e6a2509b2efdb531905553", "fusion_lon": 0.0}, {"is_reserved": 0, "type": "electric_scooter", "bike_id": "c982b5f04f2dd3a75fe2225a38bac3dd", "lat": 38.900662, "lon": -77.05133483333333, "rental_uris": {"android": "https://dc.lft.to/lastmile_qr_scan", "ios": "https://dc.lft.to/lastmile_qr_scan"}, "is_disabled": 0, "fusion_lat": 0.0, "name": "c982b5f04f2dd3a75fe2225a38bac3dd", "fusion_lon": 0.0}, {"is_reserved": 0, "type": "electric_scooter", "bike_id": "a22c940868cc4e6dfa7847c0e8952c93", "lat": 38.883657, "lon": -76.9415345, "rental_uris": {"android": "https://dc.lft.to/lastmile_qr_scan", "ios": "https://dc.lft.to/lastmile_qr_scan"}, "is_disabled": 0, "fusion_lat": 0.0, "name": "a22c940868cc4e6dfa7847c0e8952c93", "fusion_lon": 0.0}, {"is_reserved": 0, "type": "electric_scooter", "bike_id": "61d0963a5c2bc9e250e4b4b604427a3f", "lat": 38.89368433333333, "lon": -76.93594316666666, "rental_uris": {"android": "https://dc.lft.to/lastmile_qr_scan", "ios": "https://dc.lft.to/lastmile_qr_scan"}, "is_disabled": 0, "fusion_lat": 0.0, "name": "61d0963a5c2bc9e250e4b4b604427a3f", "fusion_lon": 0.0}, {"is_reserved": 0, "type": "electric_bike", "bike_id": "93bba4c77183cab6194e3ca57fde6804", "lat": 38.930770333333335, "lon": -77.0217575, "rental_uris": {"android": "https://dc.lft.to/lastmile_qr_scan", "ios": "https://dc.lft.to/lastmile_qr_scan"}, "is_disabled": 0, "fusion_lat": 0.0, "name": "93bba4c77183cab6194e3ca57fde6804", "fusion_lon": 0.0}, {"is_reserved": 0, "type": "electric_scooter", "bike_id": "17bace52573856bd895c38b869ac1d28", "lat": 38.92219383333333, "lon": -77.02288, "rental_uris": {"android": "https://dc.lft.to/lastmile_qr_scan", "ios": "https://dc.lft.to/lastmile_qr_scan"}, "is_disabled": 0, "fusion_lat": 0.0, "name": "17bace52573856bd895c38b869ac1d28", "fusion_lon": 0.0}, {"is_reserved": 0, "type": "electric_scooter", "bike_id": "64d6f759bf158eda971ab1b8780ed235", "lat": 38.8669835, "lon": -76.97899683333333, "rental_uris": {"android": "https://dc.lft.to/lastmile_qr_scan", "ios": "https://dc.lft.to/lastmile_qr_scan"}, "is_disabled": 0, "fusion_lat": 0.0, "name": "64d6f759bf158eda971ab1b8780ed235", "fusion_lon": 0.0}, {"is_reserved": 0, "type": "electric_scooter", "bike_id": "9300d4d0d476c6cf0b19c175d7b66919", "lat": 38.903855166666666, "lon": -77.04722616666666, "rental_uris": {"android": "https://dc.lft.to/lastmile_qr_scan", "ios": "https://dc.lft.to/lastmile_qr_scan"}, "is_disabled": 0, "fusion_lat": 0.0, "name": "9300d4d0d476c6cf0b19c175d7b66919", "fusion_lon": 0.0}, {"is_reserved": 0, "type": "electric_scooter", "bike_id": "d0626fba468eef643f2cf12d1a7e9f5d", "lat": 38.903768166666666, "lon": -77.03207, "rental_uris": {"android": "https://dc.lft.to/lastmile_qr_scan", "ios": "https://dc.lft.to/lastmile_qr_scan"}, "is_disabled": 0, "fusion_lat": 0.0, "name": "d0626fba468eef643f2cf12d1a7e9f5d", "fusion_lon": 0.0}, {"is_reserved": 0, "type": "electric_bike", "bike_id": "01a94857ac248dbbcecc9ec4e907049f", "lat": 38.80386016666667, "lon": -76.98816133333334, "rental_uris": {"android": "https://dc.lft.to/lastmile_qr_scan", "ios": "https://dc.lft.to/lastmile_qr_scan"}, "is_disabled": 0, "fusion_lat": 0.0, "name": "01a94857ac248dbbcecc9ec4e907049f", "fusion_lon": 0.0}, {"is_reserved": 0, "type": "electric_scooter", "bike_id": "73e1dd375ac9d64c779b596fdd5ad6f1", "lat": 38.911996, "lon": -77.01194683333334, "rental_uris": {"android": "https://dc.lft.to/lastmile_qr_scan", "ios": "https://dc.lft.to/lastmile_qr_scan"}, "is_disabled": 0, "fusion_lat": 0.0, "name": "73e1dd375ac9d64c779b596fdd5ad6f1", "fusion_lon": 0.0}, {"is_reserved": 0, "type": "electric_scooter", "bike_id": "d6fb2f85d60249bab839ebfbc4c185a6", "lat": 38.9058925, "lon": -77.01607066666666, "rental_uris": {"android": "https://dc.lft.to/lastmile_qr_scan", "ios": "https://dc.lft.to/lastmile_qr_scan"}, "is_disabled": 0, "fusion_lat": 0.0, "name": "d6fb2f85d60249bab839ebfbc4c185a6", "fusion_lon": 0.0}, {"is_reserved": 0, "type": "electric_scooter", "bike_id": "bccc3d91f10ffd179c729785155050db", "lat": 38.91661833333333, "lon": -77.0269855, "rental_uris": {"android": "https://dc.lft.to/lastmile_qr_scan", "ios": "https://dc.lft.to/lastmile_qr_scan"}, "is_disabled": 0, "fusion_lat": 0.0, "name": "bccc3d91f10ffd179c729785155050db", "fusion_lon": 0.0}, {"is_reserved": 0, "type": "electric_scooter", "bike_id": "5faf74666e8bcfbb2b20af6abaebf1d9", "lat": 38.8922955, "lon": -77.04358, "rental_uris": {"android": "https://dc.lft.to/lastmile_qr_scan", "ios": "https://dc.lft.to/lastmile_qr_scan"}, "is_disabled": 0, "fusion_lat": 0.0, "name": "5faf74666e8bcfbb2b20af6abaebf1d9", "fusion_lon": 0.0}, {"is_reserved": 0, "type": "electric_scooter", "bike_id": "b86ae462434ba237dc8aaf339e419c16", "lat": 38.904018666666666, "lon": -77.06775383333333, "rental_uris": {"android": "https://dc.lft.to/lastmile_qr_scan", "ios": "https://dc.lft.to/lastmile_qr_scan"}, "is_disabled": 0, "fusion_lat": 0.0, "name": "b86ae462434ba237dc8aaf339e419c16", "fusion_lon": 0.0}, {"is_reserved": 0, "type": "electric_scooter", "bike_id": "9787961e913c46a3c731af4e8377180a", "lat": 38.91957566666667, "lon": -77.02498166666666, "rental_uris": {"android": "https://dc.lft.to/lastmile_qr_scan", "ios": "https://dc.lft.to/lastmile_qr_scan"}, "is_disabled": 0, "fusion_lat": 0.0, "name": "9787961e913c46a3c731af4e8377180a", "fusion_lon": 0.0}, {"is_reserved": 0, "type": "electric_scooter", "bike_id": "7cfde3c322403672742e662b5dafc51b", "lat": 38.9291825, "lon": -76.99816983333334, "rental_uris": {"android": "https://dc.lft.to/lastmile_qr_scan", "ios": "https://dc.lft.to/lastmile_qr_scan"}, "is_disabled": 0, "fusion_lat": 0.0, "name": "7cfde3c322403672742e662b5dafc51b", "fusion_lon": 0.0}, {"is_reserved": 0, "type": "electric_scooter", "bike_id": "22f516964380b3feb2442dee83b2636f", "lat": 38.911717833333334, "lon": -77.019773, "rental_uris": {"android": "https://dc.lft.to/lastmile_qr_scan", "ios": "https://dc.lft.to/lastmile_qr_scan"}, "is_disabled": 0, "fusion_lat": 0.0, "name": "22f516964380b3feb2442dee83b2636f", "fusion_lon": 0.0}, {"is_reserved": 0, "type": "electric_scooter", "bike_id": "cae986708233c0ec83c6bd2ccd31be92", "lat": 38.923861333333335, "lon": -77.03658033333333, "rental_uris": {"android": "https://dc.lft.to/lastmile_qr_scan", "ios": "https://dc.lft.to/lastmile_qr_scan"}, "is_disabled": 0, "fusion_lat": 0.0, "name": "cae986708233c0ec83c6bd2ccd31be92", "fusion_lon": 0.0}, {"is_reserved": 0, "type": "electric_scooter", "bike_id": "7f7e80fe9e075f70db6bc0ac9a687fee", "lat": 38.904101833333335, "lon": -77.0251135, "rental_uris": {"android": "https://dc.lft.to/lastmile_qr_scan", "ios": "https://dc.lft.to/lastmile_qr_scan"}, "is_disabled": 0, "fusion_lat": 0.0, "name": "7f7e80fe9e075f70db6bc0ac9a687fee", "fusion_lon": 0.0}, {"is_reserved": 0, "type": "electric_scooter", "bike_id": "9a9cecc2b41596e037cf548251f8fa24", "lat": 38.90083083333333, "lon": -77.04933066666666, "rental_uris": {"android": "https://dc.lft.to/lastmile_qr_scan", "ios": "https://dc.lft.to/lastmile_qr_scan"}, "is_disabled": 0, "fusion_lat": 0.0, "name": "9a9cecc2b41596e037cf548251f8fa24", "fusion_lon": 0.0}, {"is_reserved": 0, "type": "electric_scooter", "bike_id": "fe43b652351230e5484a1db211d8fce4", "lat": 38.920459, "lon": -77.0314255, "rental_uris": {"android": "https://dc.lft.to/lastmile_qr_scan", "ios": "https://dc.lft.to/lastmile_qr_scan"}, "is_disabled": 0, "fusion_lat": 0.0, "name": "fe43b652351230e5484a1db211d8fce4", "fusion_lon": 0.0}, {"is_reserved": 0, "type": "electric_scooter", "bike_id": "1a38f25fbd35d611658043a0ccb5754c", "lat": 38.90034766666667, "lon": -77.011799, "rental_uris": {"android": "https://dc.lft.to/lastmile_qr_scan", "ios": "https://dc.lft.to/lastmile_qr_scan"}, "is_disabled": 0, "fusion_lat": 0.0, "name": "1a38f25fbd35d611658043a0ccb5754c", "fusion_lon": 0.0}, {"is_reserved": 0, "type": "electric_scooter", "bike_id": "ee92a95d364cc101c176ddab33928a35", "lat": 38.917989666666664, "lon": -77.0318485, "rental_uris": {"android": "https://dc.lft.to/lastmile_qr_scan", "ios": "https://dc.lft.to/lastmile_qr_scan"}, "is_disabled": 0, "fusion_lat": 0.0, "name": "ee92a95d364cc101c176ddab33928a35", "fusion_lon": 0.0}, {"is_reserved": 0, "type": "electric_scooter", "bike_id": "4df4f7bf521c8042c017c9592d02a955", "lat": 38.877957, "lon": -77.001204, "rental_uris": {"android": "https://dc.lft.to/lastmile_qr_scan", "ios": "https://dc.lft.to/lastmile_qr_scan"}, "is_disabled": 0, "fusion_lat": 0.0, "name": "4df4f7bf521c8042c017c9592d02a955", "fusion_lon": 0.0}, {"is_reserved": 0, "type": "electric_scooter", "bike_id": "77791f43e8676b7f8fa3b3a04333d22c", "lat": 38.928229, "lon": -77.02253966666666, "rental_uris": {"android": "https://dc.lft.to/lastmile_qr_scan", "ios": "https://dc.lft.to/lastmile_qr_scan"}, "is_disabled": 0, "fusion_lat": 0.0, "name": "77791f43e8676b7f8fa3b3a04333d22c", "fusion_lon": 0.0}, {"is_reserved": 0, "type": "electric_scooter", "bike_id": "069b06da0ed3b00f7122de1e4766637a", "lat": 38.93212066666667, "lon": -77.02391916666667, "rental_uris": {"android": "https://dc.lft.to/lastmile_qr_scan", "ios": "https://dc.lft.to/lastmile_qr_scan"}, "is_disabled": 0, "fusion_lat": 0.0, "name": "069b06da0ed3b00f7122de1e4766637a", "fusion_lon": 0.0}, {"is_reserved": 0, "type": "electric_scooter", "bike_id": "d4e751af66db5ef88fe2e88ece677abf", "lat": 38.933669, "lon": -77.02422583333333, "rental_uris": {"android": "https://dc.lft.to/lastmile_qr_scan", "ios": "https://dc.lft.to/lastmile_qr_scan"}, "is_disabled": 0, "fusion_lat": 0.0, "name": "d4e751af66db5ef88fe2e88ece677abf", "fusion_lon": 0.0}, {"is_reserved": 0, "type": "electric_scooter", "bike_id": "003150b0941b56c94bb04539ba85c0bf", "lat": 38.90504416666667, "lon": -77.04173483333334, "rental_uris": {"android": "https://dc.lft.to/lastmile_qr_scan", "ios": "https://dc.lft.to/lastmile_qr_scan"}, "is_disabled": 0, "fusion_lat": 0.0, "name": "003150b0941b56c94bb04539ba85c0bf", "fusion_lon": 0.0}, {"is_reserved": 0, "type": "electric_scooter", "bike_id": "47827414bf0a24371ab1ced586f91c31", "lat": 38.919270833333336, "lon": -77.025038, "rental_uris": {"android": "https://dc.lft.to/lastmile_qr_scan", "ios": "https://dc.lft.to/lastmile_qr_scan"}, "is_disabled": 0, "fusion_lat": 0.0, "name": "47827414bf0a24371ab1ced586f91c31", "fusion_lon": 0.0}, {"is_reserved": 0, "type": "electric_scooter", "bike_id": "0b0633964adbe3249fa38aca790b6310", "lat": 38.905263833333336, "lon": -77.0260675, "rental_uris": {"android": "https://dc.lft.to/lastmile_qr_scan", "ios": "https://dc.lft.to/lastmile_qr_scan"}, "is_disabled": 0, "fusion_lat": 0.0, "name": "0b0633964adbe3249fa38aca790b6310", "fusion_lon": 0.0}, {"is_reserved": 0, "type": "electric_bike", "bike_id": "a27db1cfdd0ffc0c75ced22f2b904d41", "lat": 38.83234783333333, "lon": -76.9461905, "rental_uris": {"android": "https://dc.lft.to/lastmile_qr_scan", "ios": "https://dc.lft.to/lastmile_qr_scan"}, "is_disabled": 0, "fusion_lat": 0.0, "name": "a27db1cfdd0ffc0c75ced22f2b904d41", "fusion_lon": 0.0}, {"is_reserved": 0, "type": "electric_scooter", "bike_id": "ac3248c6625802b53521de546e985094", "lat": 38.91847216666667, "lon": -77.02294233333333, "rental_uris": {"android": "https://dc.lft.to/lastmile_qr_scan", "ios": "https://dc.lft.to/lastmile_qr_scan"}, "is_disabled": 0, "fusion_lat": 0.0, "name": "ac3248c6625802b53521de546e985094", "fusion_lon": 0.0}, {"is_reserved": 0, "type": "electric_scooter", "bike_id": "20a45a756b0c8eed7815eb410914b09f", "lat": 38.9233085, "lon": -77.02691616666667, "rental_uris": {"android": "https://dc.lft.to/lastmile_qr_scan", "ios": "https://dc.lft.to/lastmile_qr_scan"}, "is_disabled": 0, "fusion_lat": 0.0, "name": "20a45a756b0c8eed7815eb410914b09f", "fusion_lon": 0.0}, {"is_reserved": 0, "type": "electric_scooter", "bike_id": "8cbc17ba187137f04945c794ef9b8e9d", "lat": 38.944956833333336, "lon": -77.00739766666666, "rental_uris": {"android": "https://dc.lft.to/lastmile_qr_scan", "ios": "https://dc.lft.to/lastmile_qr_scan"}, "is_disabled": 0, "fusion_lat": 0.0, "name": "8cbc17ba187137f04945c794ef9b8e9d", "fusion_lon": 0.0}, {"is_reserved": 0, "type": "electric_scooter", "bike_id": "3dfbc21610f910ea3c7eeb858e785671", "lat": 38.887642, "lon": -77.00042916666666, "rental_uris": {"android": "https://dc.lft.to/lastmile_qr_scan", "ios": "https://dc.lft.to/lastmile_qr_scan"}, "is_disabled": 0, "fusion_lat": 0.0, "name": "3dfbc21610f910ea3c7eeb858e785671", "fusion_lon": 0.0}, {"is_reserved": 0, "type": "electric_bike", "bike_id": "a25079aa8c171f8acdeedca8b9cd866b", "lat": 38.944965, "lon": -77.006816, "rental_uris": {"android": "https://dc.lft.to/lastmile_qr_scan", "ios": "https://dc.lft.to/lastmile_qr_scan"}, "is_disabled": 0, "fusion_lat": 0.0, "name": "a25079aa8c171f8acdeedca8b9cd866b", "fusion_lon": 0.0}, {"is_reserved": 0, "type": "electric_bike", "bike_id": "95efd41725f6ac91dbb38e6f4254403e", "lat": 38.823353166666664, "lon": -77.05821333333333, "rental_uris": {"android": "https://dc.lft.to/lastmile_qr_scan", "ios": "https://dc.lft.to/lastmile_qr_scan"}, "is_disabled": 0, "fusion_lat": 0.0, "name": "95efd41725f6ac91dbb38e6f4254403e", "fusion_lon": 0.0}, {"is_reserved": 0, "type": "electric_bike", "bike_id": "4b5bfa2776dab428095e4e4385005c48", "lat": 38.88386083333333, "lon": -76.95449966666666, "rental_uris": {"android": "https://dc.lft.to/lastmile_qr_scan", "ios": "https://dc.lft.to/lastmile_qr_scan"}, "is_disabled": 0, "fusion_lat": 0.0, "name": "4b5bfa2776dab428095e4e4385005c48", "fusion_lon": 0.0}, {"is_reserved": 0, "type": "electric_scooter", "bike_id": "e5456fa195da3cb2a49202da36e0c929", "lat": 38.8834685, "lon": -77.01997016666667, "rental_uris": {"android": "https://dc.lft.to/lastmile_qr_scan", "ios": "https://dc.lft.to/lastmile_qr_scan"}, "is_disabled": 0, "fusion_lat": 0.0, "name": "e5456fa195da3cb2a49202da36e0c929", "fusion_lon": 0.0}, {"is_reserved": 0, "type": "electric_bike", "bike_id": "40bbb73d7c761e91f9bfea678899ac46", "lat": 38.9069405, "lon": -76.9525015, "rental_uris": {"android": "https://dc.lft.to/lastmile_qr_scan", "ios": "https://dc.lft.to/lastmile_qr_scan"}, "is_disabled": 0, "fusion_lat": 0.0, "name": "40bbb73d7c761e91f9bfea678899ac46", "fusion_lon": 0.0}, {"is_reserved": 0, "type": "electric_scooter", "bike_id": "0fa0d89fe11873238424fda4e76f86f4", "lat": 38.938585833333335, "lon": -77.075829, "rental_uris": {"android": "https://dc.lft.to/lastmile_qr_scan", "ios": "https://dc.lft.to/lastmile_qr_scan"}, "is_disabled": 0, "fusion_lat": 0.0, "name": "0fa0d89fe11873238424fda4e76f86f4", "fusion_lon": 0.0}, {"is_reserved": 0, "type": "electric_scooter", "bike_id": "4940da5e3cf97273f3a35a38fae0a667", "lat": 38.924199, "lon": -77.01947, "rental_uris": {"android": "https://dc.lft.to/lastmile_qr_scan", "ios": "https://dc.lft.to/lastmile_qr_scan"}, "is_disabled": 0, "fusion_lat": 0.0, "name": "4940da5e3cf97273f3a35a38fae0a667", "fusion_lon": 0.0}, {"is_reserved": 0, "type": "electric_scooter", "bike_id": "4a3eb7bd8ff04633c92395e535c8d683", "lat": 38.90500133333333, "lon": -77.02953083333334, "rental_uris": {"android": "https://dc.lft.to/lastmile_qr_scan", "ios": "https://dc.lft.to/lastmile_qr_scan"}, "is_disabled": 0, "fusion_lat": 0.0, "name": "4a3eb7bd8ff04633c92395e535c8d683", "fusion_lon": 0.0}, {"is_reserved": 0, "type": "electric_scooter", "bike_id": "5009eecf98a30095f2071a19f9e73bd6", "lat": 38.9403775, "lon": -77.02502483333333, "rental_uris": {"android": "https://dc.lft.to/lastmile_qr_scan", "ios": "https://dc.lft.to/lastmile_qr_scan"}, "is_disabled": 0, "fusion_lat": 0.0, "name": "5009eecf98a30095f2071a19f9e73bd6", "fusion_lon": 0.0}, {"is_reserved": 0, "type": "electric_scooter", "bike_id": "751096af0de2301c5449cd7721d12de6", "lat": 38.917078833333335, "lon": -77.026749, "rental_uris": {"android": "https://dc.lft.to/lastmile_qr_scan", "ios": "https://dc.lft.to/lastmile_qr_scan"}, "is_disabled": 0, "fusion_lat": 0.0, "name": "751096af0de2301c5449cd7721d12de6", "fusion_lon": 0.0}, {"is_reserved": 0, "type": "electric_scooter", "bike_id": "4cec09ef315c01308da7f8c1040e6e31", "lat": 38.93543, "lon": -77.072716, "rental_uris": {"android": "https://dc.lft.to/lastmile_qr_scan", "ios": "https://dc.lft.to/lastmile_qr_scan"}, "is_disabled": 0, "fusion_lat": 0.0, "name": "4cec09ef315c01308da7f8c1040e6e31", "fusion_lon": 0.0}, {"is_reserved": 0, "type": "electric_scooter", "bike_id": "6dae615d150c09b1ecd89dc93106ed80", "lat": 38.898867333333335, "lon": -76.98835116666666, "rental_uris": {"android": "https://dc.lft.to/lastmile_qr_scan", "ios": "https://dc.lft.to/lastmile_qr_scan"}, "is_disabled": 0, "fusion_lat": 0.0, "name": "6dae615d150c09b1ecd89dc93106ed80", "fusion_lon": 0.0}, {"is_reserved": 0, "type": "electric_scooter", "bike_id": "b62ce161aa178a1384163f074ef8227e", "lat": 38.8954235, "lon": -76.98336233333333, "rental_uris": {"android": "https://dc.lft.to/lastmile_qr_scan", "ios": "https://dc.lft.to/lastmile_qr_scan"}, "is_disabled": 0, "fusion_lat": 0.0, "name": "b62ce161aa178a1384163f074ef8227e", "fusion_lon": 0.0}, {"is_reserved": 0, "type": "electric_scooter", "bike_id": "9a03a99259b63c9de8bd2ea91b180386", "lat": 38.91494516666667, "lon": -77.01221316666667, "rental_uris": {"android": "https://dc.lft.to/lastmile_qr_scan", "ios": "https://dc.lft.to/lastmile_qr_scan"}, "is_disabled": 0, "fusion_lat": 0.0, "name": "9a03a99259b63c9de8bd2ea91b180386", "fusion_lon": 0.0}, {"is_reserved": 0, "type": "electric_scooter", "bike_id": "474c97eb2236176ecd9292ea9c546493", "lat": 38.9163135, "lon": -77.02804766666667, "rental_uris": {"android": "https://dc.lft.to/lastmile_qr_scan", "ios": "https://dc.lft.to/lastmile_qr_scan"}, "is_disabled": 0, "fusion_lat": 0.0, "name": "474c97eb2236176ecd9292ea9c546493", "fusion_lon": 0.0}, {"is_reserved": 0, "type": "electric_scooter", "bike_id": "a7e31e28c7e6138bd358d7fec9687d55", "lat": 38.91745866666667, "lon": -77.03185083333334, "rental_uris": {"android": "https://dc.lft.to/lastmile_qr_scan", "ios": "https://dc.lft.to/lastmile_qr_scan"}, "is_disabled": 0, "fusion_lat": 0.0, "name": "a7e31e28c7e6138bd358d7fec9687d55", "fusion_lon": 0.0}, {"is_reserved": 0, "type": "electric_scooter", "bike_id": "62ad0f7075a95361e7665aa47caea6be", "lat": 38.893534, "lon": -77.00335783333334, "rental_uris": {"android": "https://dc.lft.to/lastmile_qr_scan", "ios": "https://dc.lft.to/lastmile_qr_scan"}, "is_disabled": 0, "fusion_lat": 0.0, "name": "62ad0f7075a95361e7665aa47caea6be", "fusion_lon": 0.0}, {"is_reserved": 0, "type": "electric_scooter", "bike_id": "ad6e23fd7015cbd53afe1ff7690872fb", "lat": 38.910267166666664, "lon": -77.04302966666667, "rental_uris": {"android": "https://dc.lft.to/lastmile_qr_scan", "ios": "https://dc.lft.to/lastmile_qr_scan"}, "is_disabled": 0, "fusion_lat": 0.0, "name": "ad6e23fd7015cbd53afe1ff7690872fb", "fusion_lon": 0.0}, {"is_reserved": 0, "type": "electric_scooter", "bike_id": "cb75b849b9ab5a76fd600b880fdc9681", "lat": 38.886292166666664, "lon": -77.02221483333334, "rental_uris": {"android": "https://dc.lft.to/lastmile_qr_scan", "ios": "https://dc.lft.to/lastmile_qr_scan"}, "is_disabled": 0, "fusion_lat": 0.0, "name": "cb75b849b9ab5a76fd600b880fdc9681", "fusion_lon": 0.0}, {"is_reserved": 0, "type": "electric_scooter", "bike_id": "6c7c1b91a6e0a00f765e711627cf838c", "lat": 38.936146666666666, "lon": -77.024182, "rental_uris": {"android": "https://dc.lft.to/lastmile_qr_scan", "ios": "https://dc.lft.to/lastmile_qr_scan"}, "is_disabled": 0, "fusion_lat": 0.0, "name": "6c7c1b91a6e0a00f765e711627cf838c", "fusion_lon": 0.0}, {"is_reserved": 0, "type": "electric_scooter", "bike_id": "0a4935b1ce46497d707f47d128113694", "lat": 38.918191, "lon": -77.03444116666667, "rental_uris": {"android": "https://dc.lft.to/lastmile_qr_scan", "ios": "https://dc.lft.to/lastmile_qr_scan"}, "is_disabled": 0, "fusion_lat": 0.0, "name": "0a4935b1ce46497d707f47d128113694", "fusion_lon": 0.0}, {"is_reserved": 0, "type": "electric_scooter", "bike_id": "37ca3d0139d27cda02850e377b294fe1", "lat": 38.89917833333333, "lon": -77.03372983333334, "rental_uris": {"android": "https://dc.lft.to/lastmile_qr_scan", "ios": "https://dc.lft.to/lastmile_qr_scan"}, "is_disabled": 0, "fusion_lat": 0.0, "name": "37ca3d0139d27cda02850e377b294fe1", "fusion_lon": 0.0}, {"is_reserved": 0, "type": "electric_scooter", "bike_id": "e8b3075ce7f5f4d6c36bb9007d8a5f44", "lat": 38.8664665, "lon": -76.98285083333333, "rental_uris": {"android": "https://dc.lft.to/lastmile_qr_scan", "ios": "https://dc.lft.to/lastmile_qr_scan"}, "is_disabled": 0, "fusion_lat": 0.0, "name": "e8b3075ce7f5f4d6c36bb9007d8a5f44", "fusion_lon": 0.0}, {"is_reserved": 0, "type": "electric_bike", "bike_id": "dde8b51ad4c6d6b8fdf170d9a98a8ef7", "lat": 38.870066, "lon": -77.2299765, "rental_uris": {"android": "https://dc.lft.to/lastmile_qr_scan", "ios": "https://dc.lft.to/lastmile_qr_scan"}, "is_disabled": 0, "fusion_lat": 0.0, "name": "dde8b51ad4c6d6b8fdf170d9a98a8ef7", "fusion_lon": 0.0}, {"is_reserved": 0, "type": "electric_bike", "bike_id": "7237b126e069621ec592a00c861ffa19", "lat": 38.85435, "lon": -77.08320033333334, "rental_uris": {"android": "https://dc.lft.to/lastmile_qr_scan", "ios": "https://dc.lft.to/lastmile_qr_scan"}, "is_disabled": 0, "fusion_lat": 0.0, "name": "7237b126e069621ec592a00c861ffa19", "fusion_lon": 0.0}, {"is_reserved": 0, "type": "electric_scooter", "bike_id": "899df423fdb0a96488ee235835f09346", "lat": 38.885328333333334, "lon": -76.98118483333333, "rental_uris": {"android": "https://dc.lft.to/lastmile_qr_scan", "ios": "https://dc.lft.to/lastmile_qr_scan"}, "is_disabled": 0, "fusion_lat": 0.0, "name": "899df423fdb0a96488ee235835f09346", "fusion_lon": 0.0}, {"is_reserved": 0, "type": "electric_scooter", "bike_id": "813d57f855ad1e8aca433192fb45b4bc", "lat": 38.94716716666667, "lon": -77.04153966666667, "rental_uris": {"android": "https://dc.lft.to/lastmile_qr_scan", "ios": "https://dc.lft.to/lastmile_qr_scan"}, "is_disabled": 0, "fusion_lat": 0.0, "name": "813d57f855ad1e8aca433192fb45b4bc", "fusion_lon": 0.0}, {"is_reserved": 0, "type": "electric_scooter", "bike_id": "b95163e5db5d89af87350a691f210828", "lat": 38.915094833333335, "lon": -77.021857, "rental_uris": {"android": "https://dc.lft.to/lastmile_qr_scan", "ios": "https://dc.lft.to/lastmile_qr_scan"}, "is_disabled": 0, "fusion_lat": 0.0, "name": "b95163e5db5d89af87350a691f210828", "fusion_lon": 0.0}, {"is_reserved": 0, "type": "electric_scooter", "bike_id": "5aafadb6dc43aebf8c6cb23382802736", "lat": 38.894706666666664, "lon": -77.0228955, "rental_uris": {"android": "https://dc.lft.to/lastmile_qr_scan", "ios": "https://dc.lft.to/lastmile_qr_scan"}, "is_disabled": 0, "fusion_lat": 0.0, "name": "5aafadb6dc43aebf8c6cb23382802736", "fusion_lon": 0.0}, {"is_reserved": 0, "type": "electric_scooter", "bike_id": "7ccf01fbe00d9c628501646f163e1d7d", "lat": 38.925217, "lon": -77.050566, "rental_uris": {"android": "https://dc.lft.to/lastmile_qr_scan", "ios": "https://dc.lft.to/lastmile_qr_scan"}, "is_disabled": 0, "fusion_lat": 0.0, "name": "7ccf01fbe00d9c628501646f163e1d7d", "fusion_lon": 0.0}, {"is_reserved": 0, "type": "electric_scooter", "bike_id": "36249ac0d47d77b8177c653f0520b2fe", "lat": 38.93302033333333, "lon": -77.02141683333333, "rental_uris": {"android": "https://dc.lft.to/lastmile_qr_scan", "ios": "https://dc.lft.to/lastmile_qr_scan"}, "is_disabled": 0, "fusion_lat": 0.0, "name": "36249ac0d47d77b8177c653f0520b2fe", "fusion_lon": 0.0}, {"is_reserved": 0, "type": "electric_scooter", "bike_id": "ff614af989d006e2dccecc922524d080", "lat": 38.8994715, "lon": -76.97912483333333, "rental_uris": {"android": "https://dc.lft.to/lastmile_qr_scan", "ios": "https://dc.lft.to/lastmile_qr_scan"}, "is_disabled": 0, "fusion_lat": 0.0, "name": "ff614af989d006e2dccecc922524d080", "fusion_lon": 0.0}, {"is_reserved": 0, "type": "electric_scooter", "bike_id": "53ff08627c7bc8b508d5bcb19969b51a", "lat": 38.92760533333333, "lon": -77.03242216666666, "rental_uris": {"android": "https://dc.lft.to/lastmile_qr_scan", "ios": "https://dc.lft.to/lastmile_qr_scan"}, "is_disabled": 0, "fusion_lat": 0.0, "name": "53ff08627c7bc8b508d5bcb19969b51a", "fusion_lon": 0.0}, {"is_reserved": 0, "type": "electric_scooter", "bike_id": "c94400e089376c183df7f580df3fd770", "lat": 38.914014333333334, "lon": -77.031802, "rental_uris": {"android": "https://dc.lft.to/lastmile_qr_scan", "ios": "https://dc.lft.to/lastmile_qr_scan"}, "is_disabled": 0, "fusion_lat": 0.0, "name": "c94400e089376c183df7f580df3fd770", "fusion_lon": 0.0}, {"is_reserved": 0, "type": "electric_scooter", "bike_id": "1e8be3561446f29bbc562c32ea232f08", "lat": 38.93200366666667, "lon": -77.02355966666667, "rental_uris": {"android": "https://dc.lft.to/lastmile_qr_scan", "ios": "https://dc.lft.to/lastmile_qr_scan"}, "is_disabled": 0, "fusion_lat": 0.0, "name": "1e8be3561446f29bbc562c32ea232f08", "fusion_lon": 0.0}, {"is_reserved": 0, "type": "electric_scooter", "bike_id": "9342b6250b02f08adc14622f4cbb4eaa", "lat": 38.89332266666667, "lon": -77.04870533333333, "rental_uris": {"android": "https://dc.lft.to/lastmile_qr_scan", "ios": "https://dc.lft.to/lastmile_qr_scan"}, "is_disabled": 0, "fusion_lat": 0.0, "name": "9342b6250b02f08adc14622f4cbb4eaa", "fusion_lon": 0.0}, {"is_reserved": 0, "type": "electric_scooter", "bike_id": "ed7daa2433642b74338ab07d15bfc12f", "lat": 38.923330166666666, "lon": -77.03675066666666, "rental_uris": {"android": "https://dc.lft.to/lastmile_qr_scan", "ios": "https://dc.lft.to/lastmile_qr_scan"}, "is_disabled": 0, "fusion_lat": 0.0, "name": "ed7daa2433642b74338ab07d15bfc12f", "fusion_lon": 0.0}, {"is_reserved": 0, "type": "electric_scooter", "bike_id": "1029f82b9788c0800bb52f5fcf640773", "lat": 38.907257666666666, "lon": -76.93451466666667, "rental_uris": {"android": "https://dc.lft.to/lastmile_qr_scan", "ios": "https://dc.lft.to/lastmile_qr_scan"}, "is_disabled": 0, "fusion_lat": 0.0, "name": "1029f82b9788c0800bb52f5fcf640773", "fusion_lon": 0.0}, {"is_reserved": 0, "type": "electric_scooter", "bike_id": "8fb892334c60435139ed7b2b6871db6e", "lat": 38.91402133333333, "lon": -77.0468225, "rental_uris": {"android": "https://dc.lft.to/lastmile_qr_scan", "ios": "https://dc.lft.to/lastmile_qr_scan"}, "is_disabled": 0, "fusion_lat": 0.0, "name": "8fb892334c60435139ed7b2b6871db6e", "fusion_lon": 0.0}, {"is_reserved": 0, "type": "electric_scooter", "bike_id": "649417ac28994afafa95e3df82a4211c", "lat": 38.923937, "lon": -77.05057133333334, "rental_uris": {"android": "https://dc.lft.to/lastmile_qr_scan", "ios": "https://dc.lft.to/lastmile_qr_scan"}, "is_disabled": 0, "fusion_lat": 0.0, "name": "649417ac28994afafa95e3df82a4211c", "fusion_lon": 0.0}, {"is_reserved": 0, "type": "electric_scooter", "bike_id": "d74fe89b394a534871f5e8d2fcb8dd35", "lat": 38.885910333333335, "lon": -77.02170166666667, "rental_uris": {"android": "https://dc.lft.to/lastmile_qr_scan", "ios": "https://dc.lft.to/lastmile_qr_scan"}, "is_disabled": 0, "fusion_lat": 0.0, "name": "d74fe89b394a534871f5e8d2fcb8dd35", "fusion_lon": 0.0}, {"is_reserved": 0, "type": "electric_scooter", "bike_id": "78b695accc968d85307e42fbb64ec512", "lat": 38.9049655, "lon": -77.02596483333333, "rental_uris": {"android": "https://dc.lft.to/lastmile_qr_scan", "ios": "https://dc.lft.to/lastmile_qr_scan"}, "is_disabled": 0, "fusion_lat": 0.0, "name": "78b695accc968d85307e42fbb64ec512", "fusion_lon": 0.0}, {"is_reserved": 0, "type": "electric_scooter", "bike_id": "99cc87493ff865161ceda754c32d3f35", "lat": 38.935864333333335, "lon": -77.0589345, "rental_uris": {"android": "https://dc.lft.to/lastmile_qr_scan", "ios": "https://dc.lft.to/lastmile_qr_scan"}, "is_disabled": 0, "fusion_lat": 0.0, "name": "99cc87493ff865161ceda754c32d3f35", "fusion_lon": 0.0}, {"is_reserved": 0, "type": "electric_scooter", "bike_id": "90357e8edc90cb52f9e5b159b6a4dcda", "lat": 38.93633233333333, "lon": -77.03669966666666, "rental_uris": {"android": "https://dc.lft.to/lastmile_qr_scan", "ios": "https://dc.lft.to/lastmile_qr_scan"}, "is_disabled": 0, "fusion_lat": 0.0, "name": "90357e8edc90cb52f9e5b159b6a4dcda", "fusion_lon": 0.0}, {"is_reserved": 0, "type": "electric_scooter", "bike_id": "85207e5de1c13fc2d640a73137075102", "lat": 38.907188833333336, "lon": -77.01743716666667, "rental_uris": {"android": "https://dc.lft.to/lastmile_qr_scan", "ios": "https://dc.lft.to/lastmile_qr_scan"}, "is_disabled": 0, "fusion_lat": 0.0, "name": "85207e5de1c13fc2d640a73137075102", "fusion_lon": 0.0}, {"is_reserved": 0, "type": "electric_scooter", "bike_id": "fdd8a21325b8ef96823448f386ecc488", "lat": 38.899782, "lon": -77.02124316666666, "rental_uris": {"android": "https://dc.lft.to/lastmile_qr_scan", "ios": "https://dc.lft.to/lastmile_qr_scan"}, "is_disabled": 0, "fusion_lat": 0.0, "name": "fdd8a21325b8ef96823448f386ecc488", "fusion_lon": 0.0}, {"is_reserved": 0, "type": "electric_scooter", "bike_id": "ac009a5786ce5fbe9ae75034e2edb288", "lat": 38.89629883333333, "lon": -77.0322175, "rental_uris": {"android": "https://dc.lft.to/lastmile_qr_scan", "ios": "https://dc.lft.to/lastmile_qr_scan"}, "is_disabled": 0, "fusion_lat": 0.0, "name": "ac009a5786ce5fbe9ae75034e2edb288", "fusion_lon": 0.0}, {"is_reserved": 0, "type": "electric_scooter", "bike_id": "b0d4da74b853e9e97b3d2325e2d5791d", "lat": 38.89224033333333, "lon": -77.031117, "rental_uris": {"android": "https://dc.lft.to/lastmile_qr_scan", "ios": "https://dc.lft.to/lastmile_qr_scan"}, "is_disabled": 0, "fusion_lat": 0.0, "name": "b0d4da74b853e9e97b3d2325e2d5791d", "fusion_lon": 0.0}, {"is_reserved": 0, "type": "electric_bike", "bike_id": "594a9655469dab26b4740b6baf3f902c", "lat": 38.86443916666666, "lon": -76.98996683333333, "rental_uris": {"android": "https://dc.lft.to/lastmile_qr_scan", "ios": "https://dc.lft.to/lastmile_qr_scan"}, "is_disabled": 0, "fusion_lat": 0.0, "name": "594a9655469dab26b4740b6baf3f902c", "fusion_lon": 0.0}, {"is_reserved": 0, "type": "electric_scooter", "bike_id": "f99ddfc0d93014e11bd8f46191595f72", "lat": 38.9040025, "lon": -77.063001, "rental_uris": {"android": "https://dc.lft.to/lastmile_qr_scan", "ios": "https://dc.lft.to/lastmile_qr_scan"}, "is_disabled": 0, "fusion_lat": 0.0, "name": "f99ddfc0d93014e11bd8f46191595f72", "fusion_lon": 0.0}, {"is_reserved": 0, "type": "electric_scooter", "bike_id": "97c31607ac3e7a51d9b500c646cb82ba", "lat": 38.928398666666666, "lon": -77.05509683333334, "rental_uris": {"android": "https://dc.lft.to/lastmile_qr_scan", "ios": "https://dc.lft.to/lastmile_qr_scan"}, "is_disabled": 0, "fusion_lat": 0.0, "name": "97c31607ac3e7a51d9b500c646cb82ba", "fusion_lon": 0.0}, {"is_reserved": 0, "type": "electric_scooter", "bike_id": "f6896510f49692aec934dc5a34448eae", "lat": 38.9174365, "lon": -77.02803133333333, "rental_uris": {"android": "https://dc.lft.to/lastmile_qr_scan", "ios": "https://dc.lft.to/lastmile_qr_scan"}, "is_disabled": 0, "fusion_lat": 0.0, "name": "f6896510f49692aec934dc5a34448eae", "fusion_lon": 0.0}, {"is_reserved": 0, "type": "electric_scooter", "bike_id": "126808236a924c87d4f7dddfe72c3898", "lat": 38.891927833333334, "lon": -76.99849933333333, "rental_uris": {"android": "https://dc.lft.to/lastmile_qr_scan", "ios": "https://dc.lft.to/lastmile_qr_scan"}, "is_disabled": 0, "fusion_lat": 0.0, "name": "126808236a924c87d4f7dddfe72c3898", "fusion_lon": 0.0}, {"is_reserved": 0, "type": "electric_scooter", "bike_id": "ee28414cd881568235725ff57a754688", "lat": 38.899125, "lon": -76.93365816666666, "rental_uris": {"android": "https://dc.lft.to/lastmile_qr_scan", "ios": "https://dc.lft.to/lastmile_qr_scan"}, "is_disabled": 0, "fusion_lat": 0.0, "name": "ee28414cd881568235725ff57a754688", "fusion_lon": 0.0}, {"is_reserved": 0, "type": "electric_scooter", "bike_id": "ceaceb53b31ac6e0327dea39d0010c04", "lat": 38.924329, "lon": -77.00322083333333, "rental_uris": {"android": "https://dc.lft.to/lastmile_qr_scan", "ios": "https://dc.lft.to/lastmile_qr_scan"}, "is_disabled": 0, "fusion_lat": 0.0, "name": "ceaceb53b31ac6e0327dea39d0010c04", "fusion_lon": 0.0}, {"is_reserved": 0, "type": "electric_scooter", "bike_id": "35221874109b41cee865ea3025abd0a6", "lat": 38.901961166666666, "lon": -77.04860316666667, "rental_uris": {"android": "https://dc.lft.to/lastmile_qr_scan", "ios": "https://dc.lft.to/lastmile_qr_scan"}, "is_disabled": 0, "fusion_lat": 0.0, "name": "35221874109b41cee865ea3025abd0a6", "fusion_lon": 0.0}, {"is_reserved": 0, "type": "electric_scooter", "bike_id": "986d5b7b255a934ab79d873ecb0e55e7", "lat": 38.946109, "lon": -77.0305825, "rental_uris": {"android": "https://dc.lft.to/lastmile_qr_scan", "ios": "https://dc.lft.to/lastmile_qr_scan"}, "is_disabled": 0, "fusion_lat": 0.0, "name": "986d5b7b255a934ab79d873ecb0e55e7", "fusion_lon": 0.0}, {"is_reserved": 0, "type": "electric_scooter", "bike_id": "23834e2f192c16359b6f17d919fac45c", "lat": 38.926983, "lon": -77.0241295, "rental_uris": {"android": "https://dc.lft.to/lastmile_qr_scan", "ios": "https://dc.lft.to/lastmile_qr_scan"}, "is_disabled": 0, "fusion_lat": 0.0, "name": "23834e2f192c16359b6f17d919fac45c", "fusion_lon": 0.0}, {"is_reserved": 0, "type": "electric_scooter", "bike_id": "defa9e7eb29ac78b88655fa105354ad3", "lat": 38.918475, "lon": -76.9655855, "rental_uris": {"android": "https://dc.lft.to/lastmile_qr_scan", "ios": "https://dc.lft.to/lastmile_qr_scan"}, "is_disabled": 0, "fusion_lat": 0.0, "name": "defa9e7eb29ac78b88655fa105354ad3", "fusion_lon": 0.0}, {"is_reserved": 0, "type": "electric_scooter", "bike_id": "1ba21ad10ca124c2b06290b8b73be1f2", "lat": 38.949786833333334, "lon": -77.0245445, "rental_uris": {"android": "https://dc.lft.to/lastmile_qr_scan", "ios": "https://dc.lft.to/lastmile_qr_scan"}, "is_disabled": 0, "fusion_lat": 0.0, "name": "1ba21ad10ca124c2b06290b8b73be1f2", "fusion_lon": 0.0}, {"is_reserved": 0, "type": "electric_bike", "bike_id": "f246d78274145304a1695527239aad21", "lat": 39.010771166666665, "lon": -76.910622, "rental_uris": {"android": "https://dc.lft.to/lastmile_qr_scan", "ios": "https://dc.lft.to/lastmile_qr_scan"}, "is_disabled": 0, "fusion_lat": 0.0, "name": "f246d78274145304a1695527239aad21", "fusion_lon": 0.0}, {"is_reserved": 0, "type": "electric_scooter", "bike_id": "df7f01972224a2a146dbaae8e7547d67", "lat": 38.9195995, "lon": -77.01773933333334, "rental_uris": {"android": "https://dc.lft.to/lastmile_qr_scan", "ios": "https://dc.lft.to/lastmile_qr_scan"}, "is_disabled": 0, "fusion_lat": 0.0, "name": "df7f01972224a2a146dbaae8e7547d67", "fusion_lon": 0.0}, {"is_reserved": 0, "type": "electric_scooter", "bike_id": "7b0b27f7ff45ba76052d0fd8c9a12987", "lat": 38.89410683333333, "lon": -77.02328483333334, "rental_uris": {"android": "https://dc.lft.to/lastmile_qr_scan", "ios": "https://dc.lft.to/lastmile_qr_scan"}, "is_disabled": 0, "fusion_lat": 0.0, "name": "7b0b27f7ff45ba76052d0fd8c9a12987", "fusion_lon": 0.0}, {"is_reserved": 0, "type": "electric_bike", "bike_id": "a3696dcbf7417f14efb6eed747697515", "lat": 38.93600033333333, "lon": -77.0314625, "rental_uris": {"android": "https://dc.lft.to/lastmile_qr_scan", "ios": "https://dc.lft.to/lastmile_qr_scan"}, "is_disabled": 0, "fusion_lat": 0.0, "name": "a3696dcbf7417f14efb6eed747697515", "fusion_lon": 0.0}, {"is_reserved": 0, "type": "electric_scooter", "bike_id": "9917f856072e6ef9546fb46bfae4feb4", "lat": 38.91405366666667, "lon": -77.0283625, "rental_uris": {"android": "https://dc.lft.to/lastmile_qr_scan", "ios": "https://dc.lft.to/lastmile_qr_scan"}, "is_disabled": 0, "fusion_lat": 0.0, "name": "9917f856072e6ef9546fb46bfae4feb4", "fusion_lon": 0.0}, {"is_reserved": 0, "type": "electric_scooter", "bike_id": "88d013e720e47122513ff78425a13588", "lat": 38.90250316666667, "lon": -77.0534315, "rental_uris": {"android": "https://dc.lft.to/lastmile_qr_scan", "ios": "https://dc.lft.to/lastmile_qr_scan"}, "is_disabled": 0, "fusion_lat": 0.0, "name": "88d013e720e47122513ff78425a13588", "fusion_lon": 0.0}, {"is_reserved": 0, "type": "electric_scooter", "bike_id": "593d69202929fd38843fa2d12fc2b74c", "lat": 38.90833716666667, "lon": -76.98721266666666, "rental_uris": {"android": "https://dc.lft.to/lastmile_qr_scan", "ios": "https://dc.lft.to/lastmile_qr_scan"}, "is_disabled": 0, "fusion_lat": 0.0, "name": "593d69202929fd38843fa2d12fc2b74c", "fusion_lon": 0.0}, {"is_reserved": 0, "type": "electric_scooter", "bike_id": "246a4546b13c6ff0472b0477a4b4e90c", "lat": 38.91300533333333, "lon": -76.9846955, "rental_uris": {"android": "https://dc.lft.to/lastmile_qr_scan", "ios": "https://dc.lft.to/lastmile_qr_scan"}, "is_disabled": 0, "fusion_lat": 0.0, "name": "246a4546b13c6ff0472b0477a4b4e90c", "fusion_lon": 0.0}, {"is_reserved": 0, "type": "electric_scooter", "bike_id": "0df3c2c5389a556846d21a0f3a1318d7", "lat": 38.900416, "lon": -77.01774966666666, "rental_uris": {"android": "https://dc.lft.to/lastmile_qr_scan", "ios": "https://dc.lft.to/lastmile_qr_scan"}, "is_disabled": 0, "fusion_lat": 0.0, "name": "0df3c2c5389a556846d21a0f3a1318d7", "fusion_lon": 0.0}, {"is_reserved": 0, "type": "electric_scooter", "bike_id": "d9f32a7fa74fae987cda396de008671c", "lat": 38.914171, "lon": -77.022089, "rental_uris": {"android": "https://dc.lft.to/lastmile_qr_scan", "ios": "https://dc.lft.to/lastmile_qr_scan"}, "is_disabled": 0, "fusion_lat": 0.0, "name": "d9f32a7fa74fae987cda396de008671c", "fusion_lon": 0.0}, {"is_reserved": 0, "type": "electric_bike", "bike_id": "48c743e424bf33dd45d9f56cafc5bfe3", "lat": 38.8828195, "lon": -76.93237816666667, "rental_uris": {"android": "https://dc.lft.to/lastmile_qr_scan", "ios": "https://dc.lft.to/lastmile_qr_scan"}, "is_disabled": 0, "fusion_lat": 0.0, "name": "48c743e424bf33dd45d9f56cafc5bfe3", "fusion_lon": 0.0}, {"is_reserved": 0, "type": "electric_scooter", "bike_id": "0b05407babd7020f99a7e83a0bd818bc", "lat": 38.8860355, "lon": -77.00401416666666, "rental_uris": {"android": "https://dc.lft.to/lastmile_qr_scan", "ios": "https://dc.lft.to/lastmile_qr_scan"}, "is_disabled": 0, "fusion_lat": 0.0, "name": "0b05407babd7020f99a7e83a0bd818bc", "fusion_lon": 0.0}, {"is_reserved": 0, "type": "electric_scooter", "bike_id": "79077001352cc72a28df4bd2ede0db56", "lat": 38.914097, "lon": -77.046809, "rental_uris": {"android": "https://dc.lft.to/lastmile_qr_scan", "ios": "https://dc.lft.to/lastmile_qr_scan"}, "is_disabled": 0, "fusion_lat": 0.0, "name": "79077001352cc72a28df4bd2ede0db56", "fusion_lon": 0.0}, {"is_reserved": 0, "type": "electric_scooter", "bike_id": "a5eb46d610683b95536c9b593e549e5b", "lat": 38.934679, "lon": -77.04158616666666, "rental_uris": {"android": "https://dc.lft.to/lastmile_qr_scan", "ios": "https://dc.lft.to/lastmile_qr_scan"}, "is_disabled": 0, "fusion_lat": 0.0, "name": "a5eb46d610683b95536c9b593e549e5b", "fusion_lon": 0.0}, {"is_reserved": 0, "type": "electric_scooter", "bike_id": "71bce991ad4b25cd5cd6aeb0211681bf", "lat": 38.89250283333333, "lon": -77.03957816666667, "rental_uris": {"android": "https://dc.lft.to/lastmile_qr_scan", "ios": "https://dc.lft.to/lastmile_qr_scan"}, "is_disabled": 0, "fusion_lat": 0.0, "name": "71bce991ad4b25cd5cd6aeb0211681bf", "fusion_lon": 0.0}, {"is_reserved": 0, "type": "electric_scooter", "bike_id": "b08ce635329766d222a7a5e5414f6114", "lat": 38.958267666666664, "lon": -77.07644683333334, "rental_uris": {"android": "https://dc.lft.to/lastmile_qr_scan", "ios": "https://dc.lft.to/lastmile_qr_scan"}, "is_disabled": 0, "fusion_lat": 0.0, "name": "b08ce635329766d222a7a5e5414f6114", "fusion_lon": 0.0}, {"is_reserved": 0, "type": "electric_scooter", "bike_id": "086c18c5cf04fb1e66e0c53b9b9fd5db", "lat": 38.915346166666666, "lon": -77.020033, "rental_uris": {"android": "https://dc.lft.to/lastmile_qr_scan", "ios": "https://dc.lft.to/lastmile_qr_scan"}, "is_disabled": 0, "fusion_lat": 0.0, "name": "086c18c5cf04fb1e66e0c53b9b9fd5db", "fusion_lon": 0.0}, {"is_reserved": 0, "type": "electric_scooter", "bike_id": "8e3ae59f98b533f51396b68b7293e86b", "lat": 38.89226, "lon": -77.04997166666666, "rental_uris": {"android": "https://dc.lft.to/lastmile_qr_scan", "ios": "https://dc.lft.to/lastmile_qr_scan"}, "is_disabled": 0, "fusion_lat": 0.0, "name": "8e3ae59f98b533f51396b68b7293e86b", "fusion_lon": 0.0}, {"is_reserved": 0, "type": "electric_bike", "bike_id": "564ccd2e43394cfb6e29644d0cb0b494", "lat": 38.98914883333333, "lon": -77.0254515, "rental_uris": {"android": "https://dc.lft.to/lastmile_qr_scan", "ios": "https://dc.lft.to/lastmile_qr_scan"}, "is_disabled": 0, "fusion_lat": 0.0, "name": "564ccd2e43394cfb6e29644d0cb0b494", "fusion_lon": 0.0}, {"is_reserved": 0, "type": "electric_scooter", "bike_id": "f9ef9713ebe842c04550b81b80fc4265", "lat": 38.914799, "lon": -77.00272533333333, "rental_uris": {"android": "https://dc.lft.to/lastmile_qr_scan", "ios": "https://dc.lft.to/lastmile_qr_scan"}, "is_disabled": 0, "fusion_lat": 0.0, "name": "f9ef9713ebe842c04550b81b80fc4265", "fusion_lon": 0.0}, {"is_reserved": 0, "type": "electric_scooter", "bike_id": "0f1582b5766cab4708a818de2b67e870", "lat": 38.904165166666665, "lon": -76.9907075, "rental_uris": {"android": "https://dc.lft.to/lastmile_qr_scan", "ios": "https://dc.lft.to/lastmile_qr_scan"}, "is_disabled": 0, "fusion_lat": 0.0, "name": "0f1582b5766cab4708a818de2b67e870", "fusion_lon": 0.0}, {"is_reserved": 0, "type": "electric_scooter", "bike_id": "fce3a84e4fe0dcd8ea7803ae20b20126", "lat": 38.927565, "lon": -77.02113933333334, "rental_uris": {"android": "https://dc.lft.to/lastmile_qr_scan", "ios": "https://dc.lft.to/lastmile_qr_scan"}, "is_disabled": 0, "fusion_lat": 0.0, "name": "fce3a84e4fe0dcd8ea7803ae20b20126", "fusion_lon": 0.0}, {"is_reserved": 0, "type": "electric_scooter", "bike_id": "9195a0cd67979d5dc6b90b2f2b46c10e", "lat": 38.92667183333333, "lon": -77.01458616666666, "rental_uris": {"android": "https://dc.lft.to/lastmile_qr_scan", "ios": "https://dc.lft.to/lastmile_qr_scan"}, "is_disabled": 0, "fusion_lat": 0.0, "name": "9195a0cd67979d5dc6b90b2f2b46c10e", "fusion_lon": 0.0}, {"is_reserved": 0, "type": "electric_bike", "bike_id": "6384e07175bdab806a3cb37644bf99f8", "lat": 38.898535333333335, "lon": -77.118646, "rental_uris": {"android": "https://dc.lft.to/lastmile_qr_scan", "ios": "https://dc.lft.to/lastmile_qr_scan"}, "is_disabled": 0, "fusion_lat": 0.0, "name": "6384e07175bdab806a3cb37644bf99f8", "fusion_lon": 0.0}, {"is_reserved": 0, "type": "electric_scooter", "bike_id": "cb107cf90c72e3fb66c2046faacfa3a9", "lat": 38.9047235, "lon": -77.01709266666667, "rental_uris": {"android": "https://dc.lft.to/lastmile_qr_scan", "ios": "https://dc.lft.to/lastmile_qr_scan"}, "is_disabled": 0, "fusion_lat": 0.0, "name": "cb107cf90c72e3fb66c2046faacfa3a9", "fusion_lon": 0.0}, {"is_reserved": 0, "type": "electric_scooter", "bike_id": "fb7b2ec84db6a8f462a8e35b93db8468", "lat": 38.926426666666664, "lon": -77.02507233333333, "rental_uris": {"android": "https://dc.lft.to/lastmile_qr_scan", "ios": "https://dc.lft.to/lastmile_qr_scan"}, "is_disabled": 0, "fusion_lat": 0.0, "name": "fb7b2ec84db6a8f462a8e35b93db8468", "fusion_lon": 0.0}, {"is_reserved": 0, "type": "electric_scooter", "bike_id": "ca3c0fd5f643d79ab6ea763a636de036", "lat": 38.93497433333334, "lon": -77.04455916666667, "rental_uris": {"android": "https://dc.lft.to/lastmile_qr_scan", "ios": "https://dc.lft.to/lastmile_qr_scan"}, "is_disabled": 0, "fusion_lat": 0.0, "name": "ca3c0fd5f643d79ab6ea763a636de036", "fusion_lon": 0.0}, {"is_reserved": 0, "type": "electric_scooter", "bike_id": "c695902a81735059eb882f3ca27d7cfd", "lat": 38.897765, "lon": -76.99270983333334, "rental_uris": {"android": "https://dc.lft.to/lastmile_qr_scan", "ios": "https://dc.lft.to/lastmile_qr_scan"}, "is_disabled": 0, "fusion_lat": 0.0, "name": "c695902a81735059eb882f3ca27d7cfd", "fusion_lon": 0.0}, {"is_reserved": 0, "type": "electric_scooter", "bike_id": "a570b0582f5c3c85f40562ce246c0f0b", "lat": 38.86272816666666, "lon": -76.98191916666667, "rental_uris": {"android": "https://dc.lft.to/lastmile_qr_scan", "ios": "https://dc.lft.to/lastmile_qr_scan"}, "is_disabled": 0, "fusion_lat": 0.0, "name": "a570b0582f5c3c85f40562ce246c0f0b", "fusion_lon": 0.0}, {"is_reserved": 0, "type": "electric_scooter", "bike_id": "f31c8825f7e866d775fe6625628ed4ab", "lat": 38.925552, "lon": -77.05320083333334, "rental_uris": {"android": "https://dc.lft.to/lastmile_qr_scan", "ios": "https://dc.lft.to/lastmile_qr_scan"}, "is_disabled": 0, "fusion_lat": 0.0, "name": "f31c8825f7e866d775fe6625628ed4ab", "fusion_lon": 0.0}, {"is_reserved": 0, "type": "electric_scooter", "bike_id": "b63d4cc69e41db03ab12d485800bea85", "lat": 38.89887566666667, "lon": -76.9317535, "rental_uris": {"android": "https://dc.lft.to/lastmile_qr_scan", "ios": "https://dc.lft.to/lastmile_qr_scan"}, "is_disabled": 0, "fusion_lat": 0.0, "name": "b63d4cc69e41db03ab12d485800bea85", "fusion_lon": 0.0}, {"is_reserved": 0, "type": "electric_bike", "bike_id": "fef18438e640c18ad991e68b234a3184", "lat": 38.981367666666664, "lon": -77.0076245, "rental_uris": {"android": "https://dc.lft.to/lastmile_qr_scan", "ios": "https://dc.lft.to/lastmile_qr_scan"}, "is_disabled": 0, "fusion_lat": 0.0, "name": "fef18438e640c18ad991e68b234a3184", "fusion_lon": 0.0}, {"is_reserved": 0, "type": "electric_scooter", "bike_id": "d1d58a230c3c2a91b8f2c7e107d7f8f4", "lat": 38.98989233333333, "lon": -77.033636, "rental_uris": {"android": "https://dc.lft.to/lastmile_qr_scan", "ios": "https://dc.lft.to/lastmile_qr_scan"}, "is_disabled": 0, "fusion_lat": 0.0, "name": "d1d58a230c3c2a91b8f2c7e107d7f8f4", "fusion_lon": 0.0}, {"is_reserved": 0, "type": "electric_scooter", "bike_id": "8eee168ea5cb6c5f8ce0559903615a1e", "lat": 38.90637566666667, "lon": -77.02502033333333, "rental_uris": {"android": "https://dc.lft.to/lastmile_qr_scan", "ios": "https://dc.lft.to/lastmile_qr_scan"}, "is_disabled": 0, "fusion_lat": 0.0, "name": "8eee168ea5cb6c5f8ce0559903615a1e", "fusion_lon": 0.0}, {"is_reserved": 0, "type": "electric_scooter", "bike_id": "e052fabd96fbf01af943fd965338dc20", "lat": 38.913896, "lon": -77.04603983333334, "rental_uris": {"android": "https://dc.lft.to/lastmile_qr_scan", "ios": "https://dc.lft.to/lastmile_qr_scan"}, "is_disabled": 0, "fusion_lat": 0.0, "name": "e052fabd96fbf01af943fd965338dc20", "fusion_lon": 0.0}, {"is_reserved": 0, "type": "electric_scooter", "bike_id": "213e8be5d9563c747e74ff672ba1a4c8", "lat": 38.8861355, "lon": -77.00342466666666, "rental_uris": {"android": "https://dc.lft.to/lastmile_qr_scan", "ios": "https://dc.lft.to/lastmile_qr_scan"}, "is_disabled": 0, "fusion_lat": 0.0, "name": "213e8be5d9563c747e74ff672ba1a4c8", "fusion_lon": 0.0}, {"is_reserved": 0, "type": "electric_scooter", "bike_id": "9f45faae0f4410b95a7c1488e2f1d30e", "lat": 38.89915583333333, "lon": -76.93365716666666, "rental_uris": {"android": "https://dc.lft.to/lastmile_qr_scan", "ios": "https://dc.lft.to/lastmile_qr_scan"}, "is_disabled": 0, "fusion_lat": 0.0, "name": "9f45faae0f4410b95a7c1488e2f1d30e", "fusion_lon": 0.0}, {"is_reserved": 0, "type": "electric_scooter", "bike_id": "8a74489667d808e08c310bdbc22c29d2", "lat": 38.9273885, "lon": -77.0225165, "rental_uris": {"android": "https://dc.lft.to/lastmile_qr_scan", "ios": "https://dc.lft.to/lastmile_qr_scan"}, "is_disabled": 0, "fusion_lat": 0.0, "name": "8a74489667d808e08c310bdbc22c29d2", "fusion_lon": 0.0}, {"is_reserved": 0, "type": "electric_scooter", "bike_id": "1ec347f37ea7ad1d9d48fba28b6b231b", "lat": 38.90558766666667, "lon": -77.017228, "rental_uris": {"android": "https://dc.lft.to/lastmile_qr_scan", "ios": "https://dc.lft.to/lastmile_qr_scan"}, "is_disabled": 0, "fusion_lat": 0.0, "name": "1ec347f37ea7ad1d9d48fba28b6b231b", "fusion_lon": 0.0}, {"is_reserved": 0, "type": "electric_scooter", "bike_id": "024afbfc4c25fdae055c651ccc668ce3", "lat": 38.898860666666664, "lon": -76.98837483333334, "rental_uris": {"android": "https://dc.lft.to/lastmile_qr_scan", "ios": "https://dc.lft.to/lastmile_qr_scan"}, "is_disabled": 0, "fusion_lat": 0.0, "name": "024afbfc4c25fdae055c651ccc668ce3", "fusion_lon": 0.0}, {"is_reserved": 0, "type": "electric_scooter", "bike_id": "9bc3e5c373f6c3dd8139e40b7f0f901b", "lat": 38.88357366666666, "lon": -77.026082, "rental_uris": {"android": "https://dc.lft.to/lastmile_qr_scan", "ios": "https://dc.lft.to/lastmile_qr_scan"}, "is_disabled": 0, "fusion_lat": 0.0, "name": "9bc3e5c373f6c3dd8139e40b7f0f901b", "fusion_lon": 0.0}, {"is_reserved": 0, "type": "electric_scooter", "bike_id": "1165e323f4e14450efac2024ad8e7dad", "lat": 38.90269383333333, "lon": -77.003249, "rental_uris": {"android": "https://dc.lft.to/lastmile_qr_scan", "ios": "https://dc.lft.to/lastmile_qr_scan"}, "is_disabled": 0, "fusion_lat": 0.0, "name": "1165e323f4e14450efac2024ad8e7dad", "fusion_lon": 0.0}, {"is_reserved": 0, "type": "electric_scooter", "bike_id": "3bef81d92e9d9648fc7ed826867091a5", "lat": 38.90068, "lon": -76.9274115, "rental_uris": {"android": "https://dc.lft.to/lastmile_qr_scan", "ios": "https://dc.lft.to/lastmile_qr_scan"}, "is_disabled": 0, "fusion_lat": 0.0, "name": "3bef81d92e9d9648fc7ed826867091a5", "fusion_lon": 0.0}, {"is_reserved": 0, "type": "electric_scooter", "bike_id": "7d4e42cdb19722a4c97cd082698d0877", "lat": 38.92471, "lon": -77.02711533333333, "rental_uris": {"android": "https://dc.lft.to/lastmile_qr_scan", "ios": "https://dc.lft.to/lastmile_qr_scan"}, "is_disabled": 0, "fusion_lat": 0.0, "name": "7d4e42cdb19722a4c97cd082698d0877", "fusion_lon": 0.0}, {"is_reserved": 0, "type": "electric_scooter", "bike_id": "3d9dc08052804fee18121b6dc029a9a3", "lat": 38.895645, "lon": -77.03172166666667, "rental_uris": {"android": "https://dc.lft.to/lastmile_qr_scan", "ios": "https://dc.lft.to/lastmile_qr_scan"}, "is_disabled": 0, "fusion_lat": 0.0, "name": "3d9dc08052804fee18121b6dc029a9a3", "fusion_lon": 0.0}, {"is_reserved": 0, "type": "electric_scooter", "bike_id": "b1a8a0b06a44ab03fbf45503e16d2329", "lat": 38.929719166666665, "lon": -77.02341366666667, "rental_uris": {"android": "https://dc.lft.to/lastmile_qr_scan", "ios": "https://dc.lft.to/lastmile_qr_scan"}, "is_disabled": 0, "fusion_lat": 0.0, "name": "b1a8a0b06a44ab03fbf45503e16d2329", "fusion_lon": 0.0}, {"is_reserved": 0, "type": "electric_scooter", "bike_id": "f21b200250bb95cb5dc24735c27db916", "lat": 38.91983533333333, "lon": -77.04066116666667, "rental_uris": {"android": "https://dc.lft.to/lastmile_qr_scan", "ios": "https://dc.lft.to/lastmile_qr_scan"}, "is_disabled": 0, "fusion_lat": 0.0, "name": "f21b200250bb95cb5dc24735c27db916", "fusion_lon": 0.0}, {"is_reserved": 0, "type": "electric_scooter", "bike_id": "0e3318a85a25c53d9e657ce05fcc3153", "lat": 38.947312, "lon": -77.024574, "rental_uris": {"android": "https://dc.lft.to/lastmile_qr_scan", "ios": "https://dc.lft.to/lastmile_qr_scan"}, "is_disabled": 0, "fusion_lat": 0.0, "name": "0e3318a85a25c53d9e657ce05fcc3153", "fusion_lon": 0.0}, {"is_reserved": 0, "type": "electric_bike", "bike_id": "e9acc98e2d3efe18b2e1162cf688618e", "lat": 38.840530333333334, "lon": -77.05600483333333, "rental_uris": {"android": "https://dc.lft.to/lastmile_qr_scan", "ios": "https://dc.lft.to/lastmile_qr_scan"}, "is_disabled": 0, "fusion_lat": 0.0, "name": "e9acc98e2d3efe18b2e1162cf688618e", "fusion_lon": 0.0}, {"is_reserved": 0, "type": "electric_scooter", "bike_id": "7d9b286849e41547960b1f7333326e2f", "lat": 38.929830833333334, "lon": -77.03180733333333, "rental_uris": {"android": "https://dc.lft.to/lastmile_qr_scan", "ios": "https://dc.lft.to/lastmile_qr_scan"}, "is_disabled": 0, "fusion_lat": 0.0, "name": "7d9b286849e41547960b1f7333326e2f", "fusion_lon": 0.0}, {"is_reserved": 0, "type": "electric_scooter", "bike_id": "8cda0013b144ea547b6f1f1bd88173d9", "lat": 38.917006666666666, "lon": -77.04084416666667, "rental_uris": {"android": "https://dc.lft.to/lastmile_qr_scan", "ios": "https://dc.lft.to/lastmile_qr_scan"}, "is_disabled": 0, "fusion_lat": 0.0, "name": "8cda0013b144ea547b6f1f1bd88173d9", "fusion_lon": 0.0}, {"is_reserved": 0, "type": "electric_scooter", "bike_id": "9d1620b769aa4d5e570a19274254429c", "lat": 38.915460333333336, "lon": -77.01211783333333, "rental_uris": {"android": "https://dc.lft.to/lastmile_qr_scan", "ios": "https://dc.lft.to/lastmile_qr_scan"}, "is_disabled": 0, "fusion_lat": 0.0, "name": "9d1620b769aa4d5e570a19274254429c", "fusion_lon": 0.0}, {"is_reserved": 0, "type": "electric_scooter", "bike_id": "5cc133cf61f0a65d8ebc5d7a41f983f7", "lat": 38.896189666666665, "lon": -77.02606783333333, "rental_uris": {"android": "https://dc.lft.to/lastmile_qr_scan", "ios": "https://dc.lft.to/lastmile_qr_scan"}, "is_disabled": 0, "fusion_lat": 0.0, "name": "5cc133cf61f0a65d8ebc5d7a41f983f7", "fusion_lon": 0.0}, {"is_reserved": 0, "type": "electric_scooter", "bike_id": "c433593a7eca8d783e00c524eaafb127", "lat": 38.905640166666664, "lon": -77.0043195, "rental_uris": {"android": "https://dc.lft.to/lastmile_qr_scan", "ios": "https://dc.lft.to/lastmile_qr_scan"}, "is_disabled": 0, "fusion_lat": 0.0, "name": "c433593a7eca8d783e00c524eaafb127", "fusion_lon": 0.0}, {"is_reserved": 0, "type": "electric_scooter", "bike_id": "18176307f28022eca3cd7048fb276aee", "lat": 38.923971, "lon": -77.050599, "rental_uris": {"android": "https://dc.lft.to/lastmile_qr_scan", "ios": "https://dc.lft.to/lastmile_qr_scan"}, "is_disabled": 0, "fusion_lat": 0.0, "name": "18176307f28022eca3cd7048fb276aee", "fusion_lon": 0.0}, {"is_reserved": 0, "type": "electric_scooter", "bike_id": "0543934d74481c7f6a091458375d30f3", "lat": 38.921519, "lon": -77.01894216666666, "rental_uris": {"android": "https://dc.lft.to/lastmile_qr_scan", "ios": "https://dc.lft.to/lastmile_qr_scan"}, "is_disabled": 0, "fusion_lat": 0.0, "name": "0543934d74481c7f6a091458375d30f3", "fusion_lon": 0.0}, {"is_reserved": 0, "type": "electric_bike", "bike_id": "4e075298288d5d793b8322fe8b7e071b", "lat": 38.857907, "lon": -77.099576, "rental_uris": {"android": "https://dc.lft.to/lastmile_qr_scan", "ios": "https://dc.lft.to/lastmile_qr_scan"}, "is_disabled": 0, "fusion_lat": 0.0, "name": "4e075298288d5d793b8322fe8b7e071b", "fusion_lon": 0.0}, {"is_reserved": 0, "type": "electric_scooter", "bike_id": "3ad253d0c635f40be0a870af50a2733e", "lat": 38.9073975, "lon": -77.0080045, "rental_uris": {"android": "https://dc.lft.to/lastmile_qr_scan", "ios": "https://dc.lft.to/lastmile_qr_scan"}, "is_disabled": 0, "fusion_lat": 0.0, "name": "3ad253d0c635f40be0a870af50a2733e", "fusion_lon": 0.0}, {"is_reserved": 0, "type": "electric_scooter", "bike_id": "10130833bff12401ce7649530f66c444", "lat": 38.8995265, "lon": -76.94637816666666, "rental_uris": {"android": "https://dc.lft.to/lastmile_qr_scan", "ios": "https://dc.lft.to/lastmile_qr_scan"}, "is_disabled": 0, "fusion_lat": 0.0, "name": "10130833bff12401ce7649530f66c444", "fusion_lon": 0.0}, {"is_reserved": 0, "type": "electric_scooter", "bike_id": "2e14cdf781ae9565e53cb37b0036c1a4", "lat": 38.9307655, "lon": -77.028151, "rental_uris": {"android": "https://dc.lft.to/lastmile_qr_scan", "ios": "https://dc.lft.to/lastmile_qr_scan"}, "is_disabled": 0, "fusion_lat": 0.0, "name": "2e14cdf781ae9565e53cb37b0036c1a4", "fusion_lon": 0.0}, {"is_reserved": 0, "type": "electric_scooter", "bike_id": "ee5e791143b7b0de9ca3b516cec0b8da", "lat": 38.90368466666666, "lon": -77.00745933333333, "rental_uris": {"android": "https://dc.lft.to/lastmile_qr_scan", "ios": "https://dc.lft.to/lastmile_qr_scan"}, "is_disabled": 0, "fusion_lat": 0.0, "name": "ee5e791143b7b0de9ca3b516cec0b8da", "fusion_lon": 0.0}, {"is_reserved": 0, "type": "electric_scooter", "bike_id": "2f2da3822ea6900ac97ac6222332ba3d", "lat": 38.8962275, "lon": -76.99725766666667, "rental_uris": {"android": "https://dc.lft.to/lastmile_qr_scan", "ios": "https://dc.lft.to/lastmile_qr_scan"}, "is_disabled": 0, "fusion_lat": 0.0, "name": "2f2da3822ea6900ac97ac6222332ba3d", "fusion_lon": 0.0}, {"is_reserved": 0, "type": "electric_bike", "bike_id": "093991c653d6883bbdbe59c5ed00a552", "lat": 38.958727333333336, "lon": -76.97058616666666, "rental_uris": {"android": "https://dc.lft.to/lastmile_qr_scan", "ios": "https://dc.lft.to/lastmile_qr_scan"}, "is_disabled": 0, "fusion_lat": 0.0, "name": "093991c653d6883bbdbe59c5ed00a552", "fusion_lon": 0.0}, {"is_reserved": 0, "type": "electric_scooter", "bike_id": "5210c6751abfe0fa5dfccec8419e2140", "lat": 38.916494666666665, "lon": -77.02180066666666, "rental_uris": {"android": "https://dc.lft.to/lastmile_qr_scan", "ios": "https://dc.lft.to/lastmile_qr_scan"}, "is_disabled": 0, "fusion_lat": 0.0, "name": "5210c6751abfe0fa5dfccec8419e2140", "fusion_lon": 0.0}, {"is_reserved": 0, "type": "electric_scooter", "bike_id": "9098ede346a1ae17eda4eb862f914638", "lat": 38.87576466666667, "lon": -77.00583466666667, "rental_uris": {"android": "https://dc.lft.to/lastmile_qr_scan", "ios": "https://dc.lft.to/lastmile_qr_scan"}, "is_disabled": 0, "fusion_lat": 0.0, "name": "9098ede346a1ae17eda4eb862f914638", "fusion_lon": 0.0}, {"is_reserved": 0, "type": "electric_scooter", "bike_id": "c612816a676b55f5475a99c4138d3389", "lat": 38.92978033333333, "lon": -77.03180316666666, "rental_uris": {"android": "https://dc.lft.to/lastmile_qr_scan", "ios": "https://dc.lft.to/lastmile_qr_scan"}, "is_disabled": 0, "fusion_lat": 0.0, "name": "c612816a676b55f5475a99c4138d3389", "fusion_lon": 0.0}, {"is_reserved": 0, "type": "electric_scooter", "bike_id": "27fc782c4e78906c3cecb540aa1f0420", "lat": 38.893416, "lon": -77.031598, "rental_uris": {"android": "https://dc.lft.to/lastmile_qr_scan", "ios": "https://dc.lft.to/lastmile_qr_scan"}, "is_disabled": 0, "fusion_lat": 0.0, "name": "27fc782c4e78906c3cecb540aa1f0420", "fusion_lon": 0.0}, {"is_reserved": 0, "type": "electric_scooter", "bike_id": "0ead568afc5425ef87a94bf75fc37073", "lat": 38.91684983333333, "lon": -77.02949983333333, "rental_uris": {"android": "https://dc.lft.to/lastmile_qr_scan", "ios": "https://dc.lft.to/lastmile_qr_scan"}, "is_disabled": 0, "fusion_lat": 0.0, "name": "0ead568afc5425ef87a94bf75fc37073", "fusion_lon": 0.0}, {"is_reserved": 0, "type": "electric_scooter", "bike_id": "0cf78584e34f2c59f949953946838933", "lat": 38.9324175, "lon": -76.99740083333333, "rental_uris": {"android": "https://dc.lft.to/lastmile_qr_scan", "ios": "https://dc.lft.to/lastmile_qr_scan"}, "is_disabled": 0, "fusion_lat": 0.0, "name": "0cf78584e34f2c59f949953946838933", "fusion_lon": 0.0}, {"is_reserved": 0, "type": "electric_bike", "bike_id": "69831e8f9515ee3e0a180d03bbccf6c1", "lat": 38.9456395, "lon": -76.9584195, "rental_uris": {"android": "https://dc.lft.to/lastmile_qr_scan", "ios": "https://dc.lft.to/lastmile_qr_scan"}, "is_disabled": 0, "fusion_lat": 0.0, "name": "69831e8f9515ee3e0a180d03bbccf6c1", "fusion_lon": 0.0}, {"is_reserved": 0, "type": "electric_scooter", "bike_id": "51a9192b195a508717a12dee470740ac", "lat": 38.924493166666664, "lon": -77.02162483333333, "rental_uris": {"android": "https://dc.lft.to/lastmile_qr_scan", "ios": "https://dc.lft.to/lastmile_qr_scan"}, "is_disabled": 0, "fusion_lat": 0.0, "name": "51a9192b195a508717a12dee470740ac", "fusion_lon": 0.0}, {"is_reserved": 0, "type": "electric_scooter", "bike_id": "a4378409f997aaf7d263e9a7e1bf0928", "lat": 38.8927745, "lon": -76.9926265, "rental_uris": {"android": "https://dc.lft.to/lastmile_qr_scan", "ios": "https://dc.lft.to/lastmile_qr_scan"}, "is_disabled": 0, "fusion_lat": 0.0, "name": "a4378409f997aaf7d263e9a7e1bf0928", "fusion_lon": 0.0}, {"is_reserved": 0, "type": "electric_scooter", "bike_id": "c425ac179ec4d9596723aa14991c01ba", "lat": 38.93959666666667, "lon": -77.02756883333333, "rental_uris": {"android": "https://dc.lft.to/lastmile_qr_scan", "ios": "https://dc.lft.to/lastmile_qr_scan"}, "is_disabled": 0, "fusion_lat": 0.0, "name": "c425ac179ec4d9596723aa14991c01ba", "fusion_lon": 0.0}, {"is_reserved": 0, "type": "electric_scooter", "bike_id": "9c27f421afcb539f2346ee7f47a1707d", "lat": 38.87579266666667, "lon": -77.01995766666667, "rental_uris": {"android": "https://dc.lft.to/lastmile_qr_scan", "ios": "https://dc.lft.to/lastmile_qr_scan"}, "is_disabled": 0, "fusion_lat": 0.0, "name": "9c27f421afcb539f2346ee7f47a1707d", "fusion_lon": 0.0}, {"is_reserved": 0, "type": "electric_scooter", "bike_id": "0ba2efecc7e1cff56961b885dc5c9f8b", "lat": 38.92424333333334, "lon": -77.019705, "rental_uris": {"android": "https://dc.lft.to/lastmile_qr_scan", "ios": "https://dc.lft.to/lastmile_qr_scan"}, "is_disabled": 0, "fusion_lat": 0.0, "name": "0ba2efecc7e1cff56961b885dc5c9f8b", "fusion_lon": 0.0}, {"is_reserved": 0, "type": "electric_scooter", "bike_id": "fc3f694f0f7bd7d3e4dce93673a8cebe", "lat": 38.933587333333335, "lon": -77.057237, "rental_uris": {"android": "https://dc.lft.to/lastmile_qr_scan", "ios": "https://dc.lft.to/lastmile_qr_scan"}, "is_disabled": 0, "fusion_lat": 0.0, "name": "fc3f694f0f7bd7d3e4dce93673a8cebe", "fusion_lon": 0.0}, {"is_reserved": 0, "type": "electric_scooter", "bike_id": "04858f76efe19a1899a22faac22fba5b", "lat": 38.91404983333334, "lon": -77.03180383333333, "rental_uris": {"android": "https://dc.lft.to/lastmile_qr_scan", "ios": "https://dc.lft.to/lastmile_qr_scan"}, "is_disabled": 0, "fusion_lat": 0.0, "name": "04858f76efe19a1899a22faac22fba5b", "fusion_lon": 0.0}, {"is_reserved": 0, "type": "electric_scooter", "bike_id": "8fdb67d8236e7f9a910cf0aea95ecac1", "lat": 38.919641166666665, "lon": -77.022228, "rental_uris": {"android": "https://dc.lft.to/lastmile_qr_scan", "ios": "https://dc.lft.to/lastmile_qr_scan"}, "is_disabled": 0, "fusion_lat": 0.0, "name": "8fdb67d8236e7f9a910cf0aea95ecac1", "fusion_lon": 0.0}, {"is_reserved": 0, "type": "electric_scooter", "bike_id": "fb544dac772f72766e9bf18f174faa96", "lat": 38.917097166666665, "lon": -77.02413083333333, "rental_uris": {"android": "https://dc.lft.to/lastmile_qr_scan", "ios": "https://dc.lft.to/lastmile_qr_scan"}, "is_disabled": 0, "fusion_lat": 0.0, "name": "fb544dac772f72766e9bf18f174faa96", "fusion_lon": 0.0}, {"is_reserved": 0, "type": "electric_scooter", "bike_id": "6c6de3ccdf2df420b48d2c168e09a1b8", "lat": 38.9227465, "lon": -77.02127233333333, "rental_uris": {"android": "https://dc.lft.to/lastmile_qr_scan", "ios": "https://dc.lft.to/lastmile_qr_scan"}, "is_disabled": 0, "fusion_lat": 0.0, "name": "6c6de3ccdf2df420b48d2c168e09a1b8", "fusion_lon": 0.0}, {"is_reserved": 0, "type": "electric_bike", "bike_id": "da2a2fb3cb426f29e765479da29c0979", "lat": 38.917054666666665, "lon": -77.05720116666667, "rental_uris": {"android": "https://dc.lft.to/lastmile_qr_scan", "ios": "https://dc.lft.to/lastmile_qr_scan"}, "is_disabled": 0, "fusion_lat": 0.0, "name": "da2a2fb3cb426f29e765479da29c0979", "fusion_lon": 0.0}, {"is_reserved": 0, "type": "electric_scooter", "bike_id": "8a30d7b4e2abfc18bf918883ff85d126", "lat": 38.92550133333334, "lon": -77.03223466666667, "rental_uris": {"android": "https://dc.lft.to/lastmile_qr_scan", "ios": "https://dc.lft.to/lastmile_qr_scan"}, "is_disabled": 0, "fusion_lat": 0.0, "name": "8a30d7b4e2abfc18bf918883ff85d126", "fusion_lon": 0.0}, {"is_reserved": 0, "type": "electric_scooter", "bike_id": "51cff55e8e14fee64369e3aaf1200544", "lat": 38.90791933333333, "lon": -77.04245066666667, "rental_uris": {"android": "https://dc.lft.to/lastmile_qr_scan", "ios": "https://dc.lft.to/lastmile_qr_scan"}, "is_disabled": 0, "fusion_lat": 0.0, "name": "51cff55e8e14fee64369e3aaf1200544", "fusion_lon": 0.0}, {"is_reserved": 0, "type": "electric_scooter", "bike_id": "65fa6233005a14e315269e7971634e51", "lat": 38.914972, "lon": -77.01996366666667, "rental_uris": {"android": "https://dc.lft.to/lastmile_qr_scan", "ios": "https://dc.lft.to/lastmile_qr_scan"}, "is_disabled": 0, "fusion_lat": 0.0, "name": "65fa6233005a14e315269e7971634e51", "fusion_lon": 0.0}, {"is_reserved": 0, "type": "electric_scooter", "bike_id": "1afe9b0883a1f026819cef4bf9f776ee", "lat": 38.92324466666667, "lon": -77.0296385, "rental_uris": {"android": "https://dc.lft.to/lastmile_qr_scan", "ios": "https://dc.lft.to/lastmile_qr_scan"}, "is_disabled": 0, "fusion_lat": 0.0, "name": "1afe9b0883a1f026819cef4bf9f776ee", "fusion_lon": 0.0}, {"is_reserved": 0, "type": "electric_scooter", "bike_id": "890a61c8496afc21e499c48c48a38b4a", "lat": 38.91190916666667, "lon": -77.0054775, "rental_uris": {"android": "https://dc.lft.to/lastmile_qr_scan", "ios": "https://dc.lft.to/lastmile_qr_scan"}, "is_disabled": 0, "fusion_lat": 0.0, "name": "890a61c8496afc21e499c48c48a38b4a", "fusion_lon": 0.0}, {"is_reserved": 0, "type": "electric_scooter", "bike_id": "b87aaea4ce82aac306ba99ca629ac934", "lat": 38.91779866666667, "lon": -77.04102216666666, "rental_uris": {"android": "https://dc.lft.to/lastmile_qr_scan", "ios": "https://dc.lft.to/lastmile_qr_scan"}, "is_disabled": 0, "fusion_lat": 0.0, "name": "b87aaea4ce82aac306ba99ca629ac934", "fusion_lon": 0.0}, {"is_reserved": 0, "type": "electric_scooter", "bike_id": "496d8fdd7454085f0586be78aed2b9e7", "lat": 38.864337166666665, "lon": -76.998602, "rental_uris": {"android": "https://dc.lft.to/lastmile_qr_scan", "ios": "https://dc.lft.to/lastmile_qr_scan"}, "is_disabled": 0, "fusion_lat": 0.0, "name": "496d8fdd7454085f0586be78aed2b9e7", "fusion_lon": 0.0}, {"is_reserved": 0, "type": "electric_scooter", "bike_id": "87129443f40d612758e9a8512d382ce4", "lat": 38.91775066666667, "lon": -77.03184133333333, "rental_uris": {"android": "https://dc.lft.to/lastmile_qr_scan", "ios": "https://dc.lft.to/lastmile_qr_scan"}, "is_disabled": 0, "fusion_lat": 0.0, "name": "87129443f40d612758e9a8512d382ce4", "fusion_lon": 0.0}, {"is_reserved": 0, "type": "electric_scooter", "bike_id": "21f9b2b134b02d840db60aff67c10b7f", "lat": 38.928972, "lon": -77.02252633333333, "rental_uris": {"android": "https://dc.lft.to/lastmile_qr_scan", "ios": "https://dc.lft.to/lastmile_qr_scan"}, "is_disabled": 0, "fusion_lat": 0.0, "name": "21f9b2b134b02d840db60aff67c10b7f", "fusion_lon": 0.0}, {"is_reserved": 0, "type": "electric_scooter", "bike_id": "88dff5eb76cab423d6d4e4cedd10bf8f", "lat": 38.95093633333333, "lon": -77.02809566666667, "rental_uris": {"android": "https://dc.lft.to/lastmile_qr_scan", "ios": "https://dc.lft.to/lastmile_qr_scan"}, "is_disabled": 0, "fusion_lat": 0.0, "name": "88dff5eb76cab423d6d4e4cedd10bf8f", "fusion_lon": 0.0}, {"is_reserved": 0, "type": "electric_bike", "bike_id": "cec73395baa2752cd50d43b8883bf64e", "lat": 38.895665, "lon": -77.1273755, "rental_uris": {"android": "https://dc.lft.to/lastmile_qr_scan", "ios": "https://dc.lft.to/lastmile_qr_scan"}, "is_disabled": 0, "fusion_lat": 0.0, "name": "cec73395baa2752cd50d43b8883bf64e", "fusion_lon": 0.0}, {"is_reserved": 0, "type": "electric_scooter", "bike_id": "22f7a1328783eee47d7d161323cebfd3", "lat": 38.900605, "lon": -76.9868165, "rental_uris": {"android": "https://dc.lft.to/lastmile_qr_scan", "ios": "https://dc.lft.to/lastmile_qr_scan"}, "is_disabled": 0, "fusion_lat": 0.0, "name": "22f7a1328783eee47d7d161323cebfd3", "fusion_lon": 0.0}, {"is_reserved": 0, "type": "electric_scooter", "bike_id": "a83b93402ce6ed1e556e5a36a7d4e5bc", "lat": 38.91079416666667, "lon": -77.0385395, "rental_uris": {"android": "https://dc.lft.to/lastmile_qr_scan", "ios": "https://dc.lft.to/lastmile_qr_scan"}, "is_disabled": 0, "fusion_lat": 0.0, "name": "a83b93402ce6ed1e556e5a36a7d4e5bc", "fusion_lon": 0.0}, {"is_reserved": 0, "type": "electric_scooter", "bike_id": "8fb239c94b9e62dbdc14b213d708e552", "lat": 38.93008616666667, "lon": -77.02309766666667, "rental_uris": {"android": "https://dc.lft.to/lastmile_qr_scan", "ios": "https://dc.lft.to/lastmile_qr_scan"}, "is_disabled": 0, "fusion_lat": 0.0, "name": "8fb239c94b9e62dbdc14b213d708e552", "fusion_lon": 0.0}, {"is_reserved": 0, "type": "electric_scooter", "bike_id": "6bde170920cc8b3e988558d78d95574d", "lat": 38.94031416666667, "lon": -77.02639033333334, "rental_uris": {"android": "https://dc.lft.to/lastmile_qr_scan", "ios": "https://dc.lft.to/lastmile_qr_scan"}, "is_disabled": 0, "fusion_lat": 0.0, "name": "6bde170920cc8b3e988558d78d95574d", "fusion_lon": 0.0}, {"is_reserved": 0, "type": "electric_bike", "bike_id": "67cfce38760ad9a4e4cd409a16f9dc78", "lat": 38.870777, "lon": -77.11046316666666, "rental_uris": {"android": "https://dc.lft.to/lastmile_qr_scan", "ios": "https://dc.lft.to/lastmile_qr_scan"}, "is_disabled": 0, "fusion_lat": 0.0, "name": "67cfce38760ad9a4e4cd409a16f9dc78", "fusion_lon": 0.0}, {"is_reserved": 0, "type": "electric_scooter", "bike_id": "9e946ae96994fdf85d5f52de95bce204", "lat": 38.89678283333333, "lon": -77.00516683333333, "rental_uris": {"android": "https://dc.lft.to/lastmile_qr_scan", "ios": "https://dc.lft.to/lastmile_qr_scan"}, "is_disabled": 0, "fusion_lat": 0.0, "name": "9e946ae96994fdf85d5f52de95bce204", "fusion_lon": 0.0}, {"is_reserved": 0, "type": "electric_scooter", "bike_id": "ec5ae6ffa200501f57caf13a803636f3", "lat": 38.8873645, "lon": -77.02835266666666, "rental_uris": {"android": "https://dc.lft.to/lastmile_qr_scan", "ios": "https://dc.lft.to/lastmile_qr_scan"}, "is_disabled": 0, "fusion_lat": 0.0, "name": "ec5ae6ffa200501f57caf13a803636f3", "fusion_lon": 0.0}, {"is_reserved": 0, "type": "electric_scooter", "bike_id": "19244d95779f8fc8d5f2eeb2e268cc66", "lat": 38.9036305, "lon": -77.00345333333334, "rental_uris": {"android": "https://dc.lft.to/lastmile_qr_scan", "ios": "https://dc.lft.to/lastmile_qr_scan"}, "is_disabled": 0, "fusion_lat": 0.0, "name": "19244d95779f8fc8d5f2eeb2e268cc66", "fusion_lon": 0.0}, {"is_reserved": 0, "type": "electric_scooter", "bike_id": "fae0e98c2a6c48247574be0dc357e554", "lat": 38.921627, "lon": -77.07298066666667, "rental_uris": {"android": "https://dc.lft.to/lastmile_qr_scan", "ios": "https://dc.lft.to/lastmile_qr_scan"}, "is_disabled": 0, "fusion_lat": 0.0, "name": "fae0e98c2a6c48247574be0dc357e554", "fusion_lon": 0.0}, {"is_reserved": 0, "type": "electric_scooter", "bike_id": "b3544adcc7cf80419e787debb47e7638", "lat": 38.883373, "lon": -76.9429085, "rental_uris": {"android": "https://dc.lft.to/lastmile_qr_scan", "ios": "https://dc.lft.to/lastmile_qr_scan"}, "is_disabled": 0, "fusion_lat": 0.0, "name": "b3544adcc7cf80419e787debb47e7638", "fusion_lon": 0.0}, {"is_reserved": 0, "type": "electric_scooter", "bike_id": "a362a99456c83a69b18be61253baa83b", "lat": 38.914767499999996, "lon": -77.03186233333334, "rental_uris": {"android": "https://dc.lft.to/lastmile_qr_scan", "ios": "https://dc.lft.to/lastmile_qr_scan"}, "is_disabled": 0, "fusion_lat": 0.0, "name": "a362a99456c83a69b18be61253baa83b", "fusion_lon": 0.0}, {"is_reserved": 0, "type": "electric_scooter", "bike_id": "9899b0a3b21a43004a1da340b7322a62", "lat": 38.88437183333333, "lon": -77.0254525, "rental_uris": {"android": "https://dc.lft.to/lastmile_qr_scan", "ios": "https://dc.lft.to/lastmile_qr_scan"}, "is_disabled": 0, "fusion_lat": 0.0, "name": "9899b0a3b21a43004a1da340b7322a62", "fusion_lon": 0.0}, {"is_reserved": 0, "type": "electric_scooter", "bike_id": "76a67581baacd6b38c310ec1b540b626", "lat": 38.88726533333333, "lon": -76.98377216666667, "rental_uris": {"android": "https://dc.lft.to/lastmile_qr_scan", "ios": "https://dc.lft.to/lastmile_qr_scan"}, "is_disabled": 0, "fusion_lat": 0.0, "name": "76a67581baacd6b38c310ec1b540b626", "fusion_lon": 0.0}, {"is_reserved": 0, "type": "electric_scooter", "bike_id": "b1746b769207b956c6c4d501ad4207fa", "lat": 38.905456, "lon": -77.00924416666666, "rental_uris": {"android": "https://dc.lft.to/lastmile_qr_scan", "ios": "https://dc.lft.to/lastmile_qr_scan"}, "is_disabled": 0, "fusion_lat": 0.0, "name": "b1746b769207b956c6c4d501ad4207fa", "fusion_lon": 0.0}, {"is_reserved": 0, "type": "electric_scooter", "bike_id": "4a4172cb4544a8f51ac87eb47638265f", "lat": 38.925626333333334, "lon": -77.0376595, "rental_uris": {"android": "https://dc.lft.to/lastmile_qr_scan", "ios": "https://dc.lft.to/lastmile_qr_scan"}, "is_disabled": 0, "fusion_lat": 0.0, "name": "4a4172cb4544a8f51ac87eb47638265f", "fusion_lon": 0.0}, {"is_reserved": 0, "type": "electric_scooter", "bike_id": "1b6402e7c10bef7cbc52e1f685119bda", "lat": 38.91604666666667, "lon": -77.02400683333333, "rental_uris": {"android": "https://dc.lft.to/lastmile_qr_scan", "ios": "https://dc.lft.to/lastmile_qr_scan"}, "is_disabled": 0, "fusion_lat": 0.0, "name": "1b6402e7c10bef7cbc52e1f685119bda", "fusion_lon": 0.0}, {"is_reserved": 0, "type": "electric_scooter", "bike_id": "cc52f8e5d4d43802c63be9ee4a10c635", "lat": 38.89246883333333, "lon": -77.01347316666667, "rental_uris": {"android": "https://dc.lft.to/lastmile_qr_scan", "ios": "https://dc.lft.to/lastmile_qr_scan"}, "is_disabled": 0, "fusion_lat": 0.0, "name": "cc52f8e5d4d43802c63be9ee4a10c635", "fusion_lon": 0.0}, {"is_reserved": 0, "type": "electric_scooter", "bike_id": "775ae24f0a408c338530ebe5cf60cabc", "lat": 38.917965333333335, "lon": -77.03207933333333, "rental_uris": {"android": "https://dc.lft.to/lastmile_qr_scan", "ios": "https://dc.lft.to/lastmile_qr_scan"}, "is_disabled": 0, "fusion_lat": 0.0, "name": "775ae24f0a408c338530ebe5cf60cabc", "fusion_lon": 0.0}, {"is_reserved": 0, "type": "electric_scooter", "bike_id": "087cb6a0806682769112b8603048aa7c", "lat": 38.892311, "lon": -77.03111366666667, "rental_uris": {"android": "https://dc.lft.to/lastmile_qr_scan", "ios": "https://dc.lft.to/lastmile_qr_scan"}, "is_disabled": 0, "fusion_lat": 0.0, "name": "087cb6a0806682769112b8603048aa7c", "fusion_lon": 0.0}, {"is_reserved": 0, "type": "electric_bike", "bike_id": "768e6e971ee7c0c3f6beaf8045d3170c", "lat": 38.83612, "lon": -77.003804, "rental_uris": {"android": "https://dc.lft.to/lastmile_qr_scan", "ios": "https://dc.lft.to/lastmile_qr_scan"}, "is_disabled": 0, "fusion_lat": 0.0, "name": "768e6e971ee7c0c3f6beaf8045d3170c", "fusion_lon": 0.0}, {"is_reserved": 0, "type": "electric_scooter", "bike_id": "b3fd7c76b263c43c999e50c22e64ec0a", "lat": 38.90571033333333, "lon": -77.03072116666667, "rental_uris": {"android": "https://dc.lft.to/lastmile_qr_scan", "ios": "https://dc.lft.to/lastmile_qr_scan"}, "is_disabled": 0, "fusion_lat": 0.0, "name": "b3fd7c76b263c43c999e50c22e64ec0a", "fusion_lon": 0.0}, {"is_reserved": 0, "type": "electric_bike", "bike_id": "b9f23cabec7c9cae03fec429b70c7b55", "lat": 38.92912716666667, "lon": -77.09739316666666, "rental_uris": {"android": "https://dc.lft.to/lastmile_qr_scan", "ios": "https://dc.lft.to/lastmile_qr_scan"}, "is_disabled": 0, "fusion_lat": 0.0, "name": "b9f23cabec7c9cae03fec429b70c7b55", "fusion_lon": 0.0}, {"is_reserved": 0, "type": "electric_scooter", "bike_id": "8f4f31b33782a0514eac5c0676c8b79c", "lat": 38.90397133333333, "lon": -77.06298666666666, "rental_uris": {"android": "https://dc.lft.to/lastmile_qr_scan", "ios": "https://dc.lft.to/lastmile_qr_scan"}, "is_disabled": 0, "fusion_lat": 0.0, "name": "8f4f31b33782a0514eac5c0676c8b79c", "fusion_lon": 0.0}, {"is_reserved": 0, "type": "electric_scooter", "bike_id": "2dfff76b7b3fa2b94e935c434ca5c3d0", "lat": 38.877936, "lon": -77.01762883333333, "rental_uris": {"android": "https://dc.lft.to/lastmile_qr_scan", "ios": "https://dc.lft.to/lastmile_qr_scan"}, "is_disabled": 0, "fusion_lat": 0.0, "name": "2dfff76b7b3fa2b94e935c434ca5c3d0", "fusion_lon": 0.0}, {"is_reserved": 0, "type": "electric_scooter", "bike_id": "08801a05b3e87f15640f1508d862235e", "lat": 38.931987666666664, "lon": -77.023786, "rental_uris": {"android": "https://dc.lft.to/lastmile_qr_scan", "ios": "https://dc.lft.to/lastmile_qr_scan"}, "is_disabled": 0, "fusion_lat": 0.0, "name": "08801a05b3e87f15640f1508d862235e", "fusion_lon": 0.0}, {"is_reserved": 0, "type": "electric_scooter", "bike_id": "e89589301abc4bb142555918eef3d7ea", "lat": 38.95056133333333, "lon": -77.05413733333333, "rental_uris": {"android": "https://dc.lft.to/lastmile_qr_scan", "ios": "https://dc.lft.to/lastmile_qr_scan"}, "is_disabled": 0, "fusion_lat": 0.0, "name": "e89589301abc4bb142555918eef3d7ea", "fusion_lon": 0.0}, {"is_reserved": 0, "type": "electric_scooter", "bike_id": "8e89d006ed6785096ffcf65c44c15183", "lat": 38.91916783333333, "lon": -77.0481155, "rental_uris": {"android": "https://dc.lft.to/lastmile_qr_scan", "ios": "https://dc.lft.to/lastmile_qr_scan"}, "is_disabled": 0, "fusion_lat": 0.0, "name": "8e89d006ed6785096ffcf65c44c15183", "fusion_lon": 0.0}, {"is_reserved": 0, "type": "electric_scooter", "bike_id": "60dda9958f75ae99676cd16dcb9c6c33", "lat": 38.91109, "lon": -77.0430385, "rental_uris": {"android": "https://dc.lft.to/lastmile_qr_scan", "ios": "https://dc.lft.to/lastmile_qr_scan"}, "is_disabled": 0, "fusion_lat": 0.0, "name": "60dda9958f75ae99676cd16dcb9c6c33", "fusion_lon": 0.0}, {"is_reserved": 0, "type": "electric_bike", "bike_id": "b1017de485227b9aec3b8ef83fd73c95", "lat": 38.944752333333334, "lon": -76.98684266666666, "rental_uris": {"android": "https://dc.lft.to/lastmile_qr_scan", "ios": "https://dc.lft.to/lastmile_qr_scan"}, "is_disabled": 0, "fusion_lat": 0.0, "name": "b1017de485227b9aec3b8ef83fd73c95", "fusion_lon": 0.0}, {"is_reserved": 0, "type": "electric_scooter", "bike_id": "2b4e266416a2b16472c73805f8f10b78", "lat": 38.917796833333334, "lon": -77.02301216666666, "rental_uris": {"android": "https://dc.lft.to/lastmile_qr_scan", "ios": "https://dc.lft.to/lastmile_qr_scan"}, "is_disabled": 0, "fusion_lat": 0.0, "name": "2b4e266416a2b16472c73805f8f10b78", "fusion_lon": 0.0}, {"is_reserved": 0, "type": "electric_scooter", "bike_id": "10304aeccc250b71a7e5b93404633f2b", "lat": 38.892236833333335, "lon": -77.04866033333333, "rental_uris": {"android": "https://dc.lft.to/lastmile_qr_scan", "ios": "https://dc.lft.to/lastmile_qr_scan"}, "is_disabled": 0, "fusion_lat": 0.0, "name": "10304aeccc250b71a7e5b93404633f2b", "fusion_lon": 0.0}, {"is_reserved": 0, "type": "electric_scooter", "bike_id": "1c6c2b69143f0fbc490c307486f7b4fb", "lat": 38.92436433333334, "lon": -77.00067033333333, "rental_uris": {"android": "https://dc.lft.to/lastmile_qr_scan", "ios": "https://dc.lft.to/lastmile_qr_scan"}, "is_disabled": 0, "fusion_lat": 0.0, "name": "1c6c2b69143f0fbc490c307486f7b4fb", "fusion_lon": 0.0}, {"is_reserved": 0, "type": "electric_scooter", "bike_id": "c098fb8b6d0ba0e90fc39ea849e21cfd", "lat": 38.95626466666667, "lon": -77.027891, "rental_uris": {"android": "https://dc.lft.to/lastmile_qr_scan", "ios": "https://dc.lft.to/lastmile_qr_scan"}, "is_disabled": 0, "fusion_lat": 0.0, "name": "c098fb8b6d0ba0e90fc39ea849e21cfd", "fusion_lon": 0.0}, {"is_reserved": 0, "type": "electric_scooter", "bike_id": "8af47261a401d33025713713af66d398", "lat": 38.9180975, "lon": -77.03302683333334, "rental_uris": {"android": "https://dc.lft.to/lastmile_qr_scan", "ios": "https://dc.lft.to/lastmile_qr_scan"}, "is_disabled": 0, "fusion_lat": 0.0, "name": "8af47261a401d33025713713af66d398", "fusion_lon": 0.0}, {"is_reserved": 0, "type": "electric_scooter", "bike_id": "9f2e598b313f808243f1a454e5645d55", "lat": 38.9210235, "lon": -77.01803133333334, "rental_uris": {"android": "https://dc.lft.to/lastmile_qr_scan", "ios": "https://dc.lft.to/lastmile_qr_scan"}, "is_disabled": 0, "fusion_lat": 0.0, "name": "9f2e598b313f808243f1a454e5645d55", "fusion_lon": 0.0}, {"is_reserved": 0, "type": "electric_scooter", "bike_id": "6ad8cbae8c9aa059384ce67ffc20385a", "lat": 38.89197266666667, "lon": -77.03219333333334, "rental_uris": {"android": "https://dc.lft.to/lastmile_qr_scan", "ios": "https://dc.lft.to/lastmile_qr_scan"}, "is_disabled": 0, "fusion_lat": 0.0, "name": "6ad8cbae8c9aa059384ce67ffc20385a", "fusion_lon": 0.0}, {"is_reserved": 0, "type": "electric_scooter", "bike_id": "5beabef0863c4c7b36b7baa3745adb0d", "lat": 38.9245445, "lon": -77.04398216666667, "rental_uris": {"android": "https://dc.lft.to/lastmile_qr_scan", "ios": "https://dc.lft.to/lastmile_qr_scan"}, "is_disabled": 0, "fusion_lat": 0.0, "name": "5beabef0863c4c7b36b7baa3745adb0d", "fusion_lon": 0.0}, {"is_reserved": 0, "type": "electric_scooter", "bike_id": "064a8916fbdcbf01c9aee9df60cddf52", "lat": 38.922376, "lon": -77.041368, "rental_uris": {"android": "https://dc.lft.to/lastmile_qr_scan", "ios": "https://dc.lft.to/lastmile_qr_scan"}, "is_disabled": 0, "fusion_lat": 0.0, "name": "064a8916fbdcbf01c9aee9df60cddf52", "fusion_lon": 0.0}, {"is_reserved": 0, "type": "electric_scooter", "bike_id": "2bf81ab86c4e4c5b662fbeedbfd608e7", "lat": 38.917015166666665, "lon": -77.028968, "rental_uris": {"android": "https://dc.lft.to/lastmile_qr_scan", "ios": "https://dc.lft.to/lastmile_qr_scan"}, "is_disabled": 0, "fusion_lat": 0.0, "name": "2bf81ab86c4e4c5b662fbeedbfd608e7", "fusion_lon": 0.0}, {"is_reserved": 0, "type": "electric_scooter", "bike_id": "7930501933e990dfdc6d7e2920844ddc", "lat": 38.9087405, "lon": -77.02355966666667, "rental_uris": {"android": "https://dc.lft.to/lastmile_qr_scan", "ios": "https://dc.lft.to/lastmile_qr_scan"}, "is_disabled": 0, "fusion_lat": 0.0, "name": "7930501933e990dfdc6d7e2920844ddc", "fusion_lon": 0.0}, {"is_reserved": 0, "type": "electric_scooter", "bike_id": "ccb0fd5ee05448d0bd5e5885bb54b654", "lat": 38.935543833333334, "lon": -77.02210533333333, "rental_uris": {"android": "https://dc.lft.to/lastmile_qr_scan", "ios": "https://dc.lft.to/lastmile_qr_scan"}, "is_disabled": 0, "fusion_lat": 0.0, "name": "ccb0fd5ee05448d0bd5e5885bb54b654", "fusion_lon": 0.0}, {"is_reserved": 0, "type": "electric_bike", "bike_id": "72be52839028d5ba6dad9d36fd597da7", "lat": 38.8381355, "lon": -77.09523366666667, "rental_uris": {"android": "https://dc.lft.to/lastmile_qr_scan", "ios": "https://dc.lft.to/lastmile_qr_scan"}, "is_disabled": 0, "fusion_lat": 0.0, "name": "72be52839028d5ba6dad9d36fd597da7", "fusion_lon": 0.0}, {"is_reserved": 0, "type": "electric_scooter", "bike_id": "192dab10dca4ccea2a49f332b73d1cc2", "lat": 38.90182316666667, "lon": -77.00122133333333, "rental_uris": {"android": "https://dc.lft.to/lastmile_qr_scan", "ios": "https://dc.lft.to/lastmile_qr_scan"}, "is_disabled": 0, "fusion_lat": 0.0, "name": "192dab10dca4ccea2a49f332b73d1cc2", "fusion_lon": 0.0}, {"is_reserved": 0, "type": "electric_scooter", "bike_id": "328c45da02036a75dedbce2ccc4a643d", "lat": 38.93667883333333, "lon": -77.05493, "rental_uris": {"android": "https://dc.lft.to/lastmile_qr_scan", "ios": "https://dc.lft.to/lastmile_qr_scan"}, "is_disabled": 0, "fusion_lat": 0.0, "name": "328c45da02036a75dedbce2ccc4a643d", "fusion_lon": 0.0}, {"is_reserved": 0, "type": "electric_scooter", "bike_id": "23740bd4049e231cd90441630669be2b", "lat": 38.892215666666665, "lon": -77.02626366666667, "rental_uris": {"android": "https://dc.lft.to/lastmile_qr_scan", "ios": "https://dc.lft.to/lastmile_qr_scan"}, "is_disabled": 0, "fusion_lat": 0.0, "name": "23740bd4049e231cd90441630669be2b", "fusion_lon": 0.0}, {"is_reserved": 0, "type": "electric_scooter", "bike_id": "7325357f74791b57bee8a83d8af63fcf", "lat": 38.914749666666665, "lon": -77.032071, "rental_uris": {"android": "https://dc.lft.to/lastmile_qr_scan", "ios": "https://dc.lft.to/lastmile_qr_scan"}, "is_disabled": 0, "fusion_lat": 0.0, "name": "7325357f74791b57bee8a83d8af63fcf", "fusion_lon": 0.0}, {"is_reserved": 0, "type": "electric_bike", "bike_id": "bfa431b66b452c402e70cbbc2b00c13d", "lat": 38.83010566666667, "lon": -76.99422116666666, "rental_uris": {"android": "https://dc.lft.to/lastmile_qr_scan", "ios": "https://dc.lft.to/lastmile_qr_scan"}, "is_disabled": 0, "fusion_lat": 0.0, "name": "bfa431b66b452c402e70cbbc2b00c13d", "fusion_lon": 0.0}, {"is_reserved": 0, "type": "electric_scooter", "bike_id": "3c6a6db778b166cd74fc5a32a0fb8867", "lat": 38.93194066666667, "lon": -77.02814133333334, "rental_uris": {"android": "https://dc.lft.to/lastmile_qr_scan", "ios": "https://dc.lft.to/lastmile_qr_scan"}, "is_disabled": 0, "fusion_lat": 0.0, "name": "3c6a6db778b166cd74fc5a32a0fb8867", "fusion_lon": 0.0}, {"is_reserved": 0, "type": "electric_scooter", "bike_id": "1f018142cd91528355e17a3544149a6c", "lat": 38.93503283333333, "lon": -77.02005816666667, "rental_uris": {"android": "https://dc.lft.to/lastmile_qr_scan", "ios": "https://dc.lft.to/lastmile_qr_scan"}, "is_disabled": 0, "fusion_lat": 0.0, "name": "1f018142cd91528355e17a3544149a6c", "fusion_lon": 0.0}, {"is_reserved": 0, "type": "electric_scooter", "bike_id": "41c36fc25d7e3134f9c533762d39080d", "lat": 38.90236316666667, "lon": -77.0288365, "rental_uris": {"android": "https://dc.lft.to/lastmile_qr_scan", "ios": "https://dc.lft.to/lastmile_qr_scan"}, "is_disabled": 0, "fusion_lat": 0.0, "name": "41c36fc25d7e3134f9c533762d39080d", "fusion_lon": 0.0}, {"is_reserved": 0, "type": "electric_scooter", "bike_id": "a5db487e2267c0802f2abb0fb28c5d78", "lat": 38.9054825, "lon": -77.02207916666667, "rental_uris": {"android": "https://dc.lft.to/lastmile_qr_scan", "ios": "https://dc.lft.to/lastmile_qr_scan"}, "is_disabled": 0, "fusion_lat": 0.0, "name": "a5db487e2267c0802f2abb0fb28c5d78", "fusion_lon": 0.0}, {"is_reserved": 0, "type": "electric_scooter", "bike_id": "d4a893d38f8c35c314edd69ec5c07e05", "lat": 38.908565333333335, "lon": -77.03261966666666, "rental_uris": {"android": "https://dc.lft.to/lastmile_qr_scan", "ios": "https://dc.lft.to/lastmile_qr_scan"}, "is_disabled": 0, "fusion_lat": 0.0, "name": "d4a893d38f8c35c314edd69ec5c07e05", "fusion_lon": 0.0}, {"is_reserved": 0, "type": "electric_scooter", "bike_id": "8acf196346a358d28f6879fcec63d593", "lat": 38.89966833333333, "lon": -77.044837, "rental_uris": {"android": "https://dc.lft.to/lastmile_qr_scan", "ios": "https://dc.lft.to/lastmile_qr_scan"}, "is_disabled": 0, "fusion_lat": 0.0, "name": "8acf196346a358d28f6879fcec63d593", "fusion_lon": 0.0}, {"is_reserved": 0, "type": "electric_scooter", "bike_id": "8cadb5608dcf818a55dc6c5971ab29e0", "lat": 38.920794, "lon": -77.035652, "rental_uris": {"android": "https://dc.lft.to/lastmile_qr_scan", "ios": "https://dc.lft.to/lastmile_qr_scan"}, "is_disabled": 0, "fusion_lat": 0.0, "name": "8cadb5608dcf818a55dc6c5971ab29e0", "fusion_lon": 0.0}, {"is_reserved": 0, "type": "electric_scooter", "bike_id": "5ff6070445fc6cc9651caaeddc15ac8d", "lat": 38.92409766666667, "lon": -77.02972266666667, "rental_uris": {"android": "https://dc.lft.to/lastmile_qr_scan", "ios": "https://dc.lft.to/lastmile_qr_scan"}, "is_disabled": 0, "fusion_lat": 0.0, "name": "5ff6070445fc6cc9651caaeddc15ac8d", "fusion_lon": 0.0}, {"is_reserved": 0, "type": "electric_scooter", "bike_id": "3d6e265ec2e72b0638885bbc72e2f368", "lat": 38.9036815, "lon": -77.038304, "rental_uris": {"android": "https://dc.lft.to/lastmile_qr_scan", "ios": "https://dc.lft.to/lastmile_qr_scan"}, "is_disabled": 0, "fusion_lat": 0.0, "name": "3d6e265ec2e72b0638885bbc72e2f368", "fusion_lon": 0.0}, {"is_reserved": 0, "type": "electric_scooter", "bike_id": "398cbfc173dc8c47caf166fa88e62bf2", "lat": 38.916125, "lon": -77.04487483333334, "rental_uris": {"android": "https://dc.lft.to/lastmile_qr_scan", "ios": "https://dc.lft.to/lastmile_qr_scan"}, "is_disabled": 0, "fusion_lat": 0.0, "name": "398cbfc173dc8c47caf166fa88e62bf2", "fusion_lon": 0.0}, {"is_reserved": 0, "type": "electric_scooter", "bike_id": "dfbe287a610bc6c59f8a7fba8ef01bf8", "lat": 38.911562833333335, "lon": -77.0228775, "rental_uris": {"android": "https://dc.lft.to/lastmile_qr_scan", "ios": "https://dc.lft.to/lastmile_qr_scan"}, "is_disabled": 0, "fusion_lat": 0.0, "name": "dfbe287a610bc6c59f8a7fba8ef01bf8", "fusion_lon": 0.0}, {"is_reserved": 0, "type": "electric_scooter", "bike_id": "6d06492fe5fdc92cdb628c443213d6d1", "lat": 38.910935333333335, "lon": -77.04125016666667, "rental_uris": {"android": "https://dc.lft.to/lastmile_qr_scan", "ios": "https://dc.lft.to/lastmile_qr_scan"}, "is_disabled": 0, "fusion_lat": 0.0, "name": "6d06492fe5fdc92cdb628c443213d6d1", "fusion_lon": 0.0}, {"is_reserved": 0, "type": "electric_scooter", "bike_id": "9594b537cdda53d13e2b553df683e137", "lat": 38.9195705, "lon": -77.02489366666667, "rental_uris": {"android": "https://dc.lft.to/lastmile_qr_scan", "ios": "https://dc.lft.to/lastmile_qr_scan"}, "is_disabled": 0, "fusion_lat": 0.0, "name": "9594b537cdda53d13e2b553df683e137", "fusion_lon": 0.0}, {"is_reserved": 0, "type": "electric_scooter", "bike_id": "4b53ea16c4231b28faf5ec9a879e06c4", "lat": 38.90411866666667, "lon": -76.97330216666667, "rental_uris": {"android": "https://dc.lft.to/lastmile_qr_scan", "ios": "https://dc.lft.to/lastmile_qr_scan"}, "is_disabled": 0, "fusion_lat": 0.0, "name": "4b53ea16c4231b28faf5ec9a879e06c4", "fusion_lon": 0.0}, {"is_reserved": 0, "type": "electric_scooter", "bike_id": "835832914d1f5f32d4dd562e0870f757", "lat": 38.87663283333333, "lon": -76.99323633333333, "rental_uris": {"android": "https://dc.lft.to/lastmile_qr_scan", "ios": "https://dc.lft.to/lastmile_qr_scan"}, "is_disabled": 0, "fusion_lat": 0.0, "name": "835832914d1f5f32d4dd562e0870f757", "fusion_lon": 0.0}, {"is_reserved": 0, "type": "electric_scooter", "bike_id": "718175872d6f0360edccffdd817f3e55", "lat": 38.838067333333335, "lon": -76.99861516666667, "rental_uris": {"android": "https://dc.lft.to/lastmile_qr_scan", "ios": "https://dc.lft.to/lastmile_qr_scan"}, "is_disabled": 0, "fusion_lat": 0.0, "name": "718175872d6f0360edccffdd817f3e55", "fusion_lon": 0.0}, {"is_reserved": 0, "type": "electric_scooter", "bike_id": "de1fcb1e6722bd872e2ad0ab30fd3b7e", "lat": 38.93842216666667, "lon": -77.02465083333334, "rental_uris": {"android": "https://dc.lft.to/lastmile_qr_scan", "ios": "https://dc.lft.to/lastmile_qr_scan"}, "is_disabled": 0, "fusion_lat": 0.0, "name": "de1fcb1e6722bd872e2ad0ab30fd3b7e", "fusion_lon": 0.0}, {"is_reserved": 0, "type": "electric_scooter", "bike_id": "823cde60d441817d88222d9f50edd5bc", "lat": 38.899594666666665, "lon": -77.0448535, "rental_uris": {"android": "https://dc.lft.to/lastmile_qr_scan", "ios": "https://dc.lft.to/lastmile_qr_scan"}, "is_disabled": 0, "fusion_lat": 0.0, "name": "823cde60d441817d88222d9f50edd5bc", "fusion_lon": 0.0}, {"is_reserved": 0, "type": "electric_scooter", "bike_id": "59373b58b3166660696d992e34dc31c3", "lat": 38.88160583333333, "lon": -77.00064016666667, "rental_uris": {"android": "https://dc.lft.to/lastmile_qr_scan", "ios": "https://dc.lft.to/lastmile_qr_scan"}, "is_disabled": 0, "fusion_lat": 0.0, "name": "59373b58b3166660696d992e34dc31c3", "fusion_lon": 0.0}, {"is_reserved": 0, "type": "electric_scooter", "bike_id": "a753ff94f531f0a221d5411e5bea67ef", "lat": 38.9223875, "lon": -77.04118466666667, "rental_uris": {"android": "https://dc.lft.to/lastmile_qr_scan", "ios": "https://dc.lft.to/lastmile_qr_scan"}, "is_disabled": 0, "fusion_lat": 0.0, "name": "a753ff94f531f0a221d5411e5bea67ef", "fusion_lon": 0.0}, {"is_reserved": 0, "type": "electric_scooter", "bike_id": "b6ee92c982bf4e09d53d72da1e6f6697", "lat": 38.960327166666666, "lon": -77.02426483333333, "rental_uris": {"android": "https://dc.lft.to/lastmile_qr_scan", "ios": "https://dc.lft.to/lastmile_qr_scan"}, "is_disabled": 0, "fusion_lat": 0.0, "name": "b6ee92c982bf4e09d53d72da1e6f6697", "fusion_lon": 0.0}, {"is_reserved": 0, "type": "electric_bike", "bike_id": "20a46cc05804e61cfe1131a3ab21d900", "lat": 38.89971283333333, "lon": -76.98055466666666, "rental_uris": {"android": "https://dc.lft.to/lastmile_qr_scan", "ios": "https://dc.lft.to/lastmile_qr_scan"}, "is_disabled": 0, "fusion_lat": 0.0, "name": "20a46cc05804e61cfe1131a3ab21d900", "fusion_lon": 0.0}, {"is_reserved": 0, "type": "electric_scooter", "bike_id": "fcd1f6d944eba87862c231feec85d0c7", "lat": 38.91757616666666, "lon": -77.01462383333333, "rental_uris": {"android": "https://dc.lft.to/lastmile_qr_scan", "ios": "https://dc.lft.to/lastmile_qr_scan"}, "is_disabled": 0, "fusion_lat": 0.0, "name": "fcd1f6d944eba87862c231feec85d0c7", "fusion_lon": 0.0}, {"is_reserved": 0, "type": "electric_scooter", "bike_id": "383ebdce9e8939435041a5ca91d48f6b", "lat": 38.89828933333333, "lon": -76.9464985, "rental_uris": {"android": "https://dc.lft.to/lastmile_qr_scan", "ios": "https://dc.lft.to/lastmile_qr_scan"}, "is_disabled": 0, "fusion_lat": 0.0, "name": "383ebdce9e8939435041a5ca91d48f6b", "fusion_lon": 0.0}, {"is_reserved": 0, "type": "electric_scooter", "bike_id": "2e12c81623a1d14f9a454055d922f411", "lat": 38.92635766666667, "lon": -77.02571416666666, "rental_uris": {"android": "https://dc.lft.to/lastmile_qr_scan", "ios": "https://dc.lft.to/lastmile_qr_scan"}, "is_disabled": 0, "fusion_lat": 0.0, "name": "2e12c81623a1d14f9a454055d922f411", "fusion_lon": 0.0}, {"is_reserved": 0, "type": "electric_scooter", "bike_id": "c9a57f5bbed48b0315a5be86e07577c7", "lat": 38.936295333333334, "lon": -77.0730115, "rental_uris": {"android": "https://dc.lft.to/lastmile_qr_scan", "ios": "https://dc.lft.to/lastmile_qr_scan"}, "is_disabled": 0, "fusion_lat": 0.0, "name": "c9a57f5bbed48b0315a5be86e07577c7", "fusion_lon": 0.0}, {"is_reserved": 0, "type": "electric_scooter", "bike_id": "d5816569ab024658e7a60920e8929e64", "lat": 38.925627666666664, "lon": -77.03773083333333, "rental_uris": {"android": "https://dc.lft.to/lastmile_qr_scan", "ios": "https://dc.lft.to/lastmile_qr_scan"}, "is_disabled": 0, "fusion_lat": 0.0, "name": "d5816569ab024658e7a60920e8929e64", "fusion_lon": 0.0}, {"is_reserved": 0, "type": "electric_scooter", "bike_id": "71993c6e30da816b99c44707301f748f", "lat": 38.91258166666667, "lon": -77.02860383333334, "rental_uris": {"android": "https://dc.lft.to/lastmile_qr_scan", "ios": "https://dc.lft.to/lastmile_qr_scan"}, "is_disabled": 0, "fusion_lat": 0.0, "name": "71993c6e30da816b99c44707301f748f", "fusion_lon": 0.0}, {"is_reserved": 0, "type": "electric_scooter", "bike_id": "18f68300d8d5118a5225318762620f4c", "lat": 38.917897833333335, "lon": -77.0230805, "rental_uris": {"android": "https://dc.lft.to/lastmile_qr_scan", "ios": "https://dc.lft.to/lastmile_qr_scan"}, "is_disabled": 0, "fusion_lat": 0.0, "name": "18f68300d8d5118a5225318762620f4c", "fusion_lon": 0.0}, {"is_reserved": 0, "type": "electric_scooter", "bike_id": "0ec828ef34f0275cd9a8eeb580f2edec", "lat": 38.885257, "lon": -76.977096, "rental_uris": {"android": "https://dc.lft.to/lastmile_qr_scan", "ios": "https://dc.lft.to/lastmile_qr_scan"}, "is_disabled": 0, "fusion_lat": 0.0, "name": "0ec828ef34f0275cd9a8eeb580f2edec", "fusion_lon": 0.0}, {"is_reserved": 0, "type": "electric_scooter", "bike_id": "d3b63159801b069156802e6fceafc779", "lat": 38.9141415, "lon": -76.98592316666667, "rental_uris": {"android": "https://dc.lft.to/lastmile_qr_scan", "ios": "https://dc.lft.to/lastmile_qr_scan"}, "is_disabled": 0, "fusion_lat": 0.0, "name": "d3b63159801b069156802e6fceafc779", "fusion_lon": 0.0}, {"is_reserved": 0, "type": "electric_scooter", "bike_id": "d51244a764c3ca858bf0b519c3e08901", "lat": 38.914916, "lon": -77.03834183333333, "rental_uris": {"android": "https://dc.lft.to/lastmile_qr_scan", "ios": "https://dc.lft.to/lastmile_qr_scan"}, "is_disabled": 0, "fusion_lat": 0.0, "name": "d51244a764c3ca858bf0b519c3e08901", "fusion_lon": 0.0}, {"is_reserved": 0, "type": "electric_scooter", "bike_id": "85df9a6772ae7acd210c02e2e9e0e0d4", "lat": 38.9169055, "lon": -77.02947516666667, "rental_uris": {"android": "https://dc.lft.to/lastmile_qr_scan", "ios": "https://dc.lft.to/lastmile_qr_scan"}, "is_disabled": 0, "fusion_lat": 0.0, "name": "85df9a6772ae7acd210c02e2e9e0e0d4", "fusion_lon": 0.0}, {"is_reserved": 0, "type": "electric_scooter", "bike_id": "f40ebd7d5a9230b602163ac109b0754b", "lat": 38.9180135, "lon": -77.03189233333333, "rental_uris": {"android": "https://dc.lft.to/lastmile_qr_scan", "ios": "https://dc.lft.to/lastmile_qr_scan"},