{"data": {"bikes": [{"rental_uris": {"ios": "https://dc.lft.to/lastmile_qr_scan", "android": "https://dc.lft.to/lastmile_qr_scan"}, "type": "electric_scooter", "name": "b0d4e3c43023a74819b3db8ce529dfd6", "is_reserved": 0, "lon": -77.02219383333333, "is_disabled": 0, "fusion_lat": 0.0, "lat": 38.893533833333336, "bike_id": "b0d4e3c43023a74819b3db8ce529dfd6", "fusion_lon": 0.0}, {"rental_uris": {"ios": "https://dc.lft.to/lastmile_qr_scan", "android": "https://dc.lft.to/lastmile_qr_scan"}, "type": "electric_scooter", "name": "1112de9b72099c14b1269b6e14408af7", "is_reserved": 0, "lon": -77.02229483333333, "is_disabled": 0, "fusion_lat": 0.0, "lat": 38.892214, "bike_id": "1112de9b72099c14b1269b6e14408af7", "fusion_lon": 0.0}, {"rental_uris": {"ios": "https://dc.lft.to/lastmile_qr_scan", "android": "https://dc.lft.to/lastmile_qr_scan"}, "type": "electric_scooter", "name": "d59fbaa509e6feb197208613b263e7c0", "is_reserved": 0, "lon": -77.03175183333333, "is_disabled": 0, "fusion_lat": 0.0, "lat": 38.89475083333333, "bike_id": "d59fbaa509e6feb197208613b263e7c0", "fusion_lon": 0.0}, {"rental_uris": {"ios": "https://dc.lft.to/lastmile_qr_scan", "android": "https://dc.lft.to/lastmile_qr_scan"}, "type": "electric_scooter", "name": "0c85ec3e2f07af8f561746af06d650e4", "is_reserved": 0, "lon": -77.02733066666667, "is_disabled": 0, "fusion_lat": 0.0, "lat": 38.89567483333333, "bike_id": "0c85ec3e2f07af8f561746af06d650e4", "fusion_lon": 0.0}, {"rental_uris": {"ios": "https://dc.lft.to/lastmile_qr_scan", "android": "https://dc.lft.to/lastmile_qr_scan"}, "type": "electric_scooter", "name": "5b824c5fa4dd3b8a23028c87221912fd", "is_reserved": 0, "lon": -77.044687, "is_disabled": 0, "fusion_lat": 0.0, "lat": 38.92463716666666, "bike_id": "5b824c5fa4dd3b8a23028c87221912fd", "fusion_lon": 0.0}, {"rental_uris": {"ios": "https://dc.lft.to/lastmile_qr_scan", "android": "https://dc.lft.to/lastmile_qr_scan"}, "type": "electric_bike", "name": "1edb2582cf35040b7fe8985b73c921be", "is_reserved": 0, "lon": -77.01737266666666, "is_disabled": 0, "fusion_lat": 0.0, "lat": 38.946040333333336, "bike_id": "1edb2582cf35040b7fe8985b73c921be", "fusion_lon": 0.0}, {"rental_uris": {"ios": "https://dc.lft.to/lastmile_qr_scan", "android": "https://dc.lft.to/lastmile_qr_scan"}, "type": "electric_scooter", "name": "f645af5999cd71f573917b26c8a8dd39", "is_reserved": 0, "lon": -77.03449766666667, "is_disabled": 0, "fusion_lat": 0.0, "lat": 38.90843316666667, "bike_id": "f645af5999cd71f573917b26c8a8dd39", "fusion_lon": 0.0}, {"rental_uris": {"ios": "https://dc.lft.to/lastmile_qr_scan", "android": "https://dc.lft.to/lastmile_qr_scan"}, "type": "electric_bike", "name": "f31a553f19b819086eb18217ad3c56aa", "is_reserved": 0, "lon": -76.98765133333333, "is_disabled": 0, "fusion_lat": 0.0, "lat": 38.85766983333333, "bike_id": "f31a553f19b819086eb18217ad3c56aa", "fusion_lon": 0.0}, {"rental_uris": {"ios": "https://dc.lft.to/lastmile_qr_scan", "android": "https://dc.lft.to/lastmile_qr_scan"}, "type": "electric_scooter", "name": "72705fd3f1a69e5f1641bb62d756d76d", "is_reserved": 0, "lon": -77.03727516666666, "is_disabled": 0, "fusion_lat": 0.0, "lat": 38.9264405, "bike_id": "72705fd3f1a69e5f1641bb62d756d76d", "fusion_lon": 0.0}, {"rental_uris": {"ios": "https://dc.lft.to/lastmile_qr_scan", "android": "https://dc.lft.to/lastmile_qr_scan"}, "type": "electric_scooter", "name": "abedbd7ccfbda9ecdf9d4a3221cc31bd", "is_reserved": 0, "lon": -77.02362083333334, "is_disabled": 0, "fusion_lat": 0.0, "lat": 38.902251166666666, "bike_id": "abedbd7ccfbda9ecdf9d4a3221cc31bd", "fusion_lon": 0.0}, {"rental_uris": {"ios": "https://dc.lft.to/lastmile_qr_scan", "android": "https://dc.lft.to/lastmile_qr_scan"}, "type": "electric_scooter", "name": "298c3d8881ac74219a5497802166b556", "is_reserved": 0, "lon": -77.00274333333333, "is_disabled": 0, "fusion_lat": 0.0, "lat": 38.887677333333336, "bike_id": "298c3d8881ac74219a5497802166b556", "fusion_lon": 0.0}, {"rental_uris": {"ios": "https://dc.lft.to/lastmile_qr_scan", "android": "https://dc.lft.to/lastmile_qr_scan"}, "type": "electric_scooter", "name": "cf1a206195d294684300d6c91ada8987", "is_reserved": 0, "lon": -77.03370233333334, "is_disabled": 0, "fusion_lat": 0.0, "lat": 38.93871133333333, "bike_id": "cf1a206195d294684300d6c91ada8987", "fusion_lon": 0.0}, {"rental_uris": {"ios": "https://dc.lft.to/lastmile_qr_scan", "android": "https://dc.lft.to/lastmile_qr_scan"}, "type": "electric_scooter", "name": "f6c5f342a1383e27f9c7f2e330fbdfd0", "is_reserved": 0, "lon": -77.03442616666666, "is_disabled": 0, "fusion_lat": 0.0, "lat": 38.9073475, "bike_id": "f6c5f342a1383e27f9c7f2e330fbdfd0", "fusion_lon": 0.0}, {"rental_uris": {"ios": "https://dc.lft.to/lastmile_qr_scan", "android": "https://dc.lft.to/lastmile_qr_scan"}, "type": "electric_scooter", "name": "e41cd8e44f0915f5f58d354fe6c9a456", "is_reserved": 0, "lon": -77.04490266666667, "is_disabled": 0, "fusion_lat": 0.0, "lat": 38.916146833333336, "bike_id": "e41cd8e44f0915f5f58d354fe6c9a456", "fusion_lon": 0.0}, {"rental_uris": {"ios": "https://dc.lft.to/lastmile_qr_scan", "android": "https://dc.lft.to/lastmile_qr_scan"}, "type": "electric_scooter", "name": "41730a04dce4c2db66ec893c161ef1c3", "is_reserved": 0, "lon": -76.98533983333333, "is_disabled": 0, "fusion_lat": 0.0, "lat": 38.85851916666667, "bike_id": "41730a04dce4c2db66ec893c161ef1c3", "fusion_lon": 0.0}, {"rental_uris": {"ios": "https://dc.lft.to/lastmile_qr_scan", "android": "https://dc.lft.to/lastmile_qr_scan"}, "type": "electric_bike", "name": "02fde9212f23cb2ea0ee9dd0cde74443", "is_reserved": 0, "lon": -77.00237616666666, "is_disabled": 0, "fusion_lat": 0.0, "lat": 38.892513, "bike_id": "02fde9212f23cb2ea0ee9dd0cde74443", "fusion_lon": 0.0}, {"rental_uris": {"ios": "https://dc.lft.to/lastmile_qr_scan", "android": "https://dc.lft.to/lastmile_qr_scan"}, "type": "electric_scooter", "name": "8793721aa51d4fb83fb5100c33f4df8b", "is_reserved": 0, "lon": -77.031727, "is_disabled": 0, "fusion_lat": 0.0, "lat": 38.8997635, "bike_id": "8793721aa51d4fb83fb5100c33f4df8b", "fusion_lon": 0.0}, {"rental_uris": {"ios": "https://dc.lft.to/lastmile_qr_scan", "android": "https://dc.lft.to/lastmile_qr_scan"}, "type": "electric_bike", "name": "d3f35525674083e1110253c18d89087c", "is_reserved": 0, "lon": -77.100792, "is_disabled": 0, "fusion_lat": 0.0, "lat": 38.857346166666666, "bike_id": "d3f35525674083e1110253c18d89087c", "fusion_lon": 0.0}, {"rental_uris": {"ios": "https://dc.lft.to/lastmile_qr_scan", "android": "https://dc.lft.to/lastmile_qr_scan"}, "type": "electric_scooter", "name": "65dc3feeb9d2d56d0442c57de28ceaba", "is_reserved": 0, "lon": -77.023048, "is_disabled": 0, "fusion_lat": 0.0, "lat": 38.898594, "bike_id": "65dc3feeb9d2d56d0442c57de28ceaba", "fusion_lon": 0.0}, {"rental_uris": {"ios": "https://dc.lft.to/lastmile_qr_scan", "android": "https://dc.lft.to/lastmile_qr_scan"}, "type": "electric_scooter", "name": "f208ffaac060695cffcb9e0c9790a7ae", "is_reserved": 0, "lon": -77.0315255, "is_disabled": 0, "fusion_lat": 0.0, "lat": 38.905877333333336, "bike_id": "f208ffaac060695cffcb9e0c9790a7ae", "fusion_lon": 0.0}, {"rental_uris": {"ios": "https://dc.lft.to/lastmile_qr_scan", "android": "https://dc.lft.to/lastmile_qr_scan"}, "type": "electric_scooter", "name": "0cdd5528d6a0e0a62f782335459507cd", "is_reserved": 0, "lon": -77.04512866666667, "is_disabled": 0, "fusion_lat": 0.0, "lat": 38.911103, "bike_id": "0cdd5528d6a0e0a62f782335459507cd", "fusion_lon": 0.0}, {"rental_uris": {"ios": "https://dc.lft.to/lastmile_qr_scan", "android": "https://dc.lft.to/lastmile_qr_scan"}, "type": "electric_scooter", "name": "00c8983ae3a5659be0f417a8c0217e35", "is_reserved": 0, "lon": -77.03171183333333, "is_disabled": 0, "fusion_lat": 0.0, "lat": 38.929046166666666, "bike_id": "00c8983ae3a5659be0f417a8c0217e35", "fusion_lon": 0.0}, {"rental_uris": {"ios": "https://dc.lft.to/lastmile_qr_scan", "android": "https://dc.lft.to/lastmile_qr_scan"}, "type": "electric_scooter", "name": "740b2440f7199845ad0b69d1c4f91185", "is_reserved": 0, "lon": -77.002913, "is_disabled": 0, "fusion_lat": 0.0, "lat": 38.876720666666664, "bike_id": "740b2440f7199845ad0b69d1c4f91185", "fusion_lon": 0.0}, {"rental_uris": {"ios": "https://dc.lft.to/lastmile_qr_scan", "android": "https://dc.lft.to/lastmile_qr_scan"}, "type": "electric_scooter", "name": "36e6c8ba06df6b4c6f63458f48557f8b", "is_reserved": 0, "lon": -77.00215733333333, "is_disabled": 0, "fusion_lat": 0.0, "lat": 38.89453066666667, "bike_id": "36e6c8ba06df6b4c6f63458f48557f8b", "fusion_lon": 0.0}, {"rental_uris": {"ios": "https://dc.lft.to/lastmile_qr_scan", "android": "https://dc.lft.to/lastmile_qr_scan"}, "type": "electric_scooter", "name": "4b53c3d2e8f56a07622e02c5aa3e3f17", "is_reserved": 0, "lon": -77.05300533333333, "is_disabled": 0, "fusion_lat": 0.0, "lat": 38.9026945, "bike_id": "4b53c3d2e8f56a07622e02c5aa3e3f17", "fusion_lon": 0.0}, {"rental_uris": {"ios": "https://dc.lft.to/lastmile_qr_scan", "android": "https://dc.lft.to/lastmile_qr_scan"}, "type": "electric_scooter", "name": "82411f84cc885ac5c6da36eaf0b7de1c", "is_reserved": 0, "lon": -77.00574, "is_disabled": 0, "fusion_lat": 0.0, "lat": 38.879019666666665, "bike_id": "82411f84cc885ac5c6da36eaf0b7de1c", "fusion_lon": 0.0}, {"rental_uris": {"ios": "https://dc.lft.to/lastmile_qr_scan", "android": "https://dc.lft.to/lastmile_qr_scan"}, "type": "electric_scooter", "name": "4877a47cf65ece2d7bbb3e9f7917cff5", "is_reserved": 0, "lon": -77.01438983333334, "is_disabled": 0, "fusion_lat": 0.0, "lat": 38.90249216666667, "bike_id": "4877a47cf65ece2d7bbb3e9f7917cff5", "fusion_lon": 0.0}, {"rental_uris": {"ios": "https://dc.lft.to/lastmile_qr_scan", "android": "https://dc.lft.to/lastmile_qr_scan"}, "type": "electric_scooter", "name": "12d9498580e6d4891df6858ea9daee46", "is_reserved": 0, "lon": -77.04513133333333, "is_disabled": 0, "fusion_lat": 0.0, "lat": 38.907239, "bike_id": "12d9498580e6d4891df6858ea9daee46", "fusion_lon": 0.0}, {"rental_uris": {"ios": "https://dc.lft.to/lastmile_qr_scan", "android": "https://dc.lft.to/lastmile_qr_scan"}, "type": "electric_bike", "name": "6fb24aa0e67ab994481e62447b389de0", "is_reserved": 0, "lon": -76.98275616666666, "is_disabled": 0, "fusion_lat": 0.0, "lat": 38.84677216666667, "bike_id": "6fb24aa0e67ab994481e62447b389de0", "fusion_lon": 0.0}, {"rental_uris": {"ios": "https://dc.lft.to/lastmile_qr_scan", "android": "https://dc.lft.to/lastmile_qr_scan"}, "type": "electric_scooter", "name": "bd87990887edfc187b4144fd3992488e", "is_reserved": 0, "lon": -77.0287585, "is_disabled": 0, "fusion_lat": 0.0, "lat": 38.9032205, "bike_id": "bd87990887edfc187b4144fd3992488e", "fusion_lon": 0.0}, {"rental_uris": {"ios": "https://dc.lft.to/lastmile_qr_scan", "android": "https://dc.lft.to/lastmile_qr_scan"}, "type": "electric_bike", "name": "d091201071612ebb646c61a15440e56c", "is_reserved": 0, "lon": -77.02026633333334, "is_disabled": 0, "fusion_lat": 0.0, "lat": 38.965601, "bike_id": "d091201071612ebb646c61a15440e56c", "fusion_lon": 0.0}, {"rental_uris": {"ios": "https://dc.lft.to/lastmile_qr_scan", "android": "https://dc.lft.to/lastmile_qr_scan"}, "type": "electric_bike", "name": "f6776f4a43647afe1d9a32b30f4601a3", "is_reserved": 0, "lon": -77.0319105, "is_disabled": 0, "fusion_lat": 0.0, "lat": 38.92095416666667, "bike_id": "f6776f4a43647afe1d9a32b30f4601a3", "fusion_lon": 0.0}, {"rental_uris": {"ios": "https://dc.lft.to/lastmile_qr_scan", "android": "https://dc.lft.to/lastmile_qr_scan"}, "type": "electric_scooter", "name": "711bf09decb761ef95cadd0affde5fb4", "is_reserved": 0, "lon": -77.05407816666667, "is_disabled": 0, "fusion_lat": 0.0, "lat": 38.9007675, "bike_id": "711bf09decb761ef95cadd0affde5fb4", "fusion_lon": 0.0}, {"rental_uris": {"ios": "https://dc.lft.to/lastmile_qr_scan", "android": "https://dc.lft.to/lastmile_qr_scan"}, "type": "electric_scooter", "name": "ac26fe6f15f01d2e6006725398c6d473", "is_reserved": 0, "lon": -77.0269935, "is_disabled": 0, "fusion_lat": 0.0, "lat": 38.90532533333333, "bike_id": "ac26fe6f15f01d2e6006725398c6d473", "fusion_lon": 0.0}, {"rental_uris": {"ios": "https://dc.lft.to/lastmile_qr_scan", "android": "https://dc.lft.to/lastmile_qr_scan"}, "type": "electric_scooter", "name": "5d3bbbc913ea0f5080621a817bf63ffb", "is_reserved": 0, "lon": -77.03662883333334, "is_disabled": 0, "fusion_lat": 0.0, "lat": 38.923854, "bike_id": "5d3bbbc913ea0f5080621a817bf63ffb", "fusion_lon": 0.0}, {"rental_uris": {"ios": "https://dc.lft.to/lastmile_qr_scan", "android": "https://dc.lft.to/lastmile_qr_scan"}, "type": "electric_scooter", "name": "bd63a6fbab5443ddba1e65f09511ffd0", "is_reserved": 0, "lon": -77.03054866666666, "is_disabled": 0, "fusion_lat": 0.0, "lat": 38.9074055, "bike_id": "bd63a6fbab5443ddba1e65f09511ffd0", "fusion_lon": 0.0}, {"rental_uris": {"ios": "https://dc.lft.to/lastmile_qr_scan", "android": "https://dc.lft.to/lastmile_qr_scan"}, "type": "electric_scooter", "name": "5f66c98b55519371dafef358f73a2013", "is_reserved": 0, "lon": -77.04059166666667, "is_disabled": 0, "fusion_lat": 0.0, "lat": 38.917694833333336, "bike_id": "5f66c98b55519371dafef358f73a2013", "fusion_lon": 0.0}, {"rental_uris": {"ios": "https://dc.lft.to/lastmile_qr_scan", "android": "https://dc.lft.to/lastmile_qr_scan"}, "type": "electric_bike", "name": "abefc5bdcbfd3abe091271c0193f94c8", "is_reserved": 0, "lon": -77.0015125, "is_disabled": 0, "fusion_lat": 0.0, "lat": 38.941628, "bike_id": "abefc5bdcbfd3abe091271c0193f94c8", "fusion_lon": 0.0}, {"rental_uris": {"ios": "https://dc.lft.to/lastmile_qr_scan", "android": "https://dc.lft.to/lastmile_qr_scan"}, "type": "electric_scooter", "name": "e4a2446905815b88fb7a41684856629d", "is_reserved": 0, "lon": -77.05814483333333, "is_disabled": 0, "fusion_lat": 0.0, "lat": 38.93519383333334, "bike_id": "e4a2446905815b88fb7a41684856629d", "fusion_lon": 0.0}, {"rental_uris": {"ios": "https://dc.lft.to/lastmile_qr_scan", "android": "https://dc.lft.to/lastmile_qr_scan"}, "type": "electric_scooter", "name": "9f4370b1aa0b4e38f0608ab121056585", "is_reserved": 0, "lon": -77.03401783333334, "is_disabled": 0, "fusion_lat": 0.0, "lat": 38.899764, "bike_id": "9f4370b1aa0b4e38f0608ab121056585", "fusion_lon": 0.0}, {"rental_uris": {"ios": "https://dc.lft.to/lastmile_qr_scan", "android": "https://dc.lft.to/lastmile_qr_scan"}, "type": "electric_scooter", "name": "46c15d51f3608baba088f6e1f63056a5", "is_reserved": 0, "lon": -77.03291133333333, "is_disabled": 0, "fusion_lat": 0.0, "lat": 38.91717333333333, "bike_id": "46c15d51f3608baba088f6e1f63056a5", "fusion_lon": 0.0}, {"rental_uris": {"ios": "https://dc.lft.to/lastmile_qr_scan", "android": "https://dc.lft.to/lastmile_qr_scan"}, "type": "electric_scooter", "name": "028fbd6d692ce94b1501bfd57ae504dd", "is_reserved": 0, "lon": -77.04816583333333, "is_disabled": 0, "fusion_lat": 0.0, "lat": 38.9204375, "bike_id": "028fbd6d692ce94b1501bfd57ae504dd", "fusion_lon": 0.0}, {"rental_uris": {"ios": "https://dc.lft.to/lastmile_qr_scan", "android": "https://dc.lft.to/lastmile_qr_scan"}, "type": "electric_bike", "name": "f08e1a6901e6a28a919d6a60d482cb4f", "is_reserved": 0, "lon": -77.03230333333333, "is_disabled": 0, "fusion_lat": 0.0, "lat": 38.961616166666666, "bike_id": "f08e1a6901e6a28a919d6a60d482cb4f", "fusion_lon": 0.0}, {"rental_uris": {"ios": "https://dc.lft.to/lastmile_qr_scan", "android": "https://dc.lft.to/lastmile_qr_scan"}, "type": "electric_bike", "name": "d98ae91d981aea1fea94e0d7874b3da9", "is_reserved": 0, "lon": -77.00759466666666, "is_disabled": 0, "fusion_lat": 0.0, "lat": 38.98131083333333, "bike_id": "d98ae91d981aea1fea94e0d7874b3da9", "fusion_lon": 0.0}, {"rental_uris": {"ios": "https://dc.lft.to/lastmile_qr_scan", "android": "https://dc.lft.to/lastmile_qr_scan"}, "type": "electric_scooter", "name": "1d8e9b3cc14196a81e1477c64a6d7c8c", "is_reserved": 0, "lon": -77.03165216666666, "is_disabled": 0, "fusion_lat": 0.0, "lat": 38.9593605, "bike_id": "1d8e9b3cc14196a81e1477c64a6d7c8c", "fusion_lon": 0.0}, {"rental_uris": {"ios": "https://dc.lft.to/lastmile_qr_scan", "android": "https://dc.lft.to/lastmile_qr_scan"}, "type": "electric_scooter", "name": "839835e2dc417191f4b7e35f53185ce3", "is_reserved": 0, "lon": -77.0479495, "is_disabled": 0, "fusion_lat": 0.0, "lat": 38.899509333333334, "bike_id": "839835e2dc417191f4b7e35f53185ce3", "fusion_lon": 0.0}, {"rental_uris": {"ios": "https://dc.lft.to/lastmile_qr_scan", "android": "https://dc.lft.to/lastmile_qr_scan"}, "type": "electric_scooter", "name": "956f8dadc03b984f1426a8f6d95b1cc9", "is_reserved": 0, "lon": -76.99070766666667, "is_disabled": 0, "fusion_lat": 0.0, "lat": 38.9041845, "bike_id": "956f8dadc03b984f1426a8f6d95b1cc9", "fusion_lon": 0.0}, {"rental_uris": {"ios": "https://dc.lft.to/lastmile_qr_scan", "android": "https://dc.lft.to/lastmile_qr_scan"}, "type": "electric_scooter", "name": "a14da623efb7167cf59cc74fe412b115", "is_reserved": 0, "lon": -77.0123095, "is_disabled": 0, "fusion_lat": 0.0, "lat": 38.915771166666666, "bike_id": "a14da623efb7167cf59cc74fe412b115", "fusion_lon": 0.0}, {"rental_uris": {"ios": "https://dc.lft.to/lastmile_qr_scan", "android": "https://dc.lft.to/lastmile_qr_scan"}, "type": "electric_scooter", "name": "6de16fecea40d9197f792cc4ace7cb1f", "is_reserved": 0, "lon": -77.04383033333333, "is_disabled": 0, "fusion_lat": 0.0, "lat": 38.9342275, "bike_id": "6de16fecea40d9197f792cc4ace7cb1f", "fusion_lon": 0.0}, {"rental_uris": {"ios": "https://dc.lft.to/lastmile_qr_scan", "android": "https://dc.lft.to/lastmile_qr_scan"}, "type": "electric_scooter", "name": "65240701377d336ce75e385168ae7ead", "is_reserved": 0, "lon": -76.98326616666667, "is_disabled": 0, "fusion_lat": 0.0, "lat": 38.901006833333334, "bike_id": "65240701377d336ce75e385168ae7ead", "fusion_lon": 0.0}, {"rental_uris": {"ios": "https://dc.lft.to/lastmile_qr_scan", "android": "https://dc.lft.to/lastmile_qr_scan"}, "type": "electric_bike", "name": "960e501413b94fbf8f68c491616f868c", "is_reserved": 0, "lon": -76.98878516666667, "is_disabled": 0, "fusion_lat": 0.0, "lat": 38.9211485, "bike_id": "960e501413b94fbf8f68c491616f868c", "fusion_lon": 0.0}, {"rental_uris": {"ios": "https://dc.lft.to/lastmile_qr_scan", "android": "https://dc.lft.to/lastmile_qr_scan"}, "type": "electric_scooter", "name": "fc3e2de75de742e875b2c6c51422d112", "is_reserved": 0, "lon": -77.02285316666666, "is_disabled": 0, "fusion_lat": 0.0, "lat": 38.90960183333333, "bike_id": "fc3e2de75de742e875b2c6c51422d112", "fusion_lon": 0.0}, {"rental_uris": {"ios": "https://dc.lft.to/lastmile_qr_scan", "android": "https://dc.lft.to/lastmile_qr_scan"}, "type": "electric_scooter", "name": "a8a6fb9e3c6c4d8ed0f05ced2317614e", "is_reserved": 0, "lon": -77.01886466666667, "is_disabled": 0, "fusion_lat": 0.0, "lat": 38.897469666666666, "bike_id": "a8a6fb9e3c6c4d8ed0f05ced2317614e", "fusion_lon": 0.0}, {"rental_uris": {"ios": "https://dc.lft.to/lastmile_qr_scan", "android": "https://dc.lft.to/lastmile_qr_scan"}, "type": "electric_scooter", "name": "47d0781eb496c90c0f0902aa5b3cf9cf", "is_reserved": 0, "lon": -77.01592516666666, "is_disabled": 0, "fusion_lat": 0.0, "lat": 38.90022866666666, "bike_id": "47d0781eb496c90c0f0902aa5b3cf9cf", "fusion_lon": 0.0}, {"rental_uris": {"ios": "https://dc.lft.to/lastmile_qr_scan", "android": "https://dc.lft.to/lastmile_qr_scan"}, "type": "electric_scooter", "name": "39b056c89b8c200f34e6c552b85697da", "is_reserved": 0, "lon": -77.04911616666666, "is_disabled": 0, "fusion_lat": 0.0, "lat": 38.910407666666664, "bike_id": "39b056c89b8c200f34e6c552b85697da", "fusion_lon": 0.0}, {"rental_uris": {"ios": "https://dc.lft.to/lastmile_qr_scan", "android": "https://dc.lft.to/lastmile_qr_scan"}, "type": "electric_scooter", "name": "fc5e9d865f45a39e30472fdb5e4620be", "is_reserved": 0, "lon": -76.937336, "is_disabled": 0, "fusion_lat": 0.0, "lat": 38.89022766666667, "bike_id": "fc5e9d865f45a39e30472fdb5e4620be", "fusion_lon": 0.0}, {"rental_uris": {"ios": "https://dc.lft.to/lastmile_qr_scan", "android": "https://dc.lft.to/lastmile_qr_scan"}, "type": "electric_scooter", "name": "b758ebd27cf9e0972af76d64d9aa2a52", "is_reserved": 0, "lon": -76.94661833333333, "is_disabled": 0, "fusion_lat": 0.0, "lat": 38.898671, "bike_id": "b758ebd27cf9e0972af76d64d9aa2a52", "fusion_lon": 0.0}, {"rental_uris": {"ios": "https://dc.lft.to/lastmile_qr_scan", "android": "https://dc.lft.to/lastmile_qr_scan"}, "type": "electric_scooter", "name": "2c0c48a4b70e3f232b1a31c3992e25ff", "is_reserved": 0, "lon": -77.00953333333334, "is_disabled": 0, "fusion_lat": 0.0, "lat": 38.921353833333335, "bike_id": "2c0c48a4b70e3f232b1a31c3992e25ff", "fusion_lon": 0.0}, {"rental_uris": {"ios": "https://dc.lft.to/lastmile_qr_scan", "android": "https://dc.lft.to/lastmile_qr_scan"}, "type": "electric_scooter", "name": "67901cfc33daf48925c6b59417ac5afd", "is_reserved": 0, "lon": -77.02883366666667, "is_disabled": 0, "fusion_lat": 0.0, "lat": 38.9170945, "bike_id": "67901cfc33daf48925c6b59417ac5afd", "fusion_lon": 0.0}, {"rental_uris": {"ios": "https://dc.lft.to/lastmile_qr_scan", "android": "https://dc.lft.to/lastmile_qr_scan"}, "type": "electric_scooter", "name": "c64dace80243ca029dc354e6447b8198", "is_reserved": 0, "lon": -76.99837266666667, "is_disabled": 0, "fusion_lat": 0.0, "lat": 38.90726, "bike_id": "c64dace80243ca029dc354e6447b8198", "fusion_lon": 0.0}, {"rental_uris": {"ios": "https://dc.lft.to/lastmile_qr_scan", "android": "https://dc.lft.to/lastmile_qr_scan"}, "type": "electric_scooter", "name": "7d293808cb184be8b57dffcf0c1dd4d0", "is_reserved": 0, "lon": -77.04044766666667, "is_disabled": 0, "fusion_lat": 0.0, "lat": 38.9178845, "bike_id": "7d293808cb184be8b57dffcf0c1dd4d0", "fusion_lon": 0.0}, {"rental_uris": {"ios": "https://dc.lft.to/lastmile_qr_scan", "android": "https://dc.lft.to/lastmile_qr_scan"}, "type": "electric_scooter", "name": "48290d80c6bbb8a64414be1272639dc8", "is_reserved": 0, "lon": -77.04045, "is_disabled": 0, "fusion_lat": 0.0, "lat": 38.9178805, "bike_id": "48290d80c6bbb8a64414be1272639dc8", "fusion_lon": 0.0}, {"rental_uris": {"ios": "https://dc.lft.to/lastmile_qr_scan", "android": "https://dc.lft.to/lastmile_qr_scan"}, "type": "electric_scooter", "name": "3f3473770c33b9529a32a8577d443fa7", "is_reserved": 0, "lon": -77.04119966666667, "is_disabled": 0, "fusion_lat": 0.0, "lat": 38.925309, "bike_id": "3f3473770c33b9529a32a8577d443fa7", "fusion_lon": 0.0}, {"rental_uris": {"ios": "https://dc.lft.to/lastmile_qr_scan", "android": "https://dc.lft.to/lastmile_qr_scan"}, "type": "electric_scooter", "name": "1c5044bccbd7fa7d7e13f93ffd1687cb", "is_reserved": 0, "lon": -77.040772, "is_disabled": 0, "fusion_lat": 0.0, "lat": 38.920263166666665, "bike_id": "1c5044bccbd7fa7d7e13f93ffd1687cb", "fusion_lon": 0.0}, {"rental_uris": {"ios": "https://dc.lft.to/lastmile_qr_scan", "android": "https://dc.lft.to/lastmile_qr_scan"}, "type": "electric_scooter", "name": "2f0a3828c98cee8bc02e8fae3fb5d65c", "is_reserved": 0, "lon": -77.05230683333333, "is_disabled": 0, "fusion_lat": 0.0, "lat": 38.924650666666665, "bike_id": "2f0a3828c98cee8bc02e8fae3fb5d65c", "fusion_lon": 0.0}, {"rental_uris": {"ios": "https://dc.lft.to/lastmile_qr_scan", "android": "https://dc.lft.to/lastmile_qr_scan"}, "type": "electric_scooter", "name": "48728ddcc4bc27c6ba26f1bcbb40b10d", "is_reserved": 0, "lon": -77.03221616666667, "is_disabled": 0, "fusion_lat": 0.0, "lat": 38.920065, "bike_id": "48728ddcc4bc27c6ba26f1bcbb40b10d", "fusion_lon": 0.0}, {"rental_uris": {"ios": "https://dc.lft.to/lastmile_qr_scan", "android": "https://dc.lft.to/lastmile_qr_scan"}, "type": "electric_bike", "name": "6d7d54a23810445dd3a8ce7bf25f795e", "is_reserved": 0, "lon": -76.985476, "is_disabled": 0, "fusion_lat": 0.0, "lat": 38.8835825, "bike_id": "6d7d54a23810445dd3a8ce7bf25f795e", "fusion_lon": 0.0}, {"rental_uris": {"ios": "https://dc.lft.to/lastmile_qr_scan", "android": "https://dc.lft.to/lastmile_qr_scan"}, "type": "electric_bike", "name": "538552661f0df8803911b2048609d5c4", "is_reserved": 0, "lon": -76.9387115, "is_disabled": 0, "fusion_lat": 0.0, "lat": 38.97768633333333, "bike_id": "538552661f0df8803911b2048609d5c4", "fusion_lon": 0.0}, {"rental_uris": {"ios": "https://dc.lft.to/lastmile_qr_scan", "android": "https://dc.lft.to/lastmile_qr_scan"}, "type": "electric_scooter", "name": "abee0af6660ef2f193cd781517bcd57f", "is_reserved": 0, "lon": -77.03468116666667, "is_disabled": 0, "fusion_lat": 0.0, "lat": 38.90966683333333, "bike_id": "abee0af6660ef2f193cd781517bcd57f", "fusion_lon": 0.0}, {"rental_uris": {"ios": "https://dc.lft.to/lastmile_qr_scan", "android": "https://dc.lft.to/lastmile_qr_scan"}, "type": "electric_scooter", "name": "ffaeba2ec15b3253dbf03e247b2e8dad", "is_reserved": 0, "lon": -77.000687, "is_disabled": 0, "fusion_lat": 0.0, "lat": 38.894786, "bike_id": "ffaeba2ec15b3253dbf03e247b2e8dad", "fusion_lon": 0.0}, {"rental_uris": {"ios": "https://dc.lft.to/lastmile_qr_scan", "android": "https://dc.lft.to/lastmile_qr_scan"}, "type": "electric_scooter", "name": "8bdd2f937d95f4ee4f2193e4661dc8bc", "is_reserved": 0, "lon": -77.02968383333334, "is_disabled": 0, "fusion_lat": 0.0, "lat": 38.93556016666667, "bike_id": "8bdd2f937d95f4ee4f2193e4661dc8bc", "fusion_lon": 0.0}, {"rental_uris": {"ios": "https://dc.lft.to/lastmile_qr_scan", "android": "https://dc.lft.to/lastmile_qr_scan"}, "type": "electric_scooter", "name": "d18a304e2a6f2b1f6a04c986366690bb", "is_reserved": 0, "lon": -77.01748883333333, "is_disabled": 0, "fusion_lat": 0.0, "lat": 38.876826333333334, "bike_id": "d18a304e2a6f2b1f6a04c986366690bb", "fusion_lon": 0.0}, {"rental_uris": {"ios": "https://dc.lft.to/lastmile_qr_scan", "android": "https://dc.lft.to/lastmile_qr_scan"}, "type": "electric_scooter", "name": "7a2a7d80fc708e0b294c739e071adc09", "is_reserved": 0, "lon": -77.044155, "is_disabled": 0, "fusion_lat": 0.0, "lat": 38.921219666666666, "bike_id": "7a2a7d80fc708e0b294c739e071adc09", "fusion_lon": 0.0}, {"rental_uris": {"ios": "https://dc.lft.to/lastmile_qr_scan", "android": "https://dc.lft.to/lastmile_qr_scan"}, "type": "electric_bike", "name": "eb9d2f9f9e20253c4f597bb8ba654e4c", "is_reserved": 0, "lon": -77.05084233333334, "is_disabled": 0, "fusion_lat": 0.0, "lat": 38.81330533333333, "bike_id": "eb9d2f9f9e20253c4f597bb8ba654e4c", "fusion_lon": 0.0}, {"rental_uris": {"ios": "https://dc.lft.to/lastmile_qr_scan", "android": "https://dc.lft.to/lastmile_qr_scan"}, "type": "electric_scooter", "name": "8dd15c74fd0fc25a7f76e9978bcccc71", "is_reserved": 0, "lon": -77.0437645, "is_disabled": 0, "fusion_lat": 0.0, "lat": 38.920666, "bike_id": "8dd15c74fd0fc25a7f76e9978bcccc71", "fusion_lon": 0.0}, {"rental_uris": {"ios": "https://dc.lft.to/lastmile_qr_scan", "android": "https://dc.lft.to/lastmile_qr_scan"}, "type": "electric_scooter", "name": "e100e420d0e596f11afca8eb088d574f", "is_reserved": 0, "lon": -77.04398266666666, "is_disabled": 0, "fusion_lat": 0.0, "lat": 38.90891633333333, "bike_id": "e100e420d0e596f11afca8eb088d574f", "fusion_lon": 0.0}, {"rental_uris": {"ios": "https://dc.lft.to/lastmile_qr_scan", "android": "https://dc.lft.to/lastmile_qr_scan"}, "type": "electric_scooter", "name": "592aa614238cd28459cd3e641cda6177", "is_reserved": 0, "lon": -77.03052333333333, "is_disabled": 0, "fusion_lat": 0.0, "lat": 38.92374366666667, "bike_id": "592aa614238cd28459cd3e641cda6177", "fusion_lon": 0.0}, {"rental_uris": {"ios": "https://dc.lft.to/lastmile_qr_scan", "android": "https://dc.lft.to/lastmile_qr_scan"}, "type": "electric_scooter", "name": "d5b1e87dab7040659bbb66e22a43f628", "is_reserved": 0, "lon": -77.0048505, "is_disabled": 0, "fusion_lat": 0.0, "lat": 38.874577333333335, "bike_id": "d5b1e87dab7040659bbb66e22a43f628", "fusion_lon": 0.0}, {"rental_uris": {"ios": "https://dc.lft.to/lastmile_qr_scan", "android": "https://dc.lft.to/lastmile_qr_scan"}, "type": "electric_scooter", "name": "5f4502ebb94b607877ad3331a42af1b2", "is_reserved": 0, "lon": -76.99249116666667, "is_disabled": 0, "fusion_lat": 0.0, "lat": 38.940697166666666, "bike_id": "5f4502ebb94b607877ad3331a42af1b2", "fusion_lon": 0.0}, {"rental_uris": {"ios": "https://dc.lft.to/lastmile_qr_scan", "android": "https://dc.lft.to/lastmile_qr_scan"}, "type": "electric_scooter", "name": "d8ebf3502edf4fbc40d484745a1f6cb2", "is_reserved": 0, "lon": -77.02556166666666, "is_disabled": 0, "fusion_lat": 0.0, "lat": 38.953922666666664, "bike_id": "d8ebf3502edf4fbc40d484745a1f6cb2", "fusion_lon": 0.0}, {"rental_uris": {"ios": "https://dc.lft.to/lastmile_qr_scan", "android": "https://dc.lft.to/lastmile_qr_scan"}, "type": "electric_scooter", "name": "22e2fe0be5f33566838ab914399d1707", "is_reserved": 0, "lon": -77.04889083333333, "is_disabled": 0, "fusion_lat": 0.0, "lat": 38.90717516666667, "bike_id": "22e2fe0be5f33566838ab914399d1707", "fusion_lon": 0.0}, {"rental_uris": {"ios": "https://dc.lft.to/lastmile_qr_scan", "android": "https://dc.lft.to/lastmile_qr_scan"}, "type": "electric_bike", "name": "bc9dc369deaed760bf175c926fc68996", "is_reserved": 0, "lon": -77.07748333333333, "is_disabled": 0, "fusion_lat": 0.0, "lat": 38.84191583333333, "bike_id": "bc9dc369deaed760bf175c926fc68996", "fusion_lon": 0.0}, {"rental_uris": {"ios": "https://dc.lft.to/lastmile_qr_scan", "android": "https://dc.lft.to/lastmile_qr_scan"}, "type": "electric_scooter", "name": "80b7c101571906185d7dbbade9f48b6c", "is_reserved": 0, "lon": -76.965286, "is_disabled": 0, "fusion_lat": 0.0, "lat": 38.876319333333335, "bike_id": "80b7c101571906185d7dbbade9f48b6c", "fusion_lon": 0.0}, {"rental_uris": {"ios": "https://dc.lft.to/lastmile_qr_scan", "android": "https://dc.lft.to/lastmile_qr_scan"}, "type": "electric_scooter", "name": "6fd43aeb5ee08d6764f9256e191f3bfd", "is_reserved": 0, "lon": -77.04045566666667, "is_disabled": 0, "fusion_lat": 0.0, "lat": 38.9060105, "bike_id": "6fd43aeb5ee08d6764f9256e191f3bfd", "fusion_lon": 0.0}, {"rental_uris": {"ios": "https://dc.lft.to/lastmile_qr_scan", "android": "https://dc.lft.to/lastmile_qr_scan"}, "type": "electric_scooter", "name": "0d24a86ab0b3590ed0d658362afc0506", "is_reserved": 0, "lon": -77.03461933333334, "is_disabled": 0, "fusion_lat": 0.0, "lat": 38.908078333333336, "bike_id": "0d24a86ab0b3590ed0d658362afc0506", "fusion_lon": 0.0}, {"rental_uris": {"ios": "https://dc.lft.to/lastmile_qr_scan", "android": "https://dc.lft.to/lastmile_qr_scan"}, "type": "electric_bike", "name": "097e79d0e75ce8853fb5fe0f181cf931", "is_reserved": 0, "lon": -76.973133, "is_disabled": 0, "fusion_lat": 0.0, "lat": 38.91759733333333, "bike_id": "097e79d0e75ce8853fb5fe0f181cf931", "fusion_lon": 0.0}, {"rental_uris": {"ios": "https://dc.lft.to/lastmile_qr_scan", "android": "https://dc.lft.to/lastmile_qr_scan"}, "type": "electric_scooter", "name": "a5924b48859fe10e3efa6414485705c9", "is_reserved": 0, "lon": -76.94896816666666, "is_disabled": 0, "fusion_lat": 0.0, "lat": 38.8952275, "bike_id": "a5924b48859fe10e3efa6414485705c9", "fusion_lon": 0.0}, {"rental_uris": {"ios": "https://dc.lft.to/lastmile_qr_scan", "android": "https://dc.lft.to/lastmile_qr_scan"}, "type": "electric_scooter", "name": "5799eb6f0fa6b24c8d4f77ba73f2f7c5", "is_reserved": 0, "lon": -77.04440633333333, "is_disabled": 0, "fusion_lat": 0.0, "lat": 38.90141233333333, "bike_id": "5799eb6f0fa6b24c8d4f77ba73f2f7c5", "fusion_lon": 0.0}, {"rental_uris": {"ios": "https://dc.lft.to/lastmile_qr_scan", "android": "https://dc.lft.to/lastmile_qr_scan"}, "type": "electric_bike", "name": "44954fcd44473df1cef098fe8b4734a7", "is_reserved": 0, "lon": -76.96085766666667, "is_disabled": 0, "fusion_lat": 0.0, "lat": 38.91857483333333, "bike_id": "44954fcd44473df1cef098fe8b4734a7", "fusion_lon": 0.0}, {"rental_uris": {"ios": "https://dc.lft.to/lastmile_qr_scan", "android": "https://dc.lft.to/lastmile_qr_scan"}, "type": "electric_scooter", "name": "27523233d9dd5a6a539c7379bdd05027", "is_reserved": 0, "lon": -77.0052295, "is_disabled": 0, "fusion_lat": 0.0, "lat": 38.879219166666665, "bike_id": "27523233d9dd5a6a539c7379bdd05027", "fusion_lon": 0.0}, {"rental_uris": {"ios": "https://dc.lft.to/lastmile_qr_scan", "android": "https://dc.lft.to/lastmile_qr_scan"}, "type": "electric_scooter", "name": "11fa65be176fea64436ecbcec60be193", "is_reserved": 0, "lon": -76.99956533333334, "is_disabled": 0, "fusion_lat": 0.0, "lat": 38.9085275, "bike_id": "11fa65be176fea64436ecbcec60be193", "fusion_lon": 0.0}, {"rental_uris": {"ios": "https://dc.lft.to/lastmile_qr_scan", "android": "https://dc.lft.to/lastmile_qr_scan"}, "type": "electric_scooter", "name": "69c2c0e3fae35ebb07ed8ca3fcb18efa", "is_reserved": 0, "lon": -77.01702666666667, "is_disabled": 0, "fusion_lat": 0.0, "lat": 38.90473733333333, "bike_id": "69c2c0e3fae35ebb07ed8ca3fcb18efa", "fusion_lon": 0.0}, {"rental_uris": {"ios": "https://dc.lft.to/lastmile_qr_scan", "android": "https://dc.lft.to/lastmile_qr_scan"}, "type": "electric_scooter", "name": "495680959529530b86244d380bf7dfeb", "is_reserved": 0, "lon": -77.024488, "is_disabled": 0, "fusion_lat": 0.0, "lat": 38.9205245, "bike_id": "495680959529530b86244d380bf7dfeb", "fusion_lon": 0.0}, {"rental_uris": {"ios": "https://dc.lft.to/lastmile_qr_scan", "android": "https://dc.lft.to/lastmile_qr_scan"}, "type": "electric_scooter", "name": "68f0589dafd052ebedd554bbbcd54c3c", "is_reserved": 0, "lon": -77.053193, "is_disabled": 0, "fusion_lat": 0.0, "lat": 38.92353416666667, "bike_id": "68f0589dafd052ebedd554bbbcd54c3c", "fusion_lon": 0.0}, {"rental_uris": {"ios": "https://dc.lft.to/lastmile_qr_scan", "android": "https://dc.lft.to/lastmile_qr_scan"}, "type": "electric_scooter", "name": "70fdf02b78c80ca192e599e73e9b3fa7", "is_reserved": 0, "lon": -77.010933, "is_disabled": 0, "fusion_lat": 0.0, "lat": 38.906789, "bike_id": "70fdf02b78c80ca192e599e73e9b3fa7", "fusion_lon": 0.0}, {"rental_uris": {"ios": "https://dc.lft.to/lastmile_qr_scan", "android": "https://dc.lft.to/lastmile_qr_scan"}, "type": "electric_scooter", "name": "66e31334f3f4dc68d1f57025015f3d4a", "is_reserved": 0, "lon": -77.025395, "is_disabled": 0, "fusion_lat": 0.0, "lat": 38.907157833333336, "bike_id": "66e31334f3f4dc68d1f57025015f3d4a", "fusion_lon": 0.0}, {"rental_uris": {"ios": "https://dc.lft.to/lastmile_qr_scan", "android": "https://dc.lft.to/lastmile_qr_scan"}, "type": "electric_bike", "name": "1e89562d430589ca3ee873ce376b8e89", "is_reserved": 0, "lon": -76.97314733333333, "is_disabled": 0, "fusion_lat": 0.0, "lat": 38.857840333333336, "bike_id": "1e89562d430589ca3ee873ce376b8e89", "fusion_lon": 0.0}, {"rental_uris": {"ios": "https://dc.lft.to/lastmile_qr_scan", "android": "https://dc.lft.to/lastmile_qr_scan"}, "type": "electric_scooter", "name": "3acf9488d833c0400c69b663ddcd7b0e", "is_reserved": 0, "lon": -77.0596345, "is_disabled": 0, "fusion_lat": 0.0, "lat": 38.90246883333333, "bike_id": "3acf9488d833c0400c69b663ddcd7b0e", "fusion_lon": 0.0}, {"rental_uris": {"ios": "https://dc.lft.to/lastmile_qr_scan", "android": "https://dc.lft.to/lastmile_qr_scan"}, "type": "electric_scooter", "name": "e8fa0f4df15eb27669e6630080143600", "is_reserved": 0, "lon": -77.0446815, "is_disabled": 0, "fusion_lat": 0.0, "lat": 38.91530133333333, "bike_id": "e8fa0f4df15eb27669e6630080143600", "fusion_lon": 0.0}, {"rental_uris": {"ios": "https://dc.lft.to/lastmile_qr_scan", "android": "https://dc.lft.to/lastmile_qr_scan"}, "type": "electric_scooter", "name": "e70f4ee78151c50b4953f7ed5be504f6", "is_reserved": 0, "lon": -77.02323066666666, "is_disabled": 0, "fusion_lat": 0.0, "lat": 38.93806033333333, "bike_id": "e70f4ee78151c50b4953f7ed5be504f6", "fusion_lon": 0.0}, {"rental_uris": {"ios": "https://dc.lft.to/lastmile_qr_scan", "android": "https://dc.lft.to/lastmile_qr_scan"}, "type": "electric_scooter", "name": "ef91e4eab8159968b148f1b163ab219c", "is_reserved": 0, "lon": -77.02197666666666, "is_disabled": 0, "fusion_lat": 0.0, "lat": 38.898800333333334, "bike_id": "ef91e4eab8159968b148f1b163ab219c", "fusion_lon": 0.0}, {"rental_uris": {"ios": "https://dc.lft.to/lastmile_qr_scan", "android": "https://dc.lft.to/lastmile_qr_scan"}, "type": "electric_scooter", "name": "1800c6818029f3346a301796431a2e6d", "is_reserved": 0, "lon": -77.02385166666667, "is_disabled": 0, "fusion_lat": 0.0, "lat": 38.90845916666667, "bike_id": "1800c6818029f3346a301796431a2e6d", "fusion_lon": 0.0}, {"rental_uris": {"ios": "https://dc.lft.to/lastmile_qr_scan", "android": "https://dc.lft.to/lastmile_qr_scan"}, "type": "electric_scooter", "name": "46f77ac619b32349e84bb7ed1e56d7bd", "is_reserved": 0, "lon": -77.00466916666667, "is_disabled": 0, "fusion_lat": 0.0, "lat": 38.885124166666664, "bike_id": "46f77ac619b32349e84bb7ed1e56d7bd", "fusion_lon": 0.0}, {"rental_uris": {"ios": "https://dc.lft.to/lastmile_qr_scan", "android": "https://dc.lft.to/lastmile_qr_scan"}, "type": "electric_scooter", "name": "321bd16353238c9671e4205fbbd5530d", "is_reserved": 0, "lon": -77.03852333333333, "is_disabled": 0, "fusion_lat": 0.0, "lat": 38.912866333333334, "bike_id": "321bd16353238c9671e4205fbbd5530d", "fusion_lon": 0.0}, {"rental_uris": {"ios": "https://dc.lft.to/lastmile_qr_scan", "android": "https://dc.lft.to/lastmile_qr_scan"}, "type": "electric_scooter", "name": "202c6d2ba624f729d2445c55820e2af2", "is_reserved": 0, "lon": -77.0329845, "is_disabled": 0, "fusion_lat": 0.0, "lat": 38.9043305, "bike_id": "202c6d2ba624f729d2445c55820e2af2", "fusion_lon": 0.0}, {"rental_uris": {"ios": "https://dc.lft.to/lastmile_qr_scan", "android": "https://dc.lft.to/lastmile_qr_scan"}, "type": "electric_scooter", "name": "b77b2b9e82a26ae2c04fa21c40162a80", "is_reserved": 0, "lon": -76.93392016666667, "is_disabled": 0, "fusion_lat": 0.0, "lat": 38.899038833333336, "bike_id": "b77b2b9e82a26ae2c04fa21c40162a80", "fusion_lon": 0.0}, {"rental_uris": {"ios": "https://dc.lft.to/lastmile_qr_scan", "android": "https://dc.lft.to/lastmile_qr_scan"}, "type": "electric_scooter", "name": "a6636bfeca894cc27d608aa00a438b61", "is_reserved": 0, "lon": -76.9950735, "is_disabled": 0, "fusion_lat": 0.0, "lat": 38.909788166666665, "bike_id": "a6636bfeca894cc27d608aa00a438b61", "fusion_lon": 0.0}, {"rental_uris": {"ios": "https://dc.lft.to/lastmile_qr_scan", "android": "https://dc.lft.to/lastmile_qr_scan"}, "type": "electric_scooter", "name": "52704986b55808284847a8ba8fc87f9a", "is_reserved": 0, "lon": -77.03169016666666, "is_disabled": 0, "fusion_lat": 0.0, "lat": 38.913348166666665, "bike_id": "52704986b55808284847a8ba8fc87f9a", "fusion_lon": 0.0}, {"rental_uris": {"ios": "https://dc.lft.to/lastmile_qr_scan", "android": "https://dc.lft.to/lastmile_qr_scan"}, "type": "electric_scooter", "name": "7e74db662525c1f28069477ee05962a4", "is_reserved": 0, "lon": -77.03934466666666, "is_disabled": 0, "fusion_lat": 0.0, "lat": 38.89863533333333, "bike_id": "7e74db662525c1f28069477ee05962a4", "fusion_lon": 0.0}, {"rental_uris": {"ios": "https://dc.lft.to/lastmile_qr_scan", "android": "https://dc.lft.to/lastmile_qr_scan"}, "type": "electric_scooter", "name": "061baab0f6e84d800242bfdb614f81d1", "is_reserved": 0, "lon": -77.02299533333333, "is_disabled": 0, "fusion_lat": 0.0, "lat": 38.949288333333335, "bike_id": "061baab0f6e84d800242bfdb614f81d1", "fusion_lon": 0.0}, {"rental_uris": {"ios": "https://dc.lft.to/lastmile_qr_scan", "android": "https://dc.lft.to/lastmile_qr_scan"}, "type": "electric_scooter", "name": "b02e259a28b47b07d2a4ec1502647e2c", "is_reserved": 0, "lon": -76.9406195, "is_disabled": 0, "fusion_lat": 0.0, "lat": 38.88584266666667, "bike_id": "b02e259a28b47b07d2a4ec1502647e2c", "fusion_lon": 0.0}, {"rental_uris": {"ios": "https://dc.lft.to/lastmile_qr_scan", "android": "https://dc.lft.to/lastmile_qr_scan"}, "type": "electric_scooter", "name": "48c9d6bff7538d16e1a638e9b40dd669", "is_reserved": 0, "lon": -77.0725035, "is_disabled": 0, "fusion_lat": 0.0, "lat": 38.934368166666665, "bike_id": "48c9d6bff7538d16e1a638e9b40dd669", "fusion_lon": 0.0}, {"rental_uris": {"ios": "https://dc.lft.to/lastmile_qr_scan", "android": "https://dc.lft.to/lastmile_qr_scan"}, "type": "electric_scooter", "name": "daed57f88837011d4f84b6ec320764f0", "is_reserved": 0, "lon": -77.02078866666666, "is_disabled": 0, "fusion_lat": 0.0, "lat": 38.91251233333333, "bike_id": "daed57f88837011d4f84b6ec320764f0", "fusion_lon": 0.0}, {"rental_uris": {"ios": "https://dc.lft.to/lastmile_qr_scan", "android": "https://dc.lft.to/lastmile_qr_scan"}, "type": "electric_scooter", "name": "468713cf6545236821adb8f00895a1b3", "is_reserved": 0, "lon": -77.03541916666667, "is_disabled": 0, "fusion_lat": 0.0, "lat": 38.923394, "bike_id": "468713cf6545236821adb8f00895a1b3", "fusion_lon": 0.0}, {"rental_uris": {"ios": "https://dc.lft.to/lastmile_qr_scan", "android": "https://dc.lft.to/lastmile_qr_scan"}, "type": "electric_bike", "name": "fb635b4473041a18b492448d67c5c4d0", "is_reserved": 0, "lon": -76.9813565, "is_disabled": 0, "fusion_lat": 0.0, "lat": 38.934903, "bike_id": "fb635b4473041a18b492448d67c5c4d0", "fusion_lon": 0.0}, {"rental_uris": {"ios": "https://dc.lft.to/lastmile_qr_scan", "android": "https://dc.lft.to/lastmile_qr_scan"}, "type": "electric_scooter", "name": "168c749e38e33cea9f6b66f5c7bf2619", "is_reserved": 0, "lon": -77.00740583333334, "is_disabled": 0, "fusion_lat": 0.0, "lat": 38.878343666666666, "bike_id": "168c749e38e33cea9f6b66f5c7bf2619", "fusion_lon": 0.0}, {"rental_uris": {"ios": "https://dc.lft.to/lastmile_qr_scan", "android": "https://dc.lft.to/lastmile_qr_scan"}, "type": "electric_scooter", "name": "9e33b2e6cd7ce7286f980e9b2c765854", "is_reserved": 0, "lon": -77.05868933333333, "is_disabled": 0, "fusion_lat": 0.0, "lat": 38.90430683333334, "bike_id": "9e33b2e6cd7ce7286f980e9b2c765854", "fusion_lon": 0.0}, {"rental_uris": {"ios": "https://dc.lft.to/lastmile_qr_scan", "android": "https://dc.lft.to/lastmile_qr_scan"}, "type": "electric_scooter", "name": "187608439a058cbddd5ee8a813a804c6", "is_reserved": 0, "lon": -77.03156383333334, "is_disabled": 0, "fusion_lat": 0.0, "lat": 38.88766583333334, "bike_id": "187608439a058cbddd5ee8a813a804c6", "fusion_lon": 0.0}, {"rental_uris": {"ios": "https://dc.lft.to/lastmile_qr_scan", "android": "https://dc.lft.to/lastmile_qr_scan"}, "type": "electric_scooter", "name": "2e586d48ddd2086e29e5b143bc1ba649", "is_reserved": 0, "lon": -77.03505116666666, "is_disabled": 0, "fusion_lat": 0.0, "lat": 38.91882066666667, "bike_id": "2e586d48ddd2086e29e5b143bc1ba649", "fusion_lon": 0.0}, {"rental_uris": {"ios": "https://dc.lft.to/lastmile_qr_scan", "android": "https://dc.lft.to/lastmile_qr_scan"}, "type": "electric_scooter", "name": "439f951c19426fa519dc51d588ec37cd", "is_reserved": 0, "lon": -77.0397795, "is_disabled": 0, "fusion_lat": 0.0, "lat": 38.9097525, "bike_id": "439f951c19426fa519dc51d588ec37cd", "fusion_lon": 0.0}, {"rental_uris": {"ios": "https://dc.lft.to/lastmile_qr_scan", "android": "https://dc.lft.to/lastmile_qr_scan"}, "type": "electric_scooter", "name": "ce049eb0c1cda11748c90ab4fc00c905", "is_reserved": 0, "lon": -77.03222416666667, "is_disabled": 0, "fusion_lat": 0.0, "lat": 38.9049935, "bike_id": "ce049eb0c1cda11748c90ab4fc00c905", "fusion_lon": 0.0}, {"rental_uris": {"ios": "https://dc.lft.to/lastmile_qr_scan", "android": "https://dc.lft.to/lastmile_qr_scan"}, "type": "electric_scooter", "name": "01dee1be038af0a8c3d6a45f79de6193", "is_reserved": 0, "lon": -77.00198266666666, "is_disabled": 0, "fusion_lat": 0.0, "lat": 38.90161333333333, "bike_id": "01dee1be038af0a8c3d6a45f79de6193", "fusion_lon": 0.0}, {"rental_uris": {"ios": "https://dc.lft.to/lastmile_qr_scan", "android": "https://dc.lft.to/lastmile_qr_scan"}, "type": "electric_scooter", "name": "b087065bdf2e87216021170ce2457d57", "is_reserved": 0, "lon": -77.01754733333334, "is_disabled": 0, "fusion_lat": 0.0, "lat": 38.90272616666667, "bike_id": "b087065bdf2e87216021170ce2457d57", "fusion_lon": 0.0}, {"rental_uris": {"ios": "https://dc.lft.to/lastmile_qr_scan", "android": "https://dc.lft.to/lastmile_qr_scan"}, "type": "electric_scooter", "name": "112fa7ae21d9f5b3208965a0b476f442", "is_reserved": 0, "lon": -77.01608383333334, "is_disabled": 0, "fusion_lat": 0.0, "lat": 38.91071483333333, "bike_id": "112fa7ae21d9f5b3208965a0b476f442", "fusion_lon": 0.0}, {"rental_uris": {"ios": "https://dc.lft.to/lastmile_qr_scan", "android": "https://dc.lft.to/lastmile_qr_scan"}, "type": "electric_scooter", "name": "8d83fb9888fe03f850b0a78d422e58a3", "is_reserved": 0, "lon": -77.011002, "is_disabled": 0, "fusion_lat": 0.0, "lat": 38.88537066666667, "bike_id": "8d83fb9888fe03f850b0a78d422e58a3", "fusion_lon": 0.0}, {"rental_uris": {"ios": "https://dc.lft.to/lastmile_qr_scan", "android": "https://dc.lft.to/lastmile_qr_scan"}, "type": "electric_scooter", "name": "ee8fe777102875362182872440431eea", "is_reserved": 0, "lon": -77.0680965, "is_disabled": 0, "fusion_lat": 0.0, "lat": 38.95216683333334, "bike_id": "ee8fe777102875362182872440431eea", "fusion_lon": 0.0}, {"rental_uris": {"ios": "https://dc.lft.to/lastmile_qr_scan", "android": "https://dc.lft.to/lastmile_qr_scan"}, "type": "electric_scooter", "name": "457ff131401e0321512503fd25ff898b", "is_reserved": 0, "lon": -77.04648683333333, "is_disabled": 0, "fusion_lat": 0.0, "lat": 38.900678, "bike_id": "457ff131401e0321512503fd25ff898b", "fusion_lon": 0.0}, {"rental_uris": {"ios": "https://dc.lft.to/lastmile_qr_scan", "android": "https://dc.lft.to/lastmile_qr_scan"}, "type": "electric_scooter", "name": "978a4f4d9d424731936e6102b0da0c35", "is_reserved": 0, "lon": -77.0408975, "is_disabled": 0, "fusion_lat": 0.0, "lat": 38.93063383333333, "bike_id": "978a4f4d9d424731936e6102b0da0c35", "fusion_lon": 0.0}, {"rental_uris": {"ios": "https://dc.lft.to/lastmile_qr_scan", "android": "https://dc.lft.to/lastmile_qr_scan"}, "type": "electric_bike", "name": "d9694d387f3b2458a9ca310a375923cd", "is_reserved": 0, "lon": -76.96095716666666, "is_disabled": 0, "fusion_lat": 0.0, "lat": 38.94962666666667, "bike_id": "d9694d387f3b2458a9ca310a375923cd", "fusion_lon": 0.0}, {"rental_uris": {"ios": "https://dc.lft.to/lastmile_qr_scan", "android": "https://dc.lft.to/lastmile_qr_scan"}, "type": "electric_scooter", "name": "a3e410e268f05a5f6053dc37b70af9a8", "is_reserved": 0, "lon": -77.03264283333333, "is_disabled": 0, "fusion_lat": 0.0, "lat": 38.910327833333334, "bike_id": "a3e410e268f05a5f6053dc37b70af9a8", "fusion_lon": 0.0}, {"rental_uris": {"ios": "https://dc.lft.to/lastmile_qr_scan", "android": "https://dc.lft.to/lastmile_qr_scan"}, "type": "electric_scooter", "name": "99fda36e65f4d0c5a6eb5e0305767299", "is_reserved": 0, "lon": -77.031797, "is_disabled": 0, "fusion_lat": 0.0, "lat": 38.918297333333335, "bike_id": "99fda36e65f4d0c5a6eb5e0305767299", "fusion_lon": 0.0}, {"rental_uris": {"ios": "https://dc.lft.to/lastmile_qr_scan", "android": "https://dc.lft.to/lastmile_qr_scan"}, "type": "electric_scooter", "name": "94da3f46d6f584a8af7244bbad8dd820", "is_reserved": 0, "lon": -77.0363395, "is_disabled": 0, "fusion_lat": 0.0, "lat": 38.92594316666667, "bike_id": "94da3f46d6f584a8af7244bbad8dd820", "fusion_lon": 0.0}, {"rental_uris": {"ios": "https://dc.lft.to/lastmile_qr_scan", "android": "https://dc.lft.to/lastmile_qr_scan"}, "type": "electric_scooter", "name": "773723ee5786ae9ec8c8ccd9bf1cc8fc", "is_reserved": 0, "lon": -77.043729, "is_disabled": 0, "fusion_lat": 0.0, "lat": 38.93150883333333, "bike_id": "773723ee5786ae9ec8c8ccd9bf1cc8fc", "fusion_lon": 0.0}, {"rental_uris": {"ios": "https://dc.lft.to/lastmile_qr_scan", "android": "https://dc.lft.to/lastmile_qr_scan"}, "type": "electric_scooter", "name": "66f2cd9e5fba76af79f814fb8d21079d", "is_reserved": 0, "lon": -77.05633216666666, "is_disabled": 0, "fusion_lat": 0.0, "lat": 38.936035333333336, "bike_id": "66f2cd9e5fba76af79f814fb8d21079d", "fusion_lon": 0.0}, {"rental_uris": {"ios": "https://dc.lft.to/lastmile_qr_scan", "android": "https://dc.lft.to/lastmile_qr_scan"}, "type": "electric_scooter", "name": "9b656132bf7a01ae406a440d5ef5f45c", "is_reserved": 0, "lon": -77.04688483333334, "is_disabled": 0, "fusion_lat": 0.0, "lat": 38.89744866666667, "bike_id": "9b656132bf7a01ae406a440d5ef5f45c", "fusion_lon": 0.0}, {"rental_uris": {"ios": "https://dc.lft.to/lastmile_qr_scan", "android": "https://dc.lft.to/lastmile_qr_scan"}, "type": "electric_scooter", "name": "511ada80fb61b2334db41d8d2739bd1d", "is_reserved": 0, "lon": -77.01190816666667, "is_disabled": 0, "fusion_lat": 0.0, "lat": 38.900309, "bike_id": "511ada80fb61b2334db41d8d2739bd1d", "fusion_lon": 0.0}, {"rental_uris": {"ios": "https://dc.lft.to/lastmile_qr_scan", "android": "https://dc.lft.to/lastmile_qr_scan"}, "type": "electric_scooter", "name": "49405cfbbc804ee2ea0080dc57fc560c", "is_reserved": 0, "lon": -77.02818783333333, "is_disabled": 0, "fusion_lat": 0.0, "lat": 38.8923755, "bike_id": "49405cfbbc804ee2ea0080dc57fc560c", "fusion_lon": 0.0}, {"rental_uris": {"ios": "https://dc.lft.to/lastmile_qr_scan", "android": "https://dc.lft.to/lastmile_qr_scan"}, "type": "electric_scooter", "name": "0a32faffb8bdb03e1f7d75c52cdc20f0", "is_reserved": 0, "lon": -77.03276183333334, "is_disabled": 0, "fusion_lat": 0.0, "lat": 38.91994033333334, "bike_id": "0a32faffb8bdb03e1f7d75c52cdc20f0", "fusion_lon": 0.0}, {"rental_uris": {"ios": "https://dc.lft.to/lastmile_qr_scan", "android": "https://dc.lft.to/lastmile_qr_scan"}, "type": "electric_scooter", "name": "92c2625b985d5b3fb3927a6ae6cc178f", "is_reserved": 0, "lon": -77.03904283333334, "is_disabled": 0, "fusion_lat": 0.0, "lat": 38.91414316666667, "bike_id": "92c2625b985d5b3fb3927a6ae6cc178f", "fusion_lon": 0.0}, {"rental_uris": {"ios": "https://dc.lft.to/lastmile_qr_scan", "android": "https://dc.lft.to/lastmile_qr_scan"}, "type": "electric_scooter", "name": "df436742a1302202cb6d75bb95419c7a", "is_reserved": 0, "lon": -77.04518033333333, "is_disabled": 0, "fusion_lat": 0.0, "lat": 38.91912416666667, "bike_id": "df436742a1302202cb6d75bb95419c7a", "fusion_lon": 0.0}, {"rental_uris": {"ios": "https://dc.lft.to/lastmile_qr_scan", "android": "https://dc.lft.to/lastmile_qr_scan"}, "type": "electric_bike", "name": "a476905c5b127bb1320bee1bc1540d11", "is_reserved": 0, "lon": -76.95237133333333, "is_disabled": 0, "fusion_lat": 0.0, "lat": 38.884651166666664, "bike_id": "a476905c5b127bb1320bee1bc1540d11", "fusion_lon": 0.0}, {"rental_uris": {"ios": "https://dc.lft.to/lastmile_qr_scan", "android": "https://dc.lft.to/lastmile_qr_scan"}, "type": "electric_scooter", "name": "8e4313efa8a833c0346b6e0fb7fd7075", "is_reserved": 0, "lon": -77.00050916666666, "is_disabled": 0, "fusion_lat": 0.0, "lat": 38.876858, "bike_id": "8e4313efa8a833c0346b6e0fb7fd7075", "fusion_lon": 0.0}, {"rental_uris": {"ios": "https://dc.lft.to/lastmile_qr_scan", "android": "https://dc.lft.to/lastmile_qr_scan"}, "type": "electric_scooter", "name": "32fab781ba12a8510c55db18157a6b06", "is_reserved": 0, "lon": -77.017616, "is_disabled": 0, "fusion_lat": 0.0, "lat": 38.87679766666667, "bike_id": "32fab781ba12a8510c55db18157a6b06", "fusion_lon": 0.0}, {"rental_uris": {"ios": "https://dc.lft.to/lastmile_qr_scan", "android": "https://dc.lft.to/lastmile_qr_scan"}, "type": "electric_scooter", "name": "4835ad2811f673b8282becf0fb4a67ad", "is_reserved": 0, "lon": -77.0261095, "is_disabled": 0, "fusion_lat": 0.0, "lat": 38.916911999999996, "bike_id": "4835ad2811f673b8282becf0fb4a67ad", "fusion_lon": 0.0}, {"rental_uris": {"ios": "https://dc.lft.to/lastmile_qr_scan", "android": "https://dc.lft.to/lastmile_qr_scan"}, "type": "electric_scooter", "name": "c3db1acee0112f3f5bde158286231dd2", "is_reserved": 0, "lon": -77.0400035, "is_disabled": 0, "fusion_lat": 0.0, "lat": 38.918203166666665, "bike_id": "c3db1acee0112f3f5bde158286231dd2", "fusion_lon": 0.0}, {"rental_uris": {"ios": "https://dc.lft.to/lastmile_qr_scan", "android": "https://dc.lft.to/lastmile_qr_scan"}, "type": "electric_scooter", "name": "6ee35c68fb2eb9062d45bca71b9ce1e5", "is_reserved": 0, "lon": -77.084022, "is_disabled": 0, "fusion_lat": 0.0, "lat": 38.90805016666667, "bike_id": "6ee35c68fb2eb9062d45bca71b9ce1e5", "fusion_lon": 0.0}, {"rental_uris": {"ios": "https://dc.lft.to/lastmile_qr_scan", "android": "https://dc.lft.to/lastmile_qr_scan"}, "type": "electric_bike", "name": "52af9cd97b5b05445e5b2ae74177a88f", "is_reserved": 0, "lon": -76.94543683333333, "is_disabled": 0, "fusion_lat": 0.0, "lat": 38.983058166666666, "bike_id": "52af9cd97b5b05445e5b2ae74177a88f", "fusion_lon": 0.0}, {"rental_uris": {"ios": "https://dc.lft.to/lastmile_qr_scan", "android": "https://dc.lft.to/lastmile_qr_scan"}, "type": "electric_scooter", "name": "2ba5adca589d68eaf2c45e12f8d246c1", "is_reserved": 0, "lon": -77.03350966666666, "is_disabled": 0, "fusion_lat": 0.0, "lat": 38.8997345, "bike_id": "2ba5adca589d68eaf2c45e12f8d246c1", "fusion_lon": 0.0}, {"rental_uris": {"ios": "https://dc.lft.to/lastmile_qr_scan", "android": "https://dc.lft.to/lastmile_qr_scan"}, "type": "electric_scooter", "name": "3f6a5ab34334f59af824940bffbfc9ca", "is_reserved": 0, "lon": -77.039084, "is_disabled": 0, "fusion_lat": 0.0, "lat": 38.922428333333336, "bike_id": "3f6a5ab34334f59af824940bffbfc9ca", "fusion_lon": 0.0}, {"rental_uris": {"ios": "https://dc.lft.to/lastmile_qr_scan", "android": "https://dc.lft.to/lastmile_qr_scan"}, "type": "electric_bike", "name": "8f23724129562f35ccb918d19d594499", "is_reserved": 0, "lon": -77.00762833333333, "is_disabled": 0, "fusion_lat": 0.0, "lat": 38.99780533333333, "bike_id": "8f23724129562f35ccb918d19d594499", "fusion_lon": 0.0}, {"rental_uris": {"ios": "https://dc.lft.to/lastmile_qr_scan", "android": "https://dc.lft.to/lastmile_qr_scan"}, "type": "electric_scooter", "name": "03e9794cdd7bc1885856f869363d25c1", "is_reserved": 0, "lon": -77.003355, "is_disabled": 0, "fusion_lat": 0.0, "lat": 38.87720066666667, "bike_id": "03e9794cdd7bc1885856f869363d25c1", "fusion_lon": 0.0}, {"rental_uris": {"ios": "https://dc.lft.to/lastmile_qr_scan", "android": "https://dc.lft.to/lastmile_qr_scan"}, "type": "electric_scooter", "name": "783cb33ed35a4c8c8d93fc61ca7607a1", "is_reserved": 0, "lon": -77.039499, "is_disabled": 0, "fusion_lat": 0.0, "lat": 38.8982495, "bike_id": "783cb33ed35a4c8c8d93fc61ca7607a1", "fusion_lon": 0.0}, {"rental_uris": {"ios": "https://dc.lft.to/lastmile_qr_scan", "android": "https://dc.lft.to/lastmile_qr_scan"}, "type": "electric_scooter", "name": "749b9645e6a30082c65b69e246e6d73a", "is_reserved": 0, "lon": -76.98542416666666, "is_disabled": 0, "fusion_lat": 0.0, "lat": 38.87964633333333, "bike_id": "749b9645e6a30082c65b69e246e6d73a", "fusion_lon": 0.0}, {"rental_uris": {"ios": "https://dc.lft.to/lastmile_qr_scan", "android": "https://dc.lft.to/lastmile_qr_scan"}, "type": "electric_scooter", "name": "202b94df4be284970d7019e993295211", "is_reserved": 0, "lon": -77.0218115, "is_disabled": 0, "fusion_lat": 0.0, "lat": 38.928327333333336, "bike_id": "202b94df4be284970d7019e993295211", "fusion_lon": 0.0}, {"rental_uris": {"ios": "https://dc.lft.to/lastmile_qr_scan", "android": "https://dc.lft.to/lastmile_qr_scan"}, "type": "electric_scooter", "name": "0b3881026dc3ef37e66110029790fe59", "is_reserved": 0, "lon": -77.0245985, "is_disabled": 0, "fusion_lat": 0.0, "lat": 38.903353, "bike_id": "0b3881026dc3ef37e66110029790fe59", "fusion_lon": 0.0}, {"rental_uris": {"ios": "https://dc.lft.to/lastmile_qr_scan", "android": "https://dc.lft.to/lastmile_qr_scan"}, "type": "electric_bike", "name": "f711a6d53a5da59c5da44caa1e182d80", "is_reserved": 0, "lon": -76.968864, "is_disabled": 0, "fusion_lat": 0.0, "lat": 38.86982316666667, "bike_id": "f711a6d53a5da59c5da44caa1e182d80", "fusion_lon": 0.0}, {"rental_uris": {"ios": "https://dc.lft.to/lastmile_qr_scan", "android": "https://dc.lft.to/lastmile_qr_scan"}, "type": "electric_scooter", "name": "2a8c141c32e9050c19ca03e96f09989f", "is_reserved": 0, "lon": -77.0639435, "is_disabled": 0, "fusion_lat": 0.0, "lat": 38.90859566666666, "bike_id": "2a8c141c32e9050c19ca03e96f09989f", "fusion_lon": 0.0}, {"rental_uris": {"ios": "https://dc.lft.to/lastmile_qr_scan", "android": "https://dc.lft.to/lastmile_qr_scan"}, "type": "electric_scooter", "name": "5c5f8df425c04c85bc8a8b9e2a6d29c8", "is_reserved": 0, "lon": -77.01887116666667, "is_disabled": 0, "fusion_lat": 0.0, "lat": 38.874712, "bike_id": "5c5f8df425c04c85bc8a8b9e2a6d29c8", "fusion_lon": 0.0}, {"rental_uris": {"ios": "https://dc.lft.to/lastmile_qr_scan", "android": "https://dc.lft.to/lastmile_qr_scan"}, "type": "electric_bike", "name": "c3a34535f444e6bc1402ff6a11633663", "is_reserved": 0, "lon": -77.1289135, "is_disabled": 0, "fusion_lat": 0.0, "lat": 38.90612133333333, "bike_id": "c3a34535f444e6bc1402ff6a11633663", "fusion_lon": 0.0}, {"rental_uris": {"ios": "https://dc.lft.to/lastmile_qr_scan", "android": "https://dc.lft.to/lastmile_qr_scan"}, "type": "electric_scooter", "name": "f6b59e1b7a29c675bc44a4af2de7f250", "is_reserved": 0, "lon": -77.04, "is_disabled": 0, "fusion_lat": 0.0, "lat": 38.934264, "bike_id": "f6b59e1b7a29c675bc44a4af2de7f250", "fusion_lon": 0.0}, {"rental_uris": {"ios": "https://dc.lft.to/lastmile_qr_scan", "android": "https://dc.lft.to/lastmile_qr_scan"}, "type": "electric_scooter", "name": "2cfa4c44dc854ff83229fc5848980d82", "is_reserved": 0, "lon": -77.00924983333333, "is_disabled": 0, "fusion_lat": 0.0, "lat": 38.897759666666666, "bike_id": "2cfa4c44dc854ff83229fc5848980d82", "fusion_lon": 0.0}, {"rental_uris": {"ios": "https://dc.lft.to/lastmile_qr_scan", "android": "https://dc.lft.to/lastmile_qr_scan"}, "type": "electric_scooter", "name": "8d734887b153f3c23595c98915a9629f", "is_reserved": 0, "lon": -77.023744, "is_disabled": 0, "fusion_lat": 0.0, "lat": 38.90336966666667, "bike_id": "8d734887b153f3c23595c98915a9629f", "fusion_lon": 0.0}, {"rental_uris": {"ios": "https://dc.lft.to/lastmile_qr_scan", "android": "https://dc.lft.to/lastmile_qr_scan"}, "type": "electric_scooter", "name": "7be0cf4ee4bd28db36ed51e5a3b3f5f0", "is_reserved": 0, "lon": -77.03558116666666, "is_disabled": 0, "fusion_lat": 0.0, "lat": 38.9273475, "bike_id": "7be0cf4ee4bd28db36ed51e5a3b3f5f0", "fusion_lon": 0.0}, {"rental_uris": {"ios": "https://dc.lft.to/lastmile_qr_scan", "android": "https://dc.lft.to/lastmile_qr_scan"}, "type": "electric_scooter", "name": "269e4f6e9560570b344d4236772461e0", "is_reserved": 0, "lon": -76.99142016666667, "is_disabled": 0, "fusion_lat": 0.0, "lat": 38.87336466666667, "bike_id": "269e4f6e9560570b344d4236772461e0", "fusion_lon": 0.0}, {"rental_uris": {"ios": "https://dc.lft.to/lastmile_qr_scan", "android": "https://dc.lft.to/lastmile_qr_scan"}, "type": "electric_scooter", "name": "566ef6a837aec0e0b390abafefcc88b6", "is_reserved": 0, "lon": -76.98338133333333, "is_disabled": 0, "fusion_lat": 0.0, "lat": 38.90087033333333, "bike_id": "566ef6a837aec0e0b390abafefcc88b6", "fusion_lon": 0.0}, {"rental_uris": {"ios": "https://dc.lft.to/lastmile_qr_scan", "android": "https://dc.lft.to/lastmile_qr_scan"}, "type": "electric_scooter", "name": "567fd4f286b79e282c54151bce0bf70b", "is_reserved": 0, "lon": -77.02834316666667, "is_disabled": 0, "fusion_lat": 0.0, "lat": 38.899569666666665, "bike_id": "567fd4f286b79e282c54151bce0bf70b", "fusion_lon": 0.0}, {"rental_uris": {"ios": "https://dc.lft.to/lastmile_qr_scan", "android": "https://dc.lft.to/lastmile_qr_scan"}, "type": "electric_scooter", "name": "67d23e2e55b9c4e20997edd0cb942399", "is_reserved": 0, "lon": -77.02644316666667, "is_disabled": 0, "fusion_lat": 0.0, "lat": 38.897202166666666, "bike_id": "67d23e2e55b9c4e20997edd0cb942399", "fusion_lon": 0.0}, {"rental_uris": {"ios": "https://dc.lft.to/lastmile_qr_scan", "android": "https://dc.lft.to/lastmile_qr_scan"}, "type": "electric_scooter", "name": "911b46697f5ef2c211980acc12e5273a", "is_reserved": 0, "lon": -77.01764883333334, "is_disabled": 0, "fusion_lat": 0.0, "lat": 38.886197333333335, "bike_id": "911b46697f5ef2c211980acc12e5273a", "fusion_lon": 0.0}, {"rental_uris": {"ios": "https://dc.lft.to/lastmile_qr_scan", "android": "https://dc.lft.to/lastmile_qr_scan"}, "type": "electric_scooter", "name": "6127769544f49976f62f263068515c55", "is_reserved": 0, "lon": -77.03935133333333, "is_disabled": 0, "fusion_lat": 0.0, "lat": 38.8985725, "bike_id": "6127769544f49976f62f263068515c55", "fusion_lon": 0.0}, {"rental_uris": {"ios": "https://dc.lft.to/lastmile_qr_scan", "android": "https://dc.lft.to/lastmile_qr_scan"}, "type": "electric_scooter", "name": "8618841f52cc635c40fd361a670ab350", "is_reserved": 0, "lon": -77.017046, "is_disabled": 0, "fusion_lat": 0.0, "lat": 38.904827166666664, "bike_id": "8618841f52cc635c40fd361a670ab350", "fusion_lon": 0.0}, {"rental_uris": {"ios": "https://dc.lft.to/lastmile_qr_scan", "android": "https://dc.lft.to/lastmile_qr_scan"}, "type": "electric_scooter", "name": "937bc1fc51162a7a6b72079fa269bd51", "is_reserved": 0, "lon": -77.02596816666667, "is_disabled": 0, "fusion_lat": 0.0, "lat": 38.913998166666666, "bike_id": "937bc1fc51162a7a6b72079fa269bd51", "fusion_lon": 0.0}, {"rental_uris": {"ios": "https://dc.lft.to/lastmile_qr_scan", "android": "https://dc.lft.to/lastmile_qr_scan"}, "type": "electric_scooter", "name": "3409da473278c993f53c625c2e9b1759", "is_reserved": 0, "lon": -77.04994, "is_disabled": 0, "fusion_lat": 0.0, "lat": 38.892299, "bike_id": "3409da473278c993f53c625c2e9b1759", "fusion_lon": 0.0}, {"rental_uris": {"ios": "https://dc.lft.to/lastmile_qr_scan", "android": "https://dc.lft.to/lastmile_qr_scan"}, "type": "electric_scooter", "name": "793d0f7ab85b34c1373fe01994ad24cf", "is_reserved": 0, "lon": -77.02287066666666, "is_disabled": 0, "fusion_lat": 0.0, "lat": 38.9183965, "bike_id": "793d0f7ab85b34c1373fe01994ad24cf", "fusion_lon": 0.0}, {"rental_uris": {"ios": "https://dc.lft.to/lastmile_qr_scan", "android": "https://dc.lft.to/lastmile_qr_scan"}, "type": "electric_scooter", "name": "fab9bac3279cae22808bf6671c7ae646", "is_reserved": 0, "lon": -77.0417275, "is_disabled": 0, "fusion_lat": 0.0, "lat": 38.90364683333333, "bike_id": "fab9bac3279cae22808bf6671c7ae646", "fusion_lon": 0.0}, {"rental_uris": {"ios": "https://dc.lft.to/lastmile_qr_scan", "android": "https://dc.lft.to/lastmile_qr_scan"}, "type": "electric_scooter", "name": "04c58baa91fa3097162e86501c9674b7", "is_reserved": 0, "lon": -77.02907683333333, "is_disabled": 0, "fusion_lat": 0.0, "lat": 38.94037516666667, "bike_id": "04c58baa91fa3097162e86501c9674b7", "fusion_lon": 0.0}, {"rental_uris": {"ios": "https://dc.lft.to/lastmile_qr_scan", "android": "https://dc.lft.to/lastmile_qr_scan"}, "type": "electric_scooter", "name": "838b4a8aa1a3bd92647db6092da0cf78", "is_reserved": 0, "lon": -77.022735, "is_disabled": 0, "fusion_lat": 0.0, "lat": 38.924218333333336, "bike_id": "838b4a8aa1a3bd92647db6092da0cf78", "fusion_lon": 0.0}, {"rental_uris": {"ios": "https://dc.lft.to/lastmile_qr_scan", "android": "https://dc.lft.to/lastmile_qr_scan"}, "type": "electric_scooter", "name": "71ae252d8b4b0d55542ce628a0785502", "is_reserved": 0, "lon": -77.03186533333333, "is_disabled": 0, "fusion_lat": 0.0, "lat": 38.915694, "bike_id": "71ae252d8b4b0d55542ce628a0785502", "fusion_lon": 0.0}, {"rental_uris": {"ios": "https://dc.lft.to/lastmile_qr_scan", "android": "https://dc.lft.to/lastmile_qr_scan"}, "type": "electric_scooter", "name": "bedf1166aa4cc1cfcc1ef3a27e7cdd2f", "is_reserved": 0, "lon": -77.0717525, "is_disabled": 0, "fusion_lat": 0.0, "lat": 38.89945933333333, "bike_id": "bedf1166aa4cc1cfcc1ef3a27e7cdd2f", "fusion_lon": 0.0}, {"rental_uris": {"ios": "https://dc.lft.to/lastmile_qr_scan", "android": "https://dc.lft.to/lastmile_qr_scan"}, "type": "electric_scooter", "name": "0ad5bf33f9c6f0e4b84e876d01ddf110", "is_reserved": 0, "lon": -77.00779983333334, "is_disabled": 0, "fusion_lat": 0.0, "lat": 38.878541, "bike_id": "0ad5bf33f9c6f0e4b84e876d01ddf110", "fusion_lon": 0.0}, {"rental_uris": {"ios": "https://dc.lft.to/lastmile_qr_scan", "android": "https://dc.lft.to/lastmile_qr_scan"}, "type": "electric_bike", "name": "db1f4605eb60ef61ac2136617780227a", "is_reserved": 0, "lon": -77.06697566666666, "is_disabled": 0, "fusion_lat": 0.0, "lat": 38.83171183333333, "bike_id": "db1f4605eb60ef61ac2136617780227a", "fusion_lon": 0.0}, {"rental_uris": {"ios": "https://dc.lft.to/lastmile_qr_scan", "android": "https://dc.lft.to/lastmile_qr_scan"}, "type": "electric_scooter", "name": "e49fd55c1000e82c82eb7b6a1cd2a70e", "is_reserved": 0, "lon": -77.01755083333333, "is_disabled": 0, "fusion_lat": 0.0, "lat": 38.876870333333336, "bike_id": "e49fd55c1000e82c82eb7b6a1cd2a70e", "fusion_lon": 0.0}, {"rental_uris": {"ios": "https://dc.lft.to/lastmile_qr_scan", "android": "https://dc.lft.to/lastmile_qr_scan"}, "type": "electric_scooter", "name": "de5b5ca2803b66d545d57491bbd7e4fc", "is_reserved": 0, "lon": -77.02171883333334, "is_disabled": 0, "fusion_lat": 0.0, "lat": 38.894844166666665, "bike_id": "de5b5ca2803b66d545d57491bbd7e4fc", "fusion_lon": 0.0}, {"rental_uris": {"ios": "https://dc.lft.to/lastmile_qr_scan", "android": "https://dc.lft.to/lastmile_qr_scan"}, "type": "electric_scooter", "name": "3ee98ae0b291b4ae626471dc4572c873", "is_reserved": 0, "lon": -77.02795583333334, "is_disabled": 0, "fusion_lat": 0.0, "lat": 38.95608283333333, "bike_id": "3ee98ae0b291b4ae626471dc4572c873", "fusion_lon": 0.0}, {"rental_uris": {"ios": "https://dc.lft.to/lastmile_qr_scan", "android": "https://dc.lft.to/lastmile_qr_scan"}, "type": "electric_scooter", "name": "bccda92eb2e4a5e652c690ede5cb4abe", "is_reserved": 0, "lon": -77.03654566666667, "is_disabled": 0, "fusion_lat": 0.0, "lat": 38.92286216666667, "bike_id": "bccda92eb2e4a5e652c690ede5cb4abe", "fusion_lon": 0.0}, {"rental_uris": {"ios": "https://dc.lft.to/lastmile_qr_scan", "android": "https://dc.lft.to/lastmile_qr_scan"}, "type": "electric_scooter", "name": "a731b73a69c729fc0057cd50f1a0059f", "is_reserved": 0, "lon": -77.00605766666666, "is_disabled": 0, "fusion_lat": 0.0, "lat": 38.9064745, "bike_id": "a731b73a69c729fc0057cd50f1a0059f", "fusion_lon": 0.0}, {"rental_uris": {"ios": "https://dc.lft.to/lastmile_qr_scan", "android": "https://dc.lft.to/lastmile_qr_scan"}, "type": "electric_scooter", "name": "7edcb93202b52014fdf841128400df0a", "is_reserved": 0, "lon": -77.04180366666667, "is_disabled": 0, "fusion_lat": 0.0, "lat": 38.920534, "bike_id": "7edcb93202b52014fdf841128400df0a", "fusion_lon": 0.0}, {"rental_uris": {"ios": "https://dc.lft.to/lastmile_qr_scan", "android": "https://dc.lft.to/lastmile_qr_scan"}, "type": "electric_scooter", "name": "6e7a7ce98f168f30288875e947b3d1d2", "is_reserved": 0, "lon": -76.970343, "is_disabled": 0, "fusion_lat": 0.0, "lat": 38.8732055, "bike_id": "6e7a7ce98f168f30288875e947b3d1d2", "fusion_lon": 0.0}, {"rental_uris": {"ios": "https://dc.lft.to/lastmile_qr_scan", "android": "https://dc.lft.to/lastmile_qr_scan"}, "type": "electric_scooter", "name": "f7e9dadf31563a873b2cb85e162e5ecc", "is_reserved": 0, "lon": -77.03240866666667, "is_disabled": 0, "fusion_lat": 0.0, "lat": 38.91043166666667, "bike_id": "f7e9dadf31563a873b2cb85e162e5ecc", "fusion_lon": 0.0}, {"rental_uris": {"ios": "https://dc.lft.to/lastmile_qr_scan", "android": "https://dc.lft.to/lastmile_qr_scan"}, "type": "electric_scooter", "name": "aa6599727c205c88329c0bfee675fc79", "is_reserved": 0, "lon": -77.02060816666666, "is_disabled": 0, "fusion_lat": 0.0, "lat": 38.9085235, "bike_id": "aa6599727c205c88329c0bfee675fc79", "fusion_lon": 0.0}, {"rental_uris": {"ios": "https://dc.lft.to/lastmile_qr_scan", "android": "https://dc.lft.to/lastmile_qr_scan"}, "type": "electric_scooter", "name": "c9d3162da22d768e353ddf4a09ae1a80", "is_reserved": 0, "lon": -77.01868483333334, "is_disabled": 0, "fusion_lat": 0.0, "lat": 38.9305375, "bike_id": "c9d3162da22d768e353ddf4a09ae1a80", "fusion_lon": 0.0}, {"rental_uris": {"ios": "https://dc.lft.to/lastmile_qr_scan", "android": "https://dc.lft.to/lastmile_qr_scan"}, "type": "electric_scooter", "name": "8a67368402a072f79110969c9613543e", "is_reserved": 0, "lon": -76.93741866666667, "is_disabled": 0, "fusion_lat": 0.0, "lat": 38.89003066666667, "bike_id": "8a67368402a072f79110969c9613543e", "fusion_lon": 0.0}, {"rental_uris": {"ios": "https://dc.lft.to/lastmile_qr_scan", "android": "https://dc.lft.to/lastmile_qr_scan"}, "type": "electric_scooter", "name": "61303e109dae75e4c9291a80be0e3a1d", "is_reserved": 0, "lon": -77.05324683333333, "is_disabled": 0, "fusion_lat": 0.0, "lat": 38.902296666666665, "bike_id": "61303e109dae75e4c9291a80be0e3a1d", "fusion_lon": 0.0}, {"rental_uris": {"ios": "https://dc.lft.to/lastmile_qr_scan", "android": "https://dc.lft.to/lastmile_qr_scan"}, "type": "electric_scooter", "name": "c54f4685b09feaa4c8ff55920343a1b7", "is_reserved": 0, "lon": -77.043763, "is_disabled": 0, "fusion_lat": 0.0, "lat": 38.89221, "bike_id": "c54f4685b09feaa4c8ff55920343a1b7", "fusion_lon": 0.0}, {"rental_uris": {"ios": "https://dc.lft.to/lastmile_qr_scan", "android": "https://dc.lft.to/lastmile_qr_scan"}, "type": "electric_scooter", "name": "c40e4d904e588386a621c5f91bb7b330", "is_reserved": 0, "lon": -77.02382583333333, "is_disabled": 0, "fusion_lat": 0.0, "lat": 38.92075083333334, "bike_id": "c40e4d904e588386a621c5f91bb7b330", "fusion_lon": 0.0}, {"rental_uris": {"ios": "https://dc.lft.to/lastmile_qr_scan", "android": "https://dc.lft.to/lastmile_qr_scan"}, "type": "electric_scooter", "name": "ea4cd413cdbae7f1621e57191daee6ef", "is_reserved": 0, "lon": -77.0506215, "is_disabled": 0, "fusion_lat": 0.0, "lat": 38.923585333333335, "bike_id": "ea4cd413cdbae7f1621e57191daee6ef", "fusion_lon": 0.0}, {"rental_uris": {"ios": "https://dc.lft.to/lastmile_qr_scan", "android": "https://dc.lft.to/lastmile_qr_scan"}, "type": "electric_scooter", "name": "d9b24508e5225ba594ad689c0cc2465f", "is_reserved": 0, "lon": -77.02580816666666, "is_disabled": 0, "fusion_lat": 0.0, "lat": 38.88720416666666, "bike_id": "d9b24508e5225ba594ad689c0cc2465f", "fusion_lon": 0.0}, {"rental_uris": {"ios": "https://dc.lft.to/lastmile_qr_scan", "android": "https://dc.lft.to/lastmile_qr_scan"}, "type": "electric_scooter", "name": "5d92a6ac93a554ea4df89ca06e90d6f3", "is_reserved": 0, "lon": -77.0177315, "is_disabled": 0, "fusion_lat": 0.0, "lat": 38.920471666666664, "bike_id": "5d92a6ac93a554ea4df89ca06e90d6f3", "fusion_lon": 0.0}, {"rental_uris": {"ios": "https://dc.lft.to/lastmile_qr_scan", "android": "https://dc.lft.to/lastmile_qr_scan"}, "type": "electric_scooter", "name": "f7e39470b1e854f5a3b2d71b38f9f5ce", "is_reserved": 0, "lon": -77.07164616666667, "is_disabled": 0, "fusion_lat": 0.0, "lat": 38.90776616666667, "bike_id": "f7e39470b1e854f5a3b2d71b38f9f5ce", "fusion_lon": 0.0}, {"rental_uris": {"ios": "https://dc.lft.to/lastmile_qr_scan", "android": "https://dc.lft.to/lastmile_qr_scan"}, "type": "electric_scooter", "name": "72f9643b8095f4d07a9ea5180af60f0a", "is_reserved": 0, "lon": -77.04123866666667, "is_disabled": 0, "fusion_lat": 0.0, "lat": 38.9287845, "bike_id": "72f9643b8095f4d07a9ea5180af60f0a", "fusion_lon": 0.0}, {"rental_uris": {"ios": "https://dc.lft.to/lastmile_qr_scan", "android": "https://dc.lft.to/lastmile_qr_scan"}, "type": "electric_scooter", "name": "771ef0380ba5b023f41a3f33f7402178", "is_reserved": 0, "lon": -77.05509633333334, "is_disabled": 0, "fusion_lat": 0.0, "lat": 38.928435666666665, "bike_id": "771ef0380ba5b023f41a3f33f7402178", "fusion_lon": 0.0}, {"rental_uris": {"ios": "https://dc.lft.to/lastmile_qr_scan", "android": "https://dc.lft.to/lastmile_qr_scan"}, "type": "electric_scooter", "name": "f5b167ae13f29da28488608774aef3f3", "is_reserved": 0, "lon": -77.0333685, "is_disabled": 0, "fusion_lat": 0.0, "lat": 38.915543, "bike_id": "f5b167ae13f29da28488608774aef3f3", "fusion_lon": 0.0}, {"rental_uris": {"ios": "https://dc.lft.to/lastmile_qr_scan", "android": "https://dc.lft.to/lastmile_qr_scan"}, "type": "electric_scooter", "name": "f359da02b3de02f10908b3f12ee7b699", "is_reserved": 0, "lon": -76.99954433333333, "is_disabled": 0, "fusion_lat": 0.0, "lat": 38.8919745, "bike_id": "f359da02b3de02f10908b3f12ee7b699", "fusion_lon": 0.0}, {"rental_uris": {"ios": "https://dc.lft.to/lastmile_qr_scan", "android": "https://dc.lft.to/lastmile_qr_scan"}, "type": "electric_scooter", "name": "cbf0ed391540f44462d0752fc9fef79e", "is_reserved": 0, "lon": -76.94457316666667, "is_disabled": 0, "fusion_lat": 0.0, "lat": 38.89030183333333, "bike_id": "cbf0ed391540f44462d0752fc9fef79e", "fusion_lon": 0.0}, {"rental_uris": {"ios": "https://dc.lft.to/lastmile_qr_scan", "android": "https://dc.lft.to/lastmile_qr_scan"}, "type": "electric_scooter", "name": "9df2433772111ed6a92837f0cd6ad553", "is_reserved": 0, "lon": -77.072563, "is_disabled": 0, "fusion_lat": 0.0, "lat": 38.934389, "bike_id": "9df2433772111ed6a92837f0cd6ad553", "fusion_lon": 0.0}, {"rental_uris": {"ios": "https://dc.lft.to/lastmile_qr_scan", "android": "https://dc.lft.to/lastmile_qr_scan"}, "type": "electric_scooter", "name": "98f7b7f7b0fc2e84adf8ca937d65f1b8", "is_reserved": 0, "lon": -76.97379333333333, "is_disabled": 0, "fusion_lat": 0.0, "lat": 38.84995683333333, "bike_id": "98f7b7f7b0fc2e84adf8ca937d65f1b8", "fusion_lon": 0.0}, {"rental_uris": {"ios": "https://dc.lft.to/lastmile_qr_scan", "android": "https://dc.lft.to/lastmile_qr_scan"}, "type": "electric_bike", "name": "a8b2284d63a77f60d7057f6f4ce5fac6", "is_reserved": 0, "lon": -77.113526, "is_disabled": 0, "fusion_lat": 0.0, "lat": 38.8419775, "bike_id": "a8b2284d63a77f60d7057f6f4ce5fac6", "fusion_lon": 0.0}, {"rental_uris": {"ios": "https://dc.lft.to/lastmile_qr_scan", "android": "https://dc.lft.to/lastmile_qr_scan"}, "type": "electric_scooter", "name": "7c104cf77c31d48e16accad27f837ff5", "is_reserved": 0, "lon": -77.00522833333333, "is_disabled": 0, "fusion_lat": 0.0, "lat": 38.87932816666667, "bike_id": "7c104cf77c31d48e16accad27f837ff5", "fusion_lon": 0.0}, {"rental_uris": {"ios": "https://dc.lft.to/lastmile_qr_scan", "android": "https://dc.lft.to/lastmile_qr_scan"}, "type": "electric_scooter", "name": "13c2ea55c9e99f0ef3c83ef47158ffd9", "is_reserved": 0, "lon": -77.03281466666667, "is_disabled": 0, "fusion_lat": 0.0, "lat": 38.932561666666665, "bike_id": "13c2ea55c9e99f0ef3c83ef47158ffd9", "fusion_lon": 0.0}, {"rental_uris": {"ios": "https://dc.lft.to/lastmile_qr_scan", "android": "https://dc.lft.to/lastmile_qr_scan"}, "type": "electric_scooter", "name": "aaa5c0408adbf1d942f2c38ccbb42b9c", "is_reserved": 0, "lon": -77.0101255, "is_disabled": 0, "fusion_lat": 0.0, "lat": 38.906429333333335, "bike_id": "aaa5c0408adbf1d942f2c38ccbb42b9c", "fusion_lon": 0.0}, {"rental_uris": {"ios": "https://dc.lft.to/lastmile_qr_scan", "android": "https://dc.lft.to/lastmile_qr_scan"}, "type": "electric_scooter", "name": "cb7c8b1fc949f458f572db11b1a02827", "is_reserved": 0, "lon": -77.07448083333334, "is_disabled": 0, "fusion_lat": 0.0, "lat": 38.937838, "bike_id": "cb7c8b1fc949f458f572db11b1a02827", "fusion_lon": 0.0}, {"rental_uris": {"ios": "https://dc.lft.to/lastmile_qr_scan", "android": "https://dc.lft.to/lastmile_qr_scan"}, "type": "electric_scooter", "name": "95fea1d492c5fbcd495e1147427487cd", "is_reserved": 0, "lon": -77.01792, "is_disabled": 0, "fusion_lat": 0.0, "lat": 38.90046783333333, "bike_id": "95fea1d492c5fbcd495e1147427487cd", "fusion_lon": 0.0}, {"rental_uris": {"ios": "https://dc.lft.to/lastmile_qr_scan", "android": "https://dc.lft.to/lastmile_qr_scan"}, "type": "electric_scooter", "name": "981db0ee96b82f21195f6b24223ac1cf", "is_reserved": 0, "lon": -76.996792, "is_disabled": 0, "fusion_lat": 0.0, "lat": 38.8847245, "bike_id": "981db0ee96b82f21195f6b24223ac1cf", "fusion_lon": 0.0}, {"rental_uris": {"ios": "https://dc.lft.to/lastmile_qr_scan", "android": "https://dc.lft.to/lastmile_qr_scan"}, "type": "electric_scooter", "name": "52ca9c423d936d5fce589b7f82878495", "is_reserved": 0, "lon": -76.98109283333334, "is_disabled": 0, "fusion_lat": 0.0, "lat": 38.90254083333333, "bike_id": "52ca9c423d936d5fce589b7f82878495", "fusion_lon": 0.0}, {"rental_uris": {"ios": "https://dc.lft.to/lastmile_qr_scan", "android": "https://dc.lft.to/lastmile_qr_scan"}, "type": "electric_scooter", "name": "662427ecc848a7c3433e0d8e267a76c0", "is_reserved": 0, "lon": -76.993421, "is_disabled": 0, "fusion_lat": 0.0, "lat": 38.87691, "bike_id": "662427ecc848a7c3433e0d8e267a76c0", "fusion_lon": 0.0}, {"rental_uris": {"ios": "https://dc.lft.to/lastmile_qr_scan", "android": "https://dc.lft.to/lastmile_qr_scan"}, "type": "electric_scooter", "name": "11accae3bce1a27ca863f4b3ba1eec97", "is_reserved": 0, "lon": -77.03660483333333, "is_disabled": 0, "fusion_lat": 0.0, "lat": 38.922868, "bike_id": "11accae3bce1a27ca863f4b3ba1eec97", "fusion_lon": 0.0}, {"rental_uris": {"ios": "https://dc.lft.to/lastmile_qr_scan", "android": "https://dc.lft.to/lastmile_qr_scan"}, "type": "electric_scooter", "name": "3ef9d31fee1b10a4f76e3c63df4f2926", "is_reserved": 0, "lon": -77.002108, "is_disabled": 0, "fusion_lat": 0.0, "lat": 38.91458733333333, "bike_id": "3ef9d31fee1b10a4f76e3c63df4f2926", "fusion_lon": 0.0}, {"rental_uris": {"ios": "https://dc.lft.to/lastmile_qr_scan", "android": "https://dc.lft.to/lastmile_qr_scan"}, "type": "electric_bike", "name": "b4b0b6ac5c56dbc9549935791248eafb", "is_reserved": 0, "lon": -77.04315016666666, "is_disabled": 0, "fusion_lat": 0.0, "lat": 39.0342065, "bike_id": "b4b0b6ac5c56dbc9549935791248eafb", "fusion_lon": 0.0}, {"rental_uris": {"ios": "https://dc.lft.to/lastmile_qr_scan", "android": "https://dc.lft.to/lastmile_qr_scan"}, "type": "electric_scooter", "name": "9a3021f9667f1d02928345e7f032327d", "is_reserved": 0, "lon": -77.03200616666666, "is_disabled": 0, "fusion_lat": 0.0, "lat": 38.90727733333333, "bike_id": "9a3021f9667f1d02928345e7f032327d", "fusion_lon": 0.0}, {"rental_uris": {"ios": "https://dc.lft.to/lastmile_qr_scan", "android": "https://dc.lft.to/lastmile_qr_scan"}, "type": "electric_scooter", "name": "661427540e9c56e11191503bbf92fc37", "is_reserved": 0, "lon": -77.04506366666666, "is_disabled": 0, "fusion_lat": 0.0, "lat": 38.90794016666667, "bike_id": "661427540e9c56e11191503bbf92fc37", "fusion_lon": 0.0}, {"rental_uris": {"ios": "https://dc.lft.to/lastmile_qr_scan", "android": "https://dc.lft.to/lastmile_qr_scan"}, "type": "electric_scooter", "name": "2d2ffdfb6b113bd0f30b00089682a130", "is_reserved": 0, "lon": -77.01757783333333, "is_disabled": 0, "fusion_lat": 0.0, "lat": 38.87684483333334, "bike_id": "2d2ffdfb6b113bd0f30b00089682a130", "fusion_lon": 0.0}, {"rental_uris": {"ios": "https://dc.lft.to/lastmile_qr_scan", "android": "https://dc.lft.to/lastmile_qr_scan"}, "type": "electric_scooter", "name": "a47aa0093d1415bebfff023c7508bff0", "is_reserved": 0, "lon": -77.00101483333333, "is_disabled": 0, "fusion_lat": 0.0, "lat": 38.908538, "bike_id": "a47aa0093d1415bebfff023c7508bff0", "fusion_lon": 0.0}, {"rental_uris": {"ios": "https://dc.lft.to/lastmile_qr_scan", "android": "https://dc.lft.to/lastmile_qr_scan"}, "type": "electric_scooter", "name": "c9de1251d03b180840813255168fef94", "is_reserved": 0, "lon": -77.0366285, "is_disabled": 0, "fusion_lat": 0.0, "lat": 38.923544166666666, "bike_id": "c9de1251d03b180840813255168fef94", "fusion_lon": 0.0}, {"rental_uris": {"ios": "https://dc.lft.to/lastmile_qr_scan", "android": "https://dc.lft.to/lastmile_qr_scan"}, "type": "electric_scooter", "name": "ce5947728346a7a10171b5ed520c6efa", "is_reserved": 0, "lon": -77.0330255, "is_disabled": 0, "fusion_lat": 0.0, "lat": 38.904712, "bike_id": "ce5947728346a7a10171b5ed520c6efa", "fusion_lon": 0.0}, {"rental_uris": {"ios": "https://dc.lft.to/lastmile_qr_scan", "android": "https://dc.lft.to/lastmile_qr_scan"}, "type": "electric_scooter", "name": "5d0c5ec48dd08fdf27ce9e13e4c8d371", "is_reserved": 0, "lon": -77.00074033333334, "is_disabled": 0, "fusion_lat": 0.0, "lat": 38.87381666666667, "bike_id": "5d0c5ec48dd08fdf27ce9e13e4c8d371", "fusion_lon": 0.0}, {"rental_uris": {"ios": "https://dc.lft.to/lastmile_qr_scan", "android": "https://dc.lft.to/lastmile_qr_scan"}, "type": "electric_scooter", "name": "d26a4579bd9748115f7d3ef5f2203262", "is_reserved": 0, "lon": -77.02352483333334, "is_disabled": 0, "fusion_lat": 0.0, "lat": 38.9419505, "bike_id": "d26a4579bd9748115f7d3ef5f2203262", "fusion_lon": 0.0}, {"rental_uris": {"ios": "https://dc.lft.to/lastmile_qr_scan", "android": "https://dc.lft.to/lastmile_qr_scan"}, "type": "electric_scooter", "name": "c262802d93eb76821dea7a6a8287c8fc", "is_reserved": 0, "lon": -77.00047133333334, "is_disabled": 0, "fusion_lat": 0.0, "lat": 38.90014466666667, "bike_id": "c262802d93eb76821dea7a6a8287c8fc", "fusion_lon": 0.0}, {"rental_uris": {"ios": "https://dc.lft.to/lastmile_qr_scan", "android": "https://dc.lft.to/lastmile_qr_scan"}, "type": "electric_scooter", "name": "9a502a5100134b7bde87f08466e52b29", "is_reserved": 0, "lon": -77.01451866666666, "is_disabled": 0, "fusion_lat": 0.0, "lat": 38.9178165, "bike_id": "9a502a5100134b7bde87f08466e52b29", "fusion_lon": 0.0}, {"rental_uris": {"ios": "https://dc.lft.to/lastmile_qr_scan", "android": "https://dc.lft.to/lastmile_qr_scan"}, "type": "electric_scooter", "name": "32286b59b05bab12d8364cbf1e4cb37c", "is_reserved": 0, "lon": -77.00591083333333, "is_disabled": 0, "fusion_lat": 0.0, "lat": 38.90676233333333, "bike_id": "32286b59b05bab12d8364cbf1e4cb37c", "fusion_lon": 0.0}, {"rental_uris": {"ios": "https://dc.lft.to/lastmile_qr_scan", "android": "https://dc.lft.to/lastmile_qr_scan"}, "type": "electric_scooter", "name": "df382c5f69e5e211df141e16e9f28fcb", "is_reserved": 0, "lon": -76.92893166666667, "is_disabled": 0, "fusion_lat": 0.0, "lat": 38.879448333333336, "bike_id": "df382c5f69e5e211df141e16e9f28fcb", "fusion_lon": 0.0}, {"rental_uris": {"ios": "https://dc.lft.to/lastmile_qr_scan", "android": "https://dc.lft.to/lastmile_qr_scan"}, "type": "electric_scooter", "name": "ee4f260651410ac7d399b65fc21c091c", "is_reserved": 0, "lon": -76.984924, "is_disabled": 0, "fusion_lat": 0.0, "lat": 38.903583833333336, "bike_id": "ee4f260651410ac7d399b65fc21c091c", "fusion_lon": 0.0}, {"rental_uris": {"ios": "https://dc.lft.to/lastmile_qr_scan", "android": "https://dc.lft.to/lastmile_qr_scan"}, "type": "electric_scooter", "name": "1126a7e1e8786fad76c5c274905faaf6", "is_reserved": 0, "lon": -77.01144683333334, "is_disabled": 0, "fusion_lat": 0.0, "lat": 38.90647833333333, "bike_id": "1126a7e1e8786fad76c5c274905faaf6", "fusion_lon": 0.0}, {"rental_uris": {"ios": "https://dc.lft.to/lastmile_qr_scan", "android": "https://dc.lft.to/lastmile_qr_scan"}, "type": "electric_scooter", "name": "845f298d41f7293cf541e79bd490fe1f", "is_reserved": 0, "lon": -77.0530235, "is_disabled": 0, "fusion_lat": 0.0, "lat": 38.902672, "bike_id": "845f298d41f7293cf541e79bd490fe1f", "fusion_lon": 0.0}, {"rental_uris": {"ios": "https://dc.lft.to/lastmile_qr_scan", "android": "https://dc.lft.to/lastmile_qr_scan"}, "type": "electric_scooter", "name": "f74b56556cee62c54761a7934c82153f", "is_reserved": 0, "lon": -76.92921083333333, "is_disabled": 0, "fusion_lat": 0.0, "lat": 38.8865995, "bike_id": "f74b56556cee62c54761a7934c82153f", "fusion_lon": 0.0}, {"rental_uris": {"ios": "https://dc.lft.to/lastmile_qr_scan", "android": "https://dc.lft.to/lastmile_qr_scan"}, "type": "electric_scooter", "name": "122205b41e351db0886fe9d5a394a54c", "is_reserved": 0, "lon": -77.0198755, "is_disabled": 0, "fusion_lat": 0.0, "lat": 38.930709666666665, "bike_id": "122205b41e351db0886fe9d5a394a54c", "fusion_lon": 0.0}, {"rental_uris": {"ios": "https://dc.lft.to/lastmile_qr_scan", "android": "https://dc.lft.to/lastmile_qr_scan"}, "type": "electric_scooter", "name": "565a53e3198ececc7717e8d496561f81", "is_reserved": 0, "lon": -77.05522416666666, "is_disabled": 0, "fusion_lat": 0.0, "lat": 38.907673, "bike_id": "565a53e3198ececc7717e8d496561f81", "fusion_lon": 0.0}, {"rental_uris": {"ios": "https://dc.lft.to/lastmile_qr_scan", "android": "https://dc.lft.to/lastmile_qr_scan"}, "type": "electric_scooter", "name": "71bcecab7e0023f06bbca05932c0a9fc", "is_reserved": 0, "lon": -77.07088333333333, "is_disabled": 0, "fusion_lat": 0.0, "lat": 38.95327266666666, "bike_id": "71bcecab7e0023f06bbca05932c0a9fc", "fusion_lon": 0.0}, {"rental_uris": {"ios": "https://dc.lft.to/lastmile_qr_scan", "android": "https://dc.lft.to/lastmile_qr_scan"}, "type": "electric_scooter", "name": "457bde5cd7e59503d64451c2e40e71c7", "is_reserved": 0, "lon": -77.0433825, "is_disabled": 0, "fusion_lat": 0.0, "lat": 38.922365166666665, "bike_id": "457bde5cd7e59503d64451c2e40e71c7", "fusion_lon": 0.0}, {"rental_uris": {"ios": "https://dc.lft.to/lastmile_qr_scan", "android": "https://dc.lft.to/lastmile_qr_scan"}, "type": "electric_scooter", "name": "39ef855b03c9e44878941482327e8736", "is_reserved": 0, "lon": -77.024373, "is_disabled": 0, "fusion_lat": 0.0, "lat": 38.956398666666665, "bike_id": "39ef855b03c9e44878941482327e8736", "fusion_lon": 0.0}, {"rental_uris": {"ios": "https://dc.lft.to/lastmile_qr_scan", "android": "https://dc.lft.to/lastmile_qr_scan"}, "type": "electric_scooter", "name": "4e999b1d550d2d8ce80c37de19921e61", "is_reserved": 0, "lon": -77.0198665, "is_disabled": 0, "fusion_lat": 0.0, "lat": 38.876049333333334, "bike_id": "4e999b1d550d2d8ce80c37de19921e61", "fusion_lon": 0.0}, {"rental_uris": {"ios": "https://dc.lft.to/lastmile_qr_scan", "android": "https://dc.lft.to/lastmile_qr_scan"}, "type": "electric_scooter", "name": "e0ae50aeff46520d6292c29066be0585", "is_reserved": 0, "lon": -77.03652133333334, "is_disabled": 0, "fusion_lat": 0.0, "lat": 38.954592, "bike_id": "e0ae50aeff46520d6292c29066be0585", "fusion_lon": 0.0}, {"rental_uris": {"ios": "https://dc.lft.to/lastmile_qr_scan", "android": "https://dc.lft.to/lastmile_qr_scan"}, "type": "electric_scooter", "name": "aa679cc710af1a43529b56701c418787", "is_reserved": 0, "lon": -76.97133416666667, "is_disabled": 0, "fusion_lat": 0.0, "lat": 38.8786585, "bike_id": "aa679cc710af1a43529b56701c418787", "fusion_lon": 0.0}, {"rental_uris": {"ios": "https://dc.lft.to/lastmile_qr_scan", "android": "https://dc.lft.to/lastmile_qr_scan"}, "type": "electric_scooter", "name": "09423a5987a866c05cab91ad4ae180a3", "is_reserved": 0, "lon": -76.995606, "is_disabled": 0, "fusion_lat": 0.0, "lat": 38.9268125, "bike_id": "09423a5987a866c05cab91ad4ae180a3", "fusion_lon": 0.0}, {"rental_uris": {"ios": "https://dc.lft.to/lastmile_qr_scan", "android": "https://dc.lft.to/lastmile_qr_scan"}, "type": "electric_scooter", "name": "cd6642d322a204e044edf26b2e379da0", "is_reserved": 0, "lon": -77.039446, "is_disabled": 0, "fusion_lat": 0.0, "lat": 38.898326833333336, "bike_id": "cd6642d322a204e044edf26b2e379da0", "fusion_lon": 0.0}, {"rental_uris": {"ios": "https://dc.lft.to/lastmile_qr_scan", "android": "https://dc.lft.to/lastmile_qr_scan"}, "type": "electric_scooter", "name": "60496938bb776ca4c378473a5a26d113", "is_reserved": 0, "lon": -76.98733383333334, "is_disabled": 0, "fusion_lat": 0.0, "lat": 38.842208666666664, "bike_id": "60496938bb776ca4c378473a5a26d113", "fusion_lon": 0.0}, {"rental_uris": {"ios": "https://dc.lft.to/lastmile_qr_scan", "android": "https://dc.lft.to/lastmile_qr_scan"}, "type": "electric_scooter", "name": "fa91d724f03da77c0fa1e0a12cbd2dc6", "is_reserved": 0, "lon": -77.0728835, "is_disabled": 0, "fusion_lat": 0.0, "lat": 38.91443966666667, "bike_id": "fa91d724f03da77c0fa1e0a12cbd2dc6", "fusion_lon": 0.0}, {"rental_uris": {"ios": "https://dc.lft.to/lastmile_qr_scan", "android": "https://dc.lft.to/lastmile_qr_scan"}, "type": "electric_scooter", "name": "118f9d25e9a753cfcc559bb1423b667d", "is_reserved": 0, "lon": -77.0419265, "is_disabled": 0, "fusion_lat": 0.0, "lat": 38.92206216666666, "bike_id": "118f9d25e9a753cfcc559bb1423b667d", "fusion_lon": 0.0}, {"rental_uris": {"ios": "https://dc.lft.to/lastmile_qr_scan", "android": "https://dc.lft.to/lastmile_qr_scan"}, "type": "electric_scooter", "name": "4d586c80936cdc6b2af40360e59040ea", "is_reserved": 0, "lon": -77.04673916666667, "is_disabled": 0, "fusion_lat": 0.0, "lat": 38.8922405, "bike_id": "4d586c80936cdc6b2af40360e59040ea", "fusion_lon": 0.0}, {"rental_uris": {"ios": "https://dc.lft.to/lastmile_qr_scan", "android": "https://dc.lft.to/lastmile_qr_scan"}, "type": "electric_scooter", "name": "684e5243d6d74610a27c1d40b38e7d0e", "is_reserved": 0, "lon": -77.01887033333334, "is_disabled": 0, "fusion_lat": 0.0, "lat": 38.897491333333335, "bike_id": "684e5243d6d74610a27c1d40b38e7d0e", "fusion_lon": 0.0}, {"rental_uris": {"ios": "https://dc.lft.to/lastmile_qr_scan", "android": "https://dc.lft.to/lastmile_qr_scan"}, "type": "electric_scooter", "name": "a24ab4826f8888ff2274296be7aedfc3", "is_reserved": 0, "lon": -77.02198033333333, "is_disabled": 0, "fusion_lat": 0.0, "lat": 38.9112485, "bike_id": "a24ab4826f8888ff2274296be7aedfc3", "fusion_lon": 0.0}, {"rental_uris": {"ios": "https://dc.lft.to/lastmile_qr_scan", "android": "https://dc.lft.to/lastmile_qr_scan"}, "type": "electric_scooter", "name": "b97e1028edbde5a6945dc0220ed96554", "is_reserved": 0, "lon": -77.03464516666666, "is_disabled": 0, "fusion_lat": 0.0, "lat": 38.90808033333333, "bike_id": "b97e1028edbde5a6945dc0220ed96554", "fusion_lon": 0.0}, {"rental_uris": {"ios": "https://dc.lft.to/lastmile_qr_scan", "android": "https://dc.lft.to/lastmile_qr_scan"}, "type": "electric_bike", "name": "2b4ecbbc17f47d8c910f2be8435e9092", "is_reserved": 0, "lon": -76.94974083333334, "is_disabled": 0, "fusion_lat": 0.0, "lat": 38.883001166666666, "bike_id": "2b4ecbbc17f47d8c910f2be8435e9092", "fusion_lon": 0.0}, {"rental_uris": {"ios": "https://dc.lft.to/lastmile_qr_scan", "android": "https://dc.lft.to/lastmile_qr_scan"}, "type": "electric_scooter", "name": "35ff6ba6bc8208f0213f6ebef2aa3c8e", "is_reserved": 0, "lon": -77.029021, "is_disabled": 0, "fusion_lat": 0.0, "lat": 38.940425, "bike_id": "35ff6ba6bc8208f0213f6ebef2aa3c8e", "fusion_lon": 0.0}, {"rental_uris": {"ios": "https://dc.lft.to/lastmile_qr_scan", "android": "https://dc.lft.to/lastmile_qr_scan"}, "type": "electric_scooter", "name": "fe5d6b39994652c126208f66fed759cc", "is_reserved": 0, "lon": -77.04372133333334, "is_disabled": 0, "fusion_lat": 0.0, "lat": 38.9165715, "bike_id": "fe5d6b39994652c126208f66fed759cc", "fusion_lon": 0.0}, {"rental_uris": {"ios": "https://dc.lft.to/lastmile_qr_scan", "android": "https://dc.lft.to/lastmile_qr_scan"}, "type": "electric_scooter", "name": "d2cc48388f39b04de6de02ef5364e067", "is_reserved": 0, "lon": -77.093581, "is_disabled": 0, "fusion_lat": 0.0, "lat": 38.883984833333336, "bike_id": "d2cc48388f39b04de6de02ef5364e067", "fusion_lon": 0.0}, {"rental_uris": {"ios": "https://dc.lft.to/lastmile_qr_scan", "android": "https://dc.lft.to/lastmile_qr_scan"}, "type": "electric_scooter", "name": "f71094bd801e7a56bfc2cc839e12e576", "is_reserved": 0, "lon": -77.02279933333334, "is_disabled": 0, "fusion_lat": 0.0, "lat": 38.916767166666666, "bike_id": "f71094bd801e7a56bfc2cc839e12e576", "fusion_lon": 0.0}, {"rental_uris": {"ios": "https://dc.lft.to/lastmile_qr_scan", "android": "https://dc.lft.to/lastmile_qr_scan"}, "type": "electric_scooter", "name": "e2dd5af9a734bab88128b7e25f379cd9", "is_reserved": 0, "lon": -77.028922, "is_disabled": 0, "fusion_lat": 0.0, "lat": 38.90719816666667, "bike_id": "e2dd5af9a734bab88128b7e25f379cd9", "fusion_lon": 0.0}, {"rental_uris": {"ios": "https://dc.lft.to/lastmile_qr_scan", "android": "https://dc.lft.to/lastmile_qr_scan"}, "type": "electric_scooter", "name": "766f39084b21367b767204700bf8f1bc", "is_reserved": 0, "lon": -77.04503266666667, "is_disabled": 0, "fusion_lat": 0.0, "lat": 38.892235166666666, "bike_id": "766f39084b21367b767204700bf8f1bc", "fusion_lon": 0.0}, {"rental_uris": {"ios": "https://dc.lft.to/lastmile_qr_scan", "android": "https://dc.lft.to/lastmile_qr_scan"}, "type": "electric_scooter", "name": "8b07979b7761a5ba65f232741113c0d4", "is_reserved": 0, "lon": -77.02284416666667, "is_disabled": 0, "fusion_lat": 0.0, "lat": 38.90960283333333, "bike_id": "8b07979b7761a5ba65f232741113c0d4", "fusion_lon": 0.0}, {"rental_uris": {"ios": "https://dc.lft.to/lastmile_qr_scan", "android": "https://dc.lft.to/lastmile_qr_scan"}, "type": "electric_bike", "name": "0d94062a925fe272740a20287c85ec14", "is_reserved": 0, "lon": -77.0122815, "is_disabled": 0, "fusion_lat": 0.0, "lat": 38.95082633333333, "bike_id": "0d94062a925fe272740a20287c85ec14", "fusion_lon": 0.0}, {"rental_uris": {"ios": "https://dc.lft.to/lastmile_qr_scan", "android": "https://dc.lft.to/lastmile_qr_scan"}, "type": "electric_scooter", "name": "09edd62988bb8e0baca7cb4e3dc4849c", "is_reserved": 0, "lon": -77.03023733333333, "is_disabled": 0, "fusion_lat": 0.0, "lat": 38.92240316666667, "bike_id": "09edd62988bb8e0baca7cb4e3dc4849c", "fusion_lon": 0.0}, {"rental_uris": {"ios": "https://dc.lft.to/lastmile_qr_scan", "android": "https://dc.lft.to/lastmile_qr_scan"}, "type": "electric_scooter", "name": "6b67246f38d3315f186788198f62ef4a", "is_reserved": 0, "lon": -77.02706083333334, "is_disabled": 0, "fusion_lat": 0.0, "lat": 38.906008166666666, "bike_id": "6b67246f38d3315f186788198f62ef4a", "fusion_lon": 0.0}, {"rental_uris": {"ios": "https://dc.lft.to/lastmile_qr_scan", "android": "https://dc.lft.to/lastmile_qr_scan"}, "type": "electric_scooter", "name": "8846a3565675c650835a76962cdd6ccd", "is_reserved": 0, "lon": -77.03873966666667, "is_disabled": 0, "fusion_lat": 0.0, "lat": 38.92152683333333, "bike_id": "8846a3565675c650835a76962cdd6ccd", "fusion_lon": 0.0}, {"rental_uris": {"ios": "https://dc.lft.to/lastmile_qr_scan", "android": "https://dc.lft.to/lastmile_qr_scan"}, "type": "electric_scooter", "name": "59e2c278e5c6cc4ede18d0caf21a604f", "is_reserved": 0, "lon": -76.99869716666667, "is_disabled": 0, "fusion_lat": 0.0, "lat": 38.900291, "bike_id": "59e2c278e5c6cc4ede18d0caf21a604f", "fusion_lon": 0.0}, {"rental_uris": {"ios": "https://dc.lft.to/lastmile_qr_scan", "android": "https://dc.lft.to/lastmile_qr_scan"}, "type": "electric_scooter", "name": "d1a4bed62dec9cd9287c5fa505282a7e", "is_reserved": 0, "lon": -77.02284216666666, "is_disabled": 0, "fusion_lat": 0.0, "lat": 38.89217283333333, "bike_id": "d1a4bed62dec9cd9287c5fa505282a7e", "fusion_lon": 0.0}, {"rental_uris": {"ios": "https://dc.lft.to/lastmile_qr_scan", "android": "https://dc.lft.to/lastmile_qr_scan"}, "type": "electric_scooter", "name": "2a1dd586f16ac97d2c2b1211c0b458d1", "is_reserved": 0, "lon": -77.03171616666667, "is_disabled": 0, "fusion_lat": 0.0, "lat": 38.899846833333335, "bike_id": "2a1dd586f16ac97d2c2b1211c0b458d1", "fusion_lon": 0.0}, {"rental_uris": {"ios": "https://dc.lft.to/lastmile_qr_scan", "android": "https://dc.lft.to/lastmile_qr_scan"}, "type": "electric_scooter", "name": "647f923af1967fe31e8f01a3f2540912", "is_reserved": 0, "lon": -76.98579116666667, "is_disabled": 0, "fusion_lat": 0.0, "lat": 38.854477, "bike_id": "647f923af1967fe31e8f01a3f2540912", "fusion_lon": 0.0}, {"rental_uris": {"ios": "https://dc.lft.to/lastmile_qr_scan", "android": "https://dc.lft.to/lastmile_qr_scan"}, "type": "electric_scooter", "name": "5aa0240f9de9e840d33644aa0d85d519", "is_reserved": 0, "lon": -77.02820166666666, "is_disabled": 0, "fusion_lat": 0.0, "lat": 38.902629833333336, "bike_id": "5aa0240f9de9e840d33644aa0d85d519", "fusion_lon": 0.0}, {"rental_uris": {"ios": "https://dc.lft.to/lastmile_qr_scan", "android": "https://dc.lft.to/lastmile_qr_scan"}, "type": "electric_scooter", "name": "21f26290cd01f82f14b02d77fe165fe7", "is_reserved": 0, "lon": -77.02407266666667, "is_disabled": 0, "fusion_lat": 0.0, "lat": 38.90566233333333, "bike_id": "21f26290cd01f82f14b02d77fe165fe7", "fusion_lon": 0.0}, {"rental_uris": {"ios": "https://dc.lft.to/lastmile_qr_scan", "android": "https://dc.lft.to/lastmile_qr_scan"}, "type": "electric_scooter", "name": "ad0d170c7c888c045b8a161ce5d419d8", "is_reserved": 0, "lon": -77.017808, "is_disabled": 0, "fusion_lat": 0.0, "lat": 38.90258033333333, "bike_id": "ad0d170c7c888c045b8a161ce5d419d8", "fusion_lon": 0.0}, {"rental_uris": {"ios": "https://dc.lft.to/lastmile_qr_scan", "android": "https://dc.lft.to/lastmile_qr_scan"}, "type": "electric_scooter", "name": "7b82e803a6d9eded1acc42bdecd7f0eb", "is_reserved": 0, "lon": -77.0411425, "is_disabled": 0, "fusion_lat": 0.0, "lat": 38.930988166666666, "bike_id": "7b82e803a6d9eded1acc42bdecd7f0eb", "fusion_lon": 0.0}, {"rental_uris": {"ios": "https://dc.lft.to/lastmile_qr_scan", "android": "https://dc.lft.to/lastmile_qr_scan"}, "type": "electric_bike", "name": "7773893cae810dc39ba4183cadb7a411", "is_reserved": 0, "lon": -77.00000883333334, "is_disabled": 0, "fusion_lat": 0.0, "lat": 38.9239085, "bike_id": "7773893cae810dc39ba4183cadb7a411", "fusion_lon": 0.0}, {"rental_uris": {"ios": "https://dc.lft.to/lastmile_qr_scan", "android": "https://dc.lft.to/lastmile_qr_scan"}, "type": "electric_scooter", "name": "adf8c122901d3620e5763465f8169c89", "is_reserved": 0, "lon": -77.0235315, "is_disabled": 0, "fusion_lat": 0.0, "lat": 38.945261, "bike_id": "adf8c122901d3620e5763465f8169c89", "fusion_lon": 0.0}, {"rental_uris": {"ios": "https://dc.lft.to/lastmile_qr_scan", "android": "https://dc.lft.to/lastmile_qr_scan"}, "type": "electric_scooter", "name": "a71cc3a4c466214b1514150f569d8c54", "is_reserved": 0, "lon": -77.0501505, "is_disabled": 0, "fusion_lat": 0.0, "lat": 38.89780016666667, "bike_id": "a71cc3a4c466214b1514150f569d8c54", "fusion_lon": 0.0}, {"rental_uris": {"ios": "https://dc.lft.to/lastmile_qr_scan", "android": "https://dc.lft.to/lastmile_qr_scan"}, "type": "electric_scooter", "name": "06782021d833f33f8505de1b6d056d9b", "is_reserved": 0, "lon": -77.0326135, "is_disabled": 0, "fusion_lat": 0.0, "lat": 38.938782, "bike_id": "06782021d833f33f8505de1b6d056d9b", "fusion_lon": 0.0}, {"rental_uris": {"ios": "https://dc.lft.to/lastmile_qr_scan", "android": "https://dc.lft.to/lastmile_qr_scan"}, "type": "electric_scooter", "name": "6b870d38c2312806f0437c2c8c72e21d", "is_reserved": 0, "lon": -76.98182316666667, "is_disabled": 0, "fusion_lat": 0.0, "lat": 38.90578466666667, "bike_id": "6b870d38c2312806f0437c2c8c72e21d", "fusion_lon": 0.0}, {"rental_uris": {"ios": "https://dc.lft.to/lastmile_qr_scan", "android": "https://dc.lft.to/lastmile_qr_scan"}, "type": "electric_scooter", "name": "5e91ba7b9d8d4e351b1ea079e0b8eac2", "is_reserved": 0, "lon": -77.02406333333333, "is_disabled": 0, "fusion_lat": 0.0, "lat": 38.9275415, "bike_id": "5e91ba7b9d8d4e351b1ea079e0b8eac2", "fusion_lon": 0.0}, {"rental_uris": {"ios": "https://dc.lft.to/lastmile_qr_scan", "android": "https://dc.lft.to/lastmile_qr_scan"}, "type": "electric_scooter", "name": "ac64043379dd7238c84efe1d675977b1", "is_reserved": 0, "lon": -77.02949683333334, "is_disabled": 0, "fusion_lat": 0.0, "lat": 38.90506716666667, "bike_id": "ac64043379dd7238c84efe1d675977b1", "fusion_lon": 0.0}, {"rental_uris": {"ios": "https://dc.lft.to/lastmile_qr_scan", "android": "https://dc.lft.to/lastmile_qr_scan"}, "type": "electric_scooter", "name": "c5f1b5b3bf9c6e82d856f7eb86a8bd29", "is_reserved": 0, "lon": -77.01997933333334, "is_disabled": 0, "fusion_lat": 0.0, "lat": 38.930544, "bike_id": "c5f1b5b3bf9c6e82d856f7eb86a8bd29", "fusion_lon": 0.0}, {"rental_uris": {"ios": "https://dc.lft.to/lastmile_qr_scan", "android": "https://dc.lft.to/lastmile_qr_scan"}, "type": "electric_scooter", "name": "c7e0980593a9173d0e880501d80a0ff4", "is_reserved": 0, "lon": -77.03990883333333, "is_disabled": 0, "fusion_lat": 0.0, "lat": 38.914122666666664, "bike_id": "c7e0980593a9173d0e880501d80a0ff4", "fusion_lon": 0.0}, {"rental_uris": {"ios": "https://dc.lft.to/lastmile_qr_scan", "android": "https://dc.lft.to/lastmile_qr_scan"}, "type": "electric_scooter", "name": "2eb918428c51a57b739e8f1ee3914f94", "is_reserved": 0, "lon": -77.0240085, "is_disabled": 0, "fusion_lat": 0.0, "lat": 38.917117166666664, "bike_id": "2eb918428c51a57b739e8f1ee3914f94", "fusion_lon": 0.0}, {"rental_uris": {"ios": "https://dc.lft.to/lastmile_qr_scan", "android": "https://dc.lft.to/lastmile_qr_scan"}, "type": "electric_scooter", "name": "3de3966101af00b1cf318f392f1607bb", "is_reserved": 0, "lon": -77.0740175, "is_disabled": 0, "fusion_lat": 0.0, "lat": 38.9374445, "bike_id": "3de3966101af00b1cf318f392f1607bb", "fusion_lon": 0.0}, {"rental_uris": {"ios": "https://dc.lft.to/lastmile_qr_scan", "android": "https://dc.lft.to/lastmile_qr_scan"}, "type": "electric_bike", "name": "94ec12321e1ff4a47e509874fad66b29", "is_reserved": 0, "lon": -76.95064266666667, "is_disabled": 0, "fusion_lat": 0.0, "lat": 39.08511016666667, "bike_id": "94ec12321e1ff4a47e509874fad66b29", "fusion_lon": 0.0}, {"rental_uris": {"ios": "https://dc.lft.to/lastmile_qr_scan", "android": "https://dc.lft.to/lastmile_qr_scan"},