{"data": {"bikes": [{"is_reserved": 0, "type": "electric_scooter", "fusion_lat": 0.0, "is_disabled": 0, "rental_uris": {"ios": "https://dc.lft.to/lastmile_qr_scan", "android": "https://dc.lft.to/lastmile_qr_scan"}, "bike_id": "be48bd0e5a1278d630bfb8a5207ebec5", "lat": 38.899800666666664, "name": "be48bd0e5a1278d630bfb8a5207ebec5", "lon": -77.04194566666666, "fusion_lon": 0.0}, {"is_reserved": 0, "type": "electric_scooter", "fusion_lat": 0.0, "is_disabled": 0, "rental_uris": {"ios": "https://dc.lft.to/lastmile_qr_scan", "android": "https://dc.lft.to/lastmile_qr_scan"}, "bike_id": "70ac15e85b3c9ef360e5a61684dfdd23", "lat": 38.91967233333333, "name": "70ac15e85b3c9ef360e5a61684dfdd23", "lon": -77.03952233333334, "fusion_lon": 0.0}, {"is_reserved": 0, "type": "electric_scooter", "fusion_lat": 0.0, "is_disabled": 0, "rental_uris": {"ios": "https://dc.lft.to/lastmile_qr_scan", "android": "https://dc.lft.to/lastmile_qr_scan"}, "bike_id": "12c8a20173e8f8719c0f802fea73cff7", "lat": 38.9200775, "name": "12c8a20173e8f8719c0f802fea73cff7", "lon": -77.0417725, "fusion_lon": 0.0}, {"is_reserved": 0, "type": "electric_scooter", "fusion_lat": 0.0, "is_disabled": 0, "rental_uris": {"ios": "https://dc.lft.to/lastmile_qr_scan", "android": "https://dc.lft.to/lastmile_qr_scan"}, "bike_id": "4efb17bd6aa437e6dcc67e030101ea35", "lat": 38.892321, "name": "4efb17bd6aa437e6dcc67e030101ea35", "lon": -77.0238405, "fusion_lon": 0.0}, {"is_reserved": 0, "type": "electric_scooter", "fusion_lat": 0.0, "is_disabled": 0, "rental_uris": {"ios": "https://dc.lft.to/lastmile_qr_scan", "android": "https://dc.lft.to/lastmile_qr_scan"}, "bike_id": "3fe791fdfb04f802ff89bf862b1aed69", "lat": 38.8854535, "name": "3fe791fdfb04f802ff89bf862b1aed69", "lon": -76.95461333333333, "fusion_lon": 0.0}, {"is_reserved": 0, "type": "electric_scooter", "fusion_lat": 0.0, "is_disabled": 0, "rental_uris": {"ios": "https://dc.lft.to/lastmile_qr_scan", "android": "https://dc.lft.to/lastmile_qr_scan"}, "bike_id": "13376949fd3b664cda2882704d6655f5", "lat": 38.94308383333333, "name": "13376949fd3b664cda2882704d6655f5", "lon": -77.07637566666666, "fusion_lon": 0.0}, {"is_reserved": 0, "type": "electric_scooter", "fusion_lat": 0.0, "is_disabled": 0, "rental_uris": {"ios": "https://dc.lft.to/lastmile_qr_scan", "android": "https://dc.lft.to/lastmile_qr_scan"}, "bike_id": "b71817d6380b7372befde1d68096c0a2", "lat": 38.91534266666667, "name": "b71817d6380b7372befde1d68096c0a2", "lon": -77.0443195, "fusion_lon": 0.0}, {"is_reserved": 0, "type": "electric_scooter", "fusion_lat": 0.0, "is_disabled": 0, "rental_uris": {"ios": "https://dc.lft.to/lastmile_qr_scan", "android": "https://dc.lft.to/lastmile_qr_scan"}, "bike_id": "3640ac65ff3903ca9a3503fff9e12123", "lat": 38.909503666666666, "name": "3640ac65ff3903ca9a3503fff9e12123", "lon": -77.046565, "fusion_lon": 0.0}, {"is_reserved": 0, "type": "electric_scooter", "fusion_lat": 0.0, "is_disabled": 0, "rental_uris": {"ios": "https://dc.lft.to/lastmile_qr_scan", "android": "https://dc.lft.to/lastmile_qr_scan"}, "bike_id": "4c193a18fa4fa5d805262f736d7607ca", "lat": 38.9027375, "name": "4c193a18fa4fa5d805262f736d7607ca", "lon": -77.03969716666667, "fusion_lon": 0.0}, {"is_reserved": 0, "type": "electric_scooter", "fusion_lat": 0.0, "is_disabled": 0, "rental_uris": {"ios": "https://dc.lft.to/lastmile_qr_scan", "android": "https://dc.lft.to/lastmile_qr_scan"}, "bike_id": "5ed5d6ff1e25131b2f253c9e943b2a6a", "lat": 38.921670166666665, "name": "5ed5d6ff1e25131b2f253c9e943b2a6a", "lon": -77.04114233333334, "fusion_lon": 0.0}, {"is_reserved": 0, "type": "electric_scooter", "fusion_lat": 0.0, "is_disabled": 0, "rental_uris": {"ios": "https://dc.lft.to/lastmile_qr_scan", "android": "https://dc.lft.to/lastmile_qr_scan"}, "bike_id": "e27653f968d614a8f579c4f7d4e89ac3", "lat": 38.91986583333333, "name": "e27653f968d614a8f579c4f7d4e89ac3", "lon": -77.041569, "fusion_lon": 0.0}, {"is_reserved": 0, "type": "electric_scooter", "fusion_lat": 0.0, "is_disabled": 0, "rental_uris": {"ios": "https://dc.lft.to/lastmile_qr_scan", "android": "https://dc.lft.to/lastmile_qr_scan"}, "bike_id": "23c66f6a95365813400bcdde4c43e079", "lat": 38.90560166666667, "name": "23c66f6a95365813400bcdde4c43e079", "lon": -77.04383383333334, "fusion_lon": 0.0}, {"is_reserved": 0, "type": "electric_scooter", "fusion_lat": 0.0, "is_disabled": 0, "rental_uris": {"ios": "https://dc.lft.to/lastmile_qr_scan", "android": "https://dc.lft.to/lastmile_qr_scan"}, "bike_id": "8000d183a5834a804b8b11ed162ce929", "lat": 38.93099566666667, "name": "8000d183a5834a804b8b11ed162ce929", "lon": -77.02484833333334, "fusion_lon": 0.0}, {"is_reserved": 0, "type": "electric_scooter", "fusion_lat": 0.0, "is_disabled": 0, "rental_uris": {"ios": "https://dc.lft.to/lastmile_qr_scan", "android": "https://dc.lft.to/lastmile_qr_scan"}, "bike_id": "789547362daeee20224a6b77e9b27e46", "lat": 38.883687, "name": "789547362daeee20224a6b77e9b27e46", "lon": -76.99515466666666, "fusion_lon": 0.0}, {"is_reserved": 0, "type": "electric_scooter", "fusion_lat": 0.0, "is_disabled": 0, "rental_uris": {"ios": "https://dc.lft.to/lastmile_qr_scan", "android": "https://dc.lft.to/lastmile_qr_scan"}, "bike_id": "0c6e8d0ee162c83a92865454612eac57", "lat": 38.877341, "name": "0c6e8d0ee162c83a92865454612eac57", "lon": -77.00603316666667, "fusion_lon": 0.0}, {"is_reserved": 0, "type": "electric_scooter", "fusion_lat": 0.0, "is_disabled": 0, "rental_uris": {"ios": "https://dc.lft.to/lastmile_qr_scan", "android": "https://dc.lft.to/lastmile_qr_scan"}, "bike_id": "f85bdb6c70bfe4833779f79762b81fdb", "lat": 38.92803133333334, "name": "f85bdb6c70bfe4833779f79762b81fdb", "lon": -77.03695816666666, "fusion_lon": 0.0}, {"is_reserved": 0, "type": "electric_scooter", "fusion_lat": 0.0, "is_disabled": 0, "rental_uris": {"ios": "https://dc.lft.to/lastmile_qr_scan", "android": "https://dc.lft.to/lastmile_qr_scan"}, "bike_id": "4568bd23bbb67fa06b3a6ca91bcf3474", "lat": 38.9027035, "name": "4568bd23bbb67fa06b3a6ca91bcf3474", "lon": -77.039692, "fusion_lon": 0.0}, {"is_reserved": 0, "type": "electric_scooter", "fusion_lat": 0.0, "is_disabled": 0, "rental_uris": {"ios": "https://dc.lft.to/lastmile_qr_scan", "android": "https://dc.lft.to/lastmile_qr_scan"}, "bike_id": "91d399b19586c2b2b3db0271bce24991", "lat": 38.893405, "name": "91d399b19586c2b2b3db0271bce24991", "lon": -76.98556533333333, "fusion_lon": 0.0}, {"is_reserved": 0, "type": "electric_scooter", "fusion_lat": 0.0, "is_disabled": 0, "rental_uris": {"ios": "https://dc.lft.to/lastmile_qr_scan", "android": "https://dc.lft.to/lastmile_qr_scan"}, "bike_id": "a92537a11e6bff7e561ca20ce9d7416f", "lat": 38.917032, "name": "a92537a11e6bff7e561ca20ce9d7416f", "lon": -77.04046116666666, "fusion_lon": 0.0}, {"is_reserved": 0, "type": "electric_scooter", "fusion_lat": 0.0, "is_disabled": 0, "rental_uris": {"ios": "https://dc.lft.to/lastmile_qr_scan", "android": "https://dc.lft.to/lastmile_qr_scan"}, "bike_id": "74c8b145fc5d963c7aa442bb1115c10d", "lat": 38.91876466666667, "name": "74c8b145fc5d963c7aa442bb1115c10d", "lon": -77.03530533333333, "fusion_lon": 0.0}, {"is_reserved": 0, "type": "electric_scooter", "fusion_lat": 0.0, "is_disabled": 0, "rental_uris": {"ios": "https://dc.lft.to/lastmile_qr_scan", "android": "https://dc.lft.to/lastmile_qr_scan"}, "bike_id": "06721d9bae60aa3101ff8e45b15bd5d7", "lat": 38.935901, "name": "06721d9bae60aa3101ff8e45b15bd5d7", "lon": -77.07423, "fusion_lon": 0.0}, {"is_reserved": 0, "type": "electric_scooter", "fusion_lat": 0.0, "is_disabled": 0, "rental_uris": {"ios": "https://dc.lft.to/lastmile_qr_scan", "android": "https://dc.lft.to/lastmile_qr_scan"}, "bike_id": "2199fd87e996299209f21cb679906340", "lat": 38.892182166666665, "name": "2199fd87e996299209f21cb679906340", "lon": -77.02540783333333, "fusion_lon": 0.0}, {"is_reserved": 0, "type": "electric_scooter", "fusion_lat": 0.0, "is_disabled": 0, "rental_uris": {"ios": "https://dc.lft.to/lastmile_qr_scan", "android": "https://dc.lft.to/lastmile_qr_scan"}, "bike_id": "95cd00eddc8536faa4f7d073a30503ab", "lat": 38.90777533333333, "name": "95cd00eddc8536faa4f7d073a30503ab", "lon": -77.07258516666667, "fusion_lon": 0.0}, {"is_reserved": 0, "type": "electric_scooter", "fusion_lat": 0.0, "is_disabled": 0, "rental_uris": {"ios": "https://dc.lft.to/lastmile_qr_scan", "android": "https://dc.lft.to/lastmile_qr_scan"}, "bike_id": "91d0d30e3f8ab9bd57ad56c6c42e4906", "lat": 38.92497683333333, "name": "91d0d30e3f8ab9bd57ad56c6c42e4906", "lon": -77.04334033333333, "fusion_lon": 0.0}, {"is_reserved": 0, "type": "electric_scooter", "fusion_lat": 0.0, "is_disabled": 0, "rental_uris": {"ios": "https://dc.lft.to/lastmile_qr_scan", "android": "https://dc.lft.to/lastmile_qr_scan"}, "bike_id": "cd03340ba9a10c111664abda542a775e", "lat": 38.887089333333336, "name": "cd03340ba9a10c111664abda542a775e", "lon": -76.983432, "fusion_lon": 0.0}, {"is_reserved": 0, "type": "electric_scooter", "fusion_lat": 0.0, "is_disabled": 0, "rental_uris": {"ios": "https://dc.lft.to/lastmile_qr_scan", "android": "https://dc.lft.to/lastmile_qr_scan"}, "bike_id": "b97718d3f21a094fc3c7a2e0ee352be1", "lat": 38.88546566666667, "name": "b97718d3f21a094fc3c7a2e0ee352be1", "lon": -77.00070333333333, "fusion_lon": 0.0}, {"is_reserved": 0, "type": "electric_scooter", "fusion_lat": 0.0, "is_disabled": 0, "rental_uris": {"ios": "https://dc.lft.to/lastmile_qr_scan", "android": "https://dc.lft.to/lastmile_qr_scan"}, "bike_id": "71aeed037b2622d29a6692414d31c9e0", "lat": 38.921778333333336, "name": "71aeed037b2622d29a6692414d31c9e0", "lon": -76.95637083333334, "fusion_lon": 0.0}, {"is_reserved": 0, "type": "electric_scooter", "fusion_lat": 0.0, "is_disabled": 0, "rental_uris": {"ios": "https://dc.lft.to/lastmile_qr_scan", "android": "https://dc.lft.to/lastmile_qr_scan"}, "bike_id": "a6c4bab1963cf5e085f9d3f4ad35a9fe", "lat": 38.908660166666664, "name": "a6c4bab1963cf5e085f9d3f4ad35a9fe", "lon": -77.00324683333334, "fusion_lon": 0.0}, {"is_reserved": 0, "type": "electric_scooter", "fusion_lat": 0.0, "is_disabled": 0, "rental_uris": {"ios": "https://dc.lft.to/lastmile_qr_scan", "android": "https://dc.lft.to/lastmile_qr_scan"}, "bike_id": "9e2ef4655a15470a60ab14d858270cb6", "lat": 38.92364933333333, "name": "9e2ef4655a15470a60ab14d858270cb6", "lon": -77.01957033333333, "fusion_lon": 0.0}, {"is_reserved": 0, "type": "electric_scooter", "fusion_lat": 0.0, "is_disabled": 0, "rental_uris": {"ios": "https://dc.lft.to/lastmile_qr_scan", "android": "https://dc.lft.to/lastmile_qr_scan"}, "bike_id": "7c4c2b169b7ec9beebf4f152396415de", "lat": 38.931144333333336, "name": "7c4c2b169b7ec9beebf4f152396415de", "lon": -77.02798316666667, "fusion_lon": 0.0}, {"is_reserved": 0, "type": "electric_scooter", "fusion_lat": 0.0, "is_disabled": 0, "rental_uris": {"ios": "https://dc.lft.to/lastmile_qr_scan", "android": "https://dc.lft.to/lastmile_qr_scan"}, "bike_id": "5082f1a429c959da187ef4d2e5022163", "lat": 38.9288545, "name": "5082f1a429c959da187ef4d2e5022163", "lon": -77.03733866666667, "fusion_lon": 0.0}, {"is_reserved": 0, "type": "electric_bike", "fusion_lat": 0.0, "is_disabled": 0, "rental_uris": {"ios": "https://dc.lft.to/lastmile_qr_scan", "android": "https://dc.lft.to/lastmile_qr_scan"}, "bike_id": "fb8f60285e3a094f846491912b1f0b57", "lat": 38.998704333333336, "name": "fb8f60285e3a094f846491912b1f0b57", "lon": -77.00386716666667, "fusion_lon": 0.0}, {"is_reserved": 0, "type": "electric_scooter", "fusion_lat": 0.0, "is_disabled": 0, "rental_uris": {"ios": "https://dc.lft.to/lastmile_qr_scan", "android": "https://dc.lft.to/lastmile_qr_scan"}, "bike_id": "bf809c22ad6fa947e26d4498daf55400", "lat": 38.8977965, "name": "bf809c22ad6fa947e26d4498daf55400", "lon": -77.05025883333333, "fusion_lon": 0.0}, {"is_reserved": 0, "type": "electric_scooter", "fusion_lat": 0.0, "is_disabled": 0, "rental_uris": {"ios": "https://dc.lft.to/lastmile_qr_scan", "android": "https://dc.lft.to/lastmile_qr_scan"}, "bike_id": "440ef4dba5ec2b790cb9c8d77a5cc5f9", "lat": 38.899627833333334, "name": "440ef4dba5ec2b790cb9c8d77a5cc5f9", "lon": -77.01997283333333, "fusion_lon": 0.0}, {"is_reserved": 0, "type": "electric_scooter", "fusion_lat": 0.0, "is_disabled": 0, "rental_uris": {"ios": "https://dc.lft.to/lastmile_qr_scan", "android": "https://dc.lft.to/lastmile_qr_scan"}, "bike_id": "e8c459fbe38a720eb0407ba843eefe79", "lat": 38.89664916666667, "name": "e8c459fbe38a720eb0407ba843eefe79", "lon": -76.93205866666666, "fusion_lon": 0.0}, {"is_reserved": 0, "type": "electric_scooter", "fusion_lat": 0.0, "is_disabled": 0, "rental_uris": {"ios": "https://dc.lft.to/lastmile_qr_scan", "android": "https://dc.lft.to/lastmile_qr_scan"}, "bike_id": "a2ed4bed76102d3bed4a2803b02fa038", "lat": 38.872091, "name": "a2ed4bed76102d3bed4a2803b02fa038", "lon": -76.9783855, "fusion_lon": 0.0}, {"is_reserved": 0, "type": "electric_scooter", "fusion_lat": 0.0, "is_disabled": 0, "rental_uris": {"ios": "https://dc.lft.to/lastmile_qr_scan", "android": "https://dc.lft.to/lastmile_qr_scan"}, "bike_id": "4d924d93202f0f39670b9b2049c07f55", "lat": 38.9050755, "name": "4d924d93202f0f39670b9b2049c07f55", "lon": -76.952048, "fusion_lon": 0.0}, {"is_reserved": 0, "type": "electric_scooter", "fusion_lat": 0.0, "is_disabled": 0, "rental_uris": {"ios": "https://dc.lft.to/lastmile_qr_scan", "android": "https://dc.lft.to/lastmile_qr_scan"}, "bike_id": "bdabe7c24b3df79e36da5f6fe3099645", "lat": 38.883077, "name": "bdabe7c24b3df79e36da5f6fe3099645", "lon": -76.993688, "fusion_lon": 0.0}, {"is_reserved": 0, "type": "electric_scooter", "fusion_lat": 0.0, "is_disabled": 0, "rental_uris": {"ios": "https://dc.lft.to/lastmile_qr_scan", "android": "https://dc.lft.to/lastmile_qr_scan"}, "bike_id": "85b69d69627d2333812205bc485964e0", "lat": 38.88362166666667, "name": "85b69d69627d2333812205bc485964e0", "lon": -76.9576535, "fusion_lon": 0.0}, {"is_reserved": 0, "type": "electric_scooter", "fusion_lat": 0.0, "is_disabled": 0, "rental_uris": {"ios": "https://dc.lft.to/lastmile_qr_scan", "android": "https://dc.lft.to/lastmile_qr_scan"}, "bike_id": "4aca55e9feeb58daf0982281e6ace44b", "lat": 38.9026775, "name": "4aca55e9feeb58daf0982281e6ace44b", "lon": -77.020069, "fusion_lon": 0.0}, {"is_reserved": 0, "type": "electric_bike", "fusion_lat": 0.0, "is_disabled": 0, "rental_uris": {"ios": "https://dc.lft.to/lastmile_qr_scan", "android": "https://dc.lft.to/lastmile_qr_scan"}, "bike_id": "47c95d50e690302e6582a8bd4043e9c1", "lat": 38.86010533333334, "name": "47c95d50e690302e6582a8bd4043e9c1", "lon": -77.06528183333333, "fusion_lon": 0.0}, {"is_reserved": 0, "type": "electric_scooter", "fusion_lat": 0.0, "is_disabled": 0, "rental_uris": {"ios": "https://dc.lft.to/lastmile_qr_scan", "android": "https://dc.lft.to/lastmile_qr_scan"}, "bike_id": "676072f6f45be34947d03827f162b8da", "lat": 38.919390166666666, "name": "676072f6f45be34947d03827f162b8da", "lon": -77.0138955, "fusion_lon": 0.0}, {"is_reserved": 0, "type": "electric_scooter", "fusion_lat": 0.0, "is_disabled": 0, "rental_uris": {"ios": "https://dc.lft.to/lastmile_qr_scan", "android": "https://dc.lft.to/lastmile_qr_scan"}, "bike_id": "7410bda57f8288ad22638dcfb4963a70", "lat": 38.93842333333333, "name": "7410bda57f8288ad22638dcfb4963a70", "lon": -77.01951166666667, "fusion_lon": 0.0}, {"is_reserved": 0, "type": "electric_scooter", "fusion_lat": 0.0, "is_disabled": 0, "rental_uris": {"ios": "https://dc.lft.to/lastmile_qr_scan", "android": "https://dc.lft.to/lastmile_qr_scan"}, "bike_id": "eb6f4209c022dfafa6f3d6ef0b42d135", "lat": 38.89729233333333, "name": "eb6f4209c022dfafa6f3d6ef0b42d135", "lon": -77.01914883333333, "fusion_lon": 0.0}, {"is_reserved": 0, "type": "electric_scooter", "fusion_lat": 0.0, "is_disabled": 0, "rental_uris": {"ios": "https://dc.lft.to/lastmile_qr_scan", "android": "https://dc.lft.to/lastmile_qr_scan"}, "bike_id": "d93e0d07609f98f94c5223e403dea6c3", "lat": 38.905654166666665, "name": "d93e0d07609f98f94c5223e403dea6c3", "lon": -77.00647116666667, "fusion_lon": 0.0}, {"is_reserved": 0, "type": "electric_scooter", "fusion_lat": 0.0, "is_disabled": 0, "rental_uris": {"ios": "https://dc.lft.to/lastmile_qr_scan", "android": "https://dc.lft.to/lastmile_qr_scan"}, "bike_id": "0e25bd9621b3d36478beb41aaf87a372", "lat": 38.916402833333336, "name": "0e25bd9621b3d36478beb41aaf87a372", "lon": -77.01434016666667, "fusion_lon": 0.0}, {"is_reserved": 0, "type": "electric_scooter", "fusion_lat": 0.0, "is_disabled": 0, "rental_uris": {"ios": "https://dc.lft.to/lastmile_qr_scan", "android": "https://dc.lft.to/lastmile_qr_scan"}, "bike_id": "604bf7b2ed2ba2a8800e1fc8bb75aa89", "lat": 38.87853483333333, "name": "604bf7b2ed2ba2a8800e1fc8bb75aa89", "lon": -77.00701783333334, "fusion_lon": 0.0}, {"is_reserved": 0, "type": "electric_scooter", "fusion_lat": 0.0, "is_disabled": 0, "rental_uris": {"ios": "https://dc.lft.to/lastmile_qr_scan", "android": "https://dc.lft.to/lastmile_qr_scan"}, "bike_id": "60e9b3f5adcb5780fc1971053b69b3de", "lat": 38.90383333333333, "name": "60e9b3f5adcb5780fc1971053b69b3de", "lon": -77.03198666666667, "fusion_lon": 0.0}, {"is_reserved": 0, "type": "electric_scooter", "fusion_lat": 0.0, "is_disabled": 0, "rental_uris": {"ios": "https://dc.lft.to/lastmile_qr_scan", "android": "https://dc.lft.to/lastmile_qr_scan"}, "bike_id": "a84ae67be9dbd5580b6ebbc437208e31", "lat": 38.921050666666666, "name": "a84ae67be9dbd5580b6ebbc437208e31", "lon": -77.04704883333333, "fusion_lon": 0.0}, {"is_reserved": 0, "type": "electric_scooter", "fusion_lat": 0.0, "is_disabled": 0, "rental_uris": {"ios": "https://dc.lft.to/lastmile_qr_scan", "android": "https://dc.lft.to/lastmile_qr_scan"}, "bike_id": "d66fd734d43e9fb941df0584a4264120", "lat": 38.930814, "name": "d66fd734d43e9fb941df0584a4264120", "lon": -77.02681466666667, "fusion_lon": 0.0}, {"is_reserved": 0, "type": "electric_scooter", "fusion_lat": 0.0, "is_disabled": 0, "rental_uris": {"ios": "https://dc.lft.to/lastmile_qr_scan", "android": "https://dc.lft.to/lastmile_qr_scan"}, "bike_id": "7578921887075bc579d69b6ca83d8d94", "lat": 38.9141205, "name": "7578921887075bc579d69b6ca83d8d94", "lon": -77.03093583333333, "fusion_lon": 0.0}, {"is_reserved": 0, "type": "electric_scooter", "fusion_lat": 0.0, "is_disabled": 0, "rental_uris": {"ios": "https://dc.lft.to/lastmile_qr_scan", "android": "https://dc.lft.to/lastmile_qr_scan"}, "bike_id": "2b2308c404df3f8a3ff9af4fa9c46270", "lat": 38.9192335, "name": "2b2308c404df3f8a3ff9af4fa9c46270", "lon": -77.03420183333333, "fusion_lon": 0.0}, {"is_reserved": 0, "type": "electric_scooter", "fusion_lat": 0.0, "is_disabled": 0, "rental_uris": {"ios": "https://dc.lft.to/lastmile_qr_scan", "android": "https://dc.lft.to/lastmile_qr_scan"}, "bike_id": "c6633820df4e0129a1377542986f12c1", "lat": 38.87920283333333, "name": "c6633820df4e0129a1377542986f12c1", "lon": -77.01698766666667, "fusion_lon": 0.0}, {"is_reserved": 0, "type": "electric_scooter", "fusion_lat": 0.0, "is_disabled": 0, "rental_uris": {"ios": "https://dc.lft.to/lastmile_qr_scan", "android": "https://dc.lft.to/lastmile_qr_scan"}, "bike_id": "75c016210298569cc4744744ff5ee0bb", "lat": 38.93253766666667, "name": "75c016210298569cc4744744ff5ee0bb", "lon": -77.03288783333333, "fusion_lon": 0.0}, {"is_reserved": 0, "type": "electric_scooter", "fusion_lat": 0.0, "is_disabled": 0, "rental_uris": {"ios": "https://dc.lft.to/lastmile_qr_scan", "android": "https://dc.lft.to/lastmile_qr_scan"}, "bike_id": "4fa01d096cbbcabe03aae59ee996a425", "lat": 38.8737175, "name": "4fa01d096cbbcabe03aae59ee996a425", "lon": -77.00134083333333, "fusion_lon": 0.0}, {"is_reserved": 0, "type": "electric_bike", "fusion_lat": 0.0, "is_disabled": 0, "rental_uris": {"ios": "https://dc.lft.to/lastmile_qr_scan", "android": "https://dc.lft.to/lastmile_qr_scan"}, "bike_id": "21a0d24cc22f8322b6b098ec152b8f67", "lat": 38.864403833333334, "name": "21a0d24cc22f8322b6b098ec152b8f67", "lon": -76.96987266666666, "fusion_lon": 0.0}, {"is_reserved": 0, "type": "electric_scooter", "fusion_lat": 0.0, "is_disabled": 0, "rental_uris": {"ios": "https://dc.lft.to/lastmile_qr_scan", "android": "https://dc.lft.to/lastmile_qr_scan"}, "bike_id": "de526b1c2620cc378dbcdd7ea1552a59", "lat": 38.91735333333333, "name": "de526b1c2620cc378dbcdd7ea1552a59", "lon": -77.0688735, "fusion_lon": 0.0}, {"is_reserved": 0, "type": "electric_scooter", "fusion_lat": 0.0, "is_disabled": 0, "rental_uris": {"ios": "https://dc.lft.to/lastmile_qr_scan", "android": "https://dc.lft.to/lastmile_qr_scan"}, "bike_id": "92f0372565d6635bd0ca365cc37e379c", "lat": 38.89850883333333, "name": "92f0372565d6635bd0ca365cc37e379c", "lon": -76.994947, "fusion_lon": 0.0}, {"is_reserved": 0, "type": "electric_scooter", "fusion_lat": 0.0, "is_disabled": 0, "rental_uris": {"ios": "https://dc.lft.to/lastmile_qr_scan", "android": "https://dc.lft.to/lastmile_qr_scan"}, "bike_id": "d60632f04162a8c94b08d36205ba9162", "lat": 38.90570183333333, "name": "d60632f04162a8c94b08d36205ba9162", "lon": -77.0276245, "fusion_lon": 0.0}, {"is_reserved": 0, "type": "electric_scooter", "fusion_lat": 0.0, "is_disabled": 0, "rental_uris": {"ios": "https://dc.lft.to/lastmile_qr_scan", "android": "https://dc.lft.to/lastmile_qr_scan"}, "bike_id": "c279793e396c881e0ee4a6a4e042180f", "lat": 38.888636166666664, "name": "c279793e396c881e0ee4a6a4e042180f", "lon": -77.04904833333333, "fusion_lon": 0.0}, {"is_reserved": 0, "type": "electric_scooter", "fusion_lat": 0.0, "is_disabled": 0, "rental_uris": {"ios": "https://dc.lft.to/lastmile_qr_scan", "android": "https://dc.lft.to/lastmile_qr_scan"}, "bike_id": "db3bb3b7300105d43c24f55603ba1de8", "lat": 38.9214415, "name": "db3bb3b7300105d43c24f55603ba1de8", "lon": -77.045864, "fusion_lon": 0.0}, {"is_reserved": 0, "type": "electric_scooter", "fusion_lat": 0.0, "is_disabled": 0, "rental_uris": {"ios": "https://dc.lft.to/lastmile_qr_scan", "android": "https://dc.lft.to/lastmile_qr_scan"}, "bike_id": "e3e28020dd0ea92ec84f9709116be4bd", "lat": 38.949227, "name": "e3e28020dd0ea92ec84f9709116be4bd", "lon": -77.01862066666666, "fusion_lon": 0.0}, {"is_reserved": 0, "type": "electric_scooter", "fusion_lat": 0.0, "is_disabled": 0, "rental_uris": {"ios": "https://dc.lft.to/lastmile_qr_scan", "android": "https://dc.lft.to/lastmile_qr_scan"}, "bike_id": "06160d770f5b9d4291a16fb910f568f5", "lat": 38.8861155, "name": "06160d770f5b9d4291a16fb910f568f5", "lon": -77.022086, "fusion_lon": 0.0}, {"is_reserved": 0, "type": "electric_scooter", "fusion_lat": 0.0, "is_disabled": 0, "rental_uris": {"ios": "https://dc.lft.to/lastmile_qr_scan", "android": "https://dc.lft.to/lastmile_qr_scan"}, "bike_id": "000f5666e7b30ada869b102d718b2a44", "lat": 38.90302716666667, "name": "000f5666e7b30ada869b102d718b2a44", "lon": -76.998398, "fusion_lon": 0.0}, {"is_reserved": 0, "type": "electric_scooter", "fusion_lat": 0.0, "is_disabled": 0, "rental_uris": {"ios": "https://dc.lft.to/lastmile_qr_scan", "android": "https://dc.lft.to/lastmile_qr_scan"}, "bike_id": "4aa832420a43357820a689dfbc80379f", "lat": 38.8967245, "name": "4aa832420a43357820a689dfbc80379f", "lon": -76.94911, "fusion_lon": 0.0}, {"is_reserved": 0, "type": "electric_scooter", "fusion_lat": 0.0, "is_disabled": 0, "rental_uris": {"ios": "https://dc.lft.to/lastmile_qr_scan", "android": "https://dc.lft.to/lastmile_qr_scan"}, "bike_id": "7ffb1da78b2780d8557aa6098725de48", "lat": 38.92159633333333, "name": "7ffb1da78b2780d8557aa6098725de48", "lon": -77.038417, "fusion_lon": 0.0}, {"is_reserved": 0, "type": "electric_scooter", "fusion_lat": 0.0, "is_disabled": 0, "rental_uris": {"ios": "https://dc.lft.to/lastmile_qr_scan", "android": "https://dc.lft.to/lastmile_qr_scan"}, "bike_id": "8433b5722907ecf0938c12b13229999e", "lat": 38.92481016666667, "name": "8433b5722907ecf0938c12b13229999e", "lon": -77.02546883333333, "fusion_lon": 0.0}, {"is_reserved": 0, "type": "electric_scooter", "fusion_lat": 0.0, "is_disabled": 0, "rental_uris": {"ios": "https://dc.lft.to/lastmile_qr_scan", "android": "https://dc.lft.to/lastmile_qr_scan"}, "bike_id": "32c054b63f2974a0bbdddc61d5a87812", "lat": 38.91989566666667, "name": "32c054b63f2974a0bbdddc61d5a87812", "lon": -77.07110016666667, "fusion_lon": 0.0}, {"is_reserved": 0, "type": "electric_scooter", "fusion_lat": 0.0, "is_disabled": 0, "rental_uris": {"ios": "https://dc.lft.to/lastmile_qr_scan", "android": "https://dc.lft.to/lastmile_qr_scan"}, "bike_id": "c552bf3c5e9e9eb76c34c4d986f1d740", "lat": 38.9282695, "name": "c552bf3c5e9e9eb76c34c4d986f1d740", "lon": -77.0216185, "fusion_lon": 0.0}, {"is_reserved": 0, "type": "electric_scooter", "fusion_lat": 0.0, "is_disabled": 0, "rental_uris": {"ios": "https://dc.lft.to/lastmile_qr_scan", "android": "https://dc.lft.to/lastmile_qr_scan"}, "bike_id": "ae45051346f9399d487555790407a875", "lat": 38.9125765, "name": "ae45051346f9399d487555790407a875", "lon": -77.03882716666666, "fusion_lon": 0.0}, {"is_reserved": 0, "type": "electric_scooter", "fusion_lat": 0.0, "is_disabled": 0, "rental_uris": {"ios": "https://dc.lft.to/lastmile_qr_scan", "android": "https://dc.lft.to/lastmile_qr_scan"}, "bike_id": "df7528b925835ecf16a7b12e9cd384c6", "lat": 38.91600866666667, "name": "df7528b925835ecf16a7b12e9cd384c6", "lon": -76.98392, "fusion_lon": 0.0}, {"is_reserved": 0, "type": "electric_scooter", "fusion_lat": 0.0, "is_disabled": 0, "rental_uris": {"ios": "https://dc.lft.to/lastmile_qr_scan", "android": "https://dc.lft.to/lastmile_qr_scan"}, "bike_id": "fea759c968176f2a289db8643a0423fd", "lat": 38.93977916666667, "name": "fea759c968176f2a289db8643a0423fd", "lon": -77.0288075, "fusion_lon": 0.0}, {"is_reserved": 0, "type": "electric_bike", "fusion_lat": 0.0, "is_disabled": 0, "rental_uris": {"ios": "https://dc.lft.to/lastmile_qr_scan", "android": "https://dc.lft.to/lastmile_qr_scan"}, "bike_id": "698bf1d62c772cad5b9236249420cf08", "lat": 38.882776166666666, "name": "698bf1d62c772cad5b9236249420cf08", "lon": -76.932363, "fusion_lon": 0.0}, {"is_reserved": 0, "type": "electric_scooter", "fusion_lat": 0.0, "is_disabled": 0, "rental_uris": {"ios": "https://dc.lft.to/lastmile_qr_scan", "android": "https://dc.lft.to/lastmile_qr_scan"}, "bike_id": "c7d2c385983772dc53bc953ea64b30c5", "lat": 38.89458333333333, "name": "c7d2c385983772dc53bc953ea64b30c5", "lon": -77.02729316666667, "fusion_lon": 0.0}, {"is_reserved": 0, "type": "electric_scooter", "fusion_lat": 0.0, "is_disabled": 0, "rental_uris": {"ios": "https://dc.lft.to/lastmile_qr_scan", "android": "https://dc.lft.to/lastmile_qr_scan"}, "bike_id": "f929699f82eae5eda8c962c3eb10834c", "lat": 38.892268333333334, "name": "f929699f82eae5eda8c962c3eb10834c", "lon": -77.0449085, "fusion_lon": 0.0}, {"is_reserved": 0, "type": "electric_scooter", "fusion_lat": 0.0, "is_disabled": 0, "rental_uris": {"ios": "https://dc.lft.to/lastmile_qr_scan", "android": "https://dc.lft.to/lastmile_qr_scan"}, "bike_id": "c0d9db73ee20a123e57ca85e7ae00445", "lat": 38.92723316666667, "name": "c0d9db73ee20a123e57ca85e7ae00445", "lon": -77.0315335, "fusion_lon": 0.0}, {"is_reserved": 0, "type": "electric_scooter", "fusion_lat": 0.0, "is_disabled": 0, "rental_uris": {"ios": "https://dc.lft.to/lastmile_qr_scan", "android": "https://dc.lft.to/lastmile_qr_scan"}, "bike_id": "33fd104078769ff350196ef8187d10bb", "lat": 38.9112145, "name": "33fd104078769ff350196ef8187d10bb", "lon": -77.00488216666666, "fusion_lon": 0.0}, {"is_reserved": 0, "type": "electric_scooter", "fusion_lat": 0.0, "is_disabled": 0, "rental_uris": {"ios": "https://dc.lft.to/lastmile_qr_scan", "android": "https://dc.lft.to/lastmile_qr_scan"}, "bike_id": "a2919a0210160a87f565028435d9a705", "lat": 38.920368833333335, "name": "a2919a0210160a87f565028435d9a705", "lon": -77.04179516666666, "fusion_lon": 0.0}, {"is_reserved": 0, "type": "electric_scooter", "fusion_lat": 0.0, "is_disabled": 0, "rental_uris": {"ios": "https://dc.lft.to/lastmile_qr_scan", "android": "https://dc.lft.to/lastmile_qr_scan"}, "bike_id": "b676dd27b44cb87c008783f163bee7fe", "lat": 38.907630833333336, "name": "b676dd27b44cb87c008783f163bee7fe", "lon": -77.02403633333333, "fusion_lon": 0.0}, {"is_reserved": 0, "type": "electric_scooter", "fusion_lat": 0.0, "is_disabled": 0, "rental_uris": {"ios": "https://dc.lft.to/lastmile_qr_scan", "android": "https://dc.lft.to/lastmile_qr_scan"}, "bike_id": "ed5862478f35db25eee5d7ce8668c0ed", "lat": 38.903011, "name": "ed5862478f35db25eee5d7ce8668c0ed", "lon": -76.9984065, "fusion_lon": 0.0}, {"is_reserved": 0, "type": "electric_scooter", "fusion_lat": 0.0, "is_disabled": 0, "rental_uris": {"ios": "https://dc.lft.to/lastmile_qr_scan", "android": "https://dc.lft.to/lastmile_qr_scan"}, "bike_id": "0e07623c70388994f9ddab34653f716f", "lat": 38.9206895, "name": "0e07623c70388994f9ddab34653f716f", "lon": -77.04380483333334, "fusion_lon": 0.0}, {"is_reserved": 0, "type": "electric_scooter", "fusion_lat": 0.0, "is_disabled": 0, "rental_uris": {"ios": "https://dc.lft.to/lastmile_qr_scan", "android": "https://dc.lft.to/lastmile_qr_scan"}, "bike_id": "003c1b4b7d590663011599d3ce262eb5", "lat": 38.924846, "name": "003c1b4b7d590663011599d3ce262eb5", "lon": -77.02549433333333, "fusion_lon": 0.0}, {"is_reserved": 0, "type": "electric_scooter", "fusion_lat": 0.0, "is_disabled": 0, "rental_uris": {"ios": "https://dc.lft.to/lastmile_qr_scan", "android": "https://dc.lft.to/lastmile_qr_scan"}, "bike_id": "e02d0a7f531bc16cab338461439bb030", "lat": 38.903634, "name": "e02d0a7f531bc16cab338461439bb030", "lon": -76.978184, "fusion_lon": 0.0}, {"is_reserved": 0, "type": "electric_scooter", "fusion_lat": 0.0, "is_disabled": 0, "rental_uris": {"ios": "https://dc.lft.to/lastmile_qr_scan", "android": "https://dc.lft.to/lastmile_qr_scan"}, "bike_id": "729c57cd50bbcfbf7cd8fa01b5d5f076", "lat": 38.8800615, "name": "729c57cd50bbcfbf7cd8fa01b5d5f076", "lon": -76.998342, "fusion_lon": 0.0}, {"is_reserved": 0, "type": "electric_scooter", "fusion_lat": 0.0, "is_disabled": 0, "rental_uris": {"ios": "https://dc.lft.to/lastmile_qr_scan", "android": "https://dc.lft.to/lastmile_qr_scan"}, "bike_id": "b4599bbaf4a444c62057ff49b535076f", "lat": 38.89509733333333, "name": "b4599bbaf4a444c62057ff49b535076f", "lon": -76.94884466666667, "fusion_lon": 0.0}, {"is_reserved": 0, "type": "electric_scooter", "fusion_lat": 0.0, "is_disabled": 0, "rental_uris": {"ios": "https://dc.lft.to/lastmile_qr_scan", "android": "https://dc.lft.to/lastmile_qr_scan"}, "bike_id": "5422eab2a5e0b7aa4e8fe7c34c1059e9", "lat": 38.952243333333335, "name": "5422eab2a5e0b7aa4e8fe7c34c1059e9", "lon": -77.06883416666666, "fusion_lon": 0.0}, {"is_reserved": 0, "type": "electric_scooter", "fusion_lat": 0.0, "is_disabled": 0, "rental_uris": {"ios": "https://dc.lft.to/lastmile_qr_scan", "android": "https://dc.lft.to/lastmile_qr_scan"}, "bike_id": "ace1ce4eab99f955585ec2f7f1031735", "lat": 38.9400375, "name": "ace1ce4eab99f955585ec2f7f1031735", "lon": -77.077363, "fusion_lon": 0.0}, {"is_reserved": 0, "type": "electric_scooter", "fusion_lat": 0.0, "is_disabled": 0, "rental_uris": {"ios": "https://dc.lft.to/lastmile_qr_scan", "android": "https://dc.lft.to/lastmile_qr_scan"}, "bike_id": "b2ebb45cb5384668b7d8145093cea66e", "lat": 38.93008433333333, "name": "b2ebb45cb5384668b7d8145093cea66e", "lon": -77.02115183333333, "fusion_lon": 0.0}, {"is_reserved": 0, "type": "electric_scooter", "fusion_lat": 0.0, "is_disabled": 0, "rental_uris": {"ios": "https://dc.lft.to/lastmile_qr_scan", "android": "https://dc.lft.to/lastmile_qr_scan"}, "bike_id": "60a695ee380c73c849eeb882d45d0735", "lat": 38.92832683333334, "name": "60a695ee380c73c849eeb882d45d0735", "lon": -77.014122, "fusion_lon": 0.0}, {"is_reserved": 0, "type": "electric_scooter", "fusion_lat": 0.0, "is_disabled": 0, "rental_uris": {"ios": "https://dc.lft.to/lastmile_qr_scan", "android": "https://dc.lft.to/lastmile_qr_scan"}, "bike_id": "33b32436c2bdca32067600f96b7f382c", "lat": 38.90184216666667, "name": "33b32436c2bdca32067600f96b7f382c", "lon": -76.97668116666667, "fusion_lon": 0.0}, {"is_reserved": 0, "type": "electric_scooter", "fusion_lat": 0.0, "is_disabled": 0, "rental_uris": {"ios": "https://dc.lft.to/lastmile_qr_scan", "android": "https://dc.lft.to/lastmile_qr_scan"}, "bike_id": "8824745b73a96710f77d08ff79a81e71", "lat": 38.87884916666667, "name": "8824745b73a96710f77d08ff79a81e71", "lon": -76.96541766666667, "fusion_lon": 0.0}, {"is_reserved": 0, "type": "electric_bike", "fusion_lat": 0.0, "is_disabled": 0, "rental_uris": {"ios": "https://dc.lft.to/lastmile_qr_scan", "android": "https://dc.lft.to/lastmile_qr_scan"}, "bike_id": "51d86d30b4ddc9e5c3967e7573c8b575", "lat": 39.03470433333333, "name": "51d86d30b4ddc9e5c3967e7573c8b575", "lon": -77.04101316666667, "fusion_lon": 0.0}, {"is_reserved": 0, "type": "electric_scooter", "fusion_lat": 0.0, "is_disabled": 0, "rental_uris": {"ios": "https://dc.lft.to/lastmile_qr_scan", "android": "https://dc.lft.to/lastmile_qr_scan"}, "bike_id": "efe4c46ca5dba661f1daf3155303ed4e", "lat": 38.87402933333333, "name": "efe4c46ca5dba661f1daf3155303ed4e", "lon": -76.99993683333334, "fusion_lon": 0.0}, {"is_reserved": 0, "type": "electric_scooter", "fusion_lat": 0.0, "is_disabled": 0, "rental_uris": {"ios": "https://dc.lft.to/lastmile_qr_scan", "android": "https://dc.lft.to/lastmile_qr_scan"}, "bike_id": "6032e72b9079b0dc905df9b5b0a781b4", "lat": 38.89939583333334, "name": "6032e72b9079b0dc905df9b5b0a781b4", "lon": -76.9376845, "fusion_lon": 0.0}, {"is_reserved": 0, "type": "electric_scooter", "fusion_lat": 0.0, "is_disabled": 0, "rental_uris": {"ios": "https://dc.lft.to/lastmile_qr_scan", "android": "https://dc.lft.to/lastmile_qr_scan"}, "bike_id": "c6f4c5121e80ed6d57ff95964fdbb5f3", "lat": 38.91007316666666, "name": "c6f4c5121e80ed6d57ff95964fdbb5f3", "lon": -77.0442805, "fusion_lon": 0.0}, {"is_reserved": 0, "type": "electric_scooter", "fusion_lat": 0.0, "is_disabled": 0, "rental_uris": {"ios": "https://dc.lft.to/lastmile_qr_scan", "android": "https://dc.lft.to/lastmile_qr_scan"}, "bike_id": "2fb16a77ea5b3c5b1f28b6c4c65a48f4", "lat": 38.9160695, "name": "2fb16a77ea5b3c5b1f28b6c4c65a48f4", "lon": -77.03209516666666, "fusion_lon": 0.0}, {"is_reserved": 0, "type": "electric_bike", "fusion_lat": 0.0, "is_disabled": 0, "rental_uris": {"ios": "https://dc.lft.to/lastmile_qr_scan", "android": "https://dc.lft.to/lastmile_qr_scan"}, "bike_id": "19aeb8e0f02201e187704d1ac27c1e6c", "lat": 38.8305185, "name": "19aeb8e0f02201e187704d1ac27c1e6c", "lon": -77.00819633333333, "fusion_lon": 0.0}, {"is_reserved": 0, "type": "electric_scooter", "fusion_lat": 0.0, "is_disabled": 0, "rental_uris": {"ios": "https://dc.lft.to/lastmile_qr_scan", "android": "https://dc.lft.to/lastmile_qr_scan"}, "bike_id": "294b0d55818d4e1a9d8527091de7611c", "lat": 38.917164666666665, "name": "294b0d55818d4e1a9d8527091de7611c", "lon": -77.03858916666667, "fusion_lon": 0.0}, {"is_reserved": 0, "type": "electric_scooter", "fusion_lat": 0.0, "is_disabled": 0, "rental_uris": {"ios": "https://dc.lft.to/lastmile_qr_scan", "android": "https://dc.lft.to/lastmile_qr_scan"}, "bike_id": "d9979ddc65486c46af19a2d3ba7187f0", "lat": 38.89830666666667, "name": "d9979ddc65486c46af19a2d3ba7187f0", "lon": -77.02859533333333, "fusion_lon": 0.0}, {"is_reserved": 0, "type": "electric_scooter", "fusion_lat": 0.0, "is_disabled": 0, "rental_uris": {"ios": "https://dc.lft.to/lastmile_qr_scan", "android": "https://dc.lft.to/lastmile_qr_scan"}, "bike_id": "ed0100cd8bb5f2846ca5d6f5881fabce", "lat": 38.88641966666667, "name": "ed0100cd8bb5f2846ca5d6f5881fabce", "lon": -77.01228183333333, "fusion_lon": 0.0}, {"is_reserved": 0, "type": "electric_bike", "fusion_lat": 0.0, "is_disabled": 0, "rental_uris": {"ios": "https://dc.lft.to/lastmile_qr_scan", "android": "https://dc.lft.to/lastmile_qr_scan"}, "bike_id": "33dbb4a2bc091b7a91ea57319dbb04b3", "lat": 38.8462765, "name": "33dbb4a2bc091b7a91ea57319dbb04b3", "lon": -77.06933716666667, "fusion_lon": 0.0}, {"is_reserved": 0, "type": "electric_scooter", "fusion_lat": 0.0, "is_disabled": 0, "rental_uris": {"ios": "https://dc.lft.to/lastmile_qr_scan", "android": "https://dc.lft.to/lastmile_qr_scan"}, "bike_id": "d46da74d8d6afb1b7ed1f93016fc7b3e", "lat": 38.899640833333336, "name": "d46da74d8d6afb1b7ed1f93016fc7b3e", "lon": -76.983064, "fusion_lon": 0.0}, {"is_reserved": 0, "type": "electric_scooter", "fusion_lat": 0.0, "is_disabled": 0, "rental_uris": {"ios": "https://dc.lft.to/lastmile_qr_scan", "android": "https://dc.lft.to/lastmile_qr_scan"}, "bike_id": "3e9b97610b895dae2851b0830232c9a7", "lat": 38.899733833333336, "name": "3e9b97610b895dae2851b0830232c9a7", "lon": -77.04720283333333, "fusion_lon": 0.0}, {"is_reserved": 0, "type": "electric_scooter", "fusion_lat": 0.0, "is_disabled": 0, "rental_uris": {"ios": "https://dc.lft.to/lastmile_qr_scan", "android": "https://dc.lft.to/lastmile_qr_scan"}, "bike_id": "2c44706158b2efd5b81e44f74dd76a15", "lat": 38.903511, "name": "2c44706158b2efd5b81e44f74dd76a15", "lon": -77.01096183333334, "fusion_lon": 0.0}, {"is_reserved": 0, "type": "electric_scooter", "fusion_lat": 0.0, "is_disabled": 0, "rental_uris": {"ios": "https://dc.lft.to/lastmile_qr_scan", "android": "https://dc.lft.to/lastmile_qr_scan"}, "bike_id": "f82387459a8d9a9e95a90f4fcff85cdd", "lat": 38.932726333333335, "name": "f82387459a8d9a9e95a90f4fcff85cdd", "lon": -77.03080883333334, "fusion_lon": 0.0}, {"is_reserved": 0, "type": "electric_scooter", "fusion_lat": 0.0, "is_disabled": 0, "rental_uris": {"ios": "https://dc.lft.to/lastmile_qr_scan", "android": "https://dc.lft.to/lastmile_qr_scan"}, "bike_id": "bbbf15be587109827d4247808a165cad", "lat": 38.9254845, "name": "bbbf15be587109827d4247808a165cad", "lon": -77.00069533333334, "fusion_lon": 0.0}, {"is_reserved": 0, "type": "electric_scooter", "fusion_lat": 0.0, "is_disabled": 0, "rental_uris": {"ios": "https://dc.lft.to/lastmile_qr_scan", "android": "https://dc.lft.to/lastmile_qr_scan"}, "bike_id": "6224e895f26e37369c5eeb6dd95fe1cb", "lat": 38.903196666666666, "name": "6224e895f26e37369c5eeb6dd95fe1cb", "lon": -77.010979, "fusion_lon": 0.0}, {"is_reserved": 0, "type": "electric_scooter", "fusion_lat": 0.0, "is_disabled": 0, "rental_uris": {"ios": "https://dc.lft.to/lastmile_qr_scan", "android": "https://dc.lft.to/lastmile_qr_scan"}, "bike_id": "36e517603dd21d5f705ef8abccfb31a6", "lat": 38.90583216666667, "name": "36e517603dd21d5f705ef8abccfb31a6", "lon": -77.0453405, "fusion_lon": 0.0}, {"is_reserved": 0, "type": "electric_scooter", "fusion_lat": 0.0, "is_disabled": 0, "rental_uris": {"ios": "https://dc.lft.to/lastmile_qr_scan", "android": "https://dc.lft.to/lastmile_qr_scan"}, "bike_id": "13c45cd8e0c0c0852a6f0fc8dea1b2c7", "lat": 38.93532716666667, "name": "13c45cd8e0c0c0852a6f0fc8dea1b2c7", "lon": -77.02345883333334, "fusion_lon": 0.0}, {"is_reserved": 0, "type": "electric_scooter", "fusion_lat": 0.0, "is_disabled": 0, "rental_uris": {"ios": "https://dc.lft.to/lastmile_qr_scan", "android": "https://dc.lft.to/lastmile_qr_scan"}, "bike_id": "eb45520c0ad0c4c955c124b28fff8e78", "lat": 38.8919725, "name": "eb45520c0ad0c4c955c124b28fff8e78", "lon": -77.02220966666667, "fusion_lon": 0.0}, {"is_reserved": 0, "type": "electric_scooter", "fusion_lat": 0.0, "is_disabled": 0, "rental_uris": {"ios": "https://dc.lft.to/lastmile_qr_scan", "android": "https://dc.lft.to/lastmile_qr_scan"}, "bike_id": "2d46cd0d0ca74475c2ce79d92924eecd", "lat": 38.899659, "name": "2d46cd0d0ca74475c2ce79d92924eecd", "lon": -76.93763283333334, "fusion_lon": 0.0}, {"is_reserved": 0, "type": "electric_scooter", "fusion_lat": 0.0, "is_disabled": 0, "rental_uris": {"ios": "https://dc.lft.to/lastmile_qr_scan", "android": "https://dc.lft.to/lastmile_qr_scan"}, "bike_id": "3173291501fbf7d7d7dff99c66a724b7", "lat": 38.921496, "name": "3173291501fbf7d7d7dff99c66a724b7", "lon": -77.0351145, "fusion_lon": 0.0}, {"is_reserved": 0, "type": "electric_scooter", "fusion_lat": 0.0, "is_disabled": 0, "rental_uris": {"ios": "https://dc.lft.to/lastmile_qr_scan", "android": "https://dc.lft.to/lastmile_qr_scan"}, "bike_id": "0efd208c975e625c24c907528e43191f", "lat": 38.881932166666665, "name": "0efd208c975e625c24c907528e43191f", "lon": -77.00895566666667, "fusion_lon": 0.0}, {"is_reserved": 0, "type": "electric_scooter", "fusion_lat": 0.0, "is_disabled": 0, "rental_uris": {"ios": "https://dc.lft.to/lastmile_qr_scan", "android": "https://dc.lft.to/lastmile_qr_scan"}, "bike_id": "687c2ec985bd77eca8e553e672b6a1c1", "lat": 38.88862016666667, "name": "687c2ec985bd77eca8e553e672b6a1c1", "lon": -76.979119, "fusion_lon": 0.0}, {"is_reserved": 0, "type": "electric_scooter", "fusion_lat": 0.0, "is_disabled": 0, "rental_uris": {"ios": "https://dc.lft.to/lastmile_qr_scan", "android": "https://dc.lft.to/lastmile_qr_scan"}, "bike_id": "7b9729df1ed3de4038f42aa3cc1c6015", "lat": 38.9220795, "name": "7b9729df1ed3de4038f42aa3cc1c6015", "lon": -77.018752, "fusion_lon": 0.0}, {"is_reserved": 0, "type": "electric_scooter", "fusion_lat": 0.0, "is_disabled": 0, "rental_uris": {"ios": "https://dc.lft.to/lastmile_qr_scan", "android": "https://dc.lft.to/lastmile_qr_scan"}, "bike_id": "dd85f07a382cf237f73ec8beda15d287", "lat": 38.874706833333335, "name": "dd85f07a382cf237f73ec8beda15d287", "lon": -77.00515166666666, "fusion_lon": 0.0}, {"is_reserved": 0, "type": "electric_scooter", "fusion_lat": 0.0, "is_disabled": 0, "rental_uris": {"ios": "https://dc.lft.to/lastmile_qr_scan", "android": "https://dc.lft.to/lastmile_qr_scan"}, "bike_id": "17f6562a9bc73fd328ffcbb2b6694253", "lat": 38.944498, "name": "17f6562a9bc73fd328ffcbb2b6694253", "lon": -77.02907666666667, "fusion_lon": 0.0}, {"is_reserved": 0, "type": "electric_scooter", "fusion_lat": 0.0, "is_disabled": 0, "rental_uris": {"ios": "https://dc.lft.to/lastmile_qr_scan", "android": "https://dc.lft.to/lastmile_qr_scan"}, "bike_id": "332ecde7aa9becfc2a20851bbf2d4b6b", "lat": 38.87182583333333, "name": "332ecde7aa9becfc2a20851bbf2d4b6b", "lon": -77.0121865, "fusion_lon": 0.0}, {"is_reserved": 0, "type": "electric_scooter", "fusion_lat": 0.0, "is_disabled": 0, "rental_uris": {"ios": "https://dc.lft.to/lastmile_qr_scan", "android": "https://dc.lft.to/lastmile_qr_scan"}, "bike_id": "72961ddd785a0e375c69e6841d0f197f", "lat": 38.911050333333336, "name": "72961ddd785a0e375c69e6841d0f197f", "lon": -77.0021295, "fusion_lon": 0.0}, {"is_reserved": 0, "type": "electric_scooter", "fusion_lat": 0.0, "is_disabled": 0, "rental_uris": {"ios": "https://dc.lft.to/lastmile_qr_scan", "android": "https://dc.lft.to/lastmile_qr_scan"}, "bike_id": "53866bc00eb28b094d95fbd7a8439c3c", "lat": 38.923549666666666, "name": "53866bc00eb28b094d95fbd7a8439c3c", "lon": -76.99866516666667, "fusion_lon": 0.0}, {"is_reserved": 0, "type": "electric_scooter", "fusion_lat": 0.0, "is_disabled": 0, "rental_uris": {"ios": "https://dc.lft.to/lastmile_qr_scan", "android": "https://dc.lft.to/lastmile_qr_scan"}, "bike_id": "3e06d209e0b089ed02ea1777696f2715", "lat": 38.907793833333336, "name": "3e06d209e0b089ed02ea1777696f2715", "lon": -77.04508416666667, "fusion_lon": 0.0}, {"is_reserved": 0, "type": "electric_scooter", "fusion_lat": 0.0, "is_disabled": 0, "rental_uris": {"ios": "https://dc.lft.to/lastmile_qr_scan", "android": "https://dc.lft.to/lastmile_qr_scan"}, "bike_id": "1aeca3a48554efd6d8fd244fbd1484ec", "lat": 38.93032083333333, "name": "1aeca3a48554efd6d8fd244fbd1484ec", "lon": -77.03809733333334, "fusion_lon": 0.0}, {"is_reserved": 0, "type": "electric_scooter", "fusion_lat": 0.0, "is_disabled": 0, "rental_uris": {"ios": "https://dc.lft.to/lastmile_qr_scan", "android": "https://dc.lft.to/lastmile_qr_scan"}, "bike_id": "19a1a7cbb1c12f0be6ec9f4a2bef1724", "lat": 38.889882166666666, "name": "19a1a7cbb1c12f0be6ec9f4a2bef1724", "lon": -77.00075833333334, "fusion_lon": 0.0}, {"is_reserved": 0, "type": "electric_scooter", "fusion_lat": 0.0, "is_disabled": 0, "rental_uris": {"ios": "https://dc.lft.to/lastmile_qr_scan", "android": "https://dc.lft.to/lastmile_qr_scan"}, "bike_id": "e05b87b25119e64b929da2e3b1b5cde6", "lat": 38.917045333333334, "name": "e05b87b25119e64b929da2e3b1b5cde6", "lon": -77.02481333333333, "fusion_lon": 0.0}, {"is_reserved": 0, "type": "electric_scooter", "fusion_lat": 0.0, "is_disabled": 0, "rental_uris": {"ios": "https://dc.lft.to/lastmile_qr_scan", "android": "https://dc.lft.to/lastmile_qr_scan"}, "bike_id": "678c964f5d202612136c82369806a069", "lat": 38.905714333333336, "name": "678c964f5d202612136c82369806a069", "lon": -77.00571333333333, "fusion_lon": 0.0}, {"is_reserved": 0, "type": "electric_scooter", "fusion_lat": 0.0, "is_disabled": 0, "rental_uris": {"ios": "https://dc.lft.to/lastmile_qr_scan", "android": "https://dc.lft.to/lastmile_qr_scan"}, "bike_id": "8ecf3726316556e19bab683829175932", "lat": 38.899001166666665, "name": "8ecf3726316556e19bab683829175932", "lon": -77.049999, "fusion_lon": 0.0}, {"is_reserved": 0, "type": "electric_scooter", "fusion_lat": 0.0, "is_disabled": 0, "rental_uris": {"ios": "https://dc.lft.to/lastmile_qr_scan", "android": "https://dc.lft.to/lastmile_qr_scan"}, "bike_id": "e53282b9a8b8cc419078e84eee289cb7", "lat": 38.938636333333335, "name": "e53282b9a8b8cc419078e84eee289cb7", "lon": -77.07233916666667, "fusion_lon": 0.0}, {"is_reserved": 0, "type": "electric_scooter", "fusion_lat": 0.0, "is_disabled": 0, "rental_uris": {"ios": "https://dc.lft.to/lastmile_qr_scan", "android": "https://dc.lft.to/lastmile_qr_scan"}, "bike_id": "3eaf9cfcb66044f38e7a1c8166afee97", "lat": 38.920487333333334, "name": "3eaf9cfcb66044f38e7a1c8166afee97", "lon": -77.01671416666667, "fusion_lon": 0.0}, {"is_reserved": 0, "type": "electric_bike", "fusion_lat": 0.0, "is_disabled": 0, "rental_uris": {"ios": "https://dc.lft.to/lastmile_qr_scan", "android": "https://dc.lft.to/lastmile_qr_scan"}, "bike_id": "3fd744cbbb0f057bc31071295e8658b1", "lat": 38.8326995, "name": "3fd744cbbb0f057bc31071295e8658b1", "lon": -77.08366983333333, "fusion_lon": 0.0}, {"is_reserved": 0, "type": "electric_scooter", "fusion_lat": 0.0, "is_disabled": 0, "rental_uris": {"ios": "https://dc.lft.to/lastmile_qr_scan", "android": "https://dc.lft.to/lastmile_qr_scan"}, "bike_id": "a0e47cceec2d4d4c6a45c2ee09fb5e76", "lat": 38.927155166666665, "name": "a0e47cceec2d4d4c6a45c2ee09fb5e76", "lon": -77.04051083333333, "fusion_lon": 0.0}, {"is_reserved": 0, "type": "electric_scooter", "fusion_lat": 0.0, "is_disabled": 0, "rental_uris": {"ios": "https://dc.lft.to/lastmile_qr_scan", "android": "https://dc.lft.to/lastmile_qr_scan"}, "bike_id": "2c46a37bf46f9f15cf8d4ec2eb1f252f", "lat": 38.90444266666667, "name": "2c46a37bf46f9f15cf8d4ec2eb1f252f", "lon": -76.98161266666666, "fusion_lon": 0.0}, {"is_reserved": 0, "type": "electric_scooter", "fusion_lat": 0.0, "is_disabled": 0, "rental_uris": {"ios": "https://dc.lft.to/lastmile_qr_scan", "android": "https://dc.lft.to/lastmile_qr_scan"}, "bike_id": "e39c6b370231c81cebfada405ea272cf", "lat": 38.9202655, "name": "e39c6b370231c81cebfada405ea272cf", "lon": -77.0398075, "fusion_lon": 0.0}, {"is_reserved": 0, "type": "electric_scooter", "fusion_lat": 0.0, "is_disabled": 0, "rental_uris": {"ios": "https://dc.lft.to/lastmile_qr_scan", "android": "https://dc.lft.to/lastmile_qr_scan"}, "bike_id": "4cbddb1bb96721876a887f1ce0659489", "lat": 38.92020466666666, "name": "4cbddb1bb96721876a887f1ce0659489", "lon": -77.016972, "fusion_lon": 0.0}, {"is_reserved": 0, "type": "electric_scooter", "fusion_lat": 0.0, "is_disabled": 0, "rental_uris": {"ios": "https://dc.lft.to/lastmile_qr_scan", "android": "https://dc.lft.to/lastmile_qr_scan"}, "bike_id": "9a4d2411b9b3e0daaf4c10e698d1172b", "lat": 38.90788883333333, "name": "9a4d2411b9b3e0daaf4c10e698d1172b", "lon": -77.0019725, "fusion_lon": 0.0}, {"is_reserved": 0, "type": "electric_scooter", "fusion_lat": 0.0, "is_disabled": 0, "rental_uris": {"ios": "https://dc.lft.to/lastmile_qr_scan", "android": "https://dc.lft.to/lastmile_qr_scan"}, "bike_id": "43fedda8461d4fbf9163e94e6ac414b6", "lat": 38.95629733333333, "name": "43fedda8461d4fbf9163e94e6ac414b6", "lon": -77.02208766666666, "fusion_lon": 0.0}, {"is_reserved": 0, "type": "electric_scooter", "fusion_lat": 0.0, "is_disabled": 0, "rental_uris": {"ios": "https://dc.lft.to/lastmile_qr_scan", "android": "https://dc.lft.to/lastmile_qr_scan"}, "bike_id": "ad14ec4ce0f1e617170b55c2bec5fefc", "lat": 38.92715233333333, "name": "ad14ec4ce0f1e617170b55c2bec5fefc", "lon": -77.05993233333334, "fusion_lon": 0.0}, {"is_reserved": 0, "type": "electric_scooter", "fusion_lat": 0.0, "is_disabled": 0, "rental_uris": {"ios": "https://dc.lft.to/lastmile_qr_scan", "android": "https://dc.lft.to/lastmile_qr_scan"}, "bike_id": "4b1ba6f93c43d2c10ae601d744d4c5bf", "lat": 38.890409, "name": "4b1ba6f93c43d2c10ae601d744d4c5bf", "lon": -76.9883685, "fusion_lon": 0.0}, {"is_reserved": 0, "type": "electric_scooter", "fusion_lat": 0.0, "is_disabled": 0, "rental_uris": {"ios": "https://dc.lft.to/lastmile_qr_scan", "android": "https://dc.lft.to/lastmile_qr_scan"}, "bike_id": "886cadc74032c96270996f4cd838683b", "lat": 38.938809166666665, "name": "886cadc74032c96270996f4cd838683b", "lon": -77.02832966666666, "fusion_lon": 0.0}, {"is_reserved": 0, "type": "electric_bike", "fusion_lat": 0.0, "is_disabled": 0, "rental_uris": {"ios": "https://dc.lft.to/lastmile_qr_scan", "android": "https://dc.lft.to/lastmile_qr_scan"}, "bike_id": "7e35ba55ca1d0a2dd2b1df88d23faeec", "lat": 38.95630033333333, "name": "7e35ba55ca1d0a2dd2b1df88d23faeec", "lon": -76.93871666666666, "fusion_lon": 0.0}, {"is_reserved": 0, "type": "electric_bike", "fusion_lat": 0.0, "is_disabled": 0, "rental_uris": {"ios": "https://dc.lft.to/lastmile_qr_scan", "android": "https://dc.lft.to/lastmile_qr_scan"}, "bike_id": "4d2e2c4f0d4e0b35376cd3bb8ee378a2", "lat": 38.85789366666667, "name": "4d2e2c4f0d4e0b35376cd3bb8ee378a2", "lon": -76.98762733333334, "fusion_lon": 0.0}, {"is_reserved": 0, "type": "electric_scooter", "fusion_lat": 0.0, "is_disabled": 0, "rental_uris": {"ios": "https://dc.lft.to/lastmile_qr_scan", "android": "https://dc.lft.to/lastmile_qr_scan"}, "bike_id": "c0cb846eb016cc68f37e8a5f3af27c2b", "lat": 38.9066835, "name": "c0cb846eb016cc68f37e8a5f3af27c2b", "lon": -77.0091505, "fusion_lon": 0.0}, {"is_reserved": 0, "type": "electric_scooter", "fusion_lat": 0.0, "is_disabled": 0, "rental_uris": {"ios": "https://dc.lft.to/lastmile_qr_scan", "android": "https://dc.lft.to/lastmile_qr_scan"}, "bike_id": "67752b076a656880ba3af80e978bb11e", "lat": 38.9088595, "name": "67752b076a656880ba3af80e978bb11e", "lon": -77.04462666666667, "fusion_lon": 0.0}, {"is_reserved": 0, "type": "electric_bike", "fusion_lat": 0.0, "is_disabled": 0, "rental_uris": {"ios": "https://dc.lft.to/lastmile_qr_scan", "android": "https://dc.lft.to/lastmile_qr_scan"}, "bike_id": "5301796c29a7ded4df94fdc7201babca", "lat": 39.0262635, "name": "5301796c29a7ded4df94fdc7201babca", "lon": -77.0387875, "fusion_lon": 0.0}, {"is_reserved": 0, "type": "electric_scooter", "fusion_lat": 0.0, "is_disabled": 0, "rental_uris": {"ios": "https://dc.lft.to/lastmile_qr_scan", "android": "https://dc.lft.to/lastmile_qr_scan"}, "bike_id": "2bd2492837d90accaa91590289ef18d3", "lat": 38.938738666666666, "name": "2bd2492837d90accaa91590289ef18d3", "lon": -77.0295885, "fusion_lon": 0.0}, {"is_reserved": 0, "type": "electric_scooter", "fusion_lat": 0.0, "is_disabled": 0, "rental_uris": {"ios": "https://dc.lft.to/lastmile_qr_scan", "android": "https://dc.lft.to/lastmile_qr_scan"}, "bike_id": "4602ead7557930fc97753e3565607475", "lat": 38.927959333333334, "name": "4602ead7557930fc97753e3565607475", "lon": -77.03613916666667, "fusion_lon": 0.0}, {"is_reserved": 0, "type": "electric_bike", "fusion_lat": 0.0, "is_disabled": 0, "rental_uris": {"ios": "https://dc.lft.to/lastmile_qr_scan", "android": "https://dc.lft.to/lastmile_qr_scan"}, "bike_id": "1f9524c9d0010f4a017efb9890faa54c", "lat": 38.844768, "name": "1f9524c9d0010f4a017efb9890faa54c", "lon": -76.99596983333333, "fusion_lon": 0.0}, {"is_reserved": 0, "type": "electric_scooter", "fusion_lat": 0.0, "is_disabled": 0, "rental_uris": {"ios": "https://dc.lft.to/lastmile_qr_scan", "android": "https://dc.lft.to/lastmile_qr_scan"}, "bike_id": "2f46cc7f01c0acf7d6a5629f07552c54", "lat": 38.903842166666664, "name": "2f46cc7f01c0acf7d6a5629f07552c54", "lon": -77.03544966666666, "fusion_lon": 0.0}, {"is_reserved": 0, "type": "electric_scooter", "fusion_lat": 0.0, "is_disabled": 0, "rental_uris": {"ios": "https://dc.lft.to/lastmile_qr_scan", "android": "https://dc.lft.to/lastmile_qr_scan"}, "bike_id": "a103829657e24dd51b17731a7d2dee14", "lat": 38.940366833333336, "name": "a103829657e24dd51b17731a7d2dee14", "lon": -77.08391483333334, "fusion_lon": 0.0}, {"is_reserved": 0, "type": "electric_bike", "fusion_lat": 0.0, "is_disabled": 0, "rental_uris": {"ios": "https://dc.lft.to/lastmile_qr_scan", "android": "https://dc.lft.to/lastmile_qr_scan"}, "bike_id": "c4b78dd90dcb02ed5f87571e642874b8", "lat": 38.871652, "name": "c4b78dd90dcb02ed5f87571e642874b8", "lon": -77.0881665, "fusion_lon": 0.0}, {"is_reserved": 0, "type": "electric_scooter", "fusion_lat": 0.0, "is_disabled": 0, "rental_uris": {"ios": "https://dc.lft.to/lastmile_qr_scan", "android": "https://dc.lft.to/lastmile_qr_scan"}, "bike_id": "37f62a7e5422db5707767855ac29df33", "lat": 38.93101633333333, "name": "37f62a7e5422db5707767855ac29df33", "lon": -77.02478233333333, "fusion_lon": 0.0}, {"is_reserved": 0, "type": "electric_bike", "fusion_lat": 0.0, "is_disabled": 0, "rental_uris": {"ios": "https://dc.lft.to/lastmile_qr_scan", "android": "https://dc.lft.to/lastmile_qr_scan"}, "bike_id": "eee0102cfaca426d9370621130929ba7", "lat": 38.9112985, "name": "eee0102cfaca426d9370621130929ba7", "lon": -77.06578566666667, "fusion_lon": 0.0}, {"is_reserved": 0, "type": "electric_scooter", "fusion_lat": 0.0, "is_disabled": 0, "rental_uris": {"ios": "https://dc.lft.to/lastmile_qr_scan", "android": "https://dc.lft.to/lastmile_qr_scan"}, "bike_id": "839c59fdafd525ce1cd21245cf716f5d", "lat": 38.8817765, "name": "839c59fdafd525ce1cd21245cf716f5d", "lon": -76.925454, "fusion_lon": 0.0}, {"is_reserved": 0, "type": "electric_scooter", "fusion_lat": 0.0, "is_disabled": 0, "rental_uris": {"ios": "https://dc.lft.to/lastmile_qr_scan", "android": "https://dc.lft.to/lastmile_qr_scan"}, "bike_id": "8bdc7969baac55dad2e6d07586d5a306", "lat": 38.921213, "name": "8bdc7969baac55dad2e6d07586d5a306", "lon": -77.0457125, "fusion_lon": 0.0}, {"is_reserved": 0, "type": "electric_scooter", "fusion_lat": 0.0, "is_disabled": 0, "rental_uris": {"ios": "https://dc.lft.to/lastmile_qr_scan", "android": "https://dc.lft.to/lastmile_qr_scan"}, "bike_id": "ffb839f2f8ed8f3dc6084202bf2fe320", "lat": 38.87693483333334, "name": "ffb839f2f8ed8f3dc6084202bf2fe320", "lon": -76.99617616666667, "fusion_lon": 0.0}, {"is_reserved": 0, "type": "electric_scooter", "fusion_lat": 0.0, "is_disabled": 0, "rental_uris": {"ios": "https://dc.lft.to/lastmile_qr_scan", "android": "https://dc.lft.to/lastmile_qr_scan"}, "bike_id": "2f7564c235bb6ecf5b9439156c2c8cae", "lat": 38.905392166666665, "name": "2f7564c235bb6ecf5b9439156c2c8cae", "lon": -77.05695083333333, "fusion_lon": 0.0}, {"is_reserved": 0, "type": "electric_scooter", "fusion_lat": 0.0, "is_disabled": 0, "rental_uris": {"ios": "https://dc.lft.to/lastmile_qr_scan", "android": "https://dc.lft.to/lastmile_qr_scan"}, "bike_id": "2279c43f9fca506ecf5cfa204953bce6", "lat": 38.91821383333333, "name": "2279c43f9fca506ecf5cfa204953bce6", "lon": -77.02315033333333, "fusion_lon": 0.0}, {"is_reserved": 0, "type": "electric_scooter", "fusion_lat": 0.0, "is_disabled": 0, "rental_uris": {"ios": "https://dc.lft.to/lastmile_qr_scan", "android": "https://dc.lft.to/lastmile_qr_scan"}, "bike_id": "5956eefd135f8100b8c867396fca5427", "lat": 38.897284166666665, "name": "5956eefd135f8100b8c867396fca5427", "lon": -77.0459075, "fusion_lon": 0.0}, {"is_reserved": 0, "type": "electric_scooter", "fusion_lat": 0.0, "is_disabled": 0, "rental_uris": {"ios": "https://dc.lft.to/lastmile_qr_scan", "android": "https://dc.lft.to/lastmile_qr_scan"}, "bike_id": "72162c1c10221e56016b83396c1be66b", "lat": 38.85548983333333, "name": "72162c1c10221e56016b83396c1be66b", "lon": -76.98657766666666, "fusion_lon": 0.0}, {"is_reserved": 0, "type": "electric_bike", "fusion_lat": 0.0, "is_disabled": 0, "rental_uris": {"ios": "https://dc.lft.to/lastmile_qr_scan", "android": "https://dc.lft.to/lastmile_qr_scan"}, "bike_id": "9dc2fec821c2ff06d3b30f719aeca9cd", "lat": 38.97443283333333, "name": "9dc2fec821c2ff06d3b30f719aeca9cd", "lon": -77.09615983333333, "fusion_lon": 0.0}, {"is_reserved": 0, "type": "electric_scooter", "fusion_lat": 0.0, "is_disabled": 0, "rental_uris": {"ios": "https://dc.lft.to/lastmile_qr_scan", "android": "https://dc.lft.to/lastmile_qr_scan"}, "bike_id": "1eb8dccef5d28e1a45e06d03554c08ca", "lat": 38.923629, "name": "1eb8dccef5d28e1a45e06d03554c08ca", "lon": -77.05129, "fusion_lon": 0.0}, {"is_reserved": 0, "type": "electric_scooter", "fusion_lat": 0.0, "is_disabled": 0, "rental_uris": {"ios": "https://dc.lft.to/lastmile_qr_scan", "android": "https://dc.lft.to/lastmile_qr_scan"}, "bike_id": "a5e03cfd110fa8c52fbade560d0bb6ad", "lat": 38.914162166666664, "name": "a5e03cfd110fa8c52fbade560d0bb6ad", "lon": -77.03152333333334, "fusion_lon": 0.0}, {"is_reserved": 0, "type": "electric_scooter", "fusion_lat": 0.0, "is_disabled": 0, "rental_uris": {"ios": "https://dc.lft.to/lastmile_qr_scan", "android": "https://dc.lft.to/lastmile_qr_scan"}, "bike_id": "039ab4e53b88eb1dbaaa75fc3e71daaf", "lat": 38.955545666666666, "name": "039ab4e53b88eb1dbaaa75fc3e71daaf", "lon": -77.03325333333333, "fusion_lon": 0.0}, {"is_reserved": 0, "type": "electric_scooter", "fusion_lat": 0.0, "is_disabled": 0, "rental_uris": {"ios": "https://dc.lft.to/lastmile_qr_scan", "android": "https://dc.lft.to/lastmile_qr_scan"}, "bike_id": "cf375e7b6775004423f3a8b6bfe129e9", "lat": 38.9101255, "name": "cf375e7b6775004423f3a8b6bfe129e9", "lon": -77.01993066666667, "fusion_lon": 0.0}, {"is_reserved": 0, "type": "electric_scooter", "fusion_lat": 0.0, "is_disabled": 0, "rental_uris": {"ios": "https://dc.lft.to/lastmile_qr_scan", "android": "https://dc.lft.to/lastmile_qr_scan"}, "bike_id": "387964e5816fc61f287e58b70e92255c", "lat": 38.87917383333333, "name": "387964e5816fc61f287e58b70e92255c", "lon": -77.01332233333333, "fusion_lon": 0.0}, {"is_reserved": 0, "type": "electric_scooter", "fusion_lat": 0.0, "is_disabled": 0, "rental_uris": {"ios": "https://dc.lft.to/lastmile_qr_scan", "android": "https://dc.lft.to/lastmile_qr_scan"}, "bike_id": "ec1a4dc1ea077e0f9ec7636e44bb0009", "lat": 38.915755833333336, "name": "ec1a4dc1ea077e0f9ec7636e44bb0009", "lon": -77.02005683333333, "fusion_lon": 0.0}, {"is_reserved": 0, "type": "electric_scooter", "fusion_lat": 0.0, "is_disabled": 0, "rental_uris": {"ios": "https://dc.lft.to/lastmile_qr_scan", "android": "https://dc.lft.to/lastmile_qr_scan"}, "bike_id": "c4ee8c78c3982d8c5a17fd9cf3e84dc1", "lat": 38.89755183333333, "name": "c4ee8c78c3982d8c5a17fd9cf3e84dc1", "lon": -76.98957533333333, "fusion_lon": 0.0}, {"is_reserved": 0, "type": "electric_bike", "fusion_lat": 0.0, "is_disabled": 0, "rental_uris": {"ios": "https://dc.lft.to/lastmile_qr_scan", "android": "https://dc.lft.to/lastmile_qr_scan"}, "bike_id": "54cb0ae7e76db71423311ea0391a4405", "lat": 38.903863666666666, "name": "54cb0ae7e76db71423311ea0391a4405", "lon": -76.93763, "fusion_lon": 0.0}, {"is_reserved": 0, "type": "electric_scooter", "fusion_lat": 0.0, "is_disabled": 0, "rental_uris": {"ios": "https://dc.lft.to/lastmile_qr_scan", "android": "https://dc.lft.to/lastmile_qr_scan"}, "bike_id": "2596da13edeb7e92d391cefce87ae0d4", "lat": 38.92361483333333, "name": "2596da13edeb7e92d391cefce87ae0d4", "lon": -77.07281533333334, "fusion_lon": 0.0}, {"is_reserved": 0, "type": "electric_scooter", "fusion_lat": 0.0, "is_disabled": 0, "rental_uris": {"ios": "https://dc.lft.to/lastmile_qr_scan", "android": "https://dc.lft.to/lastmile_qr_scan"}, "bike_id": "16470896214e27b3bb9ca848d1f496bf", "lat": 38.935399833333335, "name": "16470896214e27b3bb9ca848d1f496bf", "lon": -77.057485, "fusion_lon": 0.0}, {"is_reserved": 0, "type": "electric_scooter", "fusion_lat": 0.0, "is_disabled": 0, "rental_uris": {"ios": "https://dc.lft.to/lastmile_qr_scan", "android": "https://dc.lft.to/lastmile_qr_scan"}, "bike_id": "5c8f90f022daeb976f50efb5b72f9b07", "lat": 38.887086833333335, "name": "5c8f90f022daeb976f50efb5b72f9b07", "lon": -77.00062683333333, "fusion_lon": 0.0}, {"is_reserved": 0, "type": "electric_scooter", "fusion_lat": 0.0, "is_disabled": 0, "rental_uris": {"ios": "https://dc.lft.to/lastmile_qr_scan", "android": "https://dc.lft.to/lastmile_qr_scan"}, "bike_id": "9b8bd692561165d97d47066bc2189d30", "lat": 38.915538833333336, "name": "9b8bd692561165d97d47066bc2189d30", "lon": -77.04127316666667, "fusion_lon": 0.0}, {"is_reserved": 0, "type": "electric_bike", "fusion_lat": 0.0, "is_disabled": 0, "rental_uris": {"ios": "https://dc.lft.to/lastmile_qr_scan", "android": "https://dc.lft.to/lastmile_qr_scan"}, "bike_id": "bb771232c3c707397e58e2891775dedc", "lat": 38.967758333333336, "name": "bb771232c3c707397e58e2891775dedc", "lon": -76.99652616666667, "fusion_lon": 0.0}, {"is_reserved": 0, "type": "electric_scooter", "fusion_lat": 0.0, "is_disabled": 0, "rental_uris": {"ios": "https://dc.lft.to/lastmile_qr_scan", "android": "https://dc.lft.to/lastmile_qr_scan"}, "bike_id": "f528cbb9bb7d60ae1bc6d82378a44cb5", "lat": 38.876802, "name": "f528cbb9bb7d60ae1bc6d82378a44cb5", "lon": -77.00339083333333, "fusion_lon": 0.0}, {"is_reserved": 0, "type": "electric_scooter", "fusion_lat": 0.0, "is_disabled": 0, "rental_uris": {"ios": "https://dc.lft.to/lastmile_qr_scan", "android": "https://dc.lft.to/lastmile_qr_scan"}, "bike_id": "13e16b4ef514e0b305aac112dc1376b1", "lat": 38.927983, "name": "13e16b4ef514e0b305aac112dc1376b1", "lon": -77.03152116666666, "fusion_lon": 0.0}, {"is_reserved": 0, "type": "electric_scooter", "fusion_lat": 0.0, "is_disabled": 0, "rental_uris": {"ios": "https://dc.lft.to/lastmile_qr_scan", "android": "https://dc.lft.to/lastmile_qr_scan"}, "bike_id": "854dbf9f766c584f36f43973fdccd18a", "lat": 38.93194333333334, "name": "854dbf9f766c584f36f43973fdccd18a", "lon": -77.01989466666667, "fusion_lon": 0.0}, {"is_reserved": 0, "type": "electric_scooter", "fusion_lat": 0.0, "is_disabled": 0, "rental_uris": {"ios": "https://dc.lft.to/lastmile_qr_scan", "android": "https://dc.lft.to/lastmile_qr_scan"}, "bike_id": "089fbf4d753bcde6c568684c5e16bc5c", "lat": 38.88180883333333, "name": "089fbf4d753bcde6c568684c5e16bc5c", "lon": -77.0176655, "fusion_lon": 0.0}, {"is_reserved": 0, "type": "electric_scooter", "fusion_lat": 0.0, "is_disabled": 0, "rental_uris": {"ios": "https://dc.lft.to/lastmile_qr_scan", "android": "https://dc.lft.to/lastmile_qr_scan"}, "bike_id": "51b85bcea531100a47ab8598370940b9", "lat": 38.88609666666667, "name": "51b85bcea531100a47ab8598370940b9", "lon": -77.003321, "fusion_lon": 0.0}, {"is_reserved": 0, "type": "electric_scooter", "fusion_lat": 0.0, "is_disabled": 0, "rental_uris": {"ios": "https://dc.lft.to/lastmile_qr_scan", "android": "https://dc.lft.to/lastmile_qr_scan"}, "bike_id": "0c705a29631843140b1474fb3c34f4cc", "lat": 38.91054966666667, "name": "0c705a29631843140b1474fb3c34f4cc", "lon": -77.0435835, "fusion_lon": 0.0}, {"is_reserved": 0, "type": "electric_scooter", "fusion_lat": 0.0, "is_disabled": 0, "rental_uris": {"ios": "https://dc.lft.to/lastmile_qr_scan", "android": "https://dc.lft.to/lastmile_qr_scan"}, "bike_id": "8556a0b418f406026b30c2d5fe2db64a", "lat": 38.9192205, "name": "8556a0b418f406026b30c2d5fe2db64a", "lon": -77.01172183333334, "fusion_lon": 0.0}, {"is_reserved": 0, "type": "electric_scooter", "fusion_lat": 0.0, "is_disabled": 0, "rental_uris": {"ios": "https://dc.lft.to/lastmile_qr_scan", "android": "https://dc.lft.to/lastmile_qr_scan"}, "bike_id": "57eb5a70f488f90d24f416079c792a11", "lat": 38.898748166666664, "name": "57eb5a70f488f90d24f416079c792a11", "lon": -77.0465955, "fusion_lon": 0.0}, {"is_reserved": 0, "type": "electric_scooter", "fusion_lat": 0.0, "is_disabled": 0, "rental_uris": {"ios": "https://dc.lft.to/lastmile_qr_scan", "android": "https://dc.lft.to/lastmile_qr_scan"}, "bike_id": "1da76491b62ea784d8998543eb60bcf6", "lat": 38.894287, "name": "1da76491b62ea784d8998543eb60bcf6", "lon": -77.044766, "fusion_lon": 0.0}, {"is_reserved": 0, "type": "electric_scooter", "fusion_lat": 0.0, "is_disabled": 0, "rental_uris": {"ios": "https://dc.lft.to/lastmile_qr_scan", "android": "https://dc.lft.to/lastmile_qr_scan"}, "bike_id": "6b070727a66f4e258877f369bc8cf721", "lat": 38.91651133333333, "name": "6b070727a66f4e258877f369bc8cf721", "lon": -77.02179066666666, "fusion_lon": 0.0}, {"is_reserved": 0, "type": "electric_scooter", "fusion_lat": 0.0, "is_disabled": 0, "rental_uris": {"ios": "https://dc.lft.to/lastmile_qr_scan", "android": "https://dc.lft.to/lastmile_qr_scan"}, "bike_id": "4795c75bdce41acf7ded4377ab708e10", "lat": 38.901911, "name": "4795c75bdce41acf7ded4377ab708e10", "lon": -76.93465533333334, "fusion_lon": 0.0}, {"is_reserved": 0, "type": "electric_scooter", "fusion_lat": 0.0, "is_disabled": 0, "rental_uris": {"ios": "https://dc.lft.to/lastmile_qr_scan", "android": "https://dc.lft.to/lastmile_qr_scan"}, "bike_id": "2815707ce4b56117d74475ba7f167a62", "lat": 38.93183883333333, "name": "2815707ce4b56117d74475ba7f167a62", "lon": -77.019608, "fusion_lon": 0.0}, {"is_reserved": 0, "type": "electric_scooter", "fusion_lat": 0.0, "is_disabled": 0, "rental_uris": {"ios": "https://dc.lft.to/lastmile_qr_scan", "android": "https://dc.lft.to/lastmile_qr_scan"}, "bike_id": "cff9a2939760d3b02aba3097edbef9d2", "lat": 38.924776666666666, "name": "cff9a2939760d3b02aba3097edbef9d2", "lon": -77.026299, "fusion_lon": 0.0}, {"is_reserved": 0, "type": "electric_scooter", "fusion_lat": 0.0, "is_disabled": 0, "rental_uris": {"ios": "https://dc.lft.to/lastmile_qr_scan", "android": "https://dc.lft.to/lastmile_qr_scan"}, "bike_id": "6b67534de6ad6c063580ac48dda59550", "lat": 38.930777666666664, "name": "6b67534de6ad6c063580ac48dda59550", "lon": -77.07761883333333, "fusion_lon": 0.0}, {"is_reserved": 0, "type": "electric_scooter", "fusion_lat": 0.0, "is_disabled": 0, "rental_uris": {"ios": "https://dc.lft.to/lastmile_qr_scan", "android": "https://dc.lft.to/lastmile_qr_scan"}, "bike_id": "b6265ca86d9b4328999e5a53c65be545", "lat": 38.876677, "name": "b6265ca86d9b4328999e5a53c65be545", "lon": -77.01578816666667, "fusion_lon": 0.0}, {"is_reserved": 0, "type": "electric_bike", "fusion_lat": 0.0, "is_disabled": 0, "rental_uris": {"ios": "https://dc.lft.to/lastmile_qr_scan", "android": "https://dc.lft.to/lastmile_qr_scan"}, "bike_id": "d28eb265a422d8556f9cd36e683d545d", "lat": 38.994998333333335, "name": "d28eb265a422d8556f9cd36e683d545d", "lon": -77.00136466666666, "fusion_lon": 0.0}, {"is_reserved": 0, "type": "electric_scooter", "fusion_lat": 0.0, "is_disabled": 0, "rental_uris": {"ios": "https://dc.lft.to/lastmile_qr_scan", "android": "https://dc.lft.to/lastmile_qr_scan"}, "bike_id": "6127453dae7afc9bf92f452cf35223e4", "lat": 38.9301145, "name": "6127453dae7afc9bf92f452cf35223e4", "lon": -77.040482, "fusion_lon": 0.0}, {"is_reserved": 0, "type": "electric_bike", "fusion_lat": 0.0, "is_disabled": 0, "rental_uris": {"ios": "https://dc.lft.to/lastmile_qr_scan", "android": "https://dc.lft.to/lastmile_qr_scan"}, "bike_id": "46374aaeb6ce04740ba7c00459c3486f", "lat": 38.947356666666664, "name": "46374aaeb6ce04740ba7c00459c3486f", "lon": -76.995842, "fusion_lon": 0.0}, {"is_reserved": 0, "type": "electric_scooter", "fusion_lat": 0.0, "is_disabled": 0, "rental_uris": {"ios": "https://dc.lft.to/lastmile_qr_scan", "android": "https://dc.lft.to/lastmile_qr_scan"}, "bike_id": "64b4badcf33827ae43cf87ca551c1bca", "lat": 38.937884833333335, "name": "64b4badcf33827ae43cf87ca551c1bca", "lon": -77.03258833333334, "fusion_lon": 0.0}, {"is_reserved": 0, "type": "electric_scooter", "fusion_lat": 0.0, "is_disabled": 0, "rental_uris": {"ios": "https://dc.lft.to/lastmile_qr_scan", "android": "https://dc.lft.to/lastmile_qr_scan"}, "bike_id": "aaf2538e3b4859d8d8021a37e2cf262f", "lat": 38.898411333333335, "name": "aaf2538e3b4859d8d8021a37e2cf262f", "lon": -77.05000816666667, "fusion_lon": 0.0}, {"is_reserved": 0, "type": "electric_scooter", "fusion_lat": 0.0, "is_disabled": 0, "rental_uris": {"ios": "https://dc.lft.to/lastmile_qr_scan", "android": "https://dc.lft.to/lastmile_qr_scan"}, "bike_id": "383ec455cd2c9413add4925007903de2", "lat": 38.919107833333335, "name": "383ec455cd2c9413add4925007903de2", "lon": -77.04808433333334, "fusion_lon": 0.0}, {"is_reserved": 0, "type": "electric_scooter", "fusion_lat": 0.0, "is_disabled": 0, "rental_uris": {"ios": "https://dc.lft.to/lastmile_qr_scan", "android": "https://dc.lft.to/lastmile_qr_scan"}, "bike_id": "9b4d3d3f4c8b1ae0ad55b95cabf3849c", "lat": 38.883616833333335, "name": "9b4d3d3f4c8b1ae0ad55b95cabf3849c", "lon": -76.927898, "fusion_lon": 0.0}, {"is_reserved": 0, "type": "electric_bike", "fusion_lat": 0.0, "is_disabled": 0, "rental_uris": {"ios": "https://dc.lft.to/lastmile_qr_scan", "android": "https://dc.lft.to/lastmile_qr_scan"}, "bike_id": "ced854878eabde64d1d845edb118bcc6", "lat": 38.871772666666665, "name": "ced854878eabde64d1d845edb118bcc6", "lon": -77.23391483333333, "fusion_lon": 0.0}, {"is_reserved": 0, "type": "electric_scooter", "fusion_lat": 0.0, "is_disabled": 0, "rental_uris": {"ios": "https://dc.lft.to/lastmile_qr_scan", "android": "https://dc.lft.to/lastmile_qr_scan"}, "bike_id": "4f74d2bfcfd56c1cb06774fabf87fee7", "lat": 38.90589, "name": "4f74d2bfcfd56c1cb06774fabf87fee7", "lon": -77.0469475, "fusion_lon": 0.0}, {"is_reserved": 0, "type": "electric_scooter", "fusion_lat": 0.0, "is_disabled": 0, "rental_uris": {"ios": "https://dc.lft.to/lastmile_qr_scan", "android": "https://dc.lft.to/lastmile_qr_scan"}, "bike_id": "1bd488409a3b0289dc2ef638b63f29d0", "lat": 38.89233183333333, "name": "1bd488409a3b0289dc2ef638b63f29d0", "lon": -77.04997666666667, "fusion_lon": 0.0}, {"is_reserved": 0, "type": "electric_scooter", "fusion_lat": 0.0, "is_disabled": 0, "rental_uris": {"ios": "https://dc.lft.to/lastmile_qr_scan", "android": "https://dc.lft.to/lastmile_qr_scan"}, "bike_id": "f2492227b83681e70dd16782338b16d9", "lat": 38.921749166666665, "name": "f2492227b83681e70dd16782338b16d9", "lon": -77.04362816666666, "fusion_lon": 0.0}, {"is_reserved": 0, "type": "electric_scooter", "fusion_lat": 0.0, "is_disabled": 0, "rental_uris": {"ios": "https://dc.lft.to/lastmile_qr_scan", "android": "https://dc.lft.to/lastmile_qr_scan"}, "bike_id": "7fb0b0702421d21617dfae1b2be08cd1", "lat": 38.92626833333333, "name": "7fb0b0702421d21617dfae1b2be08cd1", "lon": -77.0414675, "fusion_lon": 0.0}, {"is_reserved": 0, "type": "electric_bike", "fusion_lat": 0.0, "is_disabled": 0, "rental_uris": {"ios": "https://dc.lft.to/lastmile_qr_scan", "android": "https://dc.lft.to/lastmile_qr_scan"}, "bike_id": "cbfb1340fce2b2de65b0d15678efb467", "lat": 39.00001833333334, "name": "cbfb1340fce2b2de65b0d15678efb467", "lon": -76.91807433333334, "fusion_lon": 0.0}, {"is_reserved": 0, "type": "electric_bike", "fusion_lat": 0.0, "is_disabled": 0, "rental_uris": {"ios": "https://dc.lft.to/lastmile_qr_scan", "android": "https://dc.lft.to/lastmile_qr_scan"}, "bike_id": "a391daba85cbc4fc58066ed1f68dd752", "lat": 38.807384166666665, "name": "a391daba85cbc4fc58066ed1f68dd752", "lon": -77.09686183333334, "fusion_lon": 0.0}, {"is_reserved": 0, "type": "electric_bike", "fusion_lat": 0.0, "is_disabled": 0, "rental_uris": {"ios": "https://dc.lft.to/lastmile_qr_scan", "android": "https://dc.lft.to/lastmile_qr_scan"}, "bike_id": "9492485b6437e36b39b605bd645a7859", "lat": 38.950906833333335, "name": "9492485b6437e36b39b605bd645a7859", "lon": -77.0123085, "fusion_lon": 0.0}, {"is_reserved": 0, "type": "electric_scooter", "fusion_lat": 0.0, "is_disabled": 0, "rental_uris": {"ios": "https://dc.lft.to/lastmile_qr_scan", "android": "https://dc.lft.to/lastmile_qr_scan"}, "bike_id": "61b891ae59097e3c67b78b3cea699ee6", "lat": 38.9060445, "name": "61b891ae59097e3c67b78b3cea699ee6", "lon": -77.05835783333333, "fusion_lon": 0.0}, {"is_reserved": 0, "type": "electric_scooter", "fusion_lat": 0.0, "is_disabled": 0, "rental_uris": {"ios": "https://dc.lft.to/lastmile_qr_scan", "android": "https://dc.lft.to/lastmile_qr_scan"}, "bike_id": "f0acc895e70d5a3da6921fe44daa25a7", "lat": 38.914428, "name": "f0acc895e70d5a3da6921fe44daa25a7", "lon": -77.00348316666667, "fusion_lon": 0.0}, {"is_reserved": 0, "type": "electric_scooter", "fusion_lat": 0.0, "is_disabled": 0, "rental_uris": {"ios": "https://dc.lft.to/lastmile_qr_scan", "android": "https://dc.lft.to/lastmile_qr_scan"}, "bike_id": "906f1e51de00be9b57dab58440eedc7c", "lat": 38.9087205, "name": "906f1e51de00be9b57dab58440eedc7c", "lon": -77.07152916666666, "fusion_lon": 0.0}, {"is_reserved": 0, "type": "electric_scooter", "fusion_lat": 0.0, "is_disabled": 0, "rental_uris": {"ios": "https://dc.lft.to/lastmile_qr_scan", "android": "https://dc.lft.to/lastmile_qr_scan"}, "bike_id": "22077e1ec81de208c2e91444bd0f17a9", "lat": 38.895429, "name": "22077e1ec81de208c2e91444bd0f17a9", "lon": -76.98340416666667, "fusion_lon": 0.0}, {"is_reserved": 0, "type": "electric_scooter", "fusion_lat": 0.0, "is_disabled": 0, "rental_uris": {"ios": "https://dc.lft.to/lastmile_qr_scan", "android": "https://dc.lft.to/lastmile_qr_scan"}, "bike_id": "23a039cd49ac4c35bdfcb79aa8028bb4", "lat": 38.9181285, "name": "23a039cd49ac4c35bdfcb79aa8028bb4", "lon": -77.03436033333334, "fusion_lon": 0.0}, {"is_reserved": 0, "type": "electric_scooter", "fusion_lat": 0.0, "is_disabled": 0, "rental_uris": {"ios": "https://dc.lft.to/lastmile_qr_scan", "android": "https://dc.lft.to/lastmile_qr_scan"}, "bike_id": "b3d0d0153831dbcba27ab63e9f447595", "lat": 38.90118433333333, "name": "b3d0d0153831dbcba27ab63e9f447595", "lon": -77.0320505, "fusion_lon": 0.0}, {"is_reserved": 0, "type": "electric_scooter", "fusion_lat": 0.0, "is_disabled": 0, "rental_uris": {"ios": "https://dc.lft.to/lastmile_qr_scan", "android": "https://dc.lft.to/lastmile_qr_scan"}, "bike_id": "96d65c3289c452bb2dcdd76b76a829c5", "lat": 38.89364066666667, "name": "96d65c3289c452bb2dcdd76b76a829c5", "lon": -76.94112, "fusion_lon": 0.0}, {"is_reserved": 0, "type": "electric_scooter", "fusion_lat": 0.0, "is_disabled": 0, "rental_uris": {"ios": "https://dc.lft.to/lastmile_qr_scan", "android": "https://dc.lft.to/lastmile_qr_scan"}, "bike_id": "3ba5746b7ef0d43c146ab7a138b4aa17", "lat": 38.93027766666667, "name": "3ba5746b7ef0d43c146ab7a138b4aa17", "lon": -77.03785766666667, "fusion_lon": 0.0}, {"is_reserved": 0, "type": "electric_scooter", "fusion_lat": 0.0, "is_disabled": 0, "rental_uris": {"ios": "https://dc.lft.to/lastmile_qr_scan", "android": "https://dc.lft.to/lastmile_qr_scan"}, "bike_id": "6469923f57e55e46857f9e1a55735826", "lat": 38.9006635, "name": "6469923f57e55e46857f9e1a55735826", "lon": -77.05024483333334, "fusion_lon": 0.0}, {"is_reserved": 0, "type": "electric_bike", "fusion_lat": 0.0, "is_disabled": 0, "rental_uris": {"ios": "https://dc.lft.to/lastmile_qr_scan", "android": "https://dc.lft.to/lastmile_qr_scan"}, "bike_id": "76debb641868a98eca6f851b995f65f9", "lat": 38.876597333333336, "name": "76debb641868a98eca6f851b995f65f9", "lon": -77.014554, "fusion_lon": 0.0}, {"is_reserved": 0, "type": "electric_scooter", "fusion_lat": 0.0, "is_disabled": 0, "rental_uris": {"ios": "https://dc.lft.to/lastmile_qr_scan", "android": "https://dc.lft.to/lastmile_qr_scan"}, "bike_id": "38cc3056ace27898e7b793c5f8018aee", "lat": 38.90686733333333, "name": "38cc3056ace27898e7b793c5f8018aee", "lon": -77.0271705, "fusion_lon": 0.0}, {"is_reserved": 0, "type": "electric_scooter", "fusion_lat": 0.0, "is_disabled": 0, "rental_uris": {"ios": "https://dc.lft.to/lastmile_qr_scan", "android": "https://dc.lft.to/lastmile_qr_scan"}, "bike_id": "8447469efd1a8072249caa7aa47d17b4", "lat": 38.917180333333334, "name": "8447469efd1a8072249caa7aa47d17b4", "lon": -77.03858816666667, "fusion_lon": 0.0}, {"is_reserved": 0, "type": "electric_scooter", "fusion_lat": 0.0, "is_disabled": 0, "rental_uris": {"ios": "https://dc.lft.to/lastmile_qr_scan", "android": "https://dc.lft.to/lastmile_qr_scan"}, "bike_id": "803541cfd7cb9796abe56745b793e2e7", "lat": 38.917078, "name": "803541cfd7cb9796abe56745b793e2e7", "lon": -77.04599683333333, "fusion_lon": 0.0}, {"is_reserved": 0, "type": "electric_scooter", "fusion_lat": 0.0, "is_disabled": 0, "rental_uris": {"ios": "https://dc.lft.to/lastmile_qr_scan", "android": "https://dc.lft.to/lastmile_qr_scan"}, "bike_id": "73bc90829d0093655eeb2fef8dc9b4eb", "lat": 38.96766066666667, "name": "73bc90829d0093655eeb2fef8dc9b4eb", "lon": -77.034308, "fusion_lon": 0.0}, {"is_reserved": 0, "type": "electric_scooter", "fusion_lat": 0.0, "is_disabled": 0, "rental_uris": {"ios": "https://dc.lft.to/lastmile_qr_scan", "android": "https://dc.lft.to/lastmile_qr_scan"}, "bike_id": "8d1571a636e5fd5c6869ef8c2d7800fc", "lat": 38.904103166666665, "name": "8d1571a636e5fd5c6869ef8c2d7800fc", "lon": -76.97330683333334, "fusion_lon": 0.0}, {"is_reserved": 0, "type": "electric_bike", "fusion_lat": 0.0, "is_disabled": 0, "rental_uris": {"ios": "https://dc.lft.to/lastmile_qr_scan", "android": "https://dc.lft.to/lastmile_qr_scan"}, "bike_id": "19d557a6667dc6846d1f4083971fe158", "lat": 38.8154185, "name": "19d557a6667dc6846d1f4083971fe158", "lon": -77.0464205, "fusion_lon": 0.0}, {"is_reserved": 0, "type": "electric_scooter", "fusion_lat": 0.0, "is_disabled": 0, "rental_uris": {"ios": "https://dc.lft.to/lastmile_qr_scan", "android": "https://dc.lft.to/lastmile_qr_scan"}, "bike_id": "6ff7947e788594966c7f16f35814183e", "lat": 38.927505833333335, "name": "6ff7947e788594966c7f16f35814183e", "lon": -77.02372266666667, "fusion_lon": 0.0}, {"is_reserved": 0, "type": "electric_scooter", "fusion_lat": 0.0, "is_disabled": 0, "rental_uris": {"ios": "https://dc.lft.to/lastmile_qr_scan", "android": "https://dc.lft.to/lastmile_qr_scan"}, "bike_id": "969f231e9128cca1a91de62c326d9396", "lat": 38.915944333333336, "name": "969f231e9128cca1a91de62c326d9396", "lon": -77.0269675, "fusion_lon": 0.0}, {"is_reserved": 0, "type": "electric_scooter", "fusion_lat": 0.0, "is_disabled": 0, "rental_uris": {"ios": "https://dc.lft.to/lastmile_qr_scan", "android": "https://dc.lft.to/lastmile_qr_scan"}, "bike_id": "6499bc1ac06ef262d358973acce61514", "lat": 38.90949666666667, "name": "6499bc1ac06ef262d358973acce61514", "lon": -77.0152445, "fusion_lon": 0.0}, {"is_reserved": 0, "type": "electric_scooter", "fusion_lat": 0.0, "is_disabled": 0, "rental_uris": {"ios": "https://dc.lft.to/lastmile_qr_scan", "android": "https://dc.lft.to/lastmile_qr_scan"}, "bike_id": "8834292a159a33d40e1626fc1296d530", "lat": 38.91374166666667, "name": "8834292a159a33d40e1626fc1296d530", "lon": -77.0447535, "fusion_lon": 0.0}, {"is_reserved": 0, "type": "electric_scooter", "fusion_lat": 0.0, "is_disabled": 0, "rental_uris": {"ios": "https://dc.lft.to/lastmile_qr_scan", "android": "https://dc.lft.to/lastmile_qr_scan"}, "bike_id": "f838d96ab9cb81beff867e185bb4d0e9", "lat": 38.88712433333333, "name": "f838d96ab9cb81beff867e185bb4d0e9", "lon": -76.98379866666667, "fusion_lon": 0.0}, {"is_reserved": 0, "type": "electric_scooter", "fusion_lat": 0.0, "is_disabled": 0, "rental_uris": {"ios": "https://dc.lft.to/lastmile_qr_scan", "android": "https://dc.lft.to/lastmile_qr_scan"}, "bike_id": "c3554b36869334cd788af2aa48951ea1", "lat": 38.887359000000004, "name": "c3554b36869334cd788af2aa48951ea1", "lon": -77.01393766666666, "fusion_lon": 0.0}, {"is_reserved": 0, "type": "electric_scooter", "fusion_lat": 0.0, "is_disabled": 0, "rental_uris": {"ios": "https://dc.lft.to/lastmile_qr_scan", "android": "https://dc.lft.to/lastmile_qr_scan"}, "bike_id": "29bb04567920631306f8e49cda6f0ef5", "lat": 38.91657133333333, "name": "29bb04567920631306f8e49cda6f0ef5", "lon": -77.02312966666666, "fusion_lon": 0.0}, {"is_reserved": 0, "type": "electric_scooter", "fusion_lat": 0.0, "is_disabled": 0, "rental_uris": {"ios": "https://dc.lft.to/lastmile_qr_scan", "android": "https://dc.lft.to/lastmile_qr_scan"}, "bike_id": "0f6756d629cba016567ca9692005424f", "lat": 38.9224385, "name": "0f6756d629cba016567ca9692005424f", "lon": -77.01840166666666, "fusion_lon": 0.0}, {"is_reserved": 0, "type": "electric_scooter", "fusion_lat": 0.0, "is_disabled": 0, "rental_uris": {"ios": "https://dc.lft.to/lastmile_qr_scan", "android": "https://dc.lft.to/lastmile_qr_scan"}, "bike_id": "8af59151ec36aa939bf65cb0c2202020", "lat": 38.946985166666664, "name": "8af59151ec36aa939bf65cb0c2202020", "lon": -77.03284083333334, "fusion_lon": 0.0}, {"is_reserved": 0, "type": "electric_scooter", "fusion_lat": 0.0, "is_disabled": 0, "rental_uris": {"ios": "https://dc.lft.to/lastmile_qr_scan", "android": "https://dc.lft.to/lastmile_qr_scan"}, "bike_id": "efca5bafbdb30c9cccf003096b0556c3", "lat": 38.9408865, "name": "efca5bafbdb30c9cccf003096b0556c3", "lon": -77.02302366666666, "fusion_lon": 0.0}, {"is_reserved": 0, "type": "electric_scooter", "fusion_lat": 0.0, "is_disabled": 0, "rental_uris": {"ios": "https://dc.lft.to/lastmile_qr_scan", "android": "https://dc.lft.to/lastmile_qr_scan"}, "bike_id": "525efe70f63defd6f8d2911f7c658bb2", "lat": 38.9013865, "name": "525efe70f63defd6f8d2911f7c658bb2", "lon": -77.04011533333333, "fusion_lon": 0.0}, {"is_reserved": 0, "type": "electric_scooter", "fusion_lat": 0.0, "is_disabled": 0, "rental_uris": {"ios": "https://dc.lft.to/lastmile_qr_scan", "android": "https://dc.lft.to/lastmile_qr_scan"}, "bike_id": "19aa6a2a6f9a4b5a62078498a7dd3098", "lat": 38.957359333333336, "name": "19aa6a2a6f9a4b5a62078498a7dd3098", "lon": -77.02417633333333, "fusion_lon": 0.0}, {"is_reserved": 0, "type": "electric_scooter", "fusion_lat": 0.0, "is_disabled": 0, "rental_uris": {"ios": "https://dc.lft.to/lastmile_qr_scan", "android": "https://dc.lft.to/lastmile_qr_scan"}, "bike_id": "1a5e77869278527a8074dfb7882b2d70", "lat": 38.8929165, "name": "1a5e77869278527a8074dfb7882b2d70", "lon": -77.01224866666666, "fusion_lon": 0.0}, {"is_reserved": 0, "type": "electric_scooter", "fusion_lat": 0.0, "is_disabled": 0, "rental_uris": {"ios": "https://dc.lft.to/lastmile_qr_scan", "android": "https://dc.lft.to/lastmile_qr_scan"}, "bike_id": "71080557bf8adb59063f8c8c6fbb1388", "lat": 38.92346933333334, "name": "71080557bf8adb59063f8c8c6fbb1388", "lon": -77.03525683333334, "fusion_lon": 0.0}, {"is_reserved": 0, "type": "electric_scooter", "fusion_lat": 0.0, "is_disabled": 0, "rental_uris": {"ios": "https://dc.lft.to/lastmile_qr_scan", "android": "https://dc.lft.to/lastmile_qr_scan"}, "bike_id": "259b512286ed2007ff96a713e4a5976e", "lat": 38.9148645, "name": "259b512286ed2007ff96a713e4a5976e", "lon": -77.02200466666666, "fusion_lon": 0.0}, {"is_reserved": 0, "type": "electric_scooter", "fusion_lat": 0.0, "is_disabled": 0, "rental_uris": {"ios": "https://dc.lft.to/lastmile_qr_scan", "android": "https://dc.lft.to/lastmile_qr_scan"}, "bike_id": "ae6c461678d21956783c5f66dbbaf24a", "lat": 38.923205, "name": "ae6c461678d21956783c5f66dbbaf24a", "lon": -77.01950216666667, "fusion_lon": 0.0}, {"is_reserved": 0, "type": "electric_scooter", "fusion_lat": 0.0, "is_disabled": 0, "rental_uris": {"ios": "https://dc.lft.to/lastmile_qr_scan", "android": "https://dc.lft.to/lastmile_qr_scan"}, "bike_id": "8627560b34c024d35b3568a1586a92aa", "lat": 38.92744, "name": "8627560b34c024d35b3568a1586a92aa", "lon": -77.02612333333333, "fusion_lon": 0.0}, {"is_reserved": 0, "type": "electric_scooter", "fusion_lat": 0.0, "is_disabled": 0, "rental_uris": {"ios": "https://dc.lft.to/lastmile_qr_scan", "android": "https://dc.lft.to/lastmile_qr_scan"}, "bike_id": "468b02e82d145ebb4116ec2be02ad824", "lat": 38.90243816666667, "name": "468b02e82d145ebb4116ec2be02ad824", "lon": -77.02776683333333, "fusion_lon": 0.0}, {"is_reserved": 0, "type": "electric_scooter", "fusion_lat": 0.0, "is_disabled": 0, "rental_uris": {"ios": "https://dc.lft.to/lastmile_qr_scan", "android": "https://dc.lft.to/lastmile_qr_scan"}, "bike_id": "0b3b3a6fe81e88d2439f7ef923075e62", "lat": 38.92319416666667, "name": "0b3b3a6fe81e88d2439f7ef923075e62", "lon": -77.045102, "fusion_lon": 0.0}, {"is_reserved": 0, "type": "electric_scooter", "fusion_lat": 0.0, "is_disabled": 0, "rental_uris": {"ios": "https://dc.lft.to/lastmile_qr_scan", "android": "https://dc.lft.to/lastmile_qr_scan"}, "bike_id": "1a35383fc0c6c2edf87cfe344f5363fd", "lat": 38.918512166666666, "name": "1a35383fc0c6c2edf87cfe344f5363fd", "lon": -77.02602983333334, "fusion_lon": 0.0}, {"is_reserved": 0, "type": "electric_bike", "fusion_lat": 0.0, "is_disabled": 0, "rental_uris": {"ios": "https://dc.lft.to/lastmile_qr_scan", "android": "https://dc.lft.to/lastmile_qr_scan"}, "bike_id": "bd42f98328a64ced0522639da8ea6f0a", "lat": 38.925669, "name": "bd42f98328a64ced0522639da8ea6f0a", "lon": -77.04033933333334, "fusion_lon": 0.0}, {"is_reserved": 0, "type": "electric_scooter", "fusion_lat": 0.0, "is_disabled": 0, "rental_uris": {"ios": "https://dc.lft.to/lastmile_qr_scan", "android": "https://dc.lft.to/lastmile_qr_scan"}, "bike_id": "de47117ba026b3149a2b4c5067b8d84c", "lat": 38.921040833333336, "name": "de47117ba026b3149a2b4c5067b8d84c", "lon": -77.030491, "fusion_lon": 0.0}, {"is_reserved": 0, "type": "electric_scooter", "fusion_lat": 0.0, "is_disabled": 0, "rental_uris": {"ios": "https://dc.lft.to/lastmile_qr_scan", "android": "https://dc.lft.to/lastmile_qr_scan"}, "bike_id": "287b9d3e8b420093bb3075285b992132", "lat": 38.91500283333333, "name": "287b9d3e8b420093bb3075285b992132", "lon": -77.03214433333333, "fusion_lon": 0.0}, {"is_reserved": 0, "type": "electric_scooter", "fusion_lat": 0.0, "is_disabled": 0, "rental_uris": {"ios": "https://dc.lft.to/lastmile_qr_scan", "android": "https://dc.lft.to/lastmile_qr_scan"}, "bike_id": "5317b2d0e7a00d4cacfc83322abd1409", "lat": 38.914751833333334, "name": "5317b2d0e7a00d4cacfc83322abd1409", "lon": -77.0185305, "fusion_lon": 0.0}, {"is_reserved": 0, "type": "electric_scooter", "fusion_lat": 0.0, "is_disabled": 0, "rental_uris": {"ios": "https://dc.lft.to/lastmile_qr_scan", "android": "https://dc.lft.to/lastmile_qr_scan"}, "bike_id": "c5ff2cfd7f360f20e3c686e423e35095", "lat": 38.8794045, "name": "c5ff2cfd7f360f20e3c686e423e35095", "lon": -77.00701983333333, "fusion_lon": 0.0}, {"is_reserved": 0, "type": "electric_scooter", "fusion_lat": 0.0, "is_disabled": 0, "rental_uris": {"ios": "https://dc.lft.to/lastmile_qr_scan", "android": "https://dc.lft.to/lastmile_qr_scan"}, "bike_id": "5b1f29c7ec1c46e3c36d2796d55ae710", "lat": 38.909726166666665, "name": "5b1f29c7ec1c46e3c36d2796d55ae710", "lon": -77.022063, "fusion_lon": 0.0}, {"is_reserved": 0, "type": "electric_scooter", "fusion_lat": 0.0, "is_disabled": 0, "rental_uris": {"ios": "https://dc.lft.to/lastmile_qr_scan", "android": "https://dc.lft.to/lastmile_qr_scan"}, "bike_id": "e22d5914d555326bfd74d010e29db6e3", "lat": 38.91826733333333, "name": "e22d5914d555326bfd74d010e29db6e3", "lon": -77.0242045, "fusion_lon": 0.0}, {"is_reserved": 0, "type": "electric_scooter", "fusion_lat": 0.0, "is_disabled": 0, "rental_uris": {"ios": "https://dc.lft.to/lastmile_qr_scan", "android": "https://dc.lft.to/lastmile_qr_scan"}, "bike_id": "b4aa022a8b724f526033925e78b04859", "lat": 38.936575833333336, "name": "b4aa022a8b724f526033925e78b04859", "lon": -77.02140516666667, "fusion_lon": 0.0}, {"is_reserved": 0, "type": "electric_scooter", "fusion_lat": 0.0, "is_disabled": 0, "rental_uris": {"ios": "https://dc.lft.to/lastmile_qr_scan", "android": "https://dc.lft.to/lastmile_qr_scan"}, "bike_id": "c58ce7ca1f6498ceefb642293f415eb0", "lat": 38.936338666666664, "name": "c58ce7ca1f6498ceefb642293f415eb0", "lon": -77.03265233333333, "fusion_lon": 0.0}, {"is_reserved": 0, "type": "electric_scooter", "fusion_lat": 0.0, "is_disabled": 0, "rental_uris": {"ios": "https://dc.lft.to/lastmile_qr_scan", "android": "https://dc.lft.to/lastmile_qr_scan"}, "bike_id": "8a3f886a854ceabbe3887c4d0664fc1a", "lat": 38.9115865, "name": "8a3f886a854ceabbe3887c4d0664fc1a", "lon": -77.044831, "fusion_lon": 0.0}, {"is_reserved": 0, "type": "electric_bike", "fusion_lat": 0.0, "is_disabled": 0, "rental_uris": {"ios": "https://dc.lft.to/lastmile_qr_scan", "android": "https://dc.lft.to/lastmile_qr_scan"}, "bike_id": "20778e2fb70c07204e08670869d4a058", "lat": 38.865634166666666, "name": "20778e2fb70c07204e08670869d4a058", "lon": -76.9748105, "fusion_lon": 0.0}, {"is_reserved": 0, "type": "electric_scooter", "fusion_lat": 0.0, "is_disabled": 0, "rental_uris": {"ios": "https://dc.lft.to/lastmile_qr_scan", "android": "https://dc.lft.to/lastmile_qr_scan"}, "bike_id": "0063bc8b9a9b8e5aba8dffd15a12f499", "lat": 38.90013366666667, "name": "0063bc8b9a9b8e5aba8dffd15a12f499", "lon": -77.00392066666667, "fusion_lon": 0.0}, {"is_reserved": 0, "type": "electric_bike", "fusion_lat": 0.0, "is_disabled": 0, "rental_uris": {"ios": "https://dc.lft.to/lastmile_qr_scan", "android": "https://dc.lft.to/lastmile_qr_scan"}, "bike_id": "5c73290e7f4443050dcce0623bd40ef7", "lat": 38.824323, "name": "5c73290e7f4443050dcce0623bd40ef7", "lon": -77.1204065, "fusion_lon": 0.0}, {"is_reserved": 0, "type": "electric_scooter", "fusion_lat": 0.0, "is_disabled": 0, "rental_uris": {"ios": "https://dc.lft.to/lastmile_qr_scan", "android": "https://dc.lft.to/lastmile_qr_scan"}, "bike_id": "86945652ea19a381c252b709818ce4ca", "lat": 38.885824, "name": "86945652ea19a381c252b709818ce4ca", "lon": -77.012277, "fusion_lon": 0.0}, {"is_reserved": 0, "type": "electric_scooter", "fusion_lat": 0.0, "is_disabled": 0, "rental_uris": {"ios": "https://dc.lft.to/lastmile_qr_scan", "android": "https://dc.lft.to/lastmile_qr_scan"}, "bike_id": "b7893796c8b0d64dedfa3aca8e959b1b", "lat": 38.90068083333333, "name": "b7893796c8b0d64dedfa3aca8e959b1b", "lon": -77.01339283333333, "fusion_lon": 0.0}, {"is_reserved": 0, "type": "electric_scooter", "fusion_lat": 0.0, "is_disabled": 0, "rental_uris": {"ios": "https://dc.lft.to/lastmile_qr_scan", "android": "https://dc.lft.to/lastmile_qr_scan"}, "bike_id": "2f4d04979485cfb4135aeff0ed1f4752", "lat": 38.9104245, "name": "2f4d04979485cfb4135aeff0ed1f4752", "lon": -77.01031166666667, "fusion_lon": 0.0}, {"is_reserved": 0, "type": "electric_scooter", "fusion_lat": 0.0, "is_disabled": 0, "rental_uris": {"ios": "https://dc.lft.to/lastmile_qr_scan", "android": "https://dc.lft.to/lastmile_qr_scan"}, "bike_id": "c25a83d08eed8d510f5e451f3342f789", "lat": 38.92903833333333, "name": "c25a83d08eed8d510f5e451f3342f789", "lon": -77.02349833333334, "fusion_lon": 0.0}, {"is_reserved": 0, "type": "electric_scooter", "fusion_lat": 0.0, "is_disabled": 0, "rental_uris": {"ios": "https://dc.lft.to/lastmile_qr_scan", "android": "https://dc.lft.to/lastmile_qr_scan"}, "bike_id": "38cc4218645efd02c8a8238a2c5f9985", "lat": 38.9169305, "name": "38cc4218645efd02c8a8238a2c5f9985", "lon": -77.03964783333333, "fusion_lon": 0.0}, {"is_reserved": 0, "type": "electric_bike", "fusion_lat": 0.0, "is_disabled": 0, "rental_uris": {"ios": "https://dc.lft.to/lastmile_qr_scan", "android": "https://dc.lft.to/lastmile_qr_scan"}, "bike_id": "8d9a9b904d925a0d9af2150cb771ff6d", "lat": 38.9303965, "name": "8d9a9b904d925a0d9af2150cb771ff6d", "lon": -77.05561666666667, "fusion_lon": 0.0}, {"is_reserved": 0, "type": "electric_scooter", "fusion_lat": 0.0, "is_disabled": 0, "rental_uris": {"ios": "https://dc.lft.to/lastmile_qr_scan", "android": "https://dc.lft.to/lastmile_qr_scan"}, "bike_id": "163daf9a4d5c84c6acef20f1e84c2e6e", "lat": 38.8985265, "name": "163daf9a4d5c84c6acef20f1e84c2e6e", "lon": -77.0393275, "fusion_lon": 0.0}, {"is_reserved": 0, "type": "electric_scooter", "fusion_lat": 0.0, "is_disabled": 0, "rental_uris": {"ios": "https://dc.lft.to/lastmile_qr_scan", "android": "https://dc.lft.to/lastmile_qr_scan"}, "bike_id": "d9c15a4352d7b6c50b3821986511bf54", "lat": 38.90409783333333, "name": "d9c15a4352d7b6c50b3821986511bf54", "lon": -76.97331199999999, "fusion_lon": 0.0}, {"is_reserved": 0, "type": "electric_scooter", "fusion_lat": 0.0, "is_disabled": 0, "rental_uris": {"ios": "https://dc.lft.to/lastmile_qr_scan", "android": "https://dc.lft.to/lastmile_qr_scan"}, "bike_id": "710c2f4a9c9b17e3579d959c16e8d9c5", "lat": 38.9420575, "name": "710c2f4a9c9b17e3579d959c16e8d9c5", "lon": -77.01331216666667, "fusion_lon": 0.0}, {"is_reserved": 0, "type": "electric_scooter", "fusion_lat": 0.0, "is_disabled": 0, "rental_uris": {"ios": "https://dc.lft.to/lastmile_qr_scan", "android": "https://dc.lft.to/lastmile_qr_scan"}, "bike_id": "050b8bab9f6a272196d8c79e098e81aa", "lat": 38.9464705, "name": "050b8bab9f6a272196d8c79e098e81aa", "lon": -77.01748133333334, "fusion_lon": 0.0}, {"is_reserved": 0, "type": "electric_scooter", "fusion_lat": 0.0, "is_disabled": 0, "rental_uris": {"ios": "https://dc.lft.to/lastmile_qr_scan", "android": "https://dc.lft.to/lastmile_qr_scan"}, "bike_id": "46cf8c0b91c374f4351ca26159be5f32", "lat": 38.9054085, "name": "46cf8c0b91c374f4351ca26159be5f32", "lon": -77.05804766666667, "fusion_lon": 0.0}, {"is_reserved": 0, "type": "electric_scooter", "fusion_lat": 0.0, "is_disabled": 0, "rental_uris": {"ios": "https://dc.lft.to/lastmile_qr_scan", "android": "https://dc.lft.to/lastmile_qr_scan"}, "bike_id": "b3fbf6280d8f899b9a195138cb5a728c", "lat": 38.906025166666666, "name": "b3fbf6280d8f899b9a195138cb5a728c", "lon": -77.0665445, "fusion_lon": 0.0}, {"is_reserved": 0, "type": "electric_bike", "fusion_lat": 0.0, "is_disabled": 0, "rental_uris": {"ios": "https://dc.lft.to/lastmile_qr_scan", "android": "https://dc.lft.to/lastmile_qr_scan"}, "bike_id": "e58a831711d55b867aceaf8d271e0604", "lat": 38.91902733333333, "name": "e58a831711d55b867aceaf8d271e0604", "lon": -77.000653, "fusion_lon": 0.0}, {"is_reserved": 0, "type": "electric_scooter", "fusion_lat": 0.0, "is_disabled": 0, "rental_uris": {"ios": "https://dc.lft.to/lastmile_qr_scan", "android": "https://dc.lft.to/lastmile_qr_scan"}, "bike_id": "4d8d54763a4da70d147e64659ae18538", "lat": 38.92716033333333, "name": "4d8d54763a4da70d147e64659ae18538", "lon": -77.02083616666667, "fusion_lon": 0.0}, {"is_reserved": 0, "type": "electric_scooter", "fusion_lat": 0.0, "is_disabled": 0, "rental_uris": {"ios": "https://dc.lft.to/lastmile_qr_scan", "android": "https://dc.lft.to/lastmile_qr_scan"}, "bike_id": "28c931e785b6a161c63144b4ac9ac404", "lat": 38.916783, "name": "28c931e785b6a161c63144b4ac9ac404", "lon": -77.04150883333334, "fusion_lon": 0.0}, {"is_reserved": 0, "type": "electric_scooter", "fusion_lat": 0.0, "is_disabled": 0, "rental_uris": {"ios": "https://dc.lft.to/lastmile_qr_scan", "android": "https://dc.lft.to/lastmile_qr_scan"}, "bike_id": "d184c9d7ed36c4648b3aec794963b649", "lat": 38.9427645, "name": "d184c9d7ed36c4648b3aec794963b649", "lon": -77.02934133333333, "fusion_lon": 0.0}, {"is_reserved": 0, "type": "electric_scooter", "fusion_lat": 0.0, "is_disabled": 0, "rental_uris": {"ios": "https://dc.lft.to/lastmile_qr_scan", "android": "https://dc.lft.to/lastmile_qr_scan"}, "bike_id": "0ea667d7f15c7c75cf15a9ebf42ee704", "lat": 38.926479, "name": "0ea667d7f15c7c75cf15a9ebf42ee704", "lon": -77.03849816666667, "fusion_lon": 0.0}, {"is_reserved": 0, "type": "electric_scooter", "fusion_lat": 0.0, "is_disabled": 0, "rental_uris": {"ios": "https://dc.lft.to/lastmile_qr_scan", "android": "https://dc.lft.to/lastmile_qr_scan"}, "bike_id": "489780732f52f6f1668e75f27d8557d1", "lat": 38.917209666666665, "name": "489780732f52f6f1668e75f27d8557d1", "lon": -77.034633, "fusion_lon": 0.0}, {"is_reserved": 0, "type": "electric_scooter", "fusion_lat": 0.0, "is_disabled": 0, "rental_uris": {"ios": "https://dc.lft.to/lastmile_qr_scan", "android": "https://dc.lft.to/lastmile_qr_scan"}, "bike_id": "338680c1f89d8eb0dc591dc6308e4b0d", "lat": 38.902709333333334, "name": "338680c1f89d8eb0dc591dc6308e4b0d", "lon": -77.020103, "fusion_lon": 0.0}, {"is_reserved": 0, "type": "electric_scooter", "fusion_lat": 0.0, "is_disabled": 0, "rental_uris": {"ios": "https://dc.lft.to/lastmile_qr_scan", "android": "https://dc.lft.to/lastmile_qr_scan"}, "bike_id": "bbcd10e7f703af5fba04ae3866fa5a72", "lat": 38.90577016666667, "name": "bbcd10e7f703af5fba04ae3866fa5a72", "lon": -77.02992716666667, "fusion_lon": 0.0}, {"is_reserved": 0, "type": "electric_scooter", "fusion_lat": 0.0, "is_disabled": 0, "rental_uris": {"ios": "https://dc.lft.to/lastmile_qr_scan", "android": "https://dc.lft.to/lastmile_qr_scan"}, "bike_id": "d5f3906ef585b3853b60ba10281ad4d1", "lat": 38.90310783333334, "name": "d5f3906ef585b3853b60ba10281ad4d1", "lon": -77.041849, "fusion_lon": 0.0}, {"is_reserved": 0, "type": "electric_scooter", "fusion_lat": 0.0, "is_disabled": 0, "rental_uris": {"ios": "https://dc.lft.to/lastmile_qr_scan", "android": "https://dc.lft.to/lastmile_qr_scan"}, "bike_id": "2ae1e8426a7111e2ef7f30d66c8117cd", "lat": 38.91367283333334, "name": "2ae1e8426a7111e2ef7f30d66c8117cd", "lon": -77.0449475, "fusion_lon": 0.0}, {"is_reserved": 0, "type": "electric_scooter", "fusion_lat": 0.0, "is_disabled": 0, "rental_uris": {"ios": "https://dc.lft.to/lastmile_qr_scan", "android": "https://dc.lft.to/lastmile_qr_scan"}, "bike_id": "68482ee8483106c5d81bc454ef0edcf5", "lat": 38.928733, "name": "68482ee8483106c5d81bc454ef0edcf5", "lon": -77.03993816666667, "fusion_lon": 0.0}, {"is_reserved": 0, "type": "electric_bike", "fusion_lat": 0.0, "is_disabled": 0, "rental_uris": {"ios": "https://dc.lft.to/lastmile_qr_scan", "android": "https://dc.lft.to/lastmile_qr_scan"}, "bike_id": "61e57645f5ac487156447061ee35c514", "lat": 38.86820516666667, "name": "61e57645f5ac487156447061ee35c514", "lon": -76.98022433333334, "fusion_lon": 0.0}, {"is_reserved": 0, "type": "electric_scooter", "fusion_lat": 0.0, "is_disabled": 0, "rental_uris": {"ios": "https://dc.lft.to/lastmile_qr_scan", "android": "https://dc.lft.to/lastmile_qr_scan"}, "bike_id": "98dd0b61aa6c2984c983751e1701e906", "lat": 38.893187833333336, "name": "98dd0b61aa6c2984c983751e1701e906", "lon": -77.01985583333334, "fusion_lon": 0.0}, {"is_reserved": 0, "type": "electric_scooter", "fusion_lat": 0.0, "is_disabled": 0, "rental_uris": {"ios": "https://dc.lft.to/lastmile_qr_scan", "android": "https://dc.lft.to/lastmile_qr_scan"}, "bike_id": "90e846f19f06351ba99cc26ef4a75725", "lat": 38.904690333333335, "name": "90e846f19f06351ba99cc26ef4a75725", "lon": -77.02696466666667, "fusion_lon": 0.0}, {"is_reserved": 0, "type": "electric_scooter", "fusion_lat": 0.0, "is_disabled": 0, "rental_uris": {"ios": "https://dc.lft.to/lastmile_qr_scan", "android": "https://dc.lft.to/lastmile_qr_scan"}, "bike_id": "d66d704764e5be010551737f93ef1a4a", "lat": 38.944496666666666, "name": "d66d704764e5be010551737f93ef1a4a", "lon": -77.03281733333333, "fusion_lon": 0.0}, {"is_reserved": 0, "type": "electric_scooter", "fusion_lat": 0.0, "is_disabled": 0, "rental_uris": {"ios": "https://dc.lft.to/lastmile_qr_scan", "android": "https://dc.lft.to/lastmile_qr_scan"}, "bike_id": "04f7157aede0b4ba9312a39c81b781fb", "lat": 38.9126965, "name": "04f7157aede0b4ba9312a39c81b781fb", "lon": -77.01434583333334, "fusion_lon": 0.0}, {"is_reserved": 0, "type": "electric_scooter", "fusion_lat": 0.0, "is_disabled": 0, "rental_uris": {"ios": "https://dc.lft.to/lastmile_qr_scan", "android": "https://dc.lft.to/lastmile_qr_scan"}, "bike_id": "e51946d5a044b3c567ff155161a5bbf8", "lat": 38.9217065, "name": "e51946d5a044b3c567ff155161a5bbf8", "lon": -77.04226433333334, "fusion_lon": 0.0}, {"is_reserved": 0, "type": "electric_scooter", "fusion_lat": 0.0, "is_disabled": 0, "rental_uris": {"ios": "https://dc.lft.to/lastmile_qr_scan", "android": "https://dc.lft.to/lastmile_qr_scan"}, "bike_id": "c212a1c676b87409f0b259da942d9016", "lat": 38.89225616666667, "name": "c212a1c676b87409f0b259da942d9016", "lon": -77.0449025, "fusion_lon": 0.0}, {"is_reserved": 0, "type": "electric_scooter", "fusion_lat": 0.0, "is_disabled": 0, "rental_uris": {"ios": "https://dc.lft.to/lastmile_qr_scan", "android": "https://dc.lft.to/lastmile_qr_scan"}, "bike_id": "bd697002c80846a5a8c2e6f8119db617", "lat": 38.91951683333333, "name": "bd697002c80846a5a8c2e6f8119db617", "lon": -77.02302183333333, "fusion_lon": 0.0}, {"is_reserved": 0, "type": "electric_scooter", "fusion_lat": 0.0, "is_disabled": 0, "rental_uris": {"ios": "https://dc.lft.to/lastmile_qr_scan", "android": "https://dc.lft.to/lastmile_qr_scan"},