{"data": {"bikes": [{"is_disabled": 0, "fusion_lon": 0.0, "fusion_lat": 0.0, "lat": 38.92370716666667, "type": "electric_scooter", "lon": -77.03078533333333, "bike_id": "4df46bc95fdd4bad27e7af39207856b9", "rental_uris": {"android": "https://dc.lft.to/lastmile_qr_scan", "ios": "https://dc.lft.to/lastmile_qr_scan"}, "name": "4df46bc95fdd4bad27e7af39207856b9", "is_reserved": 0}, {"is_disabled": 0, "fusion_lon": 0.0, "fusion_lat": 0.0, "lat": 38.91699766666667, "type": "electric_scooter", "lon": -77.02737216666667, "bike_id": "09484a62e98d1b2ab322b9c978bd4b20", "rental_uris": {"android": "https://dc.lft.to/lastmile_qr_scan", "ios": "https://dc.lft.to/lastmile_qr_scan"}, "name": "09484a62e98d1b2ab322b9c978bd4b20", "is_reserved": 0}, {"is_disabled": 0, "fusion_lon": 0.0, "fusion_lat": 0.0, "lat": 38.90276766666667, "type": "electric_scooter", "lon": -77.03936133333333, "bike_id": "bb5c5444482ea1faa117124df9e69184", "rental_uris": {"android": "https://dc.lft.to/lastmile_qr_scan", "ios": "https://dc.lft.to/lastmile_qr_scan"}, "name": "bb5c5444482ea1faa117124df9e69184", "is_reserved": 0}, {"is_disabled": 0, "fusion_lon": 0.0, "fusion_lat": 0.0, "lat": 38.92249616666667, "type": "electric_scooter", "lon": -77.03663483333334, "bike_id": "d64ea21dc57ac170989532f5aa051995", "rental_uris": {"android": "https://dc.lft.to/lastmile_qr_scan", "ios": "https://dc.lft.to/lastmile_qr_scan"}, "name": "d64ea21dc57ac170989532f5aa051995", "is_reserved": 0}, {"is_disabled": 0, "fusion_lon": 0.0, "fusion_lat": 0.0, "lat": 38.94316666666667, "type": "electric_scooter", "lon": -77.06172433333333, "bike_id": "3e6fb84b818c98b3d5e0119674ee7740", "rental_uris": {"android": "https://dc.lft.to/lastmile_qr_scan", "ios": "https://dc.lft.to/lastmile_qr_scan"}, "name": "3e6fb84b818c98b3d5e0119674ee7740", "is_reserved": 0}, {"is_disabled": 0, "fusion_lon": 0.0, "fusion_lat": 0.0, "lat": 38.926318, "type": "electric_scooter", "lon": -77.03513133333334, "bike_id": "87eee2fa7ab3f0e2b5ccc3a5c980b847", "rental_uris": {"android": "https://dc.lft.to/lastmile_qr_scan", "ios": "https://dc.lft.to/lastmile_qr_scan"}, "name": "87eee2fa7ab3f0e2b5ccc3a5c980b847", "is_reserved": 0}, {"is_disabled": 0, "fusion_lon": 0.0, "fusion_lat": 0.0, "lat": 38.890121, "type": "electric_scooter", "lon": -76.9384045, "bike_id": "13db0cf7830b674f4960962b70288bce", "rental_uris": {"android": "https://dc.lft.to/lastmile_qr_scan", "ios": "https://dc.lft.to/lastmile_qr_scan"}, "name": "13db0cf7830b674f4960962b70288bce", "is_reserved": 0}, {"is_disabled": 0, "fusion_lon": 0.0, "fusion_lat": 0.0, "lat": 38.930918166666665, "type": "electric_scooter", "lon": -77.036188, "bike_id": "fc35804f6067b454a4f09e28368cd566", "rental_uris": {"android": "https://dc.lft.to/lastmile_qr_scan", "ios": "https://dc.lft.to/lastmile_qr_scan"}, "name": "fc35804f6067b454a4f09e28368cd566", "is_reserved": 0}, {"is_disabled": 0, "fusion_lon": 0.0, "fusion_lat": 0.0, "lat": 38.939276166666666, "type": "electric_scooter", "lon": -77.074662, "bike_id": "f21f1e6717b712bcb703556c99c9ba66", "rental_uris": {"android": "https://dc.lft.to/lastmile_qr_scan", "ios": "https://dc.lft.to/lastmile_qr_scan"}, "name": "f21f1e6717b712bcb703556c99c9ba66", "is_reserved": 0}, {"is_disabled": 0, "fusion_lon": 0.0, "fusion_lat": 0.0, "lat": 38.930582, "type": "electric_scooter", "lon": -77.02974433333333, "bike_id": "545cd3d9cf26c94a5a614d4159b54f54", "rental_uris": {"android": "https://dc.lft.to/lastmile_qr_scan", "ios": "https://dc.lft.to/lastmile_qr_scan"}, "name": "545cd3d9cf26c94a5a614d4159b54f54", "is_reserved": 0}, {"is_disabled": 0, "fusion_lon": 0.0, "fusion_lat": 0.0, "lat": 39.024953, "type": "electric_bike", "lon": -77.12570433333333, "bike_id": "fa5dda13299a73fa9a0ee4e905a6e10b", "rental_uris": {"android": "https://dc.lft.to/lastmile_qr_scan", "ios": "https://dc.lft.to/lastmile_qr_scan"}, "name": "fa5dda13299a73fa9a0ee4e905a6e10b", "is_reserved": 0}, {"is_disabled": 0, "fusion_lon": 0.0, "fusion_lat": 0.0, "lat": 38.900317666666666, "type": "electric_scooter", "lon": -76.99620583333333, "bike_id": "7fd60ef3bfe869afccf1557ad745ed56", "rental_uris": {"android": "https://dc.lft.to/lastmile_qr_scan", "ios": "https://dc.lft.to/lastmile_qr_scan"}, "name": "7fd60ef3bfe869afccf1557ad745ed56", "is_reserved": 0}, {"is_disabled": 0, "fusion_lon": 0.0, "fusion_lat": 0.0, "lat": 38.898458833333336, "type": "electric_scooter", "lon": -77.029155, "bike_id": "39148fbfad555a28ae7cbb2c3cca3614", "rental_uris": {"android": "https://dc.lft.to/lastmile_qr_scan", "ios": "https://dc.lft.to/lastmile_qr_scan"}, "name": "39148fbfad555a28ae7cbb2c3cca3614", "is_reserved": 0}, {"is_disabled": 0, "fusion_lon": 0.0, "fusion_lat": 0.0, "lat": 38.9184625, "type": "electric_scooter", "lon": -77.03222033333333, "bike_id": "b985e0d01edecf983dbea57430ade717", "rental_uris": {"android": "https://dc.lft.to/lastmile_qr_scan", "ios": "https://dc.lft.to/lastmile_qr_scan"}, "name": "b985e0d01edecf983dbea57430ade717", "is_reserved": 0}, {"is_disabled": 0, "fusion_lon": 0.0, "fusion_lat": 0.0, "lat": 38.899854500000004, "type": "electric_scooter", "lon": -77.0163665, "bike_id": "316b6a0f6d35eb0283249794a96d6d1b", "rental_uris": {"android": "https://dc.lft.to/lastmile_qr_scan", "ios": "https://dc.lft.to/lastmile_qr_scan"}, "name": "316b6a0f6d35eb0283249794a96d6d1b", "is_reserved": 0}, {"is_disabled": 0, "fusion_lon": 0.0, "fusion_lat": 0.0, "lat": 38.933664666666665, "type": "electric_scooter", "lon": -77.05744383333334, "bike_id": "69a7c6b2821a8746945ba030a93570b7", "rental_uris": {"android": "https://dc.lft.to/lastmile_qr_scan", "ios": "https://dc.lft.to/lastmile_qr_scan"}, "name": "69a7c6b2821a8746945ba030a93570b7", "is_reserved": 0}, {"is_disabled": 0, "fusion_lon": 0.0, "fusion_lat": 0.0, "lat": 39.052668, "type": "electric_bike", "lon": -77.04385516666666, "bike_id": "e4436c968704ff4f9516570103c2be5d", "rental_uris": {"android": "https://dc.lft.to/lastmile_qr_scan", "ios": "https://dc.lft.to/lastmile_qr_scan"}, "name": "e4436c968704ff4f9516570103c2be5d", "is_reserved": 0}, {"is_disabled": 0, "fusion_lon": 0.0, "fusion_lat": 0.0, "lat": 38.8788215, "type": "electric_scooter", "lon": -77.01947716666666, "bike_id": "6a3c3e2988469e5d3b64e8e96c35f96e", "rental_uris": {"android": "https://dc.lft.to/lastmile_qr_scan", "ios": "https://dc.lft.to/lastmile_qr_scan"}, "name": "6a3c3e2988469e5d3b64e8e96c35f96e", "is_reserved": 0}, {"is_disabled": 0, "fusion_lon": 0.0, "fusion_lat": 0.0, "lat": 38.90963333333333, "type": "electric_scooter", "lon": -77.03951966666666, "bike_id": "c2d4305e66f8201cc9fc37b559cbbb3f", "rental_uris": {"android": "https://dc.lft.to/lastmile_qr_scan", "ios": "https://dc.lft.to/lastmile_qr_scan"}, "name": "c2d4305e66f8201cc9fc37b559cbbb3f", "is_reserved": 0}, {"is_disabled": 0, "fusion_lon": 0.0, "fusion_lat": 0.0, "lat": 38.91704933333333, "type": "electric_bike", "lon": -77.0956705, "bike_id": "e281c7f700fb7b6d41f8a7123b17e555", "rental_uris": {"android": "https://dc.lft.to/lastmile_qr_scan", "ios": "https://dc.lft.to/lastmile_qr_scan"}, "name": "e281c7f700fb7b6d41f8a7123b17e555", "is_reserved": 0}, {"is_disabled": 0, "fusion_lon": 0.0, "fusion_lat": 0.0, "lat": 38.94898333333333, "type": "electric_bike", "lon": -76.963754, "bike_id": "51a36e953839a06afdbb4a4258bb7c86", "rental_uris": {"android": "https://dc.lft.to/lastmile_qr_scan", "ios": "https://dc.lft.to/lastmile_qr_scan"}, "name": "51a36e953839a06afdbb4a4258bb7c86", "is_reserved": 0}, {"is_disabled": 0, "fusion_lon": 0.0, "fusion_lat": 0.0, "lat": 38.928128666666666, "type": "electric_scooter", "lon": -77.02348066666667, "bike_id": "7826a67291108d85a1a059c99b0efb9d", "rental_uris": {"android": "https://dc.lft.to/lastmile_qr_scan", "ios": "https://dc.lft.to/lastmile_qr_scan"}, "name": "7826a67291108d85a1a059c99b0efb9d", "is_reserved": 0}, {"is_disabled": 0, "fusion_lon": 0.0, "fusion_lat": 0.0, "lat": 38.934189333333336, "type": "electric_scooter", "lon": -77.019661, "bike_id": "304c65cb49da5904b558974acd2b191b", "rental_uris": {"android": "https://dc.lft.to/lastmile_qr_scan", "ios": "https://dc.lft.to/lastmile_qr_scan"}, "name": "304c65cb49da5904b558974acd2b191b", "is_reserved": 0}, {"is_disabled": 0, "fusion_lon": 0.0, "fusion_lat": 0.0, "lat": 38.92492033333333, "type": "electric_scooter", "lon": -77.03928616666667, "bike_id": "a35d7e9b87b74c27717b4ae0ad3f5770", "rental_uris": {"android": "https://dc.lft.to/lastmile_qr_scan", "ios": "https://dc.lft.to/lastmile_qr_scan"}, "name": "a35d7e9b87b74c27717b4ae0ad3f5770", "is_reserved": 0}, {"is_disabled": 0, "fusion_lon": 0.0, "fusion_lat": 0.0, "lat": 38.9682075, "type": "electric_scooter", "lon": -77.0089125, "bike_id": "3f42391c66f8d8357fdef04a22bfd8af", "rental_uris": {"android": "https://dc.lft.to/lastmile_qr_scan", "ios": "https://dc.lft.to/lastmile_qr_scan"}, "name": "3f42391c66f8d8357fdef04a22bfd8af", "is_reserved": 0}, {"is_disabled": 0, "fusion_lon": 0.0, "fusion_lat": 0.0, "lat": 39.052055, "type": "electric_bike", "lon": -77.04405183333333, "bike_id": "5d823da1d27649660e5b01fb877d3cff", "rental_uris": {"android": "https://dc.lft.to/lastmile_qr_scan", "ios": "https://dc.lft.to/lastmile_qr_scan"}, "name": "5d823da1d27649660e5b01fb877d3cff", "is_reserved": 0}, {"is_disabled": 0, "fusion_lon": 0.0, "fusion_lat": 0.0, "lat": 38.916860166666666, "type": "electric_scooter", "lon": -77.02700666666667, "bike_id": "39d1b8e74eb932f5fec87e19686fdd57", "rental_uris": {"android": "https://dc.lft.to/lastmile_qr_scan", "ios": "https://dc.lft.to/lastmile_qr_scan"}, "name": "39d1b8e74eb932f5fec87e19686fdd57", "is_reserved": 0}, {"is_disabled": 0, "fusion_lon": 0.0, "fusion_lat": 0.0, "lat": 38.91367533333333, "type": "electric_scooter", "lon": -77.04160916666666, "bike_id": "020870f78fd53dce0697dc5b39b961c4", "rental_uris": {"android": "https://dc.lft.to/lastmile_qr_scan", "ios": "https://dc.lft.to/lastmile_qr_scan"}, "name": "020870f78fd53dce0697dc5b39b961c4", "is_reserved": 0}, {"is_disabled": 0, "fusion_lon": 0.0, "fusion_lat": 0.0, "lat": 38.8973145, "type": "electric_bike", "lon": -76.90537983333333, "bike_id": "66903b4bf8d6c99a55b19a3343caaa42", "rental_uris": {"android": "https://dc.lft.to/lastmile_qr_scan", "ios": "https://dc.lft.to/lastmile_qr_scan"}, "name": "66903b4bf8d6c99a55b19a3343caaa42", "is_reserved": 0}, {"is_disabled": 0, "fusion_lon": 0.0, "fusion_lat": 0.0, "lat": 38.916927, "type": "electric_scooter", "lon": -77.04274016666666, "bike_id": "23ae09a27dd880edd598d403663c9b5d", "rental_uris": {"android": "https://dc.lft.to/lastmile_qr_scan", "ios": "https://dc.lft.to/lastmile_qr_scan"}, "name": "23ae09a27dd880edd598d403663c9b5d", "is_reserved": 0}, {"is_disabled": 0, "fusion_lon": 0.0, "fusion_lat": 0.0, "lat": 38.90984233333333, "type": "electric_scooter", "lon": -77.03437833333334, "bike_id": "7ea8a049d4516f9ee5734d028642d276", "rental_uris": {"android": "https://dc.lft.to/lastmile_qr_scan", "ios": "https://dc.lft.to/lastmile_qr_scan"}, "name": "7ea8a049d4516f9ee5734d028642d276", "is_reserved": 0}, {"is_disabled": 0, "fusion_lon": 0.0, "fusion_lat": 0.0, "lat": 38.9166095, "type": "electric_scooter", "lon": -77.046539, "bike_id": "ef417c5e08b52491a514cffa3a21a69a", "rental_uris": {"android": "https://dc.lft.to/lastmile_qr_scan", "ios": "https://dc.lft.to/lastmile_qr_scan"}, "name": "ef417c5e08b52491a514cffa3a21a69a", "is_reserved": 0}, {"is_disabled": 0, "fusion_lon": 0.0, "fusion_lat": 0.0, "lat": 38.91115716666667, "type": "electric_scooter", "lon": -77.00920016666667, "bike_id": "9bf5b6228dd07370c94d2a9af88b3f96", "rental_uris": {"android": "https://dc.lft.to/lastmile_qr_scan", "ios": "https://dc.lft.to/lastmile_qr_scan"}, "name": "9bf5b6228dd07370c94d2a9af88b3f96", "is_reserved": 0}, {"is_disabled": 0, "fusion_lon": 0.0, "fusion_lat": 0.0, "lat": 38.91118866666667, "type": "electric_scooter", "lon": -77.04083483333334, "bike_id": "002c4e1549a2edc09b117ac3a8b2acc7", "rental_uris": {"android": "https://dc.lft.to/lastmile_qr_scan", "ios": "https://dc.lft.to/lastmile_qr_scan"}, "name": "002c4e1549a2edc09b117ac3a8b2acc7", "is_reserved": 0}, {"is_disabled": 0, "fusion_lon": 0.0, "fusion_lat": 0.0, "lat": 38.904252, "type": "electric_scooter", "lon": -77.025838, "bike_id": "4132904d2f0a8303b8c937c73179a847", "rental_uris": {"android": "https://dc.lft.to/lastmile_qr_scan", "ios": "https://dc.lft.to/lastmile_qr_scan"}, "name": "4132904d2f0a8303b8c937c73179a847", "is_reserved": 0}, {"is_disabled": 0, "fusion_lon": 0.0, "fusion_lat": 0.0, "lat": 38.91785083333333, "type": "electric_scooter", "lon": -77.02308, "bike_id": "0f426f58c9e932caef1fa3bd1fa47998", "rental_uris": {"android": "https://dc.lft.to/lastmile_qr_scan", "ios": "https://dc.lft.to/lastmile_qr_scan"}, "name": "0f426f58c9e932caef1fa3bd1fa47998", "is_reserved": 0}, {"is_disabled": 0, "fusion_lon": 0.0, "fusion_lat": 0.0, "lat": 38.913019166666665, "type": "electric_scooter", "lon": -77.020393, "bike_id": "74ed4b41790b7ff85132549174a877c8", "rental_uris": {"android": "https://dc.lft.to/lastmile_qr_scan", "ios": "https://dc.lft.to/lastmile_qr_scan"}, "name": "74ed4b41790b7ff85132549174a877c8", "is_reserved": 0}, {"is_disabled": 0, "fusion_lon": 0.0, "fusion_lat": 0.0, "lat": 38.88675383333333, "type": "electric_scooter", "lon": -77.00362416666667, "bike_id": "c105bca4cf6ec2a33261a11086bf4e5b", "rental_uris": {"android": "https://dc.lft.to/lastmile_qr_scan", "ios": "https://dc.lft.to/lastmile_qr_scan"}, "name": "c105bca4cf6ec2a33261a11086bf4e5b", "is_reserved": 0}, {"is_disabled": 0, "fusion_lon": 0.0, "fusion_lat": 0.0, "lat": 38.903603333333336, "type": "electric_scooter", "lon": -77.0626815, "bike_id": "06260385020fcfa84e39cd773756e4e2", "rental_uris": {"android": "https://dc.lft.to/lastmile_qr_scan", "ios": "https://dc.lft.to/lastmile_qr_scan"}, "name": "06260385020fcfa84e39cd773756e4e2", "is_reserved": 0}, {"is_disabled": 0, "fusion_lon": 0.0, "fusion_lat": 0.0, "lat": 38.9185765, "type": "electric_scooter", "lon": -77.04175333333333, "bike_id": "2f9fed42cf071fd04378d11e3fd8ec74", "rental_uris": {"android": "https://dc.lft.to/lastmile_qr_scan", "ios": "https://dc.lft.to/lastmile_qr_scan"}, "name": "2f9fed42cf071fd04378d11e3fd8ec74", "is_reserved": 0}, {"is_disabled": 0, "fusion_lon": 0.0, "fusion_lat": 0.0, "lat": 38.845145333333335, "type": "electric_bike", "lon": -77.07798066666666, "bike_id": "2201b74060ae0995c952ae8dcf456ed9", "rental_uris": {"android": "https://dc.lft.to/lastmile_qr_scan", "ios": "https://dc.lft.to/lastmile_qr_scan"}, "name": "2201b74060ae0995c952ae8dcf456ed9", "is_reserved": 0}, {"is_disabled": 0, "fusion_lon": 0.0, "fusion_lat": 0.0, "lat": 38.91830083333333, "type": "electric_scooter", "lon": -77.01209466666667, "bike_id": "6c89aa5d989d7789e65a661e17d63aaf", "rental_uris": {"android": "https://dc.lft.to/lastmile_qr_scan", "ios": "https://dc.lft.to/lastmile_qr_scan"}, "name": "6c89aa5d989d7789e65a661e17d63aaf", "is_reserved": 0}, {"is_disabled": 0, "fusion_lon": 0.0, "fusion_lat": 0.0, "lat": 38.901242, "type": "electric_scooter", "lon": -77.017687, "bike_id": "f9b36cac3e4c57a60c9799071b09d7c7", "rental_uris": {"android": "https://dc.lft.to/lastmile_qr_scan", "ios": "https://dc.lft.to/lastmile_qr_scan"}, "name": "f9b36cac3e4c57a60c9799071b09d7c7", "is_reserved": 0}, {"is_disabled": 0, "fusion_lon": 0.0, "fusion_lat": 0.0, "lat": 38.92472866666667, "type": "electric_scooter", "lon": -77.029857, "bike_id": "6938043c397b4b5cabe80f516b4ef5d7", "rental_uris": {"android": "https://dc.lft.to/lastmile_qr_scan", "ios": "https://dc.lft.to/lastmile_qr_scan"}, "name": "6938043c397b4b5cabe80f516b4ef5d7", "is_reserved": 0}, {"is_disabled": 0, "fusion_lon": 0.0, "fusion_lat": 0.0, "lat": 38.92048966666667, "type": "electric_scooter", "lon": -77.02613833333334, "bike_id": "31289dae2d5034048dfec2e80dee8fbd", "rental_uris": {"android": "https://dc.lft.to/lastmile_qr_scan", "ios": "https://dc.lft.to/lastmile_qr_scan"}, "name": "31289dae2d5034048dfec2e80dee8fbd", "is_reserved": 0}, {"is_disabled": 0, "fusion_lon": 0.0, "fusion_lat": 0.0, "lat": 38.908386, "type": "electric_scooter", "lon": -76.99701483333334, "bike_id": "5c0515b98785e7319d3115e659bae82f", "rental_uris": {"android": "https://dc.lft.to/lastmile_qr_scan", "ios": "https://dc.lft.to/lastmile_qr_scan"}, "name": "5c0515b98785e7319d3115e659bae82f", "is_reserved": 0}, {"is_disabled": 0, "fusion_lon": 0.0, "fusion_lat": 0.0, "lat": 38.90218383333333, "type": "electric_scooter", "lon": -77.02371183333334, "bike_id": "5b228c5f084bc9f8300e8039d56a3b03", "rental_uris": {"android": "https://dc.lft.to/lastmile_qr_scan", "ios": "https://dc.lft.to/lastmile_qr_scan"}, "name": "5b228c5f084bc9f8300e8039d56a3b03", "is_reserved": 0}, {"is_disabled": 0, "fusion_lon": 0.0, "fusion_lat": 0.0, "lat": 38.905563666666666, "type": "electric_scooter", "lon": -77.03357316666667, "bike_id": "2f7195cbc9df488899d819bf1c64a5c2", "rental_uris": {"android": "https://dc.lft.to/lastmile_qr_scan", "ios": "https://dc.lft.to/lastmile_qr_scan"}, "name": "2f7195cbc9df488899d819bf1c64a5c2", "is_reserved": 0}, {"is_disabled": 0, "fusion_lon": 0.0, "fusion_lat": 0.0, "lat": 38.9188485, "type": "electric_scooter", "lon": -77.04172083333333, "bike_id": "66b6088228ad957aca92dd7592edc167", "rental_uris": {"android": "https://dc.lft.to/lastmile_qr_scan", "ios": "https://dc.lft.to/lastmile_qr_scan"}, "name": "66b6088228ad957aca92dd7592edc167", "is_reserved": 0}, {"is_disabled": 0, "fusion_lon": 0.0, "fusion_lat": 0.0, "lat": 38.90711816666666, "type": "electric_scooter", "lon": -77.04245616666667, "bike_id": "f5aa179c7b492b8bdd7b894eabb341e8", "rental_uris": {"android": "https://dc.lft.to/lastmile_qr_scan", "ios": "https://dc.lft.to/lastmile_qr_scan"}, "name": "f5aa179c7b492b8bdd7b894eabb341e8", "is_reserved": 0}, {"is_disabled": 0, "fusion_lon": 0.0, "fusion_lat": 0.0, "lat": 38.8287795, "type": "electric_bike", "lon": -77.11221966666666, "bike_id": "3fd23a0bc743d98bf59d9c1e4dfb7dce", "rental_uris": {"android": "https://dc.lft.to/lastmile_qr_scan", "ios": "https://dc.lft.to/lastmile_qr_scan"}, "name": "3fd23a0bc743d98bf59d9c1e4dfb7dce", "is_reserved": 0}, {"is_disabled": 0, "fusion_lon": 0.0, "fusion_lat": 0.0, "lat": 38.9074265, "type": "electric_scooter", "lon": -77.03179883333334, "bike_id": "77c84827408267bedcbebc4773b67a5c", "rental_uris": {"android": "https://dc.lft.to/lastmile_qr_scan", "ios": "https://dc.lft.to/lastmile_qr_scan"}, "name": "77c84827408267bedcbebc4773b67a5c", "is_reserved": 0}, {"is_disabled": 0, "fusion_lon": 0.0, "fusion_lat": 0.0, "lat": 38.902689333333335, "type": "electric_scooter", "lon": -77.03448583333333, "bike_id": "659264c9dd38447f6137eb51ef78b408", "rental_uris": {"android": "https://dc.lft.to/lastmile_qr_scan", "ios": "https://dc.lft.to/lastmile_qr_scan"}, "name": "659264c9dd38447f6137eb51ef78b408", "is_reserved": 0}, {"is_disabled": 0, "fusion_lon": 0.0, "fusion_lat": 0.0, "lat": 38.9134815, "type": "electric_scooter", "lon": -77.04869633333334, "bike_id": "6ae732379a7eb94ae59053626801776a", "rental_uris": {"android": "https://dc.lft.to/lastmile_qr_scan", "ios": "https://dc.lft.to/lastmile_qr_scan"}, "name": "6ae732379a7eb94ae59053626801776a", "is_reserved": 0}, {"is_disabled": 0, "fusion_lon": 0.0, "fusion_lat": 0.0, "lat": 38.83319566666667, "type": "electric_scooter", "lon": -77.00006583333334, "bike_id": "c4df38d0b17c12d13388d50b9c0d34a4", "rental_uris": {"android": "https://dc.lft.to/lastmile_qr_scan", "ios": "https://dc.lft.to/lastmile_qr_scan"}, "name": "c4df38d0b17c12d13388d50b9c0d34a4", "is_reserved": 0}, {"is_disabled": 0, "fusion_lon": 0.0, "fusion_lat": 0.0, "lat": 38.8319685, "type": "electric_bike", "lon": -77.07688083333333, "bike_id": "f7a80068d4979eafe9c18d034fd4b9cd", "rental_uris": {"android": "https://dc.lft.to/lastmile_qr_scan", "ios": "https://dc.lft.to/lastmile_qr_scan"}, "name": "f7a80068d4979eafe9c18d034fd4b9cd", "is_reserved": 0}, {"is_disabled": 0, "fusion_lon": 0.0, "fusion_lat": 0.0, "lat": 38.925949333333335, "type": "electric_scooter", "lon": -77.055339, "bike_id": "5db5056717c0ecb0d6dd07f0eeda572e", "rental_uris": {"android": "https://dc.lft.to/lastmile_qr_scan", "ios": "https://dc.lft.to/lastmile_qr_scan"}, "name": "5db5056717c0ecb0d6dd07f0eeda572e", "is_reserved": 0}, {"is_disabled": 0, "fusion_lon": 0.0, "fusion_lat": 0.0, "lat": 38.95555433333333, "type": "electric_bike", "lon": -76.93538233333334, "bike_id": "d01dde088a540e01a87c0e10e3e00574", "rental_uris": {"android": "https://dc.lft.to/lastmile_qr_scan", "ios": "https://dc.lft.to/lastmile_qr_scan"}, "name": "d01dde088a540e01a87c0e10e3e00574", "is_reserved": 0}, {"is_disabled": 0, "fusion_lon": 0.0, "fusion_lat": 0.0, "lat": 38.87663416666667, "type": "electric_scooter", "lon": -77.00397483333333, "bike_id": "aaa82388c760d33fe60846ca4be1f294", "rental_uris": {"android": "https://dc.lft.to/lastmile_qr_scan", "ios": "https://dc.lft.to/lastmile_qr_scan"}, "name": "aaa82388c760d33fe60846ca4be1f294", "is_reserved": 0}, {"is_disabled": 0, "fusion_lon": 0.0, "fusion_lat": 0.0, "lat": 38.928231333333336, "type": "electric_scooter", "lon": -77.03715233333334, "bike_id": "5627f076255497cac3f86696a2e027c1", "rental_uris": {"android": "https://dc.lft.to/lastmile_qr_scan", "ios": "https://dc.lft.to/lastmile_qr_scan"}, "name": "5627f076255497cac3f86696a2e027c1", "is_reserved": 0}, {"is_disabled": 0, "fusion_lon": 0.0, "fusion_lat": 0.0, "lat": 38.91701183333333, "type": "electric_scooter", "lon": -77.02426416666667, "bike_id": "549e9e5cda3a425d30697b6eef0863f3", "rental_uris": {"android": "https://dc.lft.to/lastmile_qr_scan", "ios": "https://dc.lft.to/lastmile_qr_scan"}, "name": "549e9e5cda3a425d30697b6eef0863f3", "is_reserved": 0}, {"is_disabled": 0, "fusion_lon": 0.0, "fusion_lat": 0.0, "lat": 38.96763816666667, "type": "electric_bike", "lon": -77.09161716666667, "bike_id": "057970d38c926998d2ecafd6c4be8d86", "rental_uris": {"android": "https://dc.lft.to/lastmile_qr_scan", "ios": "https://dc.lft.to/lastmile_qr_scan"}, "name": "057970d38c926998d2ecafd6c4be8d86", "is_reserved": 0}, {"is_disabled": 0, "fusion_lon": 0.0, "fusion_lat": 0.0, "lat": 38.931335833333335, "type": "electric_scooter", "lon": -77.0280495, "bike_id": "0b3e2a250b66ef93c9719504d99dc7be", "rental_uris": {"android": "https://dc.lft.to/lastmile_qr_scan", "ios": "https://dc.lft.to/lastmile_qr_scan"}, "name": "0b3e2a250b66ef93c9719504d99dc7be", "is_reserved": 0}, {"is_disabled": 0, "fusion_lon": 0.0, "fusion_lat": 0.0, "lat": 38.858091333333334, "type": "electric_scooter", "lon": -76.98651716666667, "bike_id": "918265ebdd44e882d7ec9d1b047dabaa", "rental_uris": {"android": "https://dc.lft.to/lastmile_qr_scan", "ios": "https://dc.lft.to/lastmile_qr_scan"}, "name": "918265ebdd44e882d7ec9d1b047dabaa", "is_reserved": 0}, {"is_disabled": 0, "fusion_lon": 0.0, "fusion_lat": 0.0, "lat": 38.912615333333335, "type": "electric_scooter", "lon": -77.04779416666666, "bike_id": "099672fbe1ba1c1b227ab4d8c2b5b049", "rental_uris": {"android": "https://dc.lft.to/lastmile_qr_scan", "ios": "https://dc.lft.to/lastmile_qr_scan"}, "name": "099672fbe1ba1c1b227ab4d8c2b5b049", "is_reserved": 0}, {"is_disabled": 0, "fusion_lon": 0.0, "fusion_lat": 0.0, "lat": 38.912621666666666, "type": "electric_scooter", "lon": -77.01698783333333, "bike_id": "d8d8eb2e0b93d6e9dfc73e80bcf377c7", "rental_uris": {"android": "https://dc.lft.to/lastmile_qr_scan", "ios": "https://dc.lft.to/lastmile_qr_scan"}, "name": "d8d8eb2e0b93d6e9dfc73e80bcf377c7", "is_reserved": 0}, {"is_disabled": 0, "fusion_lon": 0.0, "fusion_lat": 0.0, "lat": 38.901279833333334, "type": "electric_scooter", "lon": -77.011993, "bike_id": "cd3fd7910bccc482ae91d9693f09a604", "rental_uris": {"android": "https://dc.lft.to/lastmile_qr_scan", "ios": "https://dc.lft.to/lastmile_qr_scan"}, "name": "cd3fd7910bccc482ae91d9693f09a604", "is_reserved": 0}, {"is_disabled": 0, "fusion_lon": 0.0, "fusion_lat": 0.0, "lat": 38.928292666666664, "type": "electric_scooter", "lon": -77.02253783333333, "bike_id": "25d7d3bd903f908c56d33ecabda073bf", "rental_uris": {"android": "https://dc.lft.to/lastmile_qr_scan", "ios": "https://dc.lft.to/lastmile_qr_scan"}, "name": "25d7d3bd903f908c56d33ecabda073bf", "is_reserved": 0}, {"is_disabled": 0, "fusion_lon": 0.0, "fusion_lat": 0.0, "lat": 38.84202533333333, "type": "electric_bike", "lon": -77.10687716666666, "bike_id": "5304d581507d755533ed69244f90e1c5", "rental_uris": {"android": "https://dc.lft.to/lastmile_qr_scan", "ios": "https://dc.lft.to/lastmile_qr_scan"}, "name": "5304d581507d755533ed69244f90e1c5", "is_reserved": 0}, {"is_disabled": 0, "fusion_lon": 0.0, "fusion_lat": 0.0, "lat": 38.89515083333333, "type": "electric_scooter", "lon": -77.029474, "bike_id": "79a6d25dd4342c417be68a29136b4cae", "rental_uris": {"android": "https://dc.lft.to/lastmile_qr_scan", "ios": "https://dc.lft.to/lastmile_qr_scan"}, "name": "79a6d25dd4342c417be68a29136b4cae", "is_reserved": 0}, {"is_disabled": 0, "fusion_lon": 0.0, "fusion_lat": 0.0, "lat": 38.907235, "type": "electric_scooter", "lon": -77.04680433333333, "bike_id": "7ca59913a9d8f3ca3140bee85a9589bf", "rental_uris": {"android": "https://dc.lft.to/lastmile_qr_scan", "ios": "https://dc.lft.to/lastmile_qr_scan"}, "name": "7ca59913a9d8f3ca3140bee85a9589bf", "is_reserved": 0}, {"is_disabled": 0, "fusion_lon": 0.0, "fusion_lat": 0.0, "lat": 38.888912833333336, "type": "electric_scooter", "lon": -77.0155465, "bike_id": "b4f6b5fcf652f4fc4e40f78f8245a832", "rental_uris": {"android": "https://dc.lft.to/lastmile_qr_scan", "ios": "https://dc.lft.to/lastmile_qr_scan"}, "name": "b4f6b5fcf652f4fc4e40f78f8245a832", "is_reserved": 0}, {"is_disabled": 0, "fusion_lon": 0.0, "fusion_lat": 0.0, "lat": 38.99844233333334, "type": "electric_bike", "lon": -77.02874116666666, "bike_id": "2c872e00e58b103570468b735d0e9ffb", "rental_uris": {"android": "https://dc.lft.to/lastmile_qr_scan", "ios": "https://dc.lft.to/lastmile_qr_scan"}, "name": "2c872e00e58b103570468b735d0e9ffb", "is_reserved": 0}, {"is_disabled": 0, "fusion_lon": 0.0, "fusion_lat": 0.0, "lat": 38.92837866666667, "type": "electric_scooter", "lon": -77.0142145, "bike_id": "e64b89f929ce08f9f4d0827c5fb32111", "rental_uris": {"android": "https://dc.lft.to/lastmile_qr_scan", "ios": "https://dc.lft.to/lastmile_qr_scan"}, "name": "e64b89f929ce08f9f4d0827c5fb32111", "is_reserved": 0}, {"is_disabled": 0, "fusion_lon": 0.0, "fusion_lat": 0.0, "lat": 38.89225583333333, "type": "electric_scooter", "lon": -77.04663283333333, "bike_id": "976aa27a9adcdb6a5b8e944fec80a037", "rental_uris": {"android": "https://dc.lft.to/lastmile_qr_scan", "ios": "https://dc.lft.to/lastmile_qr_scan"}, "name": "976aa27a9adcdb6a5b8e944fec80a037", "is_reserved": 0}, {"is_disabled": 0, "fusion_lon": 0.0, "fusion_lat": 0.0, "lat": 38.917182333333336, "type": "electric_scooter", "lon": -77.02895916666667, "bike_id": "b0d6f057619b40e9f2b09e0dd7e85ab1", "rental_uris": {"android": "https://dc.lft.to/lastmile_qr_scan", "ios": "https://dc.lft.to/lastmile_qr_scan"}, "name": "b0d6f057619b40e9f2b09e0dd7e85ab1", "is_reserved": 0}, {"is_disabled": 0, "fusion_lon": 0.0, "fusion_lat": 0.0, "lat": 38.875755166666664, "type": "electric_scooter", "lon": -77.02085416666667, "bike_id": "d2589485b4a34c1a5161a7ca3463f5cb", "rental_uris": {"android": "https://dc.lft.to/lastmile_qr_scan", "ios": "https://dc.lft.to/lastmile_qr_scan"}, "name": "d2589485b4a34c1a5161a7ca3463f5cb", "is_reserved": 0}, {"is_disabled": 0, "fusion_lon": 0.0, "fusion_lat": 0.0, "lat": 38.903528, "type": "electric_scooter", "lon": -77.0112225, "bike_id": "2e9af4c724c4ad25768b629c17047111", "rental_uris": {"android": "https://dc.lft.to/lastmile_qr_scan", "ios": "https://dc.lft.to/lastmile_qr_scan"}, "name": "2e9af4c724c4ad25768b629c17047111", "is_reserved": 0}, {"is_disabled": 0, "fusion_lon": 0.0, "fusion_lat": 0.0, "lat": 38.91678983333333, "type": "electric_scooter", "lon": -77.015771, "bike_id": "e51f4e9f9e075a0ff4c923f9b9c67024", "rental_uris": {"android": "https://dc.lft.to/lastmile_qr_scan", "ios": "https://dc.lft.to/lastmile_qr_scan"}, "name": "e51f4e9f9e075a0ff4c923f9b9c67024", "is_reserved": 0}, {"is_disabled": 0, "fusion_lon": 0.0, "fusion_lat": 0.0, "lat": 38.905982, "type": "electric_scooter", "lon": -77.02388883333333, "bike_id": "782a962aa8981216b1109424e28a0986", "rental_uris": {"android": "https://dc.lft.to/lastmile_qr_scan", "ios": "https://dc.lft.to/lastmile_qr_scan"}, "name": "782a962aa8981216b1109424e28a0986", "is_reserved": 0}, {"is_disabled": 0, "fusion_lon": 0.0, "fusion_lat": 0.0, "lat": 38.9265765, "type": "electric_scooter", "lon": -77.022857, "bike_id": "7cf38c5302b7b2208cd6bcf3527aa2bc", "rental_uris": {"android": "https://dc.lft.to/lastmile_qr_scan", "ios": "https://dc.lft.to/lastmile_qr_scan"}, "name": "7cf38c5302b7b2208cd6bcf3527aa2bc", "is_reserved": 0}, {"is_disabled": 0, "fusion_lon": 0.0, "fusion_lat": 0.0, "lat": 38.89840383333333, "type": "electric_scooter", "lon": -77.0222315, "bike_id": "8a6becfd0e06c50005fdcfa6eb5c099a", "rental_uris": {"android": "https://dc.lft.to/lastmile_qr_scan", "ios": "https://dc.lft.to/lastmile_qr_scan"}, "name": "8a6becfd0e06c50005fdcfa6eb5c099a", "is_reserved": 0}, {"is_disabled": 0, "fusion_lon": 0.0, "fusion_lat": 0.0, "lat": 38.909617, "type": "electric_scooter", "lon": -77.0271165, "bike_id": "f527c374c02ec69da5ea5400be7cb650", "rental_uris": {"android": "https://dc.lft.to/lastmile_qr_scan", "ios": "https://dc.lft.to/lastmile_qr_scan"}, "name": "f527c374c02ec69da5ea5400be7cb650", "is_reserved": 0}, {"is_disabled": 0, "fusion_lon": 0.0, "fusion_lat": 0.0, "lat": 38.996681, "type": "electric_bike", "lon": -76.99143316666667, "bike_id": "04b04c0aaa4266b924587669b41a1d93", "rental_uris": {"android": "https://dc.lft.to/lastmile_qr_scan", "ios": "https://dc.lft.to/lastmile_qr_scan"}, "name": "04b04c0aaa4266b924587669b41a1d93", "is_reserved": 0}, {"is_disabled": 0, "fusion_lon": 0.0, "fusion_lat": 0.0, "lat": 38.9019655, "type": "electric_scooter", "lon": -77.04806383333333, "bike_id": "a0885660fbb43a571c20515b46eac9de", "rental_uris": {"android": "https://dc.lft.to/lastmile_qr_scan", "ios": "https://dc.lft.to/lastmile_qr_scan"}, "name": "a0885660fbb43a571c20515b46eac9de", "is_reserved": 0}, {"is_disabled": 0, "fusion_lon": 0.0, "fusion_lat": 0.0, "lat": 38.99252516666667, "type": "electric_bike", "lon": -77.05002016666667, "bike_id": "d5609019573bec35f6cde2e0d0fd9c2a", "rental_uris": {"android": "https://dc.lft.to/lastmile_qr_scan", "ios": "https://dc.lft.to/lastmile_qr_scan"}, "name": "d5609019573bec35f6cde2e0d0fd9c2a", "is_reserved": 0}, {"is_disabled": 0, "fusion_lon": 0.0, "fusion_lat": 0.0, "lat": 38.942819166666666, "type": "electric_scooter", "lon": -77.02349783333334, "bike_id": "4cf1bfad1a8814ab03cdd24a46e7d2e0", "rental_uris": {"android": "https://dc.lft.to/lastmile_qr_scan", "ios": "https://dc.lft.to/lastmile_qr_scan"}, "name": "4cf1bfad1a8814ab03cdd24a46e7d2e0", "is_reserved": 0}, {"is_disabled": 0, "fusion_lon": 0.0, "fusion_lat": 0.0, "lat": 39.11512583333333, "type": "electric_bike", "lon": -77.19549383333333, "bike_id": "634333393a3ea090a7c542d3c4a7d1a2", "rental_uris": {"android": "https://dc.lft.to/lastmile_qr_scan", "ios": "https://dc.lft.to/lastmile_qr_scan"}, "name": "634333393a3ea090a7c542d3c4a7d1a2", "is_reserved": 0}, {"is_disabled": 0, "fusion_lon": 0.0, "fusion_lat": 0.0, "lat": 38.85721433333333, "type": "electric_bike", "lon": -76.98113633333334, "bike_id": "b34f7a41d7a50ceb7d28fb09c3097660", "rental_uris": {"android": "https://dc.lft.to/lastmile_qr_scan", "ios": "https://dc.lft.to/lastmile_qr_scan"}, "name": "b34f7a41d7a50ceb7d28fb09c3097660", "is_reserved": 0}, {"is_disabled": 0, "fusion_lon": 0.0, "fusion_lat": 0.0, "lat": 38.83815583333333, "type": "electric_scooter", "lon": -77.00429516666667, "bike_id": "deaf1484f82e066c638752ec8c716702", "rental_uris": {"android": "https://dc.lft.to/lastmile_qr_scan", "ios": "https://dc.lft.to/lastmile_qr_scan"}, "name": "deaf1484f82e066c638752ec8c716702", "is_reserved": 0}, {"is_disabled": 0, "fusion_lon": 0.0, "fusion_lat": 0.0, "lat": 38.91560533333333, "type": "electric_scooter", "lon": -77.038745, "bike_id": "aabc120e6f9d795c073baa26082de15b", "rental_uris": {"android": "https://dc.lft.to/lastmile_qr_scan", "ios": "https://dc.lft.to/lastmile_qr_scan"}, "name": "aabc120e6f9d795c073baa26082de15b", "is_reserved": 0}, {"is_disabled": 0, "fusion_lon": 0.0, "fusion_lat": 0.0, "lat": 38.9304945, "type": "electric_scooter", "lon": -77.004171, "bike_id": "ef0d8ce60730cc9e4ab5db6cce588932", "rental_uris": {"android": "https://dc.lft.to/lastmile_qr_scan", "ios": "https://dc.lft.to/lastmile_qr_scan"}, "name": "ef0d8ce60730cc9e4ab5db6cce588932", "is_reserved": 0}, {"is_disabled": 0, "fusion_lon": 0.0, "fusion_lat": 0.0, "lat": 38.92864383333333, "type": "electric_scooter", "lon": -77.03417716666667, "bike_id": "13e15265dcf1c09fc7062fb8bc306186", "rental_uris": {"android": "https://dc.lft.to/lastmile_qr_scan", "ios": "https://dc.lft.to/lastmile_qr_scan"}, "name": "13e15265dcf1c09fc7062fb8bc306186", "is_reserved": 0}, {"is_disabled": 0, "fusion_lon": 0.0, "fusion_lat": 0.0, "lat": 38.862431666666666, "type": "electric_scooter", "lon": -76.99492166666667, "bike_id": "b3a4bdba93c51b819269968828055bd5", "rental_uris": {"android": "https://dc.lft.to/lastmile_qr_scan", "ios": "https://dc.lft.to/lastmile_qr_scan"}, "name": "b3a4bdba93c51b819269968828055bd5", "is_reserved": 0}, {"is_disabled": 0, "fusion_lon": 0.0, "fusion_lat": 0.0, "lat": 38.90560516666667, "type": "electric_scooter", "lon": -77.048788, "bike_id": "7e503868170bdf9522a051cf3daae9b1", "rental_uris": {"android": "https://dc.lft.to/lastmile_qr_scan", "ios": "https://dc.lft.to/lastmile_qr_scan"}, "name": "7e503868170bdf9522a051cf3daae9b1", "is_reserved": 0}, {"is_disabled": 0, "fusion_lon": 0.0, "fusion_lat": 0.0, "lat": 38.91479483333333, "type": "electric_scooter", "lon": -77.03473266666667, "bike_id": "91f3dcbf1e8a5429f8b0a4694c536774", "rental_uris": {"android": "https://dc.lft.to/lastmile_qr_scan", "ios": "https://dc.lft.to/lastmile_qr_scan"}, "name": "91f3dcbf1e8a5429f8b0a4694c536774", "is_reserved": 0}, {"is_disabled": 0, "fusion_lon": 0.0, "fusion_lat": 0.0, "lat": 38.8844485, "type": "electric_scooter", "lon": -76.95407266666666, "bike_id": "60ab6a6c2223ba385c53b3b693441da7", "rental_uris": {"android": "https://dc.lft.to/lastmile_qr_scan", "ios": "https://dc.lft.to/lastmile_qr_scan"}, "name": "60ab6a6c2223ba385c53b3b693441da7", "is_reserved": 0}, {"is_disabled": 0, "fusion_lon": 0.0, "fusion_lat": 0.0, "lat": 38.8982215, "type": "electric_scooter", "lon": -77.0335735, "bike_id": "b38eb0f3c33961ca4b720ba8068bf028", "rental_uris": {"android": "https://dc.lft.to/lastmile_qr_scan", "ios": "https://dc.lft.to/lastmile_qr_scan"}, "name": "b38eb0f3c33961ca4b720ba8068bf028", "is_reserved": 0}, {"is_disabled": 0, "fusion_lon": 0.0, "fusion_lat": 0.0, "lat": 38.918028666666665, "type": "electric_scooter", "lon": -77.03456516666667, "bike_id": "4b9a5c8dc3ba6ddbabda4530c72890be", "rental_uris": {"android": "https://dc.lft.to/lastmile_qr_scan", "ios": "https://dc.lft.to/lastmile_qr_scan"}, "name": "4b9a5c8dc3ba6ddbabda4530c72890be", "is_reserved": 0}, {"is_disabled": 0, "fusion_lon": 0.0, "fusion_lat": 0.0, "lat": 38.892103166666665, "type": "electric_scooter", "lon": -76.988073, "bike_id": "490b5d85fffc4eaa19c9ca31d6b07acc", "rental_uris": {"android": "https://dc.lft.to/lastmile_qr_scan", "ios": "https://dc.lft.to/lastmile_qr_scan"}, "name": "490b5d85fffc4eaa19c9ca31d6b07acc", "is_reserved": 0}, {"is_disabled": 0, "fusion_lon": 0.0, "fusion_lat": 0.0, "lat": 38.91333133333333, "type": "electric_scooter", "lon": -77.03256766666667, "bike_id": "6b049dea08fc4858893dd5414c7f0e59", "rental_uris": {"android": "https://dc.lft.to/lastmile_qr_scan", "ios": "https://dc.lft.to/lastmile_qr_scan"}, "name": "6b049dea08fc4858893dd5414c7f0e59", "is_reserved": 0}, {"is_disabled": 0, "fusion_lon": 0.0, "fusion_lat": 0.0, "lat": 38.9318935, "type": "electric_scooter", "lon": -77.02840066666667, "bike_id": "ca49c9ab3e7a4d022341d8bea7a81e49", "rental_uris": {"android": "https://dc.lft.to/lastmile_qr_scan", "ios": "https://dc.lft.to/lastmile_qr_scan"}, "name": "ca49c9ab3e7a4d022341d8bea7a81e49", "is_reserved": 0}, {"is_disabled": 0, "fusion_lon": 0.0, "fusion_lat": 0.0, "lat": 39.08844466666667, "type": "electric_bike", "lon": -77.17802133333333, "bike_id": "076748748fc77263f32b83ed25249000", "rental_uris": {"android": "https://dc.lft.to/lastmile_qr_scan", "ios": "https://dc.lft.to/lastmile_qr_scan"}, "name": "076748748fc77263f32b83ed25249000", "is_reserved": 0}, {"is_disabled": 0, "fusion_lon": 0.0, "fusion_lat": 0.0, "lat": 38.91770566666667, "type": "electric_scooter", "lon": -77.02949766666667, "bike_id": "42aa621e2dd0b400add30a3af139ea6b", "rental_uris": {"android": "https://dc.lft.to/lastmile_qr_scan", "ios": "https://dc.lft.to/lastmile_qr_scan"}, "name": "42aa621e2dd0b400add30a3af139ea6b", "is_reserved": 0}, {"is_disabled": 0, "fusion_lon": 0.0, "fusion_lat": 0.0, "lat": 38.896106333333336, "type": "electric_scooter", "lon": -77.02654433333333, "bike_id": "5d9f6503b19291718e70a5e345ca9d4d", "rental_uris": {"android": "https://dc.lft.to/lastmile_qr_scan", "ios": "https://dc.lft.to/lastmile_qr_scan"}, "name": "5d9f6503b19291718e70a5e345ca9d4d", "is_reserved": 0}, {"is_disabled": 0, "fusion_lon": 0.0, "fusion_lat": 0.0, "lat": 38.94288683333333, "type": "electric_bike", "lon": -77.06926166666666, "bike_id": "34a89851322218bde8a338eea46760ed", "rental_uris": {"android": "https://dc.lft.to/lastmile_qr_scan", "ios": "https://dc.lft.to/lastmile_qr_scan"}, "name": "34a89851322218bde8a338eea46760ed", "is_reserved": 0}, {"is_disabled": 0, "fusion_lon": 0.0, "fusion_lat": 0.0, "lat": 38.919411, "type": "electric_scooter", "lon": -77.07056433333334, "bike_id": "ce9024995c021f8d7f0ab1ece2d6b6f8", "rental_uris": {"android": "https://dc.lft.to/lastmile_qr_scan", "ios": "https://dc.lft.to/lastmile_qr_scan"}, "name": "ce9024995c021f8d7f0ab1ece2d6b6f8", "is_reserved": 0}, {"is_disabled": 0, "fusion_lon": 0.0, "fusion_lat": 0.0, "lat": 38.9199, "type": "electric_scooter", "lon": -77.0322395, "bike_id": "0ddbf87d5b0dff6f21135dcd6b00be21", "rental_uris": {"android": "https://dc.lft.to/lastmile_qr_scan", "ios": "https://dc.lft.to/lastmile_qr_scan"}, "name": "0ddbf87d5b0dff6f21135dcd6b00be21", "is_reserved": 0}, {"is_disabled": 0, "fusion_lon": 0.0, "fusion_lat": 0.0, "lat": 38.92584883333333, "type": "electric_scooter", "lon": -77.03211983333334, "bike_id": "7255e1dcfd4af7cfdc1f181e0179cc35", "rental_uris": {"android": "https://dc.lft.to/lastmile_qr_scan", "ios": "https://dc.lft.to/lastmile_qr_scan"}, "name": "7255e1dcfd4af7cfdc1f181e0179cc35", "is_reserved": 0}, {"is_disabled": 0, "fusion_lon": 0.0, "fusion_lat": 0.0, "lat": 38.935646, "type": "electric_bike", "lon": -77.08184666666666, "bike_id": "e74ca7e9009d347e98a0f110472754f7", "rental_uris": {"android": "https://dc.lft.to/lastmile_qr_scan", "ios": "https://dc.lft.to/lastmile_qr_scan"}, "name": "e74ca7e9009d347e98a0f110472754f7", "is_reserved": 0}, {"is_disabled": 0, "fusion_lon": 0.0, "fusion_lat": 0.0, "lat": 38.873902666666666, "type": "electric_scooter", "lon": -77.0019235, "bike_id": "416f78a88c450a3bc56d17cbe04aff0d", "rental_uris": {"android": "https://dc.lft.to/lastmile_qr_scan", "ios": "https://dc.lft.to/lastmile_qr_scan"}, "name": "416f78a88c450a3bc56d17cbe04aff0d", "is_reserved": 0}, {"is_disabled": 0, "fusion_lon": 0.0, "fusion_lat": 0.0, "lat": 39.00787966666667, "type": "electric_bike", "lon": -76.99567816666666, "bike_id": "31e1c7d5602e564b7bb3cf3c5b49dce6", "rental_uris": {"android": "https://dc.lft.to/lastmile_qr_scan", "ios": "https://dc.lft.to/lastmile_qr_scan"}, "name": "31e1c7d5602e564b7bb3cf3c5b49dce6", "is_reserved": 0}, {"is_disabled": 0, "fusion_lon": 0.0, "fusion_lat": 0.0, "lat": 38.90646233333333, "type": "electric_scooter", "lon": -77.04573166666667, "bike_id": "de990970f55539f0cc110ec834c30e89", "rental_uris": {"android": "https://dc.lft.to/lastmile_qr_scan", "ios": "https://dc.lft.to/lastmile_qr_scan"}, "name": "de990970f55539f0cc110ec834c30e89", "is_reserved": 0}, {"is_disabled": 0, "fusion_lon": 0.0, "fusion_lat": 0.0, "lat": 38.86701083333333, "type": "electric_scooter", "lon": -76.987204, "bike_id": "c93930bf0a412d3a73b40eebb47bdc42", "rental_uris": {"android": "https://dc.lft.to/lastmile_qr_scan", "ios": "https://dc.lft.to/lastmile_qr_scan"}, "name": "c93930bf0a412d3a73b40eebb47bdc42", "is_reserved": 0}, {"is_disabled": 0, "fusion_lon": 0.0, "fusion_lat": 0.0, "lat": 38.9031675, "type": "electric_scooter", "lon": -77.02367716666667, "bike_id": "69e1f0246b9bfc518ccc474a19da9cec", "rental_uris": {"android": "https://dc.lft.to/lastmile_qr_scan", "ios": "https://dc.lft.to/lastmile_qr_scan"}, "name": "69e1f0246b9bfc518ccc474a19da9cec", "is_reserved": 0}, {"is_disabled": 0, "fusion_lon": 0.0, "fusion_lat": 0.0, "lat": 38.93893633333333, "type": "electric_scooter", "lon": -77.03324616666667, "bike_id": "0cc4a7d817478e73f0d5c368d2576410", "rental_uris": {"android": "https://dc.lft.to/lastmile_qr_scan", "ios": "https://dc.lft.to/lastmile_qr_scan"}, "name": "0cc4a7d817478e73f0d5c368d2576410", "is_reserved": 0}, {"is_disabled": 0, "fusion_lon": 0.0, "fusion_lat": 0.0, "lat": 38.9173155, "type": "electric_scooter", "lon": -77.00510016666667, "bike_id": "047d48d7b949e44c4cd018025effbc8c", "rental_uris": {"android": "https://dc.lft.to/lastmile_qr_scan", "ios": "https://dc.lft.to/lastmile_qr_scan"}, "name": "047d48d7b949e44c4cd018025effbc8c", "is_reserved": 0}, {"is_disabled": 0, "fusion_lon": 0.0, "fusion_lat": 0.0, "lat": 38.9019105, "type": "electric_scooter", "lon": -77.04806683333334, "bike_id": "bb37d0786bf38c826eff946f1b3f8fee", "rental_uris": {"android": "https://dc.lft.to/lastmile_qr_scan", "ios": "https://dc.lft.to/lastmile_qr_scan"}, "name": "bb37d0786bf38c826eff946f1b3f8fee", "is_reserved": 0}, {"is_disabled": 0, "fusion_lon": 0.0, "fusion_lat": 0.0, "lat": 38.900352166666664, "type": "electric_scooter", "lon": -77.00192966666667, "bike_id": "1e3446b1f487a8a5505542feddcb3665", "rental_uris": {"android": "https://dc.lft.to/lastmile_qr_scan", "ios": "https://dc.lft.to/lastmile_qr_scan"}, "name": "1e3446b1f487a8a5505542feddcb3665", "is_reserved": 0}, {"is_disabled": 0, "fusion_lon": 0.0, "fusion_lat": 0.0, "lat": 38.956462, "type": "electric_scooter", "lon": -77.01496416666667, "bike_id": "bc6e729f65fc1e46104aa04fb40b00cd", "rental_uris": {"android": "https://dc.lft.to/lastmile_qr_scan", "ios": "https://dc.lft.to/lastmile_qr_scan"}, "name": "bc6e729f65fc1e46104aa04fb40b00cd", "is_reserved": 0}, {"is_disabled": 0, "fusion_lon": 0.0, "fusion_lat": 0.0, "lat": 38.89488633333333, "type": "electric_scooter", "lon": -77.00209916666667, "bike_id": "a6f14d716f85d0020e166288e6620230", "rental_uris": {"android": "https://dc.lft.to/lastmile_qr_scan", "ios": "https://dc.lft.to/lastmile_qr_scan"}, "name": "a6f14d716f85d0020e166288e6620230", "is_reserved": 0}, {"is_disabled": 0, "fusion_lon": 0.0, "fusion_lat": 0.0, "lat": 38.9134955, "type": "electric_scooter", "lon": -77.0320715, "bike_id": "df83684efab070a9f3717a2a019d0fd9", "rental_uris": {"android": "https://dc.lft.to/lastmile_qr_scan", "ios": "https://dc.lft.to/lastmile_qr_scan"}, "name": "df83684efab070a9f3717a2a019d0fd9", "is_reserved": 0}, {"is_disabled": 0, "fusion_lon": 0.0, "fusion_lat": 0.0, "lat": 38.921709666666665, "type": "electric_scooter", "lon": -77.03380133333333, "bike_id": "45b9c65805888d44e89acf56cfdec54b", "rental_uris": {"android": "https://dc.lft.to/lastmile_qr_scan", "ios": "https://dc.lft.to/lastmile_qr_scan"}, "name": "45b9c65805888d44e89acf56cfdec54b", "is_reserved": 0}, {"is_disabled": 0, "fusion_lon": 0.0, "fusion_lat": 0.0, "lat": 38.897962, "type": "electric_scooter", "lon": -77.02462133333333, "bike_id": "acc1fa7b1660f625552458cd14a44676", "rental_uris": {"android": "https://dc.lft.to/lastmile_qr_scan", "ios": "https://dc.lft.to/lastmile_qr_scan"}, "name": "acc1fa7b1660f625552458cd14a44676", "is_reserved": 0}, {"is_disabled": 0, "fusion_lon": 0.0, "fusion_lat": 0.0, "lat": 38.9181485, "type": "electric_scooter", "lon": -77.04000933333333, "bike_id": "9fbe4b6027dc7333df3190a8fa1173f3", "rental_uris": {"android": "https://dc.lft.to/lastmile_qr_scan", "ios": "https://dc.lft.to/lastmile_qr_scan"}, "name": "9fbe4b6027dc7333df3190a8fa1173f3", "is_reserved": 0}, {"is_disabled": 0, "fusion_lon": 0.0, "fusion_lat": 0.0, "lat": 38.94181616666667, "type": "electric_scooter", "lon": -77.03654016666667, "bike_id": "a4a2fc4e88ef2b7df20ef91f702754d3", "rental_uris": {"android": "https://dc.lft.to/lastmile_qr_scan", "ios": "https://dc.lft.to/lastmile_qr_scan"}, "name": "a4a2fc4e88ef2b7df20ef91f702754d3", "is_reserved": 0}, {"is_disabled": 0, "fusion_lon": 0.0, "fusion_lat": 0.0, "lat": 38.91815783333333, "type": "electric_scooter", "lon": -77.02721016666666, "bike_id": "f290dc65d05f7244b3aee130a2a7c3ce", "rental_uris": {"android": "https://dc.lft.to/lastmile_qr_scan", "ios": "https://dc.lft.to/lastmile_qr_scan"}, "name": "f290dc65d05f7244b3aee130a2a7c3ce", "is_reserved": 0}, {"is_disabled": 0, "fusion_lon": 0.0, "fusion_lat": 0.0, "lat": 38.932836, "type": "electric_scooter", "lon": -77.03631033333333, "bike_id": "f29a0c98f7cbdc297c458b74815f487a", "rental_uris": {"android": "https://dc.lft.to/lastmile_qr_scan", "ios": "https://dc.lft.to/lastmile_qr_scan"}, "name": "f29a0c98f7cbdc297c458b74815f487a", "is_reserved": 0}, {"is_disabled": 0, "fusion_lon": 0.0, "fusion_lat": 0.0, "lat": 38.893123833333334, "type": "electric_scooter", "lon": -77.01969833333334, "bike_id": "c4126cecc3db9f04703dccc5d414b42d", "rental_uris": {"android": "https://dc.lft.to/lastmile_qr_scan", "ios": "https://dc.lft.to/lastmile_qr_scan"}, "name": "c4126cecc3db9f04703dccc5d414b42d", "is_reserved": 0}, {"is_disabled": 0, "fusion_lon": 0.0, "fusion_lat": 0.0, "lat": 38.91549233333333, "type": "electric_scooter", "lon": -77.03205033333333, "bike_id": "46d8fea0f80c5e045641f4324b95259e", "rental_uris": {"android": "https://dc.lft.to/lastmile_qr_scan", "ios": "https://dc.lft.to/lastmile_qr_scan"}, "name": "46d8fea0f80c5e045641f4324b95259e", "is_reserved": 0}, {"is_disabled": 0, "fusion_lon": 0.0, "fusion_lat": 0.0, "lat": 38.850680833333335, "type": "electric_scooter", "lon": -76.965291, "bike_id": "f49b980fae7ed33205390a53f2625a45", "rental_uris": {"android": "https://dc.lft.to/lastmile_qr_scan", "ios": "https://dc.lft.to/lastmile_qr_scan"}, "name": "f49b980fae7ed33205390a53f2625a45", "is_reserved": 0}, {"is_disabled": 0, "fusion_lon": 0.0, "fusion_lat": 0.0, "lat": 38.9154985, "type": "electric_scooter", "lon": -77.0385295, "bike_id": "36a9edabef8f2c745d902849d79512fd", "rental_uris": {"android": "https://dc.lft.to/lastmile_qr_scan", "ios": "https://dc.lft.to/lastmile_qr_scan"}, "name": "36a9edabef8f2c745d902849d79512fd", "is_reserved": 0}, {"is_disabled": 0, "fusion_lon": 0.0, "fusion_lat": 0.0, "lat": 38.831217333333335, "type": "electric_bike", "lon": -77.04322766666667, "bike_id": "1f3ce500813c2cafddb0499e641367d2", "rental_uris": {"android": "https://dc.lft.to/lastmile_qr_scan", "ios": "https://dc.lft.to/lastmile_qr_scan"}, "name": "1f3ce500813c2cafddb0499e641367d2", "is_reserved": 0}, {"is_disabled": 0, "fusion_lon": 0.0, "fusion_lat": 0.0, "lat": 38.9014865, "type": "electric_scooter", "lon": -77.0416785, "bike_id": "8070f94ea1303493d871449681a60022", "rental_uris": {"android": "https://dc.lft.to/lastmile_qr_scan", "ios": "https://dc.lft.to/lastmile_qr_scan"}, "name": "8070f94ea1303493d871449681a60022", "is_reserved": 0}, {"is_disabled": 0, "fusion_lon": 0.0, "fusion_lat": 0.0, "lat": 38.89714416666666, "type": "electric_scooter", "lon": -77.02052933333333, "bike_id": "a1612867272c1d0cc19ed783fc2b5bc3", "rental_uris": {"android": "https://dc.lft.to/lastmile_qr_scan", "ios": "https://dc.lft.to/lastmile_qr_scan"}, "name": "a1612867272c1d0cc19ed783fc2b5bc3", "is_reserved": 0}, {"is_disabled": 0, "fusion_lon": 0.0, "fusion_lat": 0.0, "lat": 38.907323, "type": "electric_scooter", "lon": -77.04006116666666, "bike_id": "627bba29f83003548499fb5ce393c51e", "rental_uris": {"android": "https://dc.lft.to/lastmile_qr_scan", "ios": "https://dc.lft.to/lastmile_qr_scan"}, "name": "627bba29f83003548499fb5ce393c51e", "is_reserved": 0}, {"is_disabled": 0, "fusion_lon": 0.0, "fusion_lat": 0.0, "lat": 38.90572266666667, "type": "electric_scooter", "lon": -77.02178683333334, "bike_id": "d4b88d369cd3201f95c005430076cf71", "rental_uris": {"android": "https://dc.lft.to/lastmile_qr_scan", "ios": "https://dc.lft.to/lastmile_qr_scan"}, "name": "d4b88d369cd3201f95c005430076cf71", "is_reserved": 0}, {"is_disabled": 0, "fusion_lon": 0.0, "fusion_lat": 0.0, "lat": 38.827276, "type": "electric_bike", "lon": -77.00867883333333, "bike_id": "1413e3fb8852f417928690857d868bb6", "rental_uris": {"android": "https://dc.lft.to/lastmile_qr_scan", "ios": "https://dc.lft.to/lastmile_qr_scan"}, "name": "1413e3fb8852f417928690857d868bb6", "is_reserved": 0}, {"is_disabled": 0, "fusion_lon": 0.0, "fusion_lat": 0.0, "lat": 38.90561483333333, "type": "electric_scooter", "lon": -77.033591, "bike_id": "6328c19e94717cf5322f70d55d25df0f", "rental_uris": {"android": "https://dc.lft.to/lastmile_qr_scan", "ios": "https://dc.lft.to/lastmile_qr_scan"}, "name": "6328c19e94717cf5322f70d55d25df0f", "is_reserved": 0}, {"is_disabled": 0, "fusion_lon": 0.0, "fusion_lat": 0.0, "lat": 38.907475166666664, "type": "electric_scooter", "lon": -77.03486083333334, "bike_id": "d840bb6abe4d23e2f0e8dd074fc10900", "rental_uris": {"android": "https://dc.lft.to/lastmile_qr_scan", "ios": "https://dc.lft.to/lastmile_qr_scan"}, "name": "d840bb6abe4d23e2f0e8dd074fc10900", "is_reserved": 0}, {"is_disabled": 0, "fusion_lon": 0.0, "fusion_lat": 0.0, "lat": 38.90047633333333, "type": "electric_scooter", "lon": -76.98830366666667, "bike_id": "811b2f2bd5fa32ed6ba924ab30e32a25", "rental_uris": {"android": "https://dc.lft.to/lastmile_qr_scan", "ios": "https://dc.lft.to/lastmile_qr_scan"}, "name": "811b2f2bd5fa32ed6ba924ab30e32a25", "is_reserved": 0}, {"is_disabled": 0, "fusion_lon": 0.0, "fusion_lat": 0.0, "lat": 38.888642, "type": "electric_scooter", "lon": -76.97739333333334, "bike_id": "ae182fbd891b4f3e31957da7facc49dd", "rental_uris": {"android": "https://dc.lft.to/lastmile_qr_scan", "ios": "https://dc.lft.to/lastmile_qr_scan"}, "name": "ae182fbd891b4f3e31957da7facc49dd", "is_reserved": 0}, {"is_disabled": 0, "fusion_lon": 0.0, "fusion_lat": 0.0, "lat": 38.90137933333333, "type": "electric_scooter", "lon": -77.04161933333333, "bike_id": "d84beebb4213fac79dac451f6da01749", "rental_uris": {"android": "https://dc.lft.to/lastmile_qr_scan", "ios": "https://dc.lft.to/lastmile_qr_scan"}, "name": "d84beebb4213fac79dac451f6da01749", "is_reserved": 0}, {"is_disabled": 0, "fusion_lon": 0.0, "fusion_lat": 0.0, "lat": 38.89519583333333, "type": "electric_scooter", "lon": -77.02192866666667, "bike_id": "e6b6fb97ce52ffee37b62548c7ad88d0", "rental_uris": {"android": "https://dc.lft.to/lastmile_qr_scan", "ios": "https://dc.lft.to/lastmile_qr_scan"}, "name": "e6b6fb97ce52ffee37b62548c7ad88d0", "is_reserved": 0}, {"is_disabled": 0, "fusion_lon": 0.0, "fusion_lat": 0.0, "lat": 38.904898833333334, "type": "electric_scooter", "lon": -77.02947616666667, "bike_id": "8990aee748d84aa9235f72434c4fee7a", "rental_uris": {"android": "https://dc.lft.to/lastmile_qr_scan", "ios": "https://dc.lft.to/lastmile_qr_scan"}, "name": "8990aee748d84aa9235f72434c4fee7a", "is_reserved": 0}, {"is_disabled": 0, "fusion_lon": 0.0, "fusion_lat": 0.0, "lat": 38.926750166666665, "type": "electric_scooter", "lon": -77.032138, "bike_id": "a716a5044525b5c33014636124c7c6c7", "rental_uris": {"android": "https://dc.lft.to/lastmile_qr_scan", "ios": "https://dc.lft.to/lastmile_qr_scan"}, "name": "a716a5044525b5c33014636124c7c6c7", "is_reserved": 0}, {"is_disabled": 0, "fusion_lon": 0.0, "fusion_lat": 0.0, "lat": 38.863597, "type": "electric_scooter", "lon": -76.990604, "bike_id": "9d7fc3ac030c7c7c8084030fca649cbd", "rental_uris": {"android": "https://dc.lft.to/lastmile_qr_scan", "ios": "https://dc.lft.to/lastmile_qr_scan"}, "name": "9d7fc3ac030c7c7c8084030fca649cbd", "is_reserved": 0}, {"is_disabled": 0, "fusion_lon": 0.0, "fusion_lat": 0.0, "lat": 38.908234, "type": "electric_scooter", "lon": -77.033694, "bike_id": "e5f1195bf22ec313a28e959a2976955a", "rental_uris": {"android": "https://dc.lft.to/lastmile_qr_scan", "ios": "https://dc.lft.to/lastmile_qr_scan"}, "name": "e5f1195bf22ec313a28e959a2976955a", "is_reserved": 0}, {"is_disabled": 0, "fusion_lon": 0.0, "fusion_lat": 0.0, "lat": 38.93009, "type": "electric_scooter", "lon": -77.07847233333334, "bike_id": "0553111affe236c7b1c4eb3099fff6f6", "rental_uris": {"android": "https://dc.lft.to/lastmile_qr_scan", "ios": "https://dc.lft.to/lastmile_qr_scan"}, "name": "0553111affe236c7b1c4eb3099fff6f6", "is_reserved": 0}, {"is_disabled": 0, "fusion_lon": 0.0, "fusion_lat": 0.0, "lat": 38.937190333333334, "type": "electric_scooter", "lon": -77.03260383333334, "bike_id": "3a13834e30bc26f85a2c692465643a66", "rental_uris": {"android": "https://dc.lft.to/lastmile_qr_scan", "ios": "https://dc.lft.to/lastmile_qr_scan"}, "name": "3a13834e30bc26f85a2c692465643a66", "is_reserved": 0}, {"is_disabled": 0, "fusion_lon": 0.0, "fusion_lat": 0.0, "lat": 38.9203105, "type": "electric_scooter", "lon": -77.011426, "bike_id": "829893fc39bf77cb6a9a94b65da6e6e6", "rental_uris": {"android": "https://dc.lft.to/lastmile_qr_scan", "ios": "https://dc.lft.to/lastmile_qr_scan"}, "name": "829893fc39bf77cb6a9a94b65da6e6e6", "is_reserved": 0}, {"is_disabled": 0, "fusion_lon": 0.0, "fusion_lat": 0.0, "lat": 38.865481, "type": "electric_bike", "lon": -76.97324816666666, "bike_id": "0d1703682161fdc11e04e8d2966ed27a", "rental_uris": {"android": "https://dc.lft.to/lastmile_qr_scan", "ios": "https://dc.lft.to/lastmile_qr_scan"}, "name": "0d1703682161fdc11e04e8d2966ed27a", "is_reserved": 0}, {"is_disabled": 0, "fusion_lon": 0.0, "fusion_lat": 0.0, "lat": 38.90556616666667, "type": "electric_scooter", "lon": -77.00592366666666, "bike_id": "95831e5be2eae486b5e5b1a7f808d2ba", "rental_uris": {"android": "https://dc.lft.to/lastmile_qr_scan", "ios": "https://dc.lft.to/lastmile_qr_scan"}, "name": "95831e5be2eae486b5e5b1a7f808d2ba", "is_reserved": 0}, {"is_disabled": 0, "fusion_lon": 0.0, "fusion_lat": 0.0, "lat": 38.90380566666666, "type": "electric_scooter", "lon": -77.0433015, "bike_id": "c999ab40b45fe7e0d6d12bd5742ca721", "rental_uris": {"android": "https://dc.lft.to/lastmile_qr_scan", "ios": "https://dc.lft.to/lastmile_qr_scan"}, "name": "c999ab40b45fe7e0d6d12bd5742ca721", "is_reserved": 0}, {"is_disabled": 0, "fusion_lon": 0.0, "fusion_lat": 0.0, "lat": 38.920320333333336, "type": "electric_scooter", "lon": -77.01426483333333, "bike_id": "dbd81df196937667e64fdca27e0cac25", "rental_uris": {"android": "https://dc.lft.to/lastmile_qr_scan", "ios": "https://dc.lft.to/lastmile_qr_scan"}, "name": "dbd81df196937667e64fdca27e0cac25", "is_reserved": 0}, {"is_disabled": 0, "fusion_lon": 0.0, "fusion_lat": 0.0, "lat": 38.97581433333333, "type": "electric_bike", "lon": -76.96401066666667, "bike_id": "8caf1a7843260a106b49a41d332d23f8", "rental_uris": {"android": "https://dc.lft.to/lastmile_qr_scan", "ios": "https://dc.lft.to/lastmile_qr_scan"}, "name": "8caf1a7843260a106b49a41d332d23f8", "is_reserved": 0}, {"is_disabled": 0, "fusion_lon": 0.0, "fusion_lat": 0.0, "lat": 38.908318, "type": "electric_bike", "lon": -76.941584, "bike_id": "714894ff43830d315a61eae73f0d1ab7", "rental_uris": {"android": "https://dc.lft.to/lastmile_qr_scan", "ios": "https://dc.lft.to/lastmile_qr_scan"}, "name": "714894ff43830d315a61eae73f0d1ab7", "is_reserved": 0}, {"is_disabled": 0, "fusion_lon": 0.0, "fusion_lat": 0.0, "lat": 38.8874965, "type": "electric_scooter", "lon": -77.02865616666666, "bike_id": "5a0694314842669a81bcfab0311fdc93", "rental_uris": {"android": "https://dc.lft.to/lastmile_qr_scan", "ios": "https://dc.lft.to/lastmile_qr_scan"}, "name": "5a0694314842669a81bcfab0311fdc93", "is_reserved": 0}, {"is_disabled": 0, "fusion_lon": 0.0, "fusion_lat": 0.0, "lat": 38.8882405, "type": "electric_bike", "lon": -77.12747433333334, "bike_id": "21fa72956ed6989eedd925d41098b731", "rental_uris": {"android": "https://dc.lft.to/lastmile_qr_scan", "ios": "https://dc.lft.to/lastmile_qr_scan"}, "name": "21fa72956ed6989eedd925d41098b731", "is_reserved": 0}, {"is_disabled": 0, "fusion_lon": 0.0, "fusion_lat": 0.0, "lat": 38.99234933333334, "type": "electric_bike", "lon": -76.87770066666667, "bike_id": "f3979e8232b1cad70df1ccccfb749472", "rental_uris": {"android": "https://dc.lft.to/lastmile_qr_scan", "ios": "https://dc.lft.to/lastmile_qr_scan"}, "name": "f3979e8232b1cad70df1ccccfb749472", "is_reserved": 0}, {"is_disabled": 0, "fusion_lon": 0.0, "fusion_lat": 0.0, "lat": 38.90734883333333, "type": "electric_scooter", "lon": -77.02373883333334, "bike_id": "7ed3ed1ad85a227a594cdbd249d9e062", "rental_uris": {"android": "https://dc.lft.to/lastmile_qr_scan", "ios": "https://dc.lft.to/lastmile_qr_scan"}, "name": "7ed3ed1ad85a227a594cdbd249d9e062", "is_reserved": 0}, {"is_disabled": 0, "fusion_lon": 0.0, "fusion_lat": 0.0, "lat": 38.90778016666667, "type": "electric_scooter", "lon": -77.0326975, "bike_id": "d1afb93fb95360548cdb3d02ffecc15d", "rental_uris": {"android": "https://dc.lft.to/lastmile_qr_scan", "ios": "https://dc.lft.to/lastmile_qr_scan"}, "name": "d1afb93fb95360548cdb3d02ffecc15d", "is_reserved": 0}, {"is_disabled": 0, "fusion_lon": 0.0, "fusion_lat": 0.0, "lat": 38.889707333333334, "type": "electric_bike", "lon": -76.94864683333333, "bike_id": "41fe787715c8c0a6423cdc93306a6810", "rental_uris": {"android": "https://dc.lft.to/lastmile_qr_scan", "ios": "https://dc.lft.to/lastmile_qr_scan"}, "name": "41fe787715c8c0a6423cdc93306a6810", "is_reserved": 0}, {"is_disabled": 0, "fusion_lon": 0.0, "fusion_lat": 0.0, "lat": 38.865054666666666, "type": "electric_scooter", "lon": -76.99002666666667, "bike_id": "8c4591cee280f5ed4d6f9fb99deaada6", "rental_uris": {"android": "https://dc.lft.to/lastmile_qr_scan", "ios": "https://dc.lft.to/lastmile_qr_scan"}, "name": "8c4591cee280f5ed4d6f9fb99deaada6", "is_reserved": 0}, {"is_disabled": 0, "fusion_lon": 0.0, "fusion_lat": 0.0, "lat": 38.91802783333333, "type": "electric_scooter", "lon": -77.03463216666667, "bike_id": "0b4c10f801ae11ed29d6eb429f955713", "rental_uris": {"android": "https://dc.lft.to/lastmile_qr_scan", "ios": "https://dc.lft.to/lastmile_qr_scan"}, "name": "0b4c10f801ae11ed29d6eb429f955713", "is_reserved": 0}, {"is_disabled": 0, "fusion_lon": 0.0, "fusion_lat": 0.0, "lat": 38.812721, "type": "electric_bike", "lon": -77.06173016666666, "bike_id": "deb40f46054dbb16d19aa6764662f26c", "rental_uris": {"android": "https://dc.lft.to/lastmile_qr_scan", "ios": "https://dc.lft.to/lastmile_qr_scan"}, "name": "deb40f46054dbb16d19aa6764662f26c", "is_reserved": 0}, {"is_disabled": 0, "fusion_lon": 0.0, "fusion_lat": 0.0, "lat": 38.839268, "type": "electric_bike", "lon": -77.0791075, "bike_id": "6c2a3c6e59ff29126bb2ea08812f5c7c", "rental_uris": {"android": "https://dc.lft.to/lastmile_qr_scan", "ios": "https://dc.lft.to/lastmile_qr_scan"}, "name": "6c2a3c6e59ff29126bb2ea08812f5c7c", "is_reserved": 0}, {"is_disabled": 0, "fusion_lon": 0.0, "fusion_lat": 0.0, "lat": 38.918230333333334, "type": "electric_scooter", "lon": -77.03178766666667, "bike_id": "37a957f55e13cae1609ab37b1be44dbc", "rental_uris": {"android": "https://dc.lft.to/lastmile_qr_scan", "ios": "https://dc.lft.to/lastmile_qr_scan"}, "name": "37a957f55e13cae1609ab37b1be44dbc", "is_reserved": 0}, {"is_disabled": 0, "fusion_lon": 0.0, "fusion_lat": 0.0, "lat": 38.904029666666666, "type": "electric_scooter", "lon": -77.04055483333333, "bike_id": "2603334bf905a42eeea48ac56696b799", "rental_uris": {"android": "https://dc.lft.to/lastmile_qr_scan", "ios": "https://dc.lft.to/lastmile_qr_scan"}, "name": "2603334bf905a42eeea48ac56696b799", "is_reserved": 0}, {"is_disabled": 0, "fusion_lon": 0.0, "fusion_lat": 0.0, "lat": 38.91756983333333, "type": "electric_scooter", "lon": -77.02812383333334, "bike_id": "4b5594f39242143ca88eb02cd585d3db", "rental_uris": {"android": "https://dc.lft.to/lastmile_qr_scan", "ios": "https://dc.lft.to/lastmile_qr_scan"}, "name": "4b5594f39242143ca88eb02cd585d3db", "is_reserved": 0}, {"is_disabled": 0, "fusion_lon": 0.0, "fusion_lat": 0.0, "lat": 38.93228533333333, "type": "electric_scooter", "lon": -76.99484933333333, "bike_id": "359a844a13c9f344a517006ad5433311", "rental_uris": {"android": "https://dc.lft.to/lastmile_qr_scan", "ios": "https://dc.lft.to/lastmile_qr_scan"}, "name": "359a844a13c9f344a517006ad5433311", "is_reserved": 0}, {"is_disabled": 0, "fusion_lon": 0.0, "fusion_lat": 0.0, "lat": 38.972636333333334, "type": "electric_bike", "lon": -76.99169783333333, "bike_id": "fbdaf4acbb45b3496e0b652d79358c4d", "rental_uris": {"android": "https://dc.lft.to/lastmile_qr_scan", "ios": "https://dc.lft.to/lastmile_qr_scan"}, "name": "fbdaf4acbb45b3496e0b652d79358c4d", "is_reserved": 0}, {"is_disabled": 0, "fusion_lon": 0.0, "fusion_lat": 0.0, "lat": 38.934745, "type": "electric_scooter", "lon": -77.0688385, "bike_id": "c892f2784ed1b42cc563ff7c73ca0ed8", "rental_uris": {"android": "https://dc.lft.to/lastmile_qr_scan", "ios": "https://dc.lft.to/lastmile_qr_scan"}, "name": "c892f2784ed1b42cc563ff7c73ca0ed8", "is_reserved": 0}, {"is_disabled": 0, "fusion_lon": 0.0, "fusion_lat": 0.0, "lat": 38.8974055, "type": "electric_scooter", "lon": -77.01012316666667, "bike_id": "45a27c5426f857b25a0c2e4967d354c8", "rental_uris": {"android": "https://dc.lft.to/lastmile_qr_scan", "ios": "https://dc.lft.to/lastmile_qr_scan"}, "name": "45a27c5426f857b25a0c2e4967d354c8", "is_reserved": 0}, {"is_disabled": 0, "fusion_lon": 0.0, "fusion_lat": 0.0, "lat": 38.912136333333336, "type": "electric_scooter", "lon": -77.00086733333333, "bike_id": "f4e2eddf16d720971512197fb0306058", "rental_uris": {"android": "https://dc.lft.to/lastmile_qr_scan", "ios": "https://dc.lft.to/lastmile_qr_scan"}, "name": "f4e2eddf16d720971512197fb0306058", "is_reserved": 0}, {"is_disabled": 0, "fusion_lon": 0.0, "fusion_lat": 0.0, "lat": 38.900975, "type": "electric_scooter", "lon": -77.0390775, "bike_id": "7b6e4348a5fd29563f0c40551d9c2d9b", "rental_uris": {"android": "https://dc.lft.to/lastmile_qr_scan", "ios": "https://dc.lft.to/lastmile_qr_scan"}, "name": "7b6e4348a5fd29563f0c40551d9c2d9b", "is_reserved": 0}, {"is_disabled": 0, "fusion_lon": 0.0, "fusion_lat": 0.0, "lat": 38.89988133333333, "type": "electric_scooter", "lon": -77.01632466666666, "bike_id": "b2e8042d11dd38f98c09258073092c3e", "rental_uris": {"android": "https://dc.lft.to/lastmile_qr_scan", "ios": "https://dc.lft.to/lastmile_qr_scan"}, "name": "b2e8042d11dd38f98c09258073092c3e", "is_reserved": 0}, {"is_disabled": 0, "fusion_lon": 0.0, "fusion_lat": 0.0, "lat": 38.93678766666667, "type": "electric_scooter", "lon": -77.03628666666667, "bike_id": "3fdffde114a5838638cdd7834df640dd", "rental_uris": {"android": "https://dc.lft.to/lastmile_qr_scan", "ios": "https://dc.lft.to/lastmile_qr_scan"}, "name": "3fdffde114a5838638cdd7834df640dd", "is_reserved": 0}, {"is_disabled": 0, "fusion_lon": 0.0, "fusion_lat": 0.0, "lat": 38.944632666666664, "type": "electric_scooter", "lon": -77.06044583333333, "bike_id": "24965dbefdedf010f60330506372fd7b", "rental_uris": {"android": "https://dc.lft.to/lastmile_qr_scan", "ios": "https://dc.lft.to/lastmile_qr_scan"}, "name": "24965dbefdedf010f60330506372fd7b", "is_reserved": 0}, {"is_disabled": 0, "fusion_lon": 0.0, "fusion_lat": 0.0, "lat": 38.91146633333334, "type": "electric_scooter", "lon": -76.98487333333334, "bike_id": "1563018fe9a3965c4a48b211e93039e6", "rental_uris": {"android": "https://dc.lft.to/lastmile_qr_scan", "ios": "https://dc.lft.to/lastmile_qr_scan"}, "name": "1563018fe9a3965c4a48b211e93039e6", "is_reserved": 0}, {"is_disabled": 0, "fusion_lon": 0.0, "fusion_lat": 0.0, "lat": 38.91644766666667, "type": "electric_scooter", "lon": -77.05055033333333, "bike_id": "ea2998a74f24cba8e363a845bba20f22", "rental_uris": {"android": "https://dc.lft.to/lastmile_qr_scan", "ios": "https://dc.lft.to/lastmile_qr_scan"}, "name": "ea2998a74f24cba8e363a845bba20f22", "is_reserved": 0}, {"is_disabled": 0, "fusion_lon": 0.0, "fusion_lat": 0.0, "lat": 38.9319025, "type": "electric_scooter", "lon": -77.028357, "bike_id": "3f3ce52fd400022b4cf7ba07e8c3c416", "rental_uris": {"android": "https://dc.lft.to/lastmile_qr_scan", "ios": "https://dc.lft.to/lastmile_qr_scan"}, "name": "3f3ce52fd400022b4cf7ba07e8c3c416", "is_reserved": 0}, {"is_disabled": 0, "fusion_lon": 0.0, "fusion_lat": 0.0, "lat": 38.92481316666667, "type": "electric_scooter", "lon": -77.02669883333333, "bike_id": "be1cc732a626a337a960767d46d60831", "rental_uris": {"android": "https://dc.lft.to/lastmile_qr_scan", "ios": "https://dc.lft.to/lastmile_qr_scan"}, "name": "be1cc732a626a337a960767d46d60831", "is_reserved": 0}, {"is_disabled": 0, "fusion_lon": 0.0, "fusion_lat": 0.0, "lat": 38.894725, "type": "electric_scooter", "lon": -76.97733566666666, "bike_id": "1913ab62e4e9c49b7c22578d6af3ded1", "rental_uris": {"android": "https://dc.lft.to/lastmile_qr_scan", "ios": "https://dc.lft.to/lastmile_qr_scan"}, "name": "1913ab62e4e9c49b7c22578d6af3ded1", "is_reserved": 0}, {"is_disabled": 0, "fusion_lon": 0.0, "fusion_lat": 0.0, "lat": 38.909263, "type": "electric_scooter", "lon": -76.991822, "bike_id": "e131d34eb51cc4d7995f147823faf18d", "rental_uris": {"android": "https://dc.lft.to/lastmile_qr_scan", "ios": "https://dc.lft.to/lastmile_qr_scan"}, "name": "e131d34eb51cc4d7995f147823faf18d", "is_reserved": 0}, {"is_disabled": 0, "fusion_lon": 0.0, "fusion_lat": 0.0, "lat": 38.897419166666666, "type": "electric_scooter", "lon": -77.01598233333333, "bike_id": "2a3259b58ab4a0fecb56da45df45a62f", "rental_uris": {"android": "https://dc.lft.to/lastmile_qr_scan", "ios": "https://dc.lft.to/lastmile_qr_scan"}, "name": "2a3259b58ab4a0fecb56da45df45a62f", "is_reserved": 0}, {"is_disabled": 0, "fusion_lon": 0.0, "fusion_lat": 0.0, "lat": 38.92576733333333, "type": "electric_scooter", "lon": -76.99497216666667, "bike_id": "6427d884a88ee62b402fd835157fb7f1", "rental_uris": {"android": "https://dc.lft.to/lastmile_qr_scan", "ios": "https://dc.lft.to/lastmile_qr_scan"}, "name": "6427d884a88ee62b402fd835157fb7f1", "is_reserved": 0}, {"is_disabled": 0, "fusion_lon": 0.0, "fusion_lat": 0.0, "lat": 38.9180525, "type": "electric_scooter", "lon": -77.0403275, "bike_id": "174649dfb889fde8273ff0edda25c5f9", "rental_uris": {"android": "https://dc.lft.to/lastmile_qr_scan", "ios": "https://dc.lft.to/lastmile_qr_scan"}, "name": "174649dfb889fde8273ff0edda25c5f9", "is_reserved": 0}, {"is_disabled": 0, "fusion_lon": 0.0, "fusion_lat": 0.0, "lat": 38.90259916666667, "type": "electric_scooter", "lon": -77.01944866666666, "bike_id": "f5b711ca2a8e37d666d2f460ff21f90b", "rental_uris": {"android": "https://dc.lft.to/lastmile_qr_scan", "ios": "https://dc.lft.to/lastmile_qr_scan"}, "name": "f5b711ca2a8e37d666d2f460ff21f90b", "is_reserved": 0}, {"is_disabled": 0, "fusion_lon": 0.0, "fusion_lat": 0.0, "lat": 38.883480166666665, "type": "electric_scooter", "lon": -76.94175766666666, "bike_id": "302734a35af91fcd58189398fa4feed1", "rental_uris": {"android": "https://dc.lft.to/lastmile_qr_scan", "ios": "https://dc.lft.to/lastmile_qr_scan"}, "name": "302734a35af91fcd58189398fa4feed1", "is_reserved": 0}, {"is_disabled": 0, "fusion_lon": 0.0, "fusion_lat": 0.0, "lat": 38.8823575, "type": "electric_bike", "lon": -77.107574, "bike_id": "03bb94a36bca799169b6305636b94459", "rental_uris": {"android": "https://dc.lft.to/lastmile_qr_scan", "ios": "https://dc.lft.to/lastmile_qr_scan"}, "name": "03bb94a36bca799169b6305636b94459", "is_reserved": 0}, {"is_disabled": 0, "fusion_lon": 0.0, "fusion_lat": 0.0, "lat": 38.89998516666667, "type": "electric_scooter", "lon": -76.92231266666667, "bike_id": "faa9111cdc61f0a89656ed7c2a0a5d67", "rental_uris": {"android": "https://dc.lft.to/lastmile_qr_scan", "ios": "https://dc.lft.to/lastmile_qr_scan"}, "name": "faa9111cdc61f0a89656ed7c2a0a5d67", "is_reserved": 0}, {"is_disabled": 0, "fusion_lon": 0.0, "fusion_lat": 0.0, "lat": 38.852101833333336, "type": "electric_bike", "lon": -77.1013385, "bike_id": "73b50cbd78563db86065e84f9c662fa6", "rental_uris": {"android": "https://dc.lft.to/lastmile_qr_scan", "ios": "https://dc.lft.to/lastmile_qr_scan"}, "name": "73b50cbd78563db86065e84f9c662fa6", "is_reserved": 0}, {"is_disabled": 0, "fusion_lon": 0.0, "fusion_lat": 0.0, "lat": 38.9181155, "type": "electric_scooter", "lon": -77.010163, "bike_id": "5e712e20d714a7ebad23ca2b01721b99", "rental_uris": {"android": "https://dc.lft.to/lastmile_qr_scan", "ios": "https://dc.lft.to/lastmile_qr_scan"}, "name": "5e712e20d714a7ebad23ca2b01721b99", "is_reserved": 0}, {"is_disabled": 0, "fusion_lon": 0.0, "fusion_lat": 0.0, "lat": 38.910521, "type": "electric_scooter", "lon": -77.04345683333334, "bike_id": "a4b370c295730e9d24858e7ad22cb238", "rental_uris": {"android": "https://dc.lft.to/lastmile_qr_scan", "ios": "https://dc.lft.to/lastmile_qr_scan"}, "name": "a4b370c295730e9d24858e7ad22cb238", "is_reserved": 0}, {"is_disabled": 0, "fusion_lon": 0.0, "fusion_lat": 0.0, "lat": 38.94621433333333, "type": "electric_scooter", "lon": -77.03624216666667, "bike_id": "fffdecde3fa3fa070979d6ddc2e0f0f3", "rental_uris": {"android": "https://dc.lft.to/lastmile_qr_scan", "ios": "https://dc.lft.to/lastmile_qr_scan"}, "name": "fffdecde3fa3fa070979d6ddc2e0f0f3", "is_reserved": 0}, {"is_disabled": 0, "fusion_lon": 0.0, "fusion_lat": 0.0, "lat": 38.86700416666667, "type": "electric_scooter", "lon": -76.98717883333333, "bike_id": "41be92e396bb265c22e458027265ca7c", "rental_uris": {"android": "https://dc.lft.to/lastmile_qr_scan", "ios": "https://dc.lft.to/lastmile_qr_scan"}, "name": "41be92e396bb265c22e458027265ca7c", "is_reserved": 0}, {"is_disabled": 0, "fusion_lon": 0.0, "fusion_lat": 0.0, "lat": 38.931024666666666, "type": "electric_scooter", "lon": -77.02669883333333, "bike_id": "4c2c8e8059527a650ecf527777812055", "rental_uris": {"android": "https://dc.lft.to/lastmile_qr_scan", "ios": "https://dc.lft.to/lastmile_qr_scan"}, "name": "4c2c8e8059527a650ecf527777812055", "is_reserved": 0}, {"is_disabled": 0, "fusion_lon": 0.0, "fusion_lat": 0.0, "lat": 38.90384, "type": "electric_scooter", "lon": -77.03020883333333, "bike_id": "46605bb6c03a414d580290e2a9c69ca5", "rental_uris": {"android": "https://dc.lft.to/lastmile_qr_scan", "ios": "https://dc.lft.to/lastmile_qr_scan"}, "name": "46605bb6c03a414d580290e2a9c69ca5", "is_reserved": 0}, {"is_disabled": 0, "fusion_lon": 0.0, "fusion_lat": 0.0, "lat": 38.9201755, "type": "electric_scooter", "lon": -77.03138333333334, "bike_id": "33835e240c7ca9a1752e797ecc1676e6", "rental_uris": {"android": "https://dc.lft.to/lastmile_qr_scan", "ios": "https://dc.lft.to/lastmile_qr_scan"}, "name": "33835e240c7ca9a1752e797ecc1676e6", "is_reserved": 0}, {"is_disabled": 0, "fusion_lon": 0.0, "fusion_lat": 0.0, "lat": 38.869081666666666, "type": "electric_scooter", "lon": -77.01371583333334, "bike_id": "5dfc44f4ed4ed8f4903ed25414546f4a", "rental_uris": {"android": "https://dc.lft.to/lastmile_qr_scan", "ios": "https://dc.lft.to/lastmile_qr_scan"}, "name": "5dfc44f4ed4ed8f4903ed25414546f4a", "is_reserved": 0}, {"is_disabled": 0, "fusion_lon": 0.0, "fusion_lat": 0.0, "lat": 38.931882, "type": "electric_scooter", "lon": -77.02828433333333, "bike_id": "2fefa5a7ff4f91c943bcbdc388b7afb9", "rental_uris": {"android": "https://dc.lft.to/lastmile_qr_scan", "ios": "https://dc.lft.to/lastmile_qr_scan"}, "name": "2fefa5a7ff4f91c943bcbdc388b7afb9", "is_reserved": 0}, {"is_disabled": 0, "fusion_lon": 0.0, "fusion_lat": 0.0, "lat": 38.929638833333335, "type": "electric_scooter", "lon": -77.04202083333334, "bike_id": "bca18330ad71cb911b00351d66bdb7d1", "rental_uris": {"android": "https://dc.lft.to/lastmile_qr_scan", "ios": "https://dc.lft.to/lastmile_qr_scan"}, "name": "bca18330ad71cb911b00351d66bdb7d1", "is_reserved": 0}, {"is_disabled": 0, "fusion_lon": 0.0, "fusion_lat": 0.0, "lat": 38.93339233333333, "type": "electric_bike", "lon": -77.042104, "bike_id": "784d1186d9942fc50a46ef8832b780b5", "rental_uris": {"android": "https://dc.lft.to/lastmile_qr_scan", "ios": "https://dc.lft.to/lastmile_qr_scan"}, "name": "784d1186d9942fc50a46ef8832b780b5", "is_reserved": 0}, {"is_disabled": 0, "fusion_lon": 0.0, "fusion_lat": 0.0, "lat": 38.916228, "type": "electric_scooter", "lon": -77.03144916666666, "bike_id": "fb91d10a9de2d93a186c82de7bf23ec0", "rental_uris": {"android": "https://dc.lft.to/lastmile_qr_scan", "ios": "https://dc.lft.to/lastmile_qr_scan"}, "name": "fb91d10a9de2d93a186c82de7bf23ec0", "is_reserved": 0}, {"is_disabled": 0, "fusion_lon": 0.0, "fusion_lat": 0.0, "lat": 38.882294, "type": "electric_bike", "lon": -77.11272033333333, "bike_id": "cf8e36d728d46a9c7361a7f8d5f94ae7", "rental_uris": {"android": "https://dc.lft.to/lastmile_qr_scan", "ios": "https://dc.lft.to/lastmile_qr_scan"}, "name": "cf8e36d728d46a9c7361a7f8d5f94ae7", "is_reserved": 0}, {"is_disabled": 0, "fusion_lon": 0.0, "fusion_lat": 0.0, "lat": 38.8996765, "type": "electric_scooter", "lon": -77.04614433333333, "bike_id": "a09169ee37bcde374e3c2b5d997d466d", "rental_uris": {"android": "https://dc.lft.to/lastmile_qr_scan", "ios": "https://dc.lft.to/lastmile_qr_scan"}, "name": "a09169ee37bcde374e3c2b5d997d466d", "is_reserved": 0}, {"is_disabled": 0, "fusion_lon": 0.0, "fusion_lat": 0.0, "lat": 38.9005045, "type": "electric_scooter", "lon": -77.00075616666666, "bike_id": "58a3a18cb583df3668f88097825982b0", "rental_uris": {"android": "https://dc.lft.to/lastmile_qr_scan", "ios": "https://dc.lft.to/lastmile_qr_scan"}, "name": "58a3a18cb583df3668f88097825982b0", "is_reserved": 0}, {"is_disabled": 0, "fusion_lon": 0.0, "fusion_lat": 0.0, "lat": 38.901666, "type": "electric_scooter", "lon": -77.02221066666667, "bike_id": "ab8b873f9cbff1a38854e2f1410805b5", "rental_uris": {"android": "https://dc.lft.to/lastmile_qr_scan", "ios": "https://dc.lft.to/lastmile_qr_scan"}, "name": "ab8b873f9cbff1a38854e2f1410805b5", "is_reserved": 0}, {"is_disabled": 0, "fusion_lon": 0.0, "fusion_lat": 0.0, "lat": 38.912140666666666, "type": "electric_scooter", "lon": -77.03175566666667, "bike_id": "1c6fa2d0f6a84a8c1292dde130a45014", "rental_uris": {"android": "https://dc.lft.to/lastmile_qr_scan", "ios": "https://dc.lft.to/lastmile_qr_scan"}, "name": "1c6fa2d0f6a84a8c1292dde130a45014", "is_reserved": 0}, {"is_disabled": 0, "fusion_lon": 0.0, "fusion_lat": 0.0, "lat": 38.91972833333333, "type": "electric_scooter", "lon": -77.02414133333333, "bike_id": "011bbb9b7f9f888077e729ec9ac35159", "rental_uris": {"android": "https://dc.lft.to/lastmile_qr_scan", "ios": "https://dc.lft.to/lastmile_qr_scan"}, "name": "011bbb9b7f9f888077e729ec9ac35159", "is_reserved": 0}, {"is_disabled": 0, "fusion_lon": 0.0, "fusion_lat": 0.0, "lat": 38.89298183333333, "type": "electric_scooter", "lon": -77.01234766666667, "bike_id": "2ea6c79f93e9e09aac9ae5a903e19a85", "rental_uris": {"android": "https://dc.lft.to/lastmile_qr_scan", "ios": "https://dc.lft.to/lastmile_qr_scan"}, "name": "2ea6c79f93e9e09aac9ae5a903e19a85", "is_reserved": 0}, {"is_disabled": 0, "fusion_lon": 0.0, "fusion_lat": 0.0, "lat": 38.921076166666666, "type": "electric_scooter", "lon": -77.03052283333334, "bike_id": "e5ff03d4be0210a16ce75ddadc738990", "rental_uris": {"android": "https://dc.lft.to/lastmile_qr_scan", "ios": "https://dc.lft.to/lastmile_qr_scan"}, "name": "e5ff03d4be0210a16ce75ddadc738990", "is_reserved": 0}, {"is_disabled": 0, "fusion_lon": 0.0, "fusion_lat": 0.0, "lat": 38.902477166666664, "type": "electric_scooter", "lon": -77.002007, "bike_id": "b7aea960d23779cd13d1c97b96a55c20", "rental_uris": {"android": "https://dc.lft.to/lastmile_qr_scan", "ios": "https://dc.lft.to/lastmile_qr_scan"}, "name": "b7aea960d23779cd13d1c97b96a55c20", "is_reserved": 0}, {"is_disabled": 0, "fusion_lon": 0.0, "fusion_lat": 0.0, "lat": 38.9109455, "type": "electric_scooter", "lon": -77.0386015, "bike_id": "7b554b42e500f2dc2327495cfcdc5eb1", "rental_uris": {"android": "https://dc.lft.to/lastmile_qr_scan", "ios": "https://dc.lft.to/lastmile_qr_scan"}, "name": "7b554b42e500f2dc2327495cfcdc5eb1", "is_reserved": 0}, {"is_disabled": 0, "fusion_lon": 0.0, "fusion_lat": 0.0, "lat": 38.913483, "type": "electric_scooter", "lon": -77.03209083333333, "bike_id": "c7b6cd6c1102c6ccfcdc8a389cc565af", "rental_uris": {"android": "https://dc.lft.to/lastmile_qr_scan", "ios": "https://dc.lft.to/lastmile_qr_scan"}, "name": "c7b6cd6c1102c6ccfcdc8a389cc565af", "is_reserved": 0}, {"is_disabled": 0, "fusion_lon": 0.0, "fusion_lat": 0.0, "lat": 38.90832, "type": "electric_scooter", "lon": -77.04165066666667, "bike_id": "bace10b312cc32f76e3da35b4cc35bcd", "rental_uris": {"android": "https://dc.lft.to/lastmile_qr_scan", "ios": "https://dc.lft.to/lastmile_qr_scan"}, "name": "bace10b312cc32f76e3da35b4cc35bcd", "is_reserved": 0}, {"is_disabled": 0, "fusion_lon": 0.0, "fusion_lat": 0.0, "lat": 38.87642483333333, "type": "electric_scooter", "lon": -77.01555983333333, "bike_id": "6c182ded3206442c11c9d983c1928cb2", "rental_uris": {"android": "https://dc.lft.to/lastmile_qr_scan", "ios": "https://dc.lft.to/lastmile_qr_scan"}, "name": "6c182ded3206442c11c9d983c1928cb2", "is_reserved": 0}, {"is_disabled": 0, "fusion_lon": 0.0, "fusion_lat": 0.0, "lat": 38.93158316666667, "type": "electric_scooter", "lon": -77.03452066666667, "bike_id": "52488f6602fc395954d3488a7c857b66", "rental_uris": {"android": "https://dc.lft.to/lastmile_qr_scan", "ios": "https://dc.lft.to/lastmile_qr_scan"}, "name": "52488f6602fc395954d3488a7c857b66", "is_reserved": 0}, {"is_disabled": 0, "fusion_lon": 0.0, "fusion_lat": 0.0, "lat": 38.95310216666667, "type": "electric_scooter", "lon": -77.03599316666667, "bike_id": "26688556b98f083baf62977a370e9c89", "rental_uris": {"android": "https://dc.lft.to/lastmile_qr_scan", "ios": "https://dc.lft.to/lastmile_qr_scan"}, "name": "26688556b98f083baf62977a370e9c89", "is_reserved": 0}, {"is_disabled": 0, "fusion_lon": 0.0, "fusion_lat": 0.0, "lat": 38.930912166666666, "type": "electric_scooter", "lon": -77.0251035, "bike_id": "8601c43d0b912651857c166e2d477fce", "rental_uris": {"android": "https://dc.lft.to/lastmile_qr_scan", "ios": "https://dc.lft.to/lastmile_qr_scan"}, "name": "8601c43d0b912651857c166e2d477fce", "is_reserved": 0}, {"is_disabled": 0, "fusion_lon": 0.0, "fusion_lat": 0.0, "lat": 38.892199, "type": "electric_scooter", "lon": -77.02266233333333, "bike_id": "82a9f67937ca0f260a2e773fb95d6bf4", "rental_uris": {"android": "https://dc.lft.to/lastmile_qr_scan", "ios": "https://dc.lft.to/lastmile_qr_scan"}, "name": "82a9f67937ca0f260a2e773fb95d6bf4", "is_reserved": 0}, {"is_disabled": 0, "fusion_lon": 0.0, "fusion_lat": 0.0, "lat": 38.90245783333334, "type": "electric_scooter", "lon": -77.002105, "bike_id": "da43d22722e4dafc370d3e3d3ef1e6ad", "rental_uris": {"android": "https://dc.lft.to/lastmile_qr_scan", "ios": "https://dc.lft.to/lastmile_qr_scan"}, "name": "da43d22722e4dafc370d3e3d3ef1e6ad", "is_reserved": 0}, {"is_disabled": 0, "fusion_lon": 0.0, "fusion_lat": 0.0, "lat": 39.0958815, "type": "electric_bike", "lon": -77.1477885, "bike_id": "d6b78be034ad6dbc03de23e7cd0bd0c4", "rental_uris": {"android": "https://dc.lft.to/lastmile_qr_scan", "ios": "https://dc.lft.to/lastmile_qr_scan"}, "name": "d6b78be034ad6dbc03de23e7cd0bd0c4", "is_reserved": 0}, {"is_disabled": 0, "fusion_lon": 0.0, "fusion_lat": 0.0, "lat": 38.85531683333333, "type": "electric_bike", "lon": -77.10728416666667, "bike_id": "b0286415396b8fe77b947305ba811c10", "rental_uris": {"android": "https://dc.lft.to/lastmile_qr_scan", "ios": "https://dc.lft.to/lastmile_qr_scan"}, "name": "b0286415396b8fe77b947305ba811c10", "is_reserved": 0}, {"is_disabled": 0, "fusion_lon": 0.0, "fusion_lat": 0.0, "lat": 38.86040416666667, "type": "electric_scooter", "lon": -76.99688933333333, "bike_id": "be5103b014a32cd2470b9df04c8a028b", "rental_uris": {"android": "https://dc.lft.to/lastmile_qr_scan", "ios": "https://dc.lft.to/lastmile_qr_scan"}, "name": "be5103b014a32cd2470b9df04c8a028b", "is_reserved": 0}, {"is_disabled": 0, "fusion_lon": 0.0, "fusion_lat": 0.0, "lat": 38.90015016666667, "type": "electric_scooter", "lon": -77.03204733333334, "bike_id": "77a0801671f76debee2e647e3c5a7e69", "rental_uris": {"android": "https://dc.lft.to/lastmile_qr_scan", "ios": "https://dc.lft.to/lastmile_qr_scan"}, "name": "77a0801671f76debee2e647e3c5a7e69", "is_reserved": 0}, {"is_disabled": 0, "fusion_lon": 0.0, "fusion_lat": 0.0, "lat": 38.99936916666667, "type": "electric_bike", "lon": -77.00118783333333, "bike_id": "b7ca1c29a61f3c5c5a2b93153032cfc5", "rental_uris": {"android": "https://dc.lft.to/lastmile_qr_scan", "ios": "https://dc.lft.to/lastmile_qr_scan"}, "name": "b7ca1c29a61f3c5c5a2b93153032cfc5", "is_reserved": 0}, {"is_disabled": 0, "fusion_lon": 0.0, "fusion_lat": 0.0, "lat": 38.89510083333333, "type": "electric_scooter", "lon": -76.94880616666667, "bike_id": "43d978f5c5d086c744dbaaa243b725f9", "rental_uris": {"android": "https://dc.lft.to/lastmile_qr_scan", "ios": "https://dc.lft.to/lastmile_qr_scan"}, "name": "43d978f5c5d086c744dbaaa243b725f9", "is_reserved": 0}, {"is_disabled": 0, "fusion_lon": 0.0, "fusion_lat": 0.0, "lat": 38.84196433333334, "type": "electric_bike", "lon": -77.077522, "bike_id": "e1d01f59b1d3b768f7c38b73b47dab80", "rental_uris": {"android": "https://dc.lft.to/lastmile_qr_scan", "ios": "https://dc.lft.to/lastmile_qr_scan"}, "name": "e1d01f59b1d3b768f7c38b73b47dab80", "is_reserved": 0}, {"is_disabled": 0, "fusion_lon": 0.0, "fusion_lat": 0.0, "lat": 38.89902683333333, "type": "electric_scooter", "lon": -76.93355583333333, "bike_id": "4421458167bf2d855e1487d7a172f02f", "rental_uris": {"android": "https://dc.lft.to/lastmile_qr_scan", "ios": "https://dc.lft.to/lastmile_qr_scan"}, "name": "4421458167bf2d855e1487d7a172f02f", "is_reserved": 0}, {"is_disabled": 0, "fusion_lon": 0.0, "fusion_lat": 0.0, "lat": 38.9155075, "type": "electric_scooter", "lon": -77.01233483333333, "bike_id": "3adfef2dbde0971e14bf90f0032600d0", "rental_uris": {"android": "https://dc.lft.to/lastmile_qr_scan", "ios": "https://dc.lft.to/lastmile_qr_scan"}, "name": "3adfef2dbde0971e14bf90f0032600d0", "is_reserved": 0}, {"is_disabled": 0, "fusion_lon": 0.0, "fusion_lat": 0.0, "lat": 38.917859666666665, "type": "electric_scooter", "lon": -77.0230935, "bike_id": "ec629a30738148d022078c0d1b1f0b24", "rental_uris": {"android": "https://dc.lft.to/lastmile_qr_scan", "ios": "https://dc.lft.to/lastmile_qr_scan"}, "name": "ec629a30738148d022078c0d1b1f0b24", "is_reserved": 0}, {"is_disabled": 0, "fusion_lon": 0.0, "fusion_lat": 0.0, "lat": 38.875743, "type": "electric_scooter", "lon": -77.01995533333333, "bike_id": "2a78b1956a49df2754728a6c6480eefe", "rental_uris": {"android": "https://dc.lft.to/lastmile_qr_scan", "ios": "https://dc.lft.to/lastmile_qr_scan"}, "name": "2a78b1956a49df2754728a6c6480eefe", "is_reserved": 0}, {"is_disabled": 0, "fusion_lon": 0.0, "fusion_lat": 0.0, "lat": 38.95362633333333, "type": "electric_bike", "lon": -76.9809305, "bike_id": "9c7a301f36713389bdcf2e4acff5dbd8", "rental_uris": {"android": "https://dc.lft.to/lastmile_qr_scan", "ios": "https://dc.lft.to/lastmile_qr_scan"}, "name": "9c7a301f36713389bdcf2e4acff5dbd8", "is_reserved": 0}, {"is_disabled": 0, "fusion_lon": 0.0, "fusion_lat": 0.0, "lat": 38.917964833333336, "type": "electric_scooter", "lon": -77.036516, "bike_id": "d22e8d58f029621551925dac7a3c886d", "rental_uris": {"android": "https://dc.lft.to/lastmile_qr_scan", "ios": "https://dc.lft.to/lastmile_qr_scan"}, "name": "d22e8d58f029621551925dac7a3c886d", "is_reserved": 0}, {"is_disabled": 0, "fusion_lon": 0.0, "fusion_lat": 0.0, "lat": 38.902722833333335, "type": "electric_scooter", "lon": -77.03646666666667, "bike_id": "db03909fb43a20556678633b103a9211", "rental_uris": {"android": "https://dc.lft.to/lastmile_qr_scan", "ios": "https://dc.lft.to/lastmile_qr_scan"}, "name": "db03909fb43a20556678633b103a9211", "is_reserved": 0}, {"is_disabled": 0, "fusion_lon": 0.0, "fusion_lat": 0.0, "lat": 38.933993666666666, "type": "electric_scooter", "lon": -77.02726933333334, "bike_id": "9d1f9a6245b8561640472216ad6ee746", "rental_uris": {"android": "https://dc.lft.to/lastmile_qr_scan", "ios": "https://dc.lft.to/lastmile_qr_scan"}, "name": "9d1f9a6245b8561640472216ad6ee746", "is_reserved": 0}, {"is_disabled": 0, "fusion_lon": 0.0, "fusion_lat": 0.0, "lat": 38.91533583333333, "type": "electric_scooter", "lon": -77.02192966666667, "bike_id": "924ba3bb880268e570995b65050a19a9", "rental_uris": {"android": "https://dc.lft.to/lastmile_qr_scan", "ios": "https://dc.lft.to/lastmile_qr_scan"}, "name": "924ba3bb880268e570995b65050a19a9", "is_reserved": 0}, {"is_disabled": 0, "fusion_lon": 0.0, "fusion_lat": 0.0, "lat": 38.905787, "type": "electric_scooter", "lon": -77.02385733333334, "bike_id": "ded9d25e00d999521d41518134bc2f20", "rental_uris": {"android": "https://dc.lft.to/lastmile_qr_scan", "ios": "https://dc.lft.to/lastmile_qr_scan"}, "name": "ded9d25e00d999521d41518134bc2f20", "is_reserved": 0}, {"is_disabled": 0, "fusion_lon": 0.0, "fusion_lat": 0.0, "lat": 38.915487, "type": "electric_scooter", "lon": -77.01234233333334, "bike_id": "e5e25ce00a73bc6c083e21e6bcffca0a", "rental_uris": {"android": "https://dc.lft.to/lastmile_qr_scan", "ios": "https://dc.lft.to/lastmile_qr_scan"}, "name": "e5e25ce00a73bc6c083e21e6bcffca0a", "is_reserved": 0}, {"is_disabled": 0, "fusion_lon": 0.0, "fusion_lat": 0.0, "lat": 38.89257116666667, "type": "electric_scooter", "lon": -77.03191783333334, "bike_id": "b5594ca208a1181431a8ffd383226817", "rental_uris": {"android": "https://dc.lft.to/lastmile_qr_scan", "ios": "https://dc.lft.to/lastmile_qr_scan"}, "name": "b5594ca208a1181431a8ffd383226817", "is_reserved": 0}, {"is_disabled": 0, "fusion_lon": 0.0, "fusion_lat": 0.0, "lat": 38.92167966666667, "type": "electric_scooter", "lon": -77.03851816666666, "bike_id": "5e3026064c55b6d4470f788c1cd8f0b4", "rental_uris": {"android": "https://dc.lft.to/lastmile_qr_scan", "ios": "https://dc.lft.to/lastmile_qr_scan"}, "name": "5e3026064c55b6d4470f788c1cd8f0b4", "is_reserved": 0}, {"is_disabled": 0, "fusion_lon": 0.0, "fusion_lat": 0.0, "lat": 38.923112833333334, "type": "electric_scooter", "lon": -77.04202733333334, "bike_id": "101fd5211131b0a7b6f9bd7b63d38b38", "rental_uris": {"android": "https://dc.lft.to/lastmile_qr_scan", "ios": "https://dc.lft.to/lastmile_qr_scan"}, "name": "101fd5211131b0a7b6f9bd7b63d38b38", "is_reserved": 0}, {"is_disabled": 0, "fusion_lon": 0.0, "fusion_lat": 0.0, "lat": 38.84848483333333, "type": "electric_bike", "lon": -77.08049866666667, "bike_id": "ee17dd05ae6835ff40e82ab31d7e2f7a", "rental_uris": {"android": "https://dc.lft.to/lastmile_qr_scan", "ios": "https://dc.lft.to/lastmile_qr_scan"}, "name": "ee17dd05ae6835ff40e82ab31d7e2f7a", "is_reserved": 0}, {"is_disabled": 0, "fusion_lon": 0.0, "fusion_lat": 0.0, "lat": 38.896752166666666, "type": "electric_scooter", "lon": -76.9472455, "bike_id": "c7e1f68f671af4186db2bb70c46342a6", "rental_uris": {"android": "https://dc.lft.to/lastmile_qr_scan", "ios": "https://dc.lft.to/lastmile_qr_scan"}, "name": "c7e1f68f671af4186db2bb70c46342a6", "is_reserved": 0}, {"is_disabled": 0, "fusion_lon": 0.0, "fusion_lat": 0.0, "lat": 38.966081333333335, "type": "electric_bike", "lon": -76.9833215, "bike_id": "a01354074a7fdf84922d88ff9b7f8652", "rental_uris": {"android": "https://dc.lft.to/lastmile_qr_scan", "ios": "https://dc.lft.to/lastmile_qr_scan"}, "name": "a01354074a7fdf84922d88ff9b7f8652", "is_reserved": 0}, {"is_disabled": 0, "fusion_lon": 0.0, "fusion_lat": 0.0, "lat": 38.944523, "type": "electric_scooter", "lon": -77.06349566666667, "bike_id": "5bb44c578c2d4138d88d7e6550f79c7b", "rental_uris": {"android": "https://dc.lft.to/lastmile_qr_scan", "ios": "https://dc.lft.to/lastmile_qr_scan"}, "name": "5bb44c578c2d4138d88d7e6550f79c7b", "is_reserved": 0}, {"is_disabled": 0, "fusion_lon": 0.0, "fusion_lat": 0.0, "lat": 38.900122833333334, "type": "electric_scooter", "lon": -76.99750433333334, "bike_id": "6dc27891737bff6bb17080393ec80757", "rental_uris": {"android": "https://dc.lft.to/lastmile_qr_scan", "ios": "https://dc.lft.to/lastmile_qr_scan"}, "name": "6dc27891737bff6bb17080393ec80757", "is_reserved": 0}, {"is_disabled": 0, "fusion_lon": 0.0, "fusion_lat": 0.0, "lat": 38.90854683333333, "type": "electric_scooter", "lon": -77.02387416666667, "bike_id": "1d627c99f01bf1cdfbce33717d0b8856", "rental_uris": {"android": "https://dc.lft.to/lastmile_qr_scan", "ios": "https://dc.lft.to/lastmile_qr_scan"}, "name": "1d627c99f01bf1cdfbce33717d0b8856", "is_reserved": 0}, {"is_disabled": 0, "fusion_lon": 0.0, "fusion_lat": 0.0, "lat": 38.9349375, "type": "electric_scooter", "lon": -77.0328495, "bike_id": "28e18afabd6f68d181652b9df312d00b", "rental_uris": {"android": "https://dc.lft.to/lastmile_qr_scan", "ios": "https://dc.lft.to/lastmile_qr_scan"}, "name": "28e18afabd6f68d181652b9df312d00b", "is_reserved": 0}, {"is_disabled": 0, "fusion_lon": 0.0, "fusion_lat": 0.0, "lat": 38.925528666666665, "type": "electric_scooter", "lon": -77.05295266666667, "bike_id": "0bfef1a8dc1ede20588436891765eaa6", "rental_uris": {"android": "https://dc.lft.to/lastmile_qr_scan", "ios": "https://dc.lft.to/lastmile_qr_scan"}, "name": "0bfef1a8dc1ede20588436891765eaa6", "is_reserved": 0}, {"is_disabled": 0, "fusion_lon": 0.0, "fusion_lat": 0.0, "lat": 38.90369966666667, "type": "electric_scooter", "lon": -77.01766016666667, "bike_id": "5f2a26bc7dc8ef94a6e76be8c8acd08d", "rental_uris": {"android": "https://dc.lft.to/lastmile_qr_scan", "ios": "https://dc.lft.to/lastmile_qr_scan"}, "name": "5f2a26bc7dc8ef94a6e76be8c8acd08d", "is_reserved": 0}, {"is_disabled": 0, "fusion_lon": 0.0, "fusion_lat": 0.0, "lat": 39.000193333333335, "type": "electric_bike", "lon": -76.872817, "bike_id": "764e36f31120211528d28b888a0b5ba9", "rental_uris": {"android": "https://dc.lft.to/lastmile_qr_scan", "ios": "https://dc.lft.to/lastmile_qr_scan"}, "name": "764e36f31120211528d28b888a0b5ba9", "is_reserved": 0}, {"is_disabled": 0, "fusion_lon": 0.0, "fusion_lat": 0.0, "lat": 38.828743333333335, "type": "electric_bike", "lon": -77.11221833333333, "bike_id": "b676a9b9066c18d152c944db2b047cd4", "rental_uris": {"android": "https://dc.lft.to/lastmile_qr_scan", "ios": "https://dc.lft.to/lastmile_qr_scan"}, "name": "b676a9b9066c18d152c944db2b047cd4", "is_reserved": 0}, {"is_disabled": 0, "fusion_lon": 0.0, "fusion_lat": 0.0, "lat": 38.90173033333333, "type": "electric_scooter", "lon": -77.0223355, "bike_id": "ec9299adc8e3737c6e4d31ed8c00677c", "rental_uris": {"android": "https://dc.lft.to/lastmile_qr_scan", "ios": "https://dc.lft.to/lastmile_qr_scan"}, "name": "ec9299adc8e3737c6e4d31ed8c00677c", "is_reserved": 0}, {"is_disabled": 0, "fusion_lon": 0.0, "fusion_lat": 0.0, "lat": 38.917121333333334, "type": "electric_scooter", "lon": -77.028397, "bike_id": "17b757e882b77ac7aa159e299c4a06b3", "rental_uris": {"android": "https://dc.lft.to/lastmile_qr_scan", "ios": "https://dc.lft.to/lastmile_qr_scan"}, "name": "17b757e882b77ac7aa159e299c4a06b3", "is_reserved": 0}, {"is_disabled": 0, "fusion_lon": 0.0, "fusion_lat": 0.0, "lat": 38.91827966666666, "type": "electric_scooter", "lon": -77.04008483333334, "bike_id": "fde09f52695fe7afd31f0abd1cf3458c", "rental_uris": {"android": "https://dc.lft.to/lastmile_qr_scan", "ios": "https://dc.lft.to/lastmile_qr_scan"}, "name": "fde09f52695fe7afd31f0abd1cf3458c", "is_reserved": 0}, {"is_disabled": 0, "fusion_lon": 0.0, "fusion_lat": 0.0, "lat": 38.902391, "type": "electric_scooter", "lon": -77.06092083333333, "bike_id": "aadf643ca7937f804609d126b2e0ca3f", "rental_uris": {"android": "https://dc.lft.to/lastmile_qr_scan", "ios": "https://dc.lft.to/lastmile_qr_scan"}, "name": "aadf643ca7937f804609d126b2e0ca3f", "is_reserved": 0}, {"is_disabled": 0, "fusion_lon": 0.0, "fusion_lat": 0.0, "lat": 38.8974115, "type": "electric_scooter", "lon": -77.0215265, "bike_id": "46f5deb2834dabae7413a05d7fe4888f", "rental_uris": {"android": "https://dc.lft.to/lastmile_qr_scan", "ios": "https://dc.lft.to/lastmile_qr_scan"}, "name": "46f5deb2834dabae7413a05d7fe4888f", "is_reserved": 0}, {"is_disabled": 0, "fusion_lon": 0.0, "fusion_lat": 0.0, "lat": 38.91269466666667, "type": "electric_scooter", "lon": -77.02223933333333, "bike_id": "e5aac6f78e6f476b543f4e0f33bd3cb7", "rental_uris": {"android": "https://dc.lft.to/lastmile_qr_scan", "ios": "https://dc.lft.to/lastmile_qr_scan"}, "name": "e5aac6f78e6f476b543f4e0f33bd3cb7", "is_reserved": 0}, {"is_disabled": 0, "fusion_lon": 0.0, "fusion_lat": 0.0, "lat": 38.917140833333335, "type": "electric_scooter", "lon": -77.02616216666667, "bike_id": "1b01b37ed0065154b5636d1d4a78f86e", "rental_uris": {"android": "https://dc.lft.to/lastmile_qr_scan", "ios": "https://dc.lft.to/lastmile_qr_scan"}, "name": "1b01b37ed0065154b5636d1d4a78f86e", "is_reserved": 0}, {"is_disabled": 0, "fusion_lon": 0.0, "fusion_lat": 0.0, "lat": 38.91818683333333, "type": "electric_scooter", "lon": -77.03180183333333, "bike_id": "c21c1a98bc337a91239dd31ebba4d2eb", "rental_uris": {"android": "https://dc.lft.to/lastmile_qr_scan", "ios": "https://dc.lft.to/lastmile_qr_scan"}, "name": "c21c1a98bc337a91239dd31ebba4d2eb", "is_reserved": 0}, {"is_disabled": 0, "fusion_lon": 0.0, "fusion_lat": 0.0, "lat": 38.9024775, "type": "electric_scooter", "lon": -77.03101416666667, "bike_id": "645f42cc036a61ff8ae75facf746147b", "rental_uris": {"android": "https://dc.lft.to/lastmile_qr_scan", "ios": "https://dc.lft.to/lastmile_qr_scan"}, "name": "645f42cc036a61ff8ae75facf746147b", "is_reserved": 0}, {"is_disabled": 0, "fusion_lon": 0.0, "fusion_lat": 0.0, "lat": 38.905719, "type": "electric_scooter", "lon": -77.0238175, "bike_id": "ca7203ba0a1573fbd6c7d8b11c756b35", "rental_uris": {"android": "https://dc.lft.to/lastmile_qr_scan", "ios": "https://dc.lft.to/lastmile_qr_scan"}, "name": "ca7203ba0a1573fbd6c7d8b11c756b35", "is_reserved": 0}, {"is_disabled": 0, "fusion_lon": 0.0, "fusion_lat": 0.0, "lat": 38.898963, "type": "electric_scooter", "lon": -77.0416145, "bike_id": "aa38f3a80cddbd3d38189b5d8e4d19d0", "rental_uris": {"android": "https://dc.lft.to/lastmile_qr_scan", "ios": "https://dc.lft.to/lastmile_qr_scan"}, "name": "aa38f3a80cddbd3d38189b5d8e4d19d0", "is_reserved": 0}, {"is_disabled": 0, "fusion_lon": 0.0, "fusion_lat": 0.0, "lat": 38.9015735, "type": "electric_scooter", "lon": -77.01503483333333, "bike_id": "ba50b423218571b24cc87cc2d0ab7075", "rental_uris": {"android": "https://dc.lft.to/lastmile_qr_scan", "ios": "https://dc.lft.to/lastmile_qr_scan"}, "name": "ba50b423218571b24cc87cc2d0ab7075", "is_reserved": 0}, {"is_disabled": 0, "fusion_lon": 0.0, "fusion_lat": 0.0, "lat": 38.93714466666667, "type": "electric_scooter", "lon": -77.03261016666667, "bike_id": "f3021f26c9f6f53e036283523b6fb71e", "rental_uris": {"android": "https://dc.lft.to/lastmile_qr_scan", "ios": "https://dc.lft.to/lastmile_qr_scan"}, "name": "f3021f26c9f6f53e036283523b6fb71e", "is_reserved": 0}, {"is_disabled": 0, "fusion_lon": 0.0, "fusion_lat": 0.0, "lat": 38.91686216666667, "type": "electric_scooter", "lon": -77.04142566666667, "bike_id": "1fb31a7856c6ef20c5a7647ee4be1baa", "rental_uris": {"android": "https://dc.lft.to/lastmile_qr_scan", "ios": "https://dc.lft.to/lastmile_qr_scan"}, "name": "1fb31a7856c6ef20c5a7647ee4be1baa", "is_reserved": 0}, {"is_disabled": 0, "fusion_lon": 0.0, "fusion_lat": 0.0, "lat": 39.003837, "type": "electric_bike", "lon": -77.01289033333333, "bike_id": "4e824ae1b12793c3b57464332700a8ae", "rental_uris": {"android": "https://dc.lft.to/lastmile_qr_scan", "ios": "https://dc.lft.to/lastmile_qr_scan"}, "name": "4e824ae1b12793c3b57464332700a8ae", "is_reserved": 0}, {"is_disabled": 0, "fusion_lon": 0.0, "fusion_lat": 0.0, "lat": 38.93923083333333, "type": "electric_scooter", "lon": -77.02472316666666, "bike_id": "91b5eacced9f2e0a8ae8bfc837f064e0", "rental_uris": {"android": "https://dc.lft.to/lastmile_qr_scan", "ios": "https://dc.lft.to/lastmile_qr_scan"}, "name": "91b5eacced9f2e0a8ae8bfc837f064e0", "is_reserved": 0}, {"is_disabled": 0, "fusion_lon": 0.0, "fusion_lat": 0.0, "lat": 38.9655825, "type": "electric_bike", "lon": -77.02297166666666, "bike_id": "c9ed1c67650fb9cf8be375a5f9fe3be6", "rental_uris": {"android": "https://dc.lft.to/lastmile_qr_scan", "ios": "https://dc.lft.to/lastmile_qr_scan"}, "name": "c9ed1c67650fb9cf8be375a5f9fe3be6", "is_reserved": 0}, {"is_disabled": 0, "fusion_lon": 0.0, "fusion_lat": 0.0, "lat": 38.92462, "type": "electric_scooter", "lon": -76.99902966666667, "bike_id": "2af703c82cbfbd45a1bc6b8dcc065baa", "rental_uris": {"android": "https://dc.lft.to/lastmile_qr_scan", "ios": "https://dc.lft.to/lastmile_qr_scan"}, "name": "2af703c82cbfbd45a1bc6b8dcc065baa", "is_reserved": 0}, {"is_disabled": 0, "fusion_lon": 0.0, "fusion_lat": 0.0, "lat": 38.8982175, "type": "electric_scooter", "lon": -77.002087, "bike_id": "a40f443fb343a92c517c099ac4345390", "rental_uris": {"android": "https://dc.lft.to/lastmile_qr_scan", "ios": "https://dc.lft.to/lastmile_qr_scan"}, "name": "a40f443fb343a92c517c099ac4345390", "is_reserved": 0}, {"is_disabled": 0, "fusion_lon": 0.0, "fusion_lat": 0.0, "lat": 38.87895966666667, "type": "electric_scooter", "lon": -76.93523666666667, "bike_id": "9b40707d2aa776dcd569990606434b07", "rental_uris": {"android": "https://dc.lft.to/lastmile_qr_scan", "ios": "https://dc.lft.to/lastmile_qr_scan"}, "name": "9b40707d2aa776dcd569990606434b07", "is_reserved": 0}, {"is_disabled": 0, "fusion_lon": 0.0, "fusion_lat": 0.0, "lat": 38.91136633333333, "type": "electric_scooter", "lon": -77.02194766666666, "bike_id": "81af2b6807b32dba21492b15e45243bc", "rental_uris": {"android": "https://dc.lft.to/lastmile_qr_scan", "ios": "https://dc.lft.to/lastmile_qr_scan"}, "name": "81af2b6807b32dba21492b15e45243bc", "is_reserved": 0}, {"is_disabled": 0, "fusion_lon": 0.0, "fusion_lat": 0.0, "lat": 38.87713633333333, "type": "electric_scooter", "lon": -77.00502616666667, "bike_id": "a4efaa238834dda55510e567114a9907", "rental_uris": {"android": "https://dc.lft.to/lastmile_qr_scan", "ios": "https://dc.lft.to/lastmile_qr_scan"}, "name": "a4efaa238834dda55510e567114a9907", "is_reserved": 0}, {"is_disabled": 0, "fusion_lon": 0.0, "fusion_lat": 0.0, "lat": 38.973998333333334, "type": "electric_bike", "lon": -77.02493066666666, "bike_id": "567b946f080703c5d5ef4dd4ceaaa027", "rental_uris": {"android": "https://dc.lft.to/lastmile_qr_scan", "ios": "https://dc.lft.to/lastmile_qr_scan"}, "name": "567b946f080703c5d5ef4dd4ceaaa027", "is_reserved": 0}, {"is_disabled": 0, "fusion_lon": 0.0, "fusion_lat": 0.0, "lat": 38.90980183333333, "type": "electric_scooter", "lon": -77.0343855, "bike_id": "7a211593fc47cee7f0300d3aa88a2778", "rental_uris": {"android": "https://dc.lft.to/lastmile_qr_scan", "ios": "https://dc.lft.to/lastmile_qr_scan"}, "name": "7a211593fc47cee7f0300d3aa88a2778", "is_reserved": 0}, {"is_disabled": 0, "fusion_lon": 0.0, "fusion_lat": 0.0, "lat": 38.90063966666666, "type": "electric_scooter", "lon": -76.93385933333333, "bike_id": "dbdc9eb04f7d7d9dfcf46ea17a212b0c", "rental_uris": {"android": "https://dc.lft.to/lastmile_qr_scan", "ios": "https://dc.lft.to/lastmile_qr_scan"}, "name": "dbdc9eb04f7d7d9dfcf46ea17a212b0c", "is_reserved": 0}, {"is_disabled": 0, "fusion_lon": 0.0, "fusion_lat": 0.0, "lat": 38.907706166666664, "type": "electric_scooter", "lon": -77.02699316666667, "bike_id": "8459bacb33bce78e660041794fa03d5f", "rental_uris": {"android": "https://dc.lft.to/lastmile_qr_scan", "ios": "https://dc.lft.to/lastmile_qr_scan"}, "name": "8459bacb33bce78e660041794fa03d5f", "is_reserved": 0}, {"is_disabled": 0, "fusion_lon": 0.0, "fusion_lat": 0.0, "lat": 38.92744066666667, "type": "electric_scooter", "lon": -77.0347135, "bike_id": "5e0130c087ba0f1b27715d80acb81e55", "rental_uris": {"android": "https://dc.lft.to/lastmile_qr_scan", "ios": "https://dc.lft.to/lastmile_qr_scan"}, "name": "5e0130c087ba0f1b27715d80acb81e55", "is_reserved": 0},