{"data": {"bikes": [{"is_reserved": 0, "fusion_lon": 0.0, "fusion_lat": 0.0, "name": "5cdf55425bd0ec6554d2fba3ed6bf570", "type": "electric_scooter", "is_disabled": 0, "lat": 38.9214815, "rental_uris": {"android": "https://dc.lft.to/lastmile_qr_scan", "ios": "https://dc.lft.to/lastmile_qr_scan"}, "bike_id": "5cdf55425bd0ec6554d2fba3ed6bf570", "lon": -77.0210095}, {"is_reserved": 0, "fusion_lon": 0.0, "fusion_lat": 0.0, "name": "e67f79284e42580de76e552283abd020", "type": "electric_bike", "is_disabled": 0, "lat": 38.90101933333333, "rental_uris": {"android": "https://dc.lft.to/lastmile_qr_scan", "ios": "https://dc.lft.to/lastmile_qr_scan"}, "bike_id": "e67f79284e42580de76e552283abd020", "lon": -77.0175615}, {"is_reserved": 0, "fusion_lon": 0.0, "fusion_lat": 0.0, "name": "15a507ceff6ac6e79bf74b9330008d1d", "type": "electric_scooter", "is_disabled": 0, "lat": 38.85066333333333, "rental_uris": {"android": "https://dc.lft.to/lastmile_qr_scan", "ios": "https://dc.lft.to/lastmile_qr_scan"}, "bike_id": "15a507ceff6ac6e79bf74b9330008d1d", "lon": -76.97004316666667}, {"is_reserved": 0, "fusion_lon": 0.0, "fusion_lat": 0.0, "name": "081622a1f4fcdf15f30a5438f6e44b17", "type": "electric_scooter", "is_disabled": 0, "lat": 38.92202916666667, "rental_uris": {"android": "https://dc.lft.to/lastmile_qr_scan", "ios": "https://dc.lft.to/lastmile_qr_scan"}, "bike_id": "081622a1f4fcdf15f30a5438f6e44b17", "lon": -77.029603}, {"is_reserved": 0, "fusion_lon": 0.0, "fusion_lat": 0.0, "name": "488258942473cb8d0a08e0ec5a393e26", "type": "electric_scooter", "is_disabled": 0, "lat": 38.950686833333336, "rental_uris": {"android": "https://dc.lft.to/lastmile_qr_scan", "ios": "https://dc.lft.to/lastmile_qr_scan"}, "bike_id": "488258942473cb8d0a08e0ec5a393e26", "lon": -77.06538033333334}, {"is_reserved": 0, "fusion_lon": 0.0, "fusion_lat": 0.0, "name": "99035681b21f3aa31b6fb5f5317fc7da", "type": "electric_scooter", "is_disabled": 0, "lat": 38.909160666666665, "rental_uris": {"android": "https://dc.lft.to/lastmile_qr_scan", "ios": "https://dc.lft.to/lastmile_qr_scan"}, "bike_id": "99035681b21f3aa31b6fb5f5317fc7da", "lon": -77.07271283333333}, {"is_reserved": 0, "fusion_lon": 0.0, "fusion_lat": 0.0, "name": "3d9bf2b3d63a756687559b36749b40bc", "type": "electric_scooter", "is_disabled": 0, "lat": 38.89994866666667, "rental_uris": {"android": "https://dc.lft.to/lastmile_qr_scan", "ios": "https://dc.lft.to/lastmile_qr_scan"}, "bike_id": "3d9bf2b3d63a756687559b36749b40bc", "lon": -77.00920716666667}, {"is_reserved": 0, "fusion_lon": 0.0, "fusion_lat": 0.0, "name": "e5d9e38923a19074a3d28071aeba97bd", "type": "electric_scooter", "is_disabled": 0, "lat": 38.9199525, "rental_uris": {"android": "https://dc.lft.to/lastmile_qr_scan", "ios": "https://dc.lft.to/lastmile_qr_scan"}, "bike_id": "e5d9e38923a19074a3d28071aeba97bd", "lon": -77.02135883333334}, {"is_reserved": 0, "fusion_lon": 0.0, "fusion_lat": 0.0, "name": "47fbb2be31f42d7e906816e781c82743", "type": "electric_scooter", "is_disabled": 0, "lat": 38.92853933333333, "rental_uris": {"android": "https://dc.lft.to/lastmile_qr_scan", "ios": "https://dc.lft.to/lastmile_qr_scan"}, "bike_id": "47fbb2be31f42d7e906816e781c82743", "lon": -77.02738566666666}, {"is_reserved": 0, "fusion_lon": 0.0, "fusion_lat": 0.0, "name": "3b461ac7ab983f9de088056d30840fc0", "type": "electric_scooter", "is_disabled": 0, "lat": 38.893134, "rental_uris": {"android": "https://dc.lft.to/lastmile_qr_scan", "ios": "https://dc.lft.to/lastmile_qr_scan"}, "bike_id": "3b461ac7ab983f9de088056d30840fc0", "lon": -76.939742}, {"is_reserved": 0, "fusion_lon": 0.0, "fusion_lat": 0.0, "name": "42dcd5b4982f2f74a5020dd7e6a3f11d", "type": "electric_scooter", "is_disabled": 0, "lat": 38.92724666666667, "rental_uris": {"android": "https://dc.lft.to/lastmile_qr_scan", "ios": "https://dc.lft.to/lastmile_qr_scan"}, "bike_id": "42dcd5b4982f2f74a5020dd7e6a3f11d", "lon": -77.03522466666666}, {"is_reserved": 0, "fusion_lon": 0.0, "fusion_lat": 0.0, "name": "700dea2abbca0354754acf1ef99d9636", "type": "electric_scooter", "is_disabled": 0, "lat": 38.904443, "rental_uris": {"android": "https://dc.lft.to/lastmile_qr_scan", "ios": "https://dc.lft.to/lastmile_qr_scan"}, "bike_id": "700dea2abbca0354754acf1ef99d9636", "lon": -77.0514355}, {"is_reserved": 0, "fusion_lon": 0.0, "fusion_lat": 0.0, "name": "401790927f090dbe5ae302424459623c", "type": "electric_scooter", "is_disabled": 0, "lat": 38.901359, "rental_uris": {"android": "https://dc.lft.to/lastmile_qr_scan", "ios": "https://dc.lft.to/lastmile_qr_scan"}, "bike_id": "401790927f090dbe5ae302424459623c", "lon": -77.01304716666667}, {"is_reserved": 0, "fusion_lon": 0.0, "fusion_lat": 0.0, "name": "f0edb8e1c80e7cdb8dbc8b7ed1c196aa", "type": "electric_scooter", "is_disabled": 0, "lat": 38.926560333333335, "rental_uris": {"android": "https://dc.lft.to/lastmile_qr_scan", "ios": "https://dc.lft.to/lastmile_qr_scan"}, "bike_id": "f0edb8e1c80e7cdb8dbc8b7ed1c196aa", "lon": -77.03729733333333}, {"is_reserved": 0, "fusion_lon": 0.0, "fusion_lat": 0.0, "name": "0b458780bdebc091cd9ff966e352f5a7", "type": "electric_scooter", "is_disabled": 0, "lat": 38.902151833333335, "rental_uris": {"android": "https://dc.lft.to/lastmile_qr_scan", "ios": "https://dc.lft.to/lastmile_qr_scan"}, "bike_id": "0b458780bdebc091cd9ff966e352f5a7", "lon": -77.04513266666666}, {"is_reserved": 0, "fusion_lon": 0.0, "fusion_lat": 0.0, "name": "bc94816321e2ee73b263591affb1dbc6", "type": "electric_scooter", "is_disabled": 0, "lat": 38.90739766666667, "rental_uris": {"android": "https://dc.lft.to/lastmile_qr_scan", "ios": "https://dc.lft.to/lastmile_qr_scan"}, "bike_id": "bc94816321e2ee73b263591affb1dbc6", "lon": -77.02693516666666}, {"is_reserved": 0, "fusion_lon": 0.0, "fusion_lat": 0.0, "name": "5fabb63e0c417f3e7d68760735e79dfe", "type": "electric_scooter", "is_disabled": 0, "lat": 38.9103355, "rental_uris": {"android": "https://dc.lft.to/lastmile_qr_scan", "ios": "https://dc.lft.to/lastmile_qr_scan"}, "bike_id": "5fabb63e0c417f3e7d68760735e79dfe", "lon": -76.99338516666667}, {"is_reserved": 0, "fusion_lon": 0.0, "fusion_lat": 0.0, "name": "676f067d77089529e0611e68cc6be8f9", "type": "electric_scooter", "is_disabled": 0, "lat": 38.935343, "rental_uris": {"android": "https://dc.lft.to/lastmile_qr_scan", "ios": "https://dc.lft.to/lastmile_qr_scan"}, "bike_id": "676f067d77089529e0611e68cc6be8f9", "lon": -77.05745883333333}, {"is_reserved": 0, "fusion_lon": 0.0, "fusion_lat": 0.0, "name": "bab5ef9517a8a3433dddb1ab6b166928", "type": "electric_scooter", "is_disabled": 0, "lat": 38.91488366666667, "rental_uris": {"android": "https://dc.lft.to/lastmile_qr_scan", "ios": "https://dc.lft.to/lastmile_qr_scan"}, "bike_id": "bab5ef9517a8a3433dddb1ab6b166928", "lon": -77.01861483333333}, {"is_reserved": 0, "fusion_lon": 0.0, "fusion_lat": 0.0, "name": "e80a8d737f067e8d16e4e8c4753ee843", "type": "electric_scooter", "is_disabled": 0, "lat": 38.92333166666667, "rental_uris": {"android": "https://dc.lft.to/lastmile_qr_scan", "ios": "https://dc.lft.to/lastmile_qr_scan"}, "bike_id": "e80a8d737f067e8d16e4e8c4753ee843", "lon": -77.04788683333334}, {"is_reserved": 0, "fusion_lon": 0.0, "fusion_lat": 0.0, "name": "ffbc9b0501e0c216f2399e3c2a728764", "type": "electric_scooter", "is_disabled": 0, "lat": 38.89531133333333, "rental_uris": {"android": "https://dc.lft.to/lastmile_qr_scan", "ios": "https://dc.lft.to/lastmile_qr_scan"}, "bike_id": "ffbc9b0501e0c216f2399e3c2a728764", "lon": -77.003444}, {"is_reserved": 0, "fusion_lon": 0.0, "fusion_lat": 0.0, "name": "8ad18c3118fc0f5ead6fb37062f28520", "type": "electric_scooter", "is_disabled": 0, "lat": 38.92253733333333, "rental_uris": {"android": "https://dc.lft.to/lastmile_qr_scan", "ios": "https://dc.lft.to/lastmile_qr_scan"}, "bike_id": "8ad18c3118fc0f5ead6fb37062f28520", "lon": -77.01950966666666}, {"is_reserved": 0, "fusion_lon": 0.0, "fusion_lat": 0.0, "name": "9d5698d6aa64fdfb27dba033d8b3c6ec", "type": "electric_scooter", "is_disabled": 0, "lat": 38.90967116666667, "rental_uris": {"android": "https://dc.lft.to/lastmile_qr_scan", "ios": "https://dc.lft.to/lastmile_qr_scan"}, "bike_id": "9d5698d6aa64fdfb27dba033d8b3c6ec", "lon": -77.032175}, {"is_reserved": 0, "fusion_lon": 0.0, "fusion_lat": 0.0, "name": "34de32c319f21896da79e76a09dc7fb4", "type": "electric_scooter", "is_disabled": 0, "lat": 38.9140895, "rental_uris": {"android": "https://dc.lft.to/lastmile_qr_scan", "ios": "https://dc.lft.to/lastmile_qr_scan"}, "bike_id": "34de32c319f21896da79e76a09dc7fb4", "lon": -77.041899}, {"is_reserved": 0, "fusion_lon": 0.0, "fusion_lat": 0.0, "name": "81ac6e79130854194ca47a5fe97053aa", "type": "electric_scooter", "is_disabled": 0, "lat": 38.892192, "rental_uris": {"android": "https://dc.lft.to/lastmile_qr_scan", "ios": "https://dc.lft.to/lastmile_qr_scan"}, "bike_id": "81ac6e79130854194ca47a5fe97053aa", "lon": -77.04260966666666}, {"is_reserved": 0, "fusion_lon": 0.0, "fusion_lat": 0.0, "name": "4846b1340965998f9d503304ccc6d7dc", "type": "electric_scooter", "is_disabled": 0, "lat": 38.877917, "rental_uris": {"android": "https://dc.lft.to/lastmile_qr_scan", "ios": "https://dc.lft.to/lastmile_qr_scan"}, "bike_id": "4846b1340965998f9d503304ccc6d7dc", "lon": -76.93089633333334}, {"is_reserved": 0, "fusion_lon": 0.0, "fusion_lat": 0.0, "name": "88a3627621d588ede9a7bdcd1be4484c", "type": "electric_scooter", "is_disabled": 0, "lat": 38.8858975, "rental_uris": {"android": "https://dc.lft.to/lastmile_qr_scan", "ios": "https://dc.lft.to/lastmile_qr_scan"}, "bike_id": "88a3627621d588ede9a7bdcd1be4484c", "lon": -76.99624483333334}, {"is_reserved": 0, "fusion_lon": 0.0, "fusion_lat": 0.0, "name": "1f5b9bca1b9b17a6b018112220d646c7", "type": "electric_scooter", "is_disabled": 0, "lat": 38.91720333333333, "rental_uris": {"android": "https://dc.lft.to/lastmile_qr_scan", "ios": "https://dc.lft.to/lastmile_qr_scan"}, "bike_id": "1f5b9bca1b9b17a6b018112220d646c7", "lon": -77.02975166666667}, {"is_reserved": 0, "fusion_lon": 0.0, "fusion_lat": 0.0, "name": "164a3a7a0ff8371c14d6e506e818180c", "type": "electric_scooter", "is_disabled": 0, "lat": 38.923267, "rental_uris": {"android": "https://dc.lft.to/lastmile_qr_scan", "ios": "https://dc.lft.to/lastmile_qr_scan"}, "bike_id": "164a3a7a0ff8371c14d6e506e818180c", "lon": -77.0430915}, {"is_reserved": 0, "fusion_lon": 0.0, "fusion_lat": 0.0, "name": "ab04889fe0d8af6876abbd3a0986c0dd", "type": "electric_scooter", "is_disabled": 0, "lat": 38.865051, "rental_uris": {"android": "https://dc.lft.to/lastmile_qr_scan", "ios": "https://dc.lft.to/lastmile_qr_scan"}, "bike_id": "ab04889fe0d8af6876abbd3a0986c0dd", "lon": -76.99000833333334}, {"is_reserved": 0, "fusion_lon": 0.0, "fusion_lat": 0.0, "name": "acc9a9afcb26d3d278915585cd20fa96", "type": "electric_scooter", "is_disabled": 0, "lat": 38.9396005, "rental_uris": {"android": "https://dc.lft.to/lastmile_qr_scan", "ios": "https://dc.lft.to/lastmile_qr_scan"}, "bike_id": "acc9a9afcb26d3d278915585cd20fa96", "lon": -77.02755416666666}, {"is_reserved": 0, "fusion_lon": 0.0, "fusion_lat": 0.0, "name": "7a0b802fd2a21175256ffce6d7218379", "type": "electric_scooter", "is_disabled": 0, "lat": 38.90537833333333, "rental_uris": {"android": "https://dc.lft.to/lastmile_qr_scan", "ios": "https://dc.lft.to/lastmile_qr_scan"}, "bike_id": "7a0b802fd2a21175256ffce6d7218379", "lon": -77.04089616666667}, {"is_reserved": 0, "fusion_lon": 0.0, "fusion_lat": 0.0, "name": "7fdc7a0b71f695cc79bd4a8d95bdb2a5", "type": "electric_scooter", "is_disabled": 0, "lat": 38.905102666666664, "rental_uris": {"android": "https://dc.lft.to/lastmile_qr_scan", "ios": "https://dc.lft.to/lastmile_qr_scan"}, "bike_id": "7fdc7a0b71f695cc79bd4a8d95bdb2a5", "lon": -77.00133016666666}, {"is_reserved": 0, "fusion_lon": 0.0, "fusion_lat": 0.0, "name": "a7dea146a03634846b466ea2fb706467", "type": "electric_bike", "is_disabled": 0, "lat": 39.042334833333335, "rental_uris": {"android": "https://dc.lft.to/lastmile_qr_scan", "ios": "https://dc.lft.to/lastmile_qr_scan"}, "bike_id": "a7dea146a03634846b466ea2fb706467", "lon": -76.99734783333334}, {"is_reserved": 0, "fusion_lon": 0.0, "fusion_lat": 0.0, "name": "5e96ad66904581477a8f8f4cd993ef70", "type": "electric_scooter", "is_disabled": 0, "lat": 38.9073795, "rental_uris": {"android": "https://dc.lft.to/lastmile_qr_scan", "ios": "https://dc.lft.to/lastmile_qr_scan"}, "bike_id": "5e96ad66904581477a8f8f4cd993ef70", "lon": -77.02690833333334}, {"is_reserved": 0, "fusion_lon": 0.0, "fusion_lat": 0.0, "name": "67c9c3fabb82170a02fb1a9b3e908fee", "type": "electric_scooter", "is_disabled": 0, "lat": 38.91098866666667, "rental_uris": {"android": "https://dc.lft.to/lastmile_qr_scan", "ios": "https://dc.lft.to/lastmile_qr_scan"}, "bike_id": "67c9c3fabb82170a02fb1a9b3e908fee", "lon": -77.02973733333333}, {"is_reserved": 0, "fusion_lon": 0.0, "fusion_lat": 0.0, "name": "143b5ba2c40d465b9d677ba60eb2f3e3", "type": "electric_scooter", "is_disabled": 0, "lat": 38.896, "rental_uris": {"android": "https://dc.lft.to/lastmile_qr_scan", "ios": "https://dc.lft.to/lastmile_qr_scan"}, "bike_id": "143b5ba2c40d465b9d677ba60eb2f3e3", "lon": -77.007642}, {"is_reserved": 0, "fusion_lon": 0.0, "fusion_lat": 0.0, "name": "f8431ecf5b0e075a027613bd6c635aad", "type": "electric_scooter", "is_disabled": 0, "lat": 38.951805666666665, "rental_uris": {"android": "https://dc.lft.to/lastmile_qr_scan", "ios": "https://dc.lft.to/lastmile_qr_scan"}, "bike_id": "f8431ecf5b0e075a027613bd6c635aad", "lon": -77.027298}, {"is_reserved": 0, "fusion_lon": 0.0, "fusion_lat": 0.0, "name": "8d2d4d9b579edd090585995e5a879d8d", "type": "electric_scooter", "is_disabled": 0, "lat": 38.90770283333333, "rental_uris": {"android": "https://dc.lft.to/lastmile_qr_scan", "ios": "https://dc.lft.to/lastmile_qr_scan"}, "bike_id": "8d2d4d9b579edd090585995e5a879d8d", "lon": -77.00261383333333}, {"is_reserved": 0, "fusion_lon": 0.0, "fusion_lat": 0.0, "name": "2b09715c8c9e848cd303613b4b638c9b", "type": "electric_scooter", "is_disabled": 0, "lat": 38.894277, "rental_uris": {"android": "https://dc.lft.to/lastmile_qr_scan", "ios": "https://dc.lft.to/lastmile_qr_scan"}, "bike_id": "2b09715c8c9e848cd303613b4b638c9b", "lon": -76.91118066666667}, {"is_reserved": 0, "fusion_lon": 0.0, "fusion_lat": 0.0, "name": "eb6dbd57850428d15215a67e705c9072", "type": "electric_bike", "is_disabled": 0, "lat": 38.902697833333335, "rental_uris": {"android": "https://dc.lft.to/lastmile_qr_scan", "ios": "https://dc.lft.to/lastmile_qr_scan"}, "bike_id": "eb6dbd57850428d15215a67e705c9072", "lon": -76.92927166666666}, {"is_reserved": 0, "fusion_lon": 0.0, "fusion_lat": 0.0, "name": "d92b0c3abe37cfb4c44712bbceffc121", "type": "electric_scooter", "is_disabled": 0, "lat": 38.922448833333334, "rental_uris": {"android": "https://dc.lft.to/lastmile_qr_scan", "ios": "https://dc.lft.to/lastmile_qr_scan"}, "bike_id": "d92b0c3abe37cfb4c44712bbceffc121", "lon": -77.030841}, {"is_reserved": 0, "fusion_lon": 0.0, "fusion_lat": 0.0, "name": "b20b02db7d55e303b7ada23de9d77736", "type": "electric_scooter", "is_disabled": 0, "lat": 38.876825, "rental_uris": {"android": "https://dc.lft.to/lastmile_qr_scan", "ios": "https://dc.lft.to/lastmile_qr_scan"}, "bike_id": "b20b02db7d55e303b7ada23de9d77736", "lon": -76.99824733333334}, {"is_reserved": 0, "fusion_lon": 0.0, "fusion_lat": 0.0, "name": "58debbbeed492de31591303fe1188e22", "type": "electric_scooter", "is_disabled": 0, "lat": 38.97220633333333, "rental_uris": {"android": "https://dc.lft.to/lastmile_qr_scan", "ios": "https://dc.lft.to/lastmile_qr_scan"}, "bike_id": "58debbbeed492de31591303fe1188e22", "lon": -77.02645266666667}, {"is_reserved": 0, "fusion_lon": 0.0, "fusion_lat": 0.0, "name": "fe57204a7db2b5a3e0e7e9cb56e52784", "type": "electric_scooter", "is_disabled": 0, "lat": 38.892224166666665, "rental_uris": {"android": "https://dc.lft.to/lastmile_qr_scan", "ios": "https://dc.lft.to/lastmile_qr_scan"}, "bike_id": "fe57204a7db2b5a3e0e7e9cb56e52784", "lon": -77.04372266666667}, {"is_reserved": 0, "fusion_lon": 0.0, "fusion_lat": 0.0, "name": "92a51478f3407908285f214d47c554d4", "type": "electric_scooter", "is_disabled": 0, "lat": 38.9064435, "rental_uris": {"android": "https://dc.lft.to/lastmile_qr_scan", "ios": "https://dc.lft.to/lastmile_qr_scan"}, "bike_id": "92a51478f3407908285f214d47c554d4", "lon": -77.05021483333333}, {"is_reserved": 0, "fusion_lon": 0.0, "fusion_lat": 0.0, "name": "688255333a225428c48557a288fa55b2", "type": "electric_scooter", "is_disabled": 0, "lat": 38.92067433333333, "rental_uris": {"android": "https://dc.lft.to/lastmile_qr_scan", "ios": "https://dc.lft.to/lastmile_qr_scan"}, "bike_id": "688255333a225428c48557a288fa55b2", "lon": -77.02248516666667}, {"is_reserved": 0, "fusion_lon": 0.0, "fusion_lat": 0.0, "name": "e8349c19ec87d728dff456551de12bcd", "type": "electric_scooter", "is_disabled": 0, "lat": 38.88923483333333, "rental_uris": {"android": "https://dc.lft.to/lastmile_qr_scan", "ios": "https://dc.lft.to/lastmile_qr_scan"}, "bike_id": "e8349c19ec87d728dff456551de12bcd", "lon": -76.99187216666667}, {"is_reserved": 0, "fusion_lon": 0.0, "fusion_lat": 0.0, "name": "d908c33bf8c70ebc5db947746b76b2c8", "type": "electric_scooter", "is_disabled": 0, "lat": 38.92150266666667, "rental_uris": {"android": "https://dc.lft.to/lastmile_qr_scan", "ios": "https://dc.lft.to/lastmile_qr_scan"}, "bike_id": "d908c33bf8c70ebc5db947746b76b2c8", "lon": -77.03374283333333}, {"is_reserved": 0, "fusion_lon": 0.0, "fusion_lat": 0.0, "name": "49ec10b3becb1078a3d6b5bc5d776b5f", "type": "electric_scooter", "is_disabled": 0, "lat": 38.885703166666666, "rental_uris": {"android": "https://dc.lft.to/lastmile_qr_scan", "ios": "https://dc.lft.to/lastmile_qr_scan"}, "bike_id": "49ec10b3becb1078a3d6b5bc5d776b5f", "lon": -77.02001116666666}, {"is_reserved": 0, "fusion_lon": 0.0, "fusion_lat": 0.0, "name": "dde8c58f42b56edab7f71785bba54986", "type": "electric_scooter", "is_disabled": 0, "lat": 38.900315, "rental_uris": {"android": "https://dc.lft.to/lastmile_qr_scan", "ios": "https://dc.lft.to/lastmile_qr_scan"}, "bike_id": "dde8c58f42b56edab7f71785bba54986", "lon": -77.04363833333333}, {"is_reserved": 0, "fusion_lon": 0.0, "fusion_lat": 0.0, "name": "349745d051331391a8c3a7a8cba27fda", "type": "electric_scooter", "is_disabled": 0, "lat": 38.91695766666667, "rental_uris": {"android": "https://dc.lft.to/lastmile_qr_scan", "ios": "https://dc.lft.to/lastmile_qr_scan"}, "bike_id": "349745d051331391a8c3a7a8cba27fda", "lon": -77.011715}, {"is_reserved": 0, "fusion_lon": 0.0, "fusion_lat": 0.0, "name": "3a0612d79dd7b9f45759b6e0e81e1e0d", "type": "electric_scooter", "is_disabled": 0, "lat": 38.92856366666667, "rental_uris": {"android": "https://dc.lft.to/lastmile_qr_scan", "ios": "https://dc.lft.to/lastmile_qr_scan"}, "bike_id": "3a0612d79dd7b9f45759b6e0e81e1e0d", "lon": -77.033459}, {"is_reserved": 0, "fusion_lon": 0.0, "fusion_lat": 0.0, "name": "a8cb5669e2c2de2ad5f3785281612fd4", "type": "electric_scooter", "is_disabled": 0, "lat": 38.90305516666667, "rental_uris": {"android": "https://dc.lft.to/lastmile_qr_scan", "ios": "https://dc.lft.to/lastmile_qr_scan"}, "bike_id": "a8cb5669e2c2de2ad5f3785281612fd4", "lon": -77.03471916666666}, {"is_reserved": 0, "fusion_lon": 0.0, "fusion_lat": 0.0, "name": "5f4d99685ac831005b78b8401505048c", "type": "electric_scooter", "is_disabled": 0, "lat": 38.89866966666666, "rental_uris": {"android": "https://dc.lft.to/lastmile_qr_scan", "ios": "https://dc.lft.to/lastmile_qr_scan"}, "bike_id": "5f4d99685ac831005b78b8401505048c", "lon": -76.946612}, {"is_reserved": 0, "fusion_lon": 0.0, "fusion_lat": 0.0, "name": "5a99ed4bea238b4edb3422efa9ee0fee", "type": "electric_scooter", "is_disabled": 0, "lat": 38.93698833333333, "rental_uris": {"android": "https://dc.lft.to/lastmile_qr_scan", "ios": "https://dc.lft.to/lastmile_qr_scan"}, "bike_id": "5a99ed4bea238b4edb3422efa9ee0fee", "lon": -77.024062}, {"is_reserved": 0, "fusion_lon": 0.0, "fusion_lat": 0.0, "name": "42ec85ff67feab6b340ca1eea710eb6b", "type": "electric_scooter", "is_disabled": 0, "lat": 38.9007885, "rental_uris": {"android": "https://dc.lft.to/lastmile_qr_scan", "ios": "https://dc.lft.to/lastmile_qr_scan"}, "bike_id": "42ec85ff67feab6b340ca1eea710eb6b", "lon": -76.99361816666666}, {"is_reserved": 0, "fusion_lon": 0.0, "fusion_lat": 0.0, "name": "f86072dab2f7524bc41eda1c8c8450c1", "type": "electric_bike", "is_disabled": 0, "lat": 38.876797, "rental_uris": {"android": "https://dc.lft.to/lastmile_qr_scan", "ios": "https://dc.lft.to/lastmile_qr_scan"}, "bike_id": "f86072dab2f7524bc41eda1c8c8450c1", "lon": -77.01460033333333}, {"is_reserved": 0, "fusion_lon": 0.0, "fusion_lat": 0.0, "name": "3b844df0f29c3241e325735a99f3caa5", "type": "electric_scooter", "is_disabled": 0, "lat": 38.97112116666667, "rental_uris": {"android": "https://dc.lft.to/lastmile_qr_scan", "ios": "https://dc.lft.to/lastmile_qr_scan"}, "bike_id": "3b844df0f29c3241e325735a99f3caa5", "lon": -77.01686433333333}, {"is_reserved": 0, "fusion_lon": 0.0, "fusion_lat": 0.0, "name": "2e7d930e8ead683e8621fc334917a656", "type": "electric_scooter", "is_disabled": 0, "lat": 38.898967666666664, "rental_uris": {"android": "https://dc.lft.to/lastmile_qr_scan", "ios": "https://dc.lft.to/lastmile_qr_scan"}, "bike_id": "2e7d930e8ead683e8621fc334917a656", "lon": -76.97717016666667}, {"is_reserved": 0, "fusion_lon": 0.0, "fusion_lat": 0.0, "name": "52795542a5287193653e21114c7772f2", "type": "electric_bike", "is_disabled": 0, "lat": 38.857676833333336, "rental_uris": {"android": "https://dc.lft.to/lastmile_qr_scan", "ios": "https://dc.lft.to/lastmile_qr_scan"}, "bike_id": "52795542a5287193653e21114c7772f2", "lon": -76.98767716666667}, {"is_reserved": 0, "fusion_lon": 0.0, "fusion_lat": 0.0, "name": "896e8220b0bf213291b72c261fe134b3", "type": "electric_bike", "is_disabled": 0, "lat": 38.8380765, "rental_uris": {"android": "https://dc.lft.to/lastmile_qr_scan", "ios": "https://dc.lft.to/lastmile_qr_scan"}, "bike_id": "896e8220b0bf213291b72c261fe134b3", "lon": -77.095237}, {"is_reserved": 0, "fusion_lon": 0.0, "fusion_lat": 0.0, "name": "58663f8ef89597ff9b83af925bf56c7e", "type": "electric_scooter", "is_disabled": 0, "lat": 38.866583166666665, "rental_uris": {"android": "https://dc.lft.to/lastmile_qr_scan", "ios": "https://dc.lft.to/lastmile_qr_scan"}, "bike_id": "58663f8ef89597ff9b83af925bf56c7e", "lon": -76.9850235}, {"is_reserved": 0, "fusion_lon": 0.0, "fusion_lat": 0.0, "name": "e18035823dd5f7aba9bf144bf1970e6c", "type": "electric_scooter", "is_disabled": 0, "lat": 38.9552995, "rental_uris": {"android": "https://dc.lft.to/lastmile_qr_scan", "ios": "https://dc.lft.to/lastmile_qr_scan"}, "bike_id": "e18035823dd5f7aba9bf144bf1970e6c", "lon": -77.02779983333333}, {"is_reserved": 0, "fusion_lon": 0.0, "fusion_lat": 0.0, "name": "4e1f3e07307ae5bdce51616ee532b436", "type": "electric_scooter", "is_disabled": 0, "lat": 38.9498555, "rental_uris": {"android": "https://dc.lft.to/lastmile_qr_scan", "ios": "https://dc.lft.to/lastmile_qr_scan"}, "bike_id": "4e1f3e07307ae5bdce51616ee532b436", "lon": -77.02703066666666}, {"is_reserved": 0, "fusion_lon": 0.0, "fusion_lat": 0.0, "name": "b691bc2faf09c175ac14916749f6ee76", "type": "electric_scooter", "is_disabled": 0, "lat": 38.930166166666666, "rental_uris": {"android": "https://dc.lft.to/lastmile_qr_scan", "ios": "https://dc.lft.to/lastmile_qr_scan"}, "bike_id": "b691bc2faf09c175ac14916749f6ee76", "lon": -77.06088733333333}, {"is_reserved": 0, "fusion_lon": 0.0, "fusion_lat": 0.0, "name": "40502aa848927d567dec729d6e3f126b", "type": "electric_scooter", "is_disabled": 0, "lat": 38.918201, "rental_uris": {"android": "https://dc.lft.to/lastmile_qr_scan", "ios": "https://dc.lft.to/lastmile_qr_scan"}, "bike_id": "40502aa848927d567dec729d6e3f126b", "lon": -77.03454316666667}, {"is_reserved": 0, "fusion_lon": 0.0, "fusion_lat": 0.0, "name": "a9733c4fe2e03890fe6e05f70fea92f6", "type": "electric_scooter", "is_disabled": 0, "lat": 38.897474333333335, "rental_uris": {"android": "https://dc.lft.to/lastmile_qr_scan", "ios": "https://dc.lft.to/lastmile_qr_scan"}, "bike_id": "a9733c4fe2e03890fe6e05f70fea92f6", "lon": -77.03338233333334}, {"is_reserved": 0, "fusion_lon": 0.0, "fusion_lat": 0.0, "name": "ce899eeaf2bf8f62cb93cb4d6dd17567", "type": "electric_scooter", "is_disabled": 0, "lat": 38.90387616666667, "rental_uris": {"android": "https://dc.lft.to/lastmile_qr_scan", "ios": "https://dc.lft.to/lastmile_qr_scan"}, "bike_id": "ce899eeaf2bf8f62cb93cb4d6dd17567", "lon": -77.03019066666667}, {"is_reserved": 0, "fusion_lon": 0.0, "fusion_lat": 0.0, "name": "7686c6509f8a66acff141e99f44d4541", "type": "electric_scooter", "is_disabled": 0, "lat": 38.8974055, "rental_uris": {"android": "https://dc.lft.to/lastmile_qr_scan", "ios": "https://dc.lft.to/lastmile_qr_scan"}, "bike_id": "7686c6509f8a66acff141e99f44d4541", "lon": -77.05575983333334}, {"is_reserved": 0, "fusion_lon": 0.0, "fusion_lat": 0.0, "name": "214135970cdaa1b0c2bbdbcd3bbef0e0", "type": "electric_scooter", "is_disabled": 0, "lat": 38.88484283333333, "rental_uris": {"android": "https://dc.lft.to/lastmile_qr_scan", "ios": "https://dc.lft.to/lastmile_qr_scan"}, "bike_id": "214135970cdaa1b0c2bbdbcd3bbef0e0", "lon": -77.007124}, {"is_reserved": 0, "fusion_lon": 0.0, "fusion_lat": 0.0, "name": "f15280181f23aa0d270b683e5e2aec1f", "type": "electric_bike", "is_disabled": 0, "lat": 38.89611416666666, "rental_uris": {"android": "https://dc.lft.to/lastmile_qr_scan", "ios": "https://dc.lft.to/lastmile_qr_scan"}, "bike_id": "f15280181f23aa0d270b683e5e2aec1f", "lon": -76.90742316666666}, {"is_reserved": 0, "fusion_lon": 0.0, "fusion_lat": 0.0, "name": "19f26365b19a611f99b0b2f23e065b6f", "type": "electric_scooter", "is_disabled": 0, "lat": 38.93316816666667, "rental_uris": {"android": "https://dc.lft.to/lastmile_qr_scan", "ios": "https://dc.lft.to/lastmile_qr_scan"}, "bike_id": "19f26365b19a611f99b0b2f23e065b6f", "lon": -77.034412}, {"is_reserved": 0, "fusion_lon": 0.0, "fusion_lat": 0.0, "name": "67f919ff64f7e3d4bd5bef88243aa467", "type": "electric_scooter", "is_disabled": 0, "lat": 38.88529716666667, "rental_uris": {"android": "https://dc.lft.to/lastmile_qr_scan", "ios": "https://dc.lft.to/lastmile_qr_scan"}, "bike_id": "67f919ff64f7e3d4bd5bef88243aa467", "lon": -76.98273666666667}, {"is_reserved": 0, "fusion_lon": 0.0, "fusion_lat": 0.0, "name": "e46d94e3bbb4b97987f1961b5769941a", "type": "electric_scooter", "is_disabled": 0, "lat": 38.90497833333333, "rental_uris": {"android": "https://dc.lft.to/lastmile_qr_scan", "ios": "https://dc.lft.to/lastmile_qr_scan"}, "bike_id": "e46d94e3bbb4b97987f1961b5769941a", "lon": -76.97431833333333}, {"is_reserved": 0, "fusion_lon": 0.0, "fusion_lat": 0.0, "name": "50b36a3342ee79484d1d7b2afe0c7cfd", "type": "electric_scooter", "is_disabled": 0, "lat": 38.90444816666667, "rental_uris": {"android": "https://dc.lft.to/lastmile_qr_scan", "ios": "https://dc.lft.to/lastmile_qr_scan"}, "bike_id": "50b36a3342ee79484d1d7b2afe0c7cfd", "lon": -77.01706716666666}, {"is_reserved": 0, "fusion_lon": 0.0, "fusion_lat": 0.0, "name": "aaec98615eaee2a05888dd612c17b074", "type": "electric_scooter", "is_disabled": 0, "lat": 38.89511366666667, "rental_uris": {"android": "https://dc.lft.to/lastmile_qr_scan", "ios": "https://dc.lft.to/lastmile_qr_scan"}, "bike_id": "aaec98615eaee2a05888dd612c17b074", "lon": -77.0467905}, {"is_reserved": 0, "fusion_lon": 0.0, "fusion_lat": 0.0, "name": "a3e09c92ef969a8043db15c624b98165", "type": "electric_scooter", "is_disabled": 0, "lat": 38.9111235, "rental_uris": {"android": "https://dc.lft.to/lastmile_qr_scan", "ios": "https://dc.lft.to/lastmile_qr_scan"}, "bike_id": "a3e09c92ef969a8043db15c624b98165", "lon": -77.0315345}, {"is_reserved": 0, "fusion_lon": 0.0, "fusion_lat": 0.0, "name": "2fcae84e64fbf5782bcf18ae8c705cde", "type": "electric_bike", "is_disabled": 0, "lat": 38.8589355, "rental_uris": {"android": "https://dc.lft.to/lastmile_qr_scan", "ios": "https://dc.lft.to/lastmile_qr_scan"}, "bike_id": "2fcae84e64fbf5782bcf18ae8c705cde", "lon": -77.118626}, {"is_reserved": 0, "fusion_lon": 0.0, "fusion_lat": 0.0, "name": "d58dc64f3887e54ecd010e4520046fa7", "type": "electric_scooter", "is_disabled": 0, "lat": 38.92151033333333, "rental_uris": {"android": "https://dc.lft.to/lastmile_qr_scan", "ios": "https://dc.lft.to/lastmile_qr_scan"}, "bike_id": "d58dc64f3887e54ecd010e4520046fa7", "lon": -77.0333425}, {"is_reserved": 0, "fusion_lon": 0.0, "fusion_lat": 0.0, "name": "4dd85d11411ec06c06f838aa6eae33db", "type": "electric_scooter", "is_disabled": 0, "lat": 38.908218166666664, "rental_uris": {"android": "https://dc.lft.to/lastmile_qr_scan", "ios": "https://dc.lft.to/lastmile_qr_scan"}, "bike_id": "4dd85d11411ec06c06f838aa6eae33db", "lon": -76.99213816666666}, {"is_reserved": 0, "fusion_lon": 0.0, "fusion_lat": 0.0, "name": "ba559ed2e5770a3b3e6408ade58a9503", "type": "electric_scooter", "is_disabled": 0, "lat": 38.89229, "rental_uris": {"android": "https://dc.lft.to/lastmile_qr_scan", "ios": "https://dc.lft.to/lastmile_qr_scan"}, "bike_id": "ba559ed2e5770a3b3e6408ade58a9503", "lon": -77.031829}, {"is_reserved": 0, "fusion_lon": 0.0, "fusion_lat": 0.0, "name": "2be05395d41434d7bdf60fb280645b3e", "type": "electric_scooter", "is_disabled": 0, "lat": 38.90707233333333, "rental_uris": {"android": "https://dc.lft.to/lastmile_qr_scan", "ios": "https://dc.lft.to/lastmile_qr_scan"}, "bike_id": "2be05395d41434d7bdf60fb280645b3e", "lon": -77.03816233333333}, {"is_reserved": 0, "fusion_lon": 0.0, "fusion_lat": 0.0, "name": "ec9529c6aff2b696fcaceda33e639150", "type": "electric_scooter", "is_disabled": 0, "lat": 38.94510983333333, "rental_uris": {"android": "https://dc.lft.to/lastmile_qr_scan", "ios": "https://dc.lft.to/lastmile_qr_scan"}, "bike_id": "ec9529c6aff2b696fcaceda33e639150", "lon": -77.03323116666667}, {"is_reserved": 0, "fusion_lon": 0.0, "fusion_lat": 0.0, "name": "0d570c2e092fd6530d9b58040390a4f6", "type": "electric_scooter", "is_disabled": 0, "lat": 38.922459833333335, "rental_uris": {"android": "https://dc.lft.to/lastmile_qr_scan", "ios": "https://dc.lft.to/lastmile_qr_scan"}, "bike_id": "0d570c2e092fd6530d9b58040390a4f6", "lon": -77.0306385}, {"is_reserved": 0, "fusion_lon": 0.0, "fusion_lat": 0.0, "name": "a1f7550427ac1bac4264e801875fefda", "type": "electric_scooter", "is_disabled": 0, "lat": 38.908024833333336, "rental_uris": {"android": "https://dc.lft.to/lastmile_qr_scan", "ios": "https://dc.lft.to/lastmile_qr_scan"}, "bike_id": "a1f7550427ac1bac4264e801875fefda", "lon": -77.04340383333333}, {"is_reserved": 0, "fusion_lon": 0.0, "fusion_lat": 0.0, "name": "72dfe009f965f27bd8ed739289203048", "type": "electric_scooter", "is_disabled": 0, "lat": 38.928624666666664, "rental_uris": {"android": "https://dc.lft.to/lastmile_qr_scan", "ios": "https://dc.lft.to/lastmile_qr_scan"}, "bike_id": "72dfe009f965f27bd8ed739289203048", "lon": -77.03325283333334}, {"is_reserved": 0, "fusion_lon": 0.0, "fusion_lat": 0.0, "name": "d73d8e2ab63ae21e5f6e286887f12177", "type": "electric_scooter", "is_disabled": 0, "lat": 38.916735, "rental_uris": {"android": "https://dc.lft.to/lastmile_qr_scan", "ios": "https://dc.lft.to/lastmile_qr_scan"}, "bike_id": "d73d8e2ab63ae21e5f6e286887f12177", "lon": -77.03439733333333}, {"is_reserved": 0, "fusion_lon": 0.0, "fusion_lat": 0.0, "name": "b672ed66331ae5b0a97f74e54b279e86", "type": "electric_scooter", "is_disabled": 0, "lat": 38.90793983333333, "rental_uris": {"android": "https://dc.lft.to/lastmile_qr_scan", "ios": "https://dc.lft.to/lastmile_qr_scan"}, "bike_id": "b672ed66331ae5b0a97f74e54b279e86", "lon": -77.03861966666666}, {"is_reserved": 0, "fusion_lon": 0.0, "fusion_lat": 0.0, "name": "2294e886f452b964019d533c221ee495", "type": "electric_scooter", "is_disabled": 0, "lat": 38.912651833333335, "rental_uris": {"android": "https://dc.lft.to/lastmile_qr_scan", "ios": "https://dc.lft.to/lastmile_qr_scan"}, "bike_id": "2294e886f452b964019d533c221ee495", "lon": -77.02256866666667}, {"is_reserved": 0, "fusion_lon": 0.0, "fusion_lat": 0.0, "name": "8a06227f332d246f009525a0ecd9ba20", "type": "electric_scooter", "is_disabled": 0, "lat": 38.892176, "rental_uris": {"android": "https://dc.lft.to/lastmile_qr_scan", "ios": "https://dc.lft.to/lastmile_qr_scan"}, "bike_id": "8a06227f332d246f009525a0ecd9ba20", "lon": -76.99256483333333}, {"is_reserved": 0, "fusion_lon": 0.0, "fusion_lat": 0.0, "name": "0aa0933d861f3246ec361fbcc79196b1", "type": "electric_bike", "is_disabled": 0, "lat": 38.9112725, "rental_uris": {"android": "https://dc.lft.to/lastmile_qr_scan", "ios": "https://dc.lft.to/lastmile_qr_scan"}, "bike_id": "0aa0933d861f3246ec361fbcc79196b1", "lon": -77.08615166666667}, {"is_reserved": 0, "fusion_lon": 0.0, "fusion_lat": 0.0, "name": "caa55a2fa8519134b2eb8f966494c0eb", "type": "electric_scooter", "is_disabled": 0, "lat": 38.904862, "rental_uris": {"android": "https://dc.lft.to/lastmile_qr_scan", "ios": "https://dc.lft.to/lastmile_qr_scan"}, "bike_id": "caa55a2fa8519134b2eb8f966494c0eb", "lon": -76.9823015}, {"is_reserved": 0, "fusion_lon": 0.0, "fusion_lat": 0.0, "name": "36096368ac19eef8cffc2b913653cd20", "type": "electric_scooter", "is_disabled": 0, "lat": 38.928656, "rental_uris": {"android": "https://dc.lft.to/lastmile_qr_scan", "ios": "https://dc.lft.to/lastmile_qr_scan"}, "bike_id": "36096368ac19eef8cffc2b913653cd20", "lon": -77.03322466666667}, {"is_reserved": 0, "fusion_lon": 0.0, "fusion_lat": 0.0, "name": "919252965746e30515ff4fa5349f2378", "type": "electric_scooter", "is_disabled": 0, "lat": 38.922348166666666, "rental_uris": {"android": "https://dc.lft.to/lastmile_qr_scan", "ios": "https://dc.lft.to/lastmile_qr_scan"}, "bike_id": "919252965746e30515ff4fa5349f2378", "lon": -77.045007}, {"is_reserved": 0, "fusion_lon": 0.0, "fusion_lat": 0.0, "name": "9165292499e06514c0dc0436f4bfabd6", "type": "electric_scooter", "is_disabled": 0, "lat": 38.9191665, "rental_uris": {"android": "https://dc.lft.to/lastmile_qr_scan", "ios": "https://dc.lft.to/lastmile_qr_scan"}, "bike_id": "9165292499e06514c0dc0436f4bfabd6", "lon": -77.0789415}, {"is_reserved": 0, "fusion_lon": 0.0, "fusion_lat": 0.0, "name": "4da9dac27300bf09ec48a8846c30706f", "type": "electric_scooter", "is_disabled": 0, "lat": 38.91794266666667, "rental_uris": {"android": "https://dc.lft.to/lastmile_qr_scan", "ios": "https://dc.lft.to/lastmile_qr_scan"}, "bike_id": "4da9dac27300bf09ec48a8846c30706f", "lon": -77.03432633333334}, {"is_reserved": 0, "fusion_lon": 0.0, "fusion_lat": 0.0, "name": "7fe892ddca783ad5d7ea2f9d216c6349", "type": "electric_scooter", "is_disabled": 0, "lat": 38.90005133333333, "rental_uris": {"android": "https://dc.lft.to/lastmile_qr_scan", "ios": "https://dc.lft.to/lastmile_qr_scan"}, "bike_id": "7fe892ddca783ad5d7ea2f9d216c6349", "lon": -77.0330805}, {"is_reserved": 0, "fusion_lon": 0.0, "fusion_lat": 0.0, "name": "c9c0b4d8e310a968af65c8f0dcba0323", "type": "electric_scooter", "is_disabled": 0, "lat": 38.883636333333335, "rental_uris": {"android": "https://dc.lft.to/lastmile_qr_scan", "ios": "https://dc.lft.to/lastmile_qr_scan"}, "bike_id": "c9c0b4d8e310a968af65c8f0dcba0323", "lon": -76.9415365}, {"is_reserved": 0, "fusion_lon": 0.0, "fusion_lat": 0.0, "name": "b0f6b4f62338e3466fd238541fcf3c92", "type": "electric_scooter", "is_disabled": 0, "lat": 38.89215983333333, "rental_uris": {"android": "https://dc.lft.to/lastmile_qr_scan", "ios": "https://dc.lft.to/lastmile_qr_scan"}, "bike_id": "b0f6b4f62338e3466fd238541fcf3c92", "lon": -77.026252}, {"is_reserved": 0, "fusion_lon": 0.0, "fusion_lat": 0.0, "name": "15537c8740bd20f39357616a106304b2", "type": "electric_scooter", "is_disabled": 0, "lat": 38.902791666666666, "rental_uris": {"android": "https://dc.lft.to/lastmile_qr_scan", "ios": "https://dc.lft.to/lastmile_qr_scan"}, "bike_id": "15537c8740bd20f39357616a106304b2", "lon": -77.03444466666667}, {"is_reserved": 0, "fusion_lon": 0.0, "fusion_lat": 0.0, "name": "99d532fd51db4813eacd64e7f80016dd", "type": "electric_scooter", "is_disabled": 0, "lat": 38.934368166666665, "rental_uris": {"android": "https://dc.lft.to/lastmile_qr_scan", "ios": "https://dc.lft.to/lastmile_qr_scan"}, "bike_id": "99d532fd51db4813eacd64e7f80016dd", "lon": -76.99883266666667}, {"is_reserved": 0, "fusion_lon": 0.0, "fusion_lat": 0.0, "name": "e1ebbec5664d05840ea6b220187e43fc", "type": "electric_bike", "is_disabled": 0, "lat": 38.962721333333334, "rental_uris": {"android": "https://dc.lft.to/lastmile_qr_scan", "ios": "https://dc.lft.to/lastmile_qr_scan"}, "bike_id": "e1ebbec5664d05840ea6b220187e43fc", "lon": -77.0145685}, {"is_reserved": 0, "fusion_lon": 0.0, "fusion_lat": 0.0, "name": "dc4cb04ca56c1e884308ae8a4d6e68a0", "type": "electric_scooter", "is_disabled": 0, "lat": 38.92169883333333, "rental_uris": {"android": "https://dc.lft.to/lastmile_qr_scan", "ios": "https://dc.lft.to/lastmile_qr_scan"}, "bike_id": "dc4cb04ca56c1e884308ae8a4d6e68a0", "lon": -77.04005883333333}, {"is_reserved": 0, "fusion_lon": 0.0, "fusion_lat": 0.0, "name": "a7c7d7c55a73bf2c68cdb4af718134f2", "type": "electric_bike", "is_disabled": 0, "lat": 38.9517145, "rental_uris": {"android": "https://dc.lft.to/lastmile_qr_scan", "ios": "https://dc.lft.to/lastmile_qr_scan"}, "bike_id": "a7c7d7c55a73bf2c68cdb4af718134f2", "lon": -76.9772905}, {"is_reserved": 0, "fusion_lon": 0.0, "fusion_lat": 0.0, "name": "421c6b4bd1fe8e559824dd3a4e64b684", "type": "electric_scooter", "is_disabled": 0, "lat": 38.9006225, "rental_uris": {"android": "https://dc.lft.to/lastmile_qr_scan", "ios": "https://dc.lft.to/lastmile_qr_scan"}, "bike_id": "421c6b4bd1fe8e559824dd3a4e64b684", "lon": -76.9469095}, {"is_reserved": 0, "fusion_lon": 0.0, "fusion_lat": 0.0, "name": "8b4b7ef9481ad6b6d63240db5d1652d7", "type": "electric_scooter", "is_disabled": 0, "lat": 38.90144316666667, "rental_uris": {"android": "https://dc.lft.to/lastmile_qr_scan", "ios": "https://dc.lft.to/lastmile_qr_scan"}, "bike_id": "8b4b7ef9481ad6b6d63240db5d1652d7", "lon": -77.03172533333333}, {"is_reserved": 0, "fusion_lon": 0.0, "fusion_lat": 0.0, "name": "e4c712ea5782bfc26c71295b8c93ca0e", "type": "electric_scooter", "is_disabled": 0, "lat": 38.872271, "rental_uris": {"android": "https://dc.lft.to/lastmile_qr_scan", "ios": "https://dc.lft.to/lastmile_qr_scan"}, "bike_id": "e4c712ea5782bfc26c71295b8c93ca0e", "lon": -77.01163683333333}, {"is_reserved": 0, "fusion_lon": 0.0, "fusion_lat": 0.0, "name": "1f12934eb06685f40fa05b3ff2a990b4", "type": "electric_scooter", "is_disabled": 0, "lat": 38.90726166666666, "rental_uris": {"android": "https://dc.lft.to/lastmile_qr_scan", "ios": "https://dc.lft.to/lastmile_qr_scan"}, "bike_id": "1f12934eb06685f40fa05b3ff2a990b4", "lon": -76.9869245}, {"is_reserved": 0, "fusion_lon": 0.0, "fusion_lat": 0.0, "name": "c6cac214315228938e291e5cbf92c8be", "type": "electric_bike", "is_disabled": 0, "lat": 38.959388, "rental_uris": {"android": "https://dc.lft.to/lastmile_qr_scan", "ios": "https://dc.lft.to/lastmile_qr_scan"}, "bike_id": "c6cac214315228938e291e5cbf92c8be", "lon": -76.92534466666666}, {"is_reserved": 0, "fusion_lon": 0.0, "fusion_lat": 0.0, "name": "ed623c30f507dcc7c741a83c12261dc0", "type": "electric_scooter", "is_disabled": 0, "lat": 38.8922015, "rental_uris": {"android": "https://dc.lft.to/lastmile_qr_scan", "ios": "https://dc.lft.to/lastmile_qr_scan"}, "bike_id": "ed623c30f507dcc7c741a83c12261dc0", "lon": -77.04375}, {"is_reserved": 0, "fusion_lon": 0.0, "fusion_lat": 0.0, "name": "ee7b056a839979d366bf6adad12dc9d9", "type": "electric_scooter", "is_disabled": 0, "lat": 38.892165166666665, "rental_uris": {"android": "https://dc.lft.to/lastmile_qr_scan", "ios": "https://dc.lft.to/lastmile_qr_scan"}, "bike_id": "ee7b056a839979d366bf6adad12dc9d9", "lon": -77.04371966666666}, {"is_reserved": 0, "fusion_lon": 0.0, "fusion_lat": 0.0, "name": "d2e0daa7bf663973323cc0c7358242ec", "type": "electric_scooter", "is_disabled": 0, "lat": 38.899561166666665, "rental_uris": {"android": "https://dc.lft.to/lastmile_qr_scan", "ios": "https://dc.lft.to/lastmile_qr_scan"}, "bike_id": "d2e0daa7bf663973323cc0c7358242ec", "lon": -77.04248733333333}, {"is_reserved": 0, "fusion_lon": 0.0, "fusion_lat": 0.0, "name": "34ca848a4bb41371dca3c61e17dd14f0", "type": "electric_scooter", "is_disabled": 0, "lat": 38.89291816666667, "rental_uris": {"android": "https://dc.lft.to/lastmile_qr_scan", "ios": "https://dc.lft.to/lastmile_qr_scan"}, "bike_id": "34ca848a4bb41371dca3c61e17dd14f0", "lon": -76.93928516666666}, {"is_reserved": 0, "fusion_lon": 0.0, "fusion_lat": 0.0, "name": "46bfcb8f98676a90d4bbcd607222d543", "type": "electric_scooter", "is_disabled": 0, "lat": 38.8802655, "rental_uris": {"android": "https://dc.lft.to/lastmile_qr_scan", "ios": "https://dc.lft.to/lastmile_qr_scan"}, "bike_id": "46bfcb8f98676a90d4bbcd607222d543", "lon": -77.02483616666666}, {"is_reserved": 0, "fusion_lon": 0.0, "fusion_lat": 0.0, "name": "73570e8abc5cc28f6957a5be7570a183", "type": "electric_scooter", "is_disabled": 0, "lat": 38.909703666666665, "rental_uris": {"android": "https://dc.lft.to/lastmile_qr_scan", "ios": "https://dc.lft.to/lastmile_qr_scan"}, "bike_id": "73570e8abc5cc28f6957a5be7570a183", "lon": -77.04231366666667}, {"is_reserved": 0, "fusion_lon": 0.0, "fusion_lat": 0.0, "name": "41afa1b2319b8723881631440f76b16b", "type": "electric_scooter", "is_disabled": 0, "lat": 38.9367025, "rental_uris": {"android": "https://dc.lft.to/lastmile_qr_scan", "ios": "https://dc.lft.to/lastmile_qr_scan"}, "bike_id": "41afa1b2319b8723881631440f76b16b", "lon": -77.0357855}, {"is_reserved": 0, "fusion_lon": 0.0, "fusion_lat": 0.0, "name": "da5803f32762a70372a648de59d6c53f", "type": "electric_scooter", "is_disabled": 0, "lat": 38.9053275, "rental_uris": {"android": "https://dc.lft.to/lastmile_qr_scan", "ios": "https://dc.lft.to/lastmile_qr_scan"}, "bike_id": "da5803f32762a70372a648de59d6c53f", "lon": -77.00409283333333}, {"is_reserved": 0, "fusion_lon": 0.0, "fusion_lat": 0.0, "name": "d006c12a315e9f51355515cb41a8ef23", "type": "electric_scooter", "is_disabled": 0, "lat": 38.936132666666666, "rental_uris": {"android": "https://dc.lft.to/lastmile_qr_scan", "ios": "https://dc.lft.to/lastmile_qr_scan"}, "bike_id": "d006c12a315e9f51355515cb41a8ef23", "lon": -77.038055}, {"is_reserved": 0, "fusion_lon": 0.0, "fusion_lat": 0.0, "name": "a7c746ed16631621fbdf640586a72ae1", "type": "electric_scooter", "is_disabled": 0, "lat": 38.93041566666667, "rental_uris": {"android": "https://dc.lft.to/lastmile_qr_scan", "ios": "https://dc.lft.to/lastmile_qr_scan"}, "bike_id": "a7c746ed16631621fbdf640586a72ae1", "lon": -77.0122685}, {"is_reserved": 0, "fusion_lon": 0.0, "fusion_lat": 0.0, "name": "599a81b6666732e776bc24b87305f763", "type": "electric_bike", "is_disabled": 0, "lat": 38.96319616666667, "rental_uris": {"android": "https://dc.lft.to/lastmile_qr_scan", "ios": "https://dc.lft.to/lastmile_qr_scan"}, "bike_id": "599a81b6666732e776bc24b87305f763", "lon": -76.97357483333333}, {"is_reserved": 0, "fusion_lon": 0.0, "fusion_lat": 0.0, "name": "e70980a92d512ee3d5f18cf92791e121", "type": "electric_scooter", "is_disabled": 0, "lat": 38.924876166666664, "rental_uris": {"android": "https://dc.lft.to/lastmile_qr_scan", "ios": "https://dc.lft.to/lastmile_qr_scan"}, "bike_id": "e70980a92d512ee3d5f18cf92791e121", "lon": -77.02693916666666}, {"is_reserved": 0, "fusion_lon": 0.0, "fusion_lat": 0.0, "name": "235953fb2303d39d556f354b925aee0b", "type": "electric_scooter", "is_disabled": 0, "lat": 38.914629833333336, "rental_uris": {"android": "https://dc.lft.to/lastmile_qr_scan", "ios": "https://dc.lft.to/lastmile_qr_scan"}, "bike_id": "235953fb2303d39d556f354b925aee0b", "lon": -77.01786166666666}, {"is_reserved": 0, "fusion_lon": 0.0, "fusion_lat": 0.0, "name": "016c336ceb3dfc44d43839f80e689c4e", "type": "electric_bike", "is_disabled": 0, "lat": 38.963034666666665, "rental_uris": {"android": "https://dc.lft.to/lastmile_qr_scan", "ios": "https://dc.lft.to/lastmile_qr_scan"}, "bike_id": "016c336ceb3dfc44d43839f80e689c4e", "lon": -77.0111355}, {"is_reserved": 0, "fusion_lon": 0.0, "fusion_lat": 0.0, "name": "961559e908516c43e392457b3eab165e", "type": "electric_scooter", "is_disabled": 0, "lat": 38.912545333333334, "rental_uris": {"android": "https://dc.lft.to/lastmile_qr_scan", "ios": "https://dc.lft.to/lastmile_qr_scan"}, "bike_id": "961559e908516c43e392457b3eab165e", "lon": -77.03115383333333}, {"is_reserved": 0, "fusion_lon": 0.0, "fusion_lat": 0.0, "name": "9d9fee7b19418799c413f564b79cf747", "type": "electric_scooter", "is_disabled": 0, "lat": 38.928836833333335, "rental_uris": {"android": "https://dc.lft.to/lastmile_qr_scan", "ios": "https://dc.lft.to/lastmile_qr_scan"}, "bike_id": "9d9fee7b19418799c413f564b79cf747", "lon": -77.0365115}, {"is_reserved": 0, "fusion_lon": 0.0, "fusion_lat": 0.0, "name": "d00fa4f1f80f1765dfd9b6033d8766cb", "type": "electric_scooter", "is_disabled": 0, "lat": 38.90870866666667, "rental_uris": {"android": "https://dc.lft.to/lastmile_qr_scan", "ios": "https://dc.lft.to/lastmile_qr_scan"}, "bike_id": "d00fa4f1f80f1765dfd9b6033d8766cb", "lon": -77.08590666666667}, {"is_reserved": 0, "fusion_lon": 0.0, "fusion_lat": 0.0, "name": "bd1146b869c7e2020be794b2fbe0a687", "type": "electric_scooter", "is_disabled": 0, "lat": 38.9181275, "rental_uris": {"android": "https://dc.lft.to/lastmile_qr_scan", "ios": "https://dc.lft.to/lastmile_qr_scan"}, "bike_id": "bd1146b869c7e2020be794b2fbe0a687", "lon": -77.08963683333333}, {"is_reserved": 0, "fusion_lon": 0.0, "fusion_lat": 0.0, "name": "2eae25289ac95642bb270966b5304730", "type": "electric_bike", "is_disabled": 0, "lat": 38.97395916666667, "rental_uris": {"android": "https://dc.lft.to/lastmile_qr_scan", "ios": "https://dc.lft.to/lastmile_qr_scan"}, "bike_id": "2eae25289ac95642bb270966b5304730", "lon": -77.06453233333333}, {"is_reserved": 0, "fusion_lon": 0.0, "fusion_lat": 0.0, "name": "90c11754a99dda5673822f8bee49d245", "type": "electric_scooter", "is_disabled": 0, "lat": 38.892252166666665, "rental_uris": {"android": "https://dc.lft.to/lastmile_qr_scan", "ios": "https://dc.lft.to/lastmile_qr_scan"}, "bike_id": "90c11754a99dda5673822f8bee49d245", "lon": -77.043348}, {"is_reserved": 0, "fusion_lon": 0.0, "fusion_lat": 0.0, "name": "53976b3f5c072df42eed19940685a7b0", "type": "electric_scooter", "is_disabled": 0, "lat": 38.901445833333334, "rental_uris": {"android": "https://dc.lft.to/lastmile_qr_scan", "ios": "https://dc.lft.to/lastmile_qr_scan"}, "bike_id": "53976b3f5c072df42eed19940685a7b0", "lon": -76.92981966666666}, {"is_reserved": 0, "fusion_lon": 0.0, "fusion_lat": 0.0, "name": "32454ac624bfb825120da36d0c17416b", "type": "electric_scooter", "is_disabled": 0, "lat": 38.90803733333333, "rental_uris": {"android": "https://dc.lft.to/lastmile_qr_scan", "ios": "https://dc.lft.to/lastmile_qr_scan"}, "bike_id": "32454ac624bfb825120da36d0c17416b", "lon": -76.98737716666666}, {"is_reserved": 0, "fusion_lon": 0.0, "fusion_lat": 0.0, "name": "26c4ce5a558ddae7f1e74167f7771370", "type": "electric_scooter", "is_disabled": 0, "lat": 38.885972, "rental_uris": {"android": "https://dc.lft.to/lastmile_qr_scan", "ios": "https://dc.lft.to/lastmile_qr_scan"}, "bike_id": "26c4ce5a558ddae7f1e74167f7771370", "lon": -77.04510933333333}, {"is_reserved": 0, "fusion_lon": 0.0, "fusion_lat": 0.0, "name": "e793cee23bad7c71ab438fed273bf44a", "type": "electric_scooter", "is_disabled": 0, "lat": 38.90362016666667, "rental_uris": {"android": "https://dc.lft.to/lastmile_qr_scan", "ios": "https://dc.lft.to/lastmile_qr_scan"}, "bike_id": "e793cee23bad7c71ab438fed273bf44a", "lon": -77.04660816666667}, {"is_reserved": 0, "fusion_lon": 0.0, "fusion_lat": 0.0, "name": "d48cac1768bc2c3ae878ef7d513cc215", "type": "electric_scooter", "is_disabled": 0, "lat": 38.91551066666667, "rental_uris": {"android": "https://dc.lft.to/lastmile_qr_scan", "ios": "https://dc.lft.to/lastmile_qr_scan"}, "bike_id": "d48cac1768bc2c3ae878ef7d513cc215", "lon": -77.05321533333333}, {"is_reserved": 0, "fusion_lon": 0.0, "fusion_lat": 0.0, "name": "b5956c569267346578859c4b46b7b9b2", "type": "electric_scooter", "is_disabled": 0, "lat": 38.91512983333333, "rental_uris": {"android": "https://dc.lft.to/lastmile_qr_scan", "ios": "https://dc.lft.to/lastmile_qr_scan"}, "bike_id": "b5956c569267346578859c4b46b7b9b2", "lon": -77.046069}, {"is_reserved": 0, "fusion_lon": 0.0, "fusion_lat": 0.0, "name": "d30ad1242cc42d1f5cf16b033dbf5796", "type": "electric_scooter", "is_disabled": 0, "lat": 38.923418, "rental_uris": {"android": "https://dc.lft.to/lastmile_qr_scan", "ios": "https://dc.lft.to/lastmile_qr_scan"}, "bike_id": "d30ad1242cc42d1f5cf16b033dbf5796", "lon": -77.0508555}, {"is_reserved": 0, "fusion_lon": 0.0, "fusion_lat": 0.0, "name": "4d01444fdf20fcf96249e9aead0d5606", "type": "electric_scooter", "is_disabled": 0, "lat": 38.936711, "rental_uris": {"android": "https://dc.lft.to/lastmile_qr_scan", "ios": "https://dc.lft.to/lastmile_qr_scan"}, "bike_id": "4d01444fdf20fcf96249e9aead0d5606", "lon": -77.036386}, {"is_reserved": 0, "fusion_lon": 0.0, "fusion_lat": 0.0, "name": "bef0ee2e7b47dbe76621c7cfa3db30b2", "type": "electric_scooter", "is_disabled": 0, "lat": 38.89548516666667, "rental_uris": {"android": "https://dc.lft.to/lastmile_qr_scan", "ios": "https://dc.lft.to/lastmile_qr_scan"}, "bike_id": "bef0ee2e7b47dbe76621c7cfa3db30b2", "lon": -76.94875766666667}, {"is_reserved": 0, "fusion_lon": 0.0, "fusion_lat": 0.0, "name": "da829e5dc71f02901b2406539fd9d133", "type": "electric_scooter", "is_disabled": 0, "lat": 38.91401883333333, "rental_uris": {"android": "https://dc.lft.to/lastmile_qr_scan", "ios": "https://dc.lft.to/lastmile_qr_scan"}, "bike_id": "da829e5dc71f02901b2406539fd9d133", "lon": -77.02974883333333}, {"is_reserved": 0, "fusion_lon": 0.0, "fusion_lat": 0.0, "name": "f3abf22ec75a6ec68b831341c674a924", "type": "electric_scooter", "is_disabled": 0, "lat": 38.874807833333335, "rental_uris": {"android": "https://dc.lft.to/lastmile_qr_scan", "ios": "https://dc.lft.to/lastmile_qr_scan"}, "bike_id": "f3abf22ec75a6ec68b831341c674a924", "lon": -77.00239183333333}, {"is_reserved": 0, "fusion_lon": 0.0, "fusion_lat": 0.0, "name": "cc597289d9de2c402df321b5a8ef85ab", "type": "electric_scooter", "is_disabled": 0, "lat": 38.90978366666667, "rental_uris": {"android": "https://dc.lft.to/lastmile_qr_scan", "ios": "https://dc.lft.to/lastmile_qr_scan"}, "bike_id": "cc597289d9de2c402df321b5a8ef85ab", "lon": -77.03183416666667}, {"is_reserved": 0, "fusion_lon": 0.0, "fusion_lat": 0.0, "name": "311010f64f4e4d7d9ed7a1fdfc10e0ed", "type": "electric_scooter", "is_disabled": 0, "lat": 38.920478833333334, "rental_uris": {"android": "https://dc.lft.to/lastmile_qr_scan", "ios": "https://dc.lft.to/lastmile_qr_scan"}, "bike_id": "311010f64f4e4d7d9ed7a1fdfc10e0ed", "lon": -77.01761783333333}, {"is_reserved": 0, "fusion_lon": 0.0, "fusion_lat": 0.0, "name": "ba429ffcd77bd183df764f52214713dd", "type": "electric_scooter", "is_disabled": 0, "lat": 38.892359666666664, "rental_uris": {"android": "https://dc.lft.to/lastmile_qr_scan", "ios": "https://dc.lft.to/lastmile_qr_scan"}, "bike_id": "ba429ffcd77bd183df764f52214713dd", "lon": -77.031833}, {"is_reserved": 0, "fusion_lon": 0.0, "fusion_lat": 0.0, "name": "39e1f9a035af1056e81d489c6abcd7a0", "type": "electric_scooter", "is_disabled": 0, "lat": 38.8847705, "rental_uris": {"android": "https://dc.lft.to/lastmile_qr_scan", "ios": "https://dc.lft.to/lastmile_qr_scan"}, "bike_id": "39e1f9a035af1056e81d489c6abcd7a0", "lon": -77.01995783333334}, {"is_reserved": 0, "fusion_lon": 0.0, "fusion_lat": 0.0, "name": "e63e3176e2bae4932a2d2fc40dddf57e", "type": "electric_scooter", "is_disabled": 0, "lat": 38.9001015, "rental_uris": {"android": "https://dc.lft.to/lastmile_qr_scan", "ios": "https://dc.lft.to/lastmile_qr_scan"}, "bike_id": "e63e3176e2bae4932a2d2fc40dddf57e", "lon": -77.04126666666667}, {"is_reserved": 0, "fusion_lon": 0.0, "fusion_lat": 0.0, "name": "d023609f7198bdac970d1f5afc1ebe84", "type": "electric_scooter", "is_disabled": 0, "lat": 38.866399333333334, "rental_uris": {"android": "https://dc.lft.to/lastmile_qr_scan", "ios": "https://dc.lft.to/lastmile_qr_scan"}, "bike_id": "d023609f7198bdac970d1f5afc1ebe84", "lon": -76.98265366666666}, {"is_reserved": 0, "fusion_lon": 0.0, "fusion_lat": 0.0, "name": "361733dbce11e96ce47b23256ab6883b", "type": "electric_scooter", "is_disabled": 0, "lat": 38.9232205, "rental_uris": {"android": "https://dc.lft.to/lastmile_qr_scan", "ios": "https://dc.lft.to/lastmile_qr_scan"}, "bike_id": "361733dbce11e96ce47b23256ab6883b", "lon": -77.056459}, {"is_reserved": 0, "fusion_lon": 0.0, "fusion_lat": 0.0, "name": "85edf334dd34cc3eb11cc12c85d048e9", "type": "electric_scooter", "is_disabled": 0, "lat": 38.917487, "rental_uris": {"android": "https://dc.lft.to/lastmile_qr_scan", "ios": "https://dc.lft.to/lastmile_qr_scan"}, "bike_id": "85edf334dd34cc3eb11cc12c85d048e9", "lon": -77.01221283333334}, {"is_reserved": 0, "fusion_lon": 0.0, "fusion_lat": 0.0, "name": "91cc847efeaaba4ea0ad42ff2c0a077e", "type": "electric_scooter", "is_disabled": 0, "lat": 38.9420235, "rental_uris": {"android": "https://dc.lft.to/lastmile_qr_scan", "ios": "https://dc.lft.to/lastmile_qr_scan"}, "bike_id": "91cc847efeaaba4ea0ad42ff2c0a077e", "lon": -77.0251615}, {"is_reserved": 0, "fusion_lon": 0.0, "fusion_lat": 0.0, "name": "9f56a0ce88dd83eee039281409c6b1d3", "type": "electric_scooter", "is_disabled": 0, "lat": 38.911791666666666, "rental_uris": {"android": "https://dc.lft.to/lastmile_qr_scan", "ios": "https://dc.lft.to/lastmile_qr_scan"}, "bike_id": "9f56a0ce88dd83eee039281409c6b1d3", "lon": -77.04344016666667}, {"is_reserved": 0, "fusion_lon": 0.0, "fusion_lat": 0.0, "name": "789ca13672a863307cef5acc29fae240", "type": "electric_scooter", "is_disabled": 0, "lat": 38.9002885, "rental_uris": {"android": "https://dc.lft.to/lastmile_qr_scan", "ios": "https://dc.lft.to/lastmile_qr_scan"}, "bike_id": "789ca13672a863307cef5acc29fae240", "lon": -76.9885765}, {"is_reserved": 0, "fusion_lon": 0.0, "fusion_lat": 0.0, "name": "7b88f708ac849b1d5415845800fa623b", "type": "electric_scooter", "is_disabled": 0, "lat": 38.87656666666667, "rental_uris": {"android": "https://dc.lft.to/lastmile_qr_scan", "ios": "https://dc.lft.to/lastmile_qr_scan"}, "bike_id": "7b88f708ac849b1d5415845800fa623b", "lon": -77.01580566666667}, {"is_reserved": 0, "fusion_lon": 0.0, "fusion_lat": 0.0, "name": "345f6faec3b6edc1c2976753bc93dc0d", "type": "electric_scooter", "is_disabled": 0, "lat": 38.9049385, "rental_uris": {"android": "https://dc.lft.to/lastmile_qr_scan", "ios": "https://dc.lft.to/lastmile_qr_scan"}, "bike_id": "345f6faec3b6edc1c2976753bc93dc0d", "lon": -77.05069366666666}, {"is_reserved": 0, "fusion_lon": 0.0, "fusion_lat": 0.0, "name": "6a7a2bdc743aba20dc8339f8d6fad02d", "type": "electric_scooter", "is_disabled": 0, "lat": 38.87289633333333, "rental_uris": {"android": "https://dc.lft.to/lastmile_qr_scan", "ios": "https://dc.lft.to/lastmile_qr_scan"}, "bike_id": "6a7a2bdc743aba20dc8339f8d6fad02d", "lon": -77.00983916666667}, {"is_reserved": 0, "fusion_lon": 0.0, "fusion_lat": 0.0, "name": "97d190747f08731c31df7f9d176bcdde", "type": "electric_bike", "is_disabled": 0, "lat": 38.962213, "rental_uris": {"android": "https://dc.lft.to/lastmile_qr_scan", "ios": "https://dc.lft.to/lastmile_qr_scan"}, "bike_id": "97d190747f08731c31df7f9d176bcdde", "lon": -77.02623383333334}, {"is_reserved": 0, "fusion_lon": 0.0, "fusion_lat": 0.0, "name": "4e474f0264d5f9d7882a3f0cd883f158", "type": "electric_scooter", "is_disabled": 0, "lat": 38.90799416666667, "rental_uris": {"android": "https://dc.lft.to/lastmile_qr_scan", "ios": "https://dc.lft.to/lastmile_qr_scan"}, "bike_id": "4e474f0264d5f9d7882a3f0cd883f158", "lon": -77.043365}, {"is_reserved": 0, "fusion_lon": 0.0, "fusion_lat": 0.0, "name": "6fb30af56ac4f0f71c2cddeffcbfd427", "type": "electric_scooter", "is_disabled": 0, "lat": 38.900326666666665, "rental_uris": {"android": "https://dc.lft.to/lastmile_qr_scan", "ios": "https://dc.lft.to/lastmile_qr_scan"}, "bike_id": "6fb30af56ac4f0f71c2cddeffcbfd427", "lon": -77.011902}, {"is_reserved": 0, "fusion_lon": 0.0, "fusion_lat": 0.0, "name": "6ade3f17f96908af4224f0eac0e1e56f", "type": "electric_scooter", "is_disabled": 0, "lat": 38.8860825, "rental_uris": {"android": "https://dc.lft.to/lastmile_qr_scan", "ios": "https://dc.lft.to/lastmile_qr_scan"}, "bike_id": "6ade3f17f96908af4224f0eac0e1e56f", "lon": -76.99514433333333}, {"is_reserved": 0, "fusion_lon": 0.0, "fusion_lat": 0.0, "name": "e85761b70740693bec2ac125188ed204", "type": "electric_scooter", "is_disabled": 0, "lat": 38.90424766666667, "rental_uris": {"android": "https://dc.lft.to/lastmile_qr_scan", "ios": "https://dc.lft.to/lastmile_qr_scan"}, "bike_id": "e85761b70740693bec2ac125188ed204", "lon": -77.04660983333333}, {"is_reserved": 0, "fusion_lon": 0.0, "fusion_lat": 0.0, "name": "7f8b7da07008d5a34ec7ceb379f4b284", "type": "electric_bike", "is_disabled": 0, "lat": 38.811997166666664, "rental_uris": {"android": "https://dc.lft.to/lastmile_qr_scan", "ios": "https://dc.lft.to/lastmile_qr_scan"}, "bike_id": "7f8b7da07008d5a34ec7ceb379f4b284", "lon": -77.10831366666666}, {"is_reserved": 0, "fusion_lon": 0.0, "fusion_lat": 0.0, "name": "02eb48d9d5596e68e39ca5042a932ff2", "type": "electric_scooter", "is_disabled": 0, "lat": 38.914572666666665, "rental_uris": {"android": "https://dc.lft.to/lastmile_qr_scan", "ios": "https://dc.lft.to/lastmile_qr_scan"}, "bike_id": "02eb48d9d5596e68e39ca5042a932ff2", "lon": -77.02291283333334}, {"is_reserved": 0, "fusion_lon": 0.0, "fusion_lat": 0.0, "name": "0f653da7a00f1615222b9f7ab384a597", "type": "electric_scooter", "is_disabled": 0, "lat": 38.896787333333336, "rental_uris": {"android": "https://dc.lft.to/lastmile_qr_scan", "ios": "https://dc.lft.to/lastmile_qr_scan"}, "bike_id": "0f653da7a00f1615222b9f7ab384a597", "lon": -77.00507883333333}, {"is_reserved": 0, "fusion_lon": 0.0, "fusion_lat": 0.0, "name": "a1c4a4a9cac254355f0d352e22555475", "type": "electric_bike", "is_disabled": 0, "lat": 38.93866166666667, "rental_uris": {"android": "https://dc.lft.to/lastmile_qr_scan", "ios": "https://dc.lft.to/lastmile_qr_scan"}, "bike_id": "a1c4a4a9cac254355f0d352e22555475", "lon": -76.94293983333333}, {"is_reserved": 0, "fusion_lon": 0.0, "fusion_lat": 0.0, "name": "e9ce5f2413f4a53b9c2cdf1ece5f2a5b", "type": "electric_scooter", "is_disabled": 0, "lat": 38.88525766666667, "rental_uris": {"android": "https://dc.lft.to/lastmile_qr_scan", "ios": "https://dc.lft.to/lastmile_qr_scan"}, "bike_id": "e9ce5f2413f4a53b9c2cdf1ece5f2a5b", "lon": -76.996102}, {"is_reserved": 0, "fusion_lon": 0.0, "fusion_lat": 0.0, "name": "664060c8ad84de2fbc46740766dd99cc", "type": "electric_scooter", "is_disabled": 0, "lat": 38.92336816666667, "rental_uris": {"android": "https://dc.lft.to/lastmile_qr_scan", "ios": "https://dc.lft.to/lastmile_qr_scan"}, "bike_id": "664060c8ad84de2fbc46740766dd99cc", "lon": -77.0349955}, {"is_reserved": 0, "fusion_lon": 0.0, "fusion_lat": 0.0, "name": "ff17ef9eb83872d2a610db803be8919f", "type": "electric_scooter", "is_disabled": 0, "lat": 38.88456583333333, "rental_uris": {"android": "https://dc.lft.to/lastmile_qr_scan", "ios": "https://dc.lft.to/lastmile_qr_scan"}, "bike_id": "ff17ef9eb83872d2a610db803be8919f", "lon": -76.926228}, {"is_reserved": 0, "fusion_lon": 0.0, "fusion_lat": 0.0, "name": "f280543bbc390a06902b56d3fde1751c", "type": "electric_scooter", "is_disabled": 0, "lat": 38.914071, "rental_uris": {"android": "https://dc.lft.to/lastmile_qr_scan", "ios": "https://dc.lft.to/lastmile_qr_scan"}, "bike_id": "f280543bbc390a06902b56d3fde1751c", "lon": -77.03249583333333}, {"is_reserved": 0, "fusion_lon": 0.0, "fusion_lat": 0.0, "name": "2a4aa984077b67364409a07b37c9b5e9", "type": "electric_scooter", "is_disabled": 0, "lat": 38.9110285, "rental_uris": {"android": "https://dc.lft.to/lastmile_qr_scan", "ios": "https://dc.lft.to/lastmile_qr_scan"}, "bike_id": "2a4aa984077b67364409a07b37c9b5e9", "lon": -77.04469566666667}, {"is_reserved": 0, "fusion_lon": 0.0, "fusion_lat": 0.0, "name": "bb2647419d5dd430f2c2c87152c133de", "type": "electric_scooter", "is_disabled": 0, "lat": 38.916751, "rental_uris": {"android": "https://dc.lft.to/lastmile_qr_scan", "ios": "https://dc.lft.to/lastmile_qr_scan"}, "bike_id": "bb2647419d5dd430f2c2c87152c133de", "lon": -77.03036333333333}, {"is_reserved": 0, "fusion_lon": 0.0, "fusion_lat": 0.0, "name": "0c02204aacaf46920eccf99a5c3d3e56", "type": "electric_scooter", "is_disabled": 0, "lat": 38.89573433333333, "rental_uris": {"android": "https://dc.lft.to/lastmile_qr_scan", "ios": "https://dc.lft.to/lastmile_qr_scan"}, "bike_id": "0c02204aacaf46920eccf99a5c3d3e56", "lon": -77.04680116666667}, {"is_reserved": 0, "fusion_lon": 0.0, "fusion_lat": 0.0, "name": "0620f7a20d19cbae03f5d54fbf190e3c", "type": "electric_scooter", "is_disabled": 0, "lat": 38.88080933333333, "rental_uris": {"android": "https://dc.lft.to/lastmile_qr_scan", "ios": "https://dc.lft.to/lastmile_qr_scan"}, "bike_id": "0620f7a20d19cbae03f5d54fbf190e3c", "lon": -76.98505833333333}, {"is_reserved": 0, "fusion_lon": 0.0, "fusion_lat": 0.0, "name": "946aa8ed9e9135f1ae17d712d61097a6", "type": "electric_scooter", "is_disabled": 0, "lat": 38.92638766666666, "rental_uris": {"android": "https://dc.lft.to/lastmile_qr_scan", "ios": "https://dc.lft.to/lastmile_qr_scan"}, "bike_id": "946aa8ed9e9135f1ae17d712d61097a6", "lon": -77.04137316666667}, {"is_reserved": 0, "fusion_lon": 0.0, "fusion_lat": 0.0, "name": "6d0e23add8b6a2609b1b81066c02ba4e", "type": "electric_scooter", "is_disabled": 0, "lat": 38.9053645, "rental_uris": {"android": "https://dc.lft.to/lastmile_qr_scan", "ios": "https://dc.lft.to/lastmile_qr_scan"}, "bike_id": "6d0e23add8b6a2609b1b81066c02ba4e", "lon": -77.045059}, {"is_reserved": 0, "fusion_lon": 0.0, "fusion_lat": 0.0, "name": "d76423bf4337989dc722b7185dbc1010", "type": "electric_scooter", "is_disabled": 0, "lat": 38.909642166666664, "rental_uris": {"android": "https://dc.lft.to/lastmile_qr_scan", "ios": "https://dc.lft.to/lastmile_qr_scan"}, "bike_id": "d76423bf4337989dc722b7185dbc1010", "lon": -77.03867116666666}, {"is_reserved": 0, "fusion_lon": 0.0, "fusion_lat": 0.0, "name": "d3caed07721be7dd32de26a1f2310c25", "type": "electric_scooter", "is_disabled": 0, "lat": 38.918127, "rental_uris": {"android": "https://dc.lft.to/lastmile_qr_scan", "ios": "https://dc.lft.to/lastmile_qr_scan"}, "bike_id": "d3caed07721be7dd32de26a1f2310c25", "lon": -77.02981233333334}, {"is_reserved": 0, "fusion_lon": 0.0, "fusion_lat": 0.0, "name": "357f4f7169927fd46ac18161e42bc3e6", "type": "electric_scooter", "is_disabled": 0, "lat": 38.91344983333333, "rental_uris": {"android": "https://dc.lft.to/lastmile_qr_scan", "ios": "https://dc.lft.to/lastmile_qr_scan"}, "bike_id": "357f4f7169927fd46ac18161e42bc3e6", "lon": -77.039755}, {"is_reserved": 0, "fusion_lon": 0.0, "fusion_lat": 0.0, "name": "439c9f26df193347a5231241de8866ea", "type": "electric_scooter", "is_disabled": 0, "lat": 38.903597500000004, "rental_uris": {"android": "https://dc.lft.to/lastmile_qr_scan", "ios": "https://dc.lft.to/lastmile_qr_scan"}, "bike_id": "439c9f26df193347a5231241de8866ea", "lon": -77.009854}, {"is_reserved": 0, "fusion_lon": 0.0, "fusion_lat": 0.0, "name": "ef55d480d8f49b15d9c977c083ad9620", "type": "electric_scooter", "is_disabled": 0, "lat": 38.90033716666667, "rental_uris": {"android": "https://dc.lft.to/lastmile_qr_scan", "ios": "https://dc.lft.to/lastmile_qr_scan"}, "bike_id": "ef55d480d8f49b15d9c977c083ad9620", "lon": -76.9962875}, {"is_reserved": 0, "fusion_lon": 0.0, "fusion_lat": 0.0, "name": "80c22c29c47d65a65c716629c04d5e22", "type": "electric_scooter", "is_disabled": 0, "lat": 38.9012145, "rental_uris": {"android": "https://dc.lft.to/lastmile_qr_scan", "ios": "https://dc.lft.to/lastmile_qr_scan"}, "bike_id": "80c22c29c47d65a65c716629c04d5e22", "lon": -77.049961}, {"is_reserved": 0, "fusion_lon": 0.0, "fusion_lat": 0.0, "name": "e3637a60a3595f50dcdecc884bc956de", "type": "electric_scooter", "is_disabled": 0, "lat": 38.92079183333333, "rental_uris": {"android": "https://dc.lft.to/lastmile_qr_scan", "ios": "https://dc.lft.to/lastmile_qr_scan"}, "bike_id": "e3637a60a3595f50dcdecc884bc956de", "lon": -77.0410225}, {"is_reserved": 0, "fusion_lon": 0.0, "fusion_lat": 0.0, "name": "98c2246017ec60fb9e14ef5ab6d16e22", "type": "electric_scooter", "is_disabled": 0, "lat": 38.909584333333335, "rental_uris": {"android": "https://dc.lft.to/lastmile_qr_scan", "ios": "https://dc.lft.to/lastmile_qr_scan"}, "bike_id": "98c2246017ec60fb9e14ef5ab6d16e22", "lon": -77.04563716666667}, {"is_reserved": 0, "fusion_lon": 0.0, "fusion_lat": 0.0, "name": "918e8ffab9b2133407c9cea86c8630c0", "type": "electric_bike", "is_disabled": 0, "lat": 38.827846666666666, "rental_uris": {"android": "https://dc.lft.to/lastmile_qr_scan", "ios": "https://dc.lft.to/lastmile_qr_scan"}, "bike_id": "918e8ffab9b2133407c9cea86c8630c0", "lon": -77.009182}, {"is_reserved": 0, "fusion_lon": 0.0, "fusion_lat": 0.0, "name": "6ada945fb984e1dfb237232e4bb683fe", "type": "electric_scooter", "is_disabled": 0, "lat": 38.90506366666666, "rental_uris": {"android": "https://dc.lft.to/lastmile_qr_scan", "ios": "https://dc.lft.to/lastmile_qr_scan"}, "bike_id": "6ada945fb984e1dfb237232e4bb683fe", "lon": -76.9848755}, {"is_reserved": 0, "fusion_lon": 0.0, "fusion_lat": 0.0, "name": "4ed7ee70cd3b466999950d7c4ca4a25e", "type": "electric_scooter", "is_disabled": 0, "lat": 38.90277783333333, "rental_uris": {"android": "https://dc.lft.to/lastmile_qr_scan", "ios": "https://dc.lft.to/lastmile_qr_scan"}, "bike_id": "4ed7ee70cd3b466999950d7c4ca4a25e", "lon": -76.9899315}, {"is_reserved": 0, "fusion_lon": 0.0, "fusion_lat": 0.0, "name": "4506537a153230839fdfb3cdbbaee062", "type": "electric_scooter", "is_disabled": 0, "lat": 38.880588333333336, "rental_uris": {"android": "https://dc.lft.to/lastmile_qr_scan", "ios": "https://dc.lft.to/lastmile_qr_scan"}, "bike_id": "4506537a153230839fdfb3cdbbaee062", "lon": -77.024933}, {"is_reserved": 0, "fusion_lon": 0.0, "fusion_lat": 0.0, "name": "7c2deb08082d2d319d5890ef41d9b218", "type": "electric_scooter", "is_disabled": 0, "lat": 38.907386, "rental_uris": {"android": "https://dc.lft.to/lastmile_qr_scan", "ios": "https://dc.lft.to/lastmile_qr_scan"}, "bike_id": "7c2deb08082d2d319d5890ef41d9b218", "lon": -77.04196766666666}, {"is_reserved": 0, "fusion_lon": 0.0, "fusion_lat": 0.0, "name": "9af624ccadf904e800122053a1704a9a", "type": "electric_scooter", "is_disabled": 0, "lat": 38.91874166666667, "rental_uris": {"android": "https://dc.lft.to/lastmile_qr_scan", "ios": "https://dc.lft.to/lastmile_qr_scan"}, "bike_id": "9af624ccadf904e800122053a1704a9a", "lon": -77.0350265}, {"is_reserved": 0, "fusion_lon": 0.0, "fusion_lat": 0.0, "name": "c310bf835342ddb04dd8e22010eda587", "type": "electric_scooter", "is_disabled": 0, "lat": 38.91189716666667, "rental_uris": {"android": "https://dc.lft.to/lastmile_qr_scan", "ios": "https://dc.lft.to/lastmile_qr_scan"}, "bike_id": "c310bf835342ddb04dd8e22010eda587", "lon": -77.0383235}, {"is_reserved": 0, "fusion_lon": 0.0, "fusion_lat": 0.0, "name": "b26d42ea6d07d9cde1de4ea3ac0c53c3", "type": "electric_scooter", "is_disabled": 0, "lat": 38.911077666666664, "rental_uris": {"android": "https://dc.lft.to/lastmile_qr_scan", "ios": "https://dc.lft.to/lastmile_qr_scan"}, "bike_id": "b26d42ea6d07d9cde1de4ea3ac0c53c3", "lon": -77.0250615}, {"is_reserved": 0, "fusion_lon": 0.0, "fusion_lat": 0.0, "name": "a98407fb5c828a5cc0b47942489ab723", "type": "electric_scooter", "is_disabled": 0, "lat": 38.89858483333333, "rental_uris": {"android": "https://dc.lft.to/lastmile_qr_scan", "ios": "https://dc.lft.to/lastmile_qr_scan"}, "bike_id": "a98407fb5c828a5cc0b47942489ab723", "lon": -76.92748216666666}, {"is_reserved": 0, "fusion_lon": 0.0, "fusion_lat": 0.0, "name": "813e8714cbfcb5afdc65216941d83372", "type": "electric_scooter", "is_disabled": 0, "lat": 38.89810833333333, "rental_uris": {"android": "https://dc.lft.to/lastmile_qr_scan", "ios": "https://dc.lft.to/lastmile_qr_scan"}, "bike_id": "813e8714cbfcb5afdc65216941d83372", "lon": -77.02947133333333}, {"is_reserved": 0, "fusion_lon": 0.0, "fusion_lat": 0.0, "name": "00a5c68006ba77b78cda854717660a13", "type": "electric_scooter", "is_disabled": 0, "lat": 38.884785, "rental_uris": {"android": "https://dc.lft.to/lastmile_qr_scan", "ios": "https://dc.lft.to/lastmile_qr_scan"}, "bike_id": "00a5c68006ba77b78cda854717660a13", "lon": -76.92619783333333}, {"is_reserved": 0, "fusion_lon": 0.0, "fusion_lat": 0.0, "name": "616b50ba595b70965cac1b0a3d6d70dc", "type": "electric_scooter", "is_disabled": 0, "lat": 38.889979333333336, "rental_uris": {"android": "https://dc.lft.to/lastmile_qr_scan", "ios": "https://dc.lft.to/lastmile_qr_scan"}, "bike_id": "616b50ba595b70965cac1b0a3d6d70dc", "lon": -77.04896016666666}, {"is_reserved": 0, "fusion_lon": 0.0, "fusion_lat": 0.0, "name": "3127f149a36275122ae81024a6a33e7f", "type": "electric_scooter", "is_disabled": 0, "lat": 38.929743333333334, "rental_uris": {"android": "https://dc.lft.to/lastmile_qr_scan", "ios": "https://dc.lft.to/lastmile_qr_scan"}, "bike_id": "3127f149a36275122ae81024a6a33e7f", "lon": -77.01317516666667}, {"is_reserved": 0, "fusion_lon": 0.0, "fusion_lat": 0.0, "name": "23134a9a107ff4343e4d312ec9f83227", "type": "electric_scooter", "is_disabled": 0, "lat": 38.90714416666667, "rental_uris": {"android": "https://dc.lft.to/lastmile_qr_scan", "ios": "https://dc.lft.to/lastmile_qr_scan"}, "bike_id": "23134a9a107ff4343e4d312ec9f83227", "lon": -77.04354566666666}, {"is_reserved": 0, "fusion_lon": 0.0, "fusion_lat": 0.0, "name": "e85bf6589f060036f619b552ef7e3ad2", "type": "electric_scooter", "is_disabled": 0, "lat": 38.90089183333333, "rental_uris": {"android": "https://dc.lft.to/lastmile_qr_scan", "ios": "https://dc.lft.to/lastmile_qr_scan"}, "bike_id": "e85bf6589f060036f619b552ef7e3ad2", "lon": -76.93020383333334}, {"is_reserved": 0, "fusion_lon": 0.0, "fusion_lat": 0.0, "name": "025867d633fce9e1ec8d77603beb7399", "type": "electric_scooter", "is_disabled": 0, "lat": 38.884139, "rental_uris": {"android": "https://dc.lft.to/lastmile_qr_scan", "ios": "https://dc.lft.to/lastmile_qr_scan"}, "bike_id": "025867d633fce9e1ec8d77603beb7399", "lon": -77.01778366666667}, {"is_reserved": 0, "fusion_lon": 0.0, "fusion_lat": 0.0, "name": "576f1cb9de98dee61e3ea72c723e6974", "type": "electric_bike", "is_disabled": 0, "lat": 38.95649916666667, "rental_uris": {"android": "https://dc.lft.to/lastmile_qr_scan", "ios": "https://dc.lft.to/lastmile_qr_scan"}, "bike_id": "576f1cb9de98dee61e3ea72c723e6974", "lon": -77.01278433333333}, {"is_reserved": 0, "fusion_lon": 0.0, "fusion_lat": 0.0, "name": "4a1cf05194ef622ff660ebbdecf69a78", "type": "electric_scooter", "is_disabled": 0, "lat": 38.91770533333333, "rental_uris": {"android": "https://dc.lft.to/lastmile_qr_scan", "ios": "https://dc.lft.to/lastmile_qr_scan"}, "bike_id": "4a1cf05194ef622ff660ebbdecf69a78", "lon": -77.04060816666667}, {"is_reserved": 0, "fusion_lon": 0.0, "fusion_lat": 0.0, "name": "f42818ec74cd451a99b332bcbf535491", "type": "electric_scooter", "is_disabled": 0, "lat": 38.855352, "rental_uris": {"android": "https://dc.lft.to/lastmile_qr_scan", "ios": "https://dc.lft.to/lastmile_qr_scan"}, "bike_id": "f42818ec74cd451a99b332bcbf535491", "lon": -76.98415666666666}, {"is_reserved": 0, "fusion_lon": 0.0, "fusion_lat": 0.0, "name": "e5252cb713df26bad0c82435f4d33c7f", "type": "electric_bike", "is_disabled": 0, "lat": 38.854802, "rental_uris": {"android": "https://dc.lft.to/lastmile_qr_scan", "ios": "https://dc.lft.to/lastmile_qr_scan"}, "bike_id": "e5252cb713df26bad0c82435f4d33c7f", "lon": -77.11606916666666}, {"is_reserved": 0, "fusion_lon": 0.0, "fusion_lat": 0.0, "name": "6b58355bb8e6a462bb56545a820a9f97", "type": "electric_scooter", "is_disabled": 0, "lat": 38.89866033333333, "rental_uris": {"android": "https://dc.lft.to/lastmile_qr_scan", "ios": "https://dc.lft.to/lastmile_qr_scan"}, "bike_id": "6b58355bb8e6a462bb56545a820a9f97", "lon": -76.946621}, {"is_reserved": 0, "fusion_lon": 0.0, "fusion_lat": 0.0, "name": "9ade9055ab217ad3e35d920a87701388", "type": "electric_scooter", "is_disabled": 0, "lat": 38.900262833333336, "rental_uris": {"android": "https://dc.lft.to/lastmile_qr_scan", "ios": "https://dc.lft.to/lastmile_qr_scan"}, "bike_id": "9ade9055ab217ad3e35d920a87701388", "lon": -76.99622283333333}, {"is_reserved": 0, "fusion_lon": 0.0, "fusion_lat": 0.0, "name": "a6fb99c4928fef11ddca20a7fe98abad", "type": "electric_scooter", "is_disabled": 0, "lat": 38.893492333333334, "rental_uris": {"android": "https://dc.lft.to/lastmile_qr_scan", "ios": "https://dc.lft.to/lastmile_qr_scan"}, "bike_id": "a6fb99c4928fef11ddca20a7fe98abad", "lon": -77.0172365}, {"is_reserved": 0, "fusion_lon": 0.0, "fusion_lat": 0.0, "name": "12b4dbacf799ce35d46344f504ee1c1b", "type": "electric_scooter", "is_disabled": 0, "lat": 38.914086166666664, "rental_uris": {"android": "https://dc.lft.to/lastmile_qr_scan", "ios": "https://dc.lft.to/lastmile_qr_scan"}, "bike_id": "12b4dbacf799ce35d46344f504ee1c1b", "lon": -77.03811516666667}, {"is_reserved": 0, "fusion_lon": 0.0, "fusion_lat": 0.0, "name": "ac816819336dffe43dedb5d13ca0c0e0", "type": "electric_scooter", "is_disabled": 0, "lat": 38.900578, "rental_uris": {"android": "https://dc.lft.to/lastmile_qr_scan", "ios": "https://dc.lft.to/lastmile_qr_scan"}, "bike_id": "ac816819336dffe43dedb5d13ca0c0e0", "lon": -77.048772}, {"is_reserved": 0, "fusion_lon": 0.0, "fusion_lat": 0.0, "name": "1cf85808c6126ba1e7598f20ddb578d0", "type": "electric_scooter", "is_disabled": 0, "lat": 38.906209833333335, "rental_uris": {"android": "https://dc.lft.to/lastmile_qr_scan", "ios": "https://dc.lft.to/lastmile_qr_scan"}, "bike_id": "1cf85808c6126ba1e7598f20ddb578d0", "lon": -77.04655833333334}, {"is_reserved": 0, "fusion_lon": 0.0, "fusion_lat": 0.0, "name": "2ede835c98eb473e2c0d807aa3c10691", "type": "electric_bike", "is_disabled": 0, "lat": 38.87867583333333, "rental_uris": {"android": "https://dc.lft.to/lastmile_qr_scan", "ios": "https://dc.lft.to/lastmile_qr_scan"}, "bike_id": "2ede835c98eb473e2c0d807aa3c10691", "lon": -76.9901665}, {"is_reserved": 0, "fusion_lon": 0.0, "fusion_lat": 0.0, "name": "fcc149579a2155437b4e2d95ef21391e", "type": "electric_scooter", "is_disabled": 0, "lat": 38.91115516666667, "rental_uris": {"android": "https://dc.lft.to/lastmile_qr_scan", "ios": "https://dc.lft.to/lastmile_qr_scan"}, "bike_id": "fcc149579a2155437b4e2d95ef21391e", "lon": -77.031492}, {"is_reserved": 0, "fusion_lon": 0.0, "fusion_lat": 0.0, "name": "62bcb9a4fed84c502e8daa1e0c028fe5", "type": "electric_scooter", "is_disabled": 0, "lat": 38.8961555, "rental_uris": {"android": "https://dc.lft.to/lastmile_qr_scan", "ios": "https://dc.lft.to/lastmile_qr_scan"}, "bike_id": "62bcb9a4fed84c502e8daa1e0c028fe5", "lon": -76.98167516666666}, {"is_reserved": 0, "fusion_lon": 0.0, "fusion_lat": 0.0, "name": "2a781b921e15ec593c9d932a6990a4a9", "type": "electric_bike", "is_disabled": 0, "lat": 38.961858, "rental_uris": {"android": "https://dc.lft.to/lastmile_qr_scan", "ios": "https://dc.lft.to/lastmile_qr_scan"}, "bike_id": "2a781b921e15ec593c9d932a6990a4a9", "lon": -77.07366016666667}, {"is_reserved": 0, "fusion_lon": 0.0, "fusion_lat": 0.0, "name": "e644741cab50d005bf8fb41623e02378", "type": "electric_bike", "is_disabled": 0, "lat": 38.93686616666667, "rental_uris": {"android": "https://dc.lft.to/lastmile_qr_scan", "ios": "https://dc.lft.to/lastmile_qr_scan"}, "bike_id": "e644741cab50d005bf8fb41623e02378", "lon": -76.990608}, {"is_reserved": 0, "fusion_lon": 0.0, "fusion_lat": 0.0, "name": "278a3e45fe3a56804597a3e0a7171ec7", "type": "electric_scooter", "is_disabled": 0, "lat": 38.883857166666665, "rental_uris": {"android": "https://dc.lft.to/lastmile_qr_scan", "ios": "https://dc.lft.to/lastmile_qr_scan"}, "bike_id": "278a3e45fe3a56804597a3e0a7171ec7", "lon": -76.954468}, {"is_reserved": 0, "fusion_lon": 0.0, "fusion_lat": 0.0, "name": "d0aee7d9298c20c69bfe08da84cc1fbf", "type": "electric_scooter", "is_disabled": 0, "lat": 38.9518205, "rental_uris": {"android": "https://dc.lft.to/lastmile_qr_scan", "ios": "https://dc.lft.to/lastmile_qr_scan"}, "bike_id": "d0aee7d9298c20c69bfe08da84cc1fbf", "lon": -77.02612216666667}, {"is_reserved": 0, "fusion_lon": 0.0, "fusion_lat": 0.0, "name": "3b70b2c3cb927f393da59fbd64951e33", "type": "electric_scooter", "is_disabled": 0, "lat": 38.922906833333336, "rental_uris": {"android": "https://dc.lft.to/lastmile_qr_scan", "ios": "https://dc.lft.to/lastmile_qr_scan"}, "bike_id": "3b70b2c3cb927f393da59fbd64951e33", "lon": -77.0426375}, {"is_reserved": 0, "fusion_lon": 0.0, "fusion_lat": 0.0, "name": "88e174e69ea338ebbc97f9c278230b2f", "type": "electric_scooter", "is_disabled": 0, "lat": 38.907935, "rental_uris": {"android": "https://dc.lft.to/lastmile_qr_scan", "ios": "https://dc.lft.to/lastmile_qr_scan"}, "bike_id": "88e174e69ea338ebbc97f9c278230b2f", "lon": -77.031786}, {"is_reserved": 0, "fusion_lon": 0.0, "fusion_lat": 0.0, "name": "f9972f5f7c9a10f88d29c2379a61b9cb", "type": "electric_scooter", "is_disabled": 0, "lat": 38.893619666666666, "rental_uris": {"android": "https://dc.lft.to/lastmile_qr_scan", "ios": "https://dc.lft.to/lastmile_qr_scan"}, "bike_id": "f9972f5f7c9a10f88d29c2379a61b9cb", "lon": -77.0549545}, {"is_reserved": 0, "fusion_lon": 0.0, "fusion_lat": 0.0, "name": "f5fbddd999018358c4c43848e74b166b", "type": "electric_scooter", "is_disabled": 0, "lat": 38.8846985, "rental_uris": {"android": "https://dc.lft.to/lastmile_qr_scan", "ios": "https://dc.lft.to/lastmile_qr_scan"}, "bike_id": "f5fbddd999018358c4c43848e74b166b", "lon": -77.0265805}, {"is_reserved": 0, "fusion_lon": 0.0, "fusion_lat": 0.0, "name": "c1558b0314251a4497264677c4f263ed", "type": "electric_scooter", "is_disabled": 0, "lat": 38.9036335, "rental_uris": {"android": "https://dc.lft.to/lastmile_qr_scan", "ios": "https://dc.lft.to/lastmile_qr_scan"}, "bike_id": "c1558b0314251a4497264677c4f263ed", "lon": -77.04033616666666}, {"is_reserved": 0, "fusion_lon": 0.0, "fusion_lat": 0.0, "name": "f1ed19776d4a33aed17efe9b799f68f4", "type": "electric_scooter", "is_disabled": 0, "lat": 38.89290833333333, "rental_uris": {"android": "https://dc.lft.to/lastmile_qr_scan", "ios": "https://dc.lft.to/lastmile_qr_scan"}, "bike_id": "f1ed19776d4a33aed17efe9b799f68f4", "lon": -76.99818866666666}, {"is_reserved": 0, "fusion_lon": 0.0, "fusion_lat": 0.0, "name": "0f235f4137d45325bb81f840a53d5d3c", "type": "electric_scooter", "is_disabled": 0, "lat": 38.897884833333336, "rental_uris": {"android": "https://dc.lft.to/lastmile_qr_scan", "ios": "https://dc.lft.to/lastmile_qr_scan"}, "bike_id": "0f235f4137d45325bb81f840a53d5d3c", "lon": -77.02490633333333}, {"is_reserved": 0, "fusion_lon": 0.0, "fusion_lat": 0.0, "name": "1c5d390cd5632c528c1aba9320838e85", "type": "electric_scooter", "is_disabled": 0, "lat": 38.918054, "rental_uris": {"android": "https://dc.lft.to/lastmile_qr_scan", "ios": "https://dc.lft.to/lastmile_qr_scan"}, "bike_id": "1c5d390cd5632c528c1aba9320838e85", "lon": -77.03253616666667}, {"is_reserved": 0, "fusion_lon": 0.0, "fusion_lat": 0.0, "name": "95be7199178d90c64eda37dda2919bf9", "type": "electric_scooter", "is_disabled": 0, "lat": 38.90771383333333, "rental_uris": {"android": "https://dc.lft.to/lastmile_qr_scan", "ios": "https://dc.lft.to/lastmile_qr_scan"}, "bike_id": "95be7199178d90c64eda37dda2919bf9", "lon": -77.0382575}, {"is_reserved": 0, "fusion_lon": 0.0, "fusion_lat": 0.0, "name": "2c58845b5c487a20d9ad23da35314538", "type": "electric_scooter", "is_disabled": 0, "lat": 38.950351166666664, "rental_uris": {"android": "https://dc.lft.to/lastmile_qr_scan", "ios": "https://dc.lft.to/lastmile_qr_scan"}, "bike_id": "2c58845b5c487a20d9ad23da35314538", "lon": -77.0668825}, {"is_reserved": 0, "fusion_lon": 0.0, "fusion_lat": 0.0, "name": "9897dfb8dbca8eec73dfa76d2bae4951", "type": "electric_scooter", "is_disabled": 0, "lat": 38.934593666666665, "rental_uris": {"android": "https://dc.lft.to/lastmile_qr_scan", "ios": "https://dc.lft.to/lastmile_qr_scan"}, "bike_id": "9897dfb8dbca8eec73dfa76d2bae4951", "lon": -77.03047016666666}, {"is_reserved": 0, "fusion_lon": 0.0, "fusion_lat": 0.0, "name": "bbdd14a82002c29e1082397df59aa3a1", "type": "electric_scooter", "is_disabled": 0, "lat": 38.917989666666664, "rental_uris": {"android": "https://dc.lft.to/lastmile_qr_scan", "ios": "https://dc.lft.to/lastmile_qr_scan"}, "bike_id": "bbdd14a82002c29e1082397df59aa3a1", "lon": -77.032048}, {"is_reserved": 0, "fusion_lon": 0.0, "fusion_lat": 0.0, "name": "1ccd0e8b12c86e83786ca415fae0b72a", "type": "electric_scooter", "is_disabled": 0, "lat": 38.95055033333333, "rental_uris": {"android": "https://dc.lft.to/lastmile_qr_scan", "ios": "https://dc.lft.to/lastmile_qr_scan"}, "bike_id": "1ccd0e8b12c86e83786ca415fae0b72a", "lon": -77.00727466666666}, {"is_reserved": 0, "fusion_lon": 0.0, "fusion_lat": 0.0, "name": "9b49abfc0eb0ed76e85ce7edd3cb9f39", "type": "electric_scooter", "is_disabled": 0, "lat": 38.91275516666666, "rental_uris": {"android": "https://dc.lft.to/lastmile_qr_scan", "ios": "https://dc.lft.to/lastmile_qr_scan"}, "bike_id": "9b49abfc0eb0ed76e85ce7edd3cb9f39", "lon": -77.03131283333333}, {"is_reserved": 0, "fusion_lon": 0.0, "fusion_lat": 0.0, "name": "830fe759ade8fecaf18aa662c8409424", "type": "electric_scooter", "is_disabled": 0, "lat": 38.896119666666664, "rental_uris": {"android": "https://dc.lft.to/lastmile_qr_scan", "ios": "https://dc.lft.to/lastmile_qr_scan"}, "bike_id": "830fe759ade8fecaf18aa662c8409424", "lon": -76.9929545}, {"is_reserved": 0, "fusion_lon": 0.0, "fusion_lat": 0.0, "name": "20de4cc1056bf54dd6bb97cecc27bbe0", "type": "electric_scooter", "is_disabled": 0, "lat": 38.9132775, "rental_uris": {"android": "https://dc.lft.to/lastmile_qr_scan", "ios": "https://dc.lft.to/lastmile_qr_scan"}, "bike_id": "20de4cc1056bf54dd6bb97cecc27bbe0", "lon": -77.048193}, {"is_reserved": 0, "fusion_lon": 0.0, "fusion_lat": 0.0, "name": "be5981acf5c907b028eb0d2c5c0ff276", "type": "electric_scooter", "is_disabled": 0, "lat": 38.89215683333333, "rental_uris": {"android": "https://dc.lft.to/lastmile_qr_scan", "ios": "https://dc.lft.to/lastmile_qr_scan"}, "bike_id": "be5981acf5c907b028eb0d2c5c0ff276", "lon": -77.03160183333334}, {"is_reserved": 0, "fusion_lon": 0.0, "fusion_lat": 0.0, "name": "5776904c2cf3923455dd0564b42e40df", "type": "electric_scooter", "is_disabled": 0, "lat": 38.8899175, "rental_uris": {"android": "https://dc.lft.to/lastmile_qr_scan", "ios": "https://dc.lft.to/lastmile_qr_scan"}, "bike_id": "5776904c2cf3923455dd0564b42e40df", "lon": -76.93108933333333}, {"is_reserved": 0, "fusion_lon": 0.0, "fusion_lat": 0.0, "name": "dcf5686fab9e41a3dd969484e7a76839", "type": "electric_scooter", "is_disabled": 0, "lat": 38.92230266666667, "rental_uris": {"android": "https://dc.lft.to/lastmile_qr_scan", "ios": "https://dc.lft.to/lastmile_qr_scan"}, "bike_id": "dcf5686fab9e41a3dd969484e7a76839", "lon": -76.97530733333333}, {"is_reserved": 0, "fusion_lon": 0.0, "fusion_lat": 0.0, "name": "194beebb1a6c2a856c5f9813d959f775", "type": "electric_scooter", "is_disabled": 0, "lat": 38.90880283333333, "rental_uris": {"android": "https://dc.lft.to/lastmile_qr_scan", "ios": "https://dc.lft.to/lastmile_qr_scan"}, "bike_id": "194beebb1a6c2a856c5f9813d959f775", "lon": -77.07305616666666}, {"is_reserved": 0, "fusion_lon": 0.0, "fusion_lat": 0.0, "name": "5e16f663b1d81f5e0ffbfeba159ef34f", "type": "electric_scooter", "is_disabled": 0, "lat": 38.916880666666664, "rental_uris": {"android": "https://dc.lft.to/lastmile_qr_scan", "ios": "https://dc.lft.to/lastmile_qr_scan"}, "bike_id": "5e16f663b1d81f5e0ffbfeba159ef34f", "lon": -77.03217816666667}, {"is_reserved": 0, "fusion_lon": 0.0, "fusion_lat": 0.0, "name": "9ad54f0745dd7ee4e1e027f38c93191e", "type": "electric_scooter", "is_disabled": 0, "lat": 38.89225533333333, "rental_uris": {"android": "https://dc.lft.to/lastmile_qr_scan", "ios": "https://dc.lft.to/lastmile_qr_scan"}, "bike_id": "9ad54f0745dd7ee4e1e027f38c93191e", "lon": -77.043774}, {"is_reserved": 0, "fusion_lon": 0.0, "fusion_lat": 0.0, "name": "9837fb5f10496e3fdb95098b7d9ef928", "type": "electric_scooter", "is_disabled": 0, "lat": 38.945281, "rental_uris": {"android": "https://dc.lft.to/lastmile_qr_scan", "ios": "https://dc.lft.to/lastmile_qr_scan"}, "bike_id": "9837fb5f10496e3fdb95098b7d9ef928", "lon": -77.02089166666667}, {"is_reserved": 0, "fusion_lon": 0.0, "fusion_lat": 0.0, "name": "081d2a41b64623174be321c0b46be043", "type": "electric_scooter", "is_disabled": 0, "lat": 38.92387983333333, "rental_uris": {"android": "https://dc.lft.to/lastmile_qr_scan", "ios": "https://dc.lft.to/lastmile_qr_scan"}, "bike_id": "081d2a41b64623174be321c0b46be043", "lon": -77.03539083333334}, {"is_reserved": 0, "fusion_lon": 0.0, "fusion_lat": 0.0, "name": "17274d07170892c09e1f1af696c7c097", "type": "electric_scooter", "is_disabled": 0, "lat": 38.9060075, "rental_uris": {"android": "https://dc.lft.to/lastmile_qr_scan", "ios": "https://dc.lft.to/lastmile_qr_scan"}, "bike_id": "17274d07170892c09e1f1af696c7c097", "lon": -76.98518033333333}, {"is_reserved": 0, "fusion_lon": 0.0, "fusion_lat": 0.0, "name": "c658dbf2caaa4b086603aca070bf6522", "type": "electric_scooter", "is_disabled": 0, "lat": 38.89180116666667, "rental_uris": {"android": "https://dc.lft.to/lastmile_qr_scan", "ios": "https://dc.lft.to/lastmile_qr_scan"}, "bike_id": "c658dbf2caaa4b086603aca070bf6522", "lon": -76.91193033333333}, {"is_reserved": 0, "fusion_lon": 0.0, "fusion_lat": 0.0, "name": "06be9732c5f862e0679524e152143b81", "type": "electric_scooter", "is_disabled": 0, "lat": 38.91127316666667, "rental_uris": {"android": "https://dc.lft.to/lastmile_qr_scan", "ios": "https://dc.lft.to/lastmile_qr_scan"}, "bike_id": "06be9732c5f862e0679524e152143b81", "lon": -77.04345683333334}, {"is_reserved": 0, "fusion_lon": 0.0, "fusion_lat": 0.0, "name": "8b79fc7447d1da562100984170d22880", "type": "electric_scooter", "is_disabled": 0, "lat": 38.92149466666667, "rental_uris": {"android": "https://dc.lft.to/lastmile_qr_scan", "ios": "https://dc.lft.to/lastmile_qr_scan"}, "bike_id": "8b79fc7447d1da562100984170d22880", "lon": -77.0210315}, {"is_reserved": 0, "fusion_lon": 0.0, "fusion_lat": 0.0, "name": "14508542fb82a217fe97ca941c8958c7", "type": "electric_scooter", "is_disabled": 0, "lat": 38.914609166666665, "rental_uris": {"android": "https://dc.lft.to/lastmile_qr_scan", "ios": "https://dc.lft.to/lastmile_qr_scan"}, "bike_id": "14508542fb82a217fe97ca941c8958c7", "lon": -77.02080783333334}, {"is_reserved": 0, "fusion_lon": 0.0, "fusion_lat": 0.0, "name": "a5d196f7f4e6399564fedd468d59c1d8", "type": "electric_scooter", "is_disabled": 0, "lat": 38.8915095, "rental_uris": {"android": "https://dc.lft.to/lastmile_qr_scan", "ios": "https://dc.lft.to/lastmile_qr_scan"}, "bike_id": "a5d196f7f4e6399564fedd468d59c1d8", "lon": -76.98379983333334}, {"is_reserved": 0, "fusion_lon": 0.0, "fusion_lat": 0.0, "name": "df2e15f237bdbffd6507d4552b14bdac", "type": "electric_scooter", "is_disabled": 0, "lat": 38.900588666666664, "rental_uris": {"android": "https://dc.lft.to/lastmile_qr_scan", "ios": "https://dc.lft.to/lastmile_qr_scan"}, "bike_id": "df2e15f237bdbffd6507d4552b14bdac", "lon": -77.04878283333333}, {"is_reserved": 0, "fusion_lon": 0.0, "fusion_lat": 0.0, "name": "3833bc411c87e031502b2216ffc107d9", "type": "electric_scooter", "is_disabled": 0, "lat": 38.871624833333335, "rental_uris": {"android": "https://dc.lft.to/lastmile_qr_scan", "ios": "https://dc.lft.to/lastmile_qr_scan"}, "bike_id": "3833bc411c87e031502b2216ffc107d9", "lon": -76.97744066666667}, {"is_reserved": 0, "fusion_lon": 0.0, "fusion_lat": 0.0, "name": "fd78c4437f24e325c036aa64665d9979", "type": "electric_scooter", "is_disabled": 0, "lat": 38.9180565, "rental_uris": {"android": "https://dc.lft.to/lastmile_qr_scan", "ios": "https://dc.lft.to/lastmile_qr_scan"}, "bike_id": "fd78c4437f24e325c036aa64665d9979", "lon": -77.02492316666667}, {"is_reserved": 0, "fusion_lon": 0.0, "fusion_lat": 0.0, "name": "b1d9ce8ecc3751f410c368b546b02c0f", "type": "electric_scooter", "is_disabled": 0, "lat": 38.92014283333334, "rental_uris": {"android": "https://dc.lft.to/lastmile_qr_scan", "ios": "https://dc.lft.to/lastmile_qr_scan"}, "bike_id": "b1d9ce8ecc3751f410c368b546b02c0f", "lon": -77.03470516666667}, {"is_reserved": 0, "fusion_lon": 0.0, "fusion_lat": 0.0, "name": "a3f9ab5659ea0e78f2b4aed0bf61e524", "type": "electric_scooter", "is_disabled": 0, "lat": 38.91718566666667, "rental_uris": {"android": "https://dc.lft.to/lastmile_qr_scan", "ios": "https://dc.lft.to/lastmile_qr_scan"}, "bike_id": "a3f9ab5659ea0e78f2b4aed0bf61e524", "lon": -77.03663133333333}, {"is_reserved": 0, "fusion_lon": 0.0, "fusion_lat": 0.0, "name": "7e7ea3de6f117a5bff39876ff768011e", "type": "electric_scooter", "is_disabled": 0, "lat": 38.91274583333333, "rental_uris": {"android": "https://dc.lft.to/lastmile_qr_scan", "ios": "https://dc.lft.to/lastmile_qr_scan"}, "bike_id": "7e7ea3de6f117a5bff39876ff768011e", "lon": -77.0450915}, {"is_reserved": 0, "fusion_lon": 0.0, "fusion_lat": 0.0, "name": "17fc81a4149b13cd97a0314168ac800b", "type": "electric_scooter", "is_disabled": 0, "lat": 38.92450633333333, "rental_uris": {"android": "https://dc.lft.to/lastmile_qr_scan", "ios": "https://dc.lft.to/lastmile_qr_scan"}, "bike_id": "17fc81a4149b13cd97a0314168ac800b", "lon": -77.03281316666667}, {"is_reserved": 0, "fusion_lon": 0.0, "fusion_lat": 0.0, "name": "1bc4dcc6ba5536a70ca39b2661d19c0f", "type": "electric_scooter", "is_disabled": 0, "lat": 38.909664666666664, "rental_uris": {"android": "https://dc.lft.to/lastmile_qr_scan", "ios": "https://dc.lft.to/lastmile_qr_scan"}, "bike_id": "1bc4dcc6ba5536a70ca39b2661d19c0f", "lon": -77.0341295}, {"is_reserved": 0, "fusion_lon": 0.0, "fusion_lat": 0.0, "name": "8d57da8649521a8b90b0d2e2549dee30", "type": "electric_scooter", "is_disabled": 0, "lat": 38.88992616666667, "rental_uris": {"android": "https://dc.lft.to/lastmile_qr_scan", "ios": "https://dc.lft.to/lastmile_qr_scan"}, "bike_id": "8d57da8649521a8b90b0d2e2549dee30", "lon": -77.04891683333334}, {"is_reserved": 0, "fusion_lon": 0.0, "fusion_lat": 0.0, "name": "40b4b5332e0d1104cd92f4f9489050dc", "type": "electric_scooter", "is_disabled": 0, "lat": 38.86252283333334, "rental_uris": {"android": "https://dc.lft.to/lastmile_qr_scan", "ios": "https://dc.lft.to/lastmile_qr_scan"}, "bike_id": "40b4b5332e0d1104cd92f4f9489050dc", "lon": -76.99515383333333}, {"is_reserved": 0, "fusion_lon": 0.0, "fusion_lat": 0.0, "name": "510d42df244b797f6e83c81bc702fb1d", "type": "electric_scooter", "is_disabled": 0, "lat": 38.88739966666667, "rental_uris": {"android": "https://dc.lft.to/lastmile_qr_scan", "ios": "https://dc.lft.to/lastmile_qr_scan"}, "bike_id": "510d42df244b797f6e83c81bc702fb1d", "lon": -77.02209066666667}, {"is_reserved": 0, "fusion_lon": 0.0, "fusion_lat": 0.0, "name": "8ddee7e634ea82828280d57b5f8f5939", "type": "electric_scooter", "is_disabled": 0, "lat": 38.88594783333333, "rental_uris": {"android": "https://dc.lft.to/lastmile_qr_scan", "ios": "https://dc.lft.to/lastmile_qr_scan"}, "bike_id": "8ddee7e634ea82828280d57b5f8f5939", "lon": -76.99100766666666}, {"is_reserved": 0, "fusion_lon": 0.0, "fusion_lat": 0.0, "name": "bb7957303bc260d08d6cdbf8dd0f9dad", "type": "electric_scooter", "is_disabled": 0, "lat": 38.922465, "rental_uris": {"android": "https://dc.lft.to/lastmile_qr_scan", "ios": "https://dc.lft.to/lastmile_qr_scan"}, "bike_id": "bb7957303bc260d08d6cdbf8dd0f9dad", "lon": -77.03081283333333}, {"is_reserved": 0, "fusion_lon": 0.0, "fusion_lat": 0.0, "name": "89c14a05a489eea06fa65673b3e98233", "type": "electric_scooter", "is_disabled": 0, "lat": 38.91550683333333, "rental_uris": {"android": "https://dc.lft.to/lastmile_qr_scan", "ios": "https://dc.lft.to/lastmile_qr_scan"}, "bike_id": "89c14a05a489eea06fa65673b3e98233", "lon": -77.022087}, {"is_reserved": 0, "fusion_lon": 0.0, "fusion_lat": 0.0, "name": "d0857bc28cb371616358b4928ab69718", "type": "electric_scooter", "is_disabled": 0, "lat": 38.92342266666667, "rental_uris": {"android": "https://dc.lft.to/lastmile_qr_scan", "ios": "https://dc.lft.to/lastmile_qr_scan"}, "bike_id": "d0857bc28cb371616358b4928ab69718", "lon": -77.05123183333333}, {"is_reserved": 0, "fusion_lon": 0.0, "fusion_lat": 0.0, "name": "47afc1eb026bcc842b9faf545138e1e5", "type": "electric_scooter", "is_disabled": 0, "lat": 38.9176985, "rental_uris": {"android": "https://dc.lft.to/lastmile_qr_scan", "ios": "https://dc.lft.to/lastmile_qr_scan"}, "bike_id": "47afc1eb026bcc842b9faf545138e1e5", "lon": -77.02312433333333}, {"is_reserved": 0, "fusion_lon": 0.0, "fusion_lat": 0.0, "name": "b0a3fbb779353b08143b97f2b944ad99", "type": "electric_scooter", "is_disabled": 0, "lat": 38.88133633333333, "rental_uris": {"android": "https://dc.lft.to/lastmile_qr_scan", "ios": "https://dc.lft.to/lastmile_qr_scan"}, "bike_id": "b0a3fbb779353b08143b97f2b944ad99", "lon": -77.01692416666667}, {"is_reserved": 0, "fusion_lon": 0.0, "fusion_lat": 0.0, "name": "9c06323eed012b3b96751a8c5c3c66fa", "type": "electric_scooter", "is_disabled": 0, "lat": 38.904633833333335, "rental_uris": {"android": "https://dc.lft.to/lastmile_qr_scan", "ios": "https://dc.lft.to/lastmile_qr_scan"}, "bike_id": "9c06323eed012b3b96751a8c5c3c66fa", "lon": -77.0448695}, {"is_reserved": 0, "fusion_lon": 0.0, "fusion_lat": 0.0, "name": "bf401cebc00c5954314e43caafad3abb", "type": "electric_scooter", "is_disabled": 0, "lat": 38.904238166666666, "rental_uris": {"android": "https://dc.lft.to/lastmile_qr_scan", "ios": "https://dc.lft.to/lastmile_qr_scan"}, "bike_id": "bf401cebc00c5954314e43caafad3abb", "lon": -77.05336983333333}, {"is_reserved": 0, "fusion_lon": 0.0, "fusion_lat": 0.0, "name": "784d0378b3aad7a0118370ec71d78247", "type": "electric_scooter", "is_disabled": 0, "lat": 38.921964833333334, "rental_uris": {"android": "https://dc.lft.to/lastmile_qr_scan", "ios": "https://dc.lft.to/lastmile_qr_scan"}, "bike_id": "784d0378b3aad7a0118370ec71d78247", "lon": -77.04017616666667}, {"is_reserved": 0, "fusion_lon": 0.0, "fusion_lat": 0.0, "name": "b07baef96e2850aab69b0cd232739c90", "type": "electric_scooter", "is_disabled": 0, "lat": 38.9081895, "rental_uris": {"android": "https://dc.lft.to/lastmile_qr_scan", "ios": "https://dc.lft.to/lastmile_qr_scan"}, "bike_id": "b07baef96e2850aab69b0cd232739c90", "lon": -77.03839066666667}, {"is_reserved": 0, "fusion_lon": 0.0, "fusion_lat": 0.0, "name": "30d32fd454bc8bcf1798795f6dd2cfe9", "type": "electric_scooter", "is_disabled": 0, "lat": 38.89311766666667, "rental_uris": {"android": "https://dc.lft.to/lastmile_qr_scan", "ios": "https://dc.lft.to/lastmile_qr_scan"}, "bike_id": "30d32fd454bc8bcf1798795f6dd2cfe9", "lon": -77.018008}, {"is_reserved": 0, "fusion_lon": 0.0, "fusion_lat": 0.0, "name": "0628bb696cd19bc40f3216b3635dd9e5", "type": "electric_scooter", "is_disabled": 0, "lat": 38.89168466666667, "rental_uris": {"android": "https://dc.lft.to/lastmile_qr_scan", "ios": "https://dc.lft.to/lastmile_qr_scan"}, "bike_id": "0628bb696cd19bc40f3216b3635dd9e5", "lon": -76.951848}, {"is_reserved": 0, "fusion_lon": 0.0, "fusion_lat": 0.0, "name": "c3fa497b0df363b55d1d00a760259578", "type": "electric_scooter", "is_disabled": 0, "lat": 38.90350683333333, "rental_uris": {"android": "https://dc.lft.to/lastmile_qr_scan", "ios": "https://dc.lft.to/lastmile_qr_scan"}, "bike_id": "c3fa497b0df363b55d1d00a760259578", "lon": -77.04192116666667}, {"is_reserved": 0, "fusion_lon": 0.0, "fusion_lat": 0.0, "name": "5dfeb6e87c2135748edc9a60c37ccd20", "type": "electric_scooter", "is_disabled": 0, "lat": 38.90233416666667, "rental_uris": {"android": "https://dc.lft.to/lastmile_qr_scan", "ios": "https://dc.lft.to/lastmile_qr_scan"}, "bike_id": "5dfeb6e87c2135748edc9a60c37ccd20", "lon": -77.0534075}, {"is_reserved": 0, "fusion_lon": 0.0, "fusion_lat": 0.0, "name": "9ad3707a5d750e5517aa275aa9e6cd01", "type": "electric_scooter", "is_disabled": 0, "lat": 38.877838, "rental_uris": {"android": "https://dc.lft.to/lastmile_qr_scan", "ios": "https://dc.lft.to/lastmile_qr_scan"}, "bike_id": "9ad3707a5d750e5517aa275aa9e6cd01", "lon": -76.99412416666667}, {"is_reserved": 0, "fusion_lon": 0.0, "fusion_lat": 0.0, "name": "187771a70bcfafaccc6f3ca950e22b4a", "type": "electric_bike", "is_disabled": 0, "lat": 38.9564675, "rental_uris": {"android": "https://dc.lft.to/lastmile_qr_scan", "ios": "https://dc.lft.to/lastmile_qr_scan"}, "bike_id": "187771a70bcfafaccc6f3ca950e22b4a", "lon": -77.02256966666667}, {"is_reserved": 0, "fusion_lon": 0.0, "fusion_lat": 0.0, "name": "b5eec50eb4b1240bce75f8360ae5c9a3", "type": "electric_scooter", "is_disabled": 0, "lat": 38.8873635, "rental_uris": {"android": "https://dc.lft.to/lastmile_qr_scan", "ios": "https://dc.lft.to/lastmile_qr_scan"}, "bike_id": "b5eec50eb4b1240bce75f8360ae5c9a3", "lon": -77.02210016666666}, {"is_reserved": 0, "fusion_lon": 0.0, "fusion_lat": 0.0, "name": "3c37e7255fcc9e6d133f24ba2aa692e3", "type": "electric_bike", "is_disabled": 0, "lat": 38.806552833333335, "rental_uris": {"android": "https://dc.lft.to/lastmile_qr_scan", "ios": "https://dc.lft.to/lastmile_qr_scan"}, "bike_id": "3c37e7255fcc9e6d133f24ba2aa692e3", "lon": -77.08756983333333}, {"is_reserved": 0, "fusion_lon": 0.0, "fusion_lat": 0.0, "name": "dd52cf8b72be659090dae9e9e6b4d5a7", "type": "electric_scooter", "is_disabled": 0, "lat": 38.9772965, "rental_uris": {"android": "https://dc.lft.to/lastmile_qr_scan", "ios": "https://dc.lft.to/lastmile_qr_scan"}, "bike_id": "dd52cf8b72be659090dae9e9e6b4d5a7", "lon": -77.0172695}, {"is_reserved": 0, "fusion_lon": 0.0, "fusion_lat": 0.0, "name": "dc7c51a2eb9b2371d519810e8d57b482", "type": "electric_bike", "is_disabled": 0, "lat": 38.79673066666667, "rental_uris": {"android": "https://dc.lft.to/lastmile_qr_scan", "ios": "https://dc.lft.to/lastmile_qr_scan"}, "bike_id": "dc7c51a2eb9b2371d519810e8d57b482", "lon": -76.9933305}, {"is_reserved": 0, "fusion_lon": 0.0, "fusion_lat": 0.0, "name": "68aa6f594243218f563fdcaf6b92f206", "type": "electric_scooter", "is_disabled": 0, "lat": 38.892246166666666, "rental_uris": {"android": "https://dc.lft.to/lastmile_qr_scan", "ios": "https://dc.lft.to/lastmile_qr_scan"}, "bike_id": "68aa6f594243218f563fdcaf6b92f206", "lon": -77.04504266666666}, {"is_reserved": 0, "fusion_lon": 0.0, "fusion_lat": 0.0, "name": "9c7fb7256dad49f6b865556e7e265800", "type": "electric_scooter", "is_disabled": 0, "lat": 38.906353833333334, "rental_uris": {"android": "https://dc.lft.to/lastmile_qr_scan", "ios": "https://dc.lft.to/lastmile_qr_scan"}, "bike_id": "9c7fb7256dad49f6b865556e7e265800", "lon": -77.04767366666667}, {"is_reserved": 0, "fusion_lon": 0.0, "fusion_lat": 0.0, "name": "4cfba9ff689704df630de08979a28b55", "type": "electric_scooter", "is_disabled": 0, "lat": 38.9223325, "rental_uris": {"android": "https://dc.lft.to/lastmile_qr_scan", "ios": "https://dc.lft.to/lastmile_qr_scan"}, "bike_id": "4cfba9ff689704df630de08979a28b55", "lon": -77.02334566666667}, {"is_reserved": 0, "fusion_lon": 0.0, "fusion_lat": 0.0, "name": "4b6f3fd8027104690d598b17d798aa5c", "type": "electric_scooter", "is_disabled": 0, "lat": 38.86401866666667, "rental_uris": {"android": "https://dc.lft.to/lastmile_qr_scan", "ios": "https://dc.lft.to/lastmile_qr_scan"}, "bike_id": "4b6f3fd8027104690d598b17d798aa5c", "lon": -76.97429833333334}, {"is_reserved": 0, "fusion_lon": 0.0, "fusion_lat": 0.0, "name": "f04050f42c51ca1085c87c5ed01cb54f", "type": "electric_scooter", "is_disabled": 0, "lat": 38.9067395, "rental_uris": {"android": "https://dc.lft.to/lastmile_qr_scan", "ios": "https://dc.lft.to/lastmile_qr_scan"}, "bike_id": "f04050f42c51ca1085c87c5ed01cb54f", "lon": -77.03841}, {"is_reserved": 0, "fusion_lon": 0.0, "fusion_lat": 0.0, "name": "c38aa4aca726bb1453ad3d42ef52d4e1", "type": "electric_scooter", "is_disabled": 0, "lat": 38.8606565, "rental_uris": {"android": "https://dc.lft.to/lastmile_qr_scan", "ios": "https://dc.lft.to/lastmile_qr_scan"}, "bike_id": "c38aa4aca726bb1453ad3d42ef52d4e1", "lon": -76.9688815},