{"data": {"bikes": [{"rental_uris": {"ios": "https://dc.lft.to/lastmile_qr_scan", "android": "https://dc.lft.to/lastmile_qr_scan"}, "type": "electric_scooter", "name": "23c01630341678e7a3980bb1e4c9d070", "is_reserved": 0, "lon": -77.04344233333333, "is_disabled": 0, "fusion_lat": 0.0, "lat": 38.91367316666667, "bike_id": "23c01630341678e7a3980bb1e4c9d070", "fusion_lon": 0.0}, {"rental_uris": {"ios": "https://dc.lft.to/lastmile_qr_scan", "android": "https://dc.lft.to/lastmile_qr_scan"}, "type": "electric_scooter", "name": "aa355180d89277c38e1fe7f7c15f55f2", "is_reserved": 0, "lon": -77.01579533333333, "is_disabled": 0, "fusion_lat": 0.0, "lat": 38.87652883333333, "bike_id": "aa355180d89277c38e1fe7f7c15f55f2", "fusion_lon": 0.0}, {"rental_uris": {"ios": "https://dc.lft.to/lastmile_qr_scan", "android": "https://dc.lft.to/lastmile_qr_scan"}, "type": "electric_scooter", "name": "87beb92b757ff3c8d935928a1140bf17", "is_reserved": 0, "lon": -77.02204916666666, "is_disabled": 0, "fusion_lat": 0.0, "lat": 38.89232616666666, "bike_id": "87beb92b757ff3c8d935928a1140bf17", "fusion_lon": 0.0}, {"rental_uris": {"ios": "https://dc.lft.to/lastmile_qr_scan", "android": "https://dc.lft.to/lastmile_qr_scan"}, "type": "electric_scooter", "name": "616153e93a37b738b9b69e50797986e9", "is_reserved": 0, "lon": -77.04558266666666, "is_disabled": 0, "fusion_lat": 0.0, "lat": 38.9007805, "bike_id": "616153e93a37b738b9b69e50797986e9", "fusion_lon": 0.0}, {"rental_uris": {"ios": "https://dc.lft.to/lastmile_qr_scan", "android": "https://dc.lft.to/lastmile_qr_scan"}, "type": "electric_bike", "name": "b813e903f1d77d655e4dc221875f4c1a", "is_reserved": 0, "lon": -77.06414016666666, "is_disabled": 0, "fusion_lat": 0.0, "lat": 38.906367333333336, "bike_id": "b813e903f1d77d655e4dc221875f4c1a", "fusion_lon": 0.0}, {"rental_uris": {"ios": "https://dc.lft.to/lastmile_qr_scan", "android": "https://dc.lft.to/lastmile_qr_scan"}, "type": "electric_scooter", "name": "3e1f5033a4e4b3a5ecb655a23c6c87da", "is_reserved": 0, "lon": -77.04531316666667, "is_disabled": 0, "fusion_lat": 0.0, "lat": 38.91127083333333, "bike_id": "3e1f5033a4e4b3a5ecb655a23c6c87da", "fusion_lon": 0.0}, {"rental_uris": {"ios": "https://dc.lft.to/lastmile_qr_scan", "android": "https://dc.lft.to/lastmile_qr_scan"}, "type": "electric_scooter", "name": "8c8d02f4a32724273d8365137bdce1a0", "is_reserved": 0, "lon": -77.03192266666667, "is_disabled": 0, "fusion_lat": 0.0, "lat": 38.916372833333334, "bike_id": "8c8d02f4a32724273d8365137bdce1a0", "fusion_lon": 0.0}, {"rental_uris": {"ios": "https://dc.lft.to/lastmile_qr_scan", "android": "https://dc.lft.to/lastmile_qr_scan"}, "type": "electric_scooter", "name": "d51b17ec438c7a8b8edc0635ce6faf18", "is_reserved": 0, "lon": -77.0182095, "is_disabled": 0, "fusion_lat": 0.0, "lat": 38.9222295, "bike_id": "d51b17ec438c7a8b8edc0635ce6faf18", "fusion_lon": 0.0}, {"rental_uris": {"ios": "https://dc.lft.to/lastmile_qr_scan", "android": "https://dc.lft.to/lastmile_qr_scan"}, "type": "electric_scooter", "name": "4be1f8908d93348278bd38dc11e5c830", "is_reserved": 0, "lon": -77.05333916666666, "is_disabled": 0, "fusion_lat": 0.0, "lat": 38.902445666666665, "bike_id": "4be1f8908d93348278bd38dc11e5c830", "fusion_lon": 0.0}, {"rental_uris": {"ios": "https://dc.lft.to/lastmile_qr_scan", "android": "https://dc.lft.to/lastmile_qr_scan"}, "type": "electric_scooter", "name": "1b1b3c1f74082d512364c191b3e916e2", "is_reserved": 0, "lon": -77.037403, "is_disabled": 0, "fusion_lat": 0.0, "lat": 38.87996733333333, "bike_id": "1b1b3c1f74082d512364c191b3e916e2", "fusion_lon": 0.0}, {"rental_uris": {"ios": "https://dc.lft.to/lastmile_qr_scan", "android": "https://dc.lft.to/lastmile_qr_scan"}, "type": "electric_scooter", "name": "8aec7fe0979929ee390e705c7e533d13", "is_reserved": 0, "lon": -76.981563, "is_disabled": 0, "fusion_lat": 0.0, "lat": 38.899375166666665, "bike_id": "8aec7fe0979929ee390e705c7e533d13", "fusion_lon": 0.0}, {"rental_uris": {"ios": "https://dc.lft.to/lastmile_qr_scan", "android": "https://dc.lft.to/lastmile_qr_scan"}, "type": "electric_scooter", "name": "815ec2ac79af0d61e4b95c2cb92b5446", "is_reserved": 0, "lon": -77.021367, "is_disabled": 0, "fusion_lat": 0.0, "lat": 38.90305683333333, "bike_id": "815ec2ac79af0d61e4b95c2cb92b5446", "fusion_lon": 0.0}, {"rental_uris": {"ios": "https://dc.lft.to/lastmile_qr_scan", "android": "https://dc.lft.to/lastmile_qr_scan"}, "type": "electric_bike", "name": "3808a6ddf6b0efa5253e48abe7589d42", "is_reserved": 0, "lon": -76.980208, "is_disabled": 0, "fusion_lat": 0.0, "lat": 38.85315133333334, "bike_id": "3808a6ddf6b0efa5253e48abe7589d42", "fusion_lon": 0.0}, {"rental_uris": {"ios": "https://dc.lft.to/lastmile_qr_scan", "android": "https://dc.lft.to/lastmile_qr_scan"}, "type": "electric_scooter", "name": "755ba477beefb64be0d7c17d428382ec", "is_reserved": 0, "lon": -77.02290516666666, "is_disabled": 0, "fusion_lat": 0.0, "lat": 38.916577833333335, "bike_id": "755ba477beefb64be0d7c17d428382ec", "fusion_lon": 0.0}, {"rental_uris": {"ios": "https://dc.lft.to/lastmile_qr_scan", "android": "https://dc.lft.to/lastmile_qr_scan"}, "type": "electric_scooter", "name": "0a8ab990045914eb44301d53bee24ef3", "is_reserved": 0, "lon": -77.0296515, "is_disabled": 0, "fusion_lat": 0.0, "lat": 38.9252265, "bike_id": "0a8ab990045914eb44301d53bee24ef3", "fusion_lon": 0.0}, {"rental_uris": {"ios": "https://dc.lft.to/lastmile_qr_scan", "android": "https://dc.lft.to/lastmile_qr_scan"}, "type": "electric_scooter", "name": "4de274881d828dc232a6190a8b293e66", "is_reserved": 0, "lon": -77.04211266666667, "is_disabled": 0, "fusion_lat": 0.0, "lat": 38.9213175, "bike_id": "4de274881d828dc232a6190a8b293e66", "fusion_lon": 0.0}, {"rental_uris": {"ios": "https://dc.lft.to/lastmile_qr_scan", "android": "https://dc.lft.to/lastmile_qr_scan"}, "type": "electric_scooter", "name": "d82143fa5532f9b59e3add3b73e4c7e0", "is_reserved": 0, "lon": -77.00623716666666, "is_disabled": 0, "fusion_lat": 0.0, "lat": 38.87172733333333, "bike_id": "d82143fa5532f9b59e3add3b73e4c7e0", "fusion_lon": 0.0}, {"rental_uris": {"ios": "https://dc.lft.to/lastmile_qr_scan", "android": "https://dc.lft.to/lastmile_qr_scan"}, "type": "electric_scooter", "name": "27595738ef6f7533739b06a4751480bc", "is_reserved": 0, "lon": -77.005271, "is_disabled": 0, "fusion_lat": 0.0, "lat": 38.876558, "bike_id": "27595738ef6f7533739b06a4751480bc", "fusion_lon": 0.0}, {"rental_uris": {"ios": "https://dc.lft.to/lastmile_qr_scan", "android": "https://dc.lft.to/lastmile_qr_scan"}, "type": "electric_scooter", "name": "1b39e1ee69582faa4b5edf0451bda1be", "is_reserved": 0, "lon": -77.038216, "is_disabled": 0, "fusion_lat": 0.0, "lat": 38.921694, "bike_id": "1b39e1ee69582faa4b5edf0451bda1be", "fusion_lon": 0.0}, {"rental_uris": {"ios": "https://dc.lft.to/lastmile_qr_scan", "android": "https://dc.lft.to/lastmile_qr_scan"}, "type": "electric_scooter", "name": "9496559ef8809d7af7516942afb7fc8c", "is_reserved": 0, "lon": -77.0287105, "is_disabled": 0, "fusion_lat": 0.0, "lat": 38.925842833333334, "bike_id": "9496559ef8809d7af7516942afb7fc8c", "fusion_lon": 0.0}, {"rental_uris": {"ios": "https://dc.lft.to/lastmile_qr_scan", "android": "https://dc.lft.to/lastmile_qr_scan"}, "type": "electric_scooter", "name": "78da46719740ca802e97feae3c46a7bc", "is_reserved": 0, "lon": -77.02095433333334, "is_disabled": 0, "fusion_lat": 0.0, "lat": 38.93273533333333, "bike_id": "78da46719740ca802e97feae3c46a7bc", "fusion_lon": 0.0}, {"rental_uris": {"ios": "https://dc.lft.to/lastmile_qr_scan", "android": "https://dc.lft.to/lastmile_qr_scan"}, "type": "electric_scooter", "name": "911ca1a54bc6de4db98014db61de5050", "is_reserved": 0, "lon": -77.04502416666666, "is_disabled": 0, "fusion_lat": 0.0, "lat": 38.900073, "bike_id": "911ca1a54bc6de4db98014db61de5050", "fusion_lon": 0.0}, {"rental_uris": {"ios": "https://dc.lft.to/lastmile_qr_scan", "android": "https://dc.lft.to/lastmile_qr_scan"}, "type": "electric_bike", "name": "2c6dea64d27108dac3b85a70a7bd7a78", "is_reserved": 0, "lon": -76.9825105, "is_disabled": 0, "fusion_lat": 0.0, "lat": 38.95236416666667, "bike_id": "2c6dea64d27108dac3b85a70a7bd7a78", "fusion_lon": 0.0}, {"rental_uris": {"ios": "https://dc.lft.to/lastmile_qr_scan", "android": "https://dc.lft.to/lastmile_qr_scan"}, "type": "electric_bike", "name": "81dad6a9be94b7d0bc92c0d69e02c9b8", "is_reserved": 0, "lon": -77.043342, "is_disabled": 0, "fusion_lat": 0.0, "lat": 38.922411, "bike_id": "81dad6a9be94b7d0bc92c0d69e02c9b8", "fusion_lon": 0.0}, {"rental_uris": {"ios": "https://dc.lft.to/lastmile_qr_scan", "android": "https://dc.lft.to/lastmile_qr_scan"}, "type": "electric_scooter", "name": "c9d23928d548d20420a984457b705f9c", "is_reserved": 0, "lon": -77.034339, "is_disabled": 0, "fusion_lat": 0.0, "lat": 38.90830966666667, "bike_id": "c9d23928d548d20420a984457b705f9c", "fusion_lon": 0.0}, {"rental_uris": {"ios": "https://dc.lft.to/lastmile_qr_scan", "android": "https://dc.lft.to/lastmile_qr_scan"}, "type": "electric_scooter", "name": "0804bfc0b0b2adacfea294fa48c3cf24", "is_reserved": 0, "lon": -77.04674283333334, "is_disabled": 0, "fusion_lat": 0.0, "lat": 38.897097, "bike_id": "0804bfc0b0b2adacfea294fa48c3cf24", "fusion_lon": 0.0}, {"rental_uris": {"ios": "https://dc.lft.to/lastmile_qr_scan", "android": "https://dc.lft.to/lastmile_qr_scan"}, "type": "electric_scooter", "name": "09af52eb63946bc6ffc25e6a2d0c051d", "is_reserved": 0, "lon": -77.0422785, "is_disabled": 0, "fusion_lat": 0.0, "lat": 38.921693166666664, "bike_id": "09af52eb63946bc6ffc25e6a2d0c051d", "fusion_lon": 0.0}, {"rental_uris": {"ios": "https://dc.lft.to/lastmile_qr_scan", "android": "https://dc.lft.to/lastmile_qr_scan"}, "type": "electric_scooter", "name": "e4d2779c3ee7adf7342016aa26e767a4", "is_reserved": 0, "lon": -77.04245933333333, "is_disabled": 0, "fusion_lat": 0.0, "lat": 38.9223965, "bike_id": "e4d2779c3ee7adf7342016aa26e767a4", "fusion_lon": 0.0}, {"rental_uris": {"ios": "https://dc.lft.to/lastmile_qr_scan", "android": "https://dc.lft.to/lastmile_qr_scan"}, "type": "electric_scooter", "name": "cc00f9583bfe46263432832ce467f7ac", "is_reserved": 0, "lon": -77.04758716666667, "is_disabled": 0, "fusion_lat": 0.0, "lat": 38.91246483333333, "bike_id": "cc00f9583bfe46263432832ce467f7ac", "fusion_lon": 0.0}, {"rental_uris": {"ios": "https://dc.lft.to/lastmile_qr_scan", "android": "https://dc.lft.to/lastmile_qr_scan"}, "type": "electric_scooter", "name": "d3e2ab5f5b11a30342900ba1763242b0", "is_reserved": 0, "lon": -77.044569, "is_disabled": 0, "fusion_lat": 0.0, "lat": 38.923154833333335, "bike_id": "d3e2ab5f5b11a30342900ba1763242b0", "fusion_lon": 0.0}, {"rental_uris": {"ios": "https://dc.lft.to/lastmile_qr_scan", "android": "https://dc.lft.to/lastmile_qr_scan"}, "type": "electric_scooter", "name": "69ce3443a58be9106e99551af5b58e1c", "is_reserved": 0, "lon": -76.98099566666667, "is_disabled": 0, "fusion_lat": 0.0, "lat": 38.8572015, "bike_id": "69ce3443a58be9106e99551af5b58e1c", "fusion_lon": 0.0}, {"rental_uris": {"ios": "https://dc.lft.to/lastmile_qr_scan", "android": "https://dc.lft.to/lastmile_qr_scan"}, "type": "electric_scooter", "name": "56dd9b1b406f2c6ba086fe8238748ee7", "is_reserved": 0, "lon": -77.04875266666667, "is_disabled": 0, "fusion_lat": 0.0, "lat": 38.90975666666667, "bike_id": "56dd9b1b406f2c6ba086fe8238748ee7", "fusion_lon": 0.0}, {"rental_uris": {"ios": "https://dc.lft.to/lastmile_qr_scan", "android": "https://dc.lft.to/lastmile_qr_scan"}, "type": "electric_scooter", "name": "de7a50b4d8daf71d9e0ccbed1db81716", "is_reserved": 0, "lon": -77.03063683333333, "is_disabled": 0, "fusion_lat": 0.0, "lat": 38.924852333333334, "bike_id": "de7a50b4d8daf71d9e0ccbed1db81716", "fusion_lon": 0.0}, {"rental_uris": {"ios": "https://dc.lft.to/lastmile_qr_scan", "android": "https://dc.lft.to/lastmile_qr_scan"}, "type": "electric_scooter", "name": "9626df98ea21acc65da7a0299e634685", "is_reserved": 0, "lon": -77.0199485, "is_disabled": 0, "fusion_lat": 0.0, "lat": 38.9152715, "bike_id": "9626df98ea21acc65da7a0299e634685", "fusion_lon": 0.0}, {"rental_uris": {"ios": "https://dc.lft.to/lastmile_qr_scan", "android": "https://dc.lft.to/lastmile_qr_scan"}, "type": "electric_scooter", "name": "c5758cc0dea4172683f79586b4b9bcb1", "is_reserved": 0, "lon": -77.04505316666666, "is_disabled": 0, "fusion_lat": 0.0, "lat": 38.89227116666667, "bike_id": "c5758cc0dea4172683f79586b4b9bcb1", "fusion_lon": 0.0}, {"rental_uris": {"ios": "https://dc.lft.to/lastmile_qr_scan", "android": "https://dc.lft.to/lastmile_qr_scan"}, "type": "electric_scooter", "name": "6b696eae38375c9b459e155ac555e0e3", "is_reserved": 0, "lon": -77.04352683333333, "is_disabled": 0, "fusion_lat": 0.0, "lat": 38.92163266666667, "bike_id": "6b696eae38375c9b459e155ac555e0e3", "fusion_lon": 0.0}, {"rental_uris": {"ios": "https://dc.lft.to/lastmile_qr_scan", "android": "https://dc.lft.to/lastmile_qr_scan"}, "type": "electric_scooter", "name": "552bce3d8d52836023e3d185d7f99318", "is_reserved": 0, "lon": -77.050668, "is_disabled": 0, "fusion_lat": 0.0, "lat": 38.90074366666666, "bike_id": "552bce3d8d52836023e3d185d7f99318", "fusion_lon": 0.0}, {"rental_uris": {"ios": "https://dc.lft.to/lastmile_qr_scan", "android": "https://dc.lft.to/lastmile_qr_scan"}, "type": "electric_scooter", "name": "b4b05d5b4ee6527bc8e03df5d0c75aa0", "is_reserved": 0, "lon": -76.99101933333333, "is_disabled": 0, "fusion_lat": 0.0, "lat": 38.857298, "bike_id": "b4b05d5b4ee6527bc8e03df5d0c75aa0", "fusion_lon": 0.0}, {"rental_uris": {"ios": "https://dc.lft.to/lastmile_qr_scan", "android": "https://dc.lft.to/lastmile_qr_scan"}, "type": "electric_scooter", "name": "2127318466eb08ec76a932f30605f759", "is_reserved": 0, "lon": -77.03775366666666, "is_disabled": 0, "fusion_lat": 0.0, "lat": 38.90732083333333, "bike_id": "2127318466eb08ec76a932f30605f759", "fusion_lon": 0.0}, {"rental_uris": {"ios": "https://dc.lft.to/lastmile_qr_scan", "android": "https://dc.lft.to/lastmile_qr_scan"}, "type": "electric_scooter", "name": "0972599d7d9ba54a4781afa974c61797", "is_reserved": 0, "lon": -77.02152316666667, "is_disabled": 0, "fusion_lat": 0.0, "lat": 38.925572, "bike_id": "0972599d7d9ba54a4781afa974c61797", "fusion_lon": 0.0}, {"rental_uris": {"ios": "https://dc.lft.to/lastmile_qr_scan", "android": "https://dc.lft.to/lastmile_qr_scan"}, "type": "electric_scooter", "name": "50d87488de0dc5e2a2863422cc30a3b1", "is_reserved": 0, "lon": -77.0460835, "is_disabled": 0, "fusion_lat": 0.0, "lat": 38.905600166666666, "bike_id": "50d87488de0dc5e2a2863422cc30a3b1", "fusion_lon": 0.0}, {"rental_uris": {"ios": "https://dc.lft.to/lastmile_qr_scan", "android": "https://dc.lft.to/lastmile_qr_scan"}, "type": "electric_scooter", "name": "36bd3e0513bf02bd4230a0fccc679fd4", "is_reserved": 0, "lon": -77.078349, "is_disabled": 0, "fusion_lat": 0.0, "lat": 38.945701166666666, "bike_id": "36bd3e0513bf02bd4230a0fccc679fd4", "fusion_lon": 0.0}, {"rental_uris": {"ios": "https://dc.lft.to/lastmile_qr_scan", "android": "https://dc.lft.to/lastmile_qr_scan"}, "type": "electric_scooter", "name": "aa8e09865a22996e1cfd4430601094b2", "is_reserved": 0, "lon": -77.01886183333333, "is_disabled": 0, "fusion_lat": 0.0, "lat": 38.89752983333333, "bike_id": "aa8e09865a22996e1cfd4430601094b2", "fusion_lon": 0.0}, {"rental_uris": {"ios": "https://dc.lft.to/lastmile_qr_scan", "android": "https://dc.lft.to/lastmile_qr_scan"}, "type": "electric_scooter", "name": "56f2981b83c22a70a4ea44b1e8a48b4d", "is_reserved": 0, "lon": -77.07924733333333, "is_disabled": 0, "fusion_lat": 0.0, "lat": 38.94564166666667, "bike_id": "56f2981b83c22a70a4ea44b1e8a48b4d", "fusion_lon": 0.0}, {"rental_uris": {"ios": "https://dc.lft.to/lastmile_qr_scan", "android": "https://dc.lft.to/lastmile_qr_scan"}, "type": "electric_scooter", "name": "47be5824c7abc8672fcdbd8f2c226cd1", "is_reserved": 0, "lon": -77.032171, "is_disabled": 0, "fusion_lat": 0.0, "lat": 38.93871716666666, "bike_id": "47be5824c7abc8672fcdbd8f2c226cd1", "fusion_lon": 0.0}, {"rental_uris": {"ios": "https://dc.lft.to/lastmile_qr_scan", "android": "https://dc.lft.to/lastmile_qr_scan"}, "type": "electric_scooter", "name": "560b86bf579e6e903da3e1f333021f7c", "is_reserved": 0, "lon": -77.00285616666666, "is_disabled": 0, "fusion_lat": 0.0, "lat": 38.846071, "bike_id": "560b86bf579e6e903da3e1f333021f7c", "fusion_lon": 0.0}, {"rental_uris": {"ios": "https://dc.lft.to/lastmile_qr_scan", "android": "https://dc.lft.to/lastmile_qr_scan"}, "type": "electric_bike", "name": "dfc0cf0474c3124cb6370b62cf4d4b96", "is_reserved": 0, "lon": -77.0408, "is_disabled": 0, "fusion_lat": 0.0, "lat": 38.83069533333333, "bike_id": "dfc0cf0474c3124cb6370b62cf4d4b96", "fusion_lon": 0.0}, {"rental_uris": {"ios": "https://dc.lft.to/lastmile_qr_scan", "android": "https://dc.lft.to/lastmile_qr_scan"}, "type": "electric_bike", "name": "c4a9dd512288dcacde111d4e3d6e1a6c", "is_reserved": 0, "lon": -76.99624783333333, "is_disabled": 0, "fusion_lat": 0.0, "lat": 38.928543166666664, "bike_id": "c4a9dd512288dcacde111d4e3d6e1a6c", "fusion_lon": 0.0}, {"rental_uris": {"ios": "https://dc.lft.to/lastmile_qr_scan", "android": "https://dc.lft.to/lastmile_qr_scan"}, "type": "electric_scooter", "name": "0195d704bd90566ee61866389e259aff", "is_reserved": 0, "lon": -77.0466035, "is_disabled": 0, "fusion_lat": 0.0, "lat": 38.91804283333333, "bike_id": "0195d704bd90566ee61866389e259aff", "fusion_lon": 0.0}, {"rental_uris": {"ios": "https://dc.lft.to/lastmile_qr_scan", "android": "https://dc.lft.to/lastmile_qr_scan"}, "type": "electric_scooter", "name": "f5ff63af9405c9e8f6b568362fbf6b75", "is_reserved": 0, "lon": -77.01823833333333, "is_disabled": 0, "fusion_lat": 0.0, "lat": 38.921491833333334, "bike_id": "f5ff63af9405c9e8f6b568362fbf6b75", "fusion_lon": 0.0}, {"rental_uris": {"ios": "https://dc.lft.to/lastmile_qr_scan", "android": "https://dc.lft.to/lastmile_qr_scan"}, "type": "electric_scooter", "name": "91808e76001af53b529da434c5b64a46", "is_reserved": 0, "lon": -77.0715015, "is_disabled": 0, "fusion_lat": 0.0, "lat": 38.895013166666665, "bike_id": "91808e76001af53b529da434c5b64a46", "fusion_lon": 0.0}, {"rental_uris": {"ios": "https://dc.lft.to/lastmile_qr_scan", "android": "https://dc.lft.to/lastmile_qr_scan"}, "type": "electric_scooter", "name": "c75bf57995043e672592710cf4253fae", "is_reserved": 0, "lon": -77.003294, "is_disabled": 0, "fusion_lat": 0.0, "lat": 38.87718816666667, "bike_id": "c75bf57995043e672592710cf4253fae", "fusion_lon": 0.0}, {"rental_uris": {"ios": "https://dc.lft.to/lastmile_qr_scan", "android": "https://dc.lft.to/lastmile_qr_scan"}, "type": "electric_scooter", "name": "3d908b994b84f195dee28e7d51151739", "is_reserved": 0, "lon": -77.01789066666667, "is_disabled": 0, "fusion_lat": 0.0, "lat": 38.90031533333333, "bike_id": "3d908b994b84f195dee28e7d51151739", "fusion_lon": 0.0}, {"rental_uris": {"ios": "https://dc.lft.to/lastmile_qr_scan", "android": "https://dc.lft.to/lastmile_qr_scan"}, "type": "electric_scooter", "name": "9e93a7071cc238b7850bfae80cf508d0", "is_reserved": 0, "lon": -76.99291433333333, "is_disabled": 0, "fusion_lat": 0.0, "lat": 38.902604, "bike_id": "9e93a7071cc238b7850bfae80cf508d0", "fusion_lon": 0.0}, {"rental_uris": {"ios": "https://dc.lft.to/lastmile_qr_scan", "android": "https://dc.lft.to/lastmile_qr_scan"}, "type": "electric_scooter", "name": "6c17ccf29c64e53e3ef789747d736d06", "is_reserved": 0, "lon": -77.0239065, "is_disabled": 0, "fusion_lat": 0.0, "lat": 38.916744333333334, "bike_id": "6c17ccf29c64e53e3ef789747d736d06", "fusion_lon": 0.0}, {"rental_uris": {"ios": "https://dc.lft.to/lastmile_qr_scan", "android": "https://dc.lft.to/lastmile_qr_scan"}, "type": "electric_scooter", "name": "0fd1194ba14e13ff1fb369929279ccf5", "is_reserved": 0, "lon": -77.0399405, "is_disabled": 0, "fusion_lat": 0.0, "lat": 38.90218, "bike_id": "0fd1194ba14e13ff1fb369929279ccf5", "fusion_lon": 0.0}, {"rental_uris": {"ios": "https://dc.lft.to/lastmile_qr_scan", "android": "https://dc.lft.to/lastmile_qr_scan"}, "type": "electric_scooter", "name": "906488e65862df6013cb74170bfa31ab", "is_reserved": 0, "lon": -77.00592316666666, "is_disabled": 0, "fusion_lat": 0.0, "lat": 38.875656666666664, "bike_id": "906488e65862df6013cb74170bfa31ab", "fusion_lon": 0.0}, {"rental_uris": {"ios": "https://dc.lft.to/lastmile_qr_scan", "android": "https://dc.lft.to/lastmile_qr_scan"}, "type": "electric_scooter", "name": "fe0fcb5da42c05b5adc5e04caa1493e1", "is_reserved": 0, "lon": -77.02749333333334, "is_disabled": 0, "fusion_lat": 0.0, "lat": 38.9576805, "bike_id": "fe0fcb5da42c05b5adc5e04caa1493e1", "fusion_lon": 0.0}, {"rental_uris": {"ios": "https://dc.lft.to/lastmile_qr_scan", "android": "https://dc.lft.to/lastmile_qr_scan"}, "type": "electric_scooter", "name": "f485408e5485e651be42ab801814aded", "is_reserved": 0, "lon": -77.017553, "is_disabled": 0, "fusion_lat": 0.0, "lat": 38.876847, "bike_id": "f485408e5485e651be42ab801814aded", "fusion_lon": 0.0}, {"rental_uris": {"ios": "https://dc.lft.to/lastmile_qr_scan", "android": "https://dc.lft.to/lastmile_qr_scan"}, "type": "electric_scooter", "name": "00ff461e045567758071a9bfa5cebd80", "is_reserved": 0, "lon": -76.92627733333333, "is_disabled": 0, "fusion_lat": 0.0, "lat": 38.883797333333334, "bike_id": "00ff461e045567758071a9bfa5cebd80", "fusion_lon": 0.0}, {"rental_uris": {"ios": "https://dc.lft.to/lastmile_qr_scan", "android": "https://dc.lft.to/lastmile_qr_scan"}, "type": "electric_scooter", "name": "abc2d948840628c29a261de5a7ca4319", "is_reserved": 0, "lon": -77.04778733333333, "is_disabled": 0, "fusion_lat": 0.0, "lat": 38.90860833333333, "bike_id": "abc2d948840628c29a261de5a7ca4319", "fusion_lon": 0.0}, {"rental_uris": {"ios": "https://dc.lft.to/lastmile_qr_scan", "android": "https://dc.lft.to/lastmile_qr_scan"}, "type": "electric_scooter", "name": "9b7ae599c1e98f669e282821704b26bf", "is_reserved": 0, "lon": -77.03639683333333, "is_disabled": 0, "fusion_lat": 0.0, "lat": 38.903654333333336, "bike_id": "9b7ae599c1e98f669e282821704b26bf", "fusion_lon": 0.0}, {"rental_uris": {"ios": "https://dc.lft.to/lastmile_qr_scan", "android": "https://dc.lft.to/lastmile_qr_scan"}, "type": "electric_scooter", "name": "5d22a8ae79763c0c94e023efd5cabbab", "is_reserved": 0, "lon": -76.985427, "is_disabled": 0, "fusion_lat": 0.0, "lat": 38.91291233333333, "bike_id": "5d22a8ae79763c0c94e023efd5cabbab", "fusion_lon": 0.0}, {"rental_uris": {"ios": "https://dc.lft.to/lastmile_qr_scan", "android": "https://dc.lft.to/lastmile_qr_scan"}, "type": "electric_scooter", "name": "b01113bd46cec9e2b56518f3563c1659", "is_reserved": 0, "lon": -77.0405765, "is_disabled": 0, "fusion_lat": 0.0, "lat": 38.91771883333333, "bike_id": "b01113bd46cec9e2b56518f3563c1659", "fusion_lon": 0.0}, {"rental_uris": {"ios": "https://dc.lft.to/lastmile_qr_scan", "android": "https://dc.lft.to/lastmile_qr_scan"}, "type": "electric_scooter", "name": "a311597857bdf432f2ef48a387c1aa99", "is_reserved": 0, "lon": -77.019811, "is_disabled": 0, "fusion_lat": 0.0, "lat": 38.905053, "bike_id": "a311597857bdf432f2ef48a387c1aa99", "fusion_lon": 0.0}, {"rental_uris": {"ios": "https://dc.lft.to/lastmile_qr_scan", "android": "https://dc.lft.to/lastmile_qr_scan"}, "type": "electric_scooter", "name": "e090b437b138883bb560db7df46a0583", "is_reserved": 0, "lon": -76.9721305, "is_disabled": 0, "fusion_lat": 0.0, "lat": 38.91718183333333, "bike_id": "e090b437b138883bb560db7df46a0583", "fusion_lon": 0.0}, {"rental_uris": {"ios": "https://dc.lft.to/lastmile_qr_scan", "android": "https://dc.lft.to/lastmile_qr_scan"}, "type": "electric_bike", "name": "b5791aac678d576a58e23d8b2c1ae683", "is_reserved": 0, "lon": -77.09453683333334, "is_disabled": 0, "fusion_lat": 0.0, "lat": 38.80755966666667, "bike_id": "b5791aac678d576a58e23d8b2c1ae683", "fusion_lon": 0.0}, {"rental_uris": {"ios": "https://dc.lft.to/lastmile_qr_scan", "android": "https://dc.lft.to/lastmile_qr_scan"}, "type": "electric_scooter", "name": "9866ee46adfe6104955beb50dc0c6f7d", "is_reserved": 0, "lon": -77.01378683333333, "is_disabled": 0, "fusion_lat": 0.0, "lat": 38.89825116666667, "bike_id": "9866ee46adfe6104955beb50dc0c6f7d", "fusion_lon": 0.0}, {"rental_uris": {"ios": "https://dc.lft.to/lastmile_qr_scan", "android": "https://dc.lft.to/lastmile_qr_scan"}, "type": "electric_scooter", "name": "d6675f12c9c696b270954088f96fd335", "is_reserved": 0, "lon": -77.03209316666667, "is_disabled": 0, "fusion_lat": 0.0, "lat": 38.915684166666665, "bike_id": "d6675f12c9c696b270954088f96fd335", "fusion_lon": 0.0}, {"rental_uris": {"ios": "https://dc.lft.to/lastmile_qr_scan", "android": "https://dc.lft.to/lastmile_qr_scan"}, "type": "electric_scooter", "name": "b4097860abc02b933ae18d9ac676df00", "is_reserved": 0, "lon": -77.04412683333334, "is_disabled": 0, "fusion_lat": 0.0, "lat": 38.89594016666667, "bike_id": "b4097860abc02b933ae18d9ac676df00", "fusion_lon": 0.0}, {"rental_uris": {"ios": "https://dc.lft.to/lastmile_qr_scan", "android": "https://dc.lft.to/lastmile_qr_scan"}, "type": "electric_bike", "name": "2a2c119cffe7149cac0ced8b2826a2a7", "is_reserved": 0, "lon": -77.072794, "is_disabled": 0, "fusion_lat": 0.0, "lat": 38.917654666666664, "bike_id": "2a2c119cffe7149cac0ced8b2826a2a7", "fusion_lon": 0.0}, {"rental_uris": {"ios": "https://dc.lft.to/lastmile_qr_scan", "android": "https://dc.lft.to/lastmile_qr_scan"}, "type": "electric_scooter", "name": "0d6ad7caa132e3be1cf52df819a8c1f7", "is_reserved": 0, "lon": -77.02205083333334, "is_disabled": 0, "fusion_lat": 0.0, "lat": 38.9515425, "bike_id": "0d6ad7caa132e3be1cf52df819a8c1f7", "fusion_lon": 0.0}, {"rental_uris": {"ios": "https://dc.lft.to/lastmile_qr_scan", "android": "https://dc.lft.to/lastmile_qr_scan"}, "type": "electric_scooter", "name": "54b3a6e4ae8562868330abacdacc7c8c", "is_reserved": 0, "lon": -77.042767, "is_disabled": 0, "fusion_lat": 0.0, "lat": 38.9224075, "bike_id": "54b3a6e4ae8562868330abacdacc7c8c", "fusion_lon": 0.0}, {"rental_uris": {"ios": "https://dc.lft.to/lastmile_qr_scan", "android": "https://dc.lft.to/lastmile_qr_scan"}, "type": "electric_scooter", "name": "e55334117314de53f7245a1fe577f789", "is_reserved": 0, "lon": -77.02397666666667, "is_disabled": 0, "fusion_lat": 0.0, "lat": 38.916009, "bike_id": "e55334117314de53f7245a1fe577f789", "fusion_lon": 0.0}, {"rental_uris": {"ios": "https://dc.lft.to/lastmile_qr_scan", "android": "https://dc.lft.to/lastmile_qr_scan"}, "type": "electric_bike", "name": "b7bb588a48c613142060c699dd25fa07", "is_reserved": 0, "lon": -77.0856755, "is_disabled": 0, "fusion_lat": 0.0, "lat": 38.8742345, "bike_id": "b7bb588a48c613142060c699dd25fa07", "fusion_lon": 0.0}, {"rental_uris": {"ios": "https://dc.lft.to/lastmile_qr_scan", "android": "https://dc.lft.to/lastmile_qr_scan"}, "type": "electric_scooter", "name": "a246c895d25cc94a73e2b45a78568b84", "is_reserved": 0, "lon": -77.02110166666667, "is_disabled": 0, "fusion_lat": 0.0, "lat": 38.90938516666667, "bike_id": "a246c895d25cc94a73e2b45a78568b84", "fusion_lon": 0.0}, {"rental_uris": {"ios": "https://dc.lft.to/lastmile_qr_scan", "android": "https://dc.lft.to/lastmile_qr_scan"}, "type": "electric_scooter", "name": "2fcf94fc72363c7e6aef511ff6cefab1", "is_reserved": 0, "lon": -77.01462383333333, "is_disabled": 0, "fusion_lat": 0.0, "lat": 38.87931233333333, "bike_id": "2fcf94fc72363c7e6aef511ff6cefab1", "fusion_lon": 0.0}, {"rental_uris": {"ios": "https://dc.lft.to/lastmile_qr_scan", "android": "https://dc.lft.to/lastmile_qr_scan"}, "type": "electric_bike", "name": "dd4e8232c643e56d4d45f23697f538bd", "is_reserved": 0, "lon": -77.129048, "is_disabled": 0, "fusion_lat": 0.0, "lat": 38.799711, "bike_id": "dd4e8232c643e56d4d45f23697f538bd", "fusion_lon": 0.0}, {"rental_uris": {"ios": "https://dc.lft.to/lastmile_qr_scan", "android": "https://dc.lft.to/lastmile_qr_scan"}, "type": "electric_scooter", "name": "c769598f3292bc4a37049dbfbba9a4af", "is_reserved": 0, "lon": -77.03656816666667, "is_disabled": 0, "fusion_lat": 0.0, "lat": 38.92301533333333, "bike_id": "c769598f3292bc4a37049dbfbba9a4af", "fusion_lon": 0.0}, {"rental_uris": {"ios": "https://dc.lft.to/lastmile_qr_scan", "android": "https://dc.lft.to/lastmile_qr_scan"}, "type": "electric_bike", "name": "abca9b42a4a082bf386f26801e83ff41", "is_reserved": 0, "lon": -76.91802683333333, "is_disabled": 0, "fusion_lat": 0.0, "lat": 39.000038833333335, "bike_id": "abca9b42a4a082bf386f26801e83ff41", "fusion_lon": 0.0}, {"rental_uris": {"ios": "https://dc.lft.to/lastmile_qr_scan", "android": "https://dc.lft.to/lastmile_qr_scan"}, "type": "electric_scooter", "name": "e083fb621cf18e49cc9ae36dee272e22", "is_reserved": 0, "lon": -76.99494733333333, "is_disabled": 0, "fusion_lat": 0.0, "lat": 38.88225333333333, "bike_id": "e083fb621cf18e49cc9ae36dee272e22", "fusion_lon": 0.0}, {"rental_uris": {"ios": "https://dc.lft.to/lastmile_qr_scan", "android": "https://dc.lft.to/lastmile_qr_scan"}, "type": "electric_scooter", "name": "a921a203db2aca4c7e0524acb554856e", "is_reserved": 0, "lon": -77.0348935, "is_disabled": 0, "fusion_lat": 0.0, "lat": 38.91913183333333, "bike_id": "a921a203db2aca4c7e0524acb554856e", "fusion_lon": 0.0}, {"rental_uris": {"ios": "https://dc.lft.to/lastmile_qr_scan", "android": "https://dc.lft.to/lastmile_qr_scan"}, "type": "electric_scooter", "name": "a2d172031f76da7493525ddb643e0623", "is_reserved": 0, "lon": -77.00669566666667, "is_disabled": 0, "fusion_lat": 0.0, "lat": 38.876687, "bike_id": "a2d172031f76da7493525ddb643e0623", "fusion_lon": 0.0}, {"rental_uris": {"ios": "https://dc.lft.to/lastmile_qr_scan", "android": "https://dc.lft.to/lastmile_qr_scan"}, "type": "electric_scooter", "name": "c4217f8282265da7a9b149244ef56741", "is_reserved": 0, "lon": -77.043657, "is_disabled": 0, "fusion_lat": 0.0, "lat": 38.922386333333336, "bike_id": "c4217f8282265da7a9b149244ef56741", "fusion_lon": 0.0}, {"rental_uris": {"ios": "https://dc.lft.to/lastmile_qr_scan", "android": "https://dc.lft.to/lastmile_qr_scan"}, "type": "electric_scooter", "name": "9f675df1807fad977bc256460e4e8241", "is_reserved": 0, "lon": -77.0220305, "is_disabled": 0, "fusion_lat": 0.0, "lat": 38.910820333333334, "bike_id": "9f675df1807fad977bc256460e4e8241", "fusion_lon": 0.0}, {"rental_uris": {"ios": "https://dc.lft.to/lastmile_qr_scan", "android": "https://dc.lft.to/lastmile_qr_scan"}, "type": "electric_scooter", "name": "462d52e9a9e6de8ef5a92d9d2f28771b", "is_reserved": 0, "lon": -77.04184066666667, "is_disabled": 0, "fusion_lat": 0.0, "lat": 38.923311166666664, "bike_id": "462d52e9a9e6de8ef5a92d9d2f28771b", "fusion_lon": 0.0}, {"rental_uris": {"ios": "https://dc.lft.to/lastmile_qr_scan", "android": "https://dc.lft.to/lastmile_qr_scan"}, "type": "electric_scooter", "name": "246cd80c7f87896c027443d7c2c5bf38", "is_reserved": 0, "lon": -76.9763545, "is_disabled": 0, "fusion_lat": 0.0, "lat": 38.90570916666667, "bike_id": "246cd80c7f87896c027443d7c2c5bf38", "fusion_lon": 0.0}, {"rental_uris": {"ios": "https://dc.lft.to/lastmile_qr_scan", "android": "https://dc.lft.to/lastmile_qr_scan"}, "type": "electric_scooter", "name": "22bf2e2c1307adb63849def64e8da458", "is_reserved": 0, "lon": -77.07346716666666, "is_disabled": 0, "fusion_lat": 0.0, "lat": 38.94328316666667, "bike_id": "22bf2e2c1307adb63849def64e8da458", "fusion_lon": 0.0}, {"rental_uris": {"ios": "https://dc.lft.to/lastmile_qr_scan", "android": "https://dc.lft.to/lastmile_qr_scan"}, "type": "electric_scooter", "name": "a6686c92fe4d85b5ca0114f16be13e73", "is_reserved": 0, "lon": -77.04945216666667, "is_disabled": 0, "fusion_lat": 0.0, "lat": 38.92020616666667, "bike_id": "a6686c92fe4d85b5ca0114f16be13e73", "fusion_lon": 0.0}, {"rental_uris": {"ios": "https://dc.lft.to/lastmile_qr_scan", "android": "https://dc.lft.to/lastmile_qr_scan"}, "type": "electric_scooter", "name": "6cf03a1ae3fc9bf0773ce49c89506604", "is_reserved": 0, "lon": -77.0683, "is_disabled": 0, "fusion_lat": 0.0, "lat": 38.91719166666667, "bike_id": "6cf03a1ae3fc9bf0773ce49c89506604", "fusion_lon": 0.0}, {"rental_uris": {"ios": "https://dc.lft.to/lastmile_qr_scan", "android": "https://dc.lft.to/lastmile_qr_scan"}, "type": "electric_scooter", "name": "1c040c8f47903e0cfd50ba4d9f48955d", "is_reserved": 0, "lon": -77.02385233333334, "is_disabled": 0, "fusion_lat": 0.0, "lat": 38.92079733333333, "bike_id": "1c040c8f47903e0cfd50ba4d9f48955d", "fusion_lon": 0.0}, {"rental_uris": {"ios": "https://dc.lft.to/lastmile_qr_scan", "android": "https://dc.lft.to/lastmile_qr_scan"}, "type": "electric_scooter", "name": "222754b06df4be81ff2f2f201f049580", "is_reserved": 0, "lon": -76.9837125, "is_disabled": 0, "fusion_lat": 0.0, "lat": 38.91493883333333, "bike_id": "222754b06df4be81ff2f2f201f049580", "fusion_lon": 0.0}, {"rental_uris": {"ios": "https://dc.lft.to/lastmile_qr_scan", "android": "https://dc.lft.to/lastmile_qr_scan"}, "type": "electric_scooter", "name": "8a103d3236005b1380be6f701eac882e", "is_reserved": 0, "lon": -77.03109666666667, "is_disabled": 0, "fusion_lat": 0.0, "lat": 38.924787333333335, "bike_id": "8a103d3236005b1380be6f701eac882e", "fusion_lon": 0.0}, {"rental_uris": {"ios": "https://dc.lft.to/lastmile_qr_scan", "android": "https://dc.lft.to/lastmile_qr_scan"}, "type": "electric_scooter", "name": "fa646b67d7b81acdc878c1f3fae18732", "is_reserved": 0, "lon": -77.07340433333333, "is_disabled": 0, "fusion_lat": 0.0, "lat": 38.9609425, "bike_id": "fa646b67d7b81acdc878c1f3fae18732", "fusion_lon": 0.0}, {"rental_uris": {"ios": "https://dc.lft.to/lastmile_qr_scan", "android": "https://dc.lft.to/lastmile_qr_scan"}, "type": "electric_scooter", "name": "0267e593dc5275dec246169ab4e0d068", "is_reserved": 0, "lon": -77.042677, "is_disabled": 0, "fusion_lat": 0.0, "lat": 38.9230115, "bike_id": "0267e593dc5275dec246169ab4e0d068", "fusion_lon": 0.0}, {"rental_uris": {"ios": "https://dc.lft.to/lastmile_qr_scan", "android": "https://dc.lft.to/lastmile_qr_scan"}, "type": "electric_scooter", "name": "57e018d095405fb6188947e136b99ebd", "is_reserved": 0, "lon": -77.04085716666667, "is_disabled": 0, "fusion_lat": 0.0, "lat": 38.91050833333333, "bike_id": "57e018d095405fb6188947e136b99ebd", "fusion_lon": 0.0}, {"rental_uris": {"ios": "https://dc.lft.to/lastmile_qr_scan", "android": "https://dc.lft.to/lastmile_qr_scan"}, "type": "electric_scooter", "name": "e21445839cc9d4b6bb94050a08045af9", "is_reserved": 0, "lon": -77.01889233333333, "is_disabled": 0, "fusion_lat": 0.0, "lat": 38.89747916666666, "bike_id": "e21445839cc9d4b6bb94050a08045af9", "fusion_lon": 0.0}, {"rental_uris": {"ios": "https://dc.lft.to/lastmile_qr_scan", "android": "https://dc.lft.to/lastmile_qr_scan"}, "type": "electric_scooter", "name": "2bce12aed0adb55a7f1537896bbcdb5c", "is_reserved": 0, "lon": -77.01875866666667, "is_disabled": 0, "fusion_lat": 0.0, "lat": 38.93063433333333, "bike_id": "2bce12aed0adb55a7f1537896bbcdb5c", "fusion_lon": 0.0}, {"rental_uris": {"ios": "https://dc.lft.to/lastmile_qr_scan", "android": "https://dc.lft.to/lastmile_qr_scan"}, "type": "electric_scooter", "name": "3f0a9a2b50e94a98025778a5815022c2", "is_reserved": 0, "lon": -77.04607116666666, "is_disabled": 0, "fusion_lat": 0.0, "lat": 38.88382283333333, "bike_id": "3f0a9a2b50e94a98025778a5815022c2", "fusion_lon": 0.0}, {"rental_uris": {"ios": "https://dc.lft.to/lastmile_qr_scan", "android": "https://dc.lft.to/lastmile_qr_scan"}, "type": "electric_scooter", "name": "e61d4d7f50887baf858bb07ddce19881", "is_reserved": 0, "lon": -77.1101485, "is_disabled": 0, "fusion_lat": 0.0, "lat": 38.877038, "bike_id": "e61d4d7f50887baf858bb07ddce19881", "fusion_lon": 0.0}, {"rental_uris": {"ios": "https://dc.lft.to/lastmile_qr_scan", "android": "https://dc.lft.to/lastmile_qr_scan"}, "type": "electric_scooter", "name": "88c80c41739f620a4f2365d2d58a86c6", "is_reserved": 0, "lon": -77.03520866666666, "is_disabled": 0, "fusion_lat": 0.0, "lat": 38.92236466666667, "bike_id": "88c80c41739f620a4f2365d2d58a86c6", "fusion_lon": 0.0}, {"rental_uris": {"ios": "https://dc.lft.to/lastmile_qr_scan", "android": "https://dc.lft.to/lastmile_qr_scan"}, "type": "electric_scooter", "name": "33ac36c5124a8bc3d643ad296c7169e7", "is_reserved": 0, "lon": -77.03846166666666, "is_disabled": 0, "fusion_lat": 0.0, "lat": 38.90712416666667, "bike_id": "33ac36c5124a8bc3d643ad296c7169e7", "fusion_lon": 0.0}, {"rental_uris": {"ios": "https://dc.lft.to/lastmile_qr_scan", "android": "https://dc.lft.to/lastmile_qr_scan"}, "type": "electric_scooter", "name": "731dd0734a149cd9381409eee19e59c5", "is_reserved": 0, "lon": -77.0200695, "is_disabled": 0, "fusion_lat": 0.0, "lat": 38.901667, "bike_id": "731dd0734a149cd9381409eee19e59c5", "fusion_lon": 0.0}, {"rental_uris": {"ios": "https://dc.lft.to/lastmile_qr_scan", "android": "https://dc.lft.to/lastmile_qr_scan"}, "type": "electric_scooter", "name": "927b012d0c972921a57929df801c17af", "is_reserved": 0, "lon": -77.02392783333333, "is_disabled": 0, "fusion_lat": 0.0, "lat": 38.926008, "bike_id": "927b012d0c972921a57929df801c17af", "fusion_lon": 0.0}, {"rental_uris": {"ios": "https://dc.lft.to/lastmile_qr_scan", "android": "https://dc.lft.to/lastmile_qr_scan"}, "type": "electric_scooter", "name": "3a9dc6776c32014718abbb3e8a58cb45", "is_reserved": 0, "lon": -77.02810866666667, "is_disabled": 0, "fusion_lat": 0.0, "lat": 38.90934383333333, "bike_id": "3a9dc6776c32014718abbb3e8a58cb45", "fusion_lon": 0.0}, {"rental_uris": {"ios": "https://dc.lft.to/lastmile_qr_scan", "android": "https://dc.lft.to/lastmile_qr_scan"}, "type": "electric_scooter", "name": "98fd132354eb52cb556b46ce4c9948ca", "is_reserved": 0, "lon": -77.01213933333334, "is_disabled": 0, "fusion_lat": 0.0, "lat": 38.90006833333333, "bike_id": "98fd132354eb52cb556b46ce4c9948ca", "fusion_lon": 0.0}, {"rental_uris": {"ios": "https://dc.lft.to/lastmile_qr_scan", "android": "https://dc.lft.to/lastmile_qr_scan"}, "type": "electric_scooter", "name": "551def49068ea652d6ac872bd98dc746", "is_reserved": 0, "lon": -76.98229933333333, "is_disabled": 0, "fusion_lat": 0.0, "lat": 38.91645533333333, "bike_id": "551def49068ea652d6ac872bd98dc746", "fusion_lon": 0.0}, {"rental_uris": {"ios": "https://dc.lft.to/lastmile_qr_scan", "android": "https://dc.lft.to/lastmile_qr_scan"}, "type": "electric_scooter", "name": "e80ca82b3e70c9aa4e02a9c6fa66e795", "is_reserved": 0, "lon": -77.02745133333333, "is_disabled": 0, "fusion_lat": 0.0, "lat": 38.90475516666667, "bike_id": "e80ca82b3e70c9aa4e02a9c6fa66e795", "fusion_lon": 0.0}, {"rental_uris": {"ios": "https://dc.lft.to/lastmile_qr_scan", "android": "https://dc.lft.to/lastmile_qr_scan"}, "type": "electric_bike", "name": "4b3a42ae9a87db88fcccfa529c120777", "is_reserved": 0, "lon": -77.08985716666666, "is_disabled": 0, "fusion_lat": 0.0, "lat": 38.91176, "bike_id": "4b3a42ae9a87db88fcccfa529c120777", "fusion_lon": 0.0}, {"rental_uris": {"ios": "https://dc.lft.to/lastmile_qr_scan", "android": "https://dc.lft.to/lastmile_qr_scan"}, "type": "electric_scooter", "name": "a3b93e14bc68b366ecfdd31fe5bec80d", "is_reserved": 0, "lon": -77.00661166666667, "is_disabled": 0, "fusion_lat": 0.0, "lat": 38.900255, "bike_id": "a3b93e14bc68b366ecfdd31fe5bec80d", "fusion_lon": 0.0}, {"rental_uris": {"ios": "https://dc.lft.to/lastmile_qr_scan", "android": "https://dc.lft.to/lastmile_qr_scan"}, "type": "electric_scooter", "name": "346f41b2913783c41a30642d20423692", "is_reserved": 0, "lon": -77.07825316666667, "is_disabled": 0, "fusion_lat": 0.0, "lat": 38.92259283333333, "bike_id": "346f41b2913783c41a30642d20423692", "fusion_lon": 0.0}, {"rental_uris": {"ios": "https://dc.lft.to/lastmile_qr_scan", "android": "https://dc.lft.to/lastmile_qr_scan"}, "type": "electric_scooter", "name": "008dec395c0dd3791b09d0faf06ea270", "is_reserved": 0, "lon": -77.0266935, "is_disabled": 0, "fusion_lat": 0.0, "lat": 38.9005355, "bike_id": "008dec395c0dd3791b09d0faf06ea270", "fusion_lon": 0.0}, {"rental_uris": {"ios": "https://dc.lft.to/lastmile_qr_scan", "android": "https://dc.lft.to/lastmile_qr_scan"}, "type": "electric_scooter", "name": "423a11065092b773cf58c5a628c79c16", "is_reserved": 0, "lon": -77.01875, "is_disabled": 0, "fusion_lat": 0.0, "lat": 38.914207166666664, "bike_id": "423a11065092b773cf58c5a628c79c16", "fusion_lon": 0.0}, {"rental_uris": {"ios": "https://dc.lft.to/lastmile_qr_scan", "android": "https://dc.lft.to/lastmile_qr_scan"}, "type": "electric_scooter", "name": "0dabfeb2a0720e38c63a297c270de16f", "is_reserved": 0, "lon": -77.035366, "is_disabled": 0, "fusion_lat": 0.0, "lat": 38.923365833333335, "bike_id": "0dabfeb2a0720e38c63a297c270de16f", "fusion_lon": 0.0}, {"rental_uris": {"ios": "https://dc.lft.to/lastmile_qr_scan", "android": "https://dc.lft.to/lastmile_qr_scan"}, "type": "electric_scooter", "name": "9c03baf88a21d9c73e708aed92c1ce2b", "is_reserved": 0, "lon": -77.03072966666667, "is_disabled": 0, "fusion_lat": 0.0, "lat": 38.92018683333333, "bike_id": "9c03baf88a21d9c73e708aed92c1ce2b", "fusion_lon": 0.0}, {"rental_uris": {"ios": "https://dc.lft.to/lastmile_qr_scan", "android": "https://dc.lft.to/lastmile_qr_scan"}, "type": "electric_scooter", "name": "f971d77b14d31185b1f2f72ce78560ce", "is_reserved": 0, "lon": -76.999097, "is_disabled": 0, "fusion_lat": 0.0, "lat": 38.9375075, "bike_id": "f971d77b14d31185b1f2f72ce78560ce", "fusion_lon": 0.0}, {"rental_uris": {"ios": "https://dc.lft.to/lastmile_qr_scan", "android": "https://dc.lft.to/lastmile_qr_scan"}, "type": "electric_scooter", "name": "932b3e4d82352e771d9cb5dd7ad8c9cc", "is_reserved": 0, "lon": -77.02383416666666, "is_disabled": 0, "fusion_lat": 0.0, "lat": 38.920044, "bike_id": "932b3e4d82352e771d9cb5dd7ad8c9cc", "fusion_lon": 0.0}, {"rental_uris": {"ios": "https://dc.lft.to/lastmile_qr_scan", "android": "https://dc.lft.to/lastmile_qr_scan"}, "type": "electric_scooter", "name": "65bd5376068a5a61d61045bce2fd8245", "is_reserved": 0, "lon": -76.98360116666667, "is_disabled": 0, "fusion_lat": 0.0, "lat": 38.887452833333334, "bike_id": "65bd5376068a5a61d61045bce2fd8245", "fusion_lon": 0.0}, {"rental_uris": {"ios": "https://dc.lft.to/lastmile_qr_scan", "android": "https://dc.lft.to/lastmile_qr_scan"}, "type": "electric_scooter", "name": "f2dd9b217f845c1e8dccd84ed358d7ca", "is_reserved": 0, "lon": -77.0297185, "is_disabled": 0, "fusion_lat": 0.0, "lat": 38.90718016666667, "bike_id": "f2dd9b217f845c1e8dccd84ed358d7ca", "fusion_lon": 0.0}, {"rental_uris": {"ios": "https://dc.lft.to/lastmile_qr_scan", "android": "https://dc.lft.to/lastmile_qr_scan"}, "type": "electric_scooter", "name": "68d130a242ac6454dd8ee7b2d40ab19b", "is_reserved": 0, "lon": -77.02718666666667, "is_disabled": 0, "fusion_lat": 0.0, "lat": 38.9101845, "bike_id": "68d130a242ac6454dd8ee7b2d40ab19b", "fusion_lon": 0.0}, {"rental_uris": {"ios": "https://dc.lft.to/lastmile_qr_scan", "android": "https://dc.lft.to/lastmile_qr_scan"}, "type": "electric_scooter", "name": "42c4f9b1c6a4598bc511b98c95a67fd6", "is_reserved": 0, "lon": -77.03845833333334, "is_disabled": 0, "fusion_lat": 0.0, "lat": 38.91175283333333, "bike_id": "42c4f9b1c6a4598bc511b98c95a67fd6", "fusion_lon": 0.0}, {"rental_uris": {"ios": "https://dc.lft.to/lastmile_qr_scan", "android": "https://dc.lft.to/lastmile_qr_scan"}, "type": "electric_bike", "name": "2189c805da0a670b719f789c29f4abea", "is_reserved": 0, "lon": -76.98688666666666, "is_disabled": 0, "fusion_lat": 0.0, "lat": 38.944704, "bike_id": "2189c805da0a670b719f789c29f4abea", "fusion_lon": 0.0}, {"rental_uris": {"ios": "https://dc.lft.to/lastmile_qr_scan", "android": "https://dc.lft.to/lastmile_qr_scan"}, "type": "electric_scooter", "name": "77f0b934f8911b3e0da409c97d9b5281", "is_reserved": 0, "lon": -77.04659433333333, "is_disabled": 0, "fusion_lat": 0.0, "lat": 38.90074883333333, "bike_id": "77f0b934f8911b3e0da409c97d9b5281", "fusion_lon": 0.0}, {"rental_uris": {"ios": "https://dc.lft.to/lastmile_qr_scan", "android": "https://dc.lft.to/lastmile_qr_scan"}, "type": "electric_scooter", "name": "0d5732de8504aa7c3c673349f1ef07a4", "is_reserved": 0, "lon": -77.03688716666667, "is_disabled": 0, "fusion_lat": 0.0, "lat": 38.916759, "bike_id": "0d5732de8504aa7c3c673349f1ef07a4", "fusion_lon": 0.0}, {"rental_uris": {"ios": "https://dc.lft.to/lastmile_qr_scan", "android": "https://dc.lft.to/lastmile_qr_scan"}, "type": "electric_bike", "name": "7dd2e3a2dc8213c2a479dd2dce2f23e7", "is_reserved": 0, "lon": -77.02189716666666, "is_disabled": 0, "fusion_lat": 0.0, "lat": 38.91051266666667, "bike_id": "7dd2e3a2dc8213c2a479dd2dce2f23e7", "fusion_lon": 0.0}, {"rental_uris": {"ios": "https://dc.lft.to/lastmile_qr_scan", "android": "https://dc.lft.to/lastmile_qr_scan"}, "type": "electric_scooter", "name": "4cae24440bbe35224b0cb5764ed2901d", "is_reserved": 0, "lon": -77.00541083333333, "is_disabled": 0, "fusion_lat": 0.0, "lat": 38.875477, "bike_id": "4cae24440bbe35224b0cb5764ed2901d", "fusion_lon": 0.0}, {"rental_uris": {"ios": "https://dc.lft.to/lastmile_qr_scan", "android": "https://dc.lft.to/lastmile_qr_scan"}, "type": "electric_scooter", "name": "70b6023b5f971301cf9642335d8e73a2", "is_reserved": 0, "lon": -77.04127816666667, "is_disabled": 0, "fusion_lat": 0.0, "lat": 38.921121166666666, "bike_id": "70b6023b5f971301cf9642335d8e73a2", "fusion_lon": 0.0}, {"rental_uris": {"ios": "https://dc.lft.to/lastmile_qr_scan", "android": "https://dc.lft.to/lastmile_qr_scan"}, "type": "electric_scooter", "name": "da80be62f4ef6692c1b1c091d266f4d4", "is_reserved": 0, "lon": -77.005973, "is_disabled": 0, "fusion_lat": 0.0, "lat": 38.900342333333334, "bike_id": "da80be62f4ef6692c1b1c091d266f4d4", "fusion_lon": 0.0}, {"rental_uris": {"ios": "https://dc.lft.to/lastmile_qr_scan", "android": "https://dc.lft.to/lastmile_qr_scan"}, "type": "electric_scooter", "name": "a40bdf87f203a5d9a83fe5e809d7f381", "is_reserved": 0, "lon": -77.07201166666667, "is_disabled": 0, "fusion_lat": 0.0, "lat": 38.912644666666665, "bike_id": "a40bdf87f203a5d9a83fe5e809d7f381", "fusion_lon": 0.0}, {"rental_uris": {"ios": "https://dc.lft.to/lastmile_qr_scan", "android": "https://dc.lft.to/lastmile_qr_scan"}, "type": "electric_scooter", "name": "30cee88340451973d54cc1d170747765", "is_reserved": 0, "lon": -76.99032766666667, "is_disabled": 0, "fusion_lat": 0.0, "lat": 38.8886945, "bike_id": "30cee88340451973d54cc1d170747765", "fusion_lon": 0.0}, {"rental_uris": {"ios": "https://dc.lft.to/lastmile_qr_scan", "android": "https://dc.lft.to/lastmile_qr_scan"}, "type": "electric_scooter", "name": "f63975554020f3da04c4d47d41caa6d5", "is_reserved": 0, "lon": -77.068082, "is_disabled": 0, "fusion_lat": 0.0, "lat": 38.905198166666665, "bike_id": "f63975554020f3da04c4d47d41caa6d5", "fusion_lon": 0.0}, {"rental_uris": {"ios": "https://dc.lft.to/lastmile_qr_scan", "android": "https://dc.lft.to/lastmile_qr_scan"}, "type": "electric_scooter", "name": "de505fb295e26c9bb05914a04d382e89", "is_reserved": 0, "lon": -77.023433, "is_disabled": 0, "fusion_lat": 0.0, "lat": 38.881452333333336, "bike_id": "de505fb295e26c9bb05914a04d382e89", "fusion_lon": 0.0}, {"rental_uris": {"ios": "https://dc.lft.to/lastmile_qr_scan", "android": "https://dc.lft.to/lastmile_qr_scan"}, "type": "electric_scooter", "name": "663abf4f1e55147825d2ddbb719cbb06", "is_reserved": 0, "lon": -77.00487283333334, "is_disabled": 0, "fusion_lat": 0.0, "lat": 38.874578166666666, "bike_id": "663abf4f1e55147825d2ddbb719cbb06", "fusion_lon": 0.0}, {"rental_uris": {"ios": "https://dc.lft.to/lastmile_qr_scan", "android": "https://dc.lft.to/lastmile_qr_scan"}, "type": "electric_scooter", "name": "2c278168c0677a56beef5abb0c9db0d3", "is_reserved": 0, "lon": -77.01636066666667, "is_disabled": 0, "fusion_lat": 0.0, "lat": 38.915915, "bike_id": "2c278168c0677a56beef5abb0c9db0d3", "fusion_lon": 0.0}, {"rental_uris": {"ios": "https://dc.lft.to/lastmile_qr_scan", "android": "https://dc.lft.to/lastmile_qr_scan"}, "type": "electric_scooter", "name": "2bb2f69977eff9b08afe237596d05587", "is_reserved": 0, "lon": -77.05308083333334, "is_disabled": 0, "fusion_lat": 0.0, "lat": 38.902527666666664, "bike_id": "2bb2f69977eff9b08afe237596d05587", "fusion_lon": 0.0}, {"rental_uris": {"ios": "https://dc.lft.to/lastmile_qr_scan", "android": "https://dc.lft.to/lastmile_qr_scan"}, "type": "electric_scooter", "name": "94fc5f5e69629aab78f9d7308858d612", "is_reserved": 0, "lon": -77.09210416666667, "is_disabled": 0, "fusion_lat": 0.0, "lat": 38.91710166666667, "bike_id": "94fc5f5e69629aab78f9d7308858d612", "fusion_lon": 0.0}, {"rental_uris": {"ios": "https://dc.lft.to/lastmile_qr_scan", "android": "https://dc.lft.to/lastmile_qr_scan"}, "type": "electric_scooter", "name": "3684c89913ee58cbfdac85424821f7b1", "is_reserved": 0, "lon": -77.02885516666667, "is_disabled": 0, "fusion_lat": 0.0, "lat": 38.903355, "bike_id": "3684c89913ee58cbfdac85424821f7b1", "fusion_lon": 0.0}, {"rental_uris": {"ios": "https://dc.lft.to/lastmile_qr_scan", "android": "https://dc.lft.to/lastmile_qr_scan"}, "type": "electric_scooter", "name": "e7013f61358ee6960363c394aa86eae9", "is_reserved": 0, "lon": -77.027043, "is_disabled": 0, "fusion_lat": 0.0, "lat": 38.899897, "bike_id": "e7013f61358ee6960363c394aa86eae9", "fusion_lon": 0.0}, {"rental_uris": {"ios": "https://dc.lft.to/lastmile_qr_scan", "android": "https://dc.lft.to/lastmile_qr_scan"}, "type": "electric_scooter", "name": "1f4e46db27794763da03168c193dfd10", "is_reserved": 0, "lon": -77.01439416666666, "is_disabled": 0, "fusion_lat": 0.0, "lat": 38.9024065, "bike_id": "1f4e46db27794763da03168c193dfd10", "fusion_lon": 0.0}, {"rental_uris": {"ios": "https://dc.lft.to/lastmile_qr_scan", "android": "https://dc.lft.to/lastmile_qr_scan"}, "type": "electric_scooter", "name": "3b0cdb36cd3ad379b602bee69a67b414", "is_reserved": 0, "lon": -77.0344115, "is_disabled": 0, "fusion_lat": 0.0, "lat": 38.9060475, "bike_id": "3b0cdb36cd3ad379b602bee69a67b414", "fusion_lon": 0.0}, {"rental_uris": {"ios": "https://dc.lft.to/lastmile_qr_scan", "android": "https://dc.lft.to/lastmile_qr_scan"}, "type": "electric_bike", "name": "17c6ba39ff8dba3b969d3e01386e1c28", "is_reserved": 0, "lon": -77.02030683333334, "is_disabled": 0, "fusion_lat": 0.0, "lat": 38.965575666666666, "bike_id": "17c6ba39ff8dba3b969d3e01386e1c28", "fusion_lon": 0.0}, {"rental_uris": {"ios": "https://dc.lft.to/lastmile_qr_scan", "android": "https://dc.lft.to/lastmile_qr_scan"}, "type": "electric_scooter", "name": "d2941da3173cf49c96050316b4f77a99", "is_reserved": 0, "lon": -77.03374066666667, "is_disabled": 0, "fusion_lat": 0.0, "lat": 38.92866083333333, "bike_id": "d2941da3173cf49c96050316b4f77a99", "fusion_lon": 0.0}, {"rental_uris": {"ios": "https://dc.lft.to/lastmile_qr_scan", "android": "https://dc.lft.to/lastmile_qr_scan"}, "type": "electric_scooter", "name": "470c71d95d875732f4dd66ef2e9b226c", "is_reserved": 0, "lon": -76.99131783333333, "is_disabled": 0, "fusion_lat": 0.0, "lat": 38.900105333333336, "bike_id": "470c71d95d875732f4dd66ef2e9b226c", "fusion_lon": 0.0}, {"rental_uris": {"ios": "https://dc.lft.to/lastmile_qr_scan", "android": "https://dc.lft.to/lastmile_qr_scan"}, "type": "electric_scooter", "name": "b8003b19761d83238970af6b21d3464c", "is_reserved": 0, "lon": -77.03555316666667, "is_disabled": 0, "fusion_lat": 0.0, "lat": 38.917216, "bike_id": "b8003b19761d83238970af6b21d3464c", "fusion_lon": 0.0}, {"rental_uris": {"ios": "https://dc.lft.to/lastmile_qr_scan", "android": "https://dc.lft.to/lastmile_qr_scan"}, "type": "electric_scooter", "name": "44dc37bab2f0dc51ba2117697591ae0a", "is_reserved": 0, "lon": -77.037022, "is_disabled": 0, "fusion_lat": 0.0, "lat": 38.92832683333334, "bike_id": "44dc37bab2f0dc51ba2117697591ae0a", "fusion_lon": 0.0}, {"rental_uris": {"ios": "https://dc.lft.to/lastmile_qr_scan", "android": "https://dc.lft.to/lastmile_qr_scan"}, "type": "electric_scooter", "name": "6617d0dc7828bc7154d95bb55a765028", "is_reserved": 0, "lon": -77.0559945, "is_disabled": 0, "fusion_lat": 0.0, "lat": 38.894267, "bike_id": "6617d0dc7828bc7154d95bb55a765028", "fusion_lon": 0.0}, {"rental_uris": {"ios": "https://dc.lft.to/lastmile_qr_scan", "android": "https://dc.lft.to/lastmile_qr_scan"}, "type": "electric_scooter", "name": "9912a13f2bc05c33557519b546d32975", "is_reserved": 0, "lon": -77.026953, "is_disabled": 0, "fusion_lat": 0.0, "lat": 38.91150283333333, "bike_id": "9912a13f2bc05c33557519b546d32975", "fusion_lon": 0.0}, {"rental_uris": {"ios": "https://dc.lft.to/lastmile_qr_scan", "android": "https://dc.lft.to/lastmile_qr_scan"}, "type": "electric_scooter", "name": "ecd19eb538af25a1124aa2e0f633bd6d", "is_reserved": 0, "lon": -77.0391195, "is_disabled": 0, "fusion_lat": 0.0, "lat": 38.8983845, "bike_id": "ecd19eb538af25a1124aa2e0f633bd6d", "fusion_lon": 0.0}, {"rental_uris": {"ios": "https://dc.lft.to/lastmile_qr_scan", "android": "https://dc.lft.to/lastmile_qr_scan"}, "type": "electric_scooter", "name": "4c79a5b1fe3c531fd5a0a9ddad05cf27", "is_reserved": 0, "lon": -77.01411683333333, "is_disabled": 0, "fusion_lat": 0.0, "lat": 38.928380833333335, "bike_id": "4c79a5b1fe3c531fd5a0a9ddad05cf27", "fusion_lon": 0.0}, {"rental_uris": {"ios": "https://dc.lft.to/lastmile_qr_scan", "android": "https://dc.lft.to/lastmile_qr_scan"}, "type": "electric_scooter", "name": "6c641ab1b80daa643ed0067c7e47351f", "is_reserved": 0, "lon": -77.0205165, "is_disabled": 0, "fusion_lat": 0.0, "lat": 38.898724, "bike_id": "6c641ab1b80daa643ed0067c7e47351f", "fusion_lon": 0.0}, {"rental_uris": {"ios": "https://dc.lft.to/lastmile_qr_scan", "android": "https://dc.lft.to/lastmile_qr_scan"}, "type": "electric_scooter", "name": "4ed5c17ec3468ceaf45ef3d81557b453", "is_reserved": 0, "lon": -77.032372, "is_disabled": 0, "fusion_lat": 0.0, "lat": 38.9289505, "bike_id": "4ed5c17ec3468ceaf45ef3d81557b453", "fusion_lon": 0.0}, {"rental_uris": {"ios": "https://dc.lft.to/lastmile_qr_scan", "android": "https://dc.lft.to/lastmile_qr_scan"}, "type": "electric_scooter", "name": "184edc9beb021f50aedb7292a1545114", "is_reserved": 0, "lon": -76.96540183333333, "is_disabled": 0, "fusion_lat": 0.0, "lat": 38.91843866666667, "bike_id": "184edc9beb021f50aedb7292a1545114", "fusion_lon": 0.0}, {"rental_uris": {"ios": "https://dc.lft.to/lastmile_qr_scan", "android": "https://dc.lft.to/lastmile_qr_scan"}, "type": "electric_scooter", "name": "7b1d275de188dea0ec3483ccb4678cc1", "is_reserved": 0, "lon": -77.02132666666667, "is_disabled": 0, "fusion_lat": 0.0, "lat": 38.913333333333334, "bike_id": "7b1d275de188dea0ec3483ccb4678cc1", "fusion_lon": 0.0}, {"rental_uris": {"ios": "https://dc.lft.to/lastmile_qr_scan", "android": "https://dc.lft.to/lastmile_qr_scan"}, "type": "electric_scooter", "name": "33b8ddd6528137219027d26b068d0fd1", "is_reserved": 0, "lon": -77.03299483333333, "is_disabled": 0, "fusion_lat": 0.0, "lat": 38.92463583333333, "bike_id": "33b8ddd6528137219027d26b068d0fd1", "fusion_lon": 0.0}, {"rental_uris": {"ios": "https://dc.lft.to/lastmile_qr_scan", "android": "https://dc.lft.to/lastmile_qr_scan"}, "type": "electric_scooter", "name": "a7f5093fe773ac236fa7d08d8fff50fe", "is_reserved": 0, "lon": -77.03778466666667, "is_disabled": 0, "fusion_lat": 0.0, "lat": 38.907339666666665, "bike_id": "a7f5093fe773ac236fa7d08d8fff50fe", "fusion_lon": 0.0}, {"rental_uris": {"ios": "https://dc.lft.to/lastmile_qr_scan", "android": "https://dc.lft.to/lastmile_qr_scan"}, "type": "electric_scooter", "name": "338950c3b2185cf7831cf515968c88c9", "is_reserved": 0, "lon": -76.982615, "is_disabled": 0, "fusion_lat": 0.0, "lat": 38.86634983333333, "bike_id": "338950c3b2185cf7831cf515968c88c9", "fusion_lon": 0.0}, {"rental_uris": {"ios": "https://dc.lft.to/lastmile_qr_scan", "android": "https://dc.lft.to/lastmile_qr_scan"}, "type": "electric_scooter", "name": "06c5b7654dbf70144dc5333b64a4103d", "is_reserved": 0, "lon": -77.02662116666667, "is_disabled": 0, "fusion_lat": 0.0, "lat": 38.922194, "bike_id": "06c5b7654dbf70144dc5333b64a4103d", "fusion_lon": 0.0}, {"rental_uris": {"ios": "https://dc.lft.to/lastmile_qr_scan", "android": "https://dc.lft.to/lastmile_qr_scan"}, "type": "electric_scooter", "name": "180b8e5ad673e9e0beee8e8bf7b47375", "is_reserved": 0, "lon": -77.06553583333333, "is_disabled": 0, "fusion_lat": 0.0, "lat": 38.911716, "bike_id": "180b8e5ad673e9e0beee8e8bf7b47375", "fusion_lon": 0.0}, {"rental_uris": {"ios": "https://dc.lft.to/lastmile_qr_scan", "android": "https://dc.lft.to/lastmile_qr_scan"}, "type": "electric_scooter", "name": "b159eff7366fa6e04f3b86c90643bc04", "is_reserved": 0, "lon": -77.04718166666666, "is_disabled": 0, "fusion_lat": 0.0, "lat": 38.917927, "bike_id": "b159eff7366fa6e04f3b86c90643bc04", "fusion_lon": 0.0}, {"rental_uris": {"ios": "https://dc.lft.to/lastmile_qr_scan", "android": "https://dc.lft.to/lastmile_qr_scan"}, "type": "electric_scooter", "name": "3df6f603347e2f33485db0b00c1ca38a", "is_reserved": 0, "lon": -77.021404, "is_disabled": 0, "fusion_lat": 0.0, "lat": 38.89752416666666, "bike_id": "3df6f603347e2f33485db0b00c1ca38a", "fusion_lon": 0.0}, {"rental_uris": {"ios": "https://dc.lft.to/lastmile_qr_scan", "android": "https://dc.lft.to/lastmile_qr_scan"}, "type": "electric_scooter", "name": "2b3fd507f80e9881baeaddfe2c31e8b7", "is_reserved": 0, "lon": -77.02132766666666, "is_disabled": 0, "fusion_lat": 0.0, "lat": 38.926999333333335, "bike_id": "2b3fd507f80e9881baeaddfe2c31e8b7", "fusion_lon": 0.0}, {"rental_uris": {"ios": "https://dc.lft.to/lastmile_qr_scan", "android": "https://dc.lft.to/lastmile_qr_scan"}, "type": "electric_scooter", "name": "69dd5a819d8114ef9789099be28f5c74", "is_reserved": 0, "lon": -76.9788935, "is_disabled": 0, "fusion_lat": 0.0, "lat": 38.8853845, "bike_id": "69dd5a819d8114ef9789099be28f5c74", "fusion_lon": 0.0}, {"rental_uris": {"ios": "https://dc.lft.to/lastmile_qr_scan", "android": "https://dc.lft.to/lastmile_qr_scan"}, "type": "electric_scooter", "name": "64a1664fea583b95b863f1479580b1a9", "is_reserved": 0, "lon": -77.0434985, "is_disabled": 0, "fusion_lat": 0.0, "lat": 38.923545, "bike_id": "64a1664fea583b95b863f1479580b1a9", "fusion_lon": 0.0}, {"rental_uris": {"ios": "https://dc.lft.to/lastmile_qr_scan", "android": "https://dc.lft.to/lastmile_qr_scan"}, "type": "electric_bike", "name": "e48ae7dd6149a2f967463f836611db80", "is_reserved": 0, "lon": -77.02012266666667, "is_disabled": 0, "fusion_lat": 0.0, "lat": 38.96441433333333, "bike_id": "e48ae7dd6149a2f967463f836611db80", "fusion_lon": 0.0}, {"rental_uris": {"ios": "https://dc.lft.to/lastmile_qr_scan", "android": "https://dc.lft.to/lastmile_qr_scan"}, "type": "electric_scooter", "name": "47a006022789ba72acecd640c0603eb8", "is_reserved": 0, "lon": -77.02335116666667, "is_disabled": 0, "fusion_lat": 0.0, "lat": 38.9230125, "bike_id": "47a006022789ba72acecd640c0603eb8", "fusion_lon": 0.0}, {"rental_uris": {"ios": "https://dc.lft.to/lastmile_qr_scan", "android": "https://dc.lft.to/lastmile_qr_scan"}, "type": "electric_scooter", "name": "4e32d35b7d297b17afdf5b23f0a16b73", "is_reserved": 0, "lon": -77.026127, "is_disabled": 0, "fusion_lat": 0.0, "lat": 38.916966333333335, "bike_id": "4e32d35b7d297b17afdf5b23f0a16b73", "fusion_lon": 0.0}, {"rental_uris": {"ios": "https://dc.lft.to/lastmile_qr_scan", "android": "https://dc.lft.to/lastmile_qr_scan"}, "type": "electric_scooter", "name": "70a3327ea214f1d99ec8bee5b2bf8219", "is_reserved": 0, "lon": -77.04882983333333, "is_disabled": 0, "fusion_lat": 0.0, "lat": 38.90906666666667, "bike_id": "70a3327ea214f1d99ec8bee5b2bf8219", "fusion_lon": 0.0}, {"rental_uris": {"ios": "https://dc.lft.to/lastmile_qr_scan", "android": "https://dc.lft.to/lastmile_qr_scan"}, "type": "electric_scooter", "name": "19dec26e4b53053d01b0bfff84ecb3ef", "is_reserved": 0, "lon": -77.02984516666666, "is_disabled": 0, "fusion_lat": 0.0, "lat": 38.91678233333333, "bike_id": "19dec26e4b53053d01b0bfff84ecb3ef", "fusion_lon": 0.0}, {"rental_uris": {"ios": "https://dc.lft.to/lastmile_qr_scan", "android": "https://dc.lft.to/lastmile_qr_scan"}, "type": "electric_scooter", "name": "20736cf339fb94fdfdffb9e7bdca83cd", "is_reserved": 0, "lon": -76.946646, "is_disabled": 0, "fusion_lat": 0.0, "lat": 38.89871516666667, "bike_id": "20736cf339fb94fdfdffb9e7bdca83cd", "fusion_lon": 0.0}, {"rental_uris": {"ios": "https://dc.lft.to/lastmile_qr_scan", "android": "https://dc.lft.to/lastmile_qr_scan"}, "type": "electric_scooter", "name": "0f7a8ee4de3cfdc404318e31eeb70af0", "is_reserved": 0, "lon": -77.025291, "is_disabled": 0, "fusion_lat": 0.0, "lat": 38.901159666666665, "bike_id": "0f7a8ee4de3cfdc404318e31eeb70af0", "fusion_lon": 0.0}, {"rental_uris": {"ios": "https://dc.lft.to/lastmile_qr_scan", "android": "https://dc.lft.to/lastmile_qr_scan"}, "type": "electric_scooter", "name": "e8a29f6d7fcd7df220b5f19a59b16ba3", "is_reserved": 0, "lon": -76.99481483333334, "is_disabled": 0, "fusion_lat": 0.0, "lat": 38.89986016666667, "bike_id": "e8a29f6d7fcd7df220b5f19a59b16ba3", "fusion_lon": 0.0}, {"rental_uris": {"ios": "https://dc.lft.to/lastmile_qr_scan", "android": "https://dc.lft.to/lastmile_qr_scan"}, "type": "electric_scooter", "name": "517254e90c31e954d2b10ce68429d93f", "is_reserved": 0, "lon": -77.04193316666667, "is_disabled": 0, "fusion_lat": 0.0, "lat": 38.92059, "bike_id": "517254e90c31e954d2b10ce68429d93f", "fusion_lon": 0.0}, {"rental_uris": {"ios": "https://dc.lft.to/lastmile_qr_scan", "android": "https://dc.lft.to/lastmile_qr_scan"}, "type": "electric_scooter", "name": "19f727cc328c19dbfaaf0d78abe9521b", "is_reserved": 0, "lon": -77.04611883333334, "is_disabled": 0, "fusion_lat": 0.0, "lat": 38.909653166666665, "bike_id": "19f727cc328c19dbfaaf0d78abe9521b", "fusion_lon": 0.0}, {"rental_uris": {"ios": "https://dc.lft.to/lastmile_qr_scan", "android": "https://dc.lft.to/lastmile_qr_scan"}, "type": "electric_scooter", "name": "c5da485634e0d865a1b936e9deee7f63", "is_reserved": 0, "lon": -76.9987715, "is_disabled": 0, "fusion_lat": 0.0, "lat": 38.95289616666667, "bike_id": "c5da485634e0d865a1b936e9deee7f63", "fusion_lon": 0.0}, {"rental_uris": {"ios": "https://dc.lft.to/lastmile_qr_scan", "android": "https://dc.lft.to/lastmile_qr_scan"}, "type": "electric_scooter", "name": "2a80d126522726d28f86e0a780b80e7c", "is_reserved": 0, "lon": -77.0386755, "is_disabled": 0, "fusion_lat": 0.0, "lat": 38.911161666666665, "bike_id": "2a80d126522726d28f86e0a780b80e7c", "fusion_lon": 0.0}, {"rental_uris": {"ios": "https://dc.lft.to/lastmile_qr_scan", "android": "https://dc.lft.to/lastmile_qr_scan"}, "type": "electric_scooter", "name": "070b5cf98516212cec5d8779740abf55", "is_reserved": 0, "lon": -77.03264366666667, "is_disabled": 0, "fusion_lat": 0.0, "lat": 38.910415, "bike_id": "070b5cf98516212cec5d8779740abf55", "fusion_lon": 0.0}, {"rental_uris": {"ios": "https://dc.lft.to/lastmile_qr_scan", "android": "https://dc.lft.to/lastmile_qr_scan"}, "type": "electric_scooter", "name": "f450e25550ea985786bec2463caa5dfc", "is_reserved": 0, "lon": -77.05785733333333, "is_disabled": 0, "fusion_lat": 0.0, "lat": 38.9009775, "bike_id": "f450e25550ea985786bec2463caa5dfc", "fusion_lon": 0.0}, {"rental_uris": {"ios": "https://dc.lft.to/lastmile_qr_scan", "android": "https://dc.lft.to/lastmile_qr_scan"}, "type": "electric_scooter", "name": "94531fffcd2daba3e359fe0c04d6a948", "is_reserved": 0, "lon": -77.04202516666666, "is_disabled": 0, "fusion_lat": 0.0, "lat": 38.90398066666667, "bike_id": "94531fffcd2daba3e359fe0c04d6a948", "fusion_lon": 0.0}, {"rental_uris": {"ios": "https://dc.lft.to/lastmile_qr_scan", "android": "https://dc.lft.to/lastmile_qr_scan"}, "type": "electric_bike", "name": "7f4341db4d8602d63c809bd61a2291e0", "is_reserved": 0, "lon": -77.03302966666666, "is_disabled": 0, "fusion_lat": 0.0, "lat": 38.92622516666667, "bike_id": "7f4341db4d8602d63c809bd61a2291e0", "fusion_lon": 0.0}, {"rental_uris": {"ios": "https://dc.lft.to/lastmile_qr_scan", "android": "https://dc.lft.to/lastmile_qr_scan"}, "type": "electric_scooter", "name": "060535a880c3e601b561f3c53a57c815", "is_reserved": 0, "lon": -77.01469316666666, "is_disabled": 0, "fusion_lat": 0.0, "lat": 38.926657666666664, "bike_id": "060535a880c3e601b561f3c53a57c815", "fusion_lon": 0.0}, {"rental_uris": {"ios": "https://dc.lft.to/lastmile_qr_scan", "android": "https://dc.lft.to/lastmile_qr_scan"}, "type": "electric_scooter", "name": "5cf31c31ec3144e7934c87ee3d20235b", "is_reserved": 0, "lon": -77.00340766666666, "is_disabled": 0, "fusion_lat": 0.0, "lat": 38.91333866666667, "bike_id": "5cf31c31ec3144e7934c87ee3d20235b", "fusion_lon": 0.0}, {"rental_uris": {"ios": "https://dc.lft.to/lastmile_qr_scan", "android": "https://dc.lft.to/lastmile_qr_scan"}, "type": "electric_scooter", "name": "b7fae6b7b41dad131ca6da33c89824b6", "is_reserved": 0, "lon": -77.01979016666667, "is_disabled": 0, "fusion_lat": 0.0, "lat": 38.8872335, "bike_id": "b7fae6b7b41dad131ca6da33c89824b6", "fusion_lon": 0.0}, {"rental_uris": {"ios": "https://dc.lft.to/lastmile_qr_scan", "android": "https://dc.lft.to/lastmile_qr_scan"}, "type": "electric_scooter", "name": "34cd6a47b3dca6a24776fd1c9023ccfa", "is_reserved": 0, "lon": -76.98372283333333, "is_disabled": 0, "fusion_lat": 0.0, "lat": 38.89975716666667, "bike_id": "34cd6a47b3dca6a24776fd1c9023ccfa", "fusion_lon": 0.0}, {"rental_uris": {"ios": "https://dc.lft.to/lastmile_qr_scan", "android": "https://dc.lft.to/lastmile_qr_scan"}, "type": "electric_scooter", "name": "af12caa9920876d97ac496b81aa7ee07", "is_reserved": 0, "lon": -77.02702216666667, "is_disabled": 0, "fusion_lat": 0.0, "lat": 38.895754833333335, "bike_id": "af12caa9920876d97ac496b81aa7ee07", "fusion_lon": 0.0}, {"rental_uris": {"ios": "https://dc.lft.to/lastmile_qr_scan", "android": "https://dc.lft.to/lastmile_qr_scan"}, "type": "electric_scooter", "name": "8a931b606161ec076d81cdfdb5a023e1", "is_reserved": 0, "lon": -77.02198616666666, "is_disabled": 0, "fusion_lat": 0.0, "lat": 38.9109975, "bike_id": "8a931b606161ec076d81cdfdb5a023e1", "fusion_lon": 0.0}, {"rental_uris": {"ios": "https://dc.lft.to/lastmile_qr_scan", "android": "https://dc.lft.to/lastmile_qr_scan"}, "type": "electric_scooter", "name": "87d3a83a5c32918970d37b3ed514420b", "is_reserved": 0, "lon": -77.03467483333333, "is_disabled": 0, "fusion_lat": 0.0, "lat": 38.90845433333333, "bike_id": "87d3a83a5c32918970d37b3ed514420b", "fusion_lon": 0.0}, {"rental_uris": {"ios": "https://dc.lft.to/lastmile_qr_scan", "android": "https://dc.lft.to/lastmile_qr_scan"}, "type": "electric_scooter", "name": "5d990335ecc7b7c793737c7ba52ce66f", "is_reserved": 0, "lon": -76.99747916666666, "is_disabled": 0, "fusion_lat": 0.0, "lat": 38.901321833333334, "bike_id": "5d990335ecc7b7c793737c7ba52ce66f", "fusion_lon": 0.0}, {"rental_uris": {"ios": "https://dc.lft.to/lastmile_qr_scan", "android": "https://dc.lft.to/lastmile_qr_scan"}, "type": "electric_scooter", "name": "4ae27b43851b73d9bf3ea75ace5273dd", "is_reserved": 0, "lon": -77.04465466666667, "is_disabled": 0, "fusion_lat": 0.0, "lat": 38.924670666666664, "bike_id": "4ae27b43851b73d9bf3ea75ace5273dd", "fusion_lon": 0.0}, {"rental_uris": {"ios": "https://dc.lft.to/lastmile_qr_scan", "android": "https://dc.lft.to/lastmile_qr_scan"}, "type": "electric_scooter", "name": "661b9b5806946ffc8da74a45998d7754", "is_reserved": 0, "lon": -77.032003, "is_disabled": 0, "fusion_lat": 0.0, "lat": 38.8946345, "bike_id": "661b9b5806946ffc8da74a45998d7754", "fusion_lon": 0.0}, {"rental_uris": {"ios": "https://dc.lft.to/lastmile_qr_scan", "android": "https://dc.lft.to/lastmile_qr_scan"}, "type": "electric_scooter", "name": "bc247072aaa5242fce8c5764b417d50b", "is_reserved": 0, "lon": -77.01111116666667, "is_disabled": 0, "fusion_lat": 0.0, "lat": 38.895451333333334, "bike_id": "bc247072aaa5242fce8c5764b417d50b", "fusion_lon": 0.0}, {"rental_uris": {"ios": "https://dc.lft.to/lastmile_qr_scan", "android": "https://dc.lft.to/lastmile_qr_scan"}, "type": "electric_scooter", "name": "eb0c3c102e35bd24cd8f9c199cb1197c", "is_reserved": 0, "lon": -77.03721333333333, "is_disabled": 0, "fusion_lat": 0.0, "lat": 38.92653966666666, "bike_id": "eb0c3c102e35bd24cd8f9c199cb1197c", "fusion_lon": 0.0}, {"rental_uris": {"ios": "https://dc.lft.to/lastmile_qr_scan", "android": "https://dc.lft.to/lastmile_qr_scan"}, "type": "electric_bike", "name": "cb265c1266dec6c7a85fa5e06395ff45", "is_reserved": 0, "lon": -76.98845716666666, "is_disabled": 0, "fusion_lat": 0.0, "lat": 38.8428045, "bike_id": "cb265c1266dec6c7a85fa5e06395ff45", "fusion_lon": 0.0}, {"rental_uris": {"ios": "https://dc.lft.to/lastmile_qr_scan", "android": "https://dc.lft.to/lastmile_qr_scan"}, "type": "electric_scooter", "name": "6411ab8d35027d24c632bf2ba410a489", "is_reserved": 0, "lon": -77.044872, "is_disabled": 0, "fusion_lat": 0.0, "lat": 38.90008533333334, "bike_id": "6411ab8d35027d24c632bf2ba410a489", "fusion_lon": 0.0}, {"rental_uris": {"ios": "https://dc.lft.to/lastmile_qr_scan", "android": "https://dc.lft.to/lastmile_qr_scan"}, "type": "electric_scooter", "name": "068197b43a18b56cbebd0341e8cc9cfc", "is_reserved": 0, "lon": -77.01878666666667, "is_disabled": 0, "fusion_lat": 0.0, "lat": 38.9025285, "bike_id": "068197b43a18b56cbebd0341e8cc9cfc", "fusion_lon": 0.0}, {"rental_uris": {"ios": "https://dc.lft.to/lastmile_qr_scan", "android": "https://dc.lft.to/lastmile_qr_scan"}, "type": "electric_scooter", "name": "d1d033c9fb1c1e92404acc48ab670c69", "is_reserved": 0, "lon": -77.04469, "is_disabled": 0, "fusion_lat": 0.0, "lat": 38.904062, "bike_id": "d1d033c9fb1c1e92404acc48ab670c69", "fusion_lon": 0.0}, {"rental_uris": {"ios": "https://dc.lft.to/lastmile_qr_scan", "android": "https://dc.lft.to/lastmile_qr_scan"}, "type": "electric_scooter", "name": "03c928ae51a72804643fdb7db579fb7a", "is_reserved": 0, "lon": -76.98535516666666, "is_disabled": 0, "fusion_lat": 0.0, "lat": 38.879703166666665, "bike_id": "03c928ae51a72804643fdb7db579fb7a", "fusion_lon": 0.0}, {"rental_uris": {"ios": "https://dc.lft.to/lastmile_qr_scan", "android": "https://dc.lft.to/lastmile_qr_scan"}, "type": "electric_scooter", "name": "6567d0220fc77e318234573cded93163", "is_reserved": 0, "lon": -77.04006733333334, "is_disabled": 0, "fusion_lat": 0.0, "lat": 38.934283666666666, "bike_id": "6567d0220fc77e318234573cded93163", "fusion_lon": 0.0}, {"rental_uris": {"ios": "https://dc.lft.to/lastmile_qr_scan", "android": "https://dc.lft.to/lastmile_qr_scan"}, "type": "electric_scooter", "name": "0a2a1350a282cc2ad6be5b1395a28b0b", "is_reserved": 0, "lon": -76.99627883333334, "is_disabled": 0, "fusion_lat": 0.0, "lat": 38.90003683333333, "bike_id": "0a2a1350a282cc2ad6be5b1395a28b0b", "fusion_lon": 0.0}, {"rental_uris": {"ios": "https://dc.lft.to/lastmile_qr_scan", "android": "https://dc.lft.to/lastmile_qr_scan"}, "type": "electric_bike", "name": "5ff1d14c83df59be5a1167267d149a92", "is_reserved": 0, "lon": -76.96894616666667, "is_disabled": 0, "fusion_lat": 0.0, "lat": 38.869804333333335, "bike_id": "5ff1d14c83df59be5a1167267d149a92", "fusion_lon": 0.0}, {"rental_uris": {"ios": "https://dc.lft.to/lastmile_qr_scan", "android": "https://dc.lft.to/lastmile_qr_scan"}, "type": "electric_scooter", "name": "e20876f6c944a775c3ca09366b95a4f8", "is_reserved": 0, "lon": -77.01974766666666, "is_disabled": 0, "fusion_lat": 0.0, "lat": 38.899911333333336, "bike_id": "e20876f6c944a775c3ca09366b95a4f8", "fusion_lon": 0.0}, {"rental_uris": {"ios": "https://dc.lft.to/lastmile_qr_scan", "android": "https://dc.lft.to/lastmile_qr_scan"}, "type": "electric_scooter", "name": "40bb6e17f6ca932c6e89c184ef6bce4c", "is_reserved": 0, "lon": -77.02201433333333, "is_disabled": 0, "fusion_lat": 0.0, "lat": 38.911024, "bike_id": "40bb6e17f6ca932c6e89c184ef6bce4c", "fusion_lon": 0.0}, {"rental_uris": {"ios": "https://dc.lft.to/lastmile_qr_scan", "android": "https://dc.lft.to/lastmile_qr_scan"}, "type": "electric_scooter", "name": "7781c0d7f8bd1b0dd066c6287c981672", "is_reserved": 0, "lon": -77.02381933333334, "is_disabled": 0, "fusion_lat": 0.0, "lat": 38.90317866666667, "bike_id": "7781c0d7f8bd1b0dd066c6287c981672", "fusion_lon": 0.0}, {"rental_uris": {"ios": "https://dc.lft.to/lastmile_qr_scan", "android": "https://dc.lft.to/lastmile_qr_scan"}, "type": "electric_scooter", "name": "a63987986057eb948ce8dec201bfa7f6", "is_reserved": 0, "lon": -77.0093395, "is_disabled": 0, "fusion_lat": 0.0, "lat": 38.874469833333336, "bike_id": "a63987986057eb948ce8dec201bfa7f6", "fusion_lon": 0.0}, {"rental_uris": {"ios": "https://dc.lft.to/lastmile_qr_scan", "android": "https://dc.lft.to/lastmile_qr_scan"}, "type": "electric_scooter", "name": "ca6587865fcab5cbd9a52faaecd8671a", "is_reserved": 0, "lon": -77.03565183333333, "is_disabled": 0, "fusion_lat": 0.0, "lat": 38.92732316666667, "bike_id": "ca6587865fcab5cbd9a52faaecd8671a", "fusion_lon": 0.0}, {"rental_uris": {"ios": "https://dc.lft.to/lastmile_qr_scan", "android": "https://dc.lft.to/lastmile_qr_scan"}, "type": "electric_scooter", "name": "7aba893418774ffeed301fb76fd2c5be", "is_reserved": 0, "lon": -76.99149066666666, "is_disabled": 0, "fusion_lat": 0.0, "lat": 38.873392, "bike_id": "7aba893418774ffeed301fb76fd2c5be", "fusion_lon": 0.0}, {"rental_uris": {"ios": "https://dc.lft.to/lastmile_qr_scan", "android": "https://dc.lft.to/lastmile_qr_scan"}, "type": "electric_bike", "name": "d87b37c49ba30081f8cccf43902c37e7", "is_reserved": 0, "lon": -77.12886766666666, "is_disabled": 0, "fusion_lat": 0.0, "lat": 38.90603466666666, "bike_id": "d87b37c49ba30081f8cccf43902c37e7", "fusion_lon": 0.0}, {"rental_uris": {"ios": "https://dc.lft.to/lastmile_qr_scan", "android": "https://dc.lft.to/lastmile_qr_scan"}, "type": "electric_scooter", "name": "50f91fd05a9c64a8c65067e557b8b5ff", "is_reserved": 0, "lon": -77.0337175, "is_disabled": 0, "fusion_lat": 0.0, "lat": 38.9386725, "bike_id": "50f91fd05a9c64a8c65067e557b8b5ff", "fusion_lon": 0.0}, {"rental_uris": {"ios": "https://dc.lft.to/lastmile_qr_scan", "android": "https://dc.lft.to/lastmile_qr_scan"}, "type": "electric_bike", "name": "884bd0a211dea43dbbfeb884aab52fb7", "is_reserved": 0, "lon": -77.013145, "is_disabled": 0, "fusion_lat": 0.0, "lat": 38.929957333333334, "bike_id": "884bd0a211dea43dbbfeb884aab52fb7", "fusion_lon": 0.0}, {"rental_uris": {"ios": "https://dc.lft.to/lastmile_qr_scan", "android": "https://dc.lft.to/lastmile_qr_scan"}, "type": "electric_bike", "name": "8ed1de795587b17c26a07c892e1f4f4c", "is_reserved": 0, "lon": -77.1007665, "is_disabled": 0, "fusion_lat": 0.0, "lat": 38.857405, "bike_id": "8ed1de795587b17c26a07c892e1f4f4c", "fusion_lon": 0.0}, {"rental_uris": {"ios": "https://dc.lft.to/lastmile_qr_scan", "android": "https://dc.lft.to/lastmile_qr_scan"}, "type": "electric_scooter", "name": "750c73e6eb76f231ee24dd130b6f5155", "is_reserved": 0, "lon": -77.0027665, "is_disabled": 0, "fusion_lat": 0.0, "lat": 38.887661, "bike_id": "750c73e6eb76f231ee24dd130b6f5155", "fusion_lon": 0.0}, {"rental_uris": {"ios": "https://dc.lft.to/lastmile_qr_scan", "android": "https://dc.lft.to/lastmile_qr_scan"}, "type": "electric_bike", "name": "2305887521820a1e8ba379c4070d0157", "is_reserved": 0, "lon": -76.9732215, "is_disabled": 0, "fusion_lat": 0.0, "lat": 38.865161, "bike_id": "2305887521820a1e8ba379c4070d0157", "fusion_lon": 0.0}, {"rental_uris": {"ios": "https://dc.lft.to/lastmile_qr_scan", "android": "https://dc.lft.to/lastmile_qr_scan"}, "type": "electric_scooter", "name": "a20733e22e9adf36dc906f49eb0e3727", "is_reserved": 0, "lon": -77.04959283333334, "is_disabled": 0, "fusion_lat": 0.0, "lat": 38.9158555, "bike_id": "a20733e22e9adf36dc906f49eb0e3727", "fusion_lon": 0.0}, {"rental_uris": {"ios": "https://dc.lft.to/lastmile_qr_scan", "android": "https://dc.lft.to/lastmile_qr_scan"}, "type": "electric_scooter", "name": "58c9937c4d8df3f7f422088b96857dfd", "is_reserved": 0, "lon": -77.04491033333333, "is_disabled": 0, "fusion_lat": 0.0, "lat": 38.91582183333333, "bike_id": "58c9937c4d8df3f7f422088b96857dfd", "fusion_lon": 0.0}, {"rental_uris": {"ios": "https://dc.lft.to/lastmile_qr_scan", "android": "https://dc.lft.to/lastmile_qr_scan"}, "type": "electric_scooter", "name": "db364a584e3984dc6df78aae75ca068d", "is_reserved": 0, "lon": -77.022983, "is_disabled": 0, "fusion_lat": 0.0, "lat": 38.8984745, "bike_id": "db364a584e3984dc6df78aae75ca068d", "fusion_lon": 0.0}, {"rental_uris": {"ios": "https://dc.lft.to/lastmile_qr_scan", "android": "https://dc.lft.to/lastmile_qr_scan"}, "type": "electric_scooter", "name": "99a5a63b976deb25913cd636741a84de", "is_reserved": 0, "lon": -77.0316625, "is_disabled": 0, "fusion_lat": 0.0, "lat": 38.929008333333336, "bike_id": "99a5a63b976deb25913cd636741a84de", "fusion_lon": 0.0}, {"rental_uris": {"ios": "https://dc.lft.to/lastmile_qr_scan", "android": "https://dc.lft.to/lastmile_qr_scan"}, "type": "electric_scooter", "name": "3db6365b4f9402360654ea02068ef416", "is_reserved": 0, "lon": -77.00414333333333, "is_disabled": 0, "fusion_lat": 0.0, "lat": 38.87745666666667, "bike_id": "3db6365b4f9402360654ea02068ef416", "fusion_lon": 0.0}, {"rental_uris": {"ios": "https://dc.lft.to/lastmile_qr_scan", "android": "https://dc.lft.to/lastmile_qr_scan"}, "type": "electric_scooter", "name": "1751b2a314db8541c0381d39faa5c67f", "is_reserved": 0, "lon": -76.985348, "is_disabled": 0, "fusion_lat": 0.0, "lat": 38.858519333333334, "bike_id": "1751b2a314db8541c0381d39faa5c67f", "fusion_lon": 0.0}, {"rental_uris": {"ios": "https://dc.lft.to/lastmile_qr_scan", "android": "https://dc.lft.to/lastmile_qr_scan"}, "type": "electric_scooter", "name": "af2070a689899cb6cfe7949cf0aa8883", "is_reserved": 0, "lon": -77.045271, "is_disabled": 0, "fusion_lat": 0.0, "lat": 38.91128366666667, "bike_id": "af2070a689899cb6cfe7949cf0aa8883", "fusion_lon": 0.0}, {"rental_uris": {"ios": "https://dc.lft.to/lastmile_qr_scan", "android": "https://dc.lft.to/lastmile_qr_scan"}, "type": "electric_scooter", "name": "21b0a30acfed34b80208e885be910f3e", "is_reserved": 0, "lon": -77.00220666666667, "is_disabled": 0, "fusion_lat": 0.0, "lat": 38.8945405, "bike_id": "21b0a30acfed34b80208e885be910f3e", "fusion_lon": 0.0}, {"rental_uris": {"ios": "https://dc.lft.to/lastmile_qr_scan", "android": "https://dc.lft.to/lastmile_qr_scan"}, "type": "electric_scooter", "name": "17ecdd83bc9465204594759af08a76bb", "is_reserved": 0, "lon": -77.0315655, "is_disabled": 0, "fusion_lat": 0.0, "lat": 38.905876, "bike_id": "17ecdd83bc9465204594759af08a76bb", "fusion_lon": 0.0}, {"rental_uris": {"ios": "https://dc.lft.to/lastmile_qr_scan", "android": "https://dc.lft.to/lastmile_qr_scan"}, "type": "electric_scooter", "name": "2986601db399c79ff834d5dfc01f7cf1", "is_reserved": 0, "lon": -77.01650516666666, "is_disabled": 0, "fusion_lat": 0.0, "lat": 38.92928883333333, "bike_id": "2986601db399c79ff834d5dfc01f7cf1", "fusion_lon": 0.0}, {"rental_uris": {"ios": "https://dc.lft.to/lastmile_qr_scan", "android": "https://dc.lft.to/lastmile_qr_scan"}, "type": "electric_scooter", "name": "7ca1f1380781f91f922030f235dea912", "is_reserved": 0, "lon": -76.98697516666667, "is_disabled": 0, "fusion_lat": 0.0, "lat": 38.913020333333336, "bike_id": "7ca1f1380781f91f922030f235dea912", "fusion_lon": 0.0}, {"rental_uris": {"ios": "https://dc.lft.to/lastmile_qr_scan", "android": "https://dc.lft.to/lastmile_qr_scan"}, "type": "electric_scooter", "name": "cae54a593869a7d4564f1e140fcfa31b", "is_reserved": 0, "lon": -77.03628733333333, "is_disabled": 0, "fusion_lat": 0.0, "lat": 38.9062665, "bike_id": "cae54a593869a7d4564f1e140fcfa31b", "fusion_lon": 0.0}, {"rental_uris": {"ios": "https://dc.lft.to/lastmile_qr_scan", "android": "https://dc.lft.to/lastmile_qr_scan"}, "type": "electric_scooter", "name": "009e3b6ec858d94ba60fb186ec012254", "is_reserved": 0, "lon": -77.06693066666666, "is_disabled": 0, "fusion_lat": 0.0, "lat": 38.9098425, "bike_id": "009e3b6ec858d94ba60fb186ec012254", "fusion_lon": 0.0}, {"rental_uris": {"ios": "https://dc.lft.to/lastmile_qr_scan", "android": "https://dc.lft.to/lastmile_qr_scan"}, "type": "electric_scooter", "name": "a65254b9905d0bde79e33fd97d30f34c", "is_reserved": 0, "lon": -77.02915716666666, "is_disabled": 0, "fusion_lat": 0.0, "lat": 38.93329816666667, "bike_id": "a65254b9905d0bde79e33fd97d30f34c", "fusion_lon": 0.0}, {"rental_uris": {"ios": "https://dc.lft.to/lastmile_qr_scan", "android": "https://dc.lft.to/lastmile_qr_scan"}, "type": "electric_scooter", "name": "06d6ffb3a611426c565a961f1847e0bd", "is_reserved": 0, "lon": -77.032018, "is_disabled": 0, "fusion_lat": 0.0, "lat": 38.91155933333334, "bike_id": "06d6ffb3a611426c565a961f1847e0bd", "fusion_lon": 0.0}, {"rental_uris": {"ios": "https://dc.lft.to/lastmile_qr_scan", "android": "https://dc.lft.to/lastmile_qr_scan"}, "type": "electric_scooter", "name": "a5c360057c4df650d5b96685244eb750", "is_reserved": 0, "lon": -77.01513, "is_disabled": 0, "fusion_lat": 0.0, "lat": 38.91051366666667, "bike_id": "a5c360057c4df650d5b96685244eb750", "fusion_lon": 0.0}, {"rental_uris": {"ios": "https://dc.lft.to/lastmile_qr_scan", "android": "https://dc.lft.to/lastmile_qr_scan"}, "type": "electric_scooter", "name": "7c9754b6f91db089bd9668ccc4681948", "is_reserved": 0, "lon": -77.0270945, "is_disabled": 0, "fusion_lat": 0.0, "lat": 38.9173, "bike_id": "7c9754b6f91db089bd9668ccc4681948", "fusion_lon": 0.0}, {"rental_uris": {"ios": "https://dc.lft.to/lastmile_qr_scan", "android": "https://dc.lft.to/lastmile_qr_scan"}, "type": "electric_scooter", "name": "26478a75bf098e24dd0cffe7163b967e", "is_reserved": 0, "lon": -76.99630733333333, "is_disabled": 0, "fusion_lat": 0.0, "lat": 38.900038, "bike_id": "26478a75bf098e24dd0cffe7163b967e", "fusion_lon": 0.0}, {"rental_uris": {"ios": "https://dc.lft.to/lastmile_qr_scan", "android": "https://dc.lft.to/lastmile_qr_scan"}, "type": "electric_scooter", "name": "40b473e0843c434da05f36808d78f52f", "is_reserved": 0, "lon": -77.02017133333334, "is_disabled": 0, "fusion_lat": 0.0, "lat": 38.92329466666666, "bike_id": "40b473e0843c434da05f36808d78f52f", "fusion_lon": 0.0}, {"rental_uris": {"ios": "https://dc.lft.to/lastmile_qr_scan", "android": "https://dc.lft.to/lastmile_qr_scan"}, "type": "electric_scooter", "name": "0d883f3eba539b818be9f7aba45e0cc8", "is_reserved": 0, "lon": -77.03643916666667, "is_disabled": 0, "fusion_lat": 0.0, "lat": 38.92486566666667, "bike_id": "0d883f3eba539b818be9f7aba45e0cc8", "fusion_lon": 0.0}, {"rental_uris": {"ios": "https://dc.lft.to/lastmile_qr_scan", "android": "https://dc.lft.to/lastmile_qr_scan"}, "type": "electric_scooter", "name": "97a5ed97d7d828b199d33d120c1a25b9", "is_reserved": 0, "lon": -77.04199583333333, "is_disabled": 0, "fusion_lat": 0.0, "lat": 38.92246816666667, "bike_id": "97a5ed97d7d828b199d33d120c1a25b9", "fusion_lon": 0.0}, {"rental_uris": {"ios": "https://dc.lft.to/lastmile_qr_scan", "android": "https://dc.lft.to/lastmile_qr_scan"}, "type": "electric_scooter", "name": "6e500c30f8092b1660d8269bb585f19a", "is_reserved": 0, "lon": -77.00302133333334, "is_disabled": 0, "fusion_lat": 0.0, "lat": 38.90906433333333, "bike_id": "6e500c30f8092b1660d8269bb585f19a", "fusion_lon": 0.0}, {"rental_uris": {"ios": "https://dc.lft.to/lastmile_qr_scan", "android": "https://dc.lft.to/lastmile_qr_scan"}, "type": "electric_scooter", "name": "ee3509bc20826be6b1c38deeb82136e9", "is_reserved": 0, "lon": -77.01061433333334, "is_disabled": 0, "fusion_lat": 0.0, "lat": 38.911904, "bike_id": "ee3509bc20826be6b1c38deeb82136e9", "fusion_lon": 0.0}, {"rental_uris": {"ios": "https://dc.lft.to/lastmile_qr_scan", "android": "https://dc.lft.to/lastmile_qr_scan"}, "type": "electric_scooter", "name": "b8340b7b10d4e57a73dd3b6848d1a7fa", "is_reserved": 0, "lon": -77.03906133333334, "is_disabled": 0, "fusion_lat": 0.0, "lat": 38.8983305, "bike_id": "b8340b7b10d4e57a73dd3b6848d1a7fa", "fusion_lon": 0.0}, {"rental_uris": {"ios": "https://dc.lft.to/lastmile_qr_scan", "android": "https://dc.lft.to/lastmile_qr_scan"}, "type": "electric_scooter", "name": "8a1dfb11188bed7f32d0827f7e234c80", "is_reserved": 0, "lon": -77.0418035, "is_disabled": 0, "fusion_lat": 0.0, "lat": 38.914141666666666, "bike_id": "8a1dfb11188bed7f32d0827f7e234c80", "fusion_lon": 0.0}, {"rental_uris": {"ios": "https://dc.lft.to/lastmile_qr_scan", "android": "https://dc.lft.to/lastmile_qr_scan"}, "type": "electric_scooter", "name": "474478ffa9621725832809715d67ca2f", "is_reserved": 0, "lon": -77.00055533333334, "is_disabled": 0, "fusion_lat": 0.0, "lat": 38.87382916666667, "bike_id": "474478ffa9621725832809715d67ca2f", "fusion_lon": 0.0}, {"rental_uris": {"ios": "https://dc.lft.to/lastmile_qr_scan", "android": "https://dc.lft.to/lastmile_qr_scan"}, "type": "electric_scooter", "name": "2b29b05d147084765b6e28a1a9d33c63", "is_reserved": 0, "lon": -77.012368, "is_disabled": 0, "fusion_lat": 0.0, "lat": 38.869786, "bike_id": "2b29b05d147084765b6e28a1a9d33c63", "fusion_lon": 0.0}, {"rental_uris": {"ios": "https://dc.lft.to/lastmile_qr_scan", "android": "https://dc.lft.to/lastmile_qr_scan"}, "type": "electric_scooter", "name": "6586747370e0e754ca2fcdcce50ccecb", "is_reserved": 0, "lon": -77.02398416666666, "is_disabled": 0, "fusion_lat": 0.0, "lat": 38.91327483333333, "bike_id": "6586747370e0e754ca2fcdcce50ccecb", "fusion_lon": 0.0}, {"rental_uris": {"ios": "https://dc.lft.to/lastmile_qr_scan", "android": "https://dc.lft.to/lastmile_qr_scan"}, "type": "electric_scooter", "name": "846dc5302a44321aa23c057e6818fe5c", "is_reserved": 0, "lon": -77.08183266666667, "is_disabled": 0, "fusion_lat": 0.0, "lat": 38.933358166666665, "bike_id": "846dc5302a44321aa23c057e6818fe5c", "fusion_lon": 0.0}, {"rental_uris": {"ios": "https://dc.lft.to/lastmile_qr_scan", "android": "https://dc.lft.to/lastmile_qr_scan"}, "type": "electric_scooter", "name": "0ea60e20944bb56776d525510ae5f799", "is_reserved": 0, "lon": -76.97362733333334, "is_disabled": 0, "fusion_lat": 0.0, "lat": 38.850253, "bike_id": "0ea60e20944bb56776d525510ae5f799", "fusion_lon": 0.0}, {"rental_uris": {"ios": "https://dc.lft.to/lastmile_qr_scan", "android": "https://dc.lft.to/lastmile_qr_scan"}, "type": "electric_scooter", "name": "2bcdd10dc2cd63af18ad0ee489f80034", "is_reserved": 0, "lon": -77.04353233333333, "is_disabled": 0, "fusion_lat": 0.0, "lat": 38.91352583333333, "bike_id": "2bcdd10dc2cd63af18ad0ee489f80034", "fusion_lon": 0.0}, {"rental_uris": {"ios": "https://dc.lft.to/lastmile_qr_scan", "android": "https://dc.lft.to/lastmile_qr_scan"}, "type": "electric_scooter", "name": "dd99bddc23545402f3c41fe9c2f7c62e", "is_reserved": 0, "lon": -76.95450683333334, "is_disabled": 0, "fusion_lat": 0.0, "lat": 38.8839445, "bike_id": "dd99bddc23545402f3c41fe9c2f7c62e", "fusion_lon": 0.0}, {"rental_uris": {"ios": "https://dc.lft.to/lastmile_qr_scan", "android": "https://dc.lft.to/lastmile_qr_scan"}, "type": "electric_scooter", "name": "d320380017e0f7435716eba7d994761c", "is_reserved": 0, "lon": -76.99514616666667, "is_disabled": 0, "fusion_lat": 0.0, "lat": 38.88991766666667, "bike_id": "d320380017e0f7435716eba7d994761c", "fusion_lon": 0.0}, {"rental_uris": {"ios": "https://dc.lft.to/lastmile_qr_scan", "android": "https://dc.lft.to/lastmile_qr_scan"}, "type": "electric_scooter", "name": "f075d8da6533f5e275b105b033b17483", "is_reserved": 0, "lon": -77.01117483333333, "is_disabled": 0, "fusion_lat": 0.0, "lat": 38.895701, "bike_id": "f075d8da6533f5e275b105b033b17483", "fusion_lon": 0.0}, {"rental_uris": {"ios": "https://dc.lft.to/lastmile_qr_scan", "android": "https://dc.lft.to/lastmile_qr_scan"}, "type": "electric_scooter", "name": "e529d47dec4a3b0bd18eb99c024a9160", "is_reserved": 0, "lon": -76.987038, "is_disabled": 0, "fusion_lat": 0.0, "lat": 38.8596095, "bike_id": "e529d47dec4a3b0bd18eb99c024a9160", "fusion_lon": 0.0}, {"rental_uris": {"ios": "https://dc.lft.to/lastmile_qr_scan", "android": "https://dc.lft.to/lastmile_qr_scan"}, "type": "electric_scooter", "name": "f546865039847175df62590086f5008f", "is_reserved": 0, "lon": -77.027172, "is_disabled": 0, "fusion_lat": 0.0, "lat": 38.910184666666666, "bike_id": "f546865039847175df62590086f5008f", "fusion_lon": 0.0}, {"rental_uris": {"ios": "https://dc.lft.to/lastmile_qr_scan", "android": "https://dc.lft.to/lastmile_qr_scan"}, "type": "electric_scooter", "name": "1bba585a4afa61ab663fd4947ae0f3c0", "is_reserved": 0, "lon": -77.05331833333334, "is_disabled": 0, "fusion_lat": 0.0, "lat": 38.906456666666664, "bike_id": "1bba585a4afa61ab663fd4947ae0f3c0", "fusion_lon": 0.0}, {"rental_uris": {"ios": "https://dc.lft.to/lastmile_qr_scan", "android": "https://dc.lft.to/lastmile_qr_scan"}, "type": "electric_scooter", "name": "60595d59f561a8ac96c034ce80b5ff04", "is_reserved": 0, "lon": -77.02656083333333, "is_disabled": 0, "fusion_lat": 0.0, "lat": 38.895919166666665, "bike_id": "60595d59f561a8ac96c034ce80b5ff04", "fusion_lon": 0.0}, {"rental_uris": {"ios": "https://dc.lft.to/lastmile_qr_scan", "android": "https://dc.lft.to/lastmile_qr_scan"}, "type": "electric_scooter", "name": "3eee3c6f770e214e92d6a6c7e566ec4f", "is_reserved": 0, "lon": -76.99736166666666, "is_disabled": 0, "fusion_lat": 0.0, "lat": 38.920410333333336, "bike_id": "3eee3c6f770e214e92d6a6c7e566ec4f", "fusion_lon": 0.0}, {"rental_uris": {"ios": "https://dc.lft.to/lastmile_qr_scan", "android": "https://dc.lft.to/lastmile_qr_scan"}, "type": "electric_scooter", "name": "c0965e8fdf6950876430f00ff01ffd43", "is_reserved": 0, "lon": -76.93742333333333, "is_disabled": 0, "fusion_lat": 0.0, "lat": 38.890119, "bike_id": "c0965e8fdf6950876430f00ff01ffd43", "fusion_lon": 0.0}, {"rental_uris": {"ios": "https://dc.lft.to/lastmile_qr_scan", "android": "https://dc.lft.to/lastmile_qr_scan"}, "type": "electric_scooter", "name": "e8a6aab038aa669b65e9ccda93c09c71", "is_reserved": 0, "lon": -77.0386505, "is_disabled": 0, "fusion_lat": 0.0, "lat": 38.9248185, "bike_id": "e8a6aab038aa669b65e9ccda93c09c71", "fusion_lon": 0.0}, {"rental_uris": {"ios": "https://dc.lft.to/lastmile_qr_scan", "android": "https://dc.lft.to/lastmile_qr_scan"}, "type": "electric_scooter", "name": "b2cf903b33ddb6d7658d382740b6a7b8", "is_reserved": 0, "lon": -77.03338916666667, "is_disabled": 0, "fusion_lat": 0.0, "lat": 38.89225483333333, "bike_id": "b2cf903b33ddb6d7658d382740b6a7b8", "fusion_lon": 0.0}, {"rental_uris": {"ios": "https://dc.lft.to/lastmile_qr_scan", "android": "https://dc.lft.to/lastmile_qr_scan"}, "type": "electric_scooter", "name": "4057b1a0f47cd57479170233672aa2c4", "is_reserved": 0, "lon": -77.04840516666667, "is_disabled": 0, "fusion_lat": 0.0, "lat": 38.9097575, "bike_id": "4057b1a0f47cd57479170233672aa2c4", "fusion_lon": 0.0}, {"rental_uris": {"ios": "https://dc.lft.to/lastmile_qr_scan", "android": "https://dc.lft.to/lastmile_qr_scan"}, "type": "electric_bike", "name": "34ee9a7887ca5bd86b132f500178106a", "is_reserved": 0, "lon": -77.08319433333334, "is_disabled": 0, "fusion_lat": 0.0, "lat": 38.854435, "bike_id": "34ee9a7887ca5bd86b132f500178106a", "fusion_lon": 0.0}, {"rental_uris": {"ios": "https://dc.lft.to/lastmile_qr_scan", "android": "https://dc.lft.to/lastmile_qr_scan"}, "type": "electric_scooter", "name": "61aa59a98b1300cd0bd3ea3642e785a4", "is_reserved": 0, "lon": -77.0175475, "is_disabled": 0, "fusion_lat": 0.0, "lat": 38.90066566666667, "bike_id": "61aa59a98b1300cd0bd3ea3642e785a4", "fusion_lon": 0.0}, {"rental_uris": {"ios": "https://dc.lft.to/lastmile_qr_scan", "android": "https://dc.lft.to/lastmile_qr_scan"}, "type": "electric_bike", "name": "2f30191312133b3a83afcb22063fdaec", "is_reserved": 0, "lon": -76.97702333333334, "is_disabled": 0, "fusion_lat": 0.0, "lat": 38.82206933333333, "bike_id": "2f30191312133b3a83afcb22063fdaec", "fusion_lon": 0.0}, {"rental_uris": {"ios": "https://dc.lft.to/lastmile_qr_scan", "android": "https://dc.lft.to/lastmile_qr_scan"}, "type": "electric_scooter", "name": "7e30fb898fe4368f97681d0fc8e4564f", "is_reserved": 0, "lon": -77.04080333333333, "is_disabled": 0, "fusion_lat": 0.0, "lat": 38.9160085, "bike_id": "7e30fb898fe4368f97681d0fc8e4564f", "fusion_lon": 0.0}, {"rental_uris": {"ios": "https://dc.lft.to/lastmile_qr_scan", "android": "https://dc.lft.to/lastmile_qr_scan"}, "type": "electric_scooter", "name": "958c9cd33f53807bf8c7a427ae9c4870", "is_reserved": 0, "lon": -77.03926316666667, "is_disabled": 0, "fusion_lat": 0.0, "lat": 38.9306425, "bike_id": "958c9cd33f53807bf8c7a427ae9c4870", "fusion_lon": 0.0}, {"rental_uris": {"ios": "https://dc.lft.to/lastmile_qr_scan", "android": "https://dc.lft.to/lastmile_qr_scan"}, "type": "electric_scooter", "name": "c16c1b383bdd0dd9213adeca05e4b126", "is_reserved": 0, "lon": -77.00018233333333, "is_disabled": 0, "fusion_lat": 0.0, "lat": 38.90700566666667, "bike_id": "c16c1b383bdd0dd9213adeca05e4b126", "fusion_lon": 0.0}, {"rental_uris": {"ios": "https://dc.lft.to/lastmile_qr_scan", "android": "https://dc.lft.to/lastmile_qr_scan"}, "type": "electric_scooter", "name": "b53cc75ed1cca97262c880e214ddde05", "is_reserved": 0, "lon": -77.0295195, "is_disabled": 0, "fusion_lat": 0.0, "lat": 38.90260933333333, "bike_id": "b53cc75ed1cca97262c880e214ddde05", "fusion_lon": 0.0}, {"rental_uris": {"ios": "https://dc.lft.to/lastmile_qr_scan", "android": "https://dc.lft.to/lastmile_qr_scan"}, "type": "electric_scooter", "name": "b289c7c9cb6e14616e9ed1cbb5ae03b6", "is_reserved": 0, "lon": -76.99126416666667, "is_disabled": 0, "fusion_lat": 0.0, "lat": 38.908977166666666, "bike_id": "b289c7c9cb6e14616e9ed1cbb5ae03b6", "fusion_lon": 0.0}, {"rental_uris": {"ios": "https://dc.lft.to/lastmile_qr_scan", "android": "https://dc.lft.to/lastmile_qr_scan"}, "type": "electric_scooter", "name": "f775d6e2f3392f35bffb4418290c8e37", "is_reserved": 0, "lon": -77.00588233333333, "is_disabled": 0, "fusion_lat": 0.0, "lat": 38.909327, "bike_id": "f775d6e2f3392f35bffb4418290c8e37", "fusion_lon": 0.0}, {"rental_uris": {"ios": "https://dc.lft.to/lastmile_qr_scan", "android": "https://dc.lft.to/lastmile_qr_scan"}, "type": "electric_scooter", "name": "678197ee2a28c86c09fec049b4c6755c", "is_reserved": 0, "lon": -77.02731566666667, "is_disabled": 0, "fusion_lat": 0.0, "lat": 38.93460966666667, "bike_id": "678197ee2a28c86c09fec049b4c6755c", "fusion_lon": 0.0}, {"rental_uris": {"ios": "https://dc.lft.to/lastmile_qr_scan", "android": "https://dc.lft.to/lastmile_qr_scan"}, "type": "electric_scooter", "name": "945aa7deda6b6c903fe290a6507de6bd", "is_reserved": 0, "lon": -77.03206616666667, "is_disabled": 0, "fusion_lat": 0.0, "lat": 38.898466666666664, "bike_id": "945aa7deda6b6c903fe290a6507de6bd", "fusion_lon": 0.0}, {"rental_uris": {"ios": "https://dc.lft.to/lastmile_qr_scan", "android": "https://dc.lft.to/lastmile_qr_scan"}, "type": "electric_scooter", "name": "e09a1aaf4d5e55dfdbb972488cba2a52", "is_reserved": 0, "lon": -77.02395383333334, "is_disabled": 0, "fusion_lat": 0.0, "lat": 38.920771, "bike_id": "e09a1aaf4d5e55dfdbb972488cba2a52", "fusion_lon": 0.0}, {"rental_uris": {"ios": "https://dc.lft.to/lastmile_qr_scan", "android": "https://dc.lft.to/lastmile_qr_scan"}, "type": "electric_scooter", "name": "7fd08f7e6f9bc3ee92995c64af39f8c3", "is_reserved": 0, "lon": -77.01985733333333, "is_disabled": 0, "fusion_lat": 0.0, "lat": 38.876108, "bike_id": "7fd08f7e6f9bc3ee92995c64af39f8c3", "fusion_lon": 0.0}, {"rental_uris": {"ios": "https://dc.lft.to/lastmile_qr_scan", "android": "https://dc.lft.to/lastmile_qr_scan"}, "type": "electric_bike", "name": "14325f90ef3ecb50313c0a39ccde61a9", "is_reserved": 0, "lon": -77.128401, "is_disabled": 0, "fusion_lat": 0.0, "lat": 38.8005505, "bike_id": "14325f90ef3ecb50313c0a39ccde61a9", "fusion_lon": 0.0}, {"rental_uris": {"ios": "https://dc.lft.to/lastmile_qr_scan", "android": "https://dc.lft.to/lastmile_qr_scan"}, "type": "electric_scooter", "name": "b2a08c68fcf114ba130a1053ca0d5b76", "is_reserved": 0, "lon": -77.00353983333333, "is_disabled": 0, "fusion_lat": 0.0, "lat": 38.87656116666667, "bike_id": "b2a08c68fcf114ba130a1053ca0d5b76", "fusion_lon": 0.0}, {"rental_uris": {"ios": "https://dc.lft.to/lastmile_qr_scan", "android": "https://dc.lft.to/lastmile_qr_scan"}, "type": "electric_scooter", "name": "41d7b0592cceadba1c3b6008392aafbd", "is_reserved": 0, "lon": -77.04032283333333, "is_disabled": 0, "fusion_lat": 0.0, "lat": 38.91193916666667, "bike_id": "41d7b0592cceadba1c3b6008392aafbd", "fusion_lon": 0.0}, {"rental_uris": {"ios": "https://dc.lft.to/lastmile_qr_scan", "android": "https://dc.lft.to/lastmile_qr_scan"}, "type": "electric_scooter", "name": "01c38aefc47371f308019042ed395d96", "is_reserved": 0, "lon": -77.0522315, "is_disabled": 0, "fusion_lat": 0.0, "lat": 38.92486433333333, "bike_id": "01c38aefc47371f308019042ed395d96", "fusion_lon": 0.0}, {"rental_uris": {"ios": "https://dc.lft.to/lastmile_qr_scan", "android": "https://dc.lft.to/lastmile_qr_scan"}, "type": "electric_scooter", "name": "978b8285fc5b48c30408142f5b0ee106", "is_reserved": 0, "lon": -77.02405333333333, "is_disabled": 0, "fusion_lat": 0.0, "lat": 38.93811133333333, "bike_id": "978b8285fc5b48c30408142f5b0ee106", "fusion_lon": 0.0}, {"rental_uris": {"ios": "https://dc.lft.to/lastmile_qr_scan", "android": "https://dc.lft.to/lastmile_qr_scan"}, "type": "electric_bike", "name": "6a0b4ce1cabe0d0203c1cc5f7fe8fad0", "is_reserved": 0, "lon": -76.99277516666666, "is_disabled": 0, "fusion_lat": 0.0, "lat": 38.972612166666664, "bike_id": "6a0b4ce1cabe0d0203c1cc5f7fe8fad0", "fusion_lon": 0.0}, {"rental_uris": {"ios": "https://dc.lft.to/lastmile_qr_scan", "android": "https://dc.lft.to/lastmile_qr_scan"}, "type": "electric_scooter", "name": "796191d1b29cb1e939d5d9120611122d", "is_reserved": 0, "lon": -76.991456, "is_disabled": 0, "fusion_lat": 0.0, "lat": 38.90040316666666, "bike_id": "796191d1b29cb1e939d5d9120611122d", "fusion_lon": 0.0}, {"rental_uris": {"ios": "https://dc.lft.to/lastmile_qr_scan", "android": "https://dc.lft.to/lastmile_qr_scan"}, "type": "electric_scooter", "name": "9cc56ca701cbf504ba0cbabc4960ad5f", "is_reserved": 0, "lon": -77.0137785, "is_disabled": 0, "fusion_lat": 0.0, "lat": 38.86968666666667, "bike_id": "9cc56ca701cbf504ba0cbabc4960ad5f", "fusion_lon": 0.0}, {"rental_uris": {"ios": "https://dc.lft.to/lastmile_qr_scan", "android": "https://dc.lft.to/lastmile_qr_scan"}, "type": "electric_bike", "name": "ca5a858a8baf7ba8a8bf797145842a63", "is_reserved": 0, "lon": -76.9970115, "is_disabled": 0, "fusion_lat": 0.0, "lat": 38.8386255, "bike_id": "ca5a858a8baf7ba8a8bf797145842a63", "fusion_lon": 0.0}, {"rental_uris": {"ios": "https://dc.lft.to/lastmile_qr_scan", "android": "https://dc.lft.to/lastmile_qr_scan"}, "type": "electric_scooter", "name": "226156c2ac5f987b331d7de62c162b8b", "is_reserved": 0, "lon": -77.0357155, "is_disabled": 0, "fusion_lat": 0.0, "lat": 38.917769166666666, "bike_id": "226156c2ac5f987b331d7de62c162b8b", "fusion_lon": 0.0}, {"rental_uris": {"ios": "https://dc.lft.to/lastmile_qr_scan", "android": "https://dc.lft.to/lastmile_qr_scan"}, "type": "electric_scooter", "name": "28e54bc75c824699d8da850621832e3c", "is_reserved": 0, "lon": -77.00545766666667, "is_disabled": 0, "fusion_lat": 0.0, "lat": 38.87475766666667, "bike_id": "28e54bc75c824699d8da850621832e3c", "fusion_lon": 0.0}, {"rental_uris": {"ios": "https://dc.lft.to/lastmile_qr_scan", "android": "https://dc.lft.to/lastmile_qr_scan"}, "type": "electric_scooter", "name": "b8a4602e6fcb6716f6cf1eed6354a7a0", "is_reserved": 0, "lon": -76.98078883333334, "is_disabled": 0, "fusion_lat": 0.0, "lat": 38.90180183333333, "bike_id": "b8a4602e6fcb6716f6cf1eed6354a7a0", "fusion_lon": 0.0}, {"rental_uris": {"ios": "https://dc.lft.to/lastmile_qr_scan", "android": "https://dc.lft.to/lastmile_qr_scan"}, "type": "electric_scooter", "name": "76cb60fb79d8ecdb88b6fe388d5110df", "is_reserved": 0, "lon": -77.01654516666666, "is_disabled": 0, "fusion_lat": 0.0, "lat": 38.942075833333334, "bike_id": "76cb60fb79d8ecdb88b6fe388d5110df", "fusion_lon": 0.0}, {"rental_uris": {"ios": "https://dc.lft.to/lastmile_qr_scan", "android": "https://dc.lft.to/lastmile_qr_scan"}, "type": "electric_scooter", "name": "e1aacaa73aa6472abce1c8de9b47ebce", "is_reserved": 0, "lon": -77.00475083333333, "is_disabled": 0, "fusion_lat": 0.0, "lat": 38.885132, "bike_id": "e1aacaa73aa6472abce1c8de9b47ebce", "fusion_lon": 0.0}, {"rental_uris": {"ios": "https://dc.lft.to/lastmile_qr_scan", "android": "https://dc.lft.to/lastmile_qr_scan"}, "type": "electric_scooter", "name": "cf6dab1de693502db25680bfe854e992", "is_reserved": 0, "lon": -77.04383566666667, "is_disabled": 0, "fusion_lat": 0.0, "lat": 38.9211985, "bike_id": "cf6dab1de693502db25680bfe854e992", "fusion_lon": 0.0}, {"rental_uris": {"ios": "https://dc.lft.to/lastmile_qr_scan", "android": "https://dc.lft.to/lastmile_qr_scan"},