{"data": {"bikes": [{"type": "electric_scooter", "is_reserved": 0, "name": "10cc6c133fbc99f767602f6eaf4bc84a", "is_disabled": 0, "lat": 38.9161085, "fusion_lon": 0.0, "fusion_lat": 0.0, "lon": -77.02291483333333, "bike_id": "10cc6c133fbc99f767602f6eaf4bc84a", "rental_uris": {"ios": "https://dc.lft.to/lastmile_qr_scan", "android": "https://dc.lft.to/lastmile_qr_scan"}}, {"type": "electric_scooter", "is_reserved": 0, "name": "49b3afa5aa63c34c106933020e36b4b8", "is_disabled": 0, "lat": 38.897599, "fusion_lon": 0.0, "fusion_lat": 0.0, "lon": -77.02686383333334, "bike_id": "49b3afa5aa63c34c106933020e36b4b8", "rental_uris": {"ios": "https://dc.lft.to/lastmile_qr_scan", "android": "https://dc.lft.to/lastmile_qr_scan"}}, {"type": "electric_scooter", "is_reserved": 0, "name": "a443b5d4ca03bcc4e7cf319c0d3d0b6a", "is_disabled": 0, "lat": 38.8667955, "fusion_lon": 0.0, "fusion_lat": 0.0, "lon": -76.98539716666667, "bike_id": "a443b5d4ca03bcc4e7cf319c0d3d0b6a", "rental_uris": {"ios": "https://dc.lft.to/lastmile_qr_scan", "android": "https://dc.lft.to/lastmile_qr_scan"}}, {"type": "electric_scooter", "is_reserved": 0, "name": "d1bcef7ad35106273eecf4fdcd2f2052", "is_disabled": 0, "lat": 38.90675183333333, "fusion_lon": 0.0, "fusion_lat": 0.0, "lon": -77.037667, "bike_id": "d1bcef7ad35106273eecf4fdcd2f2052", "rental_uris": {"ios": "https://dc.lft.to/lastmile_qr_scan", "android": "https://dc.lft.to/lastmile_qr_scan"}}, {"type": "electric_scooter", "is_reserved": 0, "name": "6f35117c0cf7963fffadbbb010e0d5e2", "is_disabled": 0, "lat": 38.922123166666665, "fusion_lon": 0.0, "fusion_lat": 0.0, "lon": -77.04025833333333, "bike_id": "6f35117c0cf7963fffadbbb010e0d5e2", "rental_uris": {"ios": "https://dc.lft.to/lastmile_qr_scan", "android": "https://dc.lft.to/lastmile_qr_scan"}}, {"type": "electric_scooter", "is_reserved": 0, "name": "f5a4f0448353d041a4254e873933ffd2", "is_disabled": 0, "lat": 38.89224816666667, "fusion_lon": 0.0, "fusion_lat": 0.0, "lon": -77.03159866666667, "bike_id": "f5a4f0448353d041a4254e873933ffd2", "rental_uris": {"ios": "https://dc.lft.to/lastmile_qr_scan", "android": "https://dc.lft.to/lastmile_qr_scan"}}, {"type": "electric_bike", "is_reserved": 0, "name": "f60c12273305bc25026a141c5171af93", "is_disabled": 0, "lat": 38.877309333333336, "fusion_lon": 0.0, "fusion_lat": 0.0, "lon": -76.9810545, "bike_id": "f60c12273305bc25026a141c5171af93", "rental_uris": {"ios": "https://dc.lft.to/lastmile_qr_scan", "android": "https://dc.lft.to/lastmile_qr_scan"}}, {"type": "electric_scooter", "is_reserved": 0, "name": "dc8654929dae345af7fa10f835cd5f91", "is_disabled": 0, "lat": 38.89744683333333, "fusion_lon": 0.0, "fusion_lat": 0.0, "lon": -77.00073066666667, "bike_id": "dc8654929dae345af7fa10f835cd5f91", "rental_uris": {"ios": "https://dc.lft.to/lastmile_qr_scan", "android": "https://dc.lft.to/lastmile_qr_scan"}}, {"type": "electric_scooter", "is_reserved": 0, "name": "c7217e9886423705a105615b476f8406", "is_disabled": 0, "lat": 38.93317966666667, "fusion_lon": 0.0, "fusion_lat": 0.0, "lon": -77.045196, "bike_id": "c7217e9886423705a105615b476f8406", "rental_uris": {"ios": "https://dc.lft.to/lastmile_qr_scan", "android": "https://dc.lft.to/lastmile_qr_scan"}}, {"type": "electric_scooter", "is_reserved": 0, "name": "085bdfd7e2fd852c58f2be124efe4cf3", "is_disabled": 0, "lat": 38.9057765, "fusion_lon": 0.0, "fusion_lat": 0.0, "lon": -77.04874516666666, "bike_id": "085bdfd7e2fd852c58f2be124efe4cf3", "rental_uris": {"ios": "https://dc.lft.to/lastmile_qr_scan", "android": "https://dc.lft.to/lastmile_qr_scan"}}, {"type": "electric_scooter", "is_reserved": 0, "name": "7406fed304dc8c7fe208ca3c801aa57c", "is_disabled": 0, "lat": 38.898601666666664, "fusion_lon": 0.0, "fusion_lat": 0.0, "lon": -77.02025833333333, "bike_id": "7406fed304dc8c7fe208ca3c801aa57c", "rental_uris": {"ios": "https://dc.lft.to/lastmile_qr_scan", "android": "https://dc.lft.to/lastmile_qr_scan"}}, {"type": "electric_scooter", "is_reserved": 0, "name": "28f87f7c092aead9cce01d4a97f3184a", "is_disabled": 0, "lat": 38.898499666666666, "fusion_lon": 0.0, "fusion_lat": 0.0, "lon": -77.04377183333334, "bike_id": "28f87f7c092aead9cce01d4a97f3184a", "rental_uris": {"ios": "https://dc.lft.to/lastmile_qr_scan", "android": "https://dc.lft.to/lastmile_qr_scan"}}, {"type": "electric_scooter", "is_reserved": 0, "name": "296b74599dbebf33dbc764e0d0ac600f", "is_disabled": 0, "lat": 38.89819, "fusion_lon": 0.0, "fusion_lat": 0.0, "lon": -77.01616283333334, "bike_id": "296b74599dbebf33dbc764e0d0ac600f", "rental_uris": {"ios": "https://dc.lft.to/lastmile_qr_scan", "android": "https://dc.lft.to/lastmile_qr_scan"}}, {"type": "electric_scooter", "is_reserved": 0, "name": "3ecd93a6a9eed48f425d08d77b001f0a", "is_disabled": 0, "lat": 38.9005265, "fusion_lon": 0.0, "fusion_lat": 0.0, "lon": -77.00213, "bike_id": "3ecd93a6a9eed48f425d08d77b001f0a", "rental_uris": {"ios": "https://dc.lft.to/lastmile_qr_scan", "android": "https://dc.lft.to/lastmile_qr_scan"}}, {"type": "electric_scooter", "is_reserved": 0, "name": "61762ea4ee227efb65ce9dccb15a2418", "is_disabled": 0, "lat": 38.932523833333335, "fusion_lon": 0.0, "fusion_lat": 0.0, "lon": -77.03280216666667, "bike_id": "61762ea4ee227efb65ce9dccb15a2418", "rental_uris": {"ios": "https://dc.lft.to/lastmile_qr_scan", "android": "https://dc.lft.to/lastmile_qr_scan"}}, {"type": "electric_scooter", "is_reserved": 0, "name": "e272dc57955091512a4e49b9cc6f39bc", "is_disabled": 0, "lat": 38.83678783333333, "fusion_lon": 0.0, "fusion_lat": 0.0, "lon": -77.00594766666667, "bike_id": "e272dc57955091512a4e49b9cc6f39bc", "rental_uris": {"ios": "https://dc.lft.to/lastmile_qr_scan", "android": "https://dc.lft.to/lastmile_qr_scan"}}, {"type": "electric_scooter", "is_reserved": 0, "name": "b67dc0e2d40ed3b1d3e2ca81ed9f9390", "is_disabled": 0, "lat": 38.913332833333335, "fusion_lon": 0.0, "fusion_lat": 0.0, "lon": -77.03192683333333, "bike_id": "b67dc0e2d40ed3b1d3e2ca81ed9f9390", "rental_uris": {"ios": "https://dc.lft.to/lastmile_qr_scan", "android": "https://dc.lft.to/lastmile_qr_scan"}}, {"type": "electric_scooter", "is_reserved": 0, "name": "848b95e8d83955c6f2c2a2cc7a28f089", "is_disabled": 0, "lat": 38.92365733333333, "fusion_lon": 0.0, "fusion_lat": 0.0, "lon": -77.05131766666666, "bike_id": "848b95e8d83955c6f2c2a2cc7a28f089", "rental_uris": {"ios": "https://dc.lft.to/lastmile_qr_scan", "android": "https://dc.lft.to/lastmile_qr_scan"}}, {"type": "electric_scooter", "is_reserved": 0, "name": "62babfa1fc2584d6853b25fb8e9e98dc", "is_disabled": 0, "lat": 38.91854433333334, "fusion_lon": 0.0, "fusion_lat": 0.0, "lon": -77.03445416666666, "bike_id": "62babfa1fc2584d6853b25fb8e9e98dc", "rental_uris": {"ios": "https://dc.lft.to/lastmile_qr_scan", "android": "https://dc.lft.to/lastmile_qr_scan"}}, {"type": "electric_scooter", "is_reserved": 0, "name": "75c19c73846f8211b1040c4f8d86ac4d", "is_disabled": 0, "lat": 38.912569833333336, "fusion_lon": 0.0, "fusion_lat": 0.0, "lon": -77.02209383333333, "bike_id": "75c19c73846f8211b1040c4f8d86ac4d", "rental_uris": {"ios": "https://dc.lft.to/lastmile_qr_scan", "android": "https://dc.lft.to/lastmile_qr_scan"}}, {"type": "electric_bike", "is_reserved": 0, "name": "1329ef4b7cb90a5af14b45467c7c2b7b", "is_disabled": 0, "lat": 38.91437366666667, "fusion_lon": 0.0, "fusion_lat": 0.0, "lon": -77.01704383333333, "bike_id": "1329ef4b7cb90a5af14b45467c7c2b7b", "rental_uris": {"ios": "https://dc.lft.to/lastmile_qr_scan", "android": "https://dc.lft.to/lastmile_qr_scan"}}, {"type": "electric_scooter", "is_reserved": 0, "name": "d22e78524393a7ef6420e4330ca74748", "is_disabled": 0, "lat": 38.908666833333335, "fusion_lon": 0.0, "fusion_lat": 0.0, "lon": -77.04585783333333, "bike_id": "d22e78524393a7ef6420e4330ca74748", "rental_uris": {"ios": "https://dc.lft.to/lastmile_qr_scan", "android": "https://dc.lft.to/lastmile_qr_scan"}}, {"type": "electric_scooter", "is_reserved": 0, "name": "9d552c14f072cd1521768a7e5844068f", "is_disabled": 0, "lat": 38.89943433333333, "fusion_lon": 0.0, "fusion_lat": 0.0, "lon": -76.98185366666667, "bike_id": "9d552c14f072cd1521768a7e5844068f", "rental_uris": {"ios": "https://dc.lft.to/lastmile_qr_scan", "android": "https://dc.lft.to/lastmile_qr_scan"}}, {"type": "electric_scooter", "is_reserved": 0, "name": "1283d5c0bb2ee64281bf9cff5cb39420", "is_disabled": 0, "lat": 38.902474, "fusion_lon": 0.0, "fusion_lat": 0.0, "lon": -77.01933416666667, "bike_id": "1283d5c0bb2ee64281bf9cff5cb39420", "rental_uris": {"ios": "https://dc.lft.to/lastmile_qr_scan", "android": "https://dc.lft.to/lastmile_qr_scan"}}, {"type": "electric_scooter", "is_reserved": 0, "name": "35f22571195010d441c8800bf4ec6092", "is_disabled": 0, "lat": 38.91051383333333, "fusion_lon": 0.0, "fusion_lat": 0.0, "lon": -77.0558055, "bike_id": "35f22571195010d441c8800bf4ec6092", "rental_uris": {"ios": "https://dc.lft.to/lastmile_qr_scan", "android": "https://dc.lft.to/lastmile_qr_scan"}}, {"type": "electric_scooter", "is_reserved": 0, "name": "23d2815c896c2afb7a0ac2166b91a633", "is_disabled": 0, "lat": 38.88374066666667, "fusion_lon": 0.0, "fusion_lat": 0.0, "lon": -76.995151, "bike_id": "23d2815c896c2afb7a0ac2166b91a633", "rental_uris": {"ios": "https://dc.lft.to/lastmile_qr_scan", "android": "https://dc.lft.to/lastmile_qr_scan"}}, {"type": "electric_scooter", "is_reserved": 0, "name": "03dfdadbc440d6ffd8e718bd6968515f", "is_disabled": 0, "lat": 38.917051, "fusion_lon": 0.0, "fusion_lat": 0.0, "lon": -77.00867783333334, "bike_id": "03dfdadbc440d6ffd8e718bd6968515f", "rental_uris": {"ios": "https://dc.lft.to/lastmile_qr_scan", "android": "https://dc.lft.to/lastmile_qr_scan"}}, {"type": "electric_scooter", "is_reserved": 0, "name": "88a40c397eaa71e0b24a6859ed09b2a6", "is_disabled": 0, "lat": 38.91427933333333, "fusion_lon": 0.0, "fusion_lat": 0.0, "lon": -77.03185466666666, "bike_id": "88a40c397eaa71e0b24a6859ed09b2a6", "rental_uris": {"ios": "https://dc.lft.to/lastmile_qr_scan", "android": "https://dc.lft.to/lastmile_qr_scan"}}, {"type": "electric_scooter", "is_reserved": 0, "name": "7f8080fad0a363033a13228426da5993", "is_disabled": 0, "lat": 38.88336983333333, "fusion_lon": 0.0, "fusion_lat": 0.0, "lon": -77.00932766666666, "bike_id": "7f8080fad0a363033a13228426da5993", "rental_uris": {"ios": "https://dc.lft.to/lastmile_qr_scan", "android": "https://dc.lft.to/lastmile_qr_scan"}}, {"type": "electric_scooter", "is_reserved": 0, "name": "899740380c4354b91adedf737b6b847a", "is_disabled": 0, "lat": 38.906867, "fusion_lon": 0.0, "fusion_lat": 0.0, "lon": -77.02690316666667, "bike_id": "899740380c4354b91adedf737b6b847a", "rental_uris": {"ios": "https://dc.lft.to/lastmile_qr_scan", "android": "https://dc.lft.to/lastmile_qr_scan"}}, {"type": "electric_scooter", "is_reserved": 0, "name": "78d46783f8c81421b82e232e322aba5c", "is_disabled": 0, "lat": 38.89220266666667, "fusion_lon": 0.0, "fusion_lat": 0.0, "lon": -77.026221, "bike_id": "78d46783f8c81421b82e232e322aba5c", "rental_uris": {"ios": "https://dc.lft.to/lastmile_qr_scan", "android": "https://dc.lft.to/lastmile_qr_scan"}}, {"type": "electric_bike", "is_reserved": 0, "name": "94982f9082ac6aa52485c0598420034a", "is_disabled": 0, "lat": 38.793294333333336, "fusion_lon": 0.0, "fusion_lat": 0.0, "lon": -77.04018416666666, "bike_id": "94982f9082ac6aa52485c0598420034a", "rental_uris": {"ios": "https://dc.lft.to/lastmile_qr_scan", "android": "https://dc.lft.to/lastmile_qr_scan"}}, {"type": "electric_bike", "is_reserved": 0, "name": "a6d0171bc1bb9f5165b4f94707a5d1e1", "is_disabled": 0, "lat": 38.873727833333334, "fusion_lon": 0.0, "fusion_lat": 0.0, "lon": -77.118051, "bike_id": "a6d0171bc1bb9f5165b4f94707a5d1e1", "rental_uris": {"ios": "https://dc.lft.to/lastmile_qr_scan", "android": "https://dc.lft.to/lastmile_qr_scan"}}, {"type": "electric_scooter", "is_reserved": 0, "name": "0ae7e65775bf01f536a1b1be3ec24a37", "is_disabled": 0, "lat": 38.90151383333333, "fusion_lon": 0.0, "fusion_lat": 0.0, "lon": -77.043853, "bike_id": "0ae7e65775bf01f536a1b1be3ec24a37", "rental_uris": {"ios": "https://dc.lft.to/lastmile_qr_scan", "android": "https://dc.lft.to/lastmile_qr_scan"}}, {"type": "electric_scooter", "is_reserved": 0, "name": "d92673759e8441ceb1747590aa05830d", "is_disabled": 0, "lat": 38.931932333333336, "fusion_lon": 0.0, "fusion_lat": 0.0, "lon": -77.02833183333334, "bike_id": "d92673759e8441ceb1747590aa05830d", "rental_uris": {"ios": "https://dc.lft.to/lastmile_qr_scan", "android": "https://dc.lft.to/lastmile_qr_scan"}}, {"type": "electric_bike", "is_reserved": 0, "name": "1ca5fdf4266950c97c3b70317cb1fca5", "is_disabled": 0, "lat": 38.94904916666667, "fusion_lon": 0.0, "fusion_lat": 0.0, "lon": -76.9723795, "bike_id": "1ca5fdf4266950c97c3b70317cb1fca5", "rental_uris": {"ios": "https://dc.lft.to/lastmile_qr_scan", "android": "https://dc.lft.to/lastmile_qr_scan"}}, {"type": "electric_scooter", "is_reserved": 0, "name": "74c714e1d4f5a01b9e0d2f5a5bc9d9b1", "is_disabled": 0, "lat": 38.91325916666667, "fusion_lon": 0.0, "fusion_lat": 0.0, "lon": -77.03183733333333, "bike_id": "74c714e1d4f5a01b9e0d2f5a5bc9d9b1", "rental_uris": {"ios": "https://dc.lft.to/lastmile_qr_scan", "android": "https://dc.lft.to/lastmile_qr_scan"}}, {"type": "electric_scooter", "is_reserved": 0, "name": "1a857b531ea31cdc183d19eaeb866d91", "is_disabled": 0, "lat": 38.899103, "fusion_lon": 0.0, "fusion_lat": 0.0, "lon": -77.03260783333333, "bike_id": "1a857b531ea31cdc183d19eaeb866d91", "rental_uris": {"ios": "https://dc.lft.to/lastmile_qr_scan", "android": "https://dc.lft.to/lastmile_qr_scan"}}, {"type": "electric_scooter", "is_reserved": 0, "name": "5882a140a9d9272eb5b6111dcd293ad8", "is_disabled": 0, "lat": 38.92685983333333, "fusion_lon": 0.0, "fusion_lat": 0.0, "lon": -77.0157275, "bike_id": "5882a140a9d9272eb5b6111dcd293ad8", "rental_uris": {"ios": "https://dc.lft.to/lastmile_qr_scan", "android": "https://dc.lft.to/lastmile_qr_scan"}}, {"type": "electric_scooter", "is_reserved": 0, "name": "da4852c3eb9020caeb8d858506c7f04c", "is_disabled": 0, "lat": 38.903074833333335, "fusion_lon": 0.0, "fusion_lat": 0.0, "lon": -77.01156083333333, "bike_id": "da4852c3eb9020caeb8d858506c7f04c", "rental_uris": {"ios": "https://dc.lft.to/lastmile_qr_scan", "android": "https://dc.lft.to/lastmile_qr_scan"}}, {"type": "electric_scooter", "is_reserved": 0, "name": "d8dac715619d09b2358f569a2ee9aa25", "is_disabled": 0, "lat": 38.893511, "fusion_lon": 0.0, "fusion_lat": 0.0, "lon": -77.02213233333333, "bike_id": "d8dac715619d09b2358f569a2ee9aa25", "rental_uris": {"ios": "https://dc.lft.to/lastmile_qr_scan", "android": "https://dc.lft.to/lastmile_qr_scan"}}, {"type": "electric_scooter", "is_reserved": 0, "name": "a9bd207b174b87b84e789a1e6ef84e49", "is_disabled": 0, "lat": 38.9064775, "fusion_lon": 0.0, "fusion_lat": 0.0, "lon": -77.00611516666666, "bike_id": "a9bd207b174b87b84e789a1e6ef84e49", "rental_uris": {"ios": "https://dc.lft.to/lastmile_qr_scan", "android": "https://dc.lft.to/lastmile_qr_scan"}}, {"type": "electric_scooter", "is_reserved": 0, "name": "42a7b40064f88208e95cc04b827dccca", "is_disabled": 0, "lat": 38.903733833333334, "fusion_lon": 0.0, "fusion_lat": 0.0, "lon": -77.02616216666667, "bike_id": "42a7b40064f88208e95cc04b827dccca", "rental_uris": {"ios": "https://dc.lft.to/lastmile_qr_scan", "android": "https://dc.lft.to/lastmile_qr_scan"}}, {"type": "electric_scooter", "is_reserved": 0, "name": "e56195854fff288eaaafbfc7a9ea7b98", "is_disabled": 0, "lat": 38.931551166666665, "fusion_lon": 0.0, "fusion_lat": 0.0, "lon": -77.03829783333333, "bike_id": "e56195854fff288eaaafbfc7a9ea7b98", "rental_uris": {"ios": "https://dc.lft.to/lastmile_qr_scan", "android": "https://dc.lft.to/lastmile_qr_scan"}}, {"type": "electric_scooter", "is_reserved": 0, "name": "4b9875cbeeab4ca53e36184a4e6a6f73", "is_disabled": 0, "lat": 38.861074333333335, "fusion_lon": 0.0, "fusion_lat": 0.0, "lon": -76.98887233333333, "bike_id": "4b9875cbeeab4ca53e36184a4e6a6f73", "rental_uris": {"ios": "https://dc.lft.to/lastmile_qr_scan", "android": "https://dc.lft.to/lastmile_qr_scan"}}, {"type": "electric_scooter", "is_reserved": 0, "name": "8cd93882391a653b05255d48524bfad5", "is_disabled": 0, "lat": 38.92201216666667, "fusion_lon": 0.0, "fusion_lat": 0.0, "lon": -77.04251166666667, "bike_id": "8cd93882391a653b05255d48524bfad5", "rental_uris": {"ios": "https://dc.lft.to/lastmile_qr_scan", "android": "https://dc.lft.to/lastmile_qr_scan"}}, {"type": "electric_scooter", "is_reserved": 0, "name": "7c4c2389d5c3d84d1d94298fc302a4e5", "is_disabled": 0, "lat": 38.915666333333334, "fusion_lon": 0.0, "fusion_lat": 0.0, "lon": -77.03148416666667, "bike_id": "7c4c2389d5c3d84d1d94298fc302a4e5", "rental_uris": {"ios": "https://dc.lft.to/lastmile_qr_scan", "android": "https://dc.lft.to/lastmile_qr_scan"}}, {"type": "electric_scooter", "is_reserved": 0, "name": "2a3e50f1a5bf9171d5c3219036467636", "is_disabled": 0, "lat": 38.92606266666667, "fusion_lon": 0.0, "fusion_lat": 0.0, "lon": -77.02157133333333, "bike_id": "2a3e50f1a5bf9171d5c3219036467636", "rental_uris": {"ios": "https://dc.lft.to/lastmile_qr_scan", "android": "https://dc.lft.to/lastmile_qr_scan"}}, {"type": "electric_scooter", "is_reserved": 0, "name": "6839b5e01886422d3c7bd7ac118cacbc", "is_disabled": 0, "lat": 38.896154833333334, "fusion_lon": 0.0, "fusion_lat": 0.0, "lon": -77.031649, "bike_id": "6839b5e01886422d3c7bd7ac118cacbc", "rental_uris": {"ios": "https://dc.lft.to/lastmile_qr_scan", "android": "https://dc.lft.to/lastmile_qr_scan"}}, {"type": "electric_scooter", "is_reserved": 0, "name": "8ed63e0022c1b09137b9bd2395ae1033", "is_disabled": 0, "lat": 38.91061716666667, "fusion_lon": 0.0, "fusion_lat": 0.0, "lon": -77.0308585, "bike_id": "8ed63e0022c1b09137b9bd2395ae1033", "rental_uris": {"ios": "https://dc.lft.to/lastmile_qr_scan", "android": "https://dc.lft.to/lastmile_qr_scan"}}, {"type": "electric_scooter", "is_reserved": 0, "name": "ea74121522da4e53d10c2b0901f4a514", "is_disabled": 0, "lat": 38.881941, "fusion_lon": 0.0, "fusion_lat": 0.0, "lon": -76.99508483333334, "bike_id": "ea74121522da4e53d10c2b0901f4a514", "rental_uris": {"ios": "https://dc.lft.to/lastmile_qr_scan", "android": "https://dc.lft.to/lastmile_qr_scan"}}, {"type": "electric_scooter", "is_reserved": 0, "name": "522e674420f1d96f11167d167aa9f58e", "is_disabled": 0, "lat": 38.935303833333336, "fusion_lon": 0.0, "fusion_lat": 0.0, "lon": -77.07291383333333, "bike_id": "522e674420f1d96f11167d167aa9f58e", "rental_uris": {"ios": "https://dc.lft.to/lastmile_qr_scan", "android": "https://dc.lft.to/lastmile_qr_scan"}}, {"type": "electric_scooter", "is_reserved": 0, "name": "ff5cfc8e2c539ade3189dab0f623e3b1", "is_disabled": 0, "lat": 38.9154575, "fusion_lon": 0.0, "fusion_lat": 0.0, "lon": -77.03845983333333, "bike_id": "ff5cfc8e2c539ade3189dab0f623e3b1", "rental_uris": {"ios": "https://dc.lft.to/lastmile_qr_scan", "android": "https://dc.lft.to/lastmile_qr_scan"}}, {"type": "electric_scooter", "is_reserved": 0, "name": "3eba5f77aef3d4610883311c50e7d0dd", "is_disabled": 0, "lat": 38.915646, "fusion_lon": 0.0, "fusion_lat": 0.0, "lon": -77.0315295, "bike_id": "3eba5f77aef3d4610883311c50e7d0dd", "rental_uris": {"ios": "https://dc.lft.to/lastmile_qr_scan", "android": "https://dc.lft.to/lastmile_qr_scan"}}, {"type": "electric_scooter", "is_reserved": 0, "name": "efd7a94f231517d1ddb81cccb39db0c2", "is_disabled": 0, "lat": 38.9204145, "fusion_lon": 0.0, "fusion_lat": 0.0, "lon": -77.0418165, "bike_id": "efd7a94f231517d1ddb81cccb39db0c2", "rental_uris": {"ios": "https://dc.lft.to/lastmile_qr_scan", "android": "https://dc.lft.to/lastmile_qr_scan"}}, {"type": "electric_scooter", "is_reserved": 0, "name": "459e55acb03eaa8d7358c9aebc77a751", "is_disabled": 0, "lat": 38.893434, "fusion_lon": 0.0, "fusion_lat": 0.0, "lon": -76.99159216666666, "bike_id": "459e55acb03eaa8d7358c9aebc77a751", "rental_uris": {"ios": "https://dc.lft.to/lastmile_qr_scan", "android": "https://dc.lft.to/lastmile_qr_scan"}}, {"type": "electric_scooter", "is_reserved": 0, "name": "dd465b1f97e3e5e927e97b53e2b91183", "is_disabled": 0, "lat": 38.93377683333333, "fusion_lon": 0.0, "fusion_lat": 0.0, "lon": -77.05760933333333, "bike_id": "dd465b1f97e3e5e927e97b53e2b91183", "rental_uris": {"ios": "https://dc.lft.to/lastmile_qr_scan", "android": "https://dc.lft.to/lastmile_qr_scan"}}, {"type": "electric_scooter", "is_reserved": 0, "name": "590d877a57a3c81c2e641f561e19eec4", "is_disabled": 0, "lat": 38.9104375, "fusion_lon": 0.0, "fusion_lat": 0.0, "lon": -77.032081, "bike_id": "590d877a57a3c81c2e641f561e19eec4", "rental_uris": {"ios": "https://dc.lft.to/lastmile_qr_scan", "android": "https://dc.lft.to/lastmile_qr_scan"}}, {"type": "electric_scooter", "is_reserved": 0, "name": "866b035130f19778e77a49b8063c7b64", "is_disabled": 0, "lat": 38.911077166666665, "fusion_lon": 0.0, "fusion_lat": 0.0, "lon": -77.048385, "bike_id": "866b035130f19778e77a49b8063c7b64", "rental_uris": {"ios": "https://dc.lft.to/lastmile_qr_scan", "android": "https://dc.lft.to/lastmile_qr_scan"}}, {"type": "electric_bike", "is_reserved": 0, "name": "2da49d118190d1d3bb94d50c669d2414", "is_disabled": 0, "lat": 38.87815766666667, "fusion_lon": 0.0, "fusion_lat": 0.0, "lon": -77.01766266666667, "bike_id": "2da49d118190d1d3bb94d50c669d2414", "rental_uris": {"ios": "https://dc.lft.to/lastmile_qr_scan", "android": "https://dc.lft.to/lastmile_qr_scan"}}, {"type": "electric_scooter", "is_reserved": 0, "name": "c377745de54bdb4b717caee0f3f1bdcb", "is_disabled": 0, "lat": 38.89955166666667, "fusion_lon": 0.0, "fusion_lat": 0.0, "lon": -77.0257075, "bike_id": "c377745de54bdb4b717caee0f3f1bdcb", "rental_uris": {"ios": "https://dc.lft.to/lastmile_qr_scan", "android": "https://dc.lft.to/lastmile_qr_scan"}}, {"type": "electric_scooter", "is_reserved": 0, "name": "00fefb8b7aa291fdfccdf38347cda16c", "is_disabled": 0, "lat": 38.903425, "fusion_lon": 0.0, "fusion_lat": 0.0, "lon": -77.034314, "bike_id": "00fefb8b7aa291fdfccdf38347cda16c", "rental_uris": {"ios": "https://dc.lft.to/lastmile_qr_scan", "android": "https://dc.lft.to/lastmile_qr_scan"}}, {"type": "electric_scooter", "is_reserved": 0, "name": "124e4950251efec188ca1604dafc5830", "is_disabled": 0, "lat": 38.9104655, "fusion_lon": 0.0, "fusion_lat": 0.0, "lon": -77.03868766666666, "bike_id": "124e4950251efec188ca1604dafc5830", "rental_uris": {"ios": "https://dc.lft.to/lastmile_qr_scan", "android": "https://dc.lft.to/lastmile_qr_scan"}}, {"type": "electric_scooter", "is_reserved": 0, "name": "7305f2b2a9e38e31f52120341d132a45", "is_disabled": 0, "lat": 38.91415, "fusion_lon": 0.0, "fusion_lat": 0.0, "lon": -77.02609116666666, "bike_id": "7305f2b2a9e38e31f52120341d132a45", "rental_uris": {"ios": "https://dc.lft.to/lastmile_qr_scan", "android": "https://dc.lft.to/lastmile_qr_scan"}}, {"type": "electric_scooter", "is_reserved": 0, "name": "e41393da957d26d5a50ddf1170a5d265", "is_disabled": 0, "lat": 38.901546, "fusion_lon": 0.0, "fusion_lat": 0.0, "lon": -77.02856, "bike_id": "e41393da957d26d5a50ddf1170a5d265", "rental_uris": {"ios": "https://dc.lft.to/lastmile_qr_scan", "android": "https://dc.lft.to/lastmile_qr_scan"}}, {"type": "electric_scooter", "is_reserved": 0, "name": "78383efbdf83ad8fb83634d9c6dbdd4e", "is_disabled": 0, "lat": 38.90676633333333, "fusion_lon": 0.0, "fusion_lat": 0.0, "lon": -77.05030516666666, "bike_id": "78383efbdf83ad8fb83634d9c6dbdd4e", "rental_uris": {"ios": "https://dc.lft.to/lastmile_qr_scan", "android": "https://dc.lft.to/lastmile_qr_scan"}}, {"type": "electric_scooter", "is_reserved": 0, "name": "3e770e7d0c543943bd5ef0c0a737f36e", "is_disabled": 0, "lat": 38.8818175, "fusion_lon": 0.0, "fusion_lat": 0.0, "lon": -77.0373835, "bike_id": "3e770e7d0c543943bd5ef0c0a737f36e", "rental_uris": {"ios": "https://dc.lft.to/lastmile_qr_scan", "android": "https://dc.lft.to/lastmile_qr_scan"}}, {"type": "electric_scooter", "is_reserved": 0, "name": "7ee203d99f7e80c02450800891eba93c", "is_disabled": 0, "lat": 38.917809, "fusion_lon": 0.0, "fusion_lat": 0.0, "lon": -77.02308616666667, "bike_id": "7ee203d99f7e80c02450800891eba93c", "rental_uris": {"ios": "https://dc.lft.to/lastmile_qr_scan", "android": "https://dc.lft.to/lastmile_qr_scan"}}, {"type": "electric_scooter", "is_reserved": 0, "name": "2d4cd3aabf363a91ca3595a8054fbf89", "is_disabled": 0, "lat": 38.89607683333333, "fusion_lon": 0.0, "fusion_lat": 0.0, "lon": -77.05469166666667, "bike_id": "2d4cd3aabf363a91ca3595a8054fbf89", "rental_uris": {"ios": "https://dc.lft.to/lastmile_qr_scan", "android": "https://dc.lft.to/lastmile_qr_scan"}}, {"type": "electric_scooter", "is_reserved": 0, "name": "7a4c7307a513ecdff7fb7cc13d529c14", "is_disabled": 0, "lat": 38.91710633333334, "fusion_lon": 0.0, "fusion_lat": 0.0, "lon": -77.0404455, "bike_id": "7a4c7307a513ecdff7fb7cc13d529c14", "rental_uris": {"ios": "https://dc.lft.to/lastmile_qr_scan", "android": "https://dc.lft.to/lastmile_qr_scan"}}, {"type": "electric_scooter", "is_reserved": 0, "name": "43d570ab25d3fc44674a72891df89a5b", "is_disabled": 0, "lat": 38.91753166666667, "fusion_lon": 0.0, "fusion_lat": 0.0, "lon": -77.04154033333333, "bike_id": "43d570ab25d3fc44674a72891df89a5b", "rental_uris": {"ios": "https://dc.lft.to/lastmile_qr_scan", "android": "https://dc.lft.to/lastmile_qr_scan"}}, {"type": "electric_scooter", "is_reserved": 0, "name": "9d08e4e69d464c13660db4c6fe8d7ec9", "is_disabled": 0, "lat": 38.92200016666666, "fusion_lon": 0.0, "fusion_lat": 0.0, "lon": -77.0422925, "bike_id": "9d08e4e69d464c13660db4c6fe8d7ec9", "rental_uris": {"ios": "https://dc.lft.to/lastmile_qr_scan", "android": "https://dc.lft.to/lastmile_qr_scan"}}, {"type": "electric_scooter", "is_reserved": 0, "name": "e30d5552db64861a67711ae4f8173350", "is_disabled": 0, "lat": 38.895702666666665, "fusion_lon": 0.0, "fusion_lat": 0.0, "lon": -77.02801566666666, "bike_id": "e30d5552db64861a67711ae4f8173350", "rental_uris": {"ios": "https://dc.lft.to/lastmile_qr_scan", "android": "https://dc.lft.to/lastmile_qr_scan"}}, {"type": "electric_scooter", "is_reserved": 0, "name": "e635088edb9e8968d54c3acba10151e5", "is_disabled": 0, "lat": 38.91122816666667, "fusion_lon": 0.0, "fusion_lat": 0.0, "lon": -77.02694116666666, "bike_id": "e635088edb9e8968d54c3acba10151e5", "rental_uris": {"ios": "https://dc.lft.to/lastmile_qr_scan", "android": "https://dc.lft.to/lastmile_qr_scan"}}, {"type": "electric_scooter", "is_reserved": 0, "name": "a0627fa6395aab87dcf3d763dd6d5b9c", "is_disabled": 0, "lat": 38.923656, "fusion_lon": 0.0, "fusion_lat": 0.0, "lon": -77.0512795, "bike_id": "a0627fa6395aab87dcf3d763dd6d5b9c", "rental_uris": {"ios": "https://dc.lft.to/lastmile_qr_scan", "android": "https://dc.lft.to/lastmile_qr_scan"}}, {"type": "electric_scooter", "is_reserved": 0, "name": "9287ab762cf29305bea82a7a53a805f4", "is_disabled": 0, "lat": 38.880183833333334, "fusion_lon": 0.0, "fusion_lat": 0.0, "lon": -76.96015216666666, "bike_id": "9287ab762cf29305bea82a7a53a805f4", "rental_uris": {"ios": "https://dc.lft.to/lastmile_qr_scan", "android": "https://dc.lft.to/lastmile_qr_scan"}}, {"type": "electric_scooter", "is_reserved": 0, "name": "a8590f36a1d8c5efe748c580fa2938ce", "is_disabled": 0, "lat": 38.938633833333334, "fusion_lon": 0.0, "fusion_lat": 0.0, "lon": -77.030872, "bike_id": "a8590f36a1d8c5efe748c580fa2938ce", "rental_uris": {"ios": "https://dc.lft.to/lastmile_qr_scan", "android": "https://dc.lft.to/lastmile_qr_scan"}}, {"type": "electric_scooter", "is_reserved": 0, "name": "418f9ae131fbbdd9038de8866d4b9d05", "is_disabled": 0, "lat": 38.93877483333333, "fusion_lon": 0.0, "fusion_lat": 0.0, "lon": -77.03123483333333, "bike_id": "418f9ae131fbbdd9038de8866d4b9d05", "rental_uris": {"ios": "https://dc.lft.to/lastmile_qr_scan", "android": "https://dc.lft.to/lastmile_qr_scan"}}, {"type": "electric_scooter", "is_reserved": 0, "name": "20bd5c9ce28d2bacc08c9f850d728b98", "is_disabled": 0, "lat": 38.86657683333333, "fusion_lon": 0.0, "fusion_lat": 0.0, "lon": -76.9888735, "bike_id": "20bd5c9ce28d2bacc08c9f850d728b98", "rental_uris": {"ios": "https://dc.lft.to/lastmile_qr_scan", "android": "https://dc.lft.to/lastmile_qr_scan"}}, {"type": "electric_scooter", "is_reserved": 0, "name": "66c3e04ee795ccd420d135814dea0ee3", "is_disabled": 0, "lat": 38.92544983333333, "fusion_lon": 0.0, "fusion_lat": 0.0, "lon": -77.05268633333333, "bike_id": "66c3e04ee795ccd420d135814dea0ee3", "rental_uris": {"ios": "https://dc.lft.to/lastmile_qr_scan", "android": "https://dc.lft.to/lastmile_qr_scan"}}, {"type": "electric_scooter", "is_reserved": 0, "name": "2c9bce5f8fd352e470c75197d8b723cb", "is_disabled": 0, "lat": 38.90219966666667, "fusion_lon": 0.0, "fusion_lat": 0.0, "lon": -77.01891, "bike_id": "2c9bce5f8fd352e470c75197d8b723cb", "rental_uris": {"ios": "https://dc.lft.to/lastmile_qr_scan", "android": "https://dc.lft.to/lastmile_qr_scan"}}, {"type": "electric_scooter", "is_reserved": 0, "name": "9e6688bf5acf6eb8b60de3bc6202a30f", "is_disabled": 0, "lat": 38.9099775, "fusion_lon": 0.0, "fusion_lat": 0.0, "lon": -77.03435466666667, "bike_id": "9e6688bf5acf6eb8b60de3bc6202a30f", "rental_uris": {"ios": "https://dc.lft.to/lastmile_qr_scan", "android": "https://dc.lft.to/lastmile_qr_scan"}}, {"type": "electric_scooter", "is_reserved": 0, "name": "319cd71f3b6cc153198ba5cfe77f1366", "is_disabled": 0, "lat": 38.921582666666666, "fusion_lon": 0.0, "fusion_lat": 0.0, "lon": -77.03513216666667, "bike_id": "319cd71f3b6cc153198ba5cfe77f1366", "rental_uris": {"ios": "https://dc.lft.to/lastmile_qr_scan", "android": "https://dc.lft.to/lastmile_qr_scan"}}, {"type": "electric_scooter", "is_reserved": 0, "name": "19e3118ec9d27b54d9a035b562546dd4", "is_disabled": 0, "lat": 38.900195333333336, "fusion_lon": 0.0, "fusion_lat": 0.0, "lon": -77.04652516666667, "bike_id": "19e3118ec9d27b54d9a035b562546dd4", "rental_uris": {"ios": "https://dc.lft.to/lastmile_qr_scan", "android": "https://dc.lft.to/lastmile_qr_scan"}}, {"type": "electric_scooter", "is_reserved": 0, "name": "ed148da15b63e90c5205542001ecf111", "is_disabled": 0, "lat": 38.923652833333335, "fusion_lon": 0.0, "fusion_lat": 0.0, "lon": -77.05054633333333, "bike_id": "ed148da15b63e90c5205542001ecf111", "rental_uris": {"ios": "https://dc.lft.to/lastmile_qr_scan", "android": "https://dc.lft.to/lastmile_qr_scan"}}, {"type": "electric_scooter", "is_reserved": 0, "name": "a3883c55a53a1c7eef2f26a595d7bfed", "is_disabled": 0, "lat": 38.90122866666667, "fusion_lon": 0.0, "fusion_lat": 0.0, "lon": -77.04999416666666, "bike_id": "a3883c55a53a1c7eef2f26a595d7bfed", "rental_uris": {"ios": "https://dc.lft.to/lastmile_qr_scan", "android": "https://dc.lft.to/lastmile_qr_scan"}}, {"type": "electric_scooter", "is_reserved": 0, "name": "ace574ca7c9a1acc46003f9ad39a2267", "is_disabled": 0, "lat": 38.91261083333333, "fusion_lon": 0.0, "fusion_lat": 0.0, "lon": -77.04103466666666, "bike_id": "ace574ca7c9a1acc46003f9ad39a2267", "rental_uris": {"ios": "https://dc.lft.to/lastmile_qr_scan", "android": "https://dc.lft.to/lastmile_qr_scan"}}, {"type": "electric_bike", "is_reserved": 0, "name": "ef84488b3eba539d99b0f85e07d315e4", "is_disabled": 0, "lat": 38.894507, "fusion_lon": 0.0, "fusion_lat": 0.0, "lon": -77.158269, "bike_id": "ef84488b3eba539d99b0f85e07d315e4", "rental_uris": {"ios": "https://dc.lft.to/lastmile_qr_scan", "android": "https://dc.lft.to/lastmile_qr_scan"}}, {"type": "electric_scooter", "is_reserved": 0, "name": "965d8deb20b3a251439d7c4f00d13bc4", "is_disabled": 0, "lat": 38.9012655, "fusion_lon": 0.0, "fusion_lat": 0.0, "lon": -77.030946, "bike_id": "965d8deb20b3a251439d7c4f00d13bc4", "rental_uris": {"ios": "https://dc.lft.to/lastmile_qr_scan", "android": "https://dc.lft.to/lastmile_qr_scan"}}, {"type": "electric_scooter", "is_reserved": 0, "name": "adba879e75acf73c937e41215c1081b3", "is_disabled": 0, "lat": 38.858136, "fusion_lon": 0.0, "fusion_lat": 0.0, "lon": -76.9871775, "bike_id": "adba879e75acf73c937e41215c1081b3", "rental_uris": {"ios": "https://dc.lft.to/lastmile_qr_scan", "android": "https://dc.lft.to/lastmile_qr_scan"}}, {"type": "electric_scooter", "is_reserved": 0, "name": "ffe7490550e85b2879213afa24e32696", "is_disabled": 0, "lat": 38.923906833333334, "fusion_lon": 0.0, "fusion_lat": 0.0, "lon": -77.03529933333333, "bike_id": "ffe7490550e85b2879213afa24e32696", "rental_uris": {"ios": "https://dc.lft.to/lastmile_qr_scan", "android": "https://dc.lft.to/lastmile_qr_scan"}}, {"type": "electric_scooter", "is_reserved": 0, "name": "3bdd14292ba6331158f909909e0652c5", "is_disabled": 0, "lat": 38.906628166666664, "fusion_lon": 0.0, "fusion_lat": 0.0, "lon": -77.074256, "bike_id": "3bdd14292ba6331158f909909e0652c5", "rental_uris": {"ios": "https://dc.lft.to/lastmile_qr_scan", "android": "https://dc.lft.to/lastmile_qr_scan"}}, {"type": "electric_scooter", "is_reserved": 0, "name": "62eef814147ad858191c9441ed08435a", "is_disabled": 0, "lat": 38.88367383333333, "fusion_lon": 0.0, "fusion_lat": 0.0, "lon": -76.99506, "bike_id": "62eef814147ad858191c9441ed08435a", "rental_uris": {"ios": "https://dc.lft.to/lastmile_qr_scan", "android": "https://dc.lft.to/lastmile_qr_scan"}}, {"type": "electric_scooter", "is_reserved": 0, "name": "dfda50d20e7e57bfef04bad1d3192416", "is_disabled": 0, "lat": 38.908399333333335, "fusion_lon": 0.0, "fusion_lat": 0.0, "lon": -76.9969325, "bike_id": "dfda50d20e7e57bfef04bad1d3192416", "rental_uris": {"ios": "https://dc.lft.to/lastmile_qr_scan", "android": "https://dc.lft.to/lastmile_qr_scan"}}, {"type": "electric_scooter", "is_reserved": 0, "name": "22df2783b4dc66dfc4b377b7aa098f44", "is_disabled": 0, "lat": 38.92300383333333, "fusion_lon": 0.0, "fusion_lat": 0.0, "lon": -77.041445, "bike_id": "22df2783b4dc66dfc4b377b7aa098f44", "rental_uris": {"ios": "https://dc.lft.to/lastmile_qr_scan", "android": "https://dc.lft.to/lastmile_qr_scan"}}, {"type": "electric_scooter", "is_reserved": 0, "name": "5aab5e777b3060d010510c467aa7dc91", "is_disabled": 0, "lat": 38.92235016666667, "fusion_lon": 0.0, "fusion_lat": 0.0, "lon": -77.0457275, "bike_id": "5aab5e777b3060d010510c467aa7dc91", "rental_uris": {"ios": "https://dc.lft.to/lastmile_qr_scan", "android": "https://dc.lft.to/lastmile_qr_scan"}}, {"type": "electric_scooter", "is_reserved": 0, "name": "06b91b810661f4dc691b7be96005c2fe", "is_disabled": 0, "lat": 38.9234015, "fusion_lon": 0.0, "fusion_lat": 0.0, "lon": -77.05032333333334, "bike_id": "06b91b810661f4dc691b7be96005c2fe", "rental_uris": {"ios": "https://dc.lft.to/lastmile_qr_scan", "android": "https://dc.lft.to/lastmile_qr_scan"}}, {"type": "electric_scooter", "is_reserved": 0, "name": "84ca8e43c82b6efc265f049bdefdd325", "is_disabled": 0, "lat": 38.8442945, "fusion_lon": 0.0, "fusion_lat": 0.0, "lon": -76.99773966666666, "bike_id": "84ca8e43c82b6efc265f049bdefdd325", "rental_uris": {"ios": "https://dc.lft.to/lastmile_qr_scan", "android": "https://dc.lft.to/lastmile_qr_scan"}}, {"type": "electric_scooter", "is_reserved": 0, "name": "a7d45a5c7b04f3a2f9adea417f57a116", "is_disabled": 0, "lat": 38.9332195, "fusion_lon": 0.0, "fusion_lat": 0.0, "lon": -77.04528283333333, "bike_id": "a7d45a5c7b04f3a2f9adea417f57a116", "rental_uris": {"ios": "https://dc.lft.to/lastmile_qr_scan", "android": "https://dc.lft.to/lastmile_qr_scan"}}, {"type": "electric_scooter", "is_reserved": 0, "name": "fa09d645c17897a29989f759c79aec18", "is_disabled": 0, "lat": 38.890072833333335, "fusion_lon": 0.0, "fusion_lat": 0.0, "lon": -76.93748016666666, "bike_id": "fa09d645c17897a29989f759c79aec18", "rental_uris": {"ios": "https://dc.lft.to/lastmile_qr_scan", "android": "https://dc.lft.to/lastmile_qr_scan"}}, {"type": "electric_scooter", "is_reserved": 0, "name": "5ffe213e2d23616e0691f7daa273dc26", "is_disabled": 0, "lat": 38.90255283333333, "fusion_lon": 0.0, "fusion_lat": 0.0, "lon": -77.02830333333333, "bike_id": "5ffe213e2d23616e0691f7daa273dc26", "rental_uris": {"ios": "https://dc.lft.to/lastmile_qr_scan", "android": "https://dc.lft.to/lastmile_qr_scan"}}, {"type": "electric_bike", "is_reserved": 0, "name": "109aa67c2fa9d444198f2675b72e47c7", "is_disabled": 0, "lat": 38.9723145, "fusion_lon": 0.0, "fusion_lat": 0.0, "lon": -76.99337366666667, "bike_id": "109aa67c2fa9d444198f2675b72e47c7", "rental_uris": {"ios": "https://dc.lft.to/lastmile_qr_scan", "android": "https://dc.lft.to/lastmile_qr_scan"}}, {"type": "electric_scooter", "is_reserved": 0, "name": "c848400b396b516903d3ce1fccd2a4de", "is_disabled": 0, "lat": 38.90240566666667, "fusion_lon": 0.0, "fusion_lat": 0.0, "lon": -77.00630733333334, "bike_id": "c848400b396b516903d3ce1fccd2a4de", "rental_uris": {"ios": "https://dc.lft.to/lastmile_qr_scan", "android": "https://dc.lft.to/lastmile_qr_scan"}}, {"type": "electric_scooter", "is_reserved": 0, "name": "d4edaccfe6bbbb22ec2fbbdc157177a1", "is_disabled": 0, "lat": 38.90586116666667, "fusion_lon": 0.0, "fusion_lat": 0.0, "lon": -76.98619183333334, "bike_id": "d4edaccfe6bbbb22ec2fbbdc157177a1", "rental_uris": {"ios": "https://dc.lft.to/lastmile_qr_scan", "android": "https://dc.lft.to/lastmile_qr_scan"}}, {"type": "electric_scooter", "is_reserved": 0, "name": "89f1a61a3e634a173456e62bd4572f5b", "is_disabled": 0, "lat": 38.90679566666667, "fusion_lon": 0.0, "fusion_lat": 0.0, "lon": -77.02693766666667, "bike_id": "89f1a61a3e634a173456e62bd4572f5b", "rental_uris": {"ios": "https://dc.lft.to/lastmile_qr_scan", "android": "https://dc.lft.to/lastmile_qr_scan"}}, {"type": "electric_scooter", "is_reserved": 0, "name": "d6130be88c396fd00cd91b88669de8fb", "is_disabled": 0, "lat": 38.885323, "fusion_lon": 0.0, "fusion_lat": 0.0, "lon": -76.9982715, "bike_id": "d6130be88c396fd00cd91b88669de8fb", "rental_uris": {"ios": "https://dc.lft.to/lastmile_qr_scan", "android": "https://dc.lft.to/lastmile_qr_scan"}}, {"type": "electric_scooter", "is_reserved": 0, "name": "7e3ea53ad933ff20b3771ab9d3c20b5f", "is_disabled": 0, "lat": 38.901402833333336, "fusion_lon": 0.0, "fusion_lat": 0.0, "lon": -77.04180116666667, "bike_id": "7e3ea53ad933ff20b3771ab9d3c20b5f", "rental_uris": {"ios": "https://dc.lft.to/lastmile_qr_scan", "android": "https://dc.lft.to/lastmile_qr_scan"}}, {"type": "electric_scooter", "is_reserved": 0, "name": "1c836ddac21da4eed07ae329e072e8a7", "is_disabled": 0, "lat": 38.867123166666666, "fusion_lon": 0.0, "fusion_lat": 0.0, "lon": -76.987303, "bike_id": "1c836ddac21da4eed07ae329e072e8a7", "rental_uris": {"ios": "https://dc.lft.to/lastmile_qr_scan", "android": "https://dc.lft.to/lastmile_qr_scan"}}, {"type": "electric_scooter", "is_reserved": 0, "name": "714f771c321da690b48d74432702e2b8", "is_disabled": 0, "lat": 38.902736833333336, "fusion_lon": 0.0, "fusion_lat": 0.0, "lon": -77.03770466666667, "bike_id": "714f771c321da690b48d74432702e2b8", "rental_uris": {"ios": "https://dc.lft.to/lastmile_qr_scan", "android": "https://dc.lft.to/lastmile_qr_scan"}}, {"type": "electric_bike", "is_reserved": 0, "name": "6d860a79a6b7a498c8fdbdd600ed4493", "is_disabled": 0, "lat": 38.845073166666666, "fusion_lon": 0.0, "fusion_lat": 0.0, "lon": -76.9935635, "bike_id": "6d860a79a6b7a498c8fdbdd600ed4493", "rental_uris": {"ios": "https://dc.lft.to/lastmile_qr_scan", "android": "https://dc.lft.to/lastmile_qr_scan"}}, {"type": "electric_scooter", "is_reserved": 0, "name": "e6487661aae558833e7f756567107f79", "is_disabled": 0, "lat": 38.92546866666667, "fusion_lon": 0.0, "fusion_lat": 0.0, "lon": -77.05270016666667, "bike_id": "e6487661aae558833e7f756567107f79", "rental_uris": {"ios": "https://dc.lft.to/lastmile_qr_scan", "android": "https://dc.lft.to/lastmile_qr_scan"}}, {"type": "electric_scooter", "is_reserved": 0, "name": "480a650f680256b0816eeea940bed0f7", "is_disabled": 0, "lat": 38.91283, "fusion_lon": 0.0, "fusion_lat": 0.0, "lon": -77.04508083333333, "bike_id": "480a650f680256b0816eeea940bed0f7", "rental_uris": {"ios": "https://dc.lft.to/lastmile_qr_scan", "android": "https://dc.lft.to/lastmile_qr_scan"}}, {"type": "electric_scooter", "is_reserved": 0, "name": "bc1ffa56e7aceac53015371834ef3a1f", "is_disabled": 0, "lat": 38.937386000000004, "fusion_lon": 0.0, "fusion_lat": 0.0, "lon": -77.03626566666667, "bike_id": "bc1ffa56e7aceac53015371834ef3a1f", "rental_uris": {"ios": "https://dc.lft.to/lastmile_qr_scan", "android": "https://dc.lft.to/lastmile_qr_scan"}}, {"type": "electric_scooter", "is_reserved": 0, "name": "b5c39f9ec4ba800943b575064948a808", "is_disabled": 0, "lat": 38.907447166666664, "fusion_lon": 0.0, "fusion_lat": 0.0, "lon": -77.00351016666667, "bike_id": "b5c39f9ec4ba800943b575064948a808", "rental_uris": {"ios": "https://dc.lft.to/lastmile_qr_scan", "android": "https://dc.lft.to/lastmile_qr_scan"}}, {"type": "electric_scooter", "is_reserved": 0, "name": "9483d11e466cf7fda49915b59fb8c56e", "is_disabled": 0, "lat": 38.90563066666667, "fusion_lon": 0.0, "fusion_lat": 0.0, "lon": -77.02808016666667, "bike_id": "9483d11e466cf7fda49915b59fb8c56e", "rental_uris": {"ios": "https://dc.lft.to/lastmile_qr_scan", "android": "https://dc.lft.to/lastmile_qr_scan"}}, {"type": "electric_bike", "is_reserved": 0, "name": "779f0d602e3a6cb9e921e6879bb837af", "is_disabled": 0, "lat": 38.82784866666667, "fusion_lon": 0.0, "fusion_lat": 0.0, "lon": -77.00916516666666, "bike_id": "779f0d602e3a6cb9e921e6879bb837af", "rental_uris": {"ios": "https://dc.lft.to/lastmile_qr_scan", "android": "https://dc.lft.to/lastmile_qr_scan"}}, {"type": "electric_bike", "is_reserved": 0, "name": "d77e72f750445ab7ec9cf512791663f6", "is_disabled": 0, "lat": 38.9865675, "fusion_lon": 0.0, "fusion_lat": 0.0, "lon": -77.05634583333334, "bike_id": "d77e72f750445ab7ec9cf512791663f6", "rental_uris": {"ios": "https://dc.lft.to/lastmile_qr_scan", "android": "https://dc.lft.to/lastmile_qr_scan"}}, {"type": "electric_scooter", "is_reserved": 0, "name": "44220aae524e51b436a6c09df1e1ebe7", "is_disabled": 0, "lat": 38.90635866666667, "fusion_lon": 0.0, "fusion_lat": 0.0, "lon": -77.06284666666667, "bike_id": "44220aae524e51b436a6c09df1e1ebe7", "rental_uris": {"ios": "https://dc.lft.to/lastmile_qr_scan", "android": "https://dc.lft.to/lastmile_qr_scan"}}, {"type": "electric_scooter", "is_reserved": 0, "name": "8c905c288a578030944c6c47b7dc2de8", "is_disabled": 0, "lat": 38.92293383333333, "fusion_lon": 0.0, "fusion_lat": 0.0, "lon": -77.03891083333333, "bike_id": "8c905c288a578030944c6c47b7dc2de8", "rental_uris": {"ios": "https://dc.lft.to/lastmile_qr_scan", "android": "https://dc.lft.to/lastmile_qr_scan"}}, {"type": "electric_scooter", "is_reserved": 0, "name": "8df182ed15bd54fec812c3d860a37533", "is_disabled": 0, "lat": 38.9173305, "fusion_lon": 0.0, "fusion_lat": 0.0, "lon": -77.032089, "bike_id": "8df182ed15bd54fec812c3d860a37533", "rental_uris": {"ios": "https://dc.lft.to/lastmile_qr_scan", "android": "https://dc.lft.to/lastmile_qr_scan"}}, {"type": "electric_scooter", "is_reserved": 0, "name": "027a45be898224913e07f7cdc40b70b2", "is_disabled": 0, "lat": 38.931896, "fusion_lon": 0.0, "fusion_lat": 0.0, "lon": -77.02835216666666, "bike_id": "027a45be898224913e07f7cdc40b70b2", "rental_uris": {"ios": "https://dc.lft.to/lastmile_qr_scan", "android": "https://dc.lft.to/lastmile_qr_scan"}}, {"type": "electric_scooter", "is_reserved": 0, "name": "e9305c1def1005c48be6674d10b43d6d", "is_disabled": 0, "lat": 38.918042166666666, "fusion_lon": 0.0, "fusion_lat": 0.0, "lon": -77.04017366666666, "bike_id": "e9305c1def1005c48be6674d10b43d6d", "rental_uris": {"ios": "https://dc.lft.to/lastmile_qr_scan", "android": "https://dc.lft.to/lastmile_qr_scan"}}, {"type": "electric_scooter", "is_reserved": 0, "name": "833a47b9ff99a130617d2ad1da6a6641", "is_disabled": 0, "lat": 38.90776533333333, "fusion_lon": 0.0, "fusion_lat": 0.0, "lon": -77.03860033333333, "bike_id": "833a47b9ff99a130617d2ad1da6a6641", "rental_uris": {"ios": "https://dc.lft.to/lastmile_qr_scan", "android": "https://dc.lft.to/lastmile_qr_scan"}}, {"type": "electric_scooter", "is_reserved": 0, "name": "4835d5a9fe6eb26eea4d25971a8f6451", "is_disabled": 0, "lat": 38.908205833333334, "fusion_lon": 0.0, "fusion_lat": 0.0, "lon": -77.04356883333334, "bike_id": "4835d5a9fe6eb26eea4d25971a8f6451", "rental_uris": {"ios": "https://dc.lft.to/lastmile_qr_scan", "android": "https://dc.lft.to/lastmile_qr_scan"}}, {"type": "electric_scooter", "is_reserved": 0, "name": "e249628a8a7228495a4f0215aab264a0", "is_disabled": 0, "lat": 38.9073915, "fusion_lon": 0.0, "fusion_lat": 0.0, "lon": -77.02714866666666, "bike_id": "e249628a8a7228495a4f0215aab264a0", "rental_uris": {"ios": "https://dc.lft.to/lastmile_qr_scan", "android": "https://dc.lft.to/lastmile_qr_scan"}}, {"type": "electric_scooter", "is_reserved": 0, "name": "cb9b016dc8fe28f04f34c88e3acc1a01", "is_disabled": 0, "lat": 38.9327995, "fusion_lon": 0.0, "fusion_lat": 0.0, "lon": -77.02837716666667, "bike_id": "cb9b016dc8fe28f04f34c88e3acc1a01", "rental_uris": {"ios": "https://dc.lft.to/lastmile_qr_scan", "android": "https://dc.lft.to/lastmile_qr_scan"}}, {"type": "electric_scooter", "is_reserved": 0, "name": "e926f6665054a62e7a5788cebe88f193", "is_disabled": 0, "lat": 38.9181635, "fusion_lon": 0.0, "fusion_lat": 0.0, "lon": -77.03914233333333, "bike_id": "e926f6665054a62e7a5788cebe88f193", "rental_uris": {"ios": "https://dc.lft.to/lastmile_qr_scan", "android": "https://dc.lft.to/lastmile_qr_scan"}}, {"type": "electric_scooter", "is_reserved": 0, "name": "07ec783b75cea05230c74accb0fa6c42", "is_disabled": 0, "lat": 38.91709066666667, "fusion_lon": 0.0, "fusion_lat": 0.0, "lon": -77.03496133333333, "bike_id": "07ec783b75cea05230c74accb0fa6c42", "rental_uris": {"ios": "https://dc.lft.to/lastmile_qr_scan", "android": "https://dc.lft.to/lastmile_qr_scan"}}, {"type": "electric_scooter", "is_reserved": 0, "name": "61c13aace84726ecbf028e6c28b95d5a", "is_disabled": 0, "lat": 38.9173575, "fusion_lon": 0.0, "fusion_lat": 0.0, "lon": -77.03659066666667, "bike_id": "61c13aace84726ecbf028e6c28b95d5a", "rental_uris": {"ios": "https://dc.lft.to/lastmile_qr_scan", "android": "https://dc.lft.to/lastmile_qr_scan"}}, {"type": "electric_scooter", "is_reserved": 0, "name": "0e2748a07448e10278f52983c7f1e342", "is_disabled": 0, "lat": 38.915822166666665, "fusion_lon": 0.0, "fusion_lat": 0.0, "lon": -77.04682983333333, "bike_id": "0e2748a07448e10278f52983c7f1e342", "rental_uris": {"ios": "https://dc.lft.to/lastmile_qr_scan", "android": "https://dc.lft.to/lastmile_qr_scan"}}, {"type": "electric_scooter", "is_reserved": 0, "name": "00a453782f7de62fec2cb27c6d4ac003", "is_disabled": 0, "lat": 38.91565633333333, "fusion_lon": 0.0, "fusion_lat": 0.0, "lon": -77.02978983333334, "bike_id": "00a453782f7de62fec2cb27c6d4ac003", "rental_uris": {"ios": "https://dc.lft.to/lastmile_qr_scan", "android": "https://dc.lft.to/lastmile_qr_scan"}}, {"type": "electric_scooter", "is_reserved": 0, "name": "ba462977a1cf46d9923dd47245b1d910", "is_disabled": 0, "lat": 38.8843005, "fusion_lon": 0.0, "fusion_lat": 0.0, "lon": -77.02789266666667, "bike_id": "ba462977a1cf46d9923dd47245b1d910", "rental_uris": {"ios": "https://dc.lft.to/lastmile_qr_scan", "android": "https://dc.lft.to/lastmile_qr_scan"}}, {"type": "electric_bike", "is_reserved": 0, "name": "0998baa60a69d6b197a886f58d0abbf3", "is_disabled": 0, "lat": 38.902494, "fusion_lon": 0.0, "fusion_lat": 0.0, "lon": -77.0181445, "bike_id": "0998baa60a69d6b197a886f58d0abbf3", "rental_uris": {"ios": "https://dc.lft.to/lastmile_qr_scan", "android": "https://dc.lft.to/lastmile_qr_scan"}}, {"type": "electric_scooter", "is_reserved": 0, "name": "540685f20e1630bfa2a2f2ed60a30715", "is_disabled": 0, "lat": 38.907371166666664, "fusion_lon": 0.0, "fusion_lat": 0.0, "lon": -77.02805033333334, "bike_id": "540685f20e1630bfa2a2f2ed60a30715", "rental_uris": {"ios": "https://dc.lft.to/lastmile_qr_scan", "android": "https://dc.lft.to/lastmile_qr_scan"}}, {"type": "electric_scooter", "is_reserved": 0, "name": "cf89b8d4a2951be9da9880a15a0ef6b9", "is_disabled": 0, "lat": 38.926160333333335, "fusion_lon": 0.0, "fusion_lat": 0.0, "lon": -77.02158133333333, "bike_id": "cf89b8d4a2951be9da9880a15a0ef6b9", "rental_uris": {"ios": "https://dc.lft.to/lastmile_qr_scan", "android": "https://dc.lft.to/lastmile_qr_scan"}}, {"type": "electric_scooter", "is_reserved": 0, "name": "b00df7a26fa9a3f597f5a1b44920cb85", "is_disabled": 0, "lat": 38.91146466666667, "fusion_lon": 0.0, "fusion_lat": 0.0, "lon": -77.00461033333333, "bike_id": "b00df7a26fa9a3f597f5a1b44920cb85", "rental_uris": {"ios": "https://dc.lft.to/lastmile_qr_scan", "android": "https://dc.lft.to/lastmile_qr_scan"}}, {"type": "electric_scooter", "is_reserved": 0, "name": "6505007ef648ccc92672298c95d45ae5", "is_disabled": 0, "lat": 38.915230666666666, "fusion_lon": 0.0, "fusion_lat": 0.0, "lon": -77.02200316666666, "bike_id": "6505007ef648ccc92672298c95d45ae5", "rental_uris": {"ios": "https://dc.lft.to/lastmile_qr_scan", "android": "https://dc.lft.to/lastmile_qr_scan"}}, {"type": "electric_scooter", "is_reserved": 0, "name": "da0771581a6e3b07ab3aa0fb94f60dd4", "is_disabled": 0, "lat": 38.88375533333333, "fusion_lon": 0.0, "fusion_lat": 0.0, "lon": -76.99517116666667, "bike_id": "da0771581a6e3b07ab3aa0fb94f60dd4", "rental_uris": {"ios": "https://dc.lft.to/lastmile_qr_scan", "android": "https://dc.lft.to/lastmile_qr_scan"}}, {"type": "electric_scooter", "is_reserved": 0, "name": "ed639d75c523405d7a8316e5573e4653", "is_disabled": 0, "lat": 38.90964483333333, "fusion_lon": 0.0, "fusion_lat": 0.0, "lon": -77.03838033333334, "bike_id": "ed639d75c523405d7a8316e5573e4653", "rental_uris": {"ios": "https://dc.lft.to/lastmile_qr_scan", "android": "https://dc.lft.to/lastmile_qr_scan"}}, {"type": "electric_scooter", "is_reserved": 0, "name": "4300050f8518843d1547ab5c21272ca7", "is_disabled": 0, "lat": 38.896223666666664, "fusion_lon": 0.0, "fusion_lat": 0.0, "lon": -76.99851666666666, "bike_id": "4300050f8518843d1547ab5c21272ca7", "rental_uris": {"ios": "https://dc.lft.to/lastmile_qr_scan", "android": "https://dc.lft.to/lastmile_qr_scan"}}, {"type": "electric_scooter", "is_reserved": 0, "name": "e99a2131c14dc79a5cbd706ecb4f9fac", "is_disabled": 0, "lat": 38.90411016666667, "fusion_lon": 0.0, "fusion_lat": 0.0, "lon": -77.02582783333334, "bike_id": "e99a2131c14dc79a5cbd706ecb4f9fac", "rental_uris": {"ios": "https://dc.lft.to/lastmile_qr_scan", "android": "https://dc.lft.to/lastmile_qr_scan"}}, {"type": "electric_scooter", "is_reserved": 0, "name": "e4c58cd4a192e042bcbdceef6f33c1e7", "is_disabled": 0, "lat": 38.9073145, "fusion_lon": 0.0, "fusion_lat": 0.0, "lon": -77.027614, "bike_id": "e4c58cd4a192e042bcbdceef6f33c1e7", "rental_uris": {"ios": "https://dc.lft.to/lastmile_qr_scan", "android": "https://dc.lft.to/lastmile_qr_scan"}}, {"type": "electric_scooter", "is_reserved": 0, "name": "6bedfa68f44df799b708902fdf2dce7e", "is_disabled": 0, "lat": 38.90928266666667, "fusion_lon": 0.0, "fusion_lat": 0.0, "lon": -77.08023166666666, "bike_id": "6bedfa68f44df799b708902fdf2dce7e", "rental_uris": {"ios": "https://dc.lft.to/lastmile_qr_scan", "android": "https://dc.lft.to/lastmile_qr_scan"}}, {"type": "electric_scooter", "is_reserved": 0, "name": "1db45d3b027e3d946f66a56553e8b17e", "is_disabled": 0, "lat": 38.892216, "fusion_lon": 0.0, "fusion_lat": 0.0, "lon": -77.03165366666667, "bike_id": "1db45d3b027e3d946f66a56553e8b17e", "rental_uris": {"ios": "https://dc.lft.to/lastmile_qr_scan", "android": "https://dc.lft.to/lastmile_qr_scan"}}, {"type": "electric_scooter", "is_reserved": 0, "name": "394bcddd8bfa8567c57350e708224b61", "is_disabled": 0, "lat": 38.91922516666666, "fusion_lon": 0.0, "fusion_lat": 0.0, "lon": -77.04485666666666, "bike_id": "394bcddd8bfa8567c57350e708224b61", "rental_uris": {"ios": "https://dc.lft.to/lastmile_qr_scan", "android": "https://dc.lft.to/lastmile_qr_scan"}}, {"type": "electric_scooter", "is_reserved": 0, "name": "e7567f743dc856869aba78e14a953c6b", "is_disabled": 0, "lat": 38.86746433333333, "fusion_lon": 0.0, "fusion_lat": 0.0, "lon": -76.976636, "bike_id": "e7567f743dc856869aba78e14a953c6b", "rental_uris": {"ios": "https://dc.lft.to/lastmile_qr_scan", "android": "https://dc.lft.to/lastmile_qr_scan"}}, {"type": "electric_bike", "is_reserved": 0, "name": "6a9a883229d2113851cfc11a936d5a48", "is_disabled": 0, "lat": 38.9264505, "fusion_lon": 0.0, "fusion_lat": 0.0, "lon": -77.02837966666667, "bike_id": "6a9a883229d2113851cfc11a936d5a48", "rental_uris": {"ios": "https://dc.lft.to/lastmile_qr_scan", "android": "https://dc.lft.to/lastmile_qr_scan"}}, {"type": "electric_bike", "is_reserved": 0, "name": "3b1bb1e5036f93d82fbf8e3b88beb96c", "is_disabled": 0, "lat": 38.8773435, "fusion_lon": 0.0, "fusion_lat": 0.0, "lon": -77.11853383333333, "bike_id": "3b1bb1e5036f93d82fbf8e3b88beb96c", "rental_uris": {"ios": "https://dc.lft.to/lastmile_qr_scan", "android": "https://dc.lft.to/lastmile_qr_scan"}}, {"type": "electric_scooter", "is_reserved": 0, "name": "ca697eada9737bdc8dad27f4a71a1de5", "is_disabled": 0, "lat": 38.94632583333333, "fusion_lon": 0.0, "fusion_lat": 0.0, "lon": -77.018462, "bike_id": "ca697eada9737bdc8dad27f4a71a1de5", "rental_uris": {"ios": "https://dc.lft.to/lastmile_qr_scan", "android": "https://dc.lft.to/lastmile_qr_scan"}}, {"type": "electric_scooter", "is_reserved": 0, "name": "9bb7558f3982ad8be0ca31fe0e06cd26", "is_disabled": 0, "lat": 38.9072885, "fusion_lon": 0.0, "fusion_lat": 0.0, "lon": -77.02759733333333, "bike_id": "9bb7558f3982ad8be0ca31fe0e06cd26", "rental_uris": {"ios": "https://dc.lft.to/lastmile_qr_scan", "android": "https://dc.lft.to/lastmile_qr_scan"}}, {"type": "electric_bike", "is_reserved": 0, "name": "5adce37aabb5cf9b6b055394ddbc3a0a", "is_disabled": 0, "lat": 38.9518485, "fusion_lon": 0.0, "fusion_lat": 0.0, "lon": -76.93546666666667, "bike_id": "5adce37aabb5cf9b6b055394ddbc3a0a", "rental_uris": {"ios": "https://dc.lft.to/lastmile_qr_scan", "android": "https://dc.lft.to/lastmile_qr_scan"}}, {"type": "electric_scooter", "is_reserved": 0, "name": "5647f1e5b9a50842ed255d9d754242c2", "is_disabled": 0, "lat": 38.884456, "fusion_lon": 0.0, "fusion_lat": 0.0, "lon": -76.92946266666667, "bike_id": "5647f1e5b9a50842ed255d9d754242c2", "rental_uris": {"ios": "https://dc.lft.to/lastmile_qr_scan", "android": "https://dc.lft.to/lastmile_qr_scan"}}, {"type": "electric_scooter", "is_reserved": 0, "name": "3228ffebf2a66774d851f33bc48cdc1c", "is_disabled": 0, "lat": 38.91780683333333, "fusion_lon": 0.0, "fusion_lat": 0.0, "lon": -77.03639333333334, "bike_id": "3228ffebf2a66774d851f33bc48cdc1c", "rental_uris": {"ios": "https://dc.lft.to/lastmile_qr_scan", "android": "https://dc.lft.to/lastmile_qr_scan"}}, {"type": "electric_scooter", "is_reserved": 0, "name": "f561d71f239282ed84494b6b26b3e958", "is_disabled": 0, "lat": 38.9080795, "fusion_lon": 0.0, "fusion_lat": 0.0, "lon": -77.043505, "bike_id": "f561d71f239282ed84494b6b26b3e958", "rental_uris": {"ios": "https://dc.lft.to/lastmile_qr_scan", "android": "https://dc.lft.to/lastmile_qr_scan"}}, {"type": "electric_bike", "is_reserved": 0, "name": "1a974a29bacbb068918407217af6a323", "is_disabled": 0, "lat": 38.850294833333336, "fusion_lon": 0.0, "fusion_lat": 0.0, "lon": -77.098046, "bike_id": "1a974a29bacbb068918407217af6a323", "rental_uris": {"ios": "https://dc.lft.to/lastmile_qr_scan", "android": "https://dc.lft.to/lastmile_qr_scan"}}, {"type": "electric_scooter", "is_reserved": 0, "name": "974347ec39e427ad3f3e3416dec0db45", "is_disabled": 0, "lat": 38.94525216666667, "fusion_lon": 0.0, "fusion_lat": 0.0, "lon": -76.97950066666667, "bike_id": "974347ec39e427ad3f3e3416dec0db45", "rental_uris": {"ios": "https://dc.lft.to/lastmile_qr_scan", "android": "https://dc.lft.to/lastmile_qr_scan"}}, {"type": "electric_scooter", "is_reserved": 0, "name": "ca1f948b8ff3791d215be7170a71b0c7", "is_disabled": 0, "lat": 38.930622, "fusion_lon": 0.0, "fusion_lat": 0.0, "lon": -77.03189366666666, "bike_id": "ca1f948b8ff3791d215be7170a71b0c7", "rental_uris": {"ios": "https://dc.lft.to/lastmile_qr_scan", "android": "https://dc.lft.to/lastmile_qr_scan"}}, {"type": "electric_bike", "is_reserved": 0, "name": "430aad06e529aaf79ea2cc7108b9c32b", "is_disabled": 0, "lat": 38.85791866666667, "fusion_lon": 0.0, "fusion_lat": 0.0, "lon": -77.0996175, "bike_id": "430aad06e529aaf79ea2cc7108b9c32b", "rental_uris": {"ios": "https://dc.lft.to/lastmile_qr_scan", "android": "https://dc.lft.to/lastmile_qr_scan"}}, {"type": "electric_scooter", "is_reserved": 0, "name": "c0cfb98f97db0834db1196e5e9972548", "is_disabled": 0, "lat": 38.89226166666667, "fusion_lon": 0.0, "fusion_lat": 0.0, "lon": -77.0464135, "bike_id": "c0cfb98f97db0834db1196e5e9972548", "rental_uris": {"ios": "https://dc.lft.to/lastmile_qr_scan", "android": "https://dc.lft.to/lastmile_qr_scan"}}, {"type": "electric_scooter", "is_reserved": 0, "name": "a8b433a418ec7b329b6eadc6cfb03bb3", "is_disabled": 0, "lat": 38.90729416666667, "fusion_lon": 0.0, "fusion_lat": 0.0, "lon": -77.04761716666667, "bike_id": "a8b433a418ec7b329b6eadc6cfb03bb3", "rental_uris": {"ios": "https://dc.lft.to/lastmile_qr_scan", "android": "https://dc.lft.to/lastmile_qr_scan"}}, {"type": "electric_scooter", "is_reserved": 0, "name": "4fc2c911390ccf1f9760e637985e1e00", "is_disabled": 0, "lat": 38.888011, "fusion_lon": 0.0, "fusion_lat": 0.0, "lon": -77.0155785, "bike_id": "4fc2c911390ccf1f9760e637985e1e00", "rental_uris": {"ios": "https://dc.lft.to/lastmile_qr_scan", "android": "https://dc.lft.to/lastmile_qr_scan"}}, {"type": "electric_scooter", "is_reserved": 0, "name": "1bc98669780b1867d029c38f5b2678de", "is_disabled": 0, "lat": 38.924969, "fusion_lon": 0.0, "fusion_lat": 0.0, "lon": -77.05220633333333, "bike_id": "1bc98669780b1867d029c38f5b2678de", "rental_uris": {"ios": "https://dc.lft.to/lastmile_qr_scan", "android": "https://dc.lft.to/lastmile_qr_scan"}}, {"type": "electric_scooter", "is_reserved": 0, "name": "193d5566b61104ccc25dc1a4d6d374a3", "is_disabled": 0, "lat": 38.902676, "fusion_lon": 0.0, "fusion_lat": 0.0, "lon": -77.053518, "bike_id": "193d5566b61104ccc25dc1a4d6d374a3", "rental_uris": {"ios": "https://dc.lft.to/lastmile_qr_scan", "android": "https://dc.lft.to/lastmile_qr_scan"}}, {"type": "electric_scooter", "is_reserved": 0, "name": "b22af2a0f5ccaad75d750aa44d72ffae", "is_disabled": 0, "lat": 38.903737166666666, "fusion_lon": 0.0, "fusion_lat": 0.0, "lon": -77.04487333333333, "bike_id": "b22af2a0f5ccaad75d750aa44d72ffae", "rental_uris": {"ios": "https://dc.lft.to/lastmile_qr_scan", "android": "https://dc.lft.to/lastmile_qr_scan"}}, {"type": "electric_scooter", "is_reserved": 0, "name": "38049886e336c17987153fe6596583b1", "is_disabled": 0, "lat": 38.915618, "fusion_lon": 0.0, "fusion_lat": 0.0, "lon": -77.03162783333333, "bike_id": "38049886e336c17987153fe6596583b1", "rental_uris": {"ios": "https://dc.lft.to/lastmile_qr_scan", "android": "https://dc.lft.to/lastmile_qr_scan"}}, {"type": "electric_scooter", "is_reserved": 0, "name": "ec4961f93f13804ecb7f02725faede4b", "is_disabled": 0, "lat": 38.9058035, "fusion_lon": 0.0, "fusion_lat": 0.0, "lon": -77.02539116666667, "bike_id": "ec4961f93f13804ecb7f02725faede4b", "rental_uris": {"ios": "https://dc.lft.to/lastmile_qr_scan", "android": "https://dc.lft.to/lastmile_qr_scan"}}, {"type": "electric_bike", "is_reserved": 0, "name": "0007756e58d7a9018aaa5a2155c4b9b2", "is_disabled": 0, "lat": 38.806839833333335, "fusion_lon": 0.0, "fusion_lat": 0.0, "lon": -77.08119616666667, "bike_id": "0007756e58d7a9018aaa5a2155c4b9b2", "rental_uris": {"ios": "https://dc.lft.to/lastmile_qr_scan", "android": "https://dc.lft.to/lastmile_qr_scan"}}, {"type": "electric_scooter", "is_reserved": 0, "name": "e2f19ba7d9dda4a88e0070c65e0310fb", "is_disabled": 0, "lat": 38.9216645, "fusion_lon": 0.0, "fusion_lat": 0.0, "lon": -77.03266216666667, "bike_id": "e2f19ba7d9dda4a88e0070c65e0310fb", "rental_uris": {"ios": "https://dc.lft.to/lastmile_qr_scan", "android": "https://dc.lft.to/lastmile_qr_scan"}}, {"type": "electric_scooter", "is_reserved": 0, "name": "d9bb00d2e842bbc416afdc5b73edf185", "is_disabled": 0, "lat": 38.897068, "fusion_lon": 0.0, "fusion_lat": 0.0, "lon": -77.02589, "bike_id": "d9bb00d2e842bbc416afdc5b73edf185", "rental_uris": {"ios": "https://dc.lft.to/lastmile_qr_scan", "android": "https://dc.lft.to/lastmile_qr_scan"}}, {"type": "electric_scooter", "is_reserved": 0, "name": "5994cbb8ef6865d281d5fece599e172e", "is_disabled": 0, "lat": 38.903669666666666, "fusion_lon": 0.0, "fusion_lat": 0.0, "lon": -77.0448405, "bike_id": "5994cbb8ef6865d281d5fece599e172e", "rental_uris": {"ios": "https://dc.lft.to/lastmile_qr_scan", "android": "https://dc.lft.to/lastmile_qr_scan"}}, {"type": "electric_scooter", "is_reserved": 0, "name": "6d7f5952791c5e58855f265e5a4899ba", "is_disabled": 0, "lat": 38.905668666666664, "fusion_lon": 0.0, "fusion_lat": 0.0, "lon": -77.00560916666667, "bike_id": "6d7f5952791c5e58855f265e5a4899ba", "rental_uris": {"ios": "https://dc.lft.to/lastmile_qr_scan", "android": "https://dc.lft.to/lastmile_qr_scan"}}, {"type": "electric_scooter", "is_reserved": 0, "name": "dd9c28e157a96bf87e75d59bdd2ae7ff", "is_disabled": 0, "lat": 38.9225395, "fusion_lon": 0.0, "fusion_lat": 0.0, "lon": -77.0195475, "bike_id": "dd9c28e157a96bf87e75d59bdd2ae7ff", "rental_uris": {"ios": "https://dc.lft.to/lastmile_qr_scan", "android": "https://dc.lft.to/lastmile_qr_scan"}}, {"type": "electric_bike", "is_reserved": 0, "name": "c616a4247aa2d2c3b250f8fad17e9cdb", "is_disabled": 0, "lat": 38.843464, "fusion_lon": 0.0, "fusion_lat": 0.0, "lon": -77.05162833333333, "bike_id": "c616a4247aa2d2c3b250f8fad17e9cdb", "rental_uris": {"ios": "https://dc.lft.to/lastmile_qr_scan", "android": "https://dc.lft.to/lastmile_qr_scan"}}, {"type": "electric_bike", "is_reserved": 0, "name": "71fec7a4bd79118b6bb38996ec5cb357", "is_disabled": 0, "lat": 38.87095033333333, "fusion_lon": 0.0, "fusion_lat": 0.0, "lon": -77.01210233333333, "bike_id": "71fec7a4bd79118b6bb38996ec5cb357", "rental_uris": {"ios": "https://dc.lft.to/lastmile_qr_scan", "android": "https://dc.lft.to/lastmile_qr_scan"}}, {"type": "electric_scooter", "is_reserved": 0, "name": "bfe63e691f306b32987ce5bc9612d06b", "is_disabled": 0, "lat": 38.87181533333333, "fusion_lon": 0.0, "fusion_lat": 0.0, "lon": -77.00608816666667, "bike_id": "bfe63e691f306b32987ce5bc9612d06b", "rental_uris": {"ios": "https://dc.lft.to/lastmile_qr_scan", "android": "https://dc.lft.to/lastmile_qr_scan"}}, {"type": "electric_scooter", "is_reserved": 0, "name": "e61f8a8e835f7f26f4de78230c62d012", "is_disabled": 0, "lat": 38.90762983333333, "fusion_lon": 0.0, "fusion_lat": 0.0, "lon": -77.07024116666666, "bike_id": "e61f8a8e835f7f26f4de78230c62d012", "rental_uris": {"ios": "https://dc.lft.to/lastmile_qr_scan", "android": "https://dc.lft.to/lastmile_qr_scan"}}, {"type": "electric_scooter", "is_reserved": 0, "name": "d8279dce7fa272731c61c38b721a1c45", "is_disabled": 0, "lat": 38.907348, "fusion_lon": 0.0, "fusion_lat": 0.0, "lon": -76.935454, "bike_id": "d8279dce7fa272731c61c38b721a1c45", "rental_uris": {"ios": "https://dc.lft.to/lastmile_qr_scan", "android": "https://dc.lft.to/lastmile_qr_scan"}}, {"type": "electric_scooter", "is_reserved": 0, "name": "726e9c535fce51cc6059d853b2135294", "is_disabled": 0, "lat": 38.90332933333333, "fusion_lon": 0.0, "fusion_lat": 0.0, "lon": -76.9759885, "bike_id": "726e9c535fce51cc6059d853b2135294", "rental_uris": {"ios": "https://dc.lft.to/lastmile_qr_scan", "android": "https://dc.lft.to/lastmile_qr_scan"}}, {"type": "electric_scooter", "is_reserved": 0, "name": "cde8b770053fd7c366a04cd6cd8ca1ee", "is_disabled": 0, "lat": 38.923648666666665, "fusion_lon": 0.0, "fusion_lat": 0.0, "lon": -77.051238, "bike_id": "cde8b770053fd7c366a04cd6cd8ca1ee", "rental_uris": {"ios": "https://dc.lft.to/lastmile_qr_scan", "android": "https://dc.lft.to/lastmile_qr_scan"}}, {"type": "electric_scooter", "is_reserved": 0, "name": "446d5848030c9d379f24b400acae029f", "is_disabled": 0, "lat": 38.902547, "fusion_lon": 0.0, "fusion_lat": 0.0, "lon": -77.04356933333334, "bike_id": "446d5848030c9d379f24b400acae029f", "rental_uris": {"ios": "https://dc.lft.to/lastmile_qr_scan", "android": "https://dc.lft.to/lastmile_qr_scan"}}, {"type": "electric_scooter", "is_reserved": 0, "name": "c8dd9e7cc0991353945d8bcfbdd6637a", "is_disabled": 0, "lat": 38.9358015, "fusion_lon": 0.0, "fusion_lat": 0.0, "lon": -77.0212135, "bike_id": "c8dd9e7cc0991353945d8bcfbdd6637a", "rental_uris": {"ios": "https://dc.lft.to/lastmile_qr_scan", "android": "https://dc.lft.to/lastmile_qr_scan"}}, {"type": "electric_scooter", "is_reserved": 0, "name": "edf4aa1f657745fd29fa1cb0e635081b", "is_disabled": 0, "lat": 38.89684416666667, "fusion_lon": 0.0, "fusion_lat": 0.0, "lon": -77.00493633333333, "bike_id": "edf4aa1f657745fd29fa1cb0e635081b", "rental_uris": {"ios": "https://dc.lft.to/lastmile_qr_scan", "android": "https://dc.lft.to/lastmile_qr_scan"}}, {"type": "electric_scooter", "is_reserved": 0, "name": "cd2efa5ba73f25b3040f652078d1565b", "is_disabled": 0, "lat": 38.924691333333335, "fusion_lon": 0.0, "fusion_lat": 0.0, "lon": -77.052312, "bike_id": "cd2efa5ba73f25b3040f652078d1565b", "rental_uris": {"ios": "https://dc.lft.to/lastmile_qr_scan", "android": "https://dc.lft.to/lastmile_qr_scan"}}, {"type": "electric_scooter", "is_reserved": 0, "name": "3664a12f29de9e582f31d5cb70edb044", "is_disabled": 0, "lat": 38.918208, "fusion_lon": 0.0, "fusion_lat": 0.0, "lon": -77.029492, "bike_id": "3664a12f29de9e582f31d5cb70edb044", "rental_uris": {"ios": "https://dc.lft.to/lastmile_qr_scan", "android": "https://dc.lft.to/lastmile_qr_scan"}}, {"type": "electric_bike", "is_reserved": 0, "name": "f37b659020f9dd5cc577b7d98b758c75", "is_disabled": 0, "lat": 38.8543375, "fusion_lon": 0.0, "fusion_lat": 0.0, "lon": -76.9097295, "bike_id": "f37b659020f9dd5cc577b7d98b758c75", "rental_uris": {"ios": "https://dc.lft.to/lastmile_qr_scan", "android": "https://dc.lft.to/lastmile_qr_scan"}}, {"type": "electric_scooter", "is_reserved": 0, "name": "755a0650cba29c01b4d638937cfd3538", "is_disabled": 0, "lat": 38.8762655, "fusion_lon": 0.0, "fusion_lat": 0.0, "lon": -76.96525966666667, "bike_id": "755a0650cba29c01b4d638937cfd3538", "rental_uris": {"ios": "https://dc.lft.to/lastmile_qr_scan", "android": "https://dc.lft.to/lastmile_qr_scan"}}, {"type": "electric_scooter", "is_reserved": 0, "name": "bbc18fd90a59d693de6252789bffdec8", "is_disabled": 0, "lat": 38.876357166666665, "fusion_lon": 0.0, "fusion_lat": 0.0, "lon": -77.0092195, "bike_id": "bbc18fd90a59d693de6252789bffdec8", "rental_uris": {"ios": "https://dc.lft.to/lastmile_qr_scan", "android": "https://dc.lft.to/lastmile_qr_scan"}}, {"type": "electric_bike", "is_reserved": 0, "name": "a925010d523b7acb52b8ef2a70c990cc", "is_disabled": 0, "lat": 38.934994833333334, "fusion_lon": 0.0, "fusion_lat": 0.0, "lon": -77.03208733333334, "bike_id": "a925010d523b7acb52b8ef2a70c990cc", "rental_uris": {"ios": "https://dc.lft.to/lastmile_qr_scan", "android": "https://dc.lft.to/lastmile_qr_scan"}}, {"type": "electric_scooter", "is_reserved": 0, "name": "fe09300ff02f23621794e93b9a7e0088", "is_disabled": 0, "lat": 38.932341, "fusion_lon": 0.0, "fusion_lat": 0.0, "lon": -77.0388645, "bike_id": "fe09300ff02f23621794e93b9a7e0088", "rental_uris": {"ios": "https://dc.lft.to/lastmile_qr_scan", "android": "https://dc.lft.to/lastmile_qr_scan"}}, {"type": "electric_scooter", "is_reserved": 0, "name": "a2566eca08306de7e4a9df4cb8543a0d", "is_disabled": 0, "lat": 38.90002966666667, "fusion_lon": 0.0, "fusion_lat": 0.0, "lon": -76.99850416666666, "bike_id": "a2566eca08306de7e4a9df4cb8543a0d", "rental_uris": {"ios": "https://dc.lft.to/lastmile_qr_scan", "android": "https://dc.lft.to/lastmile_qr_scan"}}, {"type": "electric_scooter", "is_reserved": 0, "name": "f45363558b7c87c62cd1cbfdb0683538", "is_disabled": 0, "lat": 38.906816666666664, "fusion_lon": 0.0, "fusion_lat": 0.0, "lon": -77.038427, "bike_id": "f45363558b7c87c62cd1cbfdb0683538", "rental_uris": {"ios": "https://dc.lft.to/lastmile_qr_scan", "android": "https://dc.lft.to/lastmile_qr_scan"}}, {"type": "electric_scooter", "is_reserved": 0, "name": "7f7da85bce301a44dfa541c217e381a8", "is_disabled": 0, "lat": 38.892276, "fusion_lon": 0.0, "fusion_lat": 0.0, "lon": -77.0333885, "bike_id": "7f7da85bce301a44dfa541c217e381a8", "rental_uris": {"ios": "https://dc.lft.to/lastmile_qr_scan", "android": "https://dc.lft.to/lastmile_qr_scan"}}, {"type": "electric_scooter", "is_reserved": 0, "name": "5aba45ec44580b4c6923856b50cef40f", "is_disabled": 0, "lat": 38.917087333333335, "fusion_lon": 0.0, "fusion_lat": 0.0, "lon": -77.03923266666666, "bike_id": "5aba45ec44580b4c6923856b50cef40f", "rental_uris": {"ios": "https://dc.lft.to/lastmile_qr_scan", "android": "https://dc.lft.to/lastmile_qr_scan"}}, {"type": "electric_scooter", "is_reserved": 0, "name": "7c2fecab09dd513304dfe53d26ae126b", "is_disabled": 0, "lat": 38.902899833333336, "fusion_lon": 0.0, "fusion_lat": 0.0, "lon": -77.03645333333333, "bike_id": "7c2fecab09dd513304dfe53d26ae126b", "rental_uris": {"ios": "https://dc.lft.to/lastmile_qr_scan", "android": "https://dc.lft.to/lastmile_qr_scan"}}, {"type": "electric_scooter", "is_reserved": 0, "name": "6a05ecd560173ae1748fb17c41da99d1", "is_disabled": 0, "lat": 38.924812333333335, "fusion_lon": 0.0, "fusion_lat": 0.0, "lon": -77.0348125, "bike_id": "6a05ecd560173ae1748fb17c41da99d1", "rental_uris": {"ios": "https://dc.lft.to/lastmile_qr_scan", "android": "https://dc.lft.to/lastmile_qr_scan"}}, {"type": "electric_scooter", "is_reserved": 0, "name": "cf762d2a648fe2e609e9f0ed0bce8975", "is_disabled": 0, "lat": 38.91566183333333, "fusion_lon": 0.0, "fusion_lat": 0.0, "lon": -77.03167216666667, "bike_id": "cf762d2a648fe2e609e9f0ed0bce8975", "rental_uris": {"ios": "https://dc.lft.to/lastmile_qr_scan", "android": "https://dc.lft.to/lastmile_qr_scan"}}, {"type": "electric_scooter", "is_reserved": 0, "name": "6a00a32a43266cbeaae3b747e1436187", "is_disabled": 0, "lat": 38.88626816666667, "fusion_lon": 0.0, "fusion_lat": 0.0, "lon": -76.9551765, "bike_id": "6a00a32a43266cbeaae3b747e1436187", "rental_uris": {"ios": "https://dc.lft.to/lastmile_qr_scan", "android": "https://dc.lft.to/lastmile_qr_scan"}}, {"type": "electric_scooter", "is_reserved": 0, "name": "244b50a75502599630e9ae7f15580f62", "is_disabled": 0, "lat": 38.914127, "fusion_lon": 0.0, "fusion_lat": 0.0, "lon": -77.02119616666667, "bike_id": "244b50a75502599630e9ae7f15580f62", "rental_uris": {"ios": "https://dc.lft.to/lastmile_qr_scan", "android": "https://dc.lft.to/lastmile_qr_scan"}}, {"type": "electric_scooter", "is_reserved": 0, "name": "df7faa1e2bb74345f49e8549226fc4f6", "is_disabled": 0, "lat": 38.917342833333336, "fusion_lon": 0.0, "fusion_lat": 0.0, "lon": -77.03644233333333, "bike_id": "df7faa1e2bb74345f49e8549226fc4f6", "rental_uris": {"ios": "https://dc.lft.to/lastmile_qr_scan", "android": "https://dc.lft.to/lastmile_qr_scan"}}, {"type": "electric_scooter", "is_reserved": 0, "name": "89ce023092ee2168bf4890ae978e06cd", "is_disabled": 0, "lat": 38.894847, "fusion_lon": 0.0, "fusion_lat": 0.0, "lon": -77.00225116666667, "bike_id": "89ce023092ee2168bf4890ae978e06cd", "rental_uris": {"ios": "https://dc.lft.to/lastmile_qr_scan", "android": "https://dc.lft.to/lastmile_qr_scan"}}, {"type": "electric_scooter", "is_reserved": 0, "name": "956074ef99f447a89d941770018806eb", "is_disabled": 0, "lat": 38.91055216666667, "fusion_lon": 0.0, "fusion_lat": 0.0, "lon": -77.04350516666666, "bike_id": "956074ef99f447a89d941770018806eb", "rental_uris": {"ios": "https://dc.lft.to/lastmile_qr_scan", "android": "https://dc.lft.to/lastmile_qr_scan"}}, {"type": "electric_scooter", "is_reserved": 0, "name": "0a018754db3111cfb690e758a36a9850", "is_disabled": 0, "lat": 38.93948783333333, "fusion_lon": 0.0, "fusion_lat": 0.0, "lon": -77.07251866666667, "bike_id": "0a018754db3111cfb690e758a36a9850", "rental_uris": {"ios": "https://dc.lft.to/lastmile_qr_scan", "android": "https://dc.lft.to/lastmile_qr_scan"}}, {"type": "electric_scooter", "is_reserved": 0, "name": "3baf3b4883de6cf446e802da776bfa60", "is_disabled": 0, "lat": 38.923154, "fusion_lon": 0.0, "fusion_lat": 0.0, "lon": -77.03657433333333, "bike_id": "3baf3b4883de6cf446e802da776bfa60", "rental_uris": {"ios": "https://dc.lft.to/lastmile_qr_scan", "android": "https://dc.lft.to/lastmile_qr_scan"}}, {"type": "electric_scooter", "is_reserved": 0, "name": "41b3cb5026044acbbb27e678bf9124cc", "is_disabled": 0, "lat": 38.895307333333335, "fusion_lon": 0.0, "fusion_lat": 0.0, "lon": -76.9489305, "bike_id": "41b3cb5026044acbbb27e678bf9124cc", "rental_uris": {"ios": "https://dc.lft.to/lastmile_qr_scan", "android": "https://dc.lft.to/lastmile_qr_scan"}}, {"type": "electric_scooter", "is_reserved": 0, "name": "664241edc0020db64ca0d46766918b42", "is_disabled": 0, "lat": 38.93861583333333, "fusion_lon": 0.0, "fusion_lat": 0.0, "lon": -77.030963, "bike_id": "664241edc0020db64ca0d46766918b42", "rental_uris": {"ios": "https://dc.lft.to/lastmile_qr_scan", "android": "https://dc.lft.to/lastmile_qr_scan"}}, {"type": "electric_bike", "is_reserved": 0, "name": "95f2baf930d5cce11417a6eca9611815", "is_disabled": 0, "lat": 39.02434916666667, "fusion_lon": 0.0, "fusion_lat": 0.0, "lon": -77.13102533333333, "bike_id": "95f2baf930d5cce11417a6eca9611815", "rental_uris": {"ios": "https://dc.lft.to/lastmile_qr_scan", "android": "https://dc.lft.to/lastmile_qr_scan"}}, {"type": "electric_scooter", "is_reserved": 0, "name": "a1323de23ad1dcd95456dfeba8e351ce", "is_disabled": 0, "lat": 38.892052, "fusion_lon": 0.0, "fusion_lat": 0.0, "lon": -76.98566016666666, "bike_id": "a1323de23ad1dcd95456dfeba8e351ce", "rental_uris": {"ios": "https://dc.lft.to/lastmile_qr_scan", "android": "https://dc.lft.to/lastmile_qr_scan"}}, {"type": "electric_scooter", "is_reserved": 0, "name": "040a74e59d68196473be31f4fb3520f6", "is_disabled": 0, "lat": 38.91387433333333, "fusion_lon": 0.0, "fusion_lat": 0.0, "lon": -77.01704716666667, "bike_id": "040a74e59d68196473be31f4fb3520f6", "rental_uris": {"ios": "https://dc.lft.to/lastmile_qr_scan", "android": "https://dc.lft.to/lastmile_qr_scan"}}, {"type": "electric_bike", "is_reserved": 0, "name": "0bd3080262cbe12e73d756b9ba9853fb", "is_disabled": 0, "lat": 39.03049633333333, "fusion_lon": 0.0, "fusion_lat": 0.0, "lon": -77.094851, "bike_id": "0bd3080262cbe12e73d756b9ba9853fb", "rental_uris": {"ios": "https://dc.lft.to/lastmile_qr_scan", "android": "https://dc.lft.to/lastmile_qr_scan"}}, {"type": "electric_scooter", "is_reserved": 0, "name": "473336e5ccf6fc12e974110a13c7e369", "is_disabled": 0, "lat": 38.91033766666666, "fusion_lon": 0.0, "fusion_lat": 0.0, "lon": -76.99343066666667, "bike_id": "473336e5ccf6fc12e974110a13c7e369", "rental_uris": {"ios": "https://dc.lft.to/lastmile_qr_scan", "android": "https://dc.lft.to/lastmile_qr_scan"}}, {"type": "electric_scooter", "is_reserved": 0, "name": "f3da67c0016861a29fc734b41c271fdf", "is_disabled": 0, "lat": 38.876655666666665, "fusion_lon": 0.0, "fusion_lat": 0.0, "lon": -77.0041135, "bike_id": "f3da67c0016861a29fc734b41c271fdf", "rental_uris": {"ios": "https://dc.lft.to/lastmile_qr_scan", "android": "https://dc.lft.to/lastmile_qr_scan"}}, {"type": "electric_bike", "is_reserved": 0, "name": "ef69c6189741c4f142ada250fb82d252", "is_disabled": 0, "lat": 38.998166166666664, "fusion_lon": 0.0, "fusion_lat": 0.0, "lon": -76.8837045, "bike_id": "ef69c6189741c4f142ada250fb82d252", "rental_uris": {"ios": "https://dc.lft.to/lastmile_qr_scan", "android": "https://dc.lft.to/lastmile_qr_scan"}}, {"type": "electric_scooter", "is_reserved": 0, "name": "c0af6578fc2a399c4f12f1a0559ee215", "is_disabled": 0, "lat": 38.8892735, "fusion_lon": 0.0, "fusion_lat": 0.0, "lon": -76.97373666666667, "bike_id": "c0af6578fc2a399c4f12f1a0559ee215", "rental_uris": {"ios": "https://dc.lft.to/lastmile_qr_scan", "android": "https://dc.lft.to/lastmile_qr_scan"}}, {"type": "electric_scooter", "is_reserved": 0, "name": "6153a2062dabf3f30b3b3e7253640272", "is_disabled": 0, "lat": 38.870824166666665, "fusion_lon": 0.0, "fusion_lat": 0.0, "lon": -76.968655, "bike_id": "6153a2062dabf3f30b3b3e7253640272", "rental_uris": {"ios": "https://dc.lft.to/lastmile_qr_scan", "android": "https://dc.lft.to/lastmile_qr_scan"}}, {"type": "electric_scooter", "is_reserved": 0, "name": "81a13f30145cf9ec0a2e2f41829d69e7", "is_disabled": 0, "lat": 38.901249, "fusion_lon": 0.0, "fusion_lat": 0.0, "lon": -77.0201095, "bike_id": "81a13f30145cf9ec0a2e2f41829d69e7", "rental_uris": {"ios": "https://dc.lft.to/lastmile_qr_scan", "android": "https://dc.lft.to/lastmile_qr_scan"}}, {"type": "electric_scooter", "is_reserved": 0, "name": "3170a23837dbad7bab27ea9b1bc4f40d", "is_disabled": 0, "lat": 38.9441045, "fusion_lon": 0.0, "fusion_lat": 0.0, "lon": -77.0264545, "bike_id": "3170a23837dbad7bab27ea9b1bc4f40d", "rental_uris": {"ios": "https://dc.lft.to/lastmile_qr_scan", "android": "https://dc.lft.to/lastmile_qr_scan"}}, {"type": "electric_scooter", "is_reserved": 0, "name": "42f368c6ab96d3c8d03e73e608af26f6", "is_disabled": 0, "lat": 38.9007165, "fusion_lon": 0.0, "fusion_lat": 0.0, "lon": -77.00200933333333, "bike_id": "42f368c6ab96d3c8d03e73e608af26f6", "rental_uris": {"ios": "https://dc.lft.to/lastmile_qr_scan", "android": "https://dc.lft.to/lastmile_qr_scan"}}, {"type": "electric_scooter", "is_reserved": 0, "name": "fd360f256693cb45333e8c7a1dab9e5d", "is_disabled": 0, "lat": 38.872405666666666, "fusion_lon": 0.0, "fusion_lat": 0.0, "lon": -76.9772215, "bike_id": "fd360f256693cb45333e8c7a1dab9e5d", "rental_uris": {"ios": "https://dc.lft.to/lastmile_qr_scan", "android": "https://dc.lft.to/lastmile_qr_scan"}}, {"type": "electric_scooter", "is_reserved": 0, "name": "0d537507201cb8e4a66b7347174f0653", "is_disabled": 0, "lat": 38.905627, "fusion_lon": 0.0, "fusion_lat": 0.0, "lon": -77.029147, "bike_id": "0d537507201cb8e4a66b7347174f0653", "rental_uris": {"ios": "https://dc.lft.to/lastmile_qr_scan", "android": "https://dc.lft.to/lastmile_qr_scan"}}, {"type": "electric_bike", "is_reserved": 0, "name": "f5ec84dd94a4bb5a351cebb3562b9475", "is_disabled": 0, "lat": 38.855176, "fusion_lon": 0.0, "fusion_lat": 0.0, "lon": -76.98424783333333, "bike_id": "f5ec84dd94a4bb5a351cebb3562b9475", "rental_uris": {"ios": "https://dc.lft.to/lastmile_qr_scan", "android": "https://dc.lft.to/lastmile_qr_scan"}}, {"type": "electric_scooter", "is_reserved": 0, "name": "910bbbd418ecbde801b68935f079449f", "is_disabled": 0, "lat": 38.91703566666666, "fusion_lon": 0.0, "fusion_lat": 0.0, "lon": -77.03354833333333, "bike_id": "910bbbd418ecbde801b68935f079449f", "rental_uris": {"ios": "https://dc.lft.to/lastmile_qr_scan", "android": "https://dc.lft.to/lastmile_qr_scan"}}, {"type": "electric_scooter", "is_reserved": 0, "name": "029d18a8693ac5d967807f048f219b04", "is_disabled": 0, "lat": 38.912729666666664, "fusion_lon": 0.0, "fusion_lat": 0.0, "lon": -77.02226083333333, "bike_id": "029d18a8693ac5d967807f048f219b04", "rental_uris": {"ios": "https://dc.lft.to/lastmile_qr_scan", "android": "https://dc.lft.to/lastmile_qr_scan"}}, {"type": "electric_scooter", "is_reserved": 0, "name": "4b04cbf666f3a43123b6e6ccab24c4af", "is_disabled": 0, "lat": 38.90264166666667, "fusion_lon": 0.0, "fusion_lat": 0.0, "lon": -77.03068716666667, "bike_id": "4b04cbf666f3a43123b6e6ccab24c4af", "rental_uris": {"ios": "https://dc.lft.to/lastmile_qr_scan", "android": "https://dc.lft.to/lastmile_qr_scan"}}, {"type": "electric_scooter", "is_reserved": 0, "name": "ffd4d086557b56fe211d1184580e14c3", "is_disabled": 0, "lat": 38.902497, "fusion_lon": 0.0, "fusion_lat": 0.0, "lon": -77.04278766666667, "bike_id": "ffd4d086557b56fe211d1184580e14c3", "rental_uris": {"ios": "https://dc.lft.to/lastmile_qr_scan", "android": "https://dc.lft.to/lastmile_qr_scan"}}, {"type": "electric_scooter", "is_reserved": 0, "name": "a6c252d4384186cf97011aabd7a74412", "is_disabled": 0, "lat": 38.90853583333333, "fusion_lon": 0.0, "fusion_lat": 0.0, "lon": -77.04775133333334, "bike_id": "a6c252d4384186cf97011aabd7a74412", "rental_uris": {"ios": "https://dc.lft.to/lastmile_qr_scan", "android": "https://dc.lft.to/lastmile_qr_scan"}}, {"type": "electric_scooter", "is_reserved": 0, "name": "62ebf54dae29aea30b73b6793e81f716", "is_disabled": 0, "lat": 38.92354733333333, "fusion_lon": 0.0, "fusion_lat": 0.0, "lon": -77.0502025, "bike_id": "62ebf54dae29aea30b73b6793e81f716", "rental_uris": {"ios": "https://dc.lft.to/lastmile_qr_scan", "android": "https://dc.lft.to/lastmile_qr_scan"}}, {"type": "electric_scooter", "is_reserved": 0, "name": "652b1481ec1f7a8a7a2993a861d6bf6f", "is_disabled": 0, "lat": 38.91812816666667, "fusion_lon": 0.0, "fusion_lat": 0.0, "lon": -77.03666, "bike_id": "652b1481ec1f7a8a7a2993a861d6bf6f", "rental_uris": {"ios": "https://dc.lft.to/lastmile_qr_scan", "android": "https://dc.lft.to/lastmile_qr_scan"}}, {"type": "electric_scooter", "is_reserved": 0, "name": "29508f3964fbcafa187a2f405c5cf7aa", "is_disabled": 0, "lat": 38.866188333333334, "fusion_lon": 0.0, "fusion_lat": 0.0, "lon": -76.986651, "bike_id": "29508f3964fbcafa187a2f405c5cf7aa", "rental_uris": {"ios": "https://dc.lft.to/lastmile_qr_scan", "android": "https://dc.lft.to/lastmile_qr_scan"}}, {"type": "electric_scooter", "is_reserved": 0, "name": "d5c4a97a11425a20c199a4cac8fa5591", "is_disabled": 0, "lat": 38.925504833333335, "fusion_lon": 0.0, "fusion_lat": 0.0, "lon": -77.05266366666666, "bike_id": "d5c4a97a11425a20c199a4cac8fa5591", "rental_uris": {"ios": "https://dc.lft.to/lastmile_qr_scan", "android": "https://dc.lft.to/lastmile_qr_scan"}}, {"type": "electric_scooter", "is_reserved": 0, "name": "c7c78371df0b6e8f68fd8873d4cd1b2a", "is_disabled": 0, "lat": 38.902862999999996, "fusion_lon": 0.0, "fusion_lat": 0.0, "lon": -77.04035166666667, "bike_id": "c7c78371df0b6e8f68fd8873d4cd1b2a", "rental_uris": {"ios": "https://dc.lft.to/lastmile_qr_scan", "android": "https://dc.lft.to/lastmile_qr_scan"}}, {"type": "electric_scooter", "is_reserved": 0, "name": "bf70a40ab12101875ac90833d82a380d", "is_disabled": 0, "lat": 38.92364333333333, "fusion_lon": 0.0, "fusion_lat": 0.0, "lon": -77.05051216666666, "bike_id": "bf70a40ab12101875ac90833d82a380d", "rental_uris": {"ios": "https://dc.lft.to/lastmile_qr_scan", "android": "https://dc.lft.to/lastmile_qr_scan"}}, {"type": "electric_scooter", "is_reserved": 0, "name": "91709b8b5afa3925e674e72dd935f3d0", "is_disabled": 0, "lat": 38.90299016666667, "fusion_lon": 0.0, "fusion_lat": 0.0, "lon": -77.04169666666667, "bike_id": "91709b8b5afa3925e674e72dd935f3d0", "rental_uris": {"ios": "https://dc.lft.to/lastmile_qr_scan", "android": "https://dc.lft.to/lastmile_qr_scan"}}, {"type": "electric_scooter", "is_reserved": 0, "name": "53828dcf58685c445a7127bdda97eaca", "is_disabled": 0, "lat": 38.936119833333336, "fusion_lon": 0.0, "fusion_lat": 0.0, "lon": -77.05859433333333, "bike_id": "53828dcf58685c445a7127bdda97eaca", "rental_uris": {"ios": "https://dc.lft.to/lastmile_qr_scan", "android": "https://dc.lft.to/lastmile_qr_scan"}}, {"type": "electric_scooter", "is_reserved": 0, "name": "6812331a8009d80f5a249b4c37777ac9", "is_disabled": 0, "lat": 38.902445166666666, "fusion_lon": 0.0, "fusion_lat": 0.0, "lon": -77.0626435, "bike_id": "6812331a8009d80f5a249b4c37777ac9", "rental_uris": {"ios": "https://dc.lft.to/lastmile_qr_scan", "android": "https://dc.lft.to/lastmile_qr_scan"}}, {"type": "electric_bike", "is_reserved": 0, "name": "47e331e4684a511065e1870439e2bd09", "is_disabled": 0, "lat": 38.87088, "fusion_lon": 0.0, "fusion_lat": 0.0, "lon": -77.01209783333333, "bike_id": "47e331e4684a511065e1870439e2bd09", "rental_uris": {"ios": "https://dc.lft.to/lastmile_qr_scan", "android": "https://dc.lft.to/lastmile_qr_scan"}}, {"type": "electric_scooter", "is_reserved": 0, "name": "4491ce51e5ca2af83603ba0bdfd8d610", "is_disabled": 0, "lat": 38.91614083333333, "fusion_lon": 0.0, "fusion_lat": 0.0, "lon": -77.0173135, "bike_id": "4491ce51e5ca2af83603ba0bdfd8d610", "rental_uris": {"ios": "https://dc.lft.to/lastmile_qr_scan", "android": "https://dc.lft.to/lastmile_qr_scan"}}, {"type": "electric_scooter", "is_reserved": 0, "name": "e24166f6f8fd2e949b9acc9d818604a7", "is_disabled": 0, "lat": 38.907864333333336, "fusion_lon": 0.0, "fusion_lat": 0.0, "lon": -77.032116, "bike_id": "e24166f6f8fd2e949b9acc9d818604a7", "rental_uris": {"ios": "https://dc.lft.to/lastmile_qr_scan", "android": "https://dc.lft.to/lastmile_qr_scan"}}, {"type": "electric_bike", "is_reserved": 0, "name": "3b5a3082bf89169436d10b3ce940dbc2", "is_disabled": 0, "lat": 38.95079666666667, "fusion_lon": 0.0, "fusion_lat": 0.0, "lon": -77.01201483333334, "bike_id": "3b5a3082bf89169436d10b3ce940dbc2", "rental_uris": {"ios": "https://dc.lft.to/lastmile_qr_scan", "android": "https://dc.lft.to/lastmile_qr_scan"}}, {"type": "electric_bike", "is_reserved": 0, "name": "eca2862023e91c51cd6cb46a93f533df", "is_disabled": 0, "lat": 38.8827315, "fusion_lon": 0.0, "fusion_lat": 0.0, "lon": -76.93253433333334, "bike_id": "eca2862023e91c51cd6cb46a93f533df", "rental_uris": {"ios": "https://dc.lft.to/lastmile_qr_scan", "android": "https://dc.lft.to/lastmile_qr_scan"}}, {"type": "electric_scooter", "is_reserved": 0, "name": "305451011fe8ef6e29c109021bc7a591", "is_disabled": 0, "lat": 38.9062195, "fusion_lon": 0.0, "fusion_lat": 0.0, "lon": -77.02179083333333, "bike_id": "305451011fe8ef6e29c109021bc7a591", "rental_uris": {"ios": "https://dc.lft.to/lastmile_qr_scan", "android": "https://dc.lft.to/lastmile_qr_scan"}}, {"type": "electric_scooter", "is_reserved": 0, "name": "e79428113d1fbb4750666ec094dedc2a", "is_disabled": 0, "lat": 38.90229566666667, "fusion_lon": 0.0, "fusion_lat": 0.0, "lon": -77.06026383333334, "bike_id": "e79428113d1fbb4750666ec094dedc2a", "rental_uris": {"ios": "https://dc.lft.to/lastmile_qr_scan", "android": "https://dc.lft.to/lastmile_qr_scan"}}, {"type": "electric_scooter", "is_reserved": 0, "name": "a8b12230140354f4dec53a8e5a129fce", "is_disabled": 0, "lat": 38.901359, "fusion_lon": 0.0, "fusion_lat": 0.0, "lon": -77.00304883333334, "bike_id": "a8b12230140354f4dec53a8e5a129fce", "rental_uris": {"ios": "https://dc.lft.to/lastmile_qr_scan", "android": "https://dc.lft.to/lastmile_qr_scan"}}, {"type": "electric_scooter", "is_reserved": 0, "name": "2efd3f7e739a8ed6afcd1579dc29840c", "is_disabled": 0, "lat": 38.935790833333336, "fusion_lon": 0.0, "fusion_lat": 0.0, "lon": -77.03753416666666, "bike_id": "2efd3f7e739a8ed6afcd1579dc29840c", "rental_uris": {"ios": "https://dc.lft.to/lastmile_qr_scan", "android": "https://dc.lft.to/lastmile_qr_scan"}}, {"type": "electric_scooter", "is_reserved": 0, "name": "a8a889dfcf62d600ef37abd6bdee30f0", "is_disabled": 0, "lat": 38.91201, "fusion_lon": 0.0, "fusion_lat": 0.0, "lon": -77.031809, "bike_id": "a8a889dfcf62d600ef37abd6bdee30f0", "rental_uris": {"ios": "https://dc.lft.to/lastmile_qr_scan", "android": "https://dc.lft.to/lastmile_qr_scan"}}, {"type": "electric_bike", "is_reserved": 0, "name": "2ed552eec3afdb1acaf95c31055039eb", "is_disabled": 0, "lat": 38.86999316666667, "fusion_lon": 0.0, "fusion_lat": 0.0, "lon": -77.065698, "bike_id": "2ed552eec3afdb1acaf95c31055039eb", "rental_uris": {"ios": "https://dc.lft.to/lastmile_qr_scan", "android": "https://dc.lft.to/lastmile_qr_scan"}}, {"type": "electric_scooter", "is_reserved": 0, "name": "3f88d1577b1cc2937b466f48dca84383", "is_disabled": 0, "lat": 38.9015585, "fusion_lon": 0.0, "fusion_lat": 0.0, "lon": -77.04352683333333, "bike_id": "3f88d1577b1cc2937b466f48dca84383", "rental_uris": {"ios": "https://dc.lft.to/lastmile_qr_scan", "android": "https://dc.lft.to/lastmile_qr_scan"}}, {"type": "electric_scooter", "is_reserved": 0, "name": "00369dbab98a00324cc918b32ffff7a3", "is_disabled": 0, "lat": 38.914304, "fusion_lon": 0.0, "fusion_lat": 0.0, "lon": -77.03181616666667, "bike_id": "00369dbab98a00324cc918b32ffff7a3", "rental_uris": {"ios": "https://dc.lft.to/lastmile_qr_scan", "android": "https://dc.lft.to/lastmile_qr_scan"}}, {"type": "electric_scooter", "is_reserved": 0, "name": "4ac8350d4b6f694d0dd8e519964010d9", "is_disabled": 0, "lat": 38.917826166666664, "fusion_lon": 0.0, "fusion_lat": 0.0, "lon": -77.03639133333333, "bike_id": "4ac8350d4b6f694d0dd8e519964010d9", "rental_uris": {"ios": "https://dc.lft.to/lastmile_qr_scan", "android": "https://dc.lft.to/lastmile_qr_scan"}}, {"type": "electric_scooter", "is_reserved": 0, "name": "d970a2bdee241889b88620135e58638f", "is_disabled": 0, "lat": 38.903868333333335, "fusion_lon": 0.0, "fusion_lat": 0.0, "lon": -77.04278933333333, "bike_id": "d970a2bdee241889b88620135e58638f", "rental_uris": {"ios": "https://dc.lft.to/lastmile_qr_scan", "android": "https://dc.lft.to/lastmile_qr_scan"}}, {"type": "electric_scooter", "is_reserved": 0, "name": "09554c25f5ea8605a0c5714837c8e622", "is_disabled": 0, "lat": 38.884055833333335, "fusion_lon": 0.0, "fusion_lat": 0.0, "lon": -77.01539583333333, "bike_id": "09554c25f5ea8605a0c5714837c8e622", "rental_uris": {"ios": "https://dc.lft.to/lastmile_qr_scan", "android": "https://dc.lft.to/lastmile_qr_scan"}}, {"type": "electric_scooter", "is_reserved": 0, "name": "23e426b95d1b170e8d4ceec49be915c8", "is_disabled": 0, "lat": 38.925887, "fusion_lon": 0.0, "fusion_lat": 0.0, "lon": -77.00461066666666, "bike_id": "23e426b95d1b170e8d4ceec49be915c8", "rental_uris": {"ios": "https://dc.lft.to/lastmile_qr_scan", "android": "https://dc.lft.to/lastmile_qr_scan"}}, {"type": "electric_scooter", "is_reserved": 0, "name": "5f45d41f149b4fba5ac10f44988642af", "is_disabled": 0, "lat": 38.86257416666667, "fusion_lon": 0.0, "fusion_lat": 0.0, "lon": -76.9951735, "bike_id": "5f45d41f149b4fba5ac10f44988642af", "rental_uris": {"ios": "https://dc.lft.to/lastmile_qr_scan", "android": "https://dc.lft.to/lastmile_qr_scan"}}, {"type": "electric_scooter", "is_reserved": 0, "name": "58b0680e0e071baea2b4cebab7c49563", "is_disabled": 0, "lat": 38.921061, "fusion_lon": 0.0, "fusion_lat": 0.0, "lon": -77.04376, "bike_id": "58b0680e0e071baea2b4cebab7c49563", "rental_uris": {"ios": "https://dc.lft.to/lastmile_qr_scan", "android": "https://dc.lft.to/lastmile_qr_scan"}}, {"type": "electric_scooter", "is_reserved": 0, "name": "1fac7a72545188b128441543b201a4da", "is_disabled": 0, "lat": 38.888792333333335, "fusion_lon": 0.0, "fusion_lat": 0.0, "lon": -77.01277816666666, "bike_id": "1fac7a72545188b128441543b201a4da", "rental_uris": {"ios": "https://dc.lft.to/lastmile_qr_scan", "android": "https://dc.lft.to/lastmile_qr_scan"}}, {"type": "electric_scooter", "is_reserved": 0, "name": "2d81480a5098e7eb1a7533ddbe46e4a2", "is_disabled": 0, "lat": 38.9126055, "fusion_lon": 0.0, "fusion_lat": 0.0, "lon": -77.02530533333334, "bike_id": "2d81480a5098e7eb1a7533ddbe46e4a2", "rental_uris": {"ios": "https://dc.lft.to/lastmile_qr_scan", "android": "https://dc.lft.to/lastmile_qr_scan"}}, {"type": "electric_scooter", "is_reserved": 0, "name": "347de74bba6391e431bd60e11e4b8414", "is_disabled": 0, "lat": 38.909193, "fusion_lon": 0.0, "fusion_lat": 0.0, "lon": -77.04411033333334, "bike_id": "347de74bba6391e431bd60e11e4b8414", "rental_uris": {"ios": "https://dc.lft.to/lastmile_qr_scan", "android": "https://dc.lft.to/lastmile_qr_scan"}}, {"type": "electric_scooter", "is_reserved": 0, "name": "f2e787ae0a24020564bc7a1c120612e4", "is_disabled": 0, "lat": 38.904799833333335, "fusion_lon": 0.0, "fusion_lat": 0.0, "lon": -77.00214883333334, "bike_id": "f2e787ae0a24020564bc7a1c120612e4", "rental_uris": {"ios": "https://dc.lft.to/lastmile_qr_scan", "android": "https://dc.lft.to/lastmile_qr_scan"}}, {"type": "electric_scooter", "is_reserved": 0, "name": "3f85746a871f7efaea73218e93e136d7", "is_disabled": 0, "lat": 38.929636333333335, "fusion_lon": 0.0, "fusion_lat": 0.0, "lon": -77.02784616666666, "bike_id": "3f85746a871f7efaea73218e93e136d7", "rental_uris": {"ios": "https://dc.lft.to/lastmile_qr_scan", "android": "https://dc.lft.to/lastmile_qr_scan"}}, {"type": "electric_scooter", "is_reserved": 0, "name": "fae980bb39964982c6bc4f49ed1655a5", "is_disabled": 0, "lat": 38.924439166666666, "fusion_lon": 0.0, "fusion_lat": 0.0, "lon": -77.04029533333333, "bike_id": "fae980bb39964982c6bc4f49ed1655a5", "rental_uris": {"ios": "https://dc.lft.to/lastmile_qr_scan", "android": "https://dc.lft.to/lastmile_qr_scan"}}, {"type": "electric_bike", "is_reserved": 0, "name": "bc2f58425d79820ef4e8462ee881c629", "is_disabled": 0, "lat": 38.94922733333333, "fusion_lon": 0.0, "fusion_lat": 0.0, "lon": -77.00797466666667, "bike_id": "bc2f58425d79820ef4e8462ee881c629", "rental_uris": {"ios": "https://dc.lft.to/lastmile_qr_scan", "android": "https://dc.lft.to/lastmile_qr_scan"}}, {"type": "electric_scooter", "is_reserved": 0, "name": "9c9e429682500cff0473ee3de944ebe8", "is_disabled": 0, "lat": 38.92406483333333, "fusion_lon": 0.0, "fusion_lat": 0.0, "lon": -77.02746316666666, "bike_id": "9c9e429682500cff0473ee3de944ebe8", "rental_uris": {"ios": "https://dc.lft.to/lastmile_qr_scan", "android": "https://dc.lft.to/lastmile_qr_scan"}}, {"type": "electric_bike", "is_reserved": 0, "name": "7372409708789f7991ff49f38cd1909a", "is_disabled": 0, "lat": 38.883012, "fusion_lon": 0.0, "fusion_lat": 0.0, "lon": -77.1008995, "bike_id": "7372409708789f7991ff49f38cd1909a", "rental_uris": {"ios": "https://dc.lft.to/lastmile_qr_scan", "android": "https://dc.lft.to/lastmile_qr_scan"}}, {"type": "electric_scooter", "is_reserved": 0, "name": "5d9e7bbac48d4247d42cf5fc81918b93", "is_disabled": 0, "lat": 38.907320666666664, "fusion_lon": 0.0, "fusion_lat": 0.0, "lon": -77.03339766666667, "bike_id": "5d9e7bbac48d4247d42cf5fc81918b93", "rental_uris": {"ios": "https://dc.lft.to/lastmile_qr_scan", "android": "https://dc.lft.to/lastmile_qr_scan"}}, {"type": "electric_scooter", "is_reserved": 0, "name": "f29d17955a601f7c88354981db5645fc", "is_disabled": 0, "lat": 38.9289945, "fusion_lon": 0.0, "fusion_lat": 0.0, "lon": -77.0166265, "bike_id": "f29d17955a601f7c88354981db5645fc", "rental_uris": {"ios": "https://dc.lft.to/lastmile_qr_scan", "android": "https://dc.lft.to/lastmile_qr_scan"}}, {"type": "electric_bike", "is_reserved": 0, "name": "54e4cf7848401025485b9ac7be147514", "is_disabled": 0, "lat": 38.90035783333333, "fusion_lon": 0.0, "fusion_lat": 0.0, "lon": -76.9717965, "bike_id": "54e4cf7848401025485b9ac7be147514", "rental_uris": {"ios": "https://dc.lft.to/lastmile_qr_scan", "android": "https://dc.lft.to/lastmile_qr_scan"}}, {"type": "electric_scooter", "is_reserved": 0, "name": "39fc53641dff2724d8634014a4a6ed87", "is_disabled": 0, "lat": 38.90431433333333, "fusion_lon": 0.0, "fusion_lat": 0.0, "lon": -77.0021405, "bike_id": "39fc53641dff2724d8634014a4a6ed87", "rental_uris": {"ios": "https://dc.lft.to/lastmile_qr_scan", "android": "https://dc.lft.to/lastmile_qr_scan"}}, {"type": "electric_scooter", "is_reserved": 0, "name": "f0921269f3a2cc1ed226d9d52bebcbc8", "is_disabled": 0, "lat": 38.900011666666664, "fusion_lon": 0.0, "fusion_lat": 0.0, "lon": -76.99845416666666, "bike_id": "f0921269f3a2cc1ed226d9d52bebcbc8", "rental_uris": {"ios": "https://dc.lft.to/lastmile_qr_scan", "android": "https://dc.lft.to/lastmile_qr_scan"}}, {"type": "electric_scooter", "is_reserved": 0, "name": "196a1617ea3ec7decd3d26752c46bb01", "is_disabled": 0, "lat": 38.898988, "fusion_lon": 0.0, "fusion_lat": 0.0, "lon": -77.039511, "bike_id": "196a1617ea3ec7decd3d26752c46bb01", "rental_uris": {"ios": "https://dc.lft.to/lastmile_qr_scan", "android": "https://dc.lft.to/lastmile_qr_scan"}}, {"type": "electric_scooter", "is_reserved": 0, "name": "c2d9b332ab623461f00e6d3f2d41bd19", "is_disabled": 0, "lat": 38.93258433333333, "fusion_lon": 0.0, "fusion_lat": 0.0, "lon": -77.032782, "bike_id": "c2d9b332ab623461f00e6d3f2d41bd19", "rental_uris": {"ios": "https://dc.lft.to/lastmile_qr_scan", "android": "https://dc.lft.to/lastmile_qr_scan"}}, {"type": "electric_bike", "is_reserved": 0, "name": "3862bf6b8244e25dd40004e7e80130e0", "is_disabled": 0, "lat": 38.96206516666667, "fusion_lon": 0.0, "fusion_lat": 0.0, "lon": -77.035142, "bike_id": "3862bf6b8244e25dd40004e7e80130e0", "rental_uris": {"ios": "https://dc.lft.to/lastmile_qr_scan", "android": "https://dc.lft.to/lastmile_qr_scan"}}, {"type": "electric_bike", "is_reserved": 0, "name": "fe49e5d191c31f962bf39441bcb82a2d", "is_disabled": 0, "lat": 38.813502, "fusion_lon": 0.0, "fusion_lat": 0.0, "lon": -77.049228, "bike_id": "fe49e5d191c31f962bf39441bcb82a2d", "rental_uris": {"ios": "https://dc.lft.to/lastmile_qr_scan", "android": "https://dc.lft.to/lastmile_qr_scan"}}, {"type": "electric_scooter", "is_reserved": 0, "name": "0d5ae42f530e6f4aa0fecfe9fe5087f3", "is_disabled": 0, "lat": 38.8989875, "fusion_lon": 0.0, "fusion_lat": 0.0, "lon": -77.04052966666667, "bike_id": "0d5ae42f530e6f4aa0fecfe9fe5087f3", "rental_uris": {"ios": "https://dc.lft.to/lastmile_qr_scan", "android": "https://dc.lft.to/lastmile_qr_scan"}}, {"type": "electric_scooter", "is_reserved": 0, "name": "c7991de187666a95dfbc45587d4a0374", "is_disabled": 0, "lat": 38.904706166666664, "fusion_lon": 0.0, "fusion_lat": 0.0, "lon": -77.03209433333333, "bike_id": "c7991de187666a95dfbc45587d4a0374", "rental_uris": {"ios": "https://dc.lft.to/lastmile_qr_scan", "android": "https://dc.lft.to/lastmile_qr_scan"}}, {"type": "electric_scooter", "is_reserved": 0, "name": "72d3f0a9e12d4ed0680f172650dde401", "is_disabled": 0, "lat": 38.90419116666666, "fusion_lon": 0.0, "fusion_lat": 0.0, "lon": -77.05052966666666, "bike_id": "72d3f0a9e12d4ed0680f172650dde401", "rental_uris": {"ios": "https://dc.lft.to/lastmile_qr_scan", "android": "https://dc.lft.to/lastmile_qr_scan"}}, {"type": "electric_scooter", "is_reserved": 0, "name": "88e6ff2f7740ae3fd16ef4dc23d4740c", "is_disabled": 0, "lat": 38.90034, "fusion_lon": 0.0, "fusion_lat": 0.0, "lon": -76.99031883333333, "bike_id": "88e6ff2f7740ae3fd16ef4dc23d4740c", "rental_uris": {"ios": "https://dc.lft.to/lastmile_qr_scan", "android": "https://dc.lft.to/lastmile_qr_scan"}}, {"type": "electric_scooter", "is_reserved": 0, "name": "9f827baf3bb00d71f5318c34444e166b", "is_disabled": 0, "lat": 38.886166833333334, "fusion_lon": 0.0, "fusion_lat": 0.0, "lon": -77.018991, "bike_id": "9f827baf3bb00d71f5318c34444e166b", "rental_uris": {"ios": "https://dc.lft.to/lastmile_qr_scan", "android": "https://dc.lft.to/lastmile_qr_scan"}}, {"type": "electric_scooter", "is_reserved": 0, "name": "4fd95e22fe1de940918210d84a8012db", "is_disabled": 0, "lat": 38.89646833333333, "fusion_lon": 0.0, "fusion_lat": 0.0, "lon": -77.03333883333333, "bike_id": "4fd95e22fe1de940918210d84a8012db", "rental_uris": {"ios": "https://dc.lft.to/lastmile_qr_scan", "android": "https://dc.lft.to/lastmile_qr_scan"}}, {"type": "electric_bike", "is_reserved": 0, "name": "d18de8a1dc4cfe7fc996568434c1cdf9", "is_disabled": 0, "lat": 38.88679416666667, "fusion_lon": 0.0, "fusion_lat": 0.0, "lon": -77.16239916666666, "bike_id": "d18de8a1dc4cfe7fc996568434c1cdf9", "rental_uris": {"ios": "https://dc.lft.to/lastmile_qr_scan", "android": "https://dc.lft.to/lastmile_qr_scan"}}, {"type": "electric_scooter", "is_reserved": 0, "name": "3f87163145265aaa2ba1e9c0537db6e3", "is_disabled": 0, "lat": 38.91693716666666, "fusion_lon": 0.0, "fusion_lat": 0.0, "lon": -76.97950533333334, "bike_id": "3f87163145265aaa2ba1e9c0537db6e3", "rental_uris": {"ios": "https://dc.lft.to/lastmile_qr_scan", "android": "https://dc.lft.to/lastmile_qr_scan"}}, {"type": "electric_scooter", "is_reserved": 0, "name": "d01bf521224e747f2fa493e604b1405f", "is_disabled": 0, "lat": 38.908269, "fusion_lon": 0.0, "fusion_lat": 0.0, "lon": -77.02009416666667, "bike_id": "d01bf521224e747f2fa493e604b1405f", "rental_uris": {"ios": "https://dc.lft.to/lastmile_qr_scan", "android": "https://dc.lft.to/lastmile_qr_scan"}}, {"type": "electric_bike", "is_reserved": 0, "name": "06149c54433a8837d8174478c65bfff9", "is_disabled": 0, "lat": 38.88548083333333, "fusion_lon": 0.0, "fusion_lat": 0.0, "lon": -77.11785433333333, "bike_id": "06149c54433a8837d8174478c65bfff9", "rental_uris": {"ios": "https://dc.lft.to/lastmile_qr_scan", "android": "https://dc.lft.to/lastmile_qr_scan"}}, {"type": "electric_scooter", "is_reserved": 0, "name": "b33a9e217d5d3c023bc574ea371f16d8", "is_disabled": 0, "lat": 38.90729666666667, "fusion_lon": 0.0, "fusion_lat": 0.0, "lon": -77.02414883333333, "bike_id": "b33a9e217d5d3c023bc574ea371f16d8", "rental_uris": {"ios": "https://dc.lft.to/lastmile_qr_scan", "android": "https://dc.lft.to/lastmile_qr_scan"}},