{"data": {"bikes": [{"is_reserved": 0, "fusion_lon": 0.0, "fusion_lat": 0.0, "name": "9df4e54d9f9e58446866ed0e04e1dc1d", "type": "electric_scooter", "is_disabled": 0, "lat": 38.924224333333335, "rental_uris": {"android": "https://dc.lft.to/lastmile_qr_scan", "ios": "https://dc.lft.to/lastmile_qr_scan"}, "bike_id": "9df4e54d9f9e58446866ed0e04e1dc1d", "lon": -77.020142}, {"is_reserved": 0, "fusion_lon": 0.0, "fusion_lat": 0.0, "name": "9c854db393937737a505c2dd0d4b8e2a", "type": "electric_scooter", "is_disabled": 0, "lat": 38.901584666666665, "rental_uris": {"android": "https://dc.lft.to/lastmile_qr_scan", "ios": "https://dc.lft.to/lastmile_qr_scan"}, "bike_id": "9c854db393937737a505c2dd0d4b8e2a", "lon": -76.99026233333333}, {"is_reserved": 0, "fusion_lon": 0.0, "fusion_lat": 0.0, "name": "cea928d3f633c16396cc556ed427a8e2", "type": "electric_scooter", "is_disabled": 0, "lat": 38.87201533333333, "rental_uris": {"android": "https://dc.lft.to/lastmile_qr_scan", "ios": "https://dc.lft.to/lastmile_qr_scan"}, "bike_id": "cea928d3f633c16396cc556ed427a8e2", "lon": -77.00569933333334}, {"is_reserved": 0, "fusion_lon": 0.0, "fusion_lat": 0.0, "name": "ca055263292fdfc55bcb8b78a9991da5", "type": "electric_scooter", "is_disabled": 0, "lat": 38.92905, "rental_uris": {"android": "https://dc.lft.to/lastmile_qr_scan", "ios": "https://dc.lft.to/lastmile_qr_scan"}, "bike_id": "ca055263292fdfc55bcb8b78a9991da5", "lon": -77.01672333333333}, {"is_reserved": 0, "fusion_lon": 0.0, "fusion_lat": 0.0, "name": "4c0c3fcb326b05bb03f74de235e0ce4b", "type": "electric_bike", "is_disabled": 0, "lat": 38.869432833333335, "rental_uris": {"android": "https://dc.lft.to/lastmile_qr_scan", "ios": "https://dc.lft.to/lastmile_qr_scan"}, "bike_id": "4c0c3fcb326b05bb03f74de235e0ce4b", "lon": -77.09464816666667}, {"is_reserved": 0, "fusion_lon": 0.0, "fusion_lat": 0.0, "name": "d2b95178ff744995c88c7270f7427dbf", "type": "electric_scooter", "is_disabled": 0, "lat": 38.906052333333335, "rental_uris": {"android": "https://dc.lft.to/lastmile_qr_scan", "ios": "https://dc.lft.to/lastmile_qr_scan"}, "bike_id": "d2b95178ff744995c88c7270f7427dbf", "lon": -77.0630375}, {"is_reserved": 0, "fusion_lon": 0.0, "fusion_lat": 0.0, "name": "8b76061bfa5f7b1d4439911eda8e6b29", "type": "electric_bike", "is_disabled": 0, "lat": 38.8840745, "rental_uris": {"android": "https://dc.lft.to/lastmile_qr_scan", "ios": "https://dc.lft.to/lastmile_qr_scan"}, "bike_id": "8b76061bfa5f7b1d4439911eda8e6b29", "lon": -76.9605865}, {"is_reserved": 0, "fusion_lon": 0.0, "fusion_lat": 0.0, "name": "66ecf7eb42a6ddbec4ff843e681b4618", "type": "electric_scooter", "is_disabled": 0, "lat": 38.91462633333333, "rental_uris": {"android": "https://dc.lft.to/lastmile_qr_scan", "ios": "https://dc.lft.to/lastmile_qr_scan"}, "bike_id": "66ecf7eb42a6ddbec4ff843e681b4618", "lon": -77.0455925}, {"is_reserved": 0, "fusion_lon": 0.0, "fusion_lat": 0.0, "name": "05985b8bd38971b269ef27ce2e66c2f4", "type": "electric_scooter", "is_disabled": 0, "lat": 38.892256, "rental_uris": {"android": "https://dc.lft.to/lastmile_qr_scan", "ios": "https://dc.lft.to/lastmile_qr_scan"}, "bike_id": "05985b8bd38971b269ef27ce2e66c2f4", "lon": -77.0234335}, {"is_reserved": 0, "fusion_lon": 0.0, "fusion_lat": 0.0, "name": "e942900736fcd626f2e6386d01a1cdca", "type": "electric_scooter", "is_disabled": 0, "lat": 38.89021183333333, "rental_uris": {"android": "https://dc.lft.to/lastmile_qr_scan", "ios": "https://dc.lft.to/lastmile_qr_scan"}, "bike_id": "e942900736fcd626f2e6386d01a1cdca", "lon": -76.93697216666666}, {"is_reserved": 0, "fusion_lon": 0.0, "fusion_lat": 0.0, "name": "14442ff46131756371d6b6201d54ffbf", "type": "electric_scooter", "is_disabled": 0, "lat": 38.8931635, "rental_uris": {"android": "https://dc.lft.to/lastmile_qr_scan", "ios": "https://dc.lft.to/lastmile_qr_scan"}, "bike_id": "14442ff46131756371d6b6201d54ffbf", "lon": -77.05004716666667}, {"is_reserved": 0, "fusion_lon": 0.0, "fusion_lat": 0.0, "name": "b315b674de808baf3f346915699f1e82", "type": "electric_scooter", "is_disabled": 0, "lat": 38.90238466666667, "rental_uris": {"android": "https://dc.lft.to/lastmile_qr_scan", "ios": "https://dc.lft.to/lastmile_qr_scan"}, "bike_id": "b315b674de808baf3f346915699f1e82", "lon": -77.0440125}, {"is_reserved": 0, "fusion_lon": 0.0, "fusion_lat": 0.0, "name": "4609f791307df3e386074212ee014dca", "type": "electric_scooter", "is_disabled": 0, "lat": 38.902612500000004, "rental_uris": {"android": "https://dc.lft.to/lastmile_qr_scan", "ios": "https://dc.lft.to/lastmile_qr_scan"}, "bike_id": "4609f791307df3e386074212ee014dca", "lon": -77.03040083333333}, {"is_reserved": 0, "fusion_lon": 0.0, "fusion_lat": 0.0, "name": "17e7bbd9d498aef646fb5ab0d9390fad", "type": "electric_scooter", "is_disabled": 0, "lat": 38.906826, "rental_uris": {"android": "https://dc.lft.to/lastmile_qr_scan", "ios": "https://dc.lft.to/lastmile_qr_scan"}, "bike_id": "17e7bbd9d498aef646fb5ab0d9390fad", "lon": -77.03764716666667}, {"is_reserved": 0, "fusion_lon": 0.0, "fusion_lat": 0.0, "name": "27301bfd5503b92303c7bf8c555af071", "type": "electric_scooter", "is_disabled": 0, "lat": 38.87940183333333, "rental_uris": {"android": "https://dc.lft.to/lastmile_qr_scan", "ios": "https://dc.lft.to/lastmile_qr_scan"}, "bike_id": "27301bfd5503b92303c7bf8c555af071", "lon": -77.0040685}, {"is_reserved": 0, "fusion_lon": 0.0, "fusion_lat": 0.0, "name": "f53126667a49f36223e027386ce9e09f", "type": "electric_scooter", "is_disabled": 0, "lat": 38.936599666666666, "rental_uris": {"android": "https://dc.lft.to/lastmile_qr_scan", "ios": "https://dc.lft.to/lastmile_qr_scan"}, "bike_id": "f53126667a49f36223e027386ce9e09f", "lon": -77.026352}, {"is_reserved": 0, "fusion_lon": 0.0, "fusion_lat": 0.0, "name": "96af3c20345207aaea375940a54ec7e3", "type": "electric_scooter", "is_disabled": 0, "lat": 38.91639083333333, "rental_uris": {"android": "https://dc.lft.to/lastmile_qr_scan", "ios": "https://dc.lft.to/lastmile_qr_scan"}, "bike_id": "96af3c20345207aaea375940a54ec7e3", "lon": -77.01088566666667}, {"is_reserved": 0, "fusion_lon": 0.0, "fusion_lat": 0.0, "name": "0eb70a8aaab9c846b7357e85bd9365b2", "type": "electric_scooter", "is_disabled": 0, "lat": 38.902867, "rental_uris": {"android": "https://dc.lft.to/lastmile_qr_scan", "ios": "https://dc.lft.to/lastmile_qr_scan"}, "bike_id": "0eb70a8aaab9c846b7357e85bd9365b2", "lon": -77.03343016666666}, {"is_reserved": 0, "fusion_lon": 0.0, "fusion_lat": 0.0, "name": "77b61c3dc092c57e588f3b4166879d7d", "type": "electric_scooter", "is_disabled": 0, "lat": 38.9073015, "rental_uris": {"android": "https://dc.lft.to/lastmile_qr_scan", "ios": "https://dc.lft.to/lastmile_qr_scan"}, "bike_id": "77b61c3dc092c57e588f3b4166879d7d", "lon": -77.0163615}, {"is_reserved": 0, "fusion_lon": 0.0, "fusion_lat": 0.0, "name": "4f39fcbe1d5481831f55cf584915c6fc", "type": "electric_scooter", "is_disabled": 0, "lat": 38.91782583333333, "rental_uris": {"android": "https://dc.lft.to/lastmile_qr_scan", "ios": "https://dc.lft.to/lastmile_qr_scan"}, "bike_id": "4f39fcbe1d5481831f55cf584915c6fc", "lon": -77.03206433333334}, {"is_reserved": 0, "fusion_lon": 0.0, "fusion_lat": 0.0, "name": "c387560198a96a3c7b5ea8a221b6d5d9", "type": "electric_scooter", "is_disabled": 0, "lat": 38.89622816666667, "rental_uris": {"android": "https://dc.lft.to/lastmile_qr_scan", "ios": "https://dc.lft.to/lastmile_qr_scan"}, "bike_id": "c387560198a96a3c7b5ea8a221b6d5d9", "lon": -77.02124233333333}, {"is_reserved": 0, "fusion_lon": 0.0, "fusion_lat": 0.0, "name": "755aeb6ee013cf833256ca1d40bf301f", "type": "electric_scooter", "is_disabled": 0, "lat": 38.89224466666667, "rental_uris": {"android": "https://dc.lft.to/lastmile_qr_scan", "ios": "https://dc.lft.to/lastmile_qr_scan"}, "bike_id": "755aeb6ee013cf833256ca1d40bf301f", "lon": -77.04377366666667}, {"is_reserved": 0, "fusion_lon": 0.0, "fusion_lat": 0.0, "name": "436e14dac04611615580523a5f20fa5f", "type": "electric_scooter", "is_disabled": 0, "lat": 38.90313966666667, "rental_uris": {"android": "https://dc.lft.to/lastmile_qr_scan", "ios": "https://dc.lft.to/lastmile_qr_scan"}, "bike_id": "436e14dac04611615580523a5f20fa5f", "lon": -77.05051866666666}, {"is_reserved": 0, "fusion_lon": 0.0, "fusion_lat": 0.0, "name": "3ba0a576c2b1f43cc0b7e1a6d57cc512", "type": "electric_scooter", "is_disabled": 0, "lat": 38.9157425, "rental_uris": {"android": "https://dc.lft.to/lastmile_qr_scan", "ios": "https://dc.lft.to/lastmile_qr_scan"}, "bike_id": "3ba0a576c2b1f43cc0b7e1a6d57cc512", "lon": -77.03190883333333}, {"is_reserved": 0, "fusion_lon": 0.0, "fusion_lat": 0.0, "name": "68910b63850b132b71931b5e530ea898", "type": "electric_scooter", "is_disabled": 0, "lat": 38.9181255, "rental_uris": {"android": "https://dc.lft.to/lastmile_qr_scan", "ios": "https://dc.lft.to/lastmile_qr_scan"}, "bike_id": "68910b63850b132b71931b5e530ea898", "lon": -77.03196316666667}, {"is_reserved": 0, "fusion_lon": 0.0, "fusion_lat": 0.0, "name": "3bde73df2e58d4d046c00d682374b158", "type": "electric_scooter", "is_disabled": 0, "lat": 38.8962145, "rental_uris": {"android": "https://dc.lft.to/lastmile_qr_scan", "ios": "https://dc.lft.to/lastmile_qr_scan"}, "bike_id": "3bde73df2e58d4d046c00d682374b158", "lon": -76.99299233333333}, {"is_reserved": 0, "fusion_lon": 0.0, "fusion_lat": 0.0, "name": "4f0a04ef7b941786c3e4018e2660176d", "type": "electric_scooter", "is_disabled": 0, "lat": 38.9075845, "rental_uris": {"android": "https://dc.lft.to/lastmile_qr_scan", "ios": "https://dc.lft.to/lastmile_qr_scan"}, "bike_id": "4f0a04ef7b941786c3e4018e2660176d", "lon": -77.00124116666667}, {"is_reserved": 0, "fusion_lon": 0.0, "fusion_lat": 0.0, "name": "4a2763c2316449301789222f60ba370d", "type": "electric_scooter", "is_disabled": 0, "lat": 38.9506415, "rental_uris": {"android": "https://dc.lft.to/lastmile_qr_scan", "ios": "https://dc.lft.to/lastmile_qr_scan"}, "bike_id": "4a2763c2316449301789222f60ba370d", "lon": -77.0072835}, {"is_reserved": 0, "fusion_lon": 0.0, "fusion_lat": 0.0, "name": "fcc1226b517094abab0de3654e5b08fb", "type": "electric_scooter", "is_disabled": 0, "lat": 38.90207733333333, "rental_uris": {"android": "https://dc.lft.to/lastmile_qr_scan", "ios": "https://dc.lft.to/lastmile_qr_scan"}, "bike_id": "fcc1226b517094abab0de3654e5b08fb", "lon": -77.02169316666667}, {"is_reserved": 0, "fusion_lon": 0.0, "fusion_lat": 0.0, "name": "6cbb267ea6371f1ff99e14cffbdc334e", "type": "electric_scooter", "is_disabled": 0, "lat": 38.9453185, "rental_uris": {"android": "https://dc.lft.to/lastmile_qr_scan", "ios": "https://dc.lft.to/lastmile_qr_scan"}, "bike_id": "6cbb267ea6371f1ff99e14cffbdc334e", "lon": -77.02088383333333}, {"is_reserved": 0, "fusion_lon": 0.0, "fusion_lat": 0.0, "name": "c3815fa2d482c0f468473c7c18387156", "type": "electric_scooter", "is_disabled": 0, "lat": 38.913418, "rental_uris": {"android": "https://dc.lft.to/lastmile_qr_scan", "ios": "https://dc.lft.to/lastmile_qr_scan"}, "bike_id": "c3815fa2d482c0f468473c7c18387156", "lon": -77.0481785}, {"is_reserved": 0, "fusion_lon": 0.0, "fusion_lat": 0.0, "name": "8cf575e04aa21c506d3343280fbd948b", "type": "electric_scooter", "is_disabled": 0, "lat": 38.909745666666666, "rental_uris": {"android": "https://dc.lft.to/lastmile_qr_scan", "ios": "https://dc.lft.to/lastmile_qr_scan"}, "bike_id": "8cf575e04aa21c506d3343280fbd948b", "lon": -77.03322583333333}, {"is_reserved": 0, "fusion_lon": 0.0, "fusion_lat": 0.0, "name": "4d2610736773cd2d306e0879d7dc0f7f", "type": "electric_scooter", "is_disabled": 0, "lat": 38.901864833333335, "rental_uris": {"android": "https://dc.lft.to/lastmile_qr_scan", "ios": "https://dc.lft.to/lastmile_qr_scan"}, "bike_id": "4d2610736773cd2d306e0879d7dc0f7f", "lon": -77.050989}, {"is_reserved": 0, "fusion_lon": 0.0, "fusion_lat": 0.0, "name": "2fff04974b959fb4955c29bd2b093a9d", "type": "electric_scooter", "is_disabled": 0, "lat": 38.8899265, "rental_uris": {"android": "https://dc.lft.to/lastmile_qr_scan", "ios": "https://dc.lft.to/lastmile_qr_scan"}, "bike_id": "2fff04974b959fb4955c29bd2b093a9d", "lon": -76.93108533333333}, {"is_reserved": 0, "fusion_lon": 0.0, "fusion_lat": 0.0, "name": "31deb4fd1f7efe3a407b8ccf4bbb90a0", "type": "electric_scooter", "is_disabled": 0, "lat": 38.908829833333336, "rental_uris": {"android": "https://dc.lft.to/lastmile_qr_scan", "ios": "https://dc.lft.to/lastmile_qr_scan"}, "bike_id": "31deb4fd1f7efe3a407b8ccf4bbb90a0", "lon": -77.07290033333334}, {"is_reserved": 0, "fusion_lon": 0.0, "fusion_lat": 0.0, "name": "5647e0af63eb1aab26734346d456a0d3", "type": "electric_scooter", "is_disabled": 0, "lat": 38.9169835, "rental_uris": {"android": "https://dc.lft.to/lastmile_qr_scan", "ios": "https://dc.lft.to/lastmile_qr_scan"}, "bike_id": "5647e0af63eb1aab26734346d456a0d3", "lon": -77.03217616666667}, {"is_reserved": 0, "fusion_lon": 0.0, "fusion_lat": 0.0, "name": "d5cd853c6d63981e49b4237b3e975b07", "type": "electric_scooter", "is_disabled": 0, "lat": 38.849989666666666, "rental_uris": {"android": "https://dc.lft.to/lastmile_qr_scan", "ios": "https://dc.lft.to/lastmile_qr_scan"}, "bike_id": "d5cd853c6d63981e49b4237b3e975b07", "lon": -76.98344416666667}, {"is_reserved": 0, "fusion_lon": 0.0, "fusion_lat": 0.0, "name": "3c54c94e47688d0c85d19ecc96056989", "type": "electric_scooter", "is_disabled": 0, "lat": 38.90263783333333, "rental_uris": {"android": "https://dc.lft.to/lastmile_qr_scan", "ios": "https://dc.lft.to/lastmile_qr_scan"}, "bike_id": "3c54c94e47688d0c85d19ecc96056989", "lon": -77.0389545}, {"is_reserved": 0, "fusion_lon": 0.0, "fusion_lat": 0.0, "name": "4ec01bab288699cd96ae93048b293c70", "type": "electric_scooter", "is_disabled": 0, "lat": 38.901930666666665, "rental_uris": {"android": "https://dc.lft.to/lastmile_qr_scan", "ios": "https://dc.lft.to/lastmile_qr_scan"}, "bike_id": "4ec01bab288699cd96ae93048b293c70", "lon": -76.93368983333333}, {"is_reserved": 0, "fusion_lon": 0.0, "fusion_lat": 0.0, "name": "74338ed0af02b1788f826cd0fdb7c3c3", "type": "electric_scooter", "is_disabled": 0, "lat": 38.85856033333334, "rental_uris": {"android": "https://dc.lft.to/lastmile_qr_scan", "ios": "https://dc.lft.to/lastmile_qr_scan"}, "bike_id": "74338ed0af02b1788f826cd0fdb7c3c3", "lon": -76.9856325}, {"is_reserved": 0, "fusion_lon": 0.0, "fusion_lat": 0.0, "name": "9841ef8fe4d57264f2fdfba8d49cb603", "type": "electric_scooter", "is_disabled": 0, "lat": 38.908961, "rental_uris": {"android": "https://dc.lft.to/lastmile_qr_scan", "ios": "https://dc.lft.to/lastmile_qr_scan"}, "bike_id": "9841ef8fe4d57264f2fdfba8d49cb603", "lon": -76.99855033333333}, {"is_reserved": 0, "fusion_lon": 0.0, "fusion_lat": 0.0, "name": "70673e38135c4671c5c3e0bc0775d186", "type": "electric_scooter", "is_disabled": 0, "lat": 38.906015333333336, "rental_uris": {"android": "https://dc.lft.to/lastmile_qr_scan", "ios": "https://dc.lft.to/lastmile_qr_scan"}, "bike_id": "70673e38135c4671c5c3e0bc0775d186", "lon": -77.02226}, {"is_reserved": 0, "fusion_lon": 0.0, "fusion_lat": 0.0, "name": "216db265f0785e7f20389ac9376ceda0", "type": "electric_bike", "is_disabled": 0, "lat": 38.862101833333334, "rental_uris": {"android": "https://dc.lft.to/lastmile_qr_scan", "ios": "https://dc.lft.to/lastmile_qr_scan"}, "bike_id": "216db265f0785e7f20389ac9376ceda0", "lon": -76.99554666666667}, {"is_reserved": 0, "fusion_lon": 0.0, "fusion_lat": 0.0, "name": "5f266730d0b03ca1d721fafcbac509d1", "type": "electric_scooter", "is_disabled": 0, "lat": 38.90567166666666, "rental_uris": {"android": "https://dc.lft.to/lastmile_qr_scan", "ios": "https://dc.lft.to/lastmile_qr_scan"}, "bike_id": "5f266730d0b03ca1d721fafcbac509d1", "lon": -77.04667016666667}, {"is_reserved": 0, "fusion_lon": 0.0, "fusion_lat": 0.0, "name": "9117eb1707253622005ebc5b4aa271a2", "type": "electric_scooter", "is_disabled": 0, "lat": 38.92660683333333, "rental_uris": {"android": "https://dc.lft.to/lastmile_qr_scan", "ios": "https://dc.lft.to/lastmile_qr_scan"}, "bike_id": "9117eb1707253622005ebc5b4aa271a2", "lon": -77.037336}, {"is_reserved": 0, "fusion_lon": 0.0, "fusion_lat": 0.0, "name": "ae32e8733d9bee2aae0df3339907c853", "type": "electric_scooter", "is_disabled": 0, "lat": 38.86080716666667, "rental_uris": {"android": "https://dc.lft.to/lastmile_qr_scan", "ios": "https://dc.lft.to/lastmile_qr_scan"}, "bike_id": "ae32e8733d9bee2aae0df3339907c853", "lon": -76.96893783333333}, {"is_reserved": 0, "fusion_lon": 0.0, "fusion_lat": 0.0, "name": "386e9a0c997ff5eee6e6f2a0229d38a5", "type": "electric_scooter", "is_disabled": 0, "lat": 38.887857333333336, "rental_uris": {"android": "https://dc.lft.to/lastmile_qr_scan", "ios": "https://dc.lft.to/lastmile_qr_scan"}, "bike_id": "386e9a0c997ff5eee6e6f2a0229d38a5", "lon": -76.95541}, {"is_reserved": 0, "fusion_lon": 0.0, "fusion_lat": 0.0, "name": "00640ec9e26c2fa1163fbab76742c6ec", "type": "electric_scooter", "is_disabled": 0, "lat": 38.892298, "rental_uris": {"android": "https://dc.lft.to/lastmile_qr_scan", "ios": "https://dc.lft.to/lastmile_qr_scan"}, "bike_id": "00640ec9e26c2fa1163fbab76742c6ec", "lon": -77.04504816666666}, {"is_reserved": 0, "fusion_lon": 0.0, "fusion_lat": 0.0, "name": "cde453d959d38556fe3770ecc15e8ee7", "type": "electric_scooter", "is_disabled": 0, "lat": 38.90653233333333, "rental_uris": {"android": "https://dc.lft.to/lastmile_qr_scan", "ios": "https://dc.lft.to/lastmile_qr_scan"}, "bike_id": "cde453d959d38556fe3770ecc15e8ee7", "lon": -77.03896783333333}, {"is_reserved": 0, "fusion_lon": 0.0, "fusion_lat": 0.0, "name": "6a10a7384f3f0e8107661ae17d6289c2", "type": "electric_scooter", "is_disabled": 0, "lat": 38.906764333333335, "rental_uris": {"android": "https://dc.lft.to/lastmile_qr_scan", "ios": "https://dc.lft.to/lastmile_qr_scan"}, "bike_id": "6a10a7384f3f0e8107661ae17d6289c2", "lon": -77.03838583333334}, {"is_reserved": 0, "fusion_lon": 0.0, "fusion_lat": 0.0, "name": "323705d0f12df66d6197f4ee78733fe5", "type": "electric_bike", "is_disabled": 0, "lat": 39.024375666666664, "rental_uris": {"android": "https://dc.lft.to/lastmile_qr_scan", "ios": "https://dc.lft.to/lastmile_qr_scan"}, "bike_id": "323705d0f12df66d6197f4ee78733fe5", "lon": -77.13099416666667}, {"is_reserved": 0, "fusion_lon": 0.0, "fusion_lat": 0.0, "name": "d9ff75b769a6a182d753a5cceacd5a86", "type": "electric_scooter", "is_disabled": 0, "lat": 38.92235383333333, "rental_uris": {"android": "https://dc.lft.to/lastmile_qr_scan", "ios": "https://dc.lft.to/lastmile_qr_scan"}, "bike_id": "d9ff75b769a6a182d753a5cceacd5a86", "lon": -77.02336466666667}, {"is_reserved": 0, "fusion_lon": 0.0, "fusion_lat": 0.0, "name": "306ed803327a6481cc05b69d69af5733", "type": "electric_scooter", "is_disabled": 0, "lat": 38.897517666666666, "rental_uris": {"android": "https://dc.lft.to/lastmile_qr_scan", "ios": "https://dc.lft.to/lastmile_qr_scan"}, "bike_id": "306ed803327a6481cc05b69d69af5733", "lon": -77.0294095}, {"is_reserved": 0, "fusion_lon": 0.0, "fusion_lat": 0.0, "name": "dd760d0a332dfefbbdf94fab2723c29f", "type": "electric_scooter", "is_disabled": 0, "lat": 38.90621766666667, "rental_uris": {"android": "https://dc.lft.to/lastmile_qr_scan", "ios": "https://dc.lft.to/lastmile_qr_scan"}, "bike_id": "dd760d0a332dfefbbdf94fab2723c29f", "lon": -77.047752}, {"is_reserved": 0, "fusion_lon": 0.0, "fusion_lat": 0.0, "name": "3b0724a899a4994ebde0671e759f42bd", "type": "electric_scooter", "is_disabled": 0, "lat": 38.907986, "rental_uris": {"android": "https://dc.lft.to/lastmile_qr_scan", "ios": "https://dc.lft.to/lastmile_qr_scan"}, "bike_id": "3b0724a899a4994ebde0671e759f42bd", "lon": -77.0238635}, {"is_reserved": 0, "fusion_lon": 0.0, "fusion_lat": 0.0, "name": "8384bbfc0b786b2820917aeb1d2421e0", "type": "electric_bike", "is_disabled": 0, "lat": 38.947875, "rental_uris": {"android": "https://dc.lft.to/lastmile_qr_scan", "ios": "https://dc.lft.to/lastmile_qr_scan"}, "bike_id": "8384bbfc0b786b2820917aeb1d2421e0", "lon": -76.972087}, {"is_reserved": 0, "fusion_lon": 0.0, "fusion_lat": 0.0, "name": "56483be1cc1d0bcea53e9698706b9300", "type": "electric_scooter", "is_disabled": 0, "lat": 38.88758133333333, "rental_uris": {"android": "https://dc.lft.to/lastmile_qr_scan", "ios": "https://dc.lft.to/lastmile_qr_scan"}, "bike_id": "56483be1cc1d0bcea53e9698706b9300", "lon": -77.01544066666666}, {"is_reserved": 0, "fusion_lon": 0.0, "fusion_lat": 0.0, "name": "f8efa875531166d745f3aefce208932a", "type": "electric_scooter", "is_disabled": 0, "lat": 38.86423116666667, "rental_uris": {"android": "https://dc.lft.to/lastmile_qr_scan", "ios": "https://dc.lft.to/lastmile_qr_scan"}, "bike_id": "f8efa875531166d745f3aefce208932a", "lon": -76.9743115}, {"is_reserved": 0, "fusion_lon": 0.0, "fusion_lat": 0.0, "name": "efd7a7a90878834ddb1f24fad31e2149", "type": "electric_scooter", "is_disabled": 0, "lat": 38.907837, "rental_uris": {"android": "https://dc.lft.to/lastmile_qr_scan", "ios": "https://dc.lft.to/lastmile_qr_scan"}, "bike_id": "efd7a7a90878834ddb1f24fad31e2149", "lon": -77.04005683333334}, {"is_reserved": 0, "fusion_lon": 0.0, "fusion_lat": 0.0, "name": "c40ee3d615913b8456e840f8fea00125", "type": "electric_scooter", "is_disabled": 0, "lat": 38.905896, "rental_uris": {"android": "https://dc.lft.to/lastmile_qr_scan", "ios": "https://dc.lft.to/lastmile_qr_scan"}, "bike_id": "c40ee3d615913b8456e840f8fea00125", "lon": -77.04467883333334}, {"is_reserved": 0, "fusion_lon": 0.0, "fusion_lat": 0.0, "name": "1725aa4d6da415d21e2eed2b4efa98c1", "type": "electric_scooter", "is_disabled": 0, "lat": 38.87789933333333, "rental_uris": {"android": "https://dc.lft.to/lastmile_qr_scan", "ios": "https://dc.lft.to/lastmile_qr_scan"}, "bike_id": "1725aa4d6da415d21e2eed2b4efa98c1", "lon": -76.994084}, {"is_reserved": 0, "fusion_lon": 0.0, "fusion_lat": 0.0, "name": "b9d35add4b85999c5e6382e7c65fc444", "type": "electric_scooter", "is_disabled": 0, "lat": 38.9063195, "rental_uris": {"android": "https://dc.lft.to/lastmile_qr_scan", "ios": "https://dc.lft.to/lastmile_qr_scan"}, "bike_id": "b9d35add4b85999c5e6382e7c65fc444", "lon": -77.03860566666667}, {"is_reserved": 0, "fusion_lon": 0.0, "fusion_lat": 0.0, "name": "d53fcd0fa2a609017667bc6577f6bff0", "type": "electric_scooter", "is_disabled": 0, "lat": 38.903847166666665, "rental_uris": {"android": "https://dc.lft.to/lastmile_qr_scan", "ios": "https://dc.lft.to/lastmile_qr_scan"}, "bike_id": "d53fcd0fa2a609017667bc6577f6bff0", "lon": -77.04497666666667}, {"is_reserved": 0, "fusion_lon": 0.0, "fusion_lat": 0.0, "name": "21a9f1f3e80298b79f32408f282ad50d", "type": "electric_bike", "is_disabled": 0, "lat": 38.83239283333333, "rental_uris": {"android": "https://dc.lft.to/lastmile_qr_scan", "ios": "https://dc.lft.to/lastmile_qr_scan"}, "bike_id": "21a9f1f3e80298b79f32408f282ad50d", "lon": -76.94616133333334}, {"is_reserved": 0, "fusion_lon": 0.0, "fusion_lat": 0.0, "name": "3c98db2394766c87fc116ed9e2dc9786", "type": "electric_scooter", "is_disabled": 0, "lat": 38.8985525, "rental_uris": {"android": "https://dc.lft.to/lastmile_qr_scan", "ios": "https://dc.lft.to/lastmile_qr_scan"}, "bike_id": "3c98db2394766c87fc116ed9e2dc9786", "lon": -77.03919366666666}, {"is_reserved": 0, "fusion_lon": 0.0, "fusion_lat": 0.0, "name": "3e7942c15fe850f79b7985ae5a7281e4", "type": "electric_scooter", "is_disabled": 0, "lat": 38.9041105, "rental_uris": {"android": "https://dc.lft.to/lastmile_qr_scan", "ios": "https://dc.lft.to/lastmile_qr_scan"}, "bike_id": "3e7942c15fe850f79b7985ae5a7281e4", "lon": -76.973322}, {"is_reserved": 0, "fusion_lon": 0.0, "fusion_lat": 0.0, "name": "c52a975143f6aa807cbbe1980727a6cd", "type": "electric_scooter", "is_disabled": 0, "lat": 38.916992666666665, "rental_uris": {"android": "https://dc.lft.to/lastmile_qr_scan", "ios": "https://dc.lft.to/lastmile_qr_scan"}, "bike_id": "c52a975143f6aa807cbbe1980727a6cd", "lon": -77.03820383333333}, {"is_reserved": 0, "fusion_lon": 0.0, "fusion_lat": 0.0, "name": "c73d9e9de873319a251696c597cc172e", "type": "electric_bike", "is_disabled": 0, "lat": 39.05051866666667, "rental_uris": {"android": "https://dc.lft.to/lastmile_qr_scan", "ios": "https://dc.lft.to/lastmile_qr_scan"}, "bike_id": "c73d9e9de873319a251696c597cc172e", "lon": -77.05149566666667}, {"is_reserved": 0, "fusion_lon": 0.0, "fusion_lat": 0.0, "name": "88b5cdcfd4935106dd35db4563983565", "type": "electric_scooter", "is_disabled": 0, "lat": 38.930293166666665, "rental_uris": {"android": "https://dc.lft.to/lastmile_qr_scan", "ios": "https://dc.lft.to/lastmile_qr_scan"}, "bike_id": "88b5cdcfd4935106dd35db4563983565", "lon": -77.06306733333334}, {"is_reserved": 0, "fusion_lon": 0.0, "fusion_lat": 0.0, "name": "ebe18f7412e3893ac8d3da0f408b6f7c", "type": "electric_scooter", "is_disabled": 0, "lat": 38.90270683333333, "rental_uris": {"android": "https://dc.lft.to/lastmile_qr_scan", "ios": "https://dc.lft.to/lastmile_qr_scan"}, "bike_id": "ebe18f7412e3893ac8d3da0f408b6f7c", "lon": -77.03340866666667}, {"is_reserved": 0, "fusion_lon": 0.0, "fusion_lat": 0.0, "name": "173fb63a8a5eb6d7edbc9095bf91158f", "type": "electric_scooter", "is_disabled": 0, "lat": 38.885105333333335, "rental_uris": {"android": "https://dc.lft.to/lastmile_qr_scan", "ios": "https://dc.lft.to/lastmile_qr_scan"}, "bike_id": "173fb63a8a5eb6d7edbc9095bf91158f", "lon": -77.005677}, {"is_reserved": 0, "fusion_lon": 0.0, "fusion_lat": 0.0, "name": "e6306b2445459a13fbec9b1c19ab73a9", "type": "electric_scooter", "is_disabled": 0, "lat": 38.919262, "rental_uris": {"android": "https://dc.lft.to/lastmile_qr_scan", "ios": "https://dc.lft.to/lastmile_qr_scan"}, "bike_id": "e6306b2445459a13fbec9b1c19ab73a9", "lon": -77.03151416666667}, {"is_reserved": 0, "fusion_lon": 0.0, "fusion_lat": 0.0, "name": "3fca1741ecc55fec483734a33bef88d8", "type": "electric_scooter", "is_disabled": 0, "lat": 38.906526, "rental_uris": {"android": "https://dc.lft.to/lastmile_qr_scan", "ios": "https://dc.lft.to/lastmile_qr_scan"}, "bike_id": "3fca1741ecc55fec483734a33bef88d8", "lon": -77.04673233333334}, {"is_reserved": 0, "fusion_lon": 0.0, "fusion_lat": 0.0, "name": "f7756f2aacbccdeb0216aaf864c558f0", "type": "electric_scooter", "is_disabled": 0, "lat": 38.921858666666665, "rental_uris": {"android": "https://dc.lft.to/lastmile_qr_scan", "ios": "https://dc.lft.to/lastmile_qr_scan"}, "bike_id": "f7756f2aacbccdeb0216aaf864c558f0", "lon": -77.043483}, {"is_reserved": 0, "fusion_lon": 0.0, "fusion_lat": 0.0, "name": "b8dfc156a35d8507f9d31b2ac86ce352", "type": "electric_scooter", "is_disabled": 0, "lat": 38.90204383333333, "rental_uris": {"android": "https://dc.lft.to/lastmile_qr_scan", "ios": "https://dc.lft.to/lastmile_qr_scan"}, "bike_id": "b8dfc156a35d8507f9d31b2ac86ce352", "lon": -77.04813133333333}, {"is_reserved": 0, "fusion_lon": 0.0, "fusion_lat": 0.0, "name": "062f3c2c8521b238c6d8a1be9d4cf1be", "type": "electric_scooter", "is_disabled": 0, "lat": 38.923307666666666, "rental_uris": {"android": "https://dc.lft.to/lastmile_qr_scan", "ios": "https://dc.lft.to/lastmile_qr_scan"}, "bike_id": "062f3c2c8521b238c6d8a1be9d4cf1be", "lon": -77.043914}, {"is_reserved": 0, "fusion_lon": 0.0, "fusion_lat": 0.0, "name": "ef104a82702dd9c0a0780bf53f75f909", "type": "electric_scooter", "is_disabled": 0, "lat": 38.874475833333335, "rental_uris": {"android": "https://dc.lft.to/lastmile_qr_scan", "ios": "https://dc.lft.to/lastmile_qr_scan"}, "bike_id": "ef104a82702dd9c0a0780bf53f75f909", "lon": -77.00564633333333}, {"is_reserved": 0, "fusion_lon": 0.0, "fusion_lat": 0.0, "name": "05b84fa139803fad25c68b59e2c95ecb", "type": "electric_scooter", "is_disabled": 0, "lat": 38.909205666666665, "rental_uris": {"android": "https://dc.lft.to/lastmile_qr_scan", "ios": "https://dc.lft.to/lastmile_qr_scan"}, "bike_id": "05b84fa139803fad25c68b59e2c95ecb", "lon": -77.07274766666667}, {"is_reserved": 0, "fusion_lon": 0.0, "fusion_lat": 0.0, "name": "52f903daf217e4d7c00cff42614867a1", "type": "electric_scooter", "is_disabled": 0, "lat": 38.899511833333335, "rental_uris": {"android": "https://dc.lft.to/lastmile_qr_scan", "ios": "https://dc.lft.to/lastmile_qr_scan"}, "bike_id": "52f903daf217e4d7c00cff42614867a1", "lon": -77.0237145}, {"is_reserved": 0, "fusion_lon": 0.0, "fusion_lat": 0.0, "name": "6b7e3cfa26208d0a4ba773c349639f36", "type": "electric_scooter", "is_disabled": 0, "lat": 38.86740983333333, "rental_uris": {"android": "https://dc.lft.to/lastmile_qr_scan", "ios": "https://dc.lft.to/lastmile_qr_scan"}, "bike_id": "6b7e3cfa26208d0a4ba773c349639f36", "lon": -76.987888}, {"is_reserved": 0, "fusion_lon": 0.0, "fusion_lat": 0.0, "name": "683ff84e371c28ecd2e58b048b78392d", "type": "electric_bike", "is_disabled": 0, "lat": 38.880532333333335, "rental_uris": {"android": "https://dc.lft.to/lastmile_qr_scan", "ios": "https://dc.lft.to/lastmile_qr_scan"}, "bike_id": "683ff84e371c28ecd2e58b048b78392d", "lon": -77.0112365}, {"is_reserved": 0, "fusion_lon": 0.0, "fusion_lat": 0.0, "name": "7ca654bc2ac45710a311387295206d6f", "type": "electric_scooter", "is_disabled": 0, "lat": 38.92848033333333, "rental_uris": {"android": "https://dc.lft.to/lastmile_qr_scan", "ios": "https://dc.lft.to/lastmile_qr_scan"}, "bike_id": "7ca654bc2ac45710a311387295206d6f", "lon": -77.03264183333333}, {"is_reserved": 0, "fusion_lon": 0.0, "fusion_lat": 0.0, "name": "8c4367dbc71d72949b2db02a47ad2a46", "type": "electric_scooter", "is_disabled": 0, "lat": 38.90385233333333, "rental_uris": {"android": "https://dc.lft.to/lastmile_qr_scan", "ios": "https://dc.lft.to/lastmile_qr_scan"}, "bike_id": "8c4367dbc71d72949b2db02a47ad2a46", "lon": -77.0457195}, {"is_reserved": 0, "fusion_lon": 0.0, "fusion_lat": 0.0, "name": "82c178a1a83c53af6bedf49a1f9d5747", "type": "electric_scooter", "is_disabled": 0, "lat": 38.89373783333333, "rental_uris": {"android": "https://dc.lft.to/lastmile_qr_scan", "ios": "https://dc.lft.to/lastmile_qr_scan"}, "bike_id": "82c178a1a83c53af6bedf49a1f9d5747", "lon": -77.0321505}, {"is_reserved": 0, "fusion_lon": 0.0, "fusion_lat": 0.0, "name": "6c65e2b4db2b173c90f9e71a3d1f6a87", "type": "electric_scooter", "is_disabled": 0, "lat": 38.900171666666665, "rental_uris": {"android": "https://dc.lft.to/lastmile_qr_scan", "ios": "https://dc.lft.to/lastmile_qr_scan"}, "bike_id": "6c65e2b4db2b173c90f9e71a3d1f6a87", "lon": -76.99620183333333}, {"is_reserved": 0, "fusion_lon": 0.0, "fusion_lat": 0.0, "name": "594c9f23745c556444911b27b995ea73", "type": "electric_scooter", "is_disabled": 0, "lat": 38.91266616666667, "rental_uris": {"android": "https://dc.lft.to/lastmile_qr_scan", "ios": "https://dc.lft.to/lastmile_qr_scan"}, "bike_id": "594c9f23745c556444911b27b995ea73", "lon": -77.07342566666667}, {"is_reserved": 0, "fusion_lon": 0.0, "fusion_lat": 0.0, "name": "fc63a249ee80af135d2afc7a852ab898", "type": "electric_scooter", "is_disabled": 0, "lat": 38.9033965, "rental_uris": {"android": "https://dc.lft.to/lastmile_qr_scan", "ios": "https://dc.lft.to/lastmile_qr_scan"}, "bike_id": "fc63a249ee80af135d2afc7a852ab898", "lon": -76.975833}, {"is_reserved": 0, "fusion_lon": 0.0, "fusion_lat": 0.0, "name": "da0bfe092fe0bdc9529d18d22a9848c4", "type": "electric_scooter", "is_disabled": 0, "lat": 38.91909233333333, "rental_uris": {"android": "https://dc.lft.to/lastmile_qr_scan", "ios": "https://dc.lft.to/lastmile_qr_scan"}, "bike_id": "da0bfe092fe0bdc9529d18d22a9848c4", "lon": -77.021721}, {"is_reserved": 0, "fusion_lon": 0.0, "fusion_lat": 0.0, "name": "2ccdac3d23f3bf3454098eb58334d0e0", "type": "electric_scooter", "is_disabled": 0, "lat": 38.89934066666667, "rental_uris": {"android": "https://dc.lft.to/lastmile_qr_scan", "ios": "https://dc.lft.to/lastmile_qr_scan"}, "bike_id": "2ccdac3d23f3bf3454098eb58334d0e0", "lon": -76.945721}, {"is_reserved": 0, "fusion_lon": 0.0, "fusion_lat": 0.0, "name": "14d6c19af85f19f170b7f22d8ac36fa6", "type": "electric_scooter", "is_disabled": 0, "lat": 38.90792666666667, "rental_uris": {"android": "https://dc.lft.to/lastmile_qr_scan", "ios": "https://dc.lft.to/lastmile_qr_scan"}, "bike_id": "14d6c19af85f19f170b7f22d8ac36fa6", "lon": -77.0321345}, {"is_reserved": 0, "fusion_lon": 0.0, "fusion_lat": 0.0, "name": "73b144bc9ed412e078c1867559179e21", "type": "electric_scooter", "is_disabled": 0, "lat": 38.899185333333335, "rental_uris": {"android": "https://dc.lft.to/lastmile_qr_scan", "ios": "https://dc.lft.to/lastmile_qr_scan"}, "bike_id": "73b144bc9ed412e078c1867559179e21", "lon": -76.93382333333334}, {"is_reserved": 0, "fusion_lon": 0.0, "fusion_lat": 0.0, "name": "ece8e66b6e02180583ca8fd317ffe0e9", "type": "electric_bike", "is_disabled": 0, "lat": 38.854249, "rental_uris": {"android": "https://dc.lft.to/lastmile_qr_scan", "ios": "https://dc.lft.to/lastmile_qr_scan"}, "bike_id": "ece8e66b6e02180583ca8fd317ffe0e9", "lon": -77.1207435}, {"is_reserved": 0, "fusion_lon": 0.0, "fusion_lat": 0.0, "name": "fb21fc74611b843893df76da0d432267", "type": "electric_scooter", "is_disabled": 0, "lat": 38.87401, "rental_uris": {"android": "https://dc.lft.to/lastmile_qr_scan", "ios": "https://dc.lft.to/lastmile_qr_scan"}, "bike_id": "fb21fc74611b843893df76da0d432267", "lon": -77.00021566666666}, {"is_reserved": 0, "fusion_lon": 0.0, "fusion_lat": 0.0, "name": "6ab3ebabd1fda0cfc1d3eca0d5fbff21", "type": "electric_scooter", "is_disabled": 0, "lat": 38.8997555, "rental_uris": {"android": "https://dc.lft.to/lastmile_qr_scan", "ios": "https://dc.lft.to/lastmile_qr_scan"}, "bike_id": "6ab3ebabd1fda0cfc1d3eca0d5fbff21", "lon": -77.03358633333333}, {"is_reserved": 0, "fusion_lon": 0.0, "fusion_lat": 0.0, "name": "d817abdc2c62b34383ad6e559d008db8", "type": "electric_scooter", "is_disabled": 0, "lat": 38.9028065, "rental_uris": {"android": "https://dc.lft.to/lastmile_qr_scan", "ios": "https://dc.lft.to/lastmile_qr_scan"}, "bike_id": "d817abdc2c62b34383ad6e559d008db8", "lon": -77.0334045}, {"is_reserved": 0, "fusion_lon": 0.0, "fusion_lat": 0.0, "name": "5049d97e12cec955a12366511ded1a07", "type": "electric_scooter", "is_disabled": 0, "lat": 38.90818766666666, "rental_uris": {"android": "https://dc.lft.to/lastmile_qr_scan", "ios": "https://dc.lft.to/lastmile_qr_scan"}, "bike_id": "5049d97e12cec955a12366511ded1a07", "lon": -77.03445333333333}, {"is_reserved": 0, "fusion_lon": 0.0, "fusion_lat": 0.0, "name": "ceac4e4ab5574f60232589b375cc10e7", "type": "electric_scooter", "is_disabled": 0, "lat": 38.89745766666667, "rental_uris": {"android": "https://dc.lft.to/lastmile_qr_scan", "ios": "https://dc.lft.to/lastmile_qr_scan"}, "bike_id": "ceac4e4ab5574f60232589b375cc10e7", "lon": -77.04711016666667}, {"is_reserved": 0, "fusion_lon": 0.0, "fusion_lat": 0.0, "name": "196ef542b71d5e90d94d67e7807693fc", "type": "electric_scooter", "is_disabled": 0, "lat": 38.89872283333333, "rental_uris": {"android": "https://dc.lft.to/lastmile_qr_scan", "ios": "https://dc.lft.to/lastmile_qr_scan"}, "bike_id": "196ef542b71d5e90d94d67e7807693fc", "lon": -77.033496}, {"is_reserved": 0, "fusion_lon": 0.0, "fusion_lat": 0.0, "name": "9c83fbf154470db569a6b22e68a4ab73", "type": "electric_scooter", "is_disabled": 0, "lat": 38.93255583333333, "rental_uris": {"android": "https://dc.lft.to/lastmile_qr_scan", "ios": "https://dc.lft.to/lastmile_qr_scan"}, "bike_id": "9c83fbf154470db569a6b22e68a4ab73", "lon": -77.03847883333333}, {"is_reserved": 0, "fusion_lon": 0.0, "fusion_lat": 0.0, "name": "c5f037c4800c7b997cbe01a9befb7c02", "type": "electric_bike", "is_disabled": 0, "lat": 38.893589166666665, "rental_uris": {"android": "https://dc.lft.to/lastmile_qr_scan", "ios": "https://dc.lft.to/lastmile_qr_scan"}, "bike_id": "c5f037c4800c7b997cbe01a9befb7c02", "lon": -77.18738566666667}, {"is_reserved": 0, "fusion_lon": 0.0, "fusion_lat": 0.0, "name": "52998befba2ca05bc067590f64570e91", "type": "electric_scooter", "is_disabled": 0, "lat": 38.903954, "rental_uris": {"android": "https://dc.lft.to/lastmile_qr_scan", "ios": "https://dc.lft.to/lastmile_qr_scan"}, "bike_id": "52998befba2ca05bc067590f64570e91", "lon": -77.03841616666666}, {"is_reserved": 0, "fusion_lon": 0.0, "fusion_lat": 0.0, "name": "d7ff6b69068825ba53fdb98c882efacd", "type": "electric_scooter", "is_disabled": 0, "lat": 38.9008985, "rental_uris": {"android": "https://dc.lft.to/lastmile_qr_scan", "ios": "https://dc.lft.to/lastmile_qr_scan"}, "bike_id": "d7ff6b69068825ba53fdb98c882efacd", "lon": -76.99365416666667}, {"is_reserved": 0, "fusion_lon": 0.0, "fusion_lat": 0.0, "name": "b7125568ed3133ea8132b855467533a7", "type": "electric_scooter", "is_disabled": 0, "lat": 38.892002, "rental_uris": {"android": "https://dc.lft.to/lastmile_qr_scan", "ios": "https://dc.lft.to/lastmile_qr_scan"}, "bike_id": "b7125568ed3133ea8132b855467533a7", "lon": -77.00291866666667}, {"is_reserved": 0, "fusion_lon": 0.0, "fusion_lat": 0.0, "name": "39098ea2a1ddea9e352e2a44780cc854", "type": "electric_scooter", "is_disabled": 0, "lat": 38.93069083333334, "rental_uris": {"android": "https://dc.lft.to/lastmile_qr_scan", "ios": "https://dc.lft.to/lastmile_qr_scan"}, "bike_id": "39098ea2a1ddea9e352e2a44780cc854", "lon": -77.0381805}, {"is_reserved": 0, "fusion_lon": 0.0, "fusion_lat": 0.0, "name": "71365132b66aad4256ed59fbc5da616c", "type": "electric_scooter", "is_disabled": 0, "lat": 38.92479683333333, "rental_uris": {"android": "https://dc.lft.to/lastmile_qr_scan", "ios": "https://dc.lft.to/lastmile_qr_scan"}, "bike_id": "71365132b66aad4256ed59fbc5da616c", "lon": -77.02203533333333}, {"is_reserved": 0, "fusion_lon": 0.0, "fusion_lat": 0.0, "name": "538ee5c54992a32e655687fed45ea1e0", "type": "electric_scooter", "is_disabled": 0, "lat": 38.931522666666666, "rental_uris": {"android": "https://dc.lft.to/lastmile_qr_scan", "ios": "https://dc.lft.to/lastmile_qr_scan"}, "bike_id": "538ee5c54992a32e655687fed45ea1e0", "lon": -77.02370916666666}, {"is_reserved": 0, "fusion_lon": 0.0, "fusion_lat": 0.0, "name": "5a5f1e5d043f2bc274647239c8cb4f2a", "type": "electric_scooter", "is_disabled": 0, "lat": 38.8857275, "rental_uris": {"android": "https://dc.lft.to/lastmile_qr_scan", "ios": "https://dc.lft.to/lastmile_qr_scan"}, "bike_id": "5a5f1e5d043f2bc274647239c8cb4f2a", "lon": -77.0200575}, {"is_reserved": 0, "fusion_lon": 0.0, "fusion_lat": 0.0, "name": "c4ec376cd73ad79b3e7c924e0eb4fdf1", "type": "electric_scooter", "is_disabled": 0, "lat": 38.9004445, "rental_uris": {"android": "https://dc.lft.to/lastmile_qr_scan", "ios": "https://dc.lft.to/lastmile_qr_scan"}, "bike_id": "c4ec376cd73ad79b3e7c924e0eb4fdf1", "lon": -77.04331233333333}, {"is_reserved": 0, "fusion_lon": 0.0, "fusion_lat": 0.0, "name": "d4cd35044e1e49b98e971a4df167bf3b", "type": "electric_scooter", "is_disabled": 0, "lat": 38.90319083333333, "rental_uris": {"android": "https://dc.lft.to/lastmile_qr_scan", "ios": "https://dc.lft.to/lastmile_qr_scan"}, "bike_id": "d4cd35044e1e49b98e971a4df167bf3b", "lon": -77.03486666666667}, {"is_reserved": 0, "fusion_lon": 0.0, "fusion_lat": 0.0, "name": "1100a240542cadc40dfec0ed86211217", "type": "electric_scooter", "is_disabled": 0, "lat": 38.90029033333333, "rental_uris": {"android": "https://dc.lft.to/lastmile_qr_scan", "ios": "https://dc.lft.to/lastmile_qr_scan"}, "bike_id": "1100a240542cadc40dfec0ed86211217", "lon": -77.01186683333333}, {"is_reserved": 0, "fusion_lon": 0.0, "fusion_lat": 0.0, "name": "e8d3f9ca83d9b7f578d2829746f2359a", "type": "electric_scooter", "is_disabled": 0, "lat": 38.89869016666667, "rental_uris": {"android": "https://dc.lft.to/lastmile_qr_scan", "ios": "https://dc.lft.to/lastmile_qr_scan"}, "bike_id": "e8d3f9ca83d9b7f578d2829746f2359a", "lon": -76.94660016666667}, {"is_reserved": 0, "fusion_lon": 0.0, "fusion_lat": 0.0, "name": "2f505d23b50b703a7fd87ae7b1c11c32", "type": "electric_scooter", "is_disabled": 0, "lat": 38.9167105, "rental_uris": {"android": "https://dc.lft.to/lastmile_qr_scan", "ios": "https://dc.lft.to/lastmile_qr_scan"}, "bike_id": "2f505d23b50b703a7fd87ae7b1c11c32", "lon": -77.01916583333333}, {"is_reserved": 0, "fusion_lon": 0.0, "fusion_lat": 0.0, "name": "c925c93edec12e8819ecf27c6803a0a4", "type": "electric_scooter", "is_disabled": 0, "lat": 38.87462683333333, "rental_uris": {"android": "https://dc.lft.to/lastmile_qr_scan", "ios": "https://dc.lft.to/lastmile_qr_scan"}, "bike_id": "c925c93edec12e8819ecf27c6803a0a4", "lon": -77.00544733333334}, {"is_reserved": 0, "fusion_lon": 0.0, "fusion_lat": 0.0, "name": "46b8bbdd77b5c519c47bc5cdf182b8ef", "type": "electric_scooter", "is_disabled": 0, "lat": 38.86662916666667, "rental_uris": {"android": "https://dc.lft.to/lastmile_qr_scan", "ios": "https://dc.lft.to/lastmile_qr_scan"}, "bike_id": "46b8bbdd77b5c519c47bc5cdf182b8ef", "lon": -76.98882333333333}, {"is_reserved": 0, "fusion_lon": 0.0, "fusion_lat": 0.0, "name": "5b35cea1661fbbb77a479010d69cb635", "type": "electric_scooter", "is_disabled": 0, "lat": 38.921108833333335, "rental_uris": {"android": "https://dc.lft.to/lastmile_qr_scan", "ios": "https://dc.lft.to/lastmile_qr_scan"}, "bike_id": "5b35cea1661fbbb77a479010d69cb635", "lon": -77.03338983333333}, {"is_reserved": 0, "fusion_lon": 0.0, "fusion_lat": 0.0, "name": "67024d41a6c17889a804bb3d9e511151", "type": "electric_scooter", "is_disabled": 0, "lat": 38.93004533333333, "rental_uris": {"android": "https://dc.lft.to/lastmile_qr_scan", "ios": "https://dc.lft.to/lastmile_qr_scan"}, "bike_id": "67024d41a6c17889a804bb3d9e511151", "lon": -77.01301133333334}, {"is_reserved": 0, "fusion_lon": 0.0, "fusion_lat": 0.0, "name": "c4b2f8589dee310c9d531d7fdbbbf292", "type": "electric_scooter", "is_disabled": 0, "lat": 38.903926166666665, "rental_uris": {"android": "https://dc.lft.to/lastmile_qr_scan", "ios": "https://dc.lft.to/lastmile_qr_scan"}, "bike_id": "c4b2f8589dee310c9d531d7fdbbbf292", "lon": -77.040133}, {"is_reserved": 0, "fusion_lon": 0.0, "fusion_lat": 0.0, "name": "92a58a3a6c1c5872f47e85e27ab6911a", "type": "electric_scooter", "is_disabled": 0, "lat": 38.908870666666665, "rental_uris": {"android": "https://dc.lft.to/lastmile_qr_scan", "ios": "https://dc.lft.to/lastmile_qr_scan"}, "bike_id": "92a58a3a6c1c5872f47e85e27ab6911a", "lon": -77.03760733333333}, {"is_reserved": 0, "fusion_lon": 0.0, "fusion_lat": 0.0, "name": "3ae8d7f594109ee4a2f5fb7fbae279f4", "type": "electric_scooter", "is_disabled": 0, "lat": 38.9207485, "rental_uris": {"android": "https://dc.lft.to/lastmile_qr_scan", "ios": "https://dc.lft.to/lastmile_qr_scan"}, "bike_id": "3ae8d7f594109ee4a2f5fb7fbae279f4", "lon": -77.01449883333333}, {"is_reserved": 0, "fusion_lon": 0.0, "fusion_lat": 0.0, "name": "29bd9f3ff89c4d2a3d7c43e76d53d1bc", "type": "electric_scooter", "is_disabled": 0, "lat": 38.9013505, "rental_uris": {"android": "https://dc.lft.to/lastmile_qr_scan", "ios": "https://dc.lft.to/lastmile_qr_scan"}, "bike_id": "29bd9f3ff89c4d2a3d7c43e76d53d1bc", "lon": -77.03967633333333}, {"is_reserved": 0, "fusion_lon": 0.0, "fusion_lat": 0.0, "name": "eff196b504b9f6f8bcf1a780b7f701f8", "type": "electric_scooter", "is_disabled": 0, "lat": 38.8666585, "rental_uris": {"android": "https://dc.lft.to/lastmile_qr_scan", "ios": "https://dc.lft.to/lastmile_qr_scan"}, "bike_id": "eff196b504b9f6f8bcf1a780b7f701f8", "lon": -76.98527616666667}, {"is_reserved": 0, "fusion_lon": 0.0, "fusion_lat": 0.0, "name": "2c4910175f861954831525cca9083f51", "type": "electric_scooter", "is_disabled": 0, "lat": 38.91793116666667, "rental_uris": {"android": "https://dc.lft.to/lastmile_qr_scan", "ios": "https://dc.lft.to/lastmile_qr_scan"}, "bike_id": "2c4910175f861954831525cca9083f51", "lon": -77.03210716666666}, {"is_reserved": 0, "fusion_lon": 0.0, "fusion_lat": 0.0, "name": "b93991abebb36dad1171e0bff7c46761", "type": "electric_scooter", "is_disabled": 0, "lat": 38.895271, "rental_uris": {"android": "https://dc.lft.to/lastmile_qr_scan", "ios": "https://dc.lft.to/lastmile_qr_scan"}, "bike_id": "b93991abebb36dad1171e0bff7c46761", "lon": -77.00339333333334}, {"is_reserved": 0, "fusion_lon": 0.0, "fusion_lat": 0.0, "name": "e4715662b4d08504870830989ab4d08a", "type": "electric_scooter", "is_disabled": 0, "lat": 38.89930116666667, "rental_uris": {"android": "https://dc.lft.to/lastmile_qr_scan", "ios": "https://dc.lft.to/lastmile_qr_scan"}, "bike_id": "e4715662b4d08504870830989ab4d08a", "lon": -77.0402735}, {"is_reserved": 0, "fusion_lon": 0.0, "fusion_lat": 0.0, "name": "9c82ad3c6a48a6ae2597f0c1754cae5f", "type": "electric_scooter", "is_disabled": 0, "lat": 38.8922855, "rental_uris": {"android": "https://dc.lft.to/lastmile_qr_scan", "ios": "https://dc.lft.to/lastmile_qr_scan"}, "bike_id": "9c82ad3c6a48a6ae2597f0c1754cae5f", "lon": -77.04374433333334}, {"is_reserved": 0, "fusion_lon": 0.0, "fusion_lat": 0.0, "name": "fd3371d19e12761cc3f72b06d69986c2", "type": "electric_scooter", "is_disabled": 0, "lat": 38.92328883333333, "rental_uris": {"android": "https://dc.lft.to/lastmile_qr_scan", "ios": "https://dc.lft.to/lastmile_qr_scan"}, "bike_id": "fd3371d19e12761cc3f72b06d69986c2", "lon": -77.04320416666667}, {"is_reserved": 0, "fusion_lon": 0.0, "fusion_lat": 0.0, "name": "06269b131e709cb33c96e66a96f85f2a", "type": "electric_scooter", "is_disabled": 0, "lat": 38.90778683333333, "rental_uris": {"android": "https://dc.lft.to/lastmile_qr_scan", "ios": "https://dc.lft.to/lastmile_qr_scan"}, "bike_id": "06269b131e709cb33c96e66a96f85f2a", "lon": -77.03825616666667}, {"is_reserved": 0, "fusion_lon": 0.0, "fusion_lat": 0.0, "name": "680a495c42e246ec38e013942a70f3be", "type": "electric_scooter", "is_disabled": 0, "lat": 38.92261766666667, "rental_uris": {"android": "https://dc.lft.to/lastmile_qr_scan", "ios": "https://dc.lft.to/lastmile_qr_scan"}, "bike_id": "680a495c42e246ec38e013942a70f3be", "lon": -77.018415}, {"is_reserved": 0, "fusion_lon": 0.0, "fusion_lat": 0.0, "name": "a67b3cd905be174926dfe1cd3009a7a7", "type": "electric_scooter", "is_disabled": 0, "lat": 38.94207733333333, "rental_uris": {"android": "https://dc.lft.to/lastmile_qr_scan", "ios": "https://dc.lft.to/lastmile_qr_scan"}, "bike_id": "a67b3cd905be174926dfe1cd3009a7a7", "lon": -77.02516016666667}, {"is_reserved": 0, "fusion_lon": 0.0, "fusion_lat": 0.0, "name": "2e008b7b115ef8ee662c5b23402feaa3", "type": "electric_scooter", "is_disabled": 0, "lat": 38.9118475, "rental_uris": {"android": "https://dc.lft.to/lastmile_qr_scan", "ios": "https://dc.lft.to/lastmile_qr_scan"}, "bike_id": "2e008b7b115ef8ee662c5b23402feaa3", "lon": -77.04351033333333}, {"is_reserved": 0, "fusion_lon": 0.0, "fusion_lat": 0.0, "name": "cbb5e862e77498f0a3a179fa2f2de585", "type": "electric_scooter", "is_disabled": 0, "lat": 38.90986316666667, "rental_uris": {"android": "https://dc.lft.to/lastmile_qr_scan", "ios": "https://dc.lft.to/lastmile_qr_scan"}, "bike_id": "cbb5e862e77498f0a3a179fa2f2de585", "lon": -77.031838}, {"is_reserved": 0, "fusion_lon": 0.0, "fusion_lat": 0.0, "name": "37a3d61981bb3755595597e1a4abe160", "type": "electric_scooter", "is_disabled": 0, "lat": 38.8923765, "rental_uris": {"android": "https://dc.lft.to/lastmile_qr_scan", "ios": "https://dc.lft.to/lastmile_qr_scan"}, "bike_id": "37a3d61981bb3755595597e1a4abe160", "lon": -77.03182216666667}, {"is_reserved": 0, "fusion_lon": 0.0, "fusion_lat": 0.0, "name": "be05a00622f0f0ce98726e1fd3801792", "type": "electric_scooter", "is_disabled": 0, "lat": 38.86644033333334, "rental_uris": {"android": "https://dc.lft.to/lastmile_qr_scan", "ios": "https://dc.lft.to/lastmile_qr_scan"}, "bike_id": "be05a00622f0f0ce98726e1fd3801792", "lon": -76.98261}, {"is_reserved": 0, "fusion_lon": 0.0, "fusion_lat": 0.0, "name": "05b38e12cc1b4789df064cf74895b442", "type": "electric_scooter", "is_disabled": 0, "lat": 38.8755035, "rental_uris": {"android": "https://dc.lft.to/lastmile_qr_scan", "ios": "https://dc.lft.to/lastmile_qr_scan"}, "bike_id": "05b38e12cc1b4789df064cf74895b442", "lon": -77.00536833333334}, {"is_reserved": 0, "fusion_lon": 0.0, "fusion_lat": 0.0, "name": "99a3b3baaf3619abf6420ccaeb74331d", "type": "electric_scooter", "is_disabled": 0, "lat": 38.90018666666667, "rental_uris": {"android": "https://dc.lft.to/lastmile_qr_scan", "ios": "https://dc.lft.to/lastmile_qr_scan"}, "bike_id": "99a3b3baaf3619abf6420ccaeb74331d", "lon": -77.041272}, {"is_reserved": 0, "fusion_lon": 0.0, "fusion_lat": 0.0, "name": "7c341b89409fdb4714d4119b011d7d24", "type": "electric_scooter", "is_disabled": 0, "lat": 38.91763616666667, "rental_uris": {"android": "https://dc.lft.to/lastmile_qr_scan", "ios": "https://dc.lft.to/lastmile_qr_scan"}, "bike_id": "7c341b89409fdb4714d4119b011d7d24", "lon": -77.01229816666667}, {"is_reserved": 0, "fusion_lon": 0.0, "fusion_lat": 0.0, "name": "ad009c2f824b6616f2a5cab055954f67", "type": "electric_scooter", "is_disabled": 0, "lat": 38.9041025, "rental_uris": {"android": "https://dc.lft.to/lastmile_qr_scan", "ios": "https://dc.lft.to/lastmile_qr_scan"}, "bike_id": "ad009c2f824b6616f2a5cab055954f67", "lon": -77.04370916666667}, {"is_reserved": 0, "fusion_lon": 0.0, "fusion_lat": 0.0, "name": "951f3a53a7b948ef539352977befa6ba", "type": "electric_scooter", "is_disabled": 0, "lat": 38.884950833333335, "rental_uris": {"android": "https://dc.lft.to/lastmile_qr_scan", "ios": "https://dc.lft.to/lastmile_qr_scan"}, "bike_id": "951f3a53a7b948ef539352977befa6ba", "lon": -77.01986866666667}, {"is_reserved": 0, "fusion_lon": 0.0, "fusion_lat": 0.0, "name": "bae09616a4bce96170e0dc55f932db43", "type": "electric_scooter", "is_disabled": 0, "lat": 38.894720166666666, "rental_uris": {"android": "https://dc.lft.to/lastmile_qr_scan", "ios": "https://dc.lft.to/lastmile_qr_scan"}, "bike_id": "bae09616a4bce96170e0dc55f932db43", "lon": -77.0013425}, {"is_reserved": 0, "fusion_lon": 0.0, "fusion_lat": 0.0, "name": "3bdf6c957eea3ad647bd1615aee21ef4", "type": "electric_scooter", "is_disabled": 0, "lat": 38.9204395, "rental_uris": {"android": "https://dc.lft.to/lastmile_qr_scan", "ios": "https://dc.lft.to/lastmile_qr_scan"}, "bike_id": "3bdf6c957eea3ad647bd1615aee21ef4", "lon": -77.02199716666667}, {"is_reserved": 0, "fusion_lon": 0.0, "fusion_lat": 0.0, "name": "a99be6f79ca42e9a7b1849058ad05d1e", "type": "electric_scooter", "is_disabled": 0, "lat": 38.96785116666667, "rental_uris": {"android": "https://dc.lft.to/lastmile_qr_scan", "ios": "https://dc.lft.to/lastmile_qr_scan"}, "bike_id": "a99be6f79ca42e9a7b1849058ad05d1e", "lon": -77.01510733333333}, {"is_reserved": 0, "fusion_lon": 0.0, "fusion_lat": 0.0, "name": "d99c66fdeef7c9fc0a91cb723b6308f2", "type": "electric_scooter", "is_disabled": 0, "lat": 38.8950115, "rental_uris": {"android": "https://dc.lft.to/lastmile_qr_scan", "ios": "https://dc.lft.to/lastmile_qr_scan"}, "bike_id": "d99c66fdeef7c9fc0a91cb723b6308f2", "lon": -77.02745233333333}, {"is_reserved": 0, "fusion_lon": 0.0, "fusion_lat": 0.0, "name": "4e039210fa0b2f912fe67d46c6e44a34", "type": "electric_scooter", "is_disabled": 0, "lat": 38.8924135, "rental_uris": {"android": "https://dc.lft.to/lastmile_qr_scan", "ios": "https://dc.lft.to/lastmile_qr_scan"}, "bike_id": "4e039210fa0b2f912fe67d46c6e44a34", "lon": -77.03213933333333}, {"is_reserved": 0, "fusion_lon": 0.0, "fusion_lat": 0.0, "name": "17c29646a66a47b17d643cee0b5a62d6", "type": "electric_scooter", "is_disabled": 0, "lat": 38.91890383333333, "rental_uris": {"android": "https://dc.lft.to/lastmile_qr_scan", "ios": "https://dc.lft.to/lastmile_qr_scan"}, "bike_id": "17c29646a66a47b17d643cee0b5a62d6", "lon": -77.0482365}, {"is_reserved": 0, "fusion_lon": 0.0, "fusion_lat": 0.0, "name": "75e50ba268c88c84737c9e4d6abd3448", "type": "electric_scooter", "is_disabled": 0, "lat": 38.906852, "rental_uris": {"android": "https://dc.lft.to/lastmile_qr_scan", "ios": "https://dc.lft.to/lastmile_qr_scan"}, "bike_id": "75e50ba268c88c84737c9e4d6abd3448", "lon": -77.005788}, {"is_reserved": 0, "fusion_lon": 0.0, "fusion_lat": 0.0, "name": "f54f06a79c77e1234b0c9a1950f1a1ca", "type": "electric_bike", "is_disabled": 0, "lat": 38.92899416666667, "rental_uris": {"android": "https://dc.lft.to/lastmile_qr_scan", "ios": "https://dc.lft.to/lastmile_qr_scan"}, "bike_id": "f54f06a79c77e1234b0c9a1950f1a1ca", "lon": -77.08398116666666}, {"is_reserved": 0, "fusion_lon": 0.0, "fusion_lat": 0.0, "name": "cc0bbe1690d0e4916f3c1ceb8222d31d", "type": "electric_bike", "is_disabled": 0, "lat": 39.042336, "rental_uris": {"android": "https://dc.lft.to/lastmile_qr_scan", "ios": "https://dc.lft.to/lastmile_qr_scan"}, "bike_id": "cc0bbe1690d0e4916f3c1ceb8222d31d", "lon": -77.0307225}, {"is_reserved": 0, "fusion_lon": 0.0, "fusion_lat": 0.0, "name": "bf42b1bdf25383390f981a7c0dac6f5d", "type": "electric_scooter", "is_disabled": 0, "lat": 38.869831833333336, "rental_uris": {"android": "https://dc.lft.to/lastmile_qr_scan", "ios": "https://dc.lft.to/lastmile_qr_scan"}, "bike_id": "bf42b1bdf25383390f981a7c0dac6f5d", "lon": -77.01235416666667}, {"is_reserved": 0, "fusion_lon": 0.0, "fusion_lat": 0.0, "name": "8a29bbc27a58a377a24c488e583a73af", "type": "electric_scooter", "is_disabled": 0, "lat": 38.919549, "rental_uris": {"android": "https://dc.lft.to/lastmile_qr_scan", "ios": "https://dc.lft.to/lastmile_qr_scan"}, "bike_id": "8a29bbc27a58a377a24c488e583a73af", "lon": -77.0288905}, {"is_reserved": 0, "fusion_lon": 0.0, "fusion_lat": 0.0, "name": "b7a62f5a39ff42e4370cdbad9d5185c8", "type": "electric_scooter", "is_disabled": 0, "lat": 38.93272866666667, "rental_uris": {"android": "https://dc.lft.to/lastmile_qr_scan", "ios": "https://dc.lft.to/lastmile_qr_scan"}, "bike_id": "b7a62f5a39ff42e4370cdbad9d5185c8", "lon": -77.020952}, {"is_reserved": 0, "fusion_lon": 0.0, "fusion_lat": 0.0, "name": "d57388e69966276da8567d0c445bbd65", "type": "electric_scooter", "is_disabled": 0, "lat": 38.942115, "rental_uris": {"android": "https://dc.lft.to/lastmile_qr_scan", "ios": "https://dc.lft.to/lastmile_qr_scan"}, "bike_id": "d57388e69966276da8567d0c445bbd65", "lon": -77.02517216666666}, {"is_reserved": 0, "fusion_lon": 0.0, "fusion_lat": 0.0, "name": "e3a585c349f13aa014dd77b82ce35d2c", "type": "electric_scooter", "is_disabled": 0, "lat": 38.9135405, "rental_uris": {"android": "https://dc.lft.to/lastmile_qr_scan", "ios": "https://dc.lft.to/lastmile_qr_scan"}, "bike_id": "e3a585c349f13aa014dd77b82ce35d2c", "lon": -77.02056583333334}, {"is_reserved": 0, "fusion_lon": 0.0, "fusion_lat": 0.0, "name": "d03f47fb4e22891182e4b87a957c7482", "type": "electric_bike", "is_disabled": 0, "lat": 38.9550915, "rental_uris": {"android": "https://dc.lft.to/lastmile_qr_scan", "ios": "https://dc.lft.to/lastmile_qr_scan"}, "bike_id": "d03f47fb4e22891182e4b87a957c7482", "lon": -76.99354866666667}, {"is_reserved": 0, "fusion_lon": 0.0, "fusion_lat": 0.0, "name": "7caf05f3d9a5c790b8a5ebd30012c0ad", "type": "electric_scooter", "is_disabled": 0, "lat": 38.9310055, "rental_uris": {"android": "https://dc.lft.to/lastmile_qr_scan", "ios": "https://dc.lft.to/lastmile_qr_scan"}, "bike_id": "7caf05f3d9a5c790b8a5ebd30012c0ad", "lon": -77.02790766666666}, {"is_reserved": 0, "fusion_lon": 0.0, "fusion_lat": 0.0, "name": "039e42b633455140a673834b7f2b8c21", "type": "electric_scooter", "is_disabled": 0, "lat": 38.892255166666665, "rental_uris": {"android": "https://dc.lft.to/lastmile_qr_scan", "ios": "https://dc.lft.to/lastmile_qr_scan"}, "bike_id": "039e42b633455140a673834b7f2b8c21", "lon": -77.04307983333334}, {"is_reserved": 0, "fusion_lon": 0.0, "fusion_lat": 0.0, "name": "9a1188f0a08cb19048358c22663a8160", "type": "electric_scooter", "is_disabled": 0, "lat": 38.929447333333336, "rental_uris": {"android": "https://dc.lft.to/lastmile_qr_scan", "ios": "https://dc.lft.to/lastmile_qr_scan"}, "bike_id": "9a1188f0a08cb19048358c22663a8160", "lon": -77.03658283333333}, {"is_reserved": 0, "fusion_lon": 0.0, "fusion_lat": 0.0, "name": "0b56c055f79c7dfd032b5197770c3f90", "type": "electric_bike", "is_disabled": 0, "lat": 38.93242033333333, "rental_uris": {"android": "https://dc.lft.to/lastmile_qr_scan", "ios": "https://dc.lft.to/lastmile_qr_scan"}, "bike_id": "0b56c055f79c7dfd032b5197770c3f90", "lon": -76.97421116666666}, {"is_reserved": 0, "fusion_lon": 0.0, "fusion_lat": 0.0, "name": "39fa8d30ba3bda398695509820986e8b", "type": "electric_scooter", "is_disabled": 0, "lat": 38.95839983333333, "rental_uris": {"android": "https://dc.lft.to/lastmile_qr_scan", "ios": "https://dc.lft.to/lastmile_qr_scan"}, "bike_id": "39fa8d30ba3bda398695509820986e8b", "lon": -77.01512016666666}, {"is_reserved": 0, "fusion_lon": 0.0, "fusion_lat": 0.0, "name": "3b50c17c767916f6047d9a319236420a", "type": "electric_scooter", "is_disabled": 0, "lat": 38.87649866666667, "rental_uris": {"android": "https://dc.lft.to/lastmile_qr_scan", "ios": "https://dc.lft.to/lastmile_qr_scan"}, "bike_id": "3b50c17c767916f6047d9a319236420a", "lon": -76.96506633333334}, {"is_reserved": 0, "fusion_lon": 0.0, "fusion_lat": 0.0, "name": "6b751b69b3aed58106d6b0d16d09c128", "type": "electric_scooter", "is_disabled": 0, "lat": 38.91440566666667, "rental_uris": {"android": "https://dc.lft.to/lastmile_qr_scan", "ios": "https://dc.lft.to/lastmile_qr_scan"}, "bike_id": "6b751b69b3aed58106d6b0d16d09c128", "lon": -77.0204485}, {"is_reserved": 0, "fusion_lon": 0.0, "fusion_lat": 0.0, "name": "87848a3b356a41006410c0f2353fd9b2", "type": "electric_scooter", "is_disabled": 0, "lat": 38.90272183333333, "rental_uris": {"android": "https://dc.lft.to/lastmile_qr_scan", "ios": "https://dc.lft.to/lastmile_qr_scan"}, "bike_id": "87848a3b356a41006410c0f2353fd9b2", "lon": -77.03958316666667}, {"is_reserved": 0, "fusion_lon": 0.0, "fusion_lat": 0.0, "name": "839c6c23b26e5efcf7d631ec38c0081b", "type": "electric_scooter", "is_disabled": 0, "lat": 38.90402266666667, "rental_uris": {"android": "https://dc.lft.to/lastmile_qr_scan", "ios": "https://dc.lft.to/lastmile_qr_scan"}, "bike_id": "839c6c23b26e5efcf7d631ec38c0081b", "lon": -77.03427633333334}, {"is_reserved": 0, "fusion_lon": 0.0, "fusion_lat": 0.0, "name": "de41e241983f51be6e1c9eaee077c3ba", "type": "electric_scooter", "is_disabled": 0, "lat": 38.90252666666667, "rental_uris": {"android": "https://dc.lft.to/lastmile_qr_scan", "ios": "https://dc.lft.to/lastmile_qr_scan"}, "bike_id": "de41e241983f51be6e1c9eaee077c3ba", "lon": -77.04345716666667}, {"is_reserved": 0, "fusion_lon": 0.0, "fusion_lat": 0.0, "name": "e8e388861436ba8dc09437a0c36ab3b1", "type": "electric_scooter", "is_disabled": 0, "lat": 38.9078645, "rental_uris": {"android": "https://dc.lft.to/lastmile_qr_scan", "ios": "https://dc.lft.to/lastmile_qr_scan"}, "bike_id": "e8e388861436ba8dc09437a0c36ab3b1", "lon": -77.07256066666666}, {"is_reserved": 0, "fusion_lon": 0.0, "fusion_lat": 0.0, "name": "c53a6be1cfdac06170f89fd5d15e9752", "type": "electric_bike", "is_disabled": 0, "lat": 39.0579575, "rental_uris": {"android": "https://dc.lft.to/lastmile_qr_scan", "ios": "https://dc.lft.to/lastmile_qr_scan"}, "bike_id": "c53a6be1cfdac06170f89fd5d15e9752", "lon": -77.15018033333334}, {"is_reserved": 0, "fusion_lon": 0.0, "fusion_lat": 0.0, "name": "0fee1fdc9b4c19c3377e5be3ff4cb91c", "type": "electric_bike", "is_disabled": 0, "lat": 38.855659833333334, "rental_uris": {"android": "https://dc.lft.to/lastmile_qr_scan", "ios": "https://dc.lft.to/lastmile_qr_scan"}, "bike_id": "0fee1fdc9b4c19c3377e5be3ff4cb91c", "lon": -77.0819455}, {"is_reserved": 0, "fusion_lon": 0.0, "fusion_lat": 0.0, "name": "67e93d4f2bba1e194593cfe5bc188aa9", "type": "electric_scooter", "is_disabled": 0, "lat": 38.930452, "rental_uris": {"android": "https://dc.lft.to/lastmile_qr_scan", "ios": "https://dc.lft.to/lastmile_qr_scan"}, "bike_id": "67e93d4f2bba1e194593cfe5bc188aa9", "lon": -77.03797733333333}, {"is_reserved": 0, "fusion_lon": 0.0, "fusion_lat": 0.0, "name": "c9eda8e0b783d4c30a6d3e6b292c5089", "type": "electric_scooter", "is_disabled": 0, "lat": 38.9028955, "rental_uris": {"android": "https://dc.lft.to/lastmile_qr_scan", "ios": "https://dc.lft.to/lastmile_qr_scan"}, "bike_id": "c9eda8e0b783d4c30a6d3e6b292c5089", "lon": -77.05814}, {"is_reserved": 0, "fusion_lon": 0.0, "fusion_lat": 0.0, "name": "ae409f05bd7d59c7239032142dd08ac6", "type": "electric_scooter", "is_disabled": 0, "lat": 38.953284, "rental_uris": {"android": "https://dc.lft.to/lastmile_qr_scan", "ios": "https://dc.lft.to/lastmile_qr_scan"}, "bike_id": "ae409f05bd7d59c7239032142dd08ac6", "lon": -77.07070516666667}, {"is_reserved": 0, "fusion_lon": 0.0, "fusion_lat": 0.0, "name": "d3fc40c0199913a99df842621a48a48e", "type": "electric_scooter", "is_disabled": 0, "lat": 38.910446666666665, "rental_uris": {"android": "https://dc.lft.to/lastmile_qr_scan", "ios": "https://dc.lft.to/lastmile_qr_scan"}, "bike_id": "d3fc40c0199913a99df842621a48a48e", "lon": -77.04088033333333}, {"is_reserved": 0, "fusion_lon": 0.0, "fusion_lat": 0.0, "name": "746f4ab0b5533c21cec9775d0920eadd", "type": "electric_scooter", "is_disabled": 0, "lat": 38.921683333333334, "rental_uris": {"android": "https://dc.lft.to/lastmile_qr_scan", "ios": "https://dc.lft.to/lastmile_qr_scan"}, "bike_id": "746f4ab0b5533c21cec9775d0920eadd", "lon": -77.0330755}, {"is_reserved": 0, "fusion_lon": 0.0, "fusion_lat": 0.0, "name": "8d2d1982ab7146967d3db7e620c1a39a", "type": "electric_scooter", "is_disabled": 0, "lat": 38.8952095, "rental_uris": {"android": "https://dc.lft.to/lastmile_qr_scan", "ios": "https://dc.lft.to/lastmile_qr_scan"}, "bike_id": "8d2d1982ab7146967d3db7e620c1a39a", "lon": -77.03958066666667}, {"is_reserved": 0, "fusion_lon": 0.0, "fusion_lat": 0.0, "name": "49c542f1314378f3022f6f2dc928c116", "type": "electric_scooter", "is_disabled": 0, "lat": 38.90346433333333, "rental_uris": {"android": "https://dc.lft.to/lastmile_qr_scan", "ios": "https://dc.lft.to/lastmile_qr_scan"}, "bike_id": "49c542f1314378f3022f6f2dc928c116", "lon": -77.0464235}, {"is_reserved": 0, "fusion_lon": 0.0, "fusion_lat": 0.0, "name": "9cf836e9436babd6d045c2ca07e43ab5", "type": "electric_scooter", "is_disabled": 0, "lat": 38.89297, "rental_uris": {"android": "https://dc.lft.to/lastmile_qr_scan", "ios": "https://dc.lft.to/lastmile_qr_scan"}, "bike_id": "9cf836e9436babd6d045c2ca07e43ab5", "lon": -76.93927916666667}, {"is_reserved": 0, "fusion_lon": 0.0, "fusion_lat": 0.0, "name": "be55a012b9bdf3297ed5d4733c4d5c00", "type": "electric_scooter", "is_disabled": 0, "lat": 38.88016833333333, "rental_uris": {"android": "https://dc.lft.to/lastmile_qr_scan", "ios": "https://dc.lft.to/lastmile_qr_scan"}, "bike_id": "be55a012b9bdf3297ed5d4733c4d5c00", "lon": -77.02480816666667}, {"is_reserved": 0, "fusion_lon": 0.0, "fusion_lat": 0.0, "name": "b4e3a9a5c899accecee6122ed8a22c5e", "type": "electric_scooter", "is_disabled": 0, "lat": 38.918265, "rental_uris": {"android": "https://dc.lft.to/lastmile_qr_scan", "ios": "https://dc.lft.to/lastmile_qr_scan"}, "bike_id": "b4e3a9a5c899accecee6122ed8a22c5e", "lon": -77.03692616666666}, {"is_reserved": 0, "fusion_lon": 0.0, "fusion_lat": 0.0, "name": "bffbc79ec6f75cef63a2989ccd3f229b", "type": "electric_scooter", "is_disabled": 0, "lat": 38.93678833333333, "rental_uris": {"android": "https://dc.lft.to/lastmile_qr_scan", "ios": "https://dc.lft.to/lastmile_qr_scan"}, "bike_id": "bffbc79ec6f75cef63a2989ccd3f229b", "lon": -77.03575133333334}, {"is_reserved": 0, "fusion_lon": 0.0, "fusion_lat": 0.0, "name": "9af2f2133d2312fc1a8236dfde540ab7", "type": "electric_scooter", "is_disabled": 0, "lat": 38.901608333333336, "rental_uris": {"android": "https://dc.lft.to/lastmile_qr_scan", "ios": "https://dc.lft.to/lastmile_qr_scan"}, "bike_id": "9af2f2133d2312fc1a8236dfde540ab7", "lon": -77.032064}, {"is_reserved": 0, "fusion_lon": 0.0, "fusion_lat": 0.0, "name": "5e62b2a1266eb174beede42cb5ed669e", "type": "electric_scooter", "is_disabled": 0, "lat": 38.87238283333333, "rental_uris": {"android": "https://dc.lft.to/lastmile_qr_scan", "ios": "https://dc.lft.to/lastmile_qr_scan"}, "bike_id": "5e62b2a1266eb174beede42cb5ed669e", "lon": -77.0117225}, {"is_reserved": 0, "fusion_lon": 0.0, "fusion_lat": 0.0, "name": "8eda08e4078326a6a8f4c88f06d955a2", "type": "electric_scooter", "is_disabled": 0, "lat": 38.898439333333336, "rental_uris": {"android": "https://dc.lft.to/lastmile_qr_scan", "ios": "https://dc.lft.to/lastmile_qr_scan"}, "bike_id": "8eda08e4078326a6a8f4c88f06d955a2", "lon": -77.007377}, {"is_reserved": 0, "fusion_lon": 0.0, "fusion_lat": 0.0, "name": "6687999b5b22e5ddc0b0d032425b7456", "type": "electric_scooter", "is_disabled": 0, "lat": 38.907365166666665, "rental_uris": {"android": "https://dc.lft.to/lastmile_qr_scan", "ios": "https://dc.lft.to/lastmile_qr_scan"}, "bike_id": "6687999b5b22e5ddc0b0d032425b7456", "lon": -76.986927}, {"is_reserved": 0, "fusion_lon": 0.0, "fusion_lat": 0.0, "name": "4cf9d308a9e13d5401a1912eefa65267", "type": "electric_scooter", "is_disabled": 0, "lat": 38.8922795, "rental_uris": {"android": "https://dc.lft.to/lastmile_qr_scan", "ios": "https://dc.lft.to/lastmile_qr_scan"}, "bike_id": "4cf9d308a9e13d5401a1912eefa65267", "lon": -77.04377883333333}, {"is_reserved": 0, "fusion_lon": 0.0, "fusion_lat": 0.0, "name": "449cb4809c672626da111824f0447e76", "type": "electric_scooter", "is_disabled": 0, "lat": 38.916605, "rental_uris": {"android": "https://dc.lft.to/lastmile_qr_scan", "ios": "https://dc.lft.to/lastmile_qr_scan"}, "bike_id": "449cb4809c672626da111824f0447e76", "lon": -77.0297425}, {"is_reserved": 0, "fusion_lon": 0.0, "fusion_lat": 0.0, "name": "c24cef436c519de9c418e308c7a63b0c", "type": "electric_scooter", "is_disabled": 0, "lat": 38.892239000000004, "rental_uris": {"android": "https://dc.lft.to/lastmile_qr_scan", "ios": "https://dc.lft.to/lastmile_qr_scan"}, "bike_id": "c24cef436c519de9c418e308c7a63b0c", "lon": -77.04371316666666}, {"is_reserved": 0, "fusion_lon": 0.0, "fusion_lat": 0.0, "name": "dd2a2a7f3783c7deeb20eb21b192710b", "type": "electric_scooter", "is_disabled": 0, "lat": 38.90984183333333, "rental_uris": {"android": "https://dc.lft.to/lastmile_qr_scan", "ios": "https://dc.lft.to/lastmile_qr_scan"}, "bike_id": "dd2a2a7f3783c7deeb20eb21b192710b", "lon": -77.04231266666666}, {"is_reserved": 0, "fusion_lon": 0.0, "fusion_lat": 0.0, "name": "e6155e26d283e69800b9c8b84c851b4a", "type": "electric_scooter", "is_disabled": 0, "lat": 38.901399833333336, "rental_uris": {"android": "https://dc.lft.to/lastmile_qr_scan", "ios": "https://dc.lft.to/lastmile_qr_scan"}, "bike_id": "e6155e26d283e69800b9c8b84c851b4a", "lon": -77.03975633333333}, {"is_reserved": 0, "fusion_lon": 0.0, "fusion_lat": 0.0, "name": "dc10dfe6815f84460c732a9b07bde83b", "type": "electric_scooter", "is_disabled": 0, "lat": 38.9025115, "rental_uris": {"android": "https://dc.lft.to/lastmile_qr_scan", "ios": "https://dc.lft.to/lastmile_qr_scan"}, "bike_id": "dc10dfe6815f84460c732a9b07bde83b", "lon": -77.043927}, {"is_reserved": 0, "fusion_lon": 0.0, "fusion_lat": 0.0, "name": "9def3a904f9b2119df0f9cb2e636550f", "type": "electric_scooter", "is_disabled": 0, "lat": 38.90580033333333, "rental_uris": {"android": "https://dc.lft.to/lastmile_qr_scan", "ios": "https://dc.lft.to/lastmile_qr_scan"}, "bike_id": "9def3a904f9b2119df0f9cb2e636550f", "lon": -77.04137766666666}, {"is_reserved": 0, "fusion_lon": 0.0, "fusion_lat": 0.0, "name": "a56d16f8258e20cebbc5287580d671df", "type": "electric_bike", "is_disabled": 0, "lat": 38.96475083333333, "rental_uris": {"android": "https://dc.lft.to/lastmile_qr_scan", "ios": "https://dc.lft.to/lastmile_qr_scan"}, "bike_id": "a56d16f8258e20cebbc5287580d671df", "lon": -77.0355845}, {"is_reserved": 0, "fusion_lon": 0.0, "fusion_lat": 0.0, "name": "62baa6f1a40cd94f0a39e1529f14a4b4", "type": "electric_scooter", "is_disabled": 0, "lat": 38.91591483333333, "rental_uris": {"android": "https://dc.lft.to/lastmile_qr_scan", "ios": "https://dc.lft.to/lastmile_qr_scan"}, "bike_id": "62baa6f1a40cd94f0a39e1529f14a4b4", "lon": -77.03193166666667}, {"is_reserved": 0, "fusion_lon": 0.0, "fusion_lat": 0.0, "name": "01cf2f93ca6de923cadaf112c7f5ab58", "type": "electric_bike", "is_disabled": 0, "lat": 38.94898166666667, "rental_uris": {"android": "https://dc.lft.to/lastmile_qr_scan", "ios": "https://dc.lft.to/lastmile_qr_scan"}, "bike_id": "01cf2f93ca6de923cadaf112c7f5ab58", "lon": -77.03442966666667}, {"is_reserved": 0, "fusion_lon": 0.0, "fusion_lat": 0.0, "name": "e793c49d9f78b8cd08f6f754ca346d4b", "type": "electric_scooter", "is_disabled": 0, "lat": 38.88212633333333, "rental_uris": {"android": "https://dc.lft.to/lastmile_qr_scan", "ios": "https://dc.lft.to/lastmile_qr_scan"}, "bike_id": "e793c49d9f78b8cd08f6f754ca346d4b", "lon": -76.92703433333334}, {"is_reserved": 0, "fusion_lon": 0.0, "fusion_lat": 0.0, "name": "f58d27156bc0d8f7d8e93fc74388e511", "type": "electric_scooter", "is_disabled": 0, "lat": 38.89646416666667, "rental_uris": {"android": "https://dc.lft.to/lastmile_qr_scan", "ios": "https://dc.lft.to/lastmile_qr_scan"}, "bike_id": "f58d27156bc0d8f7d8e93fc74388e511", "lon": -77.02188733333334}, {"is_reserved": 0, "fusion_lon": 0.0, "fusion_lat": 0.0, "name": "1c199795f09daf93acb435ec2cc824c8", "type": "electric_bike", "is_disabled": 0, "lat": 38.8120815, "rental_uris": {"android": "https://dc.lft.to/lastmile_qr_scan", "ios": "https://dc.lft.to/lastmile_qr_scan"}, "bike_id": "1c199795f09daf93acb435ec2cc824c8", "lon": -77.10839783333333}, {"is_reserved": 0, "fusion_lon": 0.0, "fusion_lat": 0.0, "name": "a13410f923d90908737c400b64525aac", "type": "electric_scooter", "is_disabled": 0, "lat": 38.909747333333335, "rental_uris": {"android": "https://dc.lft.to/lastmile_qr_scan", "ios": "https://dc.lft.to/lastmile_qr_scan"}, "bike_id": "a13410f923d90908737c400b64525aac", "lon": -77.0343435}, {"is_reserved": 0, "fusion_lon": 0.0, "fusion_lat": 0.0, "name": "0cfd01007193683b08271954296f2398", "type": "electric_scooter", "is_disabled": 0, "lat": 38.904438166666665, "rental_uris": {"android": "https://dc.lft.to/lastmile_qr_scan", "ios": "https://dc.lft.to/lastmile_qr_scan"}, "bike_id": "0cfd01007193683b08271954296f2398", "lon": -77.04340233333333}, {"is_reserved": 0, "fusion_lon": 0.0, "fusion_lat": 0.0, "name": "d6000d07319623bec9cbd04e62aedea5", "type": "electric_scooter", "is_disabled": 0, "lat": 38.902420666666664, "rental_uris": {"android": "https://dc.lft.to/lastmile_qr_scan", "ios": "https://dc.lft.to/lastmile_qr_scan"}, "bike_id": "d6000d07319623bec9cbd04e62aedea5", "lon": -77.002021}, {"is_reserved": 0, "fusion_lon": 0.0, "fusion_lat": 0.0, "name": "95c35be503318a0973323f732b0a2d09", "type": "electric_scooter", "is_disabled": 0, "lat": 38.93102016666667, "rental_uris": {"android": "https://dc.lft.to/lastmile_qr_scan", "ios": "https://dc.lft.to/lastmile_qr_scan"}, "bike_id": "95c35be503318a0973323f732b0a2d09", "lon": -77.02788533333333}, {"is_reserved": 0, "fusion_lon": 0.0, "fusion_lat": 0.0, "name": "3e5a6a1d0aa82dab0bacacabcf39c386", "type": "electric_scooter", "is_disabled": 0, "lat": 38.9170075, "rental_uris": {"android": "https://dc.lft.to/lastmile_qr_scan", "ios": "https://dc.lft.to/lastmile_qr_scan"}, "bike_id": "3e5a6a1d0aa82dab0bacacabcf39c386", "lon": -77.033086}, {"is_reserved": 0, "fusion_lon": 0.0, "fusion_lat": 0.0, "name": "d273f1f06fd289795bbbdf3ff7201a7f", "type": "electric_scooter", "is_disabled": 0, "lat": 38.917241833333335, "rental_uris": {"android": "https://dc.lft.to/lastmile_qr_scan", "ios": "https://dc.lft.to/lastmile_qr_scan"}, "bike_id": "d273f1f06fd289795bbbdf3ff7201a7f", "lon": -77.0366615}, {"is_reserved": 0, "fusion_lon": 0.0, "fusion_lat": 0.0, "name": "5c73f023fe084f1e15947a480b98b64e", "type": "electric_scooter", "is_disabled": 0, "lat": 38.908631, "rental_uris": {"android": "https://dc.lft.to/lastmile_qr_scan", "ios": "https://dc.lft.to/lastmile_qr_scan"}, "bike_id": "5c73f023fe084f1e15947a480b98b64e", "lon": -77.0344555}, {"is_reserved": 0, "fusion_lon": 0.0, "fusion_lat": 0.0, "name": "156689d7f57391f804a981cd21f3efcc", "type": "electric_scooter", "is_disabled": 0, "lat": 38.955040833333335, "rental_uris": {"android": "https://dc.lft.to/lastmile_qr_scan", "ios": "https://dc.lft.to/lastmile_qr_scan"}, "bike_id": "156689d7f57391f804a981cd21f3efcc", "lon": -77.02964283333333}, {"is_reserved": 0, "fusion_lon": 0.0, "fusion_lat": 0.0, "name": "745163ba1d5a0752d2cc93d93b15bfec", "type": "electric_scooter", "is_disabled": 0, "lat": 38.906442166666665, "rental_uris": {"android": "https://dc.lft.to/lastmile_qr_scan", "ios": "https://dc.lft.to/lastmile_qr_scan"}, "bike_id": "745163ba1d5a0752d2cc93d93b15bfec", "lon": -77.06904133333333}, {"is_reserved": 0, "fusion_lon": 0.0, "fusion_lat": 0.0, "name": "483be53c4f6612ff02721670061936d7", "type": "electric_bike", "is_disabled": 0, "lat": 38.8920585, "rental_uris": {"android": "https://dc.lft.to/lastmile_qr_scan", "ios": "https://dc.lft.to/lastmile_qr_scan"}, "bike_id": "483be53c4f6612ff02721670061936d7", "lon": -77.0029335}, {"is_reserved": 0, "fusion_lon": 0.0, "fusion_lat": 0.0, "name": "45094c88378ab2d3b460e82a8c213a41", "type": "electric_scooter", "is_disabled": 0, "lat": 38.90072466666667, "rental_uris": {"android": "https://dc.lft.to/lastmile_qr_scan", "ios": "https://dc.lft.to/lastmile_qr_scan"}, "bike_id": "45094c88378ab2d3b460e82a8c213a41", "lon": -77.04533583333334}, {"is_reserved": 0, "fusion_lon": 0.0, "fusion_lat": 0.0, "name": "0f35fc4b2226c8d0695950325da888b7", "type": "electric_bike", "is_disabled": 0, "lat": 38.935101333333336, "rental_uris": {"android": "https://dc.lft.to/lastmile_qr_scan", "ios": "https://dc.lft.to/lastmile_qr_scan"}, "bike_id": "0f35fc4b2226c8d0695950325da888b7", "lon": -76.9980565}, {"is_reserved": 0, "fusion_lon": 0.0, "fusion_lat": 0.0, "name": "319b51bd3720f165dc8f651bcff6ae62", "type": "electric_scooter", "is_disabled": 0, "lat": 38.886069666666664, "rental_uris": {"android": "https://dc.lft.to/lastmile_qr_scan", "ios": "https://dc.lft.to/lastmile_qr_scan"}, "bike_id": "319b51bd3720f165dc8f651bcff6ae62", "lon": -76.99097583333334}, {"is_reserved": 0, "fusion_lon": 0.0, "fusion_lat": 0.0, "name": "ebdb6943a655a9beeb997ae89f288685", "type": "electric_scooter", "is_disabled": 0, "lat": 38.904328666666665, "rental_uris": {"android": "https://dc.lft.to/lastmile_qr_scan", "ios": "https://dc.lft.to/lastmile_qr_scan"}, "bike_id": "ebdb6943a655a9beeb997ae89f288685", "lon": -77.053266}, {"is_reserved": 0, "fusion_lon": 0.0, "fusion_lat": 0.0, "name": "2356bd8e740b7f2e40f1364796da6a38", "type": "electric_scooter", "is_disabled": 0, "lat": 38.91620666666667, "rental_uris": {"android": "https://dc.lft.to/lastmile_qr_scan", "ios": "https://dc.lft.to/lastmile_qr_scan"}, "bike_id": "2356bd8e740b7f2e40f1364796da6a38", "lon": -77.02202933333334}, {"is_reserved": 0, "fusion_lon": 0.0, "fusion_lat": 0.0, "name": "c85a4eb5f72d18d1f08428bd0ee064f4", "type": "electric_scooter", "is_disabled": 0, "lat": 38.9083515, "rental_uris": {"android": "https://dc.lft.to/lastmile_qr_scan", "ios": "https://dc.lft.to/lastmile_qr_scan"}, "bike_id": "c85a4eb5f72d18d1f08428bd0ee064f4", "lon": -77.03838616666667}, {"is_reserved": 0, "fusion_lon": 0.0, "fusion_lat": 0.0, "name": "430bdd3d9a9017b26ae3bdbd389d8cd6", "type": "electric_scooter", "is_disabled": 0, "lat": 38.86257333333333, "rental_uris": {"android": "https://dc.lft.to/lastmile_qr_scan", "ios": "https://dc.lft.to/lastmile_qr_scan"}, "bike_id": "430bdd3d9a9017b26ae3bdbd389d8cd6", "lon": -76.995161}, {"is_reserved": 0, "fusion_lon": 0.0, "fusion_lat": 0.0, "name": "5ece57f5d1decfe84c0b54e15dc544a9", "type": "electric_scooter", "is_disabled": 0, "lat": 38.915576, "rental_uris": {"android": "https://dc.lft.to/lastmile_qr_scan", "ios": "https://dc.lft.to/lastmile_qr_scan"}, "bike_id": "5ece57f5d1decfe84c0b54e15dc544a9", "lon": -77.02206833333334}, {"is_reserved": 0, "fusion_lon": 0.0, "fusion_lat": 0.0, "name": "09a2c67941515b16808d413e495056f3", "type": "electric_scooter", "is_disabled": 0, "lat": 38.88744233333333, "rental_uris": {"android": "https://dc.lft.to/lastmile_qr_scan", "ios": "https://dc.lft.to/lastmile_qr_scan"}, "bike_id": "09a2c67941515b16808d413e495056f3", "lon": -77.02212566666667}, {"is_reserved": 0, "fusion_lon": 0.0, "fusion_lat": 0.0, "name": "d75b35e7f58c317f3b8935f9ebc00568", "type": "electric_scooter", "is_disabled": 0, "lat": 38.895147333333334, "rental_uris": {"android": "https://dc.lft.to/lastmile_qr_scan", "ios": "https://dc.lft.to/lastmile_qr_scan"}, "bike_id": "d75b35e7f58c317f3b8935f9ebc00568", "lon": -77.046774}, {"is_reserved": 0, "fusion_lon": 0.0, "fusion_lat": 0.0, "name": "0332bbb41e50e095144aa45742f21ad5", "type": "electric_scooter", "is_disabled": 0, "lat": 38.904584, "rental_uris": {"android": "https://dc.lft.to/lastmile_qr_scan", "ios": "https://dc.lft.to/lastmile_qr_scan"}, "bike_id": "0332bbb41e50e095144aa45742f21ad5", "lon": -77.0448225}, {"is_reserved": 0, "fusion_lon": 0.0, "fusion_lat": 0.0, "name": "94f28b81d2b8c3ceb0c01067bec33e7f", "type": "electric_scooter", "is_disabled": 0, "lat": 38.90280583333333, "rental_uris": {"android": "https://dc.lft.to/lastmile_qr_scan", "ios": "https://dc.lft.to/lastmile_qr_scan"}, "bike_id": "94f28b81d2b8c3ceb0c01067bec33e7f", "lon": -77.04185433333333}, {"is_reserved": 0, "fusion_lon": 0.0, "fusion_lat": 0.0, "name": "5c0f10152aac125a3a23fd65e2e2bafd", "type": "electric_scooter", "is_disabled": 0, "lat": 38.90692116666666, "rental_uris": {"android": "https://dc.lft.to/lastmile_qr_scan", "ios": "https://dc.lft.to/lastmile_qr_scan"}, "bike_id": "5c0f10152aac125a3a23fd65e2e2bafd", "lon": -77.03863633333333}, {"is_reserved": 0, "fusion_lon": 0.0, "fusion_lat": 0.0, "name": "0ff4ca6fd760bdee188f6ad91bc24ccf", "type": "electric_scooter", "is_disabled": 0, "lat": 38.881295, "rental_uris": {"android": "https://dc.lft.to/lastmile_qr_scan", "ios": "https://dc.lft.to/lastmile_qr_scan"}, "bike_id": "0ff4ca6fd760bdee188f6ad91bc24ccf", "lon": -77.016711}, {"is_reserved": 0, "fusion_lon": 0.0, "fusion_lat": 0.0, "name": "a5ff21b3bd7b5fb227f521d2d4523834", "type": "electric_scooter", "is_disabled": 0, "lat": 38.90973666666667, "rental_uris": {"android": "https://dc.lft.to/lastmile_qr_scan", "ios": "https://dc.lft.to/lastmile_qr_scan"}, "bike_id": "a5ff21b3bd7b5fb227f521d2d4523834", "lon": -77.03291966666667}, {"is_reserved": 0, "fusion_lon": 0.0, "fusion_lat": 0.0, "name": "d242d3bdced64c2350eddfab80b0df36", "type": "electric_scooter", "is_disabled": 0, "lat": 38.90013016666666, "rental_uris": {"android": "https://dc.lft.to/lastmile_qr_scan", "ios": "https://dc.lft.to/lastmile_qr_scan"}, "bike_id": "d242d3bdced64c2350eddfab80b0df36", "lon": -76.98873766666667}, {"is_reserved": 0, "fusion_lon": 0.0, "fusion_lat": 0.0, "name": "55aaa12e472475f182f64755b63080e1", "type": "electric_scooter", "is_disabled": 0, "lat": 38.91762533333333, "rental_uris": {"android": "https://dc.lft.to/lastmile_qr_scan", "ios": "https://dc.lft.to/lastmile_qr_scan"}, "bike_id": "55aaa12e472475f182f64755b63080e1", "lon": -77.02816683333333}, {"is_reserved": 0, "fusion_lon": 0.0, "fusion_lat": 0.0, "name": "0ad9c436b750b99b93b3bda4735c7871", "type": "electric_scooter", "is_disabled": 0, "lat": 38.88429466666667, "rental_uris": {"android": "https://dc.lft.to/lastmile_qr_scan", "ios": "https://dc.lft.to/lastmile_qr_scan"}, "bike_id": "0ad9c436b750b99b93b3bda4735c7871", "lon": -76.99699566666666}, {"is_reserved": 0, "fusion_lon": 0.0, "fusion_lat": 0.0, "name": "821d39ea9002166aacca4434d379ecc2", "type": "electric_scooter", "is_disabled": 0, "lat": 38.9039935, "rental_uris": {"android": "https://dc.lft.to/lastmile_qr_scan", "ios": "https://dc.lft.to/lastmile_qr_scan"}, "bike_id": "821d39ea9002166aacca4434d379ecc2", "lon": -77.03870783333333}, {"is_reserved": 0, "fusion_lon": 0.0, "fusion_lat": 0.0, "name": "a38730e69680640a9041d2895236a346", "type": "electric_scooter", "is_disabled": 0, "lat": 38.87486483333333, "rental_uris": {"android": "https://dc.lft.to/lastmile_qr_scan", "ios": "https://dc.lft.to/lastmile_qr_scan"}, "bike_id": "a38730e69680640a9041d2895236a346", "lon": -77.009345}, {"is_reserved": 0, "fusion_lon": 0.0, "fusion_lat": 0.0, "name": "d7897c18904966bf9cfc40c900ff6c21", "type": "electric_scooter", "is_disabled": 0, "lat": 38.90730716666667, "rental_uris": {"android": "https://dc.lft.to/lastmile_qr_scan", "ios": "https://dc.lft.to/lastmile_qr_scan"}, "bike_id": "d7897c18904966bf9cfc40c900ff6c21", "lon": -77.03821}, {"is_reserved": 0, "fusion_lon": 0.0, "fusion_lat": 0.0, "name": "ed18d5f9d2d75ec565a0ac21323fa559", "type": "electric_scooter", "is_disabled": 0, "lat": 38.89221383333334, "rental_uris": {"android": "https://dc.lft.to/lastmile_qr_scan", "ios": "https://dc.lft.to/lastmile_qr_scan"}, "bike_id": "ed18d5f9d2d75ec565a0ac21323fa559", "lon": -77.02225183333333}, {"is_reserved": 0, "fusion_lon": 0.0, "fusion_lat": 0.0, "name": "8b2f4120ba77266097dff834e209a4bb", "type": "electric_scooter", "is_disabled": 0, "lat": 38.92851683333333, "rental_uris": {"android": "https://dc.lft.to/lastmile_qr_scan", "ios": "https://dc.lft.to/lastmile_qr_scan"}, "bike_id": "8b2f4120ba77266097dff834e209a4bb", "lon": -77.03283316666666}, {"is_reserved": 0, "fusion_lon": 0.0, "fusion_lat": 0.0, "name": "8b09537fac01df290712227252523ddd", "type": "electric_scooter", "is_disabled": 0, "lat": 38.90241416666667, "rental_uris": {"android": "https://dc.lft.to/lastmile_qr_scan", "ios": "https://dc.lft.to/lastmile_qr_scan"}, "bike_id": "8b09537fac01df290712227252523ddd", "lon": -77.026842}, {"is_reserved": 0, "fusion_lon": 0.0, "fusion_lat": 0.0, "name": "7e07a2087d3521f12bf29419379a8135", "type": "electric_scooter", "is_disabled": 0, "lat": 38.91819366666667, "rental_uris": {"android": "https://dc.lft.to/lastmile_qr_scan", "ios": "https://dc.lft.to/lastmile_qr_scan"}, "bike_id": "7e07a2087d3521f12bf29419379a8135", "lon": -77.0370165}, {"is_reserved": 0, "fusion_lon": 0.0, "fusion_lat": 0.0, "name": "ac1ec3b75821a1db0d951c9cde3fd56b", "type": "electric_scooter", "is_disabled": 0, "lat": 38.86661183333333, "rental_uris": {"android": "https://dc.lft.to/lastmile_qr_scan", "ios": "https://dc.lft.to/lastmile_qr_scan"}, "bike_id": "ac1ec3b75821a1db0d951c9cde3fd56b", "lon": -76.98881166666666}, {"is_reserved": 0, "fusion_lon": 0.0, "fusion_lat": 0.0, "name": "104cd84510016d08e83ecb450170cc58", "type": "electric_scooter", "is_disabled": 0, "lat": 38.90677016666667, "rental_uris": {"android": "https://dc.lft.to/lastmile_qr_scan", "ios": "https://dc.lft.to/lastmile_qr_scan"}, "bike_id": "104cd84510016d08e83ecb450170cc58", "lon": -77.03837783333333}, {"is_reserved": 0, "fusion_lon": 0.0, "fusion_lat": 0.0, "name": "5ebc888bdce1f5f505a08364c1609e8f", "type": "electric_scooter", "is_disabled": 0, "lat": 38.89609033333333, "rental_uris": {"android": "https://dc.lft.to/lastmile_qr_scan", "ios": "https://dc.lft.to/lastmile_qr_scan"}, "bike_id": "5ebc888bdce1f5f505a08364c1609e8f", "lon": -77.03170433333334}, {"is_reserved": 0, "fusion_lon": 0.0, "fusion_lat": 0.0, "name": "3d21df8b6eb46f4a52c39772b2484bc4", "type": "electric_bike", "is_disabled": 0, "lat": 38.956561666666666, "rental_uris": {"android": "https://dc.lft.to/lastmile_qr_scan", "ios": "https://dc.lft.to/lastmile_qr_scan"}, "bike_id": "3d21df8b6eb46f4a52c39772b2484bc4", "lon": -77.0128245}, {"is_reserved": 0, "fusion_lon": 0.0, "fusion_lat": 0.0, "name": "855b07efc15926d956b456e37d468659", "type": "electric_scooter", "is_disabled": 0, "lat": 38.932732666666666, "rental_uris": {"android": "https://dc.lft.to/lastmile_qr_scan", "ios": "https://dc.lft.to/lastmile_qr_scan"}, "bike_id": "855b07efc15926d956b456e37d468659", "lon": -77.0283655}, {"is_reserved": 0, "fusion_lon": 0.0, "fusion_lat": 0.0, "name": "0e3343055824b7bd8f4daa3073246974", "type": "electric_scooter", "is_disabled": 0, "lat": 38.9046155, "rental_uris": {"android": "https://dc.lft.to/lastmile_qr_scan", "ios": "https://dc.lft.to/lastmile_qr_scan"}, "bike_id": "0e3343055824b7bd8f4daa3073246974", "lon": -77.037915}, {"is_reserved": 0, "fusion_lon": 0.0, "fusion_lat": 0.0, "name": "05a3d8e3227683584cbb54e254f4725d", "type": "electric_bike", "is_disabled": 0, "lat": 38.98823183333333, "rental_uris": {"android": "https://dc.lft.to/lastmile_qr_scan", "ios": "https://dc.lft.to/lastmile_qr_scan"}, "bike_id": "05a3d8e3227683584cbb54e254f4725d", "lon": -77.0264985}, {"is_reserved": 0, "fusion_lon": 0.0, "fusion_lat": 0.0, "name": "55d7230c933389c2ed05c0dae3f8aada", "type": "electric_scooter", "is_disabled": 0, "lat": 38.87143316666667, "rental_uris": {"android": "https://dc.lft.to/lastmile_qr_scan", "ios": "https://dc.lft.to/lastmile_qr_scan"}, "bike_id": "55d7230c933389c2ed05c0dae3f8aada", "lon": -77.00702583333333}, {"is_reserved": 0, "fusion_lon": 0.0, "fusion_lat": 0.0, "name": "da8cf7fe078524bfc4e85d6f29c8a987", "type": "electric_scooter", "is_disabled": 0, "lat": 38.92746666666667, "rental_uris": {"android": "https://dc.lft.to/lastmile_qr_scan", "ios": "https://dc.lft.to/lastmile_qr_scan"}, "bike_id": "da8cf7fe078524bfc4e85d6f29c8a987", "lon": -77.02489883333334}, {"is_reserved": 0, "fusion_lon": 0.0, "fusion_lat": 0.0, "name": "29f35f1cc085bbc266fdec0a253d9d4b", "type": "electric_scooter", "is_disabled": 0, "lat": 38.904631333333334, "rental_uris": {"android": "https://dc.lft.to/lastmile_qr_scan", "ios": "https://dc.lft.to/lastmile_qr_scan"}, "bike_id": "29f35f1cc085bbc266fdec0a253d9d4b", "lon": -77.03785016666667}, {"is_reserved": 0, "fusion_lon": 0.0, "fusion_lat": 0.0, "name": "54403a79edf79897b4f552f249d91f78", "type": "electric_scooter", "is_disabled": 0, "lat": 38.900716833333334, "rental_uris": {"android": "https://dc.lft.to/lastmile_qr_scan", "ios": "https://dc.lft.to/lastmile_qr_scan"}, "bike_id": "54403a79edf79897b4f552f249d91f78", "lon": -77.01524066666667}, {"is_reserved": 0, "fusion_lon": 0.0, "fusion_lat": 0.0, "name": "c9c54419fdb6bb2c7bd519b7892f5896", "type": "electric_scooter", "is_disabled": 0, "lat": 38.908037, "rental_uris": {"android": "https://dc.lft.to/lastmile_qr_scan", "ios": "https://dc.lft.to/lastmile_qr_scan"}, "bike_id": "c9c54419fdb6bb2c7bd519b7892f5896", "lon": -77.0386075}, {"is_reserved": 0, "fusion_lon": 0.0, "fusion_lat": 0.0, "name": "b7c4c4a433fc5033e2123b91515cc6da", "type": "electric_bike", "is_disabled": 0, "lat": 38.910204666666665, "rental_uris": {"android": "https://dc.lft.to/lastmile_qr_scan", "ios": "https://dc.lft.to/lastmile_qr_scan"}, "bike_id": "b7c4c4a433fc5033e2123b91515cc6da", "lon": -77.22799816666667}, {"is_reserved": 0, "fusion_lon": 0.0, "fusion_lat": 0.0, "name": "cf8ac13cd3efb409d7dc97ae62fc09d7", "type": "electric_scooter", "is_disabled": 0, "lat": 38.92316183333333, "rental_uris": {"android": "https://dc.lft.to/lastmile_qr_scan", "ios": "https://dc.lft.to/lastmile_qr_scan"}, "bike_id": "cf8ac13cd3efb409d7dc97ae62fc09d7", "lon": -77.02761683333334}, {"is_reserved": 0, "fusion_lon": 0.0, "fusion_lat": 0.0, "name": "d531dab4047d75bc0ae4d7f057937aa2", "type": "electric_scooter", "is_disabled": 0, "lat": 38.900384333333335, "rental_uris": {"android": "https://dc.lft.to/lastmile_qr_scan", "ios": "https://dc.lft.to/lastmile_qr_scan"}, "bike_id": "d531dab4047d75bc0ae4d7f057937aa2", "lon": -76.99852283333334}, {"is_reserved": 0, "fusion_lon": 0.0, "fusion_lat": 0.0, "name": "834d88d78a6bf362434577296d5fa8fb", "type": "electric_scooter", "is_disabled": 0, "lat": 38.8626205, "rental_uris": {"android": "https://dc.lft.to/lastmile_qr_scan", "ios": "https://dc.lft.to/lastmile_qr_scan"}, "bike_id": "834d88d78a6bf362434577296d5fa8fb", "lon": -76.99512066666666}, {"is_reserved": 0, "fusion_lon": 0.0, "fusion_lat": 0.0, "name": "c3d34fc10293aac0c8a526bab3dd9d9e", "type": "electric_scooter", "is_disabled": 0, "lat": 38.87498033333333, "rental_uris": {"android": "https://dc.lft.to/lastmile_qr_scan", "ios": "https://dc.lft.to/lastmile_qr_scan"}, "bike_id": "c3d34fc10293aac0c8a526bab3dd9d9e", "lon": -76.99975783333333}, {"is_reserved": 0, "fusion_lon": 0.0, "fusion_lat": 0.0, "name": "15af3426cac47f4a791d0ee4c5710bf7", "type": "electric_scooter", "is_disabled": 0, "lat": 38.9277185, "rental_uris": {"android": "https://dc.lft.to/lastmile_qr_scan", "ios": "https://dc.lft.to/lastmile_qr_scan"}, "bike_id": "15af3426cac47f4a791d0ee4c5710bf7", "lon": -77.02783083333334}, {"is_reserved": 0, "fusion_lon": 0.0, "fusion_lat": 0.0, "name": "18ae4de6b9ae53ee39193ff81c58f2a5", "type": "electric_bike", "is_disabled": 0, "lat": 38.880648, "rental_uris": {"android": "https://dc.lft.to/lastmile_qr_scan", "ios": "https://dc.lft.to/lastmile_qr_scan"}, "bike_id": "18ae4de6b9ae53ee39193ff81c58f2a5", "lon": -76.962369}, {"is_reserved": 0, "fusion_lon": 0.0, "fusion_lat": 0.0, "name": "b5323ed8b556269031694a5bf89efbf7", "type": "electric_scooter", "is_disabled": 0, "lat": 38.91799966666667, "rental_uris": {"android": "https://dc.lft.to/lastmile_qr_scan", "ios": "https://dc.lft.to/lastmile_qr_scan"}, "bike_id": "b5323ed8b556269031694a5bf89efbf7", "lon": -77.04021033333333}, {"is_reserved": 0, "fusion_lon": 0.0, "fusion_lat": 0.0, "name": "a2c19aaa587b41f9caa7f7cea2c2a0bf", "type": "electric_scooter", "is_disabled": 0, "lat": 38.94213216666667, "rental_uris": {"android": "https://dc.lft.to/lastmile_qr_scan", "ios": "https://dc.lft.to/lastmile_qr_scan"}, "bike_id": "a2c19aaa587b41f9caa7f7cea2c2a0bf", "lon": -77.0251295}, {"is_reserved": 0, "fusion_lon": 0.0, "fusion_lat": 0.0, "name": "5f63325a5e7ac05c216583eda57726ea", "type": "electric_bike", "is_disabled": 0, "lat": 38.8728385, "rental_uris": {"android": "https://dc.lft.to/lastmile_qr_scan", "ios": "https://dc.lft.to/lastmile_qr_scan"}, "bike_id": "5f63325a5e7ac05c216583eda57726ea", "lon": -77.2331565}, {"is_reserved": 0, "fusion_lon": 0.0, "fusion_lat": 0.0, "name": "120d15e9ed98dafdffb3e29e94f22580", "type": "electric_scooter", "is_disabled": 0, "lat": 38.867022666666664, "rental_uris": {"android": "https://dc.lft.to/lastmile_qr_scan", "ios": "https://dc.lft.to/lastmile_qr_scan"}, "bike_id": "120d15e9ed98dafdffb3e29e94f22580", "lon": -76.98591966666666}, {"is_reserved": 0, "fusion_lon": 0.0, "fusion_lat": 0.0, "name": "eab65aa443bd484b75286bc6f6724184", "type": "electric_scooter", "is_disabled": 0, "lat": 38.9185755, "rental_uris": {"android": "https://dc.lft.to/lastmile_qr_scan", "ios": "https://dc.lft.to/lastmile_qr_scan"}, "bike_id": "eab65aa443bd484b75286bc6f6724184", "lon": -77.01671883333333}, {"is_reserved": 0, "fusion_lon": 0.0, "fusion_lat": 0.0, "name": "f4ade8f63140ec89a5b77ca56f784497", "type": "electric_scooter", "is_disabled": 0, "lat": 38.904053166666664, "rental_uris": {"android": "https://dc.lft.to/lastmile_qr_scan", "ios": "https://dc.lft.to/lastmile_qr_scan"}, "bike_id": "f4ade8f63140ec89a5b77ca56f784497", "lon": -77.03842133333333}, {"is_reserved": 0, "fusion_lon": 0.0, "fusion_lat": 0.0, "name": "5454e48e0c0e02b2f6228d63d88d686d", "type": "electric_bike", "is_disabled": 0, "lat": 38.9614575, "rental_uris": {"android": "https://dc.lft.to/lastmile_qr_scan", "ios": "https://dc.lft.to/lastmile_qr_scan"}, "bike_id": "5454e48e0c0e02b2f6228d63d88d686d", "lon": -77.023003}, {"is_reserved": 0, "fusion_lon": 0.0, "fusion_lat": 0.0, "name": "6533e4d40cfc5f60738c8c50b35481d3", "type": "electric_scooter", "is_disabled": 0, "lat": 38.907361333333334, "rental_uris": {"android": "https://dc.lft.to/lastmile_qr_scan", "ios": "https://dc.lft.to/lastmile_qr_scan"}, "bike_id": "6533e4d40cfc5f60738c8c50b35481d3", "lon": -77.01133716666666}, {"is_reserved": 0, "fusion_lon": 0.0, "fusion_lat": 0.0, "name": "110ceeda67014a19ed4893bc86cdbeb7", "type": "electric_scooter", "is_disabled": 0, "lat": 38.9245405, "rental_uris": {"android": "https://dc.lft.to/lastmile_qr_scan", "ios": "https://dc.lft.to/lastmile_qr_scan"}, "bike_id": "110ceeda67014a19ed4893bc86cdbeb7", "lon": -77.0411515}, {"is_reserved": 0, "fusion_lon": 0.0, "fusion_lat": 0.0, "name": "a945c179e6cf23ea327b3c09b2faccd6", "type": "electric_scooter", "is_disabled": 0, "lat": 38.88734433333333, "rental_uris": {"android": "https://dc.lft.to/lastmile_qr_scan", "ios": "https://dc.lft.to/lastmile_qr_scan"}, "bike_id": "a945c179e6cf23ea327b3c09b2faccd6", "lon": -77.02825983333334}, {"is_reserved": 0, "fusion_lon": 0.0, "fusion_lat": 0.0, "name": "aa969b166a0b496503bc45055957ea34", "type": "electric_scooter", "is_disabled": 0, "lat": 38.921817, "rental_uris": {"android": "https://dc.lft.to/lastmile_qr_scan", "ios": "https://dc.lft.to/lastmile_qr_scan"}, "bike_id": "aa969b166a0b496503bc45055957ea34", "lon": -77.02104833333334}, {"is_reserved": 0, "fusion_lon": 0.0, "fusion_lat": 0.0, "name": "5e0d79034e343d6939b73340687d02dd", "type": "electric_scooter", "is_disabled": 0, "lat": 38.90394083333333, "rental_uris": {"android": "https://dc.lft.to/lastmile_qr_scan", "ios": "https://dc.lft.to/lastmile_qr_scan"}, "bike_id": "5e0d79034e343d6939b73340687d02dd", "lon": -77.03195066666666}, {"is_reserved": 0, "fusion_lon": 0.0, "fusion_lat": 0.0, "name": "6a52337c980337bcfd9dafd474e1ee8b", "type": "electric_scooter", "is_disabled": 0, "lat": 38.922225166666664, "rental_uris": {"android": "https://dc.lft.to/lastmile_qr_scan", "ios": "https://dc.lft.to/lastmile_qr_scan"}, "bike_id": "6a52337c980337bcfd9dafd474e1ee8b", "lon": -77.07307683333333}, {"is_reserved": 0, "fusion_lon": 0.0, "fusion_lat": 0.0, "name": "663de9a57d7cd744b15c71b550a99c03", "type": "electric_scooter", "is_disabled": 0, "lat": 38.90728883333333, "rental_uris": {"android": "https://dc.lft.to/lastmile_qr_scan", "ios": "https://dc.lft.to/lastmile_qr_scan"}, "bike_id": "663de9a57d7cd744b15c71b550a99c03", "lon": -77.01680466666667}, {"is_reserved": 0, "fusion_lon": 0.0, "fusion_lat": 0.0, "name": "a89bfa4f44c042b353612d64da016373", "type": "electric_scooter", "is_disabled": 0, "lat": 38.88505033333333, "rental_uris": {"android": "https://dc.lft.to/lastmile_qr_scan", "ios": "https://dc.lft.to/lastmile_qr_scan"}, "bike_id": "a89bfa4f44c042b353612d64da016373", "lon": -77.00564966666667}, {"is_reserved": 0, "fusion_lon": 0.0, "fusion_lat": 0.0, "name": "eb969db029c45ecb331d677f8581d128", "type": "electric_bike", "is_disabled": 0, "lat": 38.89810966666667, "rental_uris": {"android": "https://dc.lft.to/lastmile_qr_scan", "ios": "https://dc.lft.to/lastmile_qr_scan"}, "bike_id": "eb969db029c45ecb331d677f8581d128", "lon": -77.00591216666666}, {"is_reserved": 0, "fusion_lon": 0.0, "fusion_lat": 0.0, "name": "4053c90f90052046bb39170e7db85a8a", "type": "electric_scooter", "is_disabled": 0, "lat": 38.924898166666665, "rental_uris": {"android": "https://dc.lft.to/lastmile_qr_scan", "ios": "https://dc.lft.to/lastmile_qr_scan"}, "bike_id": "4053c90f90052046bb39170e7db85a8a", "lon": -77.03502966666667}, {"is_reserved": 0, "fusion_lon": 0.0, "fusion_lat": 0.0, "name": "ef6459ca1bafbfabf3ccebb6321d3731", "type": "electric_scooter", "is_disabled": 0, "lat": 38.93033283333333, "rental_uris": {"android": "https://dc.lft.to/lastmile_qr_scan", "ios": "https://dc.lft.to/lastmile_qr_scan"}, "bike_id": "ef6459ca1bafbfabf3ccebb6321d3731", "lon": -77.01301366666667}, {"is_reserved": 0, "fusion_lon": 0.0, "fusion_lat": 0.0, "name": "2d5fe5be3486490b8135fedbcf1bd8c0", "type": "electric_scooter", "is_disabled": 0, "lat": 38.90745583333333, "rental_uris": {"android": "https://dc.lft.to/lastmile_qr_scan", "ios": "https://dc.lft.to/lastmile_qr_scan"}, "bike_id": "2d5fe5be3486490b8135fedbcf1bd8c0", "lon": -77.0436955}, {"is_reserved": 0, "fusion_lon": 0.0, "fusion_lat": 0.0, "name": "e390397f7b53bda4ed4d8a6122bced80", "type": "electric_scooter", "is_disabled": 0, "lat": 38.8972115, "rental_uris": {"android": "https://dc.lft.to/lastmile_qr_scan", "ios": "https://dc.lft.to/lastmile_qr_scan"}, "bike_id": "e390397f7b53bda4ed4d8a6122bced80", "lon": -77.02132533333334}, {"is_reserved": 0, "fusion_lon": 0.0, "fusion_lat": 0.0, "name": "f3b34016e5bf172402c395e6965265de", "type": "electric_scooter", "is_disabled": 0, "lat": 38.899172166666666, "rental_uris": {"android": "https://dc.lft.to/lastmile_qr_scan", "ios": "https://dc.lft.to/lastmile_qr_scan"}, "bike_id": "f3b34016e5bf172402c395e6965265de", "lon": -77.0329405}, {"is_reserved": 0, "fusion_lon": 0.0, "fusion_lat": 0.0, "name": "cd35a3f0c4e296aa038ce9cdff5d309d", "type": "electric_scooter", "is_disabled": 0, "lat": 38.878864666666665, "rental_uris": {"android": "https://dc.lft.to/lastmile_qr_scan", "ios": "https://dc.lft.to/lastmile_qr_scan"}, "bike_id": "cd35a3f0c4e296aa038ce9cdff5d309d", "lon": -77.02314233333334}, {"is_reserved": 0, "fusion_lon": 0.0, "fusion_lat": 0.0, "name": "36f57515499e85a16f7049c018062223", "type": "electric_scooter", "is_disabled": 0, "lat": 38.8922855, "rental_uris": {"android": "https://dc.lft.to/lastmile_qr_scan", "ios": "https://dc.lft.to/lastmile_qr_scan"}, "bike_id": "36f57515499e85a16f7049c018062223", "lon": -77.04507533333333}, {"is_reserved": 0, "fusion_lon": 0.0, "fusion_lat": 0.0, "name": "6c50865be276a75d84eef57200772099", "type": "electric_scooter", "is_disabled": 0, "lat": 38.8872425, "rental_uris": {"android": "https://dc.lft.to/lastmile_qr_scan", "ios": "https://dc.lft.to/lastmile_qr_scan"}, "bike_id": "6c50865be276a75d84eef57200772099", "lon": -77.02174183333334}, {"is_reserved": 0, "fusion_lon": 0.0, "fusion_lat": 0.0, "name": "d3520fa582b727df0011ee262c2ce6a3", "type": "electric_scooter", "is_disabled": 0, "lat": 38.95234033333333, "rental_uris": {"android": "https://dc.lft.to/lastmile_qr_scan", "ios": "https://dc.lft.to/lastmile_qr_scan"}, "bike_id": "d3520fa582b727df0011ee262c2ce6a3", "lon": -77.0142825}, {"is_reserved": 0, "fusion_lon": 0.0, "fusion_lat": 0.0, "name": "cbc2e72befcd5ea8a9156e9b77600ab1", "type": "electric_scooter", "is_disabled": 0, "lat": 38.912748, "rental_uris": {"android": "https://dc.lft.to/lastmile_qr_scan", "ios": "https://dc.lft.to/lastmile_qr_scan"}, "bike_id": "cbc2e72befcd5ea8a9156e9b77600ab1", "lon": -77.02911966666667}, {"is_reserved": 0, "fusion_lon": 0.0, "fusion_lat": 0.0, "name": "f93b5b54484320413c4bff3131e6d983", "type": "electric_scooter", "is_disabled": 0, "lat": 38.90028216666666, "rental_uris": {"android": "https://dc.lft.to/lastmile_qr_scan", "ios": "https://dc.lft.to/lastmile_qr_scan"}, "bike_id": "f93b5b54484320413c4bff3131e6d983", "lon": -77.0118}, {"is_reserved": 0, "fusion_lon": 0.0, "fusion_lat": 0.0, "name": "3bf8e1e69e131d5c5263842c699b82ba", "type": "electric_scooter", "is_disabled": 0, "lat": 38.90965766666667, "rental_uris": {"android": "https://dc.lft.to/lastmile_qr_scan", "ios": "https://dc.lft.to/lastmile_qr_scan"}, "bike_id": "3bf8e1e69e131d5c5263842c699b82ba", "lon": -77.0341165}, {"is_reserved": 0, "fusion_lon": 0.0, "fusion_lat": 0.0, "name": "fb880ccd4257d89c36ee0097bbb18775", "type": "electric_bike", "is_disabled": 0, "lat": 38.9467235, "rental_uris": {"android": "https://dc.lft.to/lastmile_qr_scan", "ios": "https://dc.lft.to/lastmile_qr_scan"}, "bike_id": "fb880ccd4257d89c36ee0097bbb18775", "lon": -76.9830545}, {"is_reserved": 0, "fusion_lon": 0.0, "fusion_lat": 0.0, "name": "3c6864a5c4f620b21c138c250d79b554", "type": "electric_scooter", "is_disabled": 0, "lat": 38.89914983333333, "rental_uris": {"android": "https://dc.lft.to/lastmile_qr_scan", "ios": "https://dc.lft.to/lastmile_qr_scan"}, "bike_id": "3c6864a5c4f620b21c138c250d79b554", "lon": -76.93361716666666}, {"is_reserved": 0, "fusion_lon": 0.0, "fusion_lat": 0.0, "name": "5010c3b6b309feb0b4c4116c4e5a7b20", "type": "electric_scooter", "is_disabled": 0, "lat": 38.917379333333336, "rental_uris": {"android": "https://dc.lft.to/lastmile_qr_scan", "ios": "https://dc.lft.to/lastmile_qr_scan"}, "bike_id": "5010c3b6b309feb0b4c4116c4e5a7b20", "lon": -77.03641666666667}, {"is_reserved": 0, "fusion_lon": 0.0, "fusion_lat": 0.0, "name": "c2e8319441031cfe2ae9c0e07ead4a96", "type": "electric_bike", "is_disabled": 0, "lat": 38.8520985, "rental_uris": {"android": "https://dc.lft.to/lastmile_qr_scan", "ios": "https://dc.lft.to/lastmile_qr_scan"}, "bike_id": "c2e8319441031cfe2ae9c0e07ead4a96", "lon": -77.10128466666667}, {"is_reserved": 0, "fusion_lon": 0.0, "fusion_lat": 0.0, "name": "3de1646fa0c41a4a45ca8eeb47e00279", "type": "electric_scooter", "is_disabled": 0, "lat": 38.907270833333335, "rental_uris": {"android": "https://dc.lft.to/lastmile_qr_scan", "ios": "https://dc.lft.to/lastmile_qr_scan"}, "bike_id": "3de1646fa0c41a4a45ca8eeb47e00279", "lon": -77.04969566666666}, {"is_reserved": 0, "fusion_lon": 0.0, "fusion_lat": 0.0, "name": "0c2857a86b40a4da2e823c539d58f516", "type": "electric_scooter", "is_disabled": 0, "lat": 38.8980595, "rental_uris": {"android": "https://dc.lft.to/lastmile_qr_scan", "ios": "https://dc.lft.to/lastmile_qr_scan"}, "bike_id": "0c2857a86b40a4da2e823c539d58f516", "lon": -77.04509616666667},